LineNo,TimeUS,Instance,RPM,RawRPM,Volt,Curr,Temp,CTot,MotTemp,Err
1514,64665763,1,0,0,16.23,0.04,26,0,0,0
1934,64773782,1,0,0,16.23,0.04,26,0,0,0
2351,64877006,1,0,0,16.23,0.04,26,0,0,0
2766,64988243,1,0,0,16.23,0.04,26,0,0,0
3219,65099847,1,0,0,16.23,0.04,26,0,0,0
3627,65202599,1,0,0,16.23,0.04,26,0,0,0
4086,65318997,1,0,0,16.23,0.04,26,0,0,0
4508,65425361,1,0,0,16.23,0.04,26,0,0,0
4915,65528261,1,0,0,16.23,0.04,26,0,0,0
5368,65640046,1,0,0,16.23,0.04,26,0,0,0
5784,65748720,1,0,0,16.23,0.04,26,0,0,0
6198,65851246,1,0,0,16.23,0.04,26,0,0,0
7021,66058836,1,0,0,16.22,0.04,26,0,0,0
7465,66168473,1,0,0,16.23,0.04,26,0,0,0
8872,66492848,1,0,0,16.23,0.04,26,0,0,0
9359,66601375,1,0,0,16.23,0.04,26,0,0,0
9858,66718821,1,0,0,16.23,0.04,26,0,0,0
10316,66825229,1,0,0,16.23,0.04,26,0,0,0
10771,66932916,1,0,0,16.23,0.04,26,0,0,0
11224,67034458,1,0,0,16.23,0.04,26,0,0,0
11717,67148560,1,0,0,16.23,0.04,26,0,0,0
12172,67250433,1,0,0,16.23,0.04,26,0,0,0
12623,67358777,1,0,0,16.22,0.04,26,0,0,0
13123,67473460,1,0,0,16.23,0.04,26,0,0,0
13570,67578744,1,0,0,16.22,0.04,26,0,0,0
14022,67680992,1,0,0,16.23,0.04,26,0,0,0
14478,67790020,1,0,0,16.23,0.03,26,0,0,0
14930,67893751,1,0,0,16.23,0.04,26,0,0,0
15425,68011002,1,0,0,16.23,0.03,26,0,0,0
16337,68224256,1,6,185,16.22,0.03,26,0,0,0
16789,68329533,1,209,571,16.21,0.09,26,0,0,0
17293,68445962,1,612,971,16.17,0.15,26,0,0,0
17702,68544113,1,981,1214,16.21,0.12,26,0,0,0
18155,68647829,1,1214,1257,16.21,0.11,26,0,0,0
18652,68763859,1,1259,1285,16.21,0.11,26,0,0,0
19105,68867995,1,1286,1300,16.21,0.11,26,0,0,0
19556,68973910,1,1300,1300,16.22,0.11,26,0,0,0
20055,69084894,1,1300,1300,16.22,0.11,26,0,0,0
20292,69193935,1,1300,1300,16.22,0.11,26,0,0,0
20746,69296231,1,1300,1300,16.21,0.11,26,0,0,0
21203,69402961,1,1300,1314,16.21,0.11,26,0,0,0
21656,69512235,1,1313,1300,16.2,0.11,26,0,0,0
22147,69619863,1,1300,1300,16.22,0.11,26,0,0,0
22608,69730504,1,1300,1300,16.21,0.09999999,26,0,0,0
23108,69846976,1,1300,1300,16.21,0.11,26,0,0,0
23516,69942974,1,1300,1300,16.2,0.09999999,26,0,0,0
24013,70055462,1,1300,1300,16.22,0.09999999,26,0,0,0
24503,70166798,1,1301,1314,16.21,0.09999999,26,0,0,0
24958,70268780,1,1314,1314,16.22,0.11,26,0,0,0
25412,70374839,1,1313,1300,16.21,0.09999999,26,0,0,0
25910,70488589,1,1300,1300,16.22,0.11,26,0,0,0
26363,70595526,1,1300,1300,16.21,0.09999999,26,0,0,0
26862,70706979,1,1300,1314,16.21,0.09999999,26,0,0,0
27275,70807936,1,1314,1314,16.2,0.09999999,27,0,0,0
27772,70921094,1,1314,1314,16.22,0.09999999,26,0,0,0
28185,71021993,1,1314,1314,16.22,0.09999999,26,0,0,0
28677,71134932,1,1314,1314,16.22,0.09999999,26,0,0,0
29132,71237915,1,1313,1300,16.21,0.11,26,0,0,0
29590,71348979,1,1300,1300,16.21,0.09999999,26,0,0,0
30047,71452869,1,1300,1300,16.21,0.11,26,0,0,0
30541,71566859,1,1300,1300,16.21,0.09999999,26,0,0,0
30995,71667131,1,1300,1300,16.21,0.11,26,0,0,0
31451,71775895,1,1300,1314,16.21,0.09999999,26,0,0,0
31949,71888016,1,1312,1300,16.21,0.09999999,26,0,0,0
32405,71997873,1,1300,1300,16.2,0.09999999,26,0,0,0
32857,72100995,1,1300,1314,16.2,0.09999999,26,0,0,0
33352,72216652,1,1312,1300,16.21,0.09999999,26,0,0,0
33763,72314923,1,1300,1300,16.21,0.11,27,0,0,0
34259,72427933,1,1300,1300,16.2,0.11,27,0,0,0
34716,72539536,1,1300,1300,16.2,0.09999999,26,0,0,0
35173,72643809,1,1300,1300,16.2,0.11,27,0,0,0
35632,72755232,1,1300,1314,16.2,0.09999999,27,0,0,0
36086,72858812,1,1313,1300,16.21,0.09999999,27,0,0,0
36537,72965451,1,1300,1300,16.21,0.09999999,27,0,0,0
37034,73078275,1,1300,1300,16.21,0.09999999,27,0,0,0
37523,73186470,1,1300,1300,16.2,0.09999999,27,0,0,0
37976,73287858,1,1300,1300,16.2,0.11,27,0,0,0
38430,73396914,1,1300,1314,16.21,0.11,27,0,0,0
38931,73515452,1,1314,1314,16.2,0.11,27,0,0,0
39339,73610803,1,1314,1314,16.2,0.09999999,27,0,0,0
39800,73718864,1,1313,1300,16.21,0.11,27,0,0,0
40297,73830486,1,1300,1300,16.2,0.11,27,0,0,0
40750,73936856,1,1300,1300,16.2,0.09999999,27,0,0,0
41247,74050808,1,1300,1300,16.21,0.09999999,27,0,0,0
41699,74157662,1,1301,1314,16.2,0.09999999,27,0,0,0
42154,74260485,1,1313,1300,16.21,0.09999999,27,0,0,0
42605,74367714,1,1300,1314,16.21,0.09999999,27,0,0,0
43105,74483751,1,1314,1314,16.2,0.09999999,27,0,0,0
43558,74589268,1,1314,1314,16.2,0.09999999,27,0,0,0
44013,74690542,1,1314,1314,16.21,0.09999999,27,0,0,0
44469,74797855,1,1314,1314,16.21,0.09999999,27,0,0,0
44969,74917029,1,1314,1314,16.21,0.09999999,27,0,0,0
45381,75011508,1,1314,1314,16.2,0.09999999,27,0,0,0
45873,75124830,1,1314,1314,16.21,0.09999999,27,0,0,0
46330,75228137,1,1314,1314,16.21,0.09999999,27,0,0,0
46821,75342266,1,1312,1300,16.2,0.09999999,27,0,0,0
47276,75446455,1,1300,1300,16.21,0.09999999,27,0,0,0
47732,75554145,1,1300,1300,16.2,0.09999999,27,0,0,0
48191,75658362,1,1300,1300,16.2,0.11,27,0,0,0
48644,75763858,1,1300,1314,16.21,0.09999999,27,0,0,0
49143,75876917,1,1314,1314,16.21,0.09999999,27,0,0,0
49598,75985910,1,1314,1314,16.22,0.09999999,27,0,0,0
50036,76089955,1,1297,414,16.22,0,27,0,0,0
50533,76208729,1,396,214,16.22,0.03,27,0,0,0
50988,76312086,1,206,0,16.22,0.03,27,0,0,0
51479,76427338,1,0,0,16.22,0.03,27,0,0,0
51892,76529356,1,0,0,16.23,0.04,27,0,0,0
52349,76637352,1,0,0,16.22,0.03,27,0,0,0
52802,76745144,1,0,0,16.23,0.03,26,0,0,0
53303,76864529,1,0,0,16.22,0.03,27,0,0,0
53756,76971513,1,0,0,16.23,0.03,27,0,0,0
54207,77077866,1,0,0,16.22,0.03,27,0,0,0
54665,77187643,1,0,0,16.22,0.03,27,0,0,0
55117,77292100,1,0,0,16.22,0.03,27,0,0,0
55564,77397884,1,0,0,16.22,0.03,27,0,0,0
56021,77509355,1,0,0,16.22,0.03,27,0,0,0
56519,77624493,1,0,0,16.22,0.03,27,0,0,0
56931,77723927,1,0,0,16.22,0.04,27,0,0,0
57385,77827862,1,0,0,16.22,0.04,27,0,0,0
57834,77935132,1,0,0,16.22,0.04,27,0,0,0
58335,78052364,1,0,0,16.23,0.04,27,0,0,0
58748,78154215,1,0,0,16.23,0.03,26,0,0,0
59245,78267046,1,0,0,16.23,0.04,26,0,0,0
60151,78481577,1,0,0,16.22,0.04,26,0,0,0
60603,78590975,1,0,0,16.23,0.03,26,0,0,0
61103,78707373,1,0,0,16.22,0.03,27,0,0,0
61555,78812368,1,0,0,16.22,0.04,27,0,0,0
62010,78921826,1,0,0,16.22,0.04,27,0,0,0
62462,79025342,1,0,0,16.22,0.04,27,0,0,0
62920,79137690,1,0,0,16.22,0.04,27,0,0,0
63373,79243565,1,0,0,16.23,0.04,27,0,0,0
63596,79353537,1,0,0,16.22,0.04,27,0,0,0
64092,79467508,1,0,0,16.22,0.04,27,0,0,0
64543,79575889,1,0,0,16.22,0.03,27,0,0,0
64998,79679259,1,0,0,16.22,0.04,27,0,0,0
65457,79793356,1,0,0,16.22,0.04,27,0,0,0
65916,79897931,1,0,0,16.22,0.03,27,0,0,0
66367,80007006,1,0,0,16.22,0.04,27,0,0,0
66864,80125307,1,0,0,16.22,0.03,27,0,0,0
67318,80228920,1,0,0,16.23,0.04,27,0,0,0
67768,80335722,1,0,0,16.22,0.04,27,0,0,0
68267,80453822,1,0,0,16.22,0.04,27,0,0,0
68713,80556815,1,0,0,16.22,0.03,27,0,0,0
69215,80674865,1,0,0,16.23,0.04,27,0,0,0
69626,80775584,1,0,0,16.22,0.04,27,0,0,0
70080,80880529,1,0,0,16.22,0.04,27,0,0,0
70571,80994757,1,0,0,16.22,0.04,27,0,0,0
71072,81113500,1,0,0,16.22,0.04,27,0,0,0
71484,81208892,1,0,0,16.22,0.04,26,0,0,0
71976,81324922,1,0,0,16.22,0.04,27,0,0,0
72429,81432121,1,0,0,16.22,0.03,27,0,0,0
72880,81539959,1,0,0,16.23,0.04,27,0,0,0
73381,81655889,1,0,0,16.23,0.04,27,0,0,0
73833,81764762,1,0,0,16.22,0.04,27,0,0,0
74287,81869582,1,0,0,16.22,0.04,27,0,0,0
74779,81983604,1,0,0,16.22,0.04,27,0,0,0
75232,82088396,1,0,0,16.23,0.04,27,0,0,0
75730,82207618,1,0,0,16.22,0.04,27,0,0,0
76634,82419596,1,0,0,16.22,0.04,27,0,0,0
77088,82530870,1,0,0,16.23,0.04,27,0,0,0
77545,82636902,1,0,0,16.23,0.04,27,0,0,0
77996,82744322,1,0,0,16.22,0.04,27,0,0,0
78497,82862284,1,0,0,16.22,0.04,27,0,0,0
78947,82968575,1,0,0,16.22,0.04,27,0,0,0
79448,83085267,1,0,0,16.22,0.04,27,0,0,0
79903,83193841,1,0,0,16.22,0.04,27,0,0,0
80354,83304020,1,0,0,16.23,0.03,27,0,0,0
80810,83411332,1,0,0,16.23,0.04,27,0,0,0
81258,83515863,1,0,0,16.23,0.04,27,0,0,0
81715,83622044,1,0,0,16.22,0.04,27,0,0,0
82171,83731844,1,0,0,16.22,0.04,27,0,0,0
82667,83845939,1,0,0,16.23,0.04,27,0,0,0
83115,83951353,1,0,0,16.23,0.04,27,0,0,0
83617,84065355,1,0,0,16.23,0.04,27,0,0,0
84065,84171026,1,0,0,16.23,0.04,27,0,0,0
84566,84284022,1,0,0,16.23,0.04,27,0,0,0
85018,84391218,1,0,0,16.23,0.04,27,0,0,0
85474,84499183,1,0,0,16.23,0.04,27,0,0,0
85929,84607928,1,0,0,16.23,0.04,27,0,0,0
86879,84829778,1,0,0,16.22,0.04,27,0,0,0
87286,84929810,1,0,0,16.22,0.04,27,0,0,0
87787,85043593,1,0,0,16.22,0.04,27,0,0,0
88237,85149174,1,0,0,16.23,0.04,27,0,0,0
88735,85264848,1,0,0,16.22,0.04,27,0,0,0
89185,85373786,1,0,0,16.23,0.03,27,0,0,0
89638,85477379,1,0,0,16.22,0.04,27,0,0,0
90591,85705546,1,0,0,16.23,0.03,27,0,0,0
91046,85814832,1,0,0,16.23,0.03,27,0,0,0
91454,85911278,1,0,0,16.23,0.04,27,0,0,0
91952,86027993,1,0,0,16.23,0.04,27,0,0,0
92403,86131770,1,0,0,16.22,0.04,27,0,0,0
92861,86237950,1,0,0,16.23,0.04,27,0,0,0
93316,86348751,1,0,0,16.22,0.04,27,0,0,0
93769,86454474,1,0,0,16.23,0.03,27,0,0,0
94263,86571881,1,0,0,16.22,0.04,27,0,0,0
94716,86675598,1,0,0,16.23,0.03,27,0,0,0
95167,86782822,1,0,0,16.22,0.03,27,0,0,0
95663,86896985,1,0,0,16.23,0.03,27,0,0,0
96119,87003235,1,0,0,16.23,0.04,27,0,0,0
96614,87116250,1,0,0,16.22,0.04,27,0,0,0
97069,87220386,1,0,0,16.22,0.04,27,0,0,0
97520,87330931,1,0,0,16.22,0.03,27,0,0,0
97972,87434239,1,0,0,16.23,0.03,27,0,0,0
98432,87545240,1,0,0,16.22,0.04,27,0,0,0
98928,87660837,1,0,0,16.22,0.03,27,0,0,0
99369,87761883,1,0,0,16.22,0.03,27,0,0,0
99865,87876113,1,0,0,16.23,0.03,27,0,0,0
100319,87984249,1,0,0,16.22,0.04,27,0,0,0
100818,88100024,1,0,0,16.22,0.03,27,0,0,0
101231,88201112,1,0,0,16.22,0.03,27,0,0,0
101684,88311565,1,0,0,16.22,0.03,27,0,0,0
102136,88419024,1,0,0,16.23,0.03,27,0,0,0
102631,88536465,1,0,0,16.22,0.04,27,0,0,0
103092,88644510,1,0,0,16.22,0.04,27,0,0,0
103547,88751563,1,0,0,16.22,0.03,27,0,0,0
104045,88868031,1,0,0,16.22,0.04,27,0,0,0
104498,88976917,1,0,0,16.22,0.04,27,0,0,0
104951,89079361,1,0,0,16.22,0.04,27,0,0,0
105405,89187358,1,0,0,16.22,0.03,27,0,0,0
105861,89292293,1,0,0,16.22,0.03,27,0,0,0
106312,89400943,1,0,0,16.22,0.03,27,0,0,0
106761,89506021,1,0,0,16.22,0.03,27,0,0,0
107263,89621536,1,0,0,16.23,0.03,27,0,0,0
107714,89727329,1,0,0,16.22,0.03,27,0,0,0
108167,89830365,1,0,0,16.22,0.03,27,0,0,0
108656,89941888,1,0,0,16.22,0.03,27,0,0,0
109608,90159479,1,0,0,16.23,0.03,27,0,0,0
110067,90265804,1,0,0,16.22,0.03,27,0,0,0
110481,90368040,1,0,0,16.22,0.04,27,0,0,0
110977,90479362,1,0,0,16.22,0.03,27,0,0,0
111430,90585770,1,0,0,16.23,0.04,27,0,0,0
111882,90689460,1,2,171,16.22,0.03,27,0,0,0
112334,90794817,1,175,442,16.21,0.07000000000000001,27,0,0,0
112831,90908175,1,458,885,16.2,0.13,27,0,0,0
113325,91019806,1,912,1171,16.21,0.13,27,0,0,0
113777,91124890,1,1176,1257,16.21,0.11,27,0,0,0
114230,91226964,1,1257,1285,16.2,0.11,27,0,0,0
114729,91343579,1,1286,1300,16.21,0.09999999,27,0,0,0
115183,91450246,1,1301,1314,16.2,0.09999999,27,0,0,0
115637,91557848,1,1314,1314,16.21,0.11,27,0,0,0
116089,91660144,1,1314,1314,16.2,0.11,27,0,0,0
116843,91876709,1,1314,1314,16.21,0.11,27,0,0,0
117327,91985915,1,1314,1314,16.21,0.11,27,0,0,0
117828,92102350,1,1314,1314,16.2,0.11,27,0,0,0
118278,92205796,1,1314,1314,16.2,0.09999999,27,0,0,0
118732,92310585,1,1314,1314,16.2,0.09999999,27,0,0,0
119186,92416509,1,1314,1314,16.21,0.09999999,27,0,0,0
119684,92531920,1,1314,1314,16.21,0.09999999,27,0,0,0
120143,92638775,1,1314,1314,16.2,0.09999999,27,0,0,0
120597,92746651,1,1314,1314,16.21,0.09999999,27,0,0,0
121054,92851894,1,1314,1314,16.2,0.09999999,27,0,0,0
121545,92967531,1,1314,1314,16.21,0.09999999,27,0,0,0
121998,93069831,1,1314,1314,16.2,0.09999999,27,0,0,0
122453,93177538,1,1314,1314,16.2,0.09999999,27,0,0,0
122874,93280578,1,1314,1314,16.22,0.09999999,27,0,0,0
123369,93397679,1,1314,1314,16.2,0.09999999,27,0,0,0
123825,93500122,1,1314,1314,16.21,0.09999999,27,0,0,0
124316,93613536,1,1314,1314,16.2,0.09999999,27,0,0,0
124765,93717537,1,1314,1314,16.21,0.09999999,27,0,0,0
125217,93819877,1,1314,1314,16.2,0.09999999,27,0,0,0
125712,93935850,1,1314,1314,16.2,0.09999999,27,0,0,0
126171,94042330,1,1314,1314,16.21,0.09999999,27,0,0,0
126622,94146895,1,1314,1314,16.2,0.09999999,27,0,0,0
127076,94250002,1,1314,1314,16.2,0.09999999,27,0,0,0
127529,94357750,1,1314,1314,16.2,0.09999999,27,0,0,0
128026,94469348,1,1314,1314,16.2,0.09999999,27,0,0,0
128478,94575955,1,1314,1314,16.2,0.09999999,27,0,0,0
128932,94678240,1,1314,1314,16.2,0.09999999,27,0,0,0
129428,94790994,1,1325,1442,16.18,0.2,27,0,0,0
129887,94896042,1,1480,1971,16.09,0.49,27,0,0,0
130337,95002014,1,1987,2328,16.16,0.55,27,0,0,0
130795,95113496,1,2341,2471,16.11,0.6,27,0,0,0
131251,95217517,1,2469,2428,16.16,0.46,27,0,0,0
131740,95325779,1,2428,2428,16.14,0.37,27,0,0,0
132207,95440272,1,2434,2528,16.08,0.72,27,0,0,0
132619,95539746,1,2530,2714,16.02,1.24,27,1,0,0
133116,95656585,1,2736,3214,15.89,2.16,27,1,0,0
133567,95767383,1,3246,3971,15.7,3.85,27,1,0,0
134064,95883506,1,4037,4700,15.76,3.48,27,1,0,0
134476,95983946,1,4725,5257,15.65,3.17,27,1,0,0
134974,96099997,1,5291,5657,15.47,3.38,27,1,0,0
135382,96200353,1,5653,5585,15.7,2.66,27,1,0,0
135875,96317049,1,5550,5257,15.75,1.79,27,1,0,0
136285,96414791,1,5253,5185,15.75,2.09,27,1,0,0
136780,96534000,1,5167,4985,15.77,1.9,27,1,0,0
137233,96639987,1,4978,4914,15.68,1.91,27,1,0,0
138132,96856751,1,4912,4671,15.72,1.38,27,1,0,0
138620,96967239,1,4656,4457,15.76,1.42,27,1,0,0
139115,97081376,1,4439,4271,15.75,1.38,27,1,0,0
139565,97188916,1,4285,4485,15.64,1.79,27,2,0,0
140025,97297121,1,4497,4671,15.66,1.88,27,2,0,0
140472,97405534,1,4682,4842,15.66,1.88,27,2,0,0
140973,97524788,1,4830,4728,15.69,1.53,27,2,0,0
141380,97620226,1,4724,4642,15.66,1.66,27,2,0,0
141839,97731147,1,4640,4614,15.65,1.76,27,2,0,0
142291,97838561,1,4615,4642,15.67,1.76,27,2,0,0
142785,97957931,1,4652,4771,15.73,1.67,27,2,0,0
143236,98061330,1,4771,4785,15.69,1.94,27,2,0,0
143689,98171821,1,4788,4871,15.66,1.93,28,2,0,0
144185,98286790,1,4872,4885,15.7,1.72,28,2,0,0
144636,98395892,1,4875,4785,15.56,1.76,28,2,0,0
145091,98499776,1,4783,4757,15.74,1.52,27,2,0,0
145545,98609373,1,4755,4714,15.6,1.75,28,2,0,0
146007,98729021,1,4721,4800,15.51,2.38,28,2,0,0
146415,98821150,1,4804,5100,15.51,2.57,28,2,0,0
146912,98941912,1,5112,5300,15.51,2.35,28,2,0,0
147818,99157641,1,5302,5428,15.51,2.84,28,3,0,0
148271,99261238,1,5428,5457,15.42,2.42,28,3,0,0
148721,99373817,1,5457,5457,15.53,2.38,28,3,0,0
149176,99480251,1,5450,5300,15.52,2.36,28,3,0,0
149622,99585800,1,5299,5285,15.47,2.37,28,3,0,0
150079,99696846,1,5282,5242,15.51,2.32,28,3,0,0
150578,99817668,1,5233,5128,15.52,1.91,28,3,0,0
151034,99925469,1,5099,4900,15.48,1.87,28,3,0,0
151483,100031505,1,4891,4800,15.59,1.96,28,3,0,0
152213,100243765,1,4840,4814,15.6,1.75,28,3,0,0
152660,100354828,1,4804,4585,15.6,1.35,28,3,0,0
153112,100464135,1,4569,4271,15.61,0.97,28,3,0,0
153560,100578847,1,4249,4042,15.62,1.3,28,3,0,0
154008,100686367,1,4017,3700,15.64,1.04,28,3,0,0
154448,100791880,1,3691,3585,15.66,1.1,28,3,0,0
154901,100903281,1,3600,3771,15.59,1.23,28,3,0,0
155349,101016232,1,3774,3814,15.69,0.9899999,28,3,0,0
155797,101128118,1,3793,3600,15.69,0.96,28,4,0,0
156201,101226772,1,3599,3571,15.7,0.98,28,4,0,0
156681,101341443,1,3577,3671,15.66,1.4,28,4,0,0
157135,101455585,1,3668,3642,15.45,1.87,28,4,0,0
157541,101559958,1,3664,3942,15.62,1.25,28,4,0,0
157995,101672100,1,3936,3857,15.5,1.86,28,4,0,0
158400,101774495,1,3851,3628,15.66,0.87,28,4,0,0
158886,101885299,1,3627,3614,15.66,1.03,28,4,0,0
159298,101993498,1,3639,4185,15.57,2.12,28,4,0,0
159746,102100490,1,4195,4328,15.59,2.63,28,4,0,0
160195,102214008,1,4358,4657,15.53,1.98,28,4,0,0
160641,102323812,1,4668,4785,15.57,1.82,28,4,0,0
161089,102428493,1,4792,4971,15.54,1.99,28,4,0,0
161537,102542763,1,4982,5100,15.52,1.93,28,4,0,0
161984,102648350,1,5095,4985,15.55,1.71,28,4,0,0
162424,102756893,1,4983,4957,15.63,1.46,28,4,0,0
162875,102866134,1,4946,4671,15.6,1.3,28,4,0,0
163326,102980522,1,4661,4514,15.58,1.32,28,4,0,0
163773,103088783,1,4508,4442,15.59,1.2,28,4,0,0
164174,103186991,1,4441,4385,15.6,1.43,28,4,0,0
164663,103303895,1,4382,4357,15.63,1.22,28,4,0,0
165104,103409138,1,4371,4571,15.58,1.72,28,4,0,0
165549,103517307,1,4569,4428,15.56,1.34,28,5,0,0
166039,103633372,1,4421,4357,15.58,1.08,28,5,0,0
166437,103730785,1,4350,4214,15.59,1.11,28,5,0,0
166886,103841899,1,4204,4085,15.55,1.56,28,5,0,0
167334,103949980,1,4089,4185,15.55,1.41,28,5,0,0
167824,104065857,1,4183,4157,15.6,1.2,28,5,0,0
168272,104176136,1,4163,4228,15.58,1.79,28,5,0,0
168720,104281384,1,4227,4214,15.51,2.02,28,5,0,0
169163,104388502,1,4240,4600,15.49,2.18,28,5,0,0
169615,104502799,1,4662,5214,15.37,3.12,28,5,0,0
170019,104602475,1,5233,5471,15.36,3.14,28,5,0,0
170467,104715969,1,5481,5600,15.31,2.85,28,5,0,0
170877,104817538,1,5605,5728,15.39,2.93,28,5,0,0
171369,104939338,1,5741,5871,15.35,3.47,28,5,0,0
171779,105040831,1,5873,5928,15.37,3.27,28,5,0,0
172222,105150464,1,5940,6085,15.37,3.26,28,6,0,0
172713,105266268,1,6078,6014,15.33,3.32,28,6,0,0
173117,105363455,1,6007,5942,15.42,3.25,28,6,0,0
173566,105470025,1,5942,5957,15.41,3.22,28,6,0,0
174011,105577544,1,5949,5800,15.48,2.56,28,6,0,0
174460,105689562,1,5780,5428,15.52,2.24,28,6,0,0
174938,105806961,1,5378,5071,15.56,1.45,28,6,0,0
175350,105906534,1,5065,4742,15.55,1.57,28,6,0,0
175798,106014993,1,4741,4714,15.51,1.75,28,6,0,0
176292,106134876,1,4701,4571,15.61,1.49,28,6,0,0
176737,106244252,1,4569,4557,15.61,1.67,28,6,0,0
177141,106348777,1,4564,4728,15.58,1.89,28,6,0,0
177551,106445790,1,4730,4871,15.49,2.01,28,6,0,0
178034,106568789,1,4869,4857,15.5,1.97,28,6,0,0
178443,106668462,1,4848,4628,15.59,1.18,28,7,0,0
178846,106772339,1,4629,4714,15.54,1.55,28,7,0,0
179339,106890355,1,4719,4771,15.54,1.83,28,7,0,0
179777,106996821,1,4774,4814,15.54,1.99,28,7,0,0
180190,107097897,1,4816,4942,15.48,1.92,28,7,0,0
181120,107327368,1,4941,4928,15.42,1.68,28,7,0,0
181530,107428830,1,4924,4657,15.33,1.38,28,7,0,0
182420,107644650,1,4642,4057,15.3,0.72,28,7,0,0
182868,107758024,1,3937,3000,15.38,0.49,28,7,0,0
183278,107858477,1,2986,2685,15.45,0.78,28,7,0,0
183720,107967175,1,2699,2900,15.44,1.47,28,7,0,0
184170,108075325,1,3000,4342,15.46,2.83,28,7,0,0
184609,108180821,1,4363,5228,15.36,3.37,28,7,0,0
185059,108290605,1,5261,6028,15.49,4.67,28,7,0,0
185512,108403837,1,6065,6442,15.48,5.26,28,7,0,0
185914,108503056,1,6459,6814,15.38,4.81,28,8,0,0
186359,108616331,1,6815,6828,15.42,4.86,28,8,0,0
187250,108834248,1,6815,6557,15.5,3.71,28,8,0,0
187652,108938222,1,6553,6285,15.48,3.34,28,8,0,0
188103,109043571,1,6278,5971,15.48,2.82,28,8,0,0
188581,109157853,1,5954,5742,15.51,2.49,28,8,0,0
189031,109266610,1,5719,5414,15.42,2.18,28,8,0,0
190370,109597644,1,5393,4457,15.45,1.46,28,9,0,0
190820,109706956,1,4471,4657,15.5,1.82,28,9,0,0
191219,109807027,1,4661,4828,15.54,1.73,28,9,0,0
191707,109926374,1,4833,4885,15.47,1.95,28,9,0,0
192112,110025766,1,4904,5342,15.39,3.01,28,9,0,0
192554,110135111,1,5356,5657,15.44,2.95,28,9,0,0
193009,110248127,1,5635,5414,15.41,1.79,28,9,0,0
193453,110355122,1,5367,4928,15.45,1.31,28,9,0,0
193900,110463820,1,4918,4785,15.45,1.59,28,9,0,0
194311,110572245,1,4783,4771,15.45,1.38,28,9,0,0
194756,110677263,1,4772,4800,15.44,1.83,28,9,0,0
195159,110779830,1,4801,4914,15.44,1.95,28,9,0,0
195612,110889254,1,4916,5028,15.45,2.05,28,9,0,0
196064,111003789,1,5035,5142,15.36,2.22,28,9,0,0
196511,111118607,1,5144,5171,15.47,1.85,28,9,0,0
196961,111224863,1,5158,4928,15.49,1.49,28,9,0,0
197368,111328266,1,4928,4942,15.48,1.65,28,9,0,0
197855,111443782,1,4938,4871,15.46,1.83,28,9,0,0
198302,111558555,1,4879,4957,15.48,1.93,28,10,0,0
198748,111665868,1,4958,4971,15.45,2.11,28,10,0,0
199146,111767006,1,4975,5071,15.47,2.09,28,10,0,0
199597,111875902,1,5070,5057,15.5,1.85,28,10,0,0
200046,111986218,1,5057,5071,15.4,2.05,28,10,0,0
200539,112103710,1,5067,5042,15.42,1.98,28,10,0,0
200989,112216460,1,5040,5028,15.49,1.94,28,10,0,0
201436,112328378,1,5024,5000,15.48,1.83,28,10,0,0
202277,112534913,1,4998,4942,15.47,1.72,28,10,0,0
202726,112641869,1,4937,4842,15.45,1.72,28,10,0,0
203180,112757624,1,4847,4900,15.5,1.5,28,10,0,0
203631,112866042,1,4893,4828,15.43,1.76,28,10,0,0
204036,112970039,1,4831,4900,15.51,1.82,28,10,0,0
204489,113082743,1,4901,4914,15.47,1.72,28,10,0,0
204934,113192233,1,4911,4871,15.48,1.55,28,10,0,0
205385,113298730,1,4865,4757,15.52,1.38,28,10,0,0
205833,113411213,1,4749,4628,15.48,1.38,28,10,0,0
206281,113521929,1,4629,4642,15.49,1.68,28,10,0,0
206729,113627651,1,4637,4571,15.5,1.41,28,11,0,0
207176,113740115,1,4579,4671,15.45,1.6,28,11,0,0
207588,113842270,1,4672,4700,15.48,1.63,28,11,0,0
208034,113956837,1,4701,4714,15.47,1.6,28,11,0,0
209338,114280442,1,4706,4400,15.51,1.41,28,11,0,0
209747,114383112,1,4400,4442,15.49,1.55,28,11,0,0
210642,114601360,1,4443,4514,15.41,1.61,28,11,0,0
211094,114715551,1,4526,4671,15.39,1.55,28,11,0,0
211542,114827889,1,4657,4471,15.5,1.13,28,11,0,0
211950,114932027,1,4455,4128,15.52,0.88,28,11,0,0
212403,115044804,1,4129,4142,15.54,1.28,28,11,0,0
212806,115148907,1,4140,4114,15.51,1.3,28,11,0,0
213261,115260576,1,4116,4200,15.53,1.4,28,11,0,0
213710,115371537,1,4201,4242,15.41,2.07,28,11,0,0
214599,115584215,1,4243,4385,15.44,1.49,28,11,0,0
215086,115697508,1,4387,4428,15.45,1.49,28,11,0,0
215535,115808963,1,4424,4371,15.45,1.12,28,11,0,0
215981,115917669,1,4363,4271,15.48,1.2,28,11,0,0
216427,116026928,1,4261,4157,15.47,1.2,28,11,0,0
216830,116128733,1,4156,4100,15.41,1.44,28,11,0,0
217320,116243968,1,4110,4214,15.5,1.33,28,12,0,0
217767,116353481,1,4208,4157,15.48,1.39,28,12,0,0
218212,116459228,1,4162,4242,15.51,1.36,28,12,0,0
218615,116562755,1,4238,4171,15.49,1.08,28,12,0,0
219067,116673220,1,4166,4100,15.44,1.07,28,12,0,0
219476,116780243,1,4092,4028,15.47,1.41,28,12,0,0
219926,116889472,1,4037,4142,15.5,1.22,28,12,0,0
220312,116998809,1,4148,4214,15.43,1.47,28,12,0,0
220756,117113440,1,4217,4242,15.5,1.28,28,12,0,0
221161,117210337,1,4237,4142,15.35,1.28,28,12,0,0
222061,117435849,1,4133,4000,15.41,1.72,28,12,0,0
222501,117542584,1,4018,4142,15.39,3.24,28,12,0,0
222952,117653149,1,4133,4071,15.46,2.3,28,12,0,0
223359,117750491,1,4087,4285,15.45,1.75,28,12,0,0
223808,117861776,1,4281,4242,15.34,1.62,28,12,0,0
224253,117970599,1,4242,4242,15.43,1.35,28,12,0,0
224707,118081798,1,4233,4171,15.45,1.24,28,12,0,0
225186,118195119,1,4173,4200,15.46,1.31,28,12,0,0
226040,118405532,1,4207,4414,15.42,1.41,28,12,0,0
226495,118517912,1,4418,4457,15.41,1.43,28,12,0,0
226894,118618220,1,4454,4400,15.46,1.25,28,13,0,0
227334,118728862,1,4398,4371,15.5,1.48,28,13,0,0
227786,118842984,1,4380,4457,15.48,1.4,28,13,0,0
228191,118945471,1,4462,4514,15.48,1.57,28,13,0,0
229539,119272070,1,4514,4528,15.48,1.3,28,13,0,0
230433,119493841,1,4524,4428,15.51,1.28,28,13,0,0
230840,119595285,1,4429,4442,15.46,1.49,28,13,0,0
231290,119704573,1,4444,4471,15.5,1.38,28,13,0,0
231735,119814989,1,4475,4514,15.47,1.61,28,13,0,0
232181,119926765,1,4514,4528,15.48,1.43,28,13,0,0
232630,120035327,1,4526,4500,15.43,1.32,28,13,0,0
233525,120256278,1,4504,4628,15.47,1.33,28,13,0,0
233926,120356042,1,4619,4457,15.5,1.18,28,13,0,0
234379,120466119,1,4463,4542,15.43,1.44,28,13,0,0
234825,120577899,1,4557,4700,15.5,1.71,28,13,0,0
235274,120687006,1,4701,4714,15.38,1.69,28,13,0,0
235680,120789520,1,4714,4714,15.5,1.54,28,13,0,0
236125,120896007,1,4709,4642,15.45,1.38,28,13,0,0
236572,121006600,1,4642,4642,15.49,1.56,28,13,0,0
237471,121224755,1,4636,4500,15.51,1.03,28,14,0,0
238325,121437070,1,4498,4342,15.5,1.11,28,14,0,0
238771,121550971,1,4352,4571,15.47,1.74,28,14,0,0
239184,121655484,1,4571,4585,15.47,1.69,28,14,0,0
239633,121767487,1,4597,4771,15.51,1.76,28,14,0,0
240079,121873591,1,4771,4771,15.51,1.65,28,14,0,0
240527,121984823,1,4773,4814,15.5,1.69,28,14,0,0
240978,122095887,1,4797,4585,15.51,1.63,28,14,0,0
241425,122207460,1,4588,4628,15.57,1.47,28,14,0,0
241874,122319812,1,4629,4642,15.49,1.53,28,14,0,0
242275,122415771,1,4639,4542,15.5,1.18,28,14,0,0
243208,122640233,1,4538,4371,15.5,1.35,28,14,0,0
243617,122746544,1,4372,4442,15.5,1.41,28,14,0,0
244506,122962792,1,4444,4728,15.51,1.51,28,14,0,0
244956,123072375,1,4728,4742,15.47,1.46,28,14,0,0
245442,123189247,1,4735,4671,15.55,1.22,28,14,0,0
245852,123291235,1,4663,4514,15.58,1.21,28,14,0,0
246304,123402556,1,4514,4514,15.55,1.75,28,14,0,0
246800,123525276,1,4550,5085,15.5,2.33,28,15,0,0
247204,123626349,1,5101,5314,15.49,2.11,28,15,0,0
247646,123733376,1,5309,5214,15.46,1.91,28,15,0,0
248096,123841591,1,5208,5085,15.5,1.89,28,15,0,0
248501,123944465,1,5078,4828,15.47,1.02,28,15,0,0
248999,124064568,1,4761,4100,15.44,0.68,28,15,0,0
249396,124166566,1,4103,4171,15.39,1.29,28,15,0,0
249850,124278007,1,4216,4657,15.3,2,28,15,0,0
250286,124380993,1,4663,4942,15.35,1.69,28,15,0,0
250735,124490923,1,4942,4957,15.33,2.03,28,15,0,0
251189,124607041,1,4967,5171,15.27,2.5,28,15,0,0
251644,124724467,1,5203,5414,15.3,2.75,28,15,0,0
252089,124831124,1,5417,5471,15.24,2.98,28,15,0,0
252938,125039601,1,5475,5600,15.32,2.64,28,15,0,0
253385,125152256,1,5596,5428,15.32,2.66,28,15,0,0
253837,125261843,1,5438,5542,15.33,2.44,28,16,0,0
254315,125373113,1,5530,5371,15.35,2.51,28,16,0,0
254767,125480736,1,5375,5485,15.33,2.45,28,16,0,0
255206,125589309,1,5482,5400,15.39,2.19,28,16,0,0
255661,125701857,1,5378,5171,15.34,1.87,28,16,0,0
256105,125812958,1,5157,5014,15.39,1.86,28,16,0,0
256554,125920918,1,4994,4800,15.45,1.61,28,16,0,0
256995,126028739,1,4799,4785,15.42,1.65,28,16,0,0
257439,126140602,1,4772,4600,15.43,1.51,28,16,0,0
257847,126238501,1,4600,4628,15.44,1.7,28,16,0,0
258297,126351336,1,4631,4771,15.41,2.22,28,16,0,0
259193,126573597,1,4773,5014,15.42,2.25,28,16,0,0
259640,126679129,1,5015,5114,15.41,2.01,28,16,0,0
260132,126802933,1,5103,5028,15.26,2.16,28,16,0,0
260536,126897449,1,5029,5100,15.36,2.33,28,16,0,0
260985,127017365,1,5104,5142,15.36,2.28,28,17,0,0
261430,127124225,1,5147,5371,15.39,2.52,28,17,0,0
261880,127232931,1,5373,5400,15.35,2.66,28,17,0,0
262279,127330402,1,5399,5357,15.38,2.47,28,17,0,0
262768,127450956,1,5357,5371,15.39,2.43,28,17,0,0
263178,127555917,1,5358,5157,15.29,2.3,28,17,0,0
263623,127663434,1,5163,5257,15.38,2.35,28,17,0,0
264518,127877229,1,5258,5314,15.35,2.29,28,17,0,0
264926,127982225,1,5308,5171,15.4,2.37,28,17,0,0
265372,128088264,1,5175,5400,15.34,2.74,28,17,0,0
265824,128201857,1,5400,5414,15.4,2.53,28,17,0,0
266277,128317376,1,5413,5357,15.39,2.36,28,17,0,0
267652,128652318,1,5354,5242,15.37,2.26,28,18,0,0
268054,128755136,1,5246,5342,15.38,2.64,28,18,0,0
268506,128865373,1,5342,5342,15.33,2.32,28,18,0,0
269440,129095816,1,5329,5057,15.38,2.03,28,18,0,0
269843,129199738,1,5052,4928,15.36,1.96,28,18,0,0
270776,129428219,1,4927,4914,15.33,2.04,28,18,0,0
271215,129533917,1,4920,5000,15.38,1.94,28,18,0,0
271662,129642452,1,5000,5014,15.28,2.27,28,18,0,0
272067,129746925,1,5005,4900,15.36,1.71,28,18,0,0
272514,129856025,1,4893,4828,15.31,1.65,28,18,0,0
272921,129961903,1,4817,4571,15.34,1.24,28,18,0,0
273409,130075928,1,4563,4485,15.34,1.55,28,18,0,0
273813,130179468,1,4493,4685,15.3,1.97,28,19,0,0
274261,130288346,1,4686,4757,15.3,2.21,28,19,0,0
274750,130403330,1,4794,5171,15.32,2.6,28,19,0,0
275155,130504109,1,5172,5200,15.3,2.61,28,19,0,0
275607,130618375,1,5196,5157,15.31,2.3,28,19,0,0
276053,130728989,1,5170,5285,15.29,2.57,28,19,0,0
276904,130939800,1,5300,5714,15.2,3.05,28,19,0,0
277350,131046953,1,5710,5642,15.24,2.92,28,19,0,0
277763,131154043,1,5640,5614,15.25,2.78,28,19,0,0
278214,131264378,1,5612,5571,15.25,2.7,28,19,0,0
278646,131364974,1,5569,5514,15.27,2.67,28,19,0,0
279137,131482328,1,5524,5628,15.27,2.47,28,19,0,0
279583,131595151,1,5615,5485,15.3,2.4,28,20,0,0
279989,131693569,1,5478,5314,15.34,2.54,28,20,0,0
280429,131800995,1,5323,5442,15.32,2.65,28,20,0,0
280881,131917229,1,5436,5400,15.32,2.4,28,20,0,0
281326,132023821,1,5396,5357,15.39,2.54,28,20,0,0
281732,132127962,1,5357,5357,15.33,2.31,28,20,0,0
282179,132235577,1,5347,5214,15.35,2.34,28,20,0,0
282588,132343855,1,5218,5271,15.38,2.36,28,20,0,0
283037,132453763,1,5263,5157,15.28,2.18,28,20,0,0
283481,132565398,1,5152,5085,15.3,2.09,28,20,0,0
283931,132674270,1,5082,5057,15.33,2.17,28,20,0,0
284331,132774805,1,5052,5000,15.33,1.76,28,20,0,0
284779,132883950,1,4997,4871,15.38,1.8,28,20,0,0
285222,132990879,1,4870,4857,15.34,1.88,28,20,0,0
285670,133102907,1,4869,5014,15.38,2.22,28,20,0,0
286117,133213367,1,5008,4957,15.4,1.91,28,21,0,0
286561,133323315,1,4973,5114,15.37,2.14,28,21,0,0
287011,133432549,1,5114,5128,15.35,2.33,28,21,0,0
287414,133535995,1,5128,5142,15.3,2.44,28,21,0,0
287861,133642813,1,5143,5228,15.26,2.27,28,21,0,0
288745,133861042,1,5227,5142,15.32,2.4,28,21,0,0
289196,133971997,1,5155,5442,15.21,2.54,28,21,0,0
289649,134083127,1,5438,5357,15.3,2.46,28,21,0,0
290095,134192947,1,5352,5285,15.35,1.95,28,21,0,0
290543,134301989,1,5286,5300,15.35,2.31,28,21,0,0
290989,134415009,1,5280,5100,15.33,1.96,28,21,0,0
291427,134519444,1,5103,5142,15.3,2.29,28,21,0,0
291836,134620552,1,5148,5271,15.4,2.96,28,21,0,0
292277,134728026,1,5277,5571,15.35,2.84,28,22,0,0
292725,134841340,1,5580,5785,15.32,2.89,28,22,0,0
293617,135059158,1,5766,5271,15.39,1.56,28,22,0,0
294065,135173798,1,5224,4900,15.38,1.25,28,22,0,0
294512,135281913,1,4876,4585,15.35,1.08,28,22,0,0
294962,135394035,1,4568,4385,15.34,0.9899999,28,22,0,0
295408,135501811,1,4354,4014,15.33,1.11,28,22,0,0
295812,135603874,1,3998,3771,15.37,1.23,28,22,0,0
296258,135711307,1,3782,3957,15.36,1.33,28,22,0,0
296703,135817522,1,3957,3971,15.29,1.73,28,22,0,0
297145,135929543,1,3982,4542,15.19,2.52,28,22,0,0
297592,136045745,1,4551,4814,15.2,2.28,28,22,0,0
298074,136158825,1,4810,4771,15.29,1.41,28,22,0,0
298484,136261791,1,4744,4442,15.33,1.05,28,22,0,0
298929,136373375,1,4442,4442,15.36,1.43,28,22,0,0
299378,136482891,1,4455,4628,15.32,2.05,28,22,0,0
299789,136584264,1,4630,4757,15.28,1.63,28,22,0,0
300269,136697361,1,4752,4714,15.23,1.67,28,22,0,0
301118,136909005,1,4715,4800,15.22,2.23,28,23,0,0
301565,137019070,1,4820,5100,15.17,2.51,28,23,0,0
302014,137132077,1,5108,5200,15.11,2.41,28,23,0,0
302467,137243215,1,5184,5028,15.13,1.96,28,23,0,0
302904,137346895,1,5009,4828,15.23,1.65,28,23,0,0
303312,137446219,1,4828,4842,15.14,2.26,28,23,0,0
303759,137559719,1,4848,4914,15.19,1.6,28,23,0,0
304209,137664828,1,4900,4600,15.3,1.17,28,23,0,0
304656,137783110,1,4572,4314,15.32,1.57,28,23,0,0
305105,137892063,1,4321,4400,15.32,1.4,28,23,0,0
305507,137996039,1,4419,4685,15.33,2.13,28,23,0,0
305959,138104268,1,4700,4914,15.26,2.35,28,23,0,0
306397,138210860,1,4915,5028,15.3,2.1,28,23,0,0
306849,138319025,1,5025,4971,15.26,2.01,28,23,0,0
307293,138429775,1,4955,4757,15.29,1.9,28,23,0,0
307693,138528767,1,4758,4871,15.28,1.72,28,23,0,0
308141,138638352,1,4873,4971,15.22,2.26,28,23,0,0
308589,138752926,1,4972,5042,15.26,2.1,28,24,0,0
309037,138862028,1,5043,5071,15.26,2.09,28,24,0,0
309474,138966524,1,5060,4857,15.29,1.57,28,24,0,0
309924,139076251,1,4850,4728,15.27,1.73,28,24,0,0
310338,139183518,1,4733,4800,15.27,1.92,28,24,0,0
310786,139290650,1,4799,4785,15.3,1.95,28,24,0,0
311273,139407648,1,4782,4742,15.31,1.62,28,24,0,0
312087,139616361,1,4744,4985,15.26,2.52,28,24,0,0
312530,139726962,1,4996,5157,15.27,2.55,28,24,0,0
312982,139837383,1,5185,5471,15.23,2.8,28,24,0,0
313425,139947875,1,5455,5300,15.26,1.9,28,24,0,0
313871,140053378,1,5286,5157,15.33,1.65,28,24,0,0
314274,140156820,1,5146,4742,15.34,1.12,28,24,0,0
314722,140265550,1,4729,4271,15.32,0.9,28,24,0,0
315173,140379306,1,4265,4185,15.37,1.39,28,24,0,0
315623,140488922,1,4181,4014,15.35,1.33,28,24,0,0
316070,140600513,1,4017,4100,15.34,1.99,28,25,0,0
316525,140713879,1,4117,4257,15.33,1.53,28,25,0,0
316970,140826499,1,4240,4071,15.32,1.21,28,25,0,0
317367,140926368,1,4075,4114,15.28,2.01,28,25,0,0
317814,141035030,1,4126,4300,15.35,1.5,28,25,0,0
318215,141137121,1,4301,4442,15.33,1.52,28,25,0,0
318701,141251595,1,4454,4642,15.33,1.58,28,25,0,0
319105,141355176,1,4638,4571,15.29,1.6,28,25,0,0
319558,141465445,1,4582,4742,15.26,1.86,28,25,0,0
319965,141568044,1,4743,4800,15.3,1.91,28,25,0,0
320410,141675492,1,4799,4771,15.29,1.9,28,25,0,0
320857,141787613,1,4771,4785,15.27,1.63,28,25,0,0
321310,141894763,1,4783,4757,15.34,1.58,28,25,0,0
321754,142004310,1,4754,4728,15.33,1.79,28,25,0,0
322160,142105770,1,4727,4685,15.33,1.69,28,25,0,0
322647,142225907,1,4687,4714,15.34,1.62,28,25,0,0
323085,142335369,1,4710,4671,15.34,1.64,28,25,0,0
323981,142554528,1,4671,4685,15.35,1.53,28,25,0,0
324428,142662778,1,4683,4671,15.33,1.41,28,25,0,0
324873,142772957,1,4651,4457,15.32,1.36,28,26,0,0
325355,142884219,1,4473,4642,15.33,1.63,28,26,0,0
326209,143097494,1,4635,4342,15.38,1.42,28,26,0,0
326649,143205939,1,4340,4314,15.38,1.22,28,26,0,0
327576,143430951,1,4311,4242,15.35,1.43,28,26,0,0
328031,143545512,1,4247,4385,15.36,1.42,28,26,0,0
328479,143654345,1,4397,4514,15.35,1.67,28,26,0,0
328880,143755833,1,4506,4357,15.36,1.09,28,26,0,0
329331,143866893,1,4356,4342,15.36,1.92,28,26,0,0
329735,143971019,1,4354,4628,15.29,1.67,28,26,0,0
330188,144083856,1,4629,4685,15.29,1.89,28,26,0,0
330629,144191570,1,4685,4742,15.35,1.72,28,26,0,0
331114,144309332,1,4730,4628,15.26,1.82,28,26,0,0
331559,144421535,1,4639,4742,15.23,1.99,28,26,0,0
332004,144532066,1,4753,4857,15.28,1.87,28,26,0,0
332888,144743266,1,4853,4771,15.25,2.02,28,26,0,0
333339,144857687,1,4786,4928,15.26,2.02,28,26,0,0
333815,144968116,1,4930,4957,15.29,1.91,28,27,0,0
334226,145068541,1,4956,4900,15.33,1.62,28,27,0,0
334670,145178235,1,4892,4828,15.32,1.66,28,27,0,0
335120,145293235,1,4824,4800,15.25,1.99,28,27,0,0
336013,145509029,1,4794,4685,15.35,1.75,28,27,0,0
336456,145620133,1,4672,4514,15.37,1.52,28,27,0,0
336935,145731591,1,4514,4514,15.36,1.43,28,27,0,0
337388,145843315,1,4516,4542,15.3,1.85,28,27,0,0
337832,145950996,1,4546,4585,15.33,1.48,28,27,0,0
338242,146052369,1,4585,4600,15.37,1.49,28,27,0,0
338687,146165872,1,4593,4528,15.36,1.43,28,27,0,0
339134,146273777,1,4518,4428,15.38,1.26,28,27,0,0
339575,146383242,1,4417,4314,15.4,1.23,28,27,0,0
339980,146482032,1,4297,4100,15.33,1.29,28,27,0,0
340426,146589964,1,4100,4114,15.34,1.95,28,27,0,0
341312,146808511,1,4124,4557,15.31,1.56,28,27,0,0
341762,146923938,1,4563,4614,15.35,1.71,28,27,0,0
342168,147021441,1,4614,4628,15.34,1.63,28,27,0,0
342615,147134380,1,4634,4728,15.27,1.81,28,27,0,0
343059,147239986,1,4727,4671,15.32,1.51,28,27,0,0
343547,147359461,1,4659,4542,15.3,1.26,28,28,0,0
343952,147459910,1,4540,4485,15.32,1.38,28,28,0,0
344437,147577132,1,4485,4485,15.31,1.5,28,28,0,0
344886,147687953,1,4486,4500,15.31,1.38,28,28,0,0
345287,147785916,1,4505,4614,15.3,1.66,28,28,0,0
345736,147894491,1,4612,4571,15.26,1.48,28,28,0,0
346189,148010946,1,4571,4571,15.28,1.37,28,28,0,0
346599,148113133,1,4570,4528,15.33,1.38,28,28,0,0
347042,148223464,1,4525,4471,15.3,1.41,28,28,0,0
347483,148333223,1,4462,4357,15.25,1.11,28,28,0,0
347932,148441351,1,4320,3814,15.27,0.78,28,28,0,0
348379,148550817,1,3793,3514,15.32,1,28,28,0,0
348830,148662007,1,3534,4000,15.26,2.06,28,28,0,0
349309,148776014,1,4042,4471,15.28,2.05,28,28,0,0
350159,148985548,1,4473,4685,15.35,1.5,28,28,0,0
350606,149093521,1,4682,4642,15.31,1.59,28,28,0,0
351098,149215365,1,4643,4657,15.27,1.45,28,28,0,0
351498,149313981,1,4650,4528,15.36,1.36,28,28,0,0
351944,149426950,1,4527,4514,15.31,1.46,28,28,0,0
352398,149538914,1,4513,4471,15.33,1.25,28,28,0,0
352845,149647992,1,4470,4457,15.35,1.34,28,28,0,0
353253,149753939,1,4454,4371,15.35,1.31,28,28,0,0
353741,149868474,1,4369,4357,15.35,1.29,28,29,0,0
354154,149974875,1,4363,4428,15.34,1.32,28,29,0,0
355084,150196853,1,4428,4442,15.38,1.49,28,29,0,0
355488,150295573,1,4444,4500,15.33,1.33,28,29,0,0
355938,150409781,1,4501,4514,15.32,1.59,28,29,0,0
356381,150519457,1,4515,4528,15.23,1.57,28,29,0,0
356788,150619372,1,4526,4500,15.29,1.28,28,29,0,0
357276,150739826,1,4490,4385,15.31,1.39,28,29,0,0
357682,150837818,1,4386,4471,15.36,1.1,28,29,0,0
358166,150953943,1,4471,4485,15.31,1.5,28,29,0,0
358613,151061513,1,4462,4242,15.33,0.93,28,29,0,0
359057,151170532,1,4199,3757,15.16,1.31,28,29,0,0
359502,151272911,1,3743,3442,15.3,1.01,28,29,0,0
359988,151388991,1,3466,3728,15.25,1.43,28,29,0,0
360396,151492287,1,3754,4285,15.33,2.23,28,29,0,0
360850,151607625,1,4304,4600,15.27,2.16,28,29,0,0
361295,151718443,1,4621,4900,15.36,1.9,28,29,0,0
361740,151831495,1,4911,5042,15.25,2.23,28,29,0,0
362184,151945517,1,5038,5014,15.25,1.76,28,29,0,0
362634,152057036,1,5031,5200,15.25,2.05,28,29,0,0
363075,152166124,1,5192,5128,15.31,2.01,28,30,0,0
363525,152277653,1,5122,5085,15.26,1.88,28,30,0,0
363962,152382841,1,5056,4842,15.28,1.35,28,30,0,0
364415,152493855,1,4835,4771,15.32,1.37,28,30,0,0
364822,152596276,1,4763,4700,15.34,1.2,28,30,0,0
365228,152697823,1,4693,4314,15.42,0.68,28,30,0,0
365717,152816887,1,4304,4200,15.42,0.83,28,30,0,0
366168,152932603,1,4198,4185,15.3,1.6,28,30,0,0
366572,153030841,1,4196,4314,15.39,1.3,28,30,0,0
366972,153135979,1,4315,4485,15.39,2.02,28,30,0,0
367496,153256871,1,4526,4771,15.34,1.86,28,30,0,0
367901,153361337,1,4769,4728,15.25,1.78,28,30,0,0
368798,153582560,1,4739,4985,15.33,2.02,28,30,0,0
369278,153691812,1,4983,4957,15.23,1.79,28,30,0,0
370126,153902143,1,4955,4857,15.29,1.63,28,30,0,0
370579,154017642,1,4850,4785,15.3,1.67,28,30,0,0
371020,154126833,1,4780,4742,15.3,1.84,28,30,0,0
371424,154225492,1,4743,4814,15.27,1.52,28,30,0,0
372319,154444480,1,4813,4771,15.23,1.75,28,31,0,0
372811,154567698,1,4780,4885,15.22,1.93,28,31,0,0
373216,154667717,1,4885,4885,15.26,2.01,28,31,0,0
373695,154780362,1,4876,4571,15.25,1.3,28,31,0,0
374146,154893024,1,4568,4528,15.27,1.26,28,31,0,0
374597,155004800,1,4526,4514,15.19,1.57,28,31,0,0
375043,155114046,1,4511,4485,15.27,1.43,28,31,0,0
375492,155223085,1,4483,4471,15.23,1.77,28,31,0,0
375976,155337896,1,4502,4814,15.22,2.32,28,31,0,0
376387,155441334,1,4842,5100,15.14,2.53,28,31,0,0
376789,155544041,1,5110,5314,15.16,2.43,28,31,0,0
377243,155654136,1,5298,5014,15.22,1.88,28,31,0,0
377687,155763561,1,5032,5271,15.14,2.68,28,31,0,0
378138,155878754,1,5248,5028,15.23,1.53,28,31,0,0
378540,155979873,1,5023,4828,15.26,1.75,28,31,0,0
378988,156088534,1,4821,4571,15.29,1.47,28,31,0,0
379431,156195581,1,4576,4671,15.27,1.8,28,31,0,0
379879,156303350,1,4662,4542,15.3,1.38,28,31,0,0
381215,156633453,1,4528,4100,15.35,1.36,28,32,0,0
381617,156735569,1,4092,3900,15.17,2.35,28,32,0,0
382108,156853216,1,3912,4042,15.26,2.83,28,32,0,0
382544,156954857,1,4056,4328,15.05,3.2,28,32,0,0
382992,157062922,1,4337,4571,15.24,1.93,28,32,0,0
383437,157173818,1,4588,4814,15.3,1.94,28,32,0,0
383847,157277770,1,4817,4900,15.34,2.19,28,32,0,0
384257,157384819,1,4903,4971,15.27,1.77,28,32,0,0
384707,157494525,1,4967,4800,15.32,1.82,28,32,0,0
385153,157604381,1,4800,4800,15.29,1.67,28,32,0,0
385637,157720011,1,4797,4771,15.26,1.83,28,32,0,0
386087,157831515,1,4766,4714,15.26,1.54,28,32,0,0
386495,157930584,1,4713,4685,15.24,1.55,28,32,0,0
386938,158041129,1,4684,4671,15.24,1.39,28,32,0,0
387379,158149333,1,4667,4600,15.3,1.35,28,32,0,0
387789,158252502,1,4597,4485,15.32,1.49,28,32,0,0
388190,158354572,1,4487,4600,15.28,1.87,28,32,0,0
388687,158474250,1,4604,4657,15.26,1.68,28,33,0,0
389128,158583989,1,4652,4614,15.29,1.42,28,33,0,0
389579,158693795,1,4598,4371,15.33,1.42,28,33,0,0
390025,158803860,1,4377,4442,15.28,1.64,28,33,0,0
390472,158908902,1,4448,4585,15.25,1.53,28,33,0,0
390955,159031374,1,4593,4671,15.23,1.68,28,33,0,0
391361,159128914,1,4672,4742,15.25,1.86,28,33,0,0
391842,159248233,1,4744,4771,15.26,1.66,28,33,0,0
392239,159343894,1,4774,4928,15.16,2.5,28,33,0,0
392738,159464131,1,4936,5071,15.19,2.15,28,33,0,0
393182,159573148,1,5069,5057,15.26,1.64,28,33,0,0
394073,159792605,1,5043,4742,15.22,1.65,28,33,0,0
394922,160000744,1,4726,4200,15.36,1.01,28,33,0,0
395821,160225989,1,4213,4514,15.27,2.04,28,33,0,0
396267,160336552,1,4515,4528,15.28,1.3,28,33,0,0
396677,160435538,1,4524,4442,15.3,1.42,28,33,0,0
397161,160552865,1,4421,4128,15.37,1.51,28,34,0,0
397572,160656550,1,4136,4257,15.42,1.49,28,34,0,0
398016,160766942,1,4235,3928,15.33,1.4,28,34,0,0
398464,160874549,1,3921,3828,15.44,2.39,28,34,0,0
398875,160981877,1,3833,3885,15.42,2.07,28,34,0,0
399321,161087884,1,3882,3842,15.43,2.05,28,34,0,0
399764,161197960,1,3863,4142,15.39,1.71,28,34,0,0
400177,161300899,1,4139,4000,15.45,0.97,28,34,0,0
400623,161414017,1,4005,4128,15.35,1.58,28,34,0,0
401065,161521837,1,4117,3871,15.32,2.44,28,34,0,0
401550,161633864,1,3889,4142,15.36,2.93,28,34,0,0
401996,161747500,1,4154,4285,15.42,1.97,28,34,0,0
402880,161958555,1,4274,3857,15.42,2.08,28,34,0,0
403328,162067474,1,3876,4128,15.39,2.68,28,34,0,0
403730,162168232,1,4135,4385,15.35,2.3,28,34,0,0
404226,162286245,1,4398,4542,15.34,2.35,28,34,0,0
404628,162389859,1,4547,4828,15.33,2.08,28,35,0,0
405074,162495809,1,4829,4928,15.29,1.91,28,35,0,0
405518,162606274,1,4932,5000,15.29,2.08,28,35,0,0
405973,162714537,1,4993,4842,15.33,1.5,28,35,0,0
406415,162826236,1,4824,4657,15.35,1.34,28,35,0,0
406868,162934563,1,4647,4557,15.36,1.26,28,35,0,0
407270,163036936,1,4561,4671,15.36,1.89,28,35,0,0
407756,163157286,1,4656,4500,15.34,1.37,28,35,0,0
408203,163266949,1,4501,4514,15.39,1.22,28,35,0,0
408605,163368857,1,4505,4071,15.23,1.58,28,35,0,0
409095,163488820,1,4057,3928,15.31,1.66,28,35,0,0
409493,163589536,1,3928,3928,15.33,1.76,28,35,0,0
410833,163917539,1,3945,4557,15.27,2.45,28,35,0,0
411680,164130978,1,4570,5128,15.17,2.43,28,35,0,0
412131,164244957,1,5134,5200,15.2,2.03,28,35,0,0
412579,164354482,1,5194,5142,15.21,2.01,28,36,0,0
413433,164568016,1,5136,4971,15.23,1.71,28,36,0,0
413844,164670904,1,4969,4914,15.22,1.89,28,36,0,0
414288,164781142,1,4922,5042,15.29,1.56,28,36,0,0
414737,164888991,1,5038,4985,15.24,2.02,28,36,0,0
415183,165000945,1,5000,5157,15.25,2.12,28,36,0,0
415630,165109356,1,5170,5314,15.17,2.38,28,36,0,0
416034,165213784,1,5310,5271,15.21,2.32,28,36,0,0
416480,165319536,1,5271,5271,15.15,2.12,28,36,0,0
416969,165436895,1,5268,5228,15.24,2.04,28,36,0,0
417373,165541512,1,5222,5100,15.23,1.83,28,36,0,0
417822,165651793,1,5090,4900,15.24,1.85,28,36,0,0
418271,165766869,1,4916,5085,15.22,1.89,28,36,0,0
418719,165873223,1,5083,5057,15.27,2,28,36,0,0
419166,165984931,1,5055,5028,15.25,1.92,28,36,0,0
419617,166095946,1,5031,5071,15.26,1.78,28,37,0,0
420019,166197933,1,5070,5014,15.27,1.72,28,37,0,0
420512,166322496,1,5016,5042,15.25,1.99,28,37,0,0
420917,166423249,1,5042,5042,15.19,1.99,28,37,0,0
421397,166543885,1,5056,5257,15.25,2.13,28,37,0,0
421804,166646110,1,5265,5342,15.23,2.16,28,37,0,0
422246,166753505,1,5340,5314,15.21,2.26,28,37,0,0
422699,166861315,1,5295,5142,15.27,1.79,28,37,0,0
423149,166978109,1,5148,5257,15.3,2,28,37,0,0
424040,167195882,1,5258,5285,15.22,2.09,28,37,0,0
424482,167300874,1,5271,5128,15.23,2.08,28,37,0,0
425345,167520725,1,5121,5028,15.21,1.93,28,37,0,0
425745,167619533,1,5024,4885,15.23,2.03,28,37,0,0
426183,167727868,1,4888,5028,15.16,2.11,28,37,0,0
426639,167841928,1,5017,4900,15.19,2.01,28,37,0,0
427527,168056817,1,4900,5042,15.18,1.98,28,38,0,0
428379,168273594,1,5048,5157,15.26,2.13,28,38,0,0
428787,168373129,1,5153,5071,15.25,1.9,28,38,0,0
429231,168481016,1,5070,4985,15.23,1.86,28,38,0,0
429679,168597957,1,4978,4900,15.26,1.57,28,38,0,0
430165,168715359,1,4883,4728,15.25,1.68,28,38,0,0
430573,168816601,1,4729,4814,15.23,1.78,28,38,0,0
431065,168938698,1,4810,4785,15.27,1.51,28,38,0,0
431466,169033891,1,4783,4671,15.26,1.58,28,38,0,0
431913,169147457,1,4668,4642,15.25,1.49,28,38,0,0
432361,169256605,1,4640,4628,15.26,1.79,28,38,0,0
432763,169356858,1,4630,4842,15.22,2.23,28,38,0,0
433211,169464047,1,4843,5000,15.15,2.63,28,38,0,0
433658,169574293,1,5006,5400,15.1,2.95,28,38,0,0
434108,169682558,1,5401,5457,15.17,2.45,28,38,0,0
434547,169792309,1,5449,5300,15.15,2.55,28,39,0,0
434958,169895548,1,5302,5442,15.13,2.64,28,39,0,0
435440,170008766,1,5440,5400,15.07,2.57,28,39,0,0
436334,170229936,1,5403,5471,15.08,2.64,28,39,0,0
436741,170329231,1,5469,5385,15.16,2.75,28,39,0,0
437233,170447979,1,5388,5428,15.15,2.35,28,39,0,0
437676,170555902,1,5403,5157,15.08,2.17,28,39,0,0
438084,170656879,1,5159,5214,15.14,2.43,28,39,0,0
438531,170769243,1,5208,5157,15.2,2.03,28,39,0,0
438977,170875015,1,5154,4957,15.16,1.97,28,39,0,0
439384,170981912,1,4958,5028,15.21,2.13,28,39,0,0
439870,171096255,1,5020,4914,15.24,1.86,28,39,0,0
440315,171207266,1,4922,5042,15.25,2.04,28,39,0,0
440764,171316255,1,5038,4985,15.19,2.03,28,40,0,0
441207,171427927,1,4978,4914,15.24,2.01,28,40,0,0
441610,171529886,1,4914,4928,15.21,2.2,28,40,0,0
442060,171638477,1,4929,5014,15.25,1.92,28,40,0,0
442539,171750959,1,5010,4928,15.25,1.6,28,40,0,0
442996,171862785,1,4915,4757,15.29,1.33,28,40,0,0
443840,172073943,1,4754,4657,15.27,1.58,28,40,0,0
444738,172296981,1,4654,4542,15.27,1.55,28,40,0,0
445223,172417110,1,4542,4542,15.22,1.45,28,40,0,0
446072,172627968,1,4541,4528,15.24,1.58,28,40,0,0
446517,172736753,1,4542,4685,15.23,1.78,28,40,0,0
446966,172845118,1,4693,4800,15.18,2.14,28,40,0,0
447410,172956120,1,4802,4828,15.24,1.75,28,40,0,0
447818,173058872,1,4827,4814,15.23,1.69,28,40,0,0
448265,173173441,1,4802,4700,15.25,1.58,28,40,0,0
448709,173276797,1,4698,4614,15.21,1.35,28,40,0,0
449194,173396228,1,4607,4542,15.28,1.2,28,41,0,0
449602,173497903,1,4531,4400,15.3,1.27,28,41,0,0
450042,173606376,1,4402,4457,15.25,1.5,28,41,0,0
450533,173729280,1,4451,4400,15.29,1.4,28,41,0,0
451342,173929985,1,4400,4471,15.26,1.41,28,41,0,0
451834,174049890,1,4470,4457,15.2,1.7,28,41,0,0
452240,174153997,1,4458,4500,15.2,1.48,28,41,0,0
452688,174264527,1,4500,4500,15.22,1.5,28,41,0,0
453140,174376914,1,4498,4471,15.23,1.4,28,41,0,0
453591,174489454,1,4471,4471,15.19,1.43,28,41,0,0
454474,174706550,1,4465,4285,15.23,1.22,28,41,0,0
454936,174826941,1,4275,4185,15.29,0.97,28,41,0,0
455337,174923443,1,4183,4157,15.28,1.16,28,41,0,0
456231,175151216,1,4144,3928,15.29,1.36,28,41,0,0
456635,175254251,1,3931,4014,15.29,1.69,28,41,0,0
457124,175373479,1,4040,4342,15.1,2.03,28,41,0,0
458012,175587369,1,4347,4500,15.29,1.47,28,41,0,0
458417,175682520,1,4495,4414,15.29,1.39,28,41,0,0
458829,175793544,1,4420,4485,15.28,1.62,28,41,0,0
459283,175904502,1,4489,4542,15.21,1.61,28,42,0,0
460177,176116265,1,4535,4385,15.15,1.4,28,42,0,0
460659,176234827,1,4377,4300,15.28,1.07,28,42,0,0
461997,176567504,1,4312,4614,15.23,1.61,28,42,0,0
462445,176675715,1,4607,4528,15.22,1.51,28,42,0,0
462888,176781032,1,4529,4557,15.21,1.52,28,42,0,0
463289,176881259,1,4559,4657,15.14,1.83,28,42,0,0
463704,176989973,1,4657,4700,15.23,1.51,28,42,0,0
464194,177104471,1,4683,4528,15.26,1.49,28,42,0,0
464596,177205610,1,4525,4485,15.16,1.53,28,42,0,0
465054,177323788,1,4499,4600,15.22,1.47,28,42,0,0
465453,177419575,1,4599,4571,15.22,1.61,28,42,0,0
465898,177528880,1,4570,4557,15.16,1.75,28,42,0,0
466342,177634785,1,4557,4557,15.17,1.81,28,42,0,0
466783,177744470,1,4559,4614,15.2,1.5,28,42,0,0
467237,177855229,1,4606,4442,15.23,1.24,28,42,0,0
467644,177960940,1,4442,4457,15.27,1.4,28,42,0,0
468138,178078828,1,4447,4300,15.24,1.25,28,42,0,0
468540,178180511,1,4300,4300,15.29,1.14,28,42,0,0
469434,178401754,1,4295,4200,15.3,1.28,28,43,0,0
469842,178504316,1,4200,4214,15.27,1.11,28,43,0,0
470322,178617222,1,4214,4214,15.32,1.48,28,43,0,0
470765,178725910,1,4221,4285,15.23,1.19,28,43,0,0
471216,178835816,1,4271,4128,15.32,1.13,28,43,0,0
471616,178936370,1,4118,3985,15.26,1.25,28,43,0,0
472504,179152939,1,3988,4400,15.29,1.39,28,43,0,0
472998,179269599,1,4400,4414,15.3,1.35,28,43,0,0
473474,179380992,1,4416,4485,15.26,1.37,28,43,0,0
474328,179596083,1,4487,4528,15.26,1.4,28,43,0,0
474776,179703462,1,4523,4457,15.25,1.38,28,43,0,0
475222,179814474,1,4451,4400,15.31,1.12,28,43,0,0
475626,179912802,1,4401,4471,15.33,1.38,28,43,0,0
476107,180026954,1,4469,4442,15.28,1.38,28,43,0,0
476513,180132677,1,4442,4442,15.29,1.33,28,43,0,0
476965,180242786,1,4424,4071,15.36,0.73,28,43,0,0
477374,180351799,1,4057,3728,15.42,1.47,28,43,0,0
477819,180457507,1,3728,3742,15.36,1.95,28,43,0,0
478713,180681854,1,3771,4642,15.3,2.37,28,43,0,0
479118,180784975,1,4647,5042,15.31,2.01,28,44,0,0
479608,180902356,1,5016,4757,15.29,1.37,28,44,0,0
480497,181119806,1,4747,4571,15.22,1.73,28,44,0,0
480905,181221273,1,4570,4557,15.27,1.19,28,44,0,0
481317,181325543,1,4553,4314,15.26,1.11,28,44,0,0
481766,181433863,1,4314,4328,15.26,1.06,28,44,0,0
482213,181546550,1,4323,4285,15.23,1.15,27,44,0,0
482659,181651509,1,4279,4200,15.3,1.23,28,44,0,0
483104,181764255,1,4175,3928,15.3,1.3,28,44,0,0
483552,181873787,1,3931,3971,15.13,1.68,28,44,0,0
483952,181970992,1,3971,4014,15.17,2.62,28,44,0,0
484399,182077862,1,4011,3900,15.25,1.39,28,44,0,0
484844,182187881,1,3900,3900,15.18,1.59,28,44,0,0
485296,182298552,1,3909,4042,15.01,2.15,28,44,0,0
486186,182517661,1,4051,4228,15.26,1.59,28,44,0,0
486630,182623118,1,4240,4414,15.29,1.58,28,44,0,0
487041,182732574,1,4415,4457,15.26,1.28,28,44,0,0
487486,182837989,1,4455,4328,15.28,1.26,28,44,0,0
487968,182953557,1,4323,4242,15.22,1.13,28,44,0,0
488457,183074274,1,4238,4200,15.29,1.66,28,44,0,0
488858,183176339,1,4201,4214,15.29,1.35,28,44,0,0
489311,183288938,1,4241,4485,15.25,1.68,28,45,0,0
489755,183404152,1,4483,4471,15.22,1.48,28,45,0,0
490199,183505024,1,4473,4500,15.23,1.45,28,45,0,0
490603,183603564,1,4500,4514,15.26,1.53,28,45,0,0
491052,183718879,1,4515,4600,15.27,1.58,28,45,0,0
491501,183824967,1,4598,4585,15.26,1.37,28,45,0,0
492382,184041790,1,4589,4700,15.22,1.63,28,45,0,0
492832,184160071,1,4686,4600,15.26,1.4,28,45,0,0
493283,184266117,1,4595,4557,15.29,1.62,28,45,0,0
493686,184365041,1,4554,4500,15.26,1.23,28,45,0,0
494171,184482969,1,4492,4371,15.24,1.32,28,45,0,0
494577,184580997,1,4371,4371,15.29,1.32,28,45,0,0
495074,184702557,1,4363,4285,15.23,1.37,28,45,0,0
495517,184813115,1,4295,4385,15.22,1.88,28,45,0,0
495928,184912074,1,4372,4228,15.25,0.96,28,45,0,0
496367,185021560,1,4213,3914,15.22,1.43,27,45,0,0
496820,185135709,1,3914,3914,15.2,2.6,28,45,0,0
497716,185358514,1,3937,4328,15.2,2.05,28,45,0,0
498119,185454850,1,4334,4414,15.25,1.59,28,45,0,0
498562,185563886,1,4413,4400,15.29,1.35,28,46,0,0
499015,185674758,1,4403,4442,15.25,1.75,28,46,0,0
499454,185781339,1,4446,4557,15.23,1.65,28,46,0,0
499901,185890528,1,4553,4485,15.28,1.42,28,46,0,0
500794,186107983,1,4485,4500,15.19,1.5,28,46,0,0
501242,186216048,1,4507,4614,15.23,1.51,28,46,0,0
501722,186333815,1,4616,4642,15.27,1.59,28,46,0,0
502088,186425747,1,4642,4642,15.16,1.86,28,46,0,0
502572,186544977,1,4650,4742,15.05,1.94,28,46,0,0
503024,186654138,1,4743,4757,15.24,1.61,28,46,0,0
503426,186752621,1,4756,4742,15.2,1.66,28,46,0,0
504322,186975537,1,4740,4671,15.23,1.58,28,46,0,0
504814,187093026,1,4664,4600,15.23,1.52,28,46,0,0
505263,187204124,1,4594,4542,15.22,1.37,28,46,0,0
505708,187313828,1,4537,4485,15.23,1.52,28,46,0,0
506153,187419877,1,4486,4500,15.2,1.68,28,46,0,0
506591,187523873,1,4501,4557,15.22,1.59,28,46,0,0
507042,187634227,1,4557,4557,15.19,1.85,28,46,0,0
507894,187843916,1,4560,4657,15.23,1.43,28,47,0,0
508338,187954812,1,4649,4542,15.29,1.31,28,47,0,0
508786,188063016,1,4539,4485,15.29,1.4,28,47,0,0
509269,188175334,1,4478,4414,15.29,1.7,28,47,0,0
509672,188275805,1,4412,4314,15.29,1.54,28,47,0,0
510159,188390336,1,4310,4271,15.29,1.18,28,47,0,0
510608,188498807,1,4262,4142,15.19,1.52,28,47,0,0
511052,188609574,1,4158,4328,15.22,1.38,28,47,0,0
511495,188712518,1,4317,4100,15.25,1.36,28,47,0,0
512383,188933519,1,4095,3971,15.31,1.63,28,47,0,0
512829,189039947,1,3972,4057,15.26,1.78,28,47,0,0
513278,189151216,1,4052,3957,15.27,1.48,28,47,0,0
513729,189261904,1,3890,3242,15.52,0.82,28,47,0,0
514170,189369252,1,3263,3485,15.45,1.62,28,47,0,0
514578,189471135,1,3477,3071,15.4,1.07,28,47,0,0
515026,189582235,1,3064,2914,15.42,0.74,28,47,0,0
515473,189689012,1,2911,2700,15.52,0.9,28,47,0,0
515962,189807487,1,2690,2585,15.63,0.73,28,47,0,0
516410,189913071,1,2571,2428,15.7,0.27,28,47,0,0
516855,190020784,1,2414,2285,15.66,0.28,28,47,0,0
517292,190127441,1,2272,2142,15.66,0.16,28,47,0,0
517702,190228435,1,2140,2114,15.66,0.15,28,47,0,0
518157,190347478,1,2102,1985,15.66,0.19,28,47,0,0
518561,190446357,1,1988,2057,15.67,0.25,28,47,0,0
519006,190557365,1,2057,2057,15.66,0.21,28,47,0,0
519455,190667443,1,2053,2014,15.66,0.2,28,47,0,0
519859,190771411,1,2014,2028,15.67,0.24,28,47,0,0
520344,190883519,1,2029,2042,15.65,0.21,28,47,0,0
520749,190986445,1,2042,2042,15.68,0.22,28,47,0,0
521233,191098926,1,2042,2057,15.68,0.23,28,47,0,0
521647,191202944,1,2058,2085,15.67,0.29,28,47,0,0
522094,191308806,1,2084,2071,15.69,0.21,28,47,0,0
522535,191416214,1,2071,2071,15.67,0.23,28,47,0,0
522987,191528544,1,2070,2057,15.67,0.21,28,47,0,0
523437,191637227,1,2057,2057,15.73,0.23,28,47,0,0
523846,191738255,1,2053,1771,15.74,0.01,28,47,0,0
524291,191842822,1,1765,1414,15.74,0.01,28,47,0,0
524813,191968345,1,1395,1300,15.73,0.08,28,47,0,0
525225,192062908,1,1299,1285,15.73,0.09,28,47,0,0
525670,192171742,1,1284,1271,15.73,0.09999999,28,47,0,0
526115,192280013,1,1271,1271,15.73,0.09999999,28,47,0,0
526562,192390863,1,1271,1271,15.73,0.09999999,28,47,0,0
527011,192500793,1,1271,1271,15.73,0.09999999,28,47,0,0
527421,192606408,1,1271,1271,15.74,0.09999999,27,47,0,0
527870,192711807,1,1271,1271,15.74,0.09,27,47,0,0
528755,192931886,1,1271,1271,15.74,0.09999999,28,47,0,0
529240,193041346,1,1271,1271,15.75,0.09999999,27,47,0,0
529652,193146015,1,1271,1271,15.75,0.09999999,27,47,0,0
530096,193250115,1,1259,642,15.77,0.01,27,47,0,0
530572,193366583,1,602,200,15.77,0.01,27,47,0,0
531023,193469968,1,196,0,15.77,0.02,27,47,0,0
531515,193584563,1,0,0,15.77,0.03,27,47,0,0
531968,193687989,1,0,0,15.77,0.03,27,47,0,0
532459,193803813,1,0,0,15.77,0.03,27,47,0,0
532912,193909576,1,0,0,15.77,0.03,27,47,0,0
533320,194010261,1,0,0,15.77,0.03,27,47,0,0
533823,194132569,1,0,0,15.77,0.03,27,47,0,0
534229,194228783,1,0,0,15.77,0.03,27,47,0,0
534642,194334033,1,0,0,15.77,0.03,27,47,0,0
535139,194447467,1,0,0,15.79,0.02,27,47,0,0
535587,194553818,1,0,0,15.78,0.03,27,47,0,0
536086,194668824,1,0,0,15.78,0.03,27,47,0,0
536489,194766231,1,0,0,15.79,0.03,27,47,0,0
536987,194883970,1,0,0,15.79,0.03,27,47,0,0
537439,194990035,1,0,0,15.79,0.03,27,47,0,0
537890,195094303,1,0,0,15.79,0.03,27,47,0,0
538347,195207464,1,0,0,15.79,0.03,27,47,0,0
538798,195311377,1,0,0,15.79,0.03,27,47,0,0
539253,195421801,1,0,0,15.8,0.03,27,47,0,0
539706,195533356,1,0,0,15.8,0.03,27,47,0,0
540170,195648485,1,0,0,15.8,0.03,27,47,0,0
540617,195752332,1,0,0,15.8,0.03,27,47,0,0
541068,195857817,1,0,0,15.8,0.03,27,47,0,0
541563,195976586,1,0,0,15.8,0.03,27,47,0,0
542014,196080119,1,0,0,15.8,0.03,27,47,0,0
542470,196191567,1,0,0,15.8,0.03,27,47,0,0
542961,196299977,1,0,0,15.8,0.03,27,47,0,0
543414,196409801,1,0,0,15.8,0.03,27,47,0,0
543865,196514553,1,0,0,15.8,0.03,27,47,0,0
544321,196625740,1,0,0,15.8,0.03,27,47,0,0
544778,196736998,1,0,0,15.81,0.03,27,47,0,0
545230,196839446,1,0,0,15.81,0.03,27,47,0,0
545684,196949472,1,0,0,15.81,0.03,27,47,0,0
545859,197052989,1,0,0,15.81,0.03,27,47,0,0
546308,197160814,1,0,0,15.81,0.03,27,47,0,0
546762,197266736,1,0,0,15.82,0.03,27,47,0,0
547252,197381292,1,0,0,15.82,0.03,27,47,0,0
547751,197496452,1,0,0,15.82,0.03,27,47,0,0
548201,197601987,1,0,0,15.82,0.03,27,47,0,0
548652,197706121,1,0,0,15.82,0.03,27,47,0,0
549106,197817299,1,0,0,15.82,0.03,27,47,0,0
549563,197931244,1,0,0,15.82,0.03,27,47,0,0
550015,198038215,1,0,0,15.83,0.03,27,47,0,0
550464,198142867,1,0,0,15.82,0.03,27,47,0,0
550959,198257019,1,0,0,15.83,0.03,27,47,0,0
551411,198362817,1,0,0,15.82,0.03,27,47,0,0
551862,198466965,1,0,0,15.82,0.03,27,47,0,0
552319,198582088,1,0,0,15.83,0.03,27,47,0,0
552772,198684782,1,0,0,15.83,0.03,27,47,0,0
553265,198802516,1,0,0,15.83,0.03,27,47,0,0
553720,198905258,1,0,0,15.83,0.03,27,47,0,0
554619,199117653,1,0,0,15.83,0.03,27,47,0,0
555064,199223828,1,0,0,15.83,0.03,27,47,0,0
555519,199335147,1,0,0,15.83,0.03,27,47,0,0
556013,199450833,1,0,0,15.83,0.03,27,47,0,0
556915,199662056,1,0,0,15.83,0.03,27,47,0,0
557365,199770928,1,0,0,15.83,0.03,27,47,0,0
557863,199884917,1,0,0,15.84,0.03,27,47,0,0
558272,199985946,1,0,0,15.84,0.03,27,47,0,0
558725,200092919,1,0,0,15.84,0.03,27,47,0,0
