LineNo,TimeUS,Instance,RPM,RawRPM,Volt,Curr,Temp,CTot,MotTemp,Err
1802,6.4743e+07,5,0,0,16.26,0.03,24,0,0,0
2224,6.4847e+07,5,0,0,16.26,0.03,24,0,0,0
2639,6.4957e+07,5,0,0,16.26,0.03,24,0,0,0
3052,6.5059e+07,5,0,0,16.26,0.03,24,0,0,0
3505,6.5173e+07,5,0,0,16.26,0.03,24,0,0,0
3926,6.5277e+07,5,0,0,16.26,0.03,24,0,0,0
4342,6.5383e+07,5,0,0,16.26,0.03,24,0,0,0
4797,6.5497e+07,5,0,0,16.26,0.03,25,0,0,0
5206,6.56e+07,5,0,0,16.26,0.03,24,0,0,0
5657,6.5716e+07,5,0,0,16.26,0.03,25,0,0,0
6035,6.581e+07,5,0,0,16.26,0.03,24,0,0,0
6490,6.5927e+07,5,0,0,16.26,0.03,24,0,0,0
6902,6.6028e+07,5,0,0,16.26,0.03,24,0,0,0
7330,6.6136e+07,5,0,0,16.26,0.03,24,0,0,0
7829,6.625e+07,5,0,0,16.26,0.03,24,0,0,0
8281,6.6356e+07,5,0,0,16.26,0.03,24,0,0,0
8737,6.6463e+07,5,0,0,16.26,0.03,24,0,0,0
9223,6.657e+07,5,0,0,16.26,0.03,24,0,0,0
9676,6.6674e+07,5,0,0,16.26,0.03,24,0,0,0
10131,6.6784e+07,5,0,0,16.26,0.03,24,0,0,0
10631,6.6897e+07,5,0,0,16.26,0.03,25,0,0,0
11085,6.7004e+07,5,0,0,16.26,0.03,24,0,0,0
11539,6.7107e+07,5,0,0,16.26,0.03,25,0,0,0
12030,6.722e+07,5,0,0,16.26,0.03,25,0,0,0
12943,6.7432e+07,5,0,0,16.26,0.03,24,0,0,0
13390,6.7537e+07,5,0,0,16.26,0.03,24,0,0,0
14344,6.7759e+07,5,0,0,16.26,0.03,25,0,0,0
14795,6.7863e+07,5,0,0,16.26,0.03,25,0,0,0
15247,6.797e+07,5,0,0,16.26,0.03,25,0,0,0
15702,6.8075e+07,5,0,0,16.26,0.03,24,0,0,0
16157,6.8183e+07,5,8,200,16.25,0.02,25,0,0,0
16661,6.8298e+07,5,218,414,16.24,0.06,25,0,0,0
17109,6.8403e+07,5,444,842,16.2,0.12,25,0,0,0
17568,6.8513e+07,5,877,1185,16.25,0.13,25,0,0,0
18021,6.8616e+07,5,1185,1257,16.25,0.11,25,0,0,0
18474,6.8724e+07,5,1258,1285,16.24,0.11,25,0,0,0
18927,6.8826e+07,5,1285,1300,16.24,0.11,25,0,0,0
19422,6.8943e+07,5,1301,1314,16.25,0.1,25,0,0,0
19874,6.9045e+07,5,1314,1314,16.24,0.1,25,0,0,0
20607,6.9266e+07,5,1314,1314,16.24,0.11,25,0,0,0
21061,6.9373e+07,5,1314,1314,16.25,0.11,25,0,0,0
22009,6.9588e+07,5,1314,1314,16.25,0.1,25,0,0,0
22461,6.9691e+07,5,1314,1314,16.24,0.1,25,0,0,0
22924,6.9803e+07,5,1314,1314,16.25,0.11,25,0,0,0
23384,6.9912e+07,5,1314,1314,16.24,0.11,25,0,0,0
23833,7.0014e+07,5,1314,1314,16.24,0.1,25,0,0,0
24324,7.0126e+07,5,1314,1314,16.24,0.1,25,0,0,0
24824,7.0238e+07,5,1314,1314,16.25,0.1,25,0,0,0
25274,7.0341e+07,5,1314,1314,16.24,0.1,25,0,0,0
25731,7.0448e+07,5,1314,1314,16.25,0.11,25,0,0,0
26228,7.0563e+07,5,1314,1314,16.25,0.1,25,0,0,0
26681,7.0667e+07,5,1314,1314,16.25,0.1,25,0,0,0
27136,7.0774e+07,5,1314,1314,16.24,0.1,25,0,0,0
28050,7.0991e+07,5,1314,1314,16.24,0.1,25,0,0,0
28502,7.1094e+07,5,1314,1314,16.23,0.1,25,0,0,0
28998,7.1207e+07,5,1314,1314,16.25,0.1,25,0,0,0
29452,7.1317e+07,5,1314,1314,16.25,0.1,25,0,0,0
29908,7.1423e+07,5,1314,1314,16.24,0.1,25,0,0,0
30360,7.1526e+07,5,1314,1328,16.25,0.1,25,0,0,0
30856,7.1637e+07,5,1327,1314,16.24,0.1,25,0,0,0
31313,7.1745e+07,5,1314,1314,16.24,0.1,25,0,0,0
31766,7.1847e+07,5,1314,1314,16.25,0.1,25,0,0,0
32221,7.1957e+07,5,1314,1314,16.24,0.1,25,0,0,0
32722,7.2069e+07,5,1314,1314,16.24,0.1,25,0,0,0
33169,7.2175e+07,5,1314,1314,16.23,0.1,25,0,0,0
33629,7.2281e+07,5,1314,1314,16.25,0.1,25,0,0,0
34124,7.2398e+07,5,1314,1314,16.23,0.1,25,0,0,0
34579,7.2502e+07,5,1313,1300,16.24,0.1,25,0,0,0
35034,7.2611e+07,5,1300,1314,16.24,0.1,25,0,0,0
35494,7.2721e+07,5,1314,1314,16.25,0.11,25,0,0,0
35950,7.2827e+07,5,1314,1314,16.24,0.1,25,0,0,0
36435,7.2936e+07,5,1314,1314,16.25,0.1,25,0,0,0
36854,7.3037e+07,5,1314,1314,16.25,0.1,25,0,0,0
37841,7.3257e+07,5,1314,1314,16.25,0.1,25,0,0,0
38296,7.3366e+07,5,1314,1314,16.24,0.1,25,0,0,0
38748,7.347e+07,5,1314,1314,16.24,0.1,25,0,0,0
39205,7.358e+07,5,1314,1314,16.23,0.1,25,0,0,0
39664,7.3685e+07,5,1314,1314,16.24,0.1,25,0,0,0
40115,7.3789e+07,5,1314,1314,16.23,0.1,25,0,0,0
40612,7.3902e+07,5,1314,1314,16.25,0.1,25,0,0,0
41064,7.401e+07,5,1314,1314,16.24,0.1,25,0,0,0
41559,7.4125e+07,5,1314,1314,16.23,0.1,25,0,0,0
42015,7.4229e+07,5,1314,1314,16.24,0.1,25,0,0,0
42470,7.4337e+07,5,1314,1314,16.25,0.1,25,0,0,0
42926,7.4442e+07,5,1314,1314,16.24,0.1,25,0,0,0
43379,7.4548e+07,5,1314,1314,16.24,0.1,25,0,0,0
43879,7.4659e+07,5,1314,1314,16.23,0.1,25,0,0,0
44334,7.4767e+07,5,1314,1314,16.24,0.1,25,0,0,0
44788,7.4869e+07,5,1314,1314,16.25,0.1,25,0,0,0
45243,7.4978e+07,5,1314,1314,16.24,0.1,25,0,0,0
45699,7.5083e+07,5,1314,1314,16.23,0.1,25,0,0,0
46195,7.5197e+07,5,1314,1314,16.24,0.1,25,0,0,0
46647,7.5299e+07,5,1314,1314,16.23,0.1,25,0,0,0
47142,7.5415e+07,5,1314,1314,16.23,0.1,25,0,0,0
47597,7.5517e+07,5,1314,1314,16.23,0.1,25,0,0,0
48055,7.5628e+07,5,1314,1314,16.23,0.1,25,0,0,0
48508,7.5734e+07,5,1314,1314,16.23,0.1,25,0,0,0
49905,7.6059e+07,5,1296,757,16.26,0.01,25,0,0,0
50350,7.6167e+07,5,720,228,16.25,0.01,25,0,0,0
50848,7.6281e+07,5,208,0,16.25,0.02,25,0,0,0
51296,7.6387e+07,5,0,0,16.25,0.03,25,0,0,0
51753,7.6492e+07,5,0,0,16.26,0.03,25,0,0,0
52206,7.6606e+07,5,0,0,16.25,0.03,25,0,0,0
52668,7.6714e+07,5,0,0,16.25,0.03,25,0,0,0
53121,7.682e+07,5,0,0,16.26,0.03,25,0,0,0
53573,7.6927e+07,5,0,0,16.26,0.03,25,0,0,0
54032,7.7037e+07,5,0,0,16.25,0.03,25,0,0,0
54485,7.7146e+07,5,0,0,16.25,0.03,25,0,0,0
54983,7.7261e+07,5,0,0,16.26,0.03,25,0,0,0
55925,7.7481e+07,5,0,0,16.26,0.03,25,0,0,0
56337,7.7582e+07,5,0,0,16.25,0.03,25,0,0,0
56839,7.7696e+07,5,0,0,16.26,0.03,25,0,0,0
57250,7.7796e+07,5,0,0,16.26,0.03,25,0,0,0
57743,7.7914e+07,5,0,0,16.25,0.03,25,0,0,0
58153,7.8007e+07,5,0,0,16.26,0.03,25,0,0,0
58657,7.8132e+07,5,0,0,16.25,0.03,25,0,0,0
59066,7.8227e+07,5,0,0,16.25,0.03,25,0,0,0
59559,7.8342e+07,5,0,0,16.26,0.03,25,0,0,0
60013,7.8448e+07,5,0,0,16.26,0.03,25,0,0,0
60468,7.856e+07,5,0,0,16.26,0.03,25,0,0,0
60923,7.8664e+07,5,0,0,16.25,0.03,25,0,0,0
61374,7.8772e+07,5,0,0,16.25,0.03,25,0,0,0
61871,7.8886e+07,5,0,0,16.25,0.03,25,0,0,0
62324,7.8995e+07,5,0,0,16.26,0.03,25,0,0,0
62780,7.9105e+07,5,0,0,16.25,0.03,25,0,0,0
63235,7.9212e+07,5,0,0,16.26,0.03,25,0,0,0
63908,7.9427e+07,5,0,0,16.26,0.03,25,0,0,0
64360,7.9536e+07,5,0,0,16.26,0.03,25,0,0,0
64858,7.9648e+07,5,0,0,16.26,0.03,25,0,0,0
65272,7.9751e+07,5,0,0,16.26,0.03,25,0,0,0
65779,7.9868e+07,5,0,0,16.25,0.03,25,0,0,0
66231,7.9976e+07,5,0,0,16.26,0.03,25,0,0,0
66684,8.008e+07,5,0,0,16.25,0.03,25,0,0,0
67138,8.0189e+07,5,0,0,16.25,0.03,25,0,0,0
67636,8.0303e+07,5,0,0,16.25,0.03,25,0,0,0
68089,8.0411e+07,5,0,0,16.25,0.02,25,0,0,0
68544,8.0522e+07,5,0,0,16.26,0.02,25,0,0,0
69036,8.0631e+07,5,0,0,16.25,0.03,25,0,0,0
69447,8.0734e+07,5,0,0,16.26,0.03,25,0,0,0
69945,8.0849e+07,5,0,0,16.26,0.03,25,0,0,0
70433,8.0962e+07,5,0,0,16.26,0.03,25,0,0,0
70889,8.1069e+07,5,0,0,16.26,0.03,25,0,0,0
71349,8.1179e+07,5,0,0,16.26,0.03,25,0,0,0
71802,8.1283e+07,5,0,0,16.25,0.03,25,0,0,0
72294,8.14e+07,5,0,0,16.25,0.03,25,0,0,0
72746,8.1505e+07,5,0,0,16.25,0.03,25,0,0,0
73200,8.1614e+07,5,0,0,16.25,0.03,25,0,0,0
73651,8.1723e+07,5,0,0,16.25,0.03,25,0,0,0
74147,8.1838e+07,5,0,0,16.26,0.03,25,0,0,0
74640,8.1951e+07,5,0,0,16.26,0.03,25,0,0,0
75093,8.2058e+07,5,0,0,16.25,0.03,25,0,0,0
75547,8.2166e+07,5,0,0,16.25,0.03,25,0,0,0
76045,8.2281e+07,5,0,0,16.26,0.03,25,0,0,0
76495,8.239e+07,5,0,0,16.26,0.03,25,0,0,0
76916,8.2494e+07,5,0,0,16.25,0.03,25,0,0,0
77410,8.2607e+07,5,0,0,16.26,0.03,25,0,0,0
77858,8.2711e+07,5,0,0,16.26,0.03,25,0,0,0
78318,8.2821e+07,5,0,0,16.26,0.03,25,0,0,0
78813,8.2936e+07,5,0,0,16.26,0.03,25,0,0,0
79267,8.304e+07,5,0,0,16.26,0.02,25,0,0,0
79723,8.3152e+07,5,0,0,16.25,0.02,25,0,0,0
80176,8.3257e+07,5,0,0,16.26,0.02,25,0,0,0
80631,8.3369e+07,5,0,0,16.26,0.02,25,0,0,0
81128,8.3484e+07,5,0,0,16.25,0.02,25,0,0,0
81581,8.3591e+07,5,0,0,16.25,0.02,25,0,0,0
82036,8.3697e+07,5,0,0,16.26,0.02,25,0,0,0
82487,8.3804e+07,5,0,0,16.26,0.02,25,0,0,0
82980,8.3921e+07,5,0,0,16.26,0.02,25,0,0,0
83436,8.4024e+07,5,0,0,16.26,0.02,25,0,0,0
84384,8.4244e+07,5,0,0,16.26,0.03,25,0,0,0
84835,8.4351e+07,5,0,0,16.26,0.03,25,0,0,0
85334,8.4467e+07,5,0,0,16.26,0.03,25,0,0,0
85791,8.4578e+07,5,0,0,16.26,0.03,25,0,0,0
86246,8.4682e+07,5,0,0,16.26,0.03,25,0,0,0
86697,8.479e+07,5,0,0,16.26,0.03,25,0,0,0
87149,8.4894e+07,5,0,0,16.26,0.03,25,0,0,0
87602,8.5002e+07,5,0,0,16.26,0.03,25,0,0,0
88555,8.5222e+07,5,0,0,16.25,0.03,25,0,0,0
89002,8.5329e+07,5,0,0,16.25,0.03,25,0,0,0
89503,8.5447e+07,5,0,0,16.26,0.03,25,0,0,0
89954,8.5556e+07,5,0,0,16.25,0.03,25,0,0,0
90410,8.5661e+07,5,0,0,16.26,0.03,25,0,0,0
90868,8.5774e+07,5,0,0,16.26,0.03,25,0,0,0
91320,8.5877e+07,5,0,0,16.26,0.03,25,0,0,0
91772,8.5984e+07,5,0,0,16.26,0.03,25,0,0,0
92723,8.6205e+07,5,0,0,16.26,0.03,25,0,0,0
93138,8.6307e+07,5,0,0,16.26,0.03,25,0,0,0
93634,8.6423e+07,5,0,0,16.26,0.03,25,0,0,0
94083,8.6529e+07,5,0,0,16.26,0.03,25,0,0,0
94581,8.6644e+07,5,0,0,16.26,0.03,25,0,0,0
95032,8.6751e+07,5,0,0,16.26,0.03,25,0,0,0
95485,8.6855e+07,5,0,0,16.26,0.03,25,0,0,0
95936,8.6963e+07,5,0,0,16.26,0.03,25,0,0,0
96437,8.7076e+07,5,0,0,16.25,0.03,25,0,0,0
96930,8.7189e+07,5,0,0,16.26,0.03,25,0,0,0
97383,8.7296e+07,5,0,0,16.26,0.03,25,0,0,0
97834,8.7404e+07,5,0,0,16.26,0.02,25,0,0,0
98292,8.7515e+07,5,0,0,16.26,0.02,25,0,0,0
98745,8.7618e+07,5,0,0,16.26,0.02,25,0,0,0
99683,8.7834e+07,5,0,0,16.26,0.03,25,0,0,0
1.0018e+05,8.7953e+07,5,0,0,16.25,0.03,25,0,0,0
1.0064e+05,8.8058e+07,5,0,0,16.26,0.03,25,0,0,0
1.0109e+05,8.8167e+07,5,0,0,16.26,0.03,25,0,0,0
1.0155e+05,8.8277e+07,5,0,0,16.25,0.03,25,0,0,0
1.02e+05,8.8386e+07,5,0,0,16.26,0.03,25,0,0,0
1.025e+05,8.8503e+07,5,0,0,16.26,0.03,25,0,0,0
1.0296e+05,8.8611e+07,5,0,0,16.26,0.03,25,0,0,0
1.0341e+05,8.872e+07,5,0,0,16.26,0.02,25,0,0,0
1.0386e+05,8.8825e+07,5,0,0,16.26,0.02,25,0,0,0
1.0482e+05,8.9047e+07,5,0,0,16.25,0.02,25,0,0,0
1.0523e+05,8.9147e+07,5,0,0,16.26,0.03,25,0,0,0
1.0572e+05,8.926e+07,5,0,0,16.26,0.02,25,0,0,0
1.0618e+05,8.9367e+07,5,0,0,16.25,0.02,25,0,0,0
1.0663e+05,8.9474e+07,5,0,0,16.26,0.03,25,0,0,0
1.0708e+05,8.958e+07,5,0,0,16.25,0.03,25,0,0,0
1.0758e+05,8.9694e+07,5,0,0,16.25,0.02,25,0,0,0
1.0803e+05,8.98e+07,5,0,0,16.25,0.02,25,0,0,0
1.0849e+05,8.9905e+07,5,0,0,16.25,0.02,25,0,0,0
1.0898e+05,9.0016e+07,5,0,0,16.25,0.02,25,0,0,0
1.0943e+05,9.0119e+07,5,0,0,16.25,0.02,25,0,0,0
1.1034e+05,9.0337e+07,5,0,0,16.26,0.02,25,0,0,0
1.1079e+05,9.0439e+07,5,0,0,16.26,0.02,25,0,0,0
1.1125e+05,9.0544e+07,5,0,0,16.26,0.02,25,0,0,0
1.1174e+05,9.0658e+07,5,0,0,16.26,0.01,25,0,0,0
1.122e+05,9.0764e+07,5,4,128,16.23,0.07,25,0,0,0
1.1265e+05,9.0868e+07,5,139,742,16.23,0.11,25,0,0,0
1.1314e+05,9.0979e+07,5,759,1142,16.23,0.13,25,0,0,0
1.1364e+05,9.1093e+07,5,1150,1242,16.24,0.11,25,0,0,0
1.141e+05,9.1196e+07,5,1244,1285,16.23,0.1,25,0,0,0
1.146e+05,9.131e+07,5,1287,1314,16.25,0.09,25,0,0,0
1.1505e+05,9.1415e+07,5,1314,1314,16.24,0.09,25,0,0,0
1.155e+05,9.1525e+07,5,1314,1314,16.24,0.09,25,0,0,0
1.1595e+05,9.1629e+07,5,1314,1314,16.23,0.1,25,0,0,0
1.1671e+05,9.1846e+07,5,1314,1314,16.24,0.09,25,0,0,0
1.1765e+05,9.2057e+07,5,1314,1314,16.24,0.09,25,0,0,0
1.181e+05,9.2164e+07,5,1314,1314,16.24,0.1,25,0,0,0
1.186e+05,9.2279e+07,5,1314,1314,16.23,0.1,25,0,0,0
1.1905e+05,9.2386e+07,5,1314,1314,16.23,0.1,25,0,0,0
1.1951e+05,9.2489e+07,5,1314,1314,16.23,0.1,25,0,0,0
1.1996e+05,9.2598e+07,5,1314,1314,16.23,0.1,25,0,0,0
1.2046e+05,9.2716e+07,5,1314,1314,16.24,0.1,25,0,0,0
1.2092e+05,9.282e+07,5,1314,1314,16.24,0.1,25,0,0,0
1.2136e+05,9.2927e+07,5,1314,1314,16.24,0.1,25,0,0,0
1.2182e+05,9.3029e+07,5,1314,1314,16.23,0.09,25,0,0,0
1.2232e+05,9.3148e+07,5,1314,1314,16.24,0.1,25,0,0,0
1.2274e+05,9.325e+07,5,1314,1314,16.23,0.09,25,0,0,0
1.2319e+05,9.3356e+07,5,1314,1314,16.23,0.09,25,0,0,0
1.2369e+05,9.3469e+07,5,1315,1328,16.23,0.09,25,0,0,0
1.2414e+05,9.3573e+07,5,1326,1314,16.23,0.09,25,0,0,0
1.2459e+05,9.3674e+07,5,1314,1314,16.23,0.09,25,0,0,0
1.2508e+05,9.3788e+07,5,1314,1314,16.24,0.1,25,0,0,0
1.2554e+05,9.3891e+07,5,1314,1314,16.23,0.09,25,0,0,0
1.2599e+05,9.3998e+07,5,1314,1314,16.23,0.09,25,0,0,0
1.2648e+05,9.4115e+07,5,1314,1314,16.23,0.09,25,0,0,0
1.2694e+05,9.422e+07,5,1314,1314,16.23,0.09,25,0,0,0
1.2785e+05,9.4429e+07,5,1314,1314,16.24,0.09,25,0,0,0
1.288e+05,9.4649e+07,5,1314,1314,16.24,0.09,25,0,0,0
1.2924e+05,9.4751e+07,5,1315,1371,16.22,0.15,25,0,0,0
1.297e+05,9.4854e+07,5,1375,1671,16.19,0.44,25,0,0,0
1.3066e+05,9.5078e+07,5,1706,2514,16.19,0.43,25,0,0,0
1.3107e+05,9.5177e+07,5,2514,2557,16.15,0.46,25,0,0,0
1.3157e+05,9.5289e+07,5,2555,2514,16.13,0.51,25,0,0,0
1.3203e+05,9.5398e+07,5,2514,2514,16.1,0.43,25,0,0,0
1.3252e+05,9.5516e+07,5,2538,2814,16.14,0.97,25,0,0,0
1.3298e+05,9.5625e+07,5,2867,3442,15.81,1.51,25,0,0,0
1.3343e+05,9.5736e+07,5,3499,4085,15.44,3.35,25,0,0,0
1.3388e+05,9.584e+07,5,4112,4814,15.75,3.05,25,1,0,0
1.3434e+05,9.5953e+07,5,4856,5271,15.72,3.41,25,1,0,0
1.348e+05,9.6058e+07,5,5301,5728,15.55,3.75,25,1,0,0
1.3525e+05,9.6168e+07,5,5763,6100,15.74,3.42,25,1,0,0
1.357e+05,9.6273e+07,5,6072,5714,15.76,2.91,25,1,0,0
1.3615e+05,9.6382e+07,5,5717,5771,15.72,2.85,25,1,0,0
1.3706e+05,9.6597e+07,5,5772,6014,15.75,3.43,25,1,0,0
1.3755e+05,9.6718e+07,5,6015,6028,15.72,3.2,25,1,0,0
1.38e+05,9.6825e+07,5,6026,6014,15.67,3.46,25,1,0,0
1.3848e+05,9.6936e+07,5,6010,5957,15.73,3.17,25,2,0,0
1.3894e+05,9.7041e+07,5,5961,6057,15.74,3.69,25,2,0,0
1.3989e+05,9.7266e+07,5,6075,6471,15.6,4.12,25,2,0,0
1.4034e+05,9.7374e+07,5,6456,6300,15.69,3.5,25,2,0,0
1.4079e+05,9.7478e+07,5,6300,6300,15.62,3.52,25,2,0,0
1.4124e+05,9.7589e+07,5,6280,6085,15.68,3.37,25,2,0,0
1.417e+05,9.7696e+07,5,6086,6128,15.7,3.17,25,2,0,0
1.4215e+05,9.7806e+07,5,6109,5842,15.74,3.25,26,2,0,0
1.431e+05,9.8031e+07,5,5843,5871,15.68,3.05,26,3,0,0
1.4355e+05,9.8142e+07,5,5880,5971,15.63,3.2,26,3,0,0
1.44e+05,9.8245e+07,5,5968,5928,15.71,3.03,26,3,0,0
1.4445e+05,9.8354e+07,5,5909,5671,15.57,3.17,26,3,0,0
1.4496e+05,9.8468e+07,5,5683,5885,15.67,2.97,26,3,0,0
1.4541e+05,9.8576e+07,5,5871,5700,15.74,2.8,26,3,0,0
1.4586e+05,9.8686e+07,5,5703,5742,15.57,3.1,26,3,0,0
1.4628e+05,9.8791e+07,5,5772,6071,15.54,4.19,26,3,0,0
1.4674e+05,9.8898e+07,5,6080,6314,15.51,4.22,26,3,0,0
1.4718e+05,9.9004e+07,5,6322,6500,15.5,4.44,26,4,0,0
1.4768e+05,9.9126e+07,5,6504,6542,15.48,4.56,26,4,0,0
1.4814e+05,9.9231e+07,5,6542,6542,15.41,4.27,26,4,0,0
1.4854e+05,9.933e+07,5,6542,6585,15.47,4.59,26,4,0,0
1.4904e+05,9.9448e+07,5,6586,6600,15.5,4.31,26,4,0,0
1.4994e+05,9.9664e+07,5,6600,6628,15.44,4.62,26,4,0,0
1.504e+05,9.9777e+07,5,6630,6657,15.45,4.32,26,4,0,0
1.5085e+05,9.9881e+07,5,6649,6514,15.54,4.18,26,5,0,0
1.513e+05,9.999e+07,5,6507,6414,15.51,4.27,26,5,0,0
1.518e+05,1.0011e+08,5,6416,6442,15.56,4.38,26,5,0,0
1.5203e+05,1.002e+08,5,6441,6400,15.51,3.98,26,5,0,0
1.5252e+05,1.0032e+08,5,6409,6585,15.58,4.15,26,5,0,0
1.5298e+05,1.0043e+08,5,6574,6471,15.56,3.79,26,5,0,0
1.5342e+05,1.0055e+08,5,6493,6700,15.59,4.33,26,5,0,0
1.5383e+05,1.0064e+08,5,6694,6328,15.62,3.72,26,6,0,0
1.5428e+05,1.0076e+08,5,6329,6428,15.55,3.92,26,6,0,0
1.5476e+05,1.0087e+08,5,6423,6385,15.61,3.79,26,6,0,0
1.5522e+05,1.0098e+08,5,6380,6328,15.61,4.01,26,6,0,0
1.5562e+05,1.0108e+08,5,6320,6128,15.73,3.13,26,6,0,0
1.5611e+05,1.0121e+08,5,6109,5971,15.72,2.93,26,6,0,0
1.5696e+05,1.0141e+08,5,5966,5757,15.51,3.03,26,6,0,0
1.5782e+05,1.0163e+08,5,5757,5914,15.65,3.37,26,6,0,0
1.5826e+05,1.0174e+08,5,5926,6157,15.55,3.81,26,7,0,0
1.5875e+05,1.0186e+08,5,6163,6228,15.61,3.54,26,7,0,0
1.5916e+05,1.0196e+08,5,6211,5900,15.64,3.02,26,7,0,0
1.6006e+05,1.0218e+08,5,5905,6028,15.55,3.31,26,7,0,0
1.605e+05,1.0229e+08,5,6010,5828,15.58,3,26,7,0,0
1.609e+05,1.0239e+08,5,5832,6142,15.54,3.75,27,7,0,0
1.6136e+05,1.025e+08,5,6144,6271,15.54,3.75,26,7,0,0
1.618e+05,1.0261e+08,5,6270,6214,15.57,3.3,27,7,0,0
1.6229e+05,1.0273e+08,5,6197,6071,15.57,3.4,27,8,0,0
1.6274e+05,1.0284e+08,5,6061,5971,15.6,3.19,27,8,0,0
1.6314e+05,1.0294e+08,5,5971,5985,15.56,3.41,27,8,0,0
1.6363e+05,1.0306e+08,5,5993,6085,15.63,3.7,26,8,0,0
1.6404e+05,1.0316e+08,5,6093,6285,15.52,3.6,27,8,0,0
1.6496e+05,1.0338e+08,5,6276,6100,15.55,3.45,26,8,0,0
1.6542e+05,1.0348e+08,5,6093,6028,15.53,3.23,26,8,0,0
1.6586e+05,1.0359e+08,5,6034,6185,15.56,3.37,27,8,0,0
1.663e+05,1.037e+08,5,6183,6100,15.54,3.57,27,8,0,0
1.6675e+05,1.0381e+08,5,6094,6042,15.63,3.45,27,9,0,0
1.672e+05,1.0392e+08,5,6042,6042,15.55,3.35,27,9,0,0
1.6764e+05,1.0402e+08,5,6042,6042,15.54,3.2,27,9,0,0
1.6809e+05,1.0413e+08,5,6038,5800,15.64,3.14,27,9,0,0
1.6858e+05,1.0425e+08,5,5812,5928,15.48,3.56,27,9,0,0
1.6903e+05,1.0436e+08,5,5949,6157,15.46,4.19,27,9,0,0
1.6944e+05,1.0446e+08,5,6174,6528,15.31,4.73,27,9,0,0
1.6988e+05,1.0457e+08,5,6534,6628,15.36,4.64,27,9,0,0
1.7028e+05,1.0467e+08,5,6630,6714,15.27,5.3,27,10,0,0
1.7074e+05,1.0479e+08,5,6720,6814,15.37,5.03,27,10,0,0
1.7119e+05,1.049e+08,5,6810,6757,15.35,4.98,27,10,0,0
1.7164e+05,1.0501e+08,5,6762,6814,15.29,5.06,27,10,0,0
1.7209e+05,1.0512e+08,5,6819,6871,15.36,4.76,27,10,0,0
1.7254e+05,1.0522e+08,5,6864,6800,15.36,4.61,27,10,0,0
1.7298e+05,1.0533e+08,5,6794,6714,15.33,4.52,27,10,0,0
1.7343e+05,1.0544e+08,5,6716,6742,15.39,4.71,27,11,0,0
1.7388e+05,1.0555e+08,5,6744,6785,15.38,4.48,27,11,0,0
1.7432e+05,1.0565e+08,5,6757,6500,15.44,3.73,27,11,0,0
1.7476e+05,1.0576e+08,5,6462,5971,15.57,3.07,27,11,0,0
1.7521e+05,1.0587e+08,5,5972,6000,15.54,3.28,27,11,0,0
1.7562e+05,1.0597e+08,5,6000,6042,15.55,3.55,27,11,0,0
1.7612e+05,1.0609e+08,5,6042,6042,15.57,3.55,27,11,0,0
1.7701e+05,1.0631e+08,5,6049,6200,15.51,3.42,27,11,0,0
1.7746e+05,1.0642e+08,5,6194,6057,15.54,3.45,27,12,0,0
1.7831e+05,1.0663e+08,5,6055,6028,15.6,3.23,27,12,0,0
1.7872e+05,1.0674e+08,5,6010,5785,15.6,3.13,27,12,0,0
1.7916e+05,1.0685e+08,5,5790,6100,15.53,3.71,27,12,0,0
1.7965e+05,1.0696e+08,5,6098,6071,15.54,3.54,27,12,0,0
1.8006e+05,1.0706e+08,5,6077,6214,15.54,3.79,27,12,0,0
1.805e+05,1.0717e+08,5,6214,6228,15.44,3.76,27,12,0,0
1.81e+05,1.0729e+08,5,6233,6285,15.35,4.5,27,12,0,0
1.814e+05,1.0739e+08,5,6306,6742,15.3,5.72,27,13,0,0
1.8185e+05,1.075e+08,5,6773,7157,15.3,6.49,27,13,0,0
1.8229e+05,1.0761e+08,5,7174,7542,15.26,7.7,27,13,0,0
1.8274e+05,1.0772e+08,5,7569,7842,15.31,7.6,27,13,0,0
1.8318e+05,1.0784e+08,5,7838,7814,15.38,6.82,27,13,0,0
1.8363e+05,1.0795e+08,5,7742,7328,15.44,5.35,27,14,0,0
1.8404e+05,1.0804e+08,5,7297,6900,15.42,4.8,27,14,0,0
1.8448e+05,1.0815e+08,5,6882,6657,15.36,4.17,27,14,0,0
1.8533e+05,1.0836e+08,5,6630,5585,15.5,1.79,27,14,0,0
1.8578e+05,1.0847e+08,5,5563,5100,15.54,1.55,27,14,0,0
1.8623e+05,1.0858e+08,5,5052,4557,15.5,1.28,27,14,0,0
1.8663e+05,1.0868e+08,5,4558,4671,15.42,2.13,27,14,0,0
1.8707e+05,1.0879e+08,5,4677,4828,15.51,2.37,27,14,0,0
1.8756e+05,1.0891e+08,5,4849,5071,15.48,2.4,27,14,0,0
1.8797e+05,1.0901e+08,5,5114,5571,15.42,3.38,27,14,0,0
1.8841e+05,1.0912e+08,5,5602,5871,15.4,3.49,27,14,0,0
1.889e+05,1.0923e+08,5,5894,6142,15.47,4.03,27,15,0,0
1.893e+05,1.0933e+08,5,6151,6542,15.41,5.06,27,15,0,0
1.8979e+05,1.0945e+08,5,6560,6800,15.39,5.32,27,15,0,0
1.9068e+05,1.0967e+08,5,6805,6928,15.39,4.7,27,15,0,0
1.9108e+05,1.0978e+08,5,6921,6642,15.45,4.33,27,15,0,0
1.9154e+05,1.0989e+08,5,6631,6514,15.44,4.02,27,16,0,0
1.9202e+05,1.1e+08,5,6505,6442,15.38,3.98,27,16,0,0
1.9243e+05,1.101e+08,5,6433,6257,15.45,3.67,27,16,0,0
1.9287e+05,1.1022e+08,5,6241,6128,15.44,3.92,27,16,0,0
1.9377e+05,1.1043e+08,5,6147,6528,15.45,4.39,27,16,0,0
1.9418e+05,1.1054e+08,5,6537,6600,15.45,4.42,27,16,0,0
1.9458e+05,1.1063e+08,5,6600,6628,15.42,4.26,27,16,0,0
1.9502e+05,1.1075e+08,5,6629,6657,15.4,4.62,27,16,0,0
1.9552e+05,1.1087e+08,5,6646,6542,15.44,4.36,27,17,0,0
1.9592e+05,1.1097e+08,5,6548,6600,15.42,4.22,27,17,0,0
1.9638e+05,1.1108e+08,5,6592,6428,15.45,3.93,27,17,0,0
1.9683e+05,1.1119e+08,5,6423,6371,15.42,3.77,28,17,0,0
1.9728e+05,1.113e+08,5,6365,6314,15.45,3.73,27,17,0,0
1.9772e+05,1.1141e+08,5,6314,6314,15.42,3.88,27,17,0,0
1.9813e+05,1.1151e+08,5,6314,6314,15.46,3.85,28,17,0,0
1.9857e+05,1.1162e+08,5,6308,6171,15.47,3.81,27,17,0,0
1.9901e+05,1.1174e+08,5,6162,6057,15.48,3.41,27,18,0,0
1.9946e+05,1.1185e+08,5,6054,6028,15.46,3.47,27,18,0,0
1.9991e+05,1.1196e+08,5,6033,6142,15.47,3.44,27,18,0,0
2.0032e+05,1.1206e+08,5,6136,6042,15.44,3.33,27,18,0,0
2.008e+05,1.1217e+08,5,6058,6314,15.41,4,28,18,0,0
2.0125e+05,1.1228e+08,5,6306,6214,15.41,3.68,27,18,0,0
2.017e+05,1.1239e+08,5,6221,6314,15.38,3.9,28,18,0,0
2.0214e+05,1.125e+08,5,6310,6271,15.42,3.68,28,18,0,0
2.0259e+05,1.1261e+08,5,6266,6228,15.37,3.45,28,18,0,0
2.0304e+05,1.1272e+08,5,6235,6300,15.42,4.08,28,19,0,0
2.0345e+05,1.1282e+08,5,6301,6328,15.47,3.24,28,19,0,0
2.039e+05,1.1294e+08,5,6322,6257,15.47,4.01,27,19,0,0
2.043e+05,1.1304e+08,5,6259,6314,15.43,3.4,27,19,0,0
2.0475e+05,1.1315e+08,5,6311,6257,15.47,3.44,28,19,0,0
2.052e+05,1.1326e+08,5,6253,6114,15.39,3.26,28,19,0,0
2.0565e+05,1.1337e+08,5,6105,5942,15.47,3.04,28,19,0,0
2.061e+05,1.1348e+08,5,5942,5985,15.43,3.3,28,19,0,0
2.0659e+05,1.136e+08,5,5985,5985,15.42,3.29,28,19,0,0
2.0744e+05,1.1381e+08,5,5983,5928,15.45,3.45,28,20,0,0
2.079e+05,1.1393e+08,5,5928,5928,15.41,3.27,28,20,0,0
2.0831e+05,1.1403e+08,5,5922,5871,15.51,3.08,28,20,0,0
2.0871e+05,1.1413e+08,5,5865,5728,15.47,2.88,28,20,0,0
2.0915e+05,1.1424e+08,5,5728,5728,15.51,2.91,28,20,0,0
2.0961e+05,1.1435e+08,5,5730,5771,15.52,2.89,28,20,0,0
2.1006e+05,1.1446e+08,5,5789,5971,15.43,3.47,28,20,0,0
2.105e+05,1.1457e+08,5,5965,5885,15.45,3.33,28,20,0,0
2.1095e+05,1.1468e+08,5,5889,5957,15.47,2.92,28,20,0,0
2.1136e+05,1.1479e+08,5,5954,5914,15.48,3.14,28,21,0,0
2.1181e+05,1.149e+08,5,5894,5642,15.48,2.38,28,21,0,0
2.1222e+05,1.15e+08,5,5651,5785,15.55,3.02,28,21,0,0
2.1312e+05,1.1523e+08,5,5779,5671,15.52,2.67,28,21,0,0
2.1353e+05,1.1533e+08,5,5669,5585,15.43,2.76,28,21,0,0
2.1402e+05,1.1544e+08,5,5590,5728,15.41,3.23,28,21,0,0
2.1495e+05,1.1567e+08,5,5734,5871,15.46,3.22,28,21,0,0
2.154e+05,1.1578e+08,5,5873,5900,15.43,3.21,28,21,0,0
2.158e+05,1.1588e+08,5,5903,6071,15.47,3.15,28,21,0,0
2.1629e+05,1.16e+08,5,6059,5914,15.51,3.12,28,21,0,0
2.1669e+05,1.1609e+08,5,5914,5942,15.42,3.37,28,22,0,0
2.1714e+05,1.162e+08,5,5942,5942,15.44,3.5,28,22,0,0
2.1763e+05,1.1632e+08,5,5953,6071,15.51,3.34,28,22,0,0
2.1803e+05,1.1642e+08,5,6071,6071,15.5,3.4,28,22,0,0
2.1848e+05,1.1653e+08,5,6069,5971,15.45,3.04,28,22,0,0
2.1888e+05,1.1663e+08,5,5967,5900,15.5,3.33,28,22,0,0
2.1929e+05,1.1674e+08,5,5902,6057,15.45,3.11,28,22,0,0
2.1974e+05,1.1685e+08,5,6058,6185,15.43,3.4,28,22,0,0
2.2013e+05,1.1696e+08,5,6171,5900,15.46,3.52,28,22,0,0
2.2058e+05,1.1707e+08,5,5907,6042,15.42,3.39,28,22,0,0
2.2102e+05,1.1718e+08,5,6034,5928,15.5,3.19,28,23,0,0
2.2148e+05,1.1729e+08,5,5931,5971,15.39,3.47,28,23,0,0
2.2188e+05,1.1739e+08,5,5978,6114,15.45,3.99,28,23,0,0
2.2233e+05,1.175e+08,5,6116,6157,15.32,3.32,28,23,0,0
2.2277e+05,1.1761e+08,5,6146,6000,15.47,3.26,28,23,0,0
2.2322e+05,1.1772e+08,5,6019,6257,15.34,4.09,28,23,0,0
2.2367e+05,1.1783e+08,5,6251,6185,15.42,3.74,28,23,0,0
2.2413e+05,1.1794e+08,5,6205,6414,15.42,3.61,28,23,0,0
2.2453e+05,1.1804e+08,5,6405,6214,15.38,3.82,28,23,0,0
2.2497e+05,1.1815e+08,5,6216,6257,15.47,3.32,28,23,0,0
2.2586e+05,1.1836e+08,5,6255,6200,15.46,4.01,28,24,0,0
2.2632e+05,1.1847e+08,5,6198,6171,15.45,3.57,28,24,0,0
2.2676e+05,1.1858e+08,5,6168,6142,15.44,3.44,28,24,0,0
2.2721e+05,1.187e+08,5,6116,5971,15.4,3.24,28,24,0,0
2.2761e+05,1.188e+08,5,5974,6042,15.42,3.32,28,24,0,0
2.2806e+05,1.189e+08,5,6037,5928,15.48,3.02,28,24,0,0
2.2851e+05,1.1902e+08,5,5921,5857,15.47,2.64,28,24,0,0
2.2892e+05,1.1912e+08,5,5845,5728,15.44,2.87,28,24,0,0
2.2981e+05,1.1934e+08,5,5729,5771,15.39,2.93,28,25,0,0
2.3026e+05,1.1945e+08,5,5765,5685,15.45,2.9,28,25,0,0
2.3071e+05,1.1956e+08,5,5688,5842,15.51,3.33,28,25,0,0
2.3156e+05,1.1977e+08,5,5843,5957,15.43,3.08,28,25,0,0
2.3201e+05,1.1988e+08,5,5956,5942,15.42,3.31,28,25,0,0
2.3245e+05,1.1999e+08,5,5950,6157,15.44,3.38,28,25,0,0
2.3291e+05,1.2011e+08,5,6155,6057,15.45,3.54,28,25,0,0
2.3335e+05,1.2022e+08,5,6058,6071,15.38,3.48,28,25,0,0
2.3384e+05,1.2033e+08,5,6071,6071,15.45,3.38,28,25,0,0
2.3424e+05,1.2043e+08,5,6075,6157,15.48,3.37,28,26,0,0
2.3469e+05,1.2054e+08,5,6146,6042,15.41,3.56,28,26,0,0
2.351e+05,1.2064e+08,5,6041,6014,15.42,3.42,28,26,0,0
2.3555e+05,1.2075e+08,5,6020,6085,15.48,3.06,28,26,0,0
2.3595e+05,1.2085e+08,5,6085,6100,15.52,3.11,28,26,0,0
2.3644e+05,1.2097e+08,5,6090,6000,15.45,3.36,28,26,0,0
2.3689e+05,1.2108e+08,5,5997,5971,15.48,3.31,28,26,0,0
2.3734e+05,1.2119e+08,5,5975,6028,15.42,3.27,28,26,0,0
2.3779e+05,1.213e+08,5,6020,5957,15.45,3.01,28,26,0,0
2.3819e+05,1.214e+08,5,5953,5885,15.5,3.09,28,26,0,0
2.3864e+05,1.2151e+08,5,5893,6057,15.48,3.44,28,27,0,0
2.3909e+05,1.2163e+08,5,6055,6042,15.45,3.5,28,27,0,0
2.3949e+05,1.2173e+08,5,6049,6100,15.43,3.53,28,27,0,0
2.3995e+05,1.2184e+08,5,6087,5900,15.48,3.17,28,27,0,0
2.4039e+05,1.2195e+08,5,5919,6114,15.47,3.08,28,27,0,0
2.4084e+05,1.2206e+08,5,6094,5871,15.5,3.17,28,27,0,0
2.4129e+05,1.2218e+08,5,5884,6071,15.44,3.53,28,27,0,0
2.4174e+05,1.2228e+08,5,6049,5900,15.51,3.33,28,27,0,0
2.4218e+05,1.2239e+08,5,5912,6042,15.51,3.32,28,27,0,0
2.4259e+05,1.2249e+08,5,6042,6042,15.46,3.16,28,27,0,0
2.4303e+05,1.226e+08,5,6036,5800,15.5,3.12,28,28,0,0
2.4353e+05,1.2273e+08,5,5813,5971,15.43,3.44,28,28,0,0
2.4396e+05,1.2283e+08,5,5980,6100,15.52,3.22,28,28,0,0
2.4442e+05,1.2294e+08,5,6084,5942,15.47,3.38,28,28,0,0
2.4482e+05,1.2304e+08,5,5955,6071,15.51,3.56,28,28,0,0
2.4526e+05,1.2315e+08,5,6060,5928,15.54,3.45,28,28,0,0
2.4572e+05,1.2326e+08,5,5930,5957,15.56,2.99,28,28,0,0
2.4617e+05,1.2337e+08,5,5936,5514,15.54,2.36,28,28,0,0
2.4666e+05,1.2349e+08,5,5504,5414,15.47,2.51,28,28,0,0
2.4707e+05,1.2359e+08,5,5409,5357,15.49,2.44,28,28,0,0
2.4748e+05,1.2369e+08,5,5360,5571,15.42,3.24,28,28,0,0
2.4796e+05,1.2381e+08,5,5598,5885,15.5,4.01,28,29,0,0
2.4837e+05,1.2391e+08,5,5890,6257,15.45,3.84,28,29,0,0
2.4881e+05,1.2402e+08,5,6258,6285,15.48,3.81,28,29,0,0
2.4926e+05,1.2413e+08,5,6280,6214,15.45,3.99,28,29,0,0
2.5015e+05,1.2435e+08,5,6226,6757,15.31,5.25,28,29,0,0
2.5101e+05,1.2457e+08,5,6757,6800,15.23,4.82,28,30,0,0
2.5146e+05,1.2468e+08,5,6798,6728,15.23,5.07,28,30,0,0
2.5235e+05,1.249e+08,5,6727,6700,15.22,4.73,28,30,0,0
2.532e+05,1.2511e+08,5,6695,6500,15.27,4.16,28,30,0,0
2.5365e+05,1.2522e+08,5,6501,6585,15.25,4.29,28,30,0,0
2.5463e+05,1.2545e+08,5,6576,6400,15.32,4.03,28,31,0,0
2.5507e+05,1.2556e+08,5,6404,6471,15.32,4.16,28,31,0,0
2.5547e+05,1.2566e+08,5,6470,6457,15.32,3.96,28,31,0,0
2.5592e+05,1.2577e+08,5,6443,6257,15.32,3.93,28,31,0,0
2.5637e+05,1.2588e+08,5,6270,6457,15.31,4.31,28,31,0,0
2.5681e+05,1.2599e+08,5,6448,6242,15.36,3.98,28,31,0,0
2.5726e+05,1.261e+08,5,6248,6371,15.36,3.57,28,31,0,0
2.5771e+05,1.2621e+08,5,6357,6085,15.43,3.45,28,31,0,0
2.5821e+05,1.2633e+08,5,6088,6114,15.42,3.42,28,32,0,0
2.5861e+05,1.2643e+08,5,6122,6285,15.28,4.43,28,32,0,0
2.5906e+05,1.2654e+08,5,6285,6285,15.38,3.94,28,32,0,0
2.595e+05,1.2665e+08,5,6286,6371,15.32,3.52,28,32,0,0
2.5995e+05,1.2676e+08,5,6351,5900,15.33,3.21,28,32,0,0
2.604e+05,1.2687e+08,5,5901,5928,15.26,3.44,28,32,0,0
2.6081e+05,1.2697e+08,5,5946,6200,15.38,3.58,28,32,0,0
2.6126e+05,1.2708e+08,5,6197,6142,15.36,3.53,28,32,0,0
2.626e+05,1.2741e+08,5,6140,6057,15.38,3.54,28,33,0,0
2.6305e+05,1.2752e+08,5,6043,5957,15.36,3.55,28,33,0,0
2.635e+05,1.2763e+08,5,5961,6000,15.37,3.67,28,33,0,0
2.6393e+05,1.2773e+08,5,6003,6071,15.42,3.89,28,33,0,0
2.6438e+05,1.2784e+08,5,6071,6071,15.36,3.6,28,33,0,0
2.6479e+05,1.2795e+08,5,6072,6114,15.33,3.6,28,33,0,0
2.6524e+05,1.2805e+08,5,6115,6142,15.31,3.84,28,33,0,0
2.6569e+05,1.2817e+08,5,6148,6242,15.32,3.92,28,33,0,0
2.6614e+05,1.2828e+08,5,6241,6228,15.36,3.59,28,34,0,0
2.6659e+05,1.2839e+08,5,6207,6000,15.36,3.5,28,34,0,0
2.6703e+05,1.285e+08,5,6002,6085,15.39,3.62,28,34,0,0
2.6751e+05,1.2862e+08,5,6086,6100,15.34,3.76,28,34,0,0
2.6797e+05,1.2873e+08,5,6100,6100,15.39,3.9,28,34,0,0
2.6837e+05,1.2883e+08,5,6096,6042,15.41,3.37,28,34,0,0
2.6882e+05,1.2894e+08,5,6038,5985,15.39,3.65,28,34,0,0
2.7015e+05,1.2928e+08,5,5985,6157,15.32,3.94,28,35,0,0
2.7064e+05,1.2939e+08,5,6160,6214,15.38,4.06,28,35,0,0
2.7148e+05,1.296e+08,5,6215,6285,15.29,4.26,28,35,0,0
2.7238e+05,1.2982e+08,5,6295,6485,15.3,4.4,28,35,0,0
2.7279e+05,1.2993e+08,5,6483,6471,15.32,4.12,28,35,0,0
2.7327e+05,1.3004e+08,5,6478,6557,15.32,4.19,28,35,0,0
2.7368e+05,1.3015e+08,5,6541,6342,15.32,4.31,28,36,0,0
2.7413e+05,1.3026e+08,5,6342,6342,15.3,4.21,28,36,0,0
2.7457e+05,1.3036e+08,5,6345,6514,15.26,4.39,28,36,0,0
2.7502e+05,1.3047e+08,5,6515,6542,15.27,4.19,28,36,0,0
2.7542e+05,1.3058e+08,5,6532,6414,15.32,4.01,28,36,0,0
2.7588e+05,1.3068e+08,5,6411,6371,15.36,3.71,28,36,0,0
2.7677e+05,1.3091e+08,5,6371,6385,15.23,4.41,28,36,0,0
2.7721e+05,1.3102e+08,5,6386,6400,15.19,4.09,28,37,0,0
2.7763e+05,1.3112e+08,5,6413,6542,15.22,4.33,28,37,0,0
2.7803e+05,1.3122e+08,5,6543,6642,15.2,4.75,28,37,0,0
2.7896e+05,1.3144e+08,5,6639,6442,15.22,4.12,29,37,0,0
2.794e+05,1.3155e+08,5,6443,6457,15.29,4.13,28,37,0,0
2.7981e+05,1.3165e+08,5,6455,6385,15.3,4.08,28,37,0,0
2.8029e+05,1.3177e+08,5,6367,6185,15.33,4.09,29,37,0,0
2.8074e+05,1.3188e+08,5,6191,6271,15.29,3.73,28,38,0,0
2.8114e+05,1.3198e+08,5,6271,6285,15.28,3.77,28,38,0,0
2.8159e+05,1.3209e+08,5,6284,6271,15.26,4.04,28,38,0,0
2.8204e+05,1.322e+08,5,6271,6271,15.32,3.87,28,38,0,0
2.829e+05,1.3242e+08,5,6269,6228,15.3,3.88,28,38,0,0
2.8334e+05,1.3253e+08,5,6242,6385,15.26,4.08,29,38,0,0
2.8375e+05,1.3263e+08,5,6384,6371,15.3,4.18,28,38,0,0
2.8415e+05,1.3273e+08,5,6372,6428,15.3,3.97,28,39,0,0
2.8464e+05,1.3285e+08,5,6424,6385,15.33,3.97,28,39,0,0
2.8508e+05,1.3296e+08,5,6372,6171,15.32,3.73,28,39,0,0
2.8553e+05,1.3307e+08,5,6177,6242,15.37,3.88,28,39,0,0
2.8594e+05,1.3317e+08,5,6244,6314,15.37,3.92,28,39,0,0
2.8642e+05,1.3329e+08,5,6317,6357,15.36,3.71,28,39,0,0
2.8683e+05,1.3339e+08,5,6352,6242,15.28,3.78,28,39,0,0
2.8728e+05,1.335e+08,5,6239,6171,15.25,3.96,28,39,0,0
2.8772e+05,1.3361e+08,5,6173,6200,15.25,3.89,28,39,0,0
2.8861e+05,1.3383e+08,5,6200,6228,15.28,3.92,28,40,0,0
2.8906e+05,1.3394e+08,5,6241,6414,15.3,4.13,28,40,0,0
2.8952e+05,1.3405e+08,5,6412,6400,15.29,3.9,28,40,0,0
2.8996e+05,1.3416e+08,5,6384,6171,15.27,3.78,29,40,0,0
2.9036e+05,1.3426e+08,5,6168,6028,15.27,3.6,28,40,0,0
2.9081e+05,1.3437e+08,5,6030,6157,15.27,3.57,28,40,0,0
2.9126e+05,1.3448e+08,5,6152,6100,15.31,3.65,29,40,0,0
2.917e+05,1.3459e+08,5,6090,5971,15.36,3.19,29,40,0,0
2.9215e+05,1.3469e+08,5,5961,5842,15.39,2.48,28,41,0,0
2.9259e+05,1.3481e+08,5,5798,5371,15.36,2.21,29,41,0,0
2.9304e+05,1.3492e+08,5,5385,5571,15.3,2.73,28,41,0,0
2.9348e+05,1.3503e+08,5,5579,5671,15.41,2.9,28,41,0,0
2.9389e+05,1.3513e+08,5,5674,5957,15.42,3.46,28,41,0,0
2.9478e+05,1.3535e+08,5,5963,6142,15.29,3.79,29,41,0,0
2.9523e+05,1.3546e+08,5,6147,6200,15.33,3.56,29,41,0,0
2.9568e+05,1.3557e+08,5,6188,6014,15.35,3.54,28,41,0,0
2.9613e+05,1.3568e+08,5,6026,6142,15.37,3.72,28,41,0,0
2.9657e+05,1.3579e+08,5,6156,6357,15.25,4.28,29,42,0,0
2.9702e+05,1.359e+08,5,6378,6657,15.13,5.42,29,42,0,0
2.9746e+05,1.3601e+08,5,6672,6900,15.08,5.21,29,42,0,0
2.9787e+05,1.3611e+08,5,6897,6757,15.24,4.35,29,42,0,0
2.9835e+05,1.3623e+08,5,6736,6457,15.3,3.88,28,42,0,0
2.988e+05,1.3634e+08,5,6425,6114,15.33,3.44,29,42,0,0
2.992e+05,1.3644e+08,5,6115,6157,15.3,4.01,29,42,0,0
2.9965e+05,1.3655e+08,5,6173,6414,15.16,4.46,29,43,0,0
3.001e+05,1.3666e+08,5,6415,6514,15.23,3.92,28,43,0,0
3.0054e+05,1.3676e+08,5,6515,6542,15.21,4.73,29,43,0,0
3.0099e+05,1.3687e+08,5,6547,6671,15.14,5.01,29,43,0,0
3.0144e+05,1.3699e+08,5,6679,6800,15.08,4.95,29,43,0,0
3.0188e+05,1.3709e+08,5,6802,6857,15.12,5.57,29,43,0,0
3.0233e+05,1.3721e+08,5,6869,7057,15.11,5.15,29,43,0,0
3.0274e+05,1.3731e+08,5,7050,6757,15.18,4.25,29,43,0,0
3.0318e+05,1.3741e+08,5,6750,6614,15.17,4.92,29,44,0,0
3.0363e+05,1.3752e+08,5,6617,6657,15.17,4.46,29,44,0,0
3.0408e+05,1.3763e+08,5,6645,6542,15.23,3.91,29,44,0,0
3.0452e+05,1.3774e+08,5,6516,6185,15.29,3.43,29,44,0,0
3.0497e+05,1.3786e+08,5,6187,6214,15.31,3.61,29,44,0,0
3.0538e+05,1.3796e+08,5,6218,6271,15.31,3.82,29,44,0,0
3.0582e+05,1.3807e+08,5,6276,6400,15.21,4.39,29,44,0,0
3.0675e+05,1.3829e+08,5,6404,6485,15.2,4.3,29,45,0,0
3.0712e+05,1.3839e+08,5,6487,6600,15.26,4.26,29,45,0,0
3.0761e+05,1.385e+08,5,6583,6428,15.18,4.46,29,45,0,0
3.0805e+05,1.3862e+08,5,6442,6557,15.15,4.76,29,45,0,0
3.0846e+05,1.3872e+08,5,6557,6642,15.2,4.69,29,45,0,0
3.0891e+05,1.3883e+08,5,6627,6500,15.15,4.33,29,45,0,0
3.0931e+05,1.3893e+08,5,6497,6385,15.25,4.21,29,45,0,0
3.0979e+05,1.3904e+08,5,6390,6442,15.2,3.93,29,46,0,0
3.102e+05,1.3915e+08,5,6429,6328,15.2,4.02,29,46,0,0
3.1066e+05,1.3926e+08,5,6328,6328,15.29,3.83,29,46,0,0
3.1109e+05,1.3936e+08,5,6323,6242,15.32,3.53,29,46,0,0
3.1155e+05,1.3948e+08,5,6238,5985,15.31,3.3,29,46,0,0
3.1195e+05,1.3958e+08,5,5984,5957,15.29,3.4,29,46,0,0
3.1244e+05,1.397e+08,5,5959,5985,15.24,3.61,29,46,0,0
3.1285e+05,1.3981e+08,5,6020,6285,15.2,4.03,29,46,0,0
3.1329e+05,1.3991e+08,5,6286,6300,15.22,3.74,29,46,0,0
3.137e+05,1.4002e+08,5,6301,6328,15.25,3.66,29,47,0,0
3.1414e+05,1.4012e+08,5,6324,6171,15.31,3.06,29,47,0,0
3.1459e+05,1.4023e+08,5,6165,6071,15.32,3.36,29,47,0,0
3.1504e+05,1.4035e+08,5,6075,6114,15.35,3.48,29,47,0,0
3.1549e+05,1.4046e+08,5,6111,6085,15.3,3.61,29,47,0,0
3.1594e+05,1.4057e+08,5,6090,6142,15.22,4.14,29,47,0,0
3.1679e+05,1.4078e+08,5,6144,6200,15.34,3.45,29,47,0,0
3.1723e+05,1.4089e+08,5,6198,6171,15.32,3.65,29,47,0,0
3.1763e+05,1.4099e+08,5,6172,6214,15.22,3.74,29,48,0,0
3.1813e+05,1.4112e+08,5,6195,6014,15.29,3.6,29,48,0,0
3.1897e+05,1.4132e+08,5,6017,6142,15.29,3.26,29,48,0,0
3.1942e+05,1.4143e+08,5,6149,6228,15.29,3.49,29,48,0,0
3.1988e+05,1.4155e+08,5,6213,6042,15.27,3.56,29,48,0,0
3.2028e+05,1.4164e+08,5,6044,6114,15.22,3.51,29,48,0,0
3.2072e+05,1.4176e+08,5,6115,6128,15.31,3.64,29,48,0,0
3.2117e+05,1.4186e+08,5,6130,6157,15.29,3.36,29,48,0,0
3.2157e+05,1.4196e+08,5,6159,6257,15.22,3.65,29,49,0,0
3.2202e+05,1.4208e+08,5,6242,5942,15.26,3.12,29,49,0,0
3.2335e+05,1.424e+08,5,5943,6014,15.34,3.14,29,49,0,0
3.238e+05,1.4251e+08,5,6012,5914,15.31,3.48,29,49,0,0
3.2425e+05,1.4262e+08,5,5914,5957,15.3,3.28,29,49,0,0
3.2469e+05,1.4273e+08,5,5957,5971,15.28,3.33,29,49,0,0
3.2517e+05,1.4284e+08,5,5974,6057,15.3,3.83,29,49,0,0
3.2603e+05,1.4306e+08,5,6056,6000,15.31,3.41,29,50,0,0
3.2647e+05,1.4316e+08,5,6000,6028,15.29,3.65,29,50,0,0
3.2696e+05,1.4328e+08,5,6022,5871,15.37,2.97,29,50,0,0
3.2739e+05,1.4339e+08,5,5869,5814,15.35,3.05,29,50,0,0
3.2784e+05,1.435e+08,5,5820,5957,15.25,3.32,29,50,0,0
3.283e+05,1.4361e+08,5,5951,5871,15.28,3.29,29,50,0,0
3.2874e+05,1.4373e+08,5,5868,5728,15.32,2.73,29,50,0,0
3.292e+05,1.4384e+08,5,5707,5514,15.32,2.67,29,50,0,0
3.296e+05,1.4393e+08,5,5527,5785,15.26,3.39,29,50,0,0
3.3005e+05,1.4405e+08,5,5787,5857,15.3,3.11,29,50,0,0
3.305e+05,1.4416e+08,5,5854,5828,15.26,3.32,29,50,0,0
3.3138e+05,1.4438e+08,5,5831,5914,15.3,3.18,29,51,0,0
3.3183e+05,1.4448e+08,5,5912,5814,15.28,3.15,29,51,0,0
3.3228e+05,1.446e+08,5,5827,6000,15.28,3.55,29,51,0,0
3.3272e+05,1.447e+08,5,6003,6057,15.23,3.36,29,51,0,0
3.3316e+05,1.4481e+08,5,6056,6014,15.23,3.66,29,51,0,0
3.3361e+05,1.4492e+08,5,6016,6214,15.26,3.55,29,51,0,0
3.3409e+05,1.4503e+08,5,6204,6071,15.22,3.46,29,51,0,0
3.3454e+05,1.4515e+08,5,6080,6185,15.27,3.39,29,51,0,0
3.3498e+05,1.4525e+08,5,6172,6014,15.26,3.24,29,51,0,0
3.3539e+05,1.4536e+08,5,6008,5942,15.26,3.24,29,52,0,0
3.3584e+05,1.4546e+08,5,5940,5857,15.33,3.09,29,52,0,0
3.3632e+05,1.4558e+08,5,5860,5914,15.37,3.22,29,52,0,0
3.3677e+05,1.4569e+08,5,5908,5857,15.31,2.76,29,52,0,0
3.3721e+05,1.458e+08,5,5851,5728,15.36,2.8,29,52,0,0
3.377e+05,1.4592e+08,5,5730,5757,15.34,2.67,29,52,0,0
3.3811e+05,1.4602e+08,5,5758,5771,15.36,2.92,29,52,0,0
3.3896e+05,1.4623e+08,5,5770,5728,15.36,2.49,29,52,0,0
3.394e+05,1.4634e+08,5,5725,5671,15.38,2.68,29,52,0,0
3.3985e+05,1.4645e+08,5,5679,5800,15.33,3.05,29,52,0,0
3.403e+05,1.4656e+08,5,5807,5885,15.35,2.87,29,53,0,0
3.4074e+05,1.4666e+08,5,5868,5642,15.31,2.66,29,53,0,0
3.4115e+05,1.4677e+08,5,5642,5657,15.36,2.71,29,53,0,0
3.4163e+05,1.4688e+08,5,5660,5700,15.34,2.89,29,53,0,0
3.4204e+05,1.4699e+08,5,5698,5600,15.29,2.68,29,53,0,0
3.4248e+05,1.4709e+08,5,5601,5628,15.27,2.48,28,53,0,0
3.4293e+05,1.4721e+08,5,5625,5571,15.27,2.74,29,53,0,0
3.4338e+05,1.4731e+08,5,5572,5671,15.3,3.12,29,53,0,0
3.4382e+05,1.4742e+08,5,5673,5742,15.26,3.27,29,53,0,0
3.443e+05,1.4754e+08,5,5766,5914,15.36,3.46,29,53,0,0
3.4471e+05,1.4764e+08,5,5913,5900,15.25,3.51,29,53,0,0
3.4515e+05,1.4775e+08,5,5913,6057,15.33,3.63,28,54,0,0
3.456e+05,1.4786e+08,5,6057,6057,15.28,3.47,29,54,0,0
3.4605e+05,1.4798e+08,5,6068,6228,15.33,3.49,29,54,0,0
3.4651e+05,1.4809e+08,5,6214,6114,15.29,3.35,29,54,0,0
3.4695e+05,1.482e+08,5,6120,6185,15.27,3.3,29,54,0,0
3.4736e+05,1.483e+08,5,6187,6328,15.27,4.31,29,54,0,0
3.478e+05,1.4841e+08,5,6337,6485,15.26,4.77,29,54,0,0
3.4825e+05,1.4852e+08,5,6490,6600,15.26,4.54,29,54,0,0
3.487e+05,1.4863e+08,5,6590,6485,15.22,4.08,28,55,0,0
3.4917e+05,1.4874e+08,5,6483,6457,15.22,3.47,29,55,0,0
3.4962e+05,1.4885e+08,5,6415,6114,15.21,3.41,29,55,0,0
3.5002e+05,1.4895e+08,5,6110,6028,15.29,3.21,28,55,0,0
3.5047e+05,1.4906e+08,5,6026,6014,15.34,3.01,29,55,0,0
3.5092e+05,1.4917e+08,5,6015,6042,15.3,3.15,29,55,0,0
3.5136e+05,1.4928e+08,5,6043,6071,15.34,3.43,29,55,0,0
3.5226e+05,1.495e+08,5,6069,5971,15.32,3.3,29,55,0,0
3.5271e+05,1.4962e+08,5,5976,6057,15.29,3.5,29,55,0,0
3.5356e+05,1.4983e+08,5,6057,6114,15.31,3.35,28,56,0,0
3.54e+05,1.4993e+08,5,6114,6157,15.32,3.49,29,56,0,0
3.5446e+05,1.5005e+08,5,6142,5942,15.26,3.37,29,56,0,0
3.549e+05,1.5016e+08,5,5950,6071,15.32,3.25,29,56,0,0
3.5535e+05,1.5026e+08,5,6061,5928,15.29,3.44,29,56,0,0
3.5575e+05,1.5037e+08,5,5927,5914,15.29,3.17,29,56,0,0
3.562e+05,1.5048e+08,5,5921,6014,15.26,3.39,29,56,0,0
3.5665e+05,1.5059e+08,5,6020,6085,15.26,3.65,28,56,0,0
3.571e+05,1.507e+08,5,6084,6071,15.26,3.35,29,56,0,0
3.5759e+05,1.5082e+08,5,6055,5871,15.29,3.26,29,56,0,0
3.5803e+05,1.5092e+08,5,5871,5871,15.3,3.23,29,57,0,0
3.5848e+05,1.5103e+08,5,5887,6057,15.27,3.65,28,57,0,0
3.5888e+05,1.5113e+08,5,6065,6285,15.28,4.07,29,57,0,0
3.5936e+05,1.5124e+08,5,6278,6214,15.28,4.04,29,57,0,0
3.598e+05,1.5135e+08,5,6207,6114,15.31,3,28,57,0,0
3.6026e+05,1.5146e+08,5,6094,5828,15.36,2.73,29,57,0,0
3.6072e+05,1.5158e+08,5,5830,5857,15.3,3.05,29,57,0,0
3.6116e+05,1.5169e+08,5,5861,5914,15.35,3.45,28,57,0,0
3.6201e+05,1.519e+08,5,5912,5800,15.31,2.89,29,58,0,0
3.6246e+05,1.5201e+08,5,5795,5700,15.25,2.93,29,58,0,0
3.6291e+05,1.5212e+08,5,5703,5942,15.23,3.2,29,58,0,0
3.6335e+05,1.5223e+08,5,5944,5985,15.27,3.51,29,58,0,0
3.6379e+05,1.5234e+08,5,5995,6142,15.23,3.52,29,58,0,0
3.6424e+05,1.5244e+08,5,6136,6028,15.35,3.36,29,58,0,0
3.6465e+05,1.5255e+08,5,6025,5914,15.32,3.08,29,58,0,0
3.6514e+05,1.5267e+08,5,5915,5942,15.39,2.92,29,58,0,0
3.6554e+05,1.5277e+08,5,5929,5757,15.36,3.48,28,58,0,0
3.6599e+05,1.5288e+08,5,5751,5628,15.27,3.45,29,58,0,0
3.664e+05,1.5299e+08,5,5627,5614,15.32,2.89,28,58,0,0
3.6689e+05,1.5311e+08,5,5608,5528,15.36,2.73,29,59,0,0
3.6729e+05,1.5321e+08,5,5535,5700,15.24,3.12,29,59,0,0
3.6822e+05,1.5344e+08,5,5705,5828,15.26,3.07,28,59,0,0
3.6867e+05,1.5355e+08,5,5849,6071,15.25,3.36,28,59,0,0
3.6907e+05,1.5364e+08,5,6069,5985,15.29,3.25,28,59,0,0
3.6955e+05,1.5376e+08,5,5990,6071,15.25,3.62,29,59,0,0
3.7e+05,1.5387e+08,5,6076,6157,15.18,3.64,28,59,0,0
3.7045e+05,1.5399e+08,5,6142,6014,15.23,3.55,28,59,0,0
3.709e+05,1.5409e+08,5,6034,6242,15.23,3.82,28,59,0,0
3.7129e+05,1.5419e+08,5,6246,6414,15.27,3.95,28,60,0,0
3.7174e+05,1.543e+08,5,6415,6442,15.24,4.35,28,60,0,0
3.7313e+05,1.5465e+08,5,6440,6385,15.21,4.14,29,60,0,0
3.7356e+05,1.5475e+08,5,6391,6542,15.2,3.77,29,60,0,0
3.7401e+05,1.5486e+08,5,6530,6428,15.26,3.61,29,60,0,0
3.7446e+05,1.5497e+08,5,6407,6257,15.23,3.76,28,60,0,0
3.7491e+05,1.5508e+08,5,6255,6242,15.24,4.05,29,61,0,0
3.7531e+05,1.5518e+08,5,6240,6128,15.22,3.23,29,61,0,0
3.758e+05,1.5529e+08,5,6160,6471,15.16,4.52,28,61,0,0
3.762e+05,1.554e+08,5,6481,6685,15.13,4.82,29,61,0,0
3.7666e+05,1.5551e+08,5,6682,6485,15.13,4.55,28,61,0,0
3.7711e+05,1.5562e+08,5,6491,6571,15.14,4.12,29,61,0,0
3.7754e+05,1.5573e+08,5,6567,6485,15.14,4.39,28,61,0,0
3.78e+05,1.5585e+08,5,6481,6457,15.14,4.15,29,62,0,0
3.784e+05,1.5595e+08,5,6449,6342,15.23,3.65,29,62,0,0
3.7885e+05,1.5606e+08,5,6342,6342,15.2,3.66,29,62,0,0
3.7929e+05,1.5617e+08,5,6336,6271,15.25,3.75,28,62,0,0
3.7974e+05,1.5627e+08,5,6269,6257,15.15,3.72,29,62,0,0
3.8018e+05,1.5638e+08,5,6262,6342,15.29,4.08,29,62,0,0
3.8148e+05,1.567e+08,5,6340,6000,15.36,3.62,28,62,0,0
3.8192e+05,1.5681e+08,5,5996,5900,15.24,2.65,29,63,0,0
3.8241e+05,1.5692e+08,5,5904,5957,15.32,3.74,28,63,0,0
3.8285e+05,1.5703e+08,5,5958,5971,15.25,3.51,29,63,0,0
3.8325e+05,1.5713e+08,5,5971,5985,15.31,2.96,29,63,0,0
3.8371e+05,1.5725e+08,5,5980,5914,15.33,3.21,29,63,0,0
3.8412e+05,1.5735e+08,5,5920,6042,15.21,3.5,29,63,0,0
3.8457e+05,1.5746e+08,5,6033,5914,15.27,3.23,29,63,0,0
3.8501e+05,1.5757e+08,5,5904,5814,15.33,3.32,29,63,0,0
3.8546e+05,1.5767e+08,5,5816,5900,15.29,3.25,28,63,0,0
3.8635e+05,1.579e+08,5,5905,6057,15.23,3.23,29,63,0,0
3.868e+05,1.5801e+08,5,6066,6157,15.29,3.66,29,64,0,0
3.8724e+05,1.5812e+08,5,6152,6071,15.3,3.14,29,64,0,0
3.8765e+05,1.5822e+08,5,6072,6085,15.29,3.47,29,64,0,0
3.881e+05,1.5833e+08,5,6096,6171,15.27,3.46,29,64,0,0
3.885e+05,1.5843e+08,5,6171,6185,15.15,3.71,29,64,0,0
3.8894e+05,1.5854e+08,5,6182,6128,15.13,3.63,28,64,0,0
3.894e+05,1.5865e+08,5,6125,6085,15.29,3.39,29,64,0,0
3.8984e+05,1.5876e+08,5,6086,6142,15.23,3.37,29,64,0,0
3.9034e+05,1.5888e+08,5,6134,6057,15.27,3.71,29,64,0,0
3.9078e+05,1.5899e+08,5,6072,6300,15.26,3.81,29,65,0,0
3.9123e+05,1.5909e+08,5,6304,6357,15.2,3.63,29,65,0,0
3.9211e+05,1.5931e+08,5,6349,6028,15.19,3.87,29,65,0,0
3.9256e+05,1.5942e+08,5,6061,6528,15.11,4.26,29,65,0,0
3.9301e+05,1.5953e+08,5,6524,6471,15.17,4.19,29,65,0,0
3.935e+05,1.5965e+08,5,6460,6357,15.27,3.65,29,65,0,0
3.9394e+05,1.5975e+08,5,6342,6200,15.17,3.57,29,65,0,0
3.9435e+05,1.5986e+08,5,6201,6228,15.29,3.07,29,65,0,0
3.9479e+05,1.5997e+08,5,6215,6028,15.36,3.03,29,66,0,0
3.9564e+05,1.6018e+08,5,6027,6014,15.28,3.39,28,66,0,0
3.9614e+05,1.603e+08,5,6029,6200,15.27,4.16,29,66,0,0
3.9654e+05,1.604e+08,5,6183,5942,15.29,3.14,29,66,0,0
3.9699e+05,1.6051e+08,5,5942,5971,15.35,2.92,29,66,0,0
3.9744e+05,1.6062e+08,5,5944,5714,15.42,2.85,29,66,0,0
3.9788e+05,1.6073e+08,5,5695,5457,15.32,2.48,29,66,0,0
3.9874e+05,1.6095e+08,5,5447,5314,15.38,2.43,28,66,0,0
3.9914e+05,1.6105e+08,5,5312,5242,15.45,2.09,29,66,0,0
3.9963e+05,1.6117e+08,5,5253,5342,15.35,2.81,28,67,0,0
4.0009e+05,1.6128e+08,5,5351,5400,15.4,2.42,29,67,0,0
4.0044e+05,1.6137e+08,5,5400,5400,15.35,2.71,29,67,0,0
4.0094e+05,1.6149e+08,5,5398,5271,15.42,2.86,29,67,0,0
4.0137e+05,1.6159e+08,5,5273,5442,15.27,2.68,28,67,0,0
4.0186e+05,1.6171e+08,5,5445,5500,15.41,2.87,29,67,0,0
4.0226e+05,1.6181e+08,5,5491,5385,15.47,2.15,28,67,0,0
4.0275e+05,1.6193e+08,5,5374,5257,15.45,2.46,28,67,0,0
4.0319e+05,1.6204e+08,5,5262,5385,15.4,2.6,29,67,0,0
4.0404e+05,1.6224e+08,5,5389,5700,15.35,3.04,28,67,0,0
4.0449e+05,1.6236e+08,5,5703,5800,15.35,3.14,28,67,0,0
4.0494e+05,1.6247e+08,5,5801,5842,15.21,3.42,29,68,0,0
4.0538e+05,1.6258e+08,5,5858,6028,15.29,3.34,28,68,0,0
4.0579e+05,1.6267e+08,5,6030,6114,15.26,3.46,28,68,0,0
4.0623e+05,1.6278e+08,5,6111,5914,15.26,3.49,28,68,0,0
4.0668e+05,1.6289e+08,5,5917,6128,15.32,3.35,28,68,0,0
4.0806e+05,1.6324e+08,5,6121,5914,15.32,3.5,28,68,0,0
4.0891e+05,1.6344e+08,5,5911,5857,15.38,3.06,28,68,0,0
4.0931e+05,1.6355e+08,5,5853,5657,15.32,2.85,28,69,0,0
4.0979e+05,1.6366e+08,5,5656,5642,15.36,3.44,28,69,0,0
4.102e+05,1.6377e+08,5,5651,6014,15.23,3.36,28,69,0,0
4.1065e+05,1.6388e+08,5,6006,5914,15.25,3.65,28,69,0,0
4.111e+05,1.6399e+08,5,5920,6057,15.2,3.84,28,69,0,0
4.1154e+05,1.641e+08,5,6077,6357,15.09,4.31,28,69,0,0
4.1195e+05,1.642e+08,5,6358,6428,15.16,4.07,28,69,0,0
4.1244e+05,1.6432e+08,5,6425,6400,15.13,4.12,28,69,0,0
4.1285e+05,1.6443e+08,5,6394,6342,15.12,3.91,28,69,0,0
4.133e+05,1.6454e+08,5,6348,6442,15.19,3.63,28,70,0,0
4.1371e+05,1.6464e+08,5,6433,6300,15.22,3.63,28,70,0,0
4.141e+05,1.6474e+08,5,6299,6285,15.2,3.99,28,70,0,0
4.1456e+05,1.6485e+08,5,6277,6114,15.2,3.16,28,70,0,0
4.15e+05,1.6496e+08,5,6120,6257,15.14,4.32,28,70,0,0
4.1544e+05,1.6507e+08,5,6256,6242,15.2,3.72,28,70,0,0
4.1586e+05,1.6517e+08,5,6244,6385,15.15,4.04,28,70,0,0
4.1634e+05,1.6529e+08,5,6391,6485,15.15,4.1,28,70,0,0
4.1679e+05,1.654e+08,5,6479,6371,15.11,4.27,28,70,0,0
4.1728e+05,1.6552e+08,5,6389,6471,15.16,4.23,28,71,0,0
4.1768e+05,1.6562e+08,5,6471,6471,15.22,4.03,29,71,0,0
4.1809e+05,1.6572e+08,5,6470,6428,15.25,4.33,28,71,0,0
4.1903e+05,1.6595e+08,5,6428,6442,15.19,4.36,28,71,0,0
4.1943e+05,1.6605e+08,5,6444,6485,15.23,3.9,28,71,0,0
4.1988e+05,1.6617e+08,5,6462,6171,15.29,3.62,28,71,0,0
4.2033e+05,1.6628e+08,5,6169,6157,15.26,3.77,28,71,0,0
4.2123e+05,1.665e+08,5,6163,6342,15.29,3.88,28,72,0,0
4.2167e+05,1.6661e+08,5,6328,6071,15.2,3.75,28,72,0,0
4.2212e+05,1.6672e+08,5,6072,6085,15.17,3.39,28,72,0,0
4.2252e+05,1.6682e+08,5,6083,6057,15.3,3.3,28,72,0,0
4.2297e+05,1.6693e+08,5,6057,6071,15.26,3.27,28,72,0,0
4.2386e+05,1.6715e+08,5,6069,5957,15.23,3.07,28,72,0,0
4.2435e+05,1.6727e+08,5,5963,6057,15.25,3.46,28,72,0,0
4.2476e+05,1.6737e+08,5,6062,6128,15.18,3.63,28,73,0,0
4.2516e+05,1.6747e+08,5,6132,6228,15.17,3.79,28,73,0,0
4.2561e+05,1.6759e+08,5,6233,6285,15.2,3.89,28,73,0,0
4.265e+05,1.678e+08,5,6289,6414,15.27,3.69,28,73,0,0
4.2691e+05,1.679e+08,5,6415,6485,15.17,4.31,28,73,0,0
4.274e+05,1.6802e+08,5,6462,6228,15.17,3.73,28,73,0,0
4.2824e+05,1.6823e+08,5,6227,6214,15.22,3.79,28,73,0,0
4.2865e+05,1.6834e+08,5,6219,6271,15.2,3.9,28,74,0,0
4.291e+05,1.6845e+08,5,6273,6414,15.25,4.13,28,74,0,0
4.2955e+05,1.6856e+08,5,6403,6300,15.2,3.85,28,74,0,0
4.3e+05,1.6867e+08,5,6292,6214,15.27,3.88,28,74,0,0
4.3044e+05,1.6878e+08,5,6214,6214,15.2,4.08,28,74,0,0
4.3089e+05,1.6889e+08,5,6214,6214,15.23,4,28,74,0,0
4.3134e+05,1.69e+08,5,6220,6285,15.25,3.61,28,74,0,0
4.3178e+05,1.6911e+08,5,6272,6100,15.18,3.42,28,74,0,0
4.3223e+05,1.6922e+08,5,6106,6200,15.23,3.95,28,75,0,0
4.3264e+05,1.6932e+08,5,6204,6271,15.23,3.52,28,75,0,0
4.3308e+05,1.6943e+08,5,6271,6285,15.13,3.72,28,75,0,0
4.3357e+05,1.6955e+08,5,6298,6414,15.07,4.63,28,75,0,0
4.3398e+05,1.6965e+08,5,6415,6485,15.08,4.5,28,75,0,0
4.3441e+05,1.6976e+08,5,6475,6385,15.11,4.4,28,75,0,0
4.3487e+05,1.6987e+08,5,6429,6728,15.06,4.84,28,75,0,0
4.3531e+05,1.6998e+08,5,6722,6657,15.05,4.61,28,75,0,0
4.3576e+05,1.7008e+08,5,6645,6528,15.07,4.58,28,76,0,0
4.3666e+05,1.7031e+08,5,6545,6928,15.11,5.13,28,76,0,0
4.375e+05,1.7051e+08,5,6925,6571,15.05,4.71,28,76,0,0
4.3799e+05,1.7063e+08,5,6572,6585,15.08,4.83,29,76,0,0
4.3836e+05,1.7073e+08,5,6583,6514,15.17,4.34,28,76,0,0
4.3925e+05,1.7095e+08,5,6509,6328,15.18,4.08,28,77,0,0
4.3973e+05,1.7106e+08,5,6321,6257,15.16,3.86,28,77,0,0
4.4018e+05,1.7117e+08,5,6256,6242,15.17,3.96,29,77,0,0
4.4062e+05,1.7128e+08,5,6240,6228,15.17,3.89,28,77,0,0
4.4148e+05,1.7149e+08,5,6226,6185,15.25,3.94,28,77,0,0
4.4193e+05,1.7161e+08,5,6192,6400,15.14,3.77,28,77,0,0
4.4237e+05,1.7172e+08,5,6367,6114,15.14,3.59,28,78,0,0
4.4285e+05,1.7183e+08,5,6101,5914,15.27,2.96,28,78,0,0
4.433e+05,1.7194e+08,5,5909,5857,15.27,3.22,28,78,0,0
4.4371e+05,1.7204e+08,5,5868,6014,15.21,3.7,29,78,0,0
4.4415e+05,1.7215e+08,5,6018,6085,15.2,3.86,29,78,0,0
4.4504e+05,1.7237e+08,5,6084,6057,15.15,3.36,29,78,0,0
4.4549e+05,1.7248e+08,5,6059,6100,15.26,3.38,28,78,0,0
4.4589e+05,1.7259e+08,5,6102,6128,15.22,3.49,28,78,0,0
4.4638e+05,1.727e+08,5,6138,6242,15.2,3.57,29,78,0,0
4.4678e+05,1.728e+08,5,6242,6242,15.1,4.09,29,79,0,0
4.4723e+05,1.7291e+08,5,6241,6214,15.1,3.97,28,79,0,0
4.4768e+05,1.7303e+08,5,6223,6357,15.17,3.93,29,79,0,0
4.4808e+05,1.7313e+08,5,6356,6314,15.21,3.54,29,79,0,0
4.4857e+05,1.7325e+08,5,6298,6128,15.16,3.63,29,79,0,0
4.4901e+05,1.7335e+08,5,6129,6157,15.26,3.41,28,79,0,0
4.4946e+05,1.7347e+08,5,6162,6214,15.25,3.94,28,79,0,0
4.4986e+05,1.7356e+08,5,6212,6142,15.23,3.54,29,79,0,0
4.5035e+05,1.7369e+08,5,6149,6228,15.23,3.7,28,79,0,0
4.508e+05,1.738e+08,5,6229,6242,15.16,3.84,28,80,0,0
4.5121e+05,1.739e+08,5,6239,6085,15.2,3.61,29,80,0,0
4.5165e+05,1.7401e+08,5,6087,6228,15.22,3.84,29,80,0,0
4.521e+05,1.7412e+08,5,6225,6200,15.19,3.33,28,80,0,0
4.5255e+05,1.7423e+08,5,6219,6485,15.16,4.27,28,80,0,0
4.5296e+05,1.7434e+08,5,6485,6528,15.18,4.04,29,80,0,0
4.5341e+05,1.7445e+08,5,6525,6485,15.17,3.92,28,80,0,0
4.5386e+05,1.7456e+08,5,6469,6300,15.16,3.64,28,80,0,0
4.543e+05,1.7466e+08,5,6297,6214,15.2,3.91,28,80,0,0
4.5475e+05,1.7478e+08,5,6217,6285,15.29,3.75,28,81,0,0
4.5565e+05,1.75e+08,5,6281,6142,15.26,3.42,29,81,0,0
4.5606e+05,1.751e+08,5,6140,6042,15.2,3.31,29,81,0,0
4.565e+05,1.7522e+08,5,6052,6157,15.28,3.42,28,81,0,0
4.5695e+05,1.7533e+08,5,6139,5957,15.19,3.74,28,81,0,0
4.574e+05,1.7544e+08,5,5962,6014,15.21,3.47,29,81,0,0
4.5783e+05,1.7554e+08,5,6009,5928,15.24,2.96,28,81,0,0
4.5828e+05,1.7565e+08,5,5922,5842,15.29,2.87,29,81,0,0
4.587e+05,1.7576e+08,5,5842,5842,15.24,2.77,29,82,0,0
4.5915e+05,1.7587e+08,5,5840,5814,15.23,3.24,29,82,0,0
4.5956e+05,1.7597e+08,5,5823,5957,15.2,3.29,29,82,0,0
4.6004e+05,1.7608e+08,5,5953,5914,15.2,3.39,28,82,0,0
4.6048e+05,1.7619e+08,5,5915,5942,15.21,3.42,28,82,0,0
4.6093e+05,1.763e+08,5,5937,5871,15.19,3.07,29,82,0,0
4.6138e+05,1.7641e+08,5,5870,5857,15.23,3.36,28,82,0,0
4.6227e+05,1.7663e+08,5,5860,6014,15.26,3.4,28,82,0,0
4.6275e+05,1.7675e+08,5,6011,6000,15.23,3.76,28,82,0,0
4.6316e+05,1.7685e+08,5,6000,6071,15.2,3.68,29,83,0,0
4.6361e+05,1.7697e+08,5,6085,6214,15.16,3.71,28,83,0,0
4.6402e+05,1.7706e+08,5,6215,6300,15.19,3.74,28,83,0,0
4.6446e+05,1.7717e+08,5,6301,6328,15.19,3.69,28,83,0,0
4.6491e+05,1.7728e+08,5,6329,6342,15.12,4.2,28,83,0,0
4.6532e+05,1.7739e+08,5,6340,6300,15.17,4.01,28,83,0,0
4.6581e+05,1.775e+08,5,6304,6357,15.19,4.11,29,83,0,0
4.6621e+05,1.776e+08,5,6362,6471,15.19,4.11,29,83,0,0
4.6666e+05,1.7771e+08,5,6466,6200,15.23,3.85,28,84,0,0
4.671e+05,1.7782e+08,5,6213,6357,15.17,3.72,28,84,0,0
4.6756e+05,1.7794e+08,5,6341,6214,15.2,3.39,28,84,0,0
4.6796e+05,1.7804e+08,5,6211,6142,15.29,3.57,28,84,0,0
4.6886e+05,1.7826e+08,5,6140,6100,15.25,3.22,28,84,0,0
4.6926e+05,1.7836e+08,5,6092,5942,15.32,3.3,28,84,0,0
4.6971e+05,1.7847e+08,5,5919,5657,15.27,2.27,28,84,0,0
4.7014e+05,1.7857e+08,5,5652,5542,15.25,2.87,28,84,0,0
4.7059e+05,1.7868e+08,5,5551,5742,15.29,3.15,29,84,0,0
4.7149e+05,1.789e+08,5,5735,5400,15.27,2.71,28,85,0,0
4.7238e+05,1.7912e+08,5,5403,5714,15.23,3.2,28,85,0,0
4.7286e+05,1.7924e+08,5,5706,5628,15.34,2.35,28,85,0,0
4.7329e+05,1.7934e+08,5,5629,5700,15.26,3.57,28,85,0,0
4.7374e+05,1.7945e+08,5,5696,5657,15.31,2.87,29,85,0,0
4.7419e+05,1.7956e+08,5,5644,5514,15.19,3.09,28,85,0,0
4.7459e+05,1.7966e+08,5,5515,5557,15.21,2.95,29,85,0,0
4.7508e+05,1.7978e+08,5,5559,5585,15.26,2.47,28,85,0,0
4.7549e+05,1.7988e+08,5,5573,5314,15.29,2.36,29,85,0,0
4.7592e+05,1.7999e+08,5,5314,5314,15.18,2.48,28,85,0,0
4.7638e+05,1.801e+08,5,5306,5242,15.25,2.12,28,85,0,0
4.7682e+05,1.8021e+08,5,5243,5257,15.39,1.96,29,86,0,0
4.7768e+05,1.8043e+08,5,5253,5142,15.25,2.25,28,86,0,0
4.7808e+05,1.8053e+08,5,5143,5171,15.36,2.2,29,86,0,0
4.7853e+05,1.8064e+08,5,5165,5042,15.28,2.05,29,86,0,0
4.7898e+05,1.8075e+08,5,5036,4900,15.22,1.98,28,86,0,0
4.7942e+05,1.8086e+08,5,4905,5185,15.27,2.56,28,86,0,0
4.8035e+05,1.8108e+08,5,5217,5900,15.24,3.41,29,86,0,0
4.8076e+05,1.8119e+08,5,5903,5971,15.23,3.62,29,86,0,0
4.8122e+05,1.813e+08,5,5973,6000,15.2,3.26,28,86,0,0
4.8163e+05,1.814e+08,5,6008,6085,15.24,3.48,29,86,0,0
4.8203e+05,1.815e+08,5,6085,6114,15.22,3.29,28,87,0,0
4.8248e+05,1.8161e+08,5,6115,6214,15.25,3.26,28,87,0,0
4.8297e+05,1.8173e+08,5,6200,6071,15.26,3.3,29,87,0,0
4.8337e+05,1.8183e+08,5,6061,5942,15.2,3.47,28,87,0,0
4.8381e+05,1.8194e+08,5,5945,6114,15.2,3.72,28,87,0,0
4.8471e+05,1.8216e+08,5,6110,6000,15.17,3.85,29,87,0,0
4.8516e+05,1.8227e+08,5,6013,6157,15.23,3.88,28,87,0,0
4.8601e+05,1.8247e+08,5,6157,6228,15.23,3.63,28,87,0,0
4.865e+05,1.8259e+08,5,6223,6185,15.17,3.5,29,88,0,0
4.8695e+05,1.827e+08,5,6186,6200,15.15,3.6,29,88,0,0
4.8735e+05,1.8281e+08,5,6202,6257,15.26,3.48,28,88,0,0
4.8783e+05,1.8292e+08,5,6243,6000,15.3,3.14,28,88,0,0
4.8828e+05,1.8303e+08,5,5983,5800,15.25,3.22,28,88,0,0
4.8873e+05,1.8314e+08,5,5809,5914,15.29,3.17,28,88,0,0
4.8914e+05,1.8324e+08,5,5911,5742,15.23,3.14,28,88,0,0
4.8958e+05,1.8336e+08,5,5751,5885,15.25,3.29,28,88,0,0
4.9003e+05,1.8347e+08,5,5884,5871,15.22,3.19,28,88,0,0
4.9047e+05,1.8357e+08,5,5874,5942,15.19,3.41,28,88,0,0
4.9091e+05,1.8368e+08,5,5941,5914,15.26,3.3,28,89,0,0
4.9136e+05,1.8379e+08,5,5912,5900,15.25,3.34,28,89,0,0
4.9177e+05,1.8389e+08,5,5900,5928,15.19,3.08,28,89,0,0
4.927e+05,1.8412e+08,5,5926,5900,15.17,3.25,29,89,0,0
4.9311e+05,1.8422e+08,5,5897,5871,15.22,3.16,28,89,0,0
4.9355e+05,1.8433e+08,5,5871,5885,15.19,3.31,28,89,0,0
4.94e+05,1.8444e+08,5,5889,5985,15.2,3.44,28,89,0,0
4.9444e+05,1.8455e+08,5,5992,6100,15.26,3.54,28,89,0,0
4.9489e+05,1.8466e+08,5,6101,6128,15.15,3.68,29,89,0,0
4.9534e+05,1.8477e+08,5,6116,6000,15.18,3.47,28,90,0,0
4.9619e+05,1.8498e+08,5,5999,5985,15.21,3.36,28,90,0,0
4.9669e+05,1.851e+08,5,5985,6000,15.25,3.75,28,90,0,0
4.9709e+05,1.852e+08,5,5999,5985,15.16,3.47,28,90,0,0
4.9754e+05,1.8531e+08,5,5986,6057,15.14,3.99,29,90,0,0
4.9844e+05,1.8553e+08,5,6054,6000,15.22,3.43,28,90,0,0
4.9888e+05,1.8564e+08,5,5994,5942,15.27,3.44,28,90,0,0
4.9929e+05,1.8574e+08,5,5944,6014,15.2,3.29,28,91,0,0
4.9977e+05,1.8586e+08,5,6007,5914,15.18,3.22,29,91,0,0
5.0018e+05,1.8596e+08,5,5913,5900,15.22,3.22,28,91,0,0
5.0066e+05,1.8608e+08,5,5896,5857,15.22,3.2,28,91,0,0
5.011e+05,1.8618e+08,5,5857,5857,15.23,3.17,28,91,0,0
5.0156e+05,1.8629e+08,5,5839,5714,15.2,3.41,28,91,0,0
5.02e+05,1.8641e+08,5,5748,5942,15.14,3.41,28,91,0,0
5.0284e+05,1.8661e+08,5,5942,5957,15.19,3.48,29,91,0,0
5.033e+05,1.8672e+08,5,5958,6000,15.17,3.71,28,91,0,0
5.0374e+05,1.8683e+08,5,6002,6042,15.17,3.47,29,92,0,0
5.0419e+05,1.8694e+08,5,6053,6214,15.22,3.5,28,92,0,0
5.0464e+05,1.8705e+08,5,6208,6142,15.14,3.55,28,92,0,0
5.0508e+05,1.8716e+08,5,6138,6014,15.22,3.44,28,92,0,0
5.0553e+05,1.8727e+08,5,6011,5842,15.21,3.28,28,92,0,0
5.0602e+05,1.8739e+08,5,5864,6071,15.16,3.64,28,92,0,0
5.0647e+05,1.875e+08,5,6068,6042,15.22,3.7,28,92,0,0
5.0691e+05,1.876e+08,5,6039,6014,15.17,3.61,28,92,0,0
5.0731e+05,1.877e+08,5,6017,6100,15.18,3.78,28,92,0,0
5.0776e+05,1.8781e+08,5,6091,6014,15.22,3.37,28,93,0,0
5.082e+05,1.8792e+08,5,5995,5814,15.25,3.13,28,93,0,0
5.0865e+05,1.8803e+08,5,5828,5971,15.29,3.29,28,93,0,0
5.0954e+05,1.8824e+08,5,5978,6128,15.3,3.35,28,93,0,0
5.0998e+05,1.8835e+08,5,6129,6185,15.31,3.49,28,93,0,0
5.1042e+05,1.8846e+08,5,6182,6057,15.15,3.49,28,93,0,0
5.1087e+05,1.8857e+08,5,6061,6328,15.2,4.3,28,93,0,0
5.122e+05,1.8889e+08,5,6327,6300,15.24,3.65,28,94,0,0
5.1269e+05,1.8901e+08,5,6307,6385,15.26,3.99,28,94,0,0
5.1314e+05,1.8912e+08,5,6368,6228,15.19,4,28,94,0,0
5.1359e+05,1.8923e+08,5,6220,6142,15.6,2.25,28,94,0,0
5.1399e+05,1.8933e+08,5,6122,5685,15.34,3,28,94,0,0
5.1444e+05,1.8944e+08,5,5681,5628,15.35,2.65,28,94,0,0
5.1484e+05,1.8954e+08,5,5627,5571,15.52,2.4,28,94,0,0
5.1534e+05,1.8966e+08,5,5555,5414,15.46,2.34,29,94,0,0
5.1578e+05,1.8977e+08,5,5384,5085,15.57,1.5,28,94,0,0
5.1623e+05,1.8987e+08,5,5073,4357,15.68,0.44,28,94,0,0
5.1667e+05,1.8998e+08,5,4335,3157,15.66,0.16,28,94,0,0
5.1712e+05,1.9009e+08,5,3149,2957,15.68,0.41,28,94,0,0
5.1756e+05,1.902e+08,5,2955,2942,15.67,0.45,28,94,0,0
5.1797e+05,1.903e+08,5,2940,2900,15.66,0.42,28,94,0,0
5.1842e+05,1.9041e+08,5,2896,2842,15.67,0.39,28,94,0,0
5.1883e+05,1.9052e+08,5,2841,2828,15.66,0.43,28,94,0,0
5.1972e+05,1.9074e+08,5,2828,2857,15.66,0.4,28,95,0,0
5.202e+05,1.9085e+08,5,2858,2871,15.66,0.48,28,95,0,0
5.2061e+05,1.9096e+08,5,2871,2871,15.67,0.45,28,95,0,0
5.2109e+05,1.9107e+08,5,2871,2885,15.7,0.42,28,95,0,0
5.2151e+05,1.9117e+08,5,2882,2857,15.68,0.45,28,95,0,0
5.2196e+05,1.9128e+08,5,2855,2828,15.68,0.39,28,95,0,0
5.224e+05,1.9139e+08,5,2828,2828,15.69,0.46,28,95,0,0
5.2284e+05,1.9149e+08,5,2828,2828,15.69,0.47,28,95,0,0
5.2325e+05,1.916e+08,5,2828,2828,15.71,0.46,28,95,0,0
5.237e+05,1.9171e+08,5,2800,2100,15.76,0.04,28,95,0,0
5.2415e+05,1.9181e+08,5,2079,1585,15.75,0,28,95,0,0
5.246e+05,1.9192e+08,5,1574,1328,15.75,0.05,28,95,0,0
5.2509e+05,1.9203e+08,5,1325,1285,15.74,0.07,28,95,0,0
5.2554e+05,1.9214e+08,5,1285,1285,15.75,0.08,28,95,0,0
5.2598e+05,1.9225e+08,5,1285,1285,15.74,0.08,28,95,0,0
5.2683e+05,1.9246e+08,5,1284,1271,15.75,0.08,28,95,0,0
5.2729e+05,1.9257e+08,5,1271,1285,15.75,0.08,28,95,0,0
5.2774e+05,1.9268e+08,5,1283,1271,15.75,0.08,28,95,0,0
5.2863e+05,1.9289e+08,5,1271,1285,15.76,0.07,28,95,0,0
5.2907e+05,1.93e+08,5,1284,1271,15.76,0.08,28,95,0,0
5.2957e+05,1.9312e+08,5,1273,1285,15.76,0.08,28,95,0,0
5.2997e+05,1.9322e+08,5,1283,1257,15.79,0.04,28,95,0,0
5.304e+05,1.9332e+08,5,1235,257,15.78,0,28,95,0,0
5.3089e+05,1.9344e+08,5,234,0,15.78,0,28,95,0,0
5.3134e+05,1.9354e+08,5,0,0,15.78,0.01,28,95,0,0
5.3183e+05,1.9366e+08,5,0,0,15.78,0.01,28,95,0,0
5.3228e+05,1.9376e+08,5,0,0,15.79,0.01,28,95,0,0
5.3273e+05,1.9387e+08,5,0,0,15.79,0.01,28,95,0,0
5.3318e+05,1.9398e+08,5,0,0,15.79,0.01,28,95,0,0
5.3368e+05,1.941e+08,5,0,0,15.79,0.01,28,95,0,0
5.341e+05,1.942e+08,5,0,0,15.79,0.01,28,95,0,0
5.3455e+05,1.9431e+08,5,0,0,15.8,0.01,28,95,0,0
5.3496e+05,1.9441e+08,5,0,0,15.8,0.01,28,95,0,0
5.3541e+05,1.9451e+08,5,0,0,15.8,0.01,28,95,0,0
5.359e+05,1.9463e+08,5,0,0,15.8,0.01,28,95,0,0
5.368e+05,1.9484e+08,5,0,0,15.8,0.01,28,95,0,0
5.3726e+05,1.9495e+08,5,0,0,15.8,0.01,28,95,0,0
5.3775e+05,1.9506e+08,5,0,0,15.8,0.01,27,95,0,0
5.3821e+05,1.9518e+08,5,0,0,15.81,0.01,27,95,0,0
5.3866e+05,1.9528e+08,5,0,0,15.8,0.01,27,95,0,0
5.3911e+05,1.9539e+08,5,0,0,15.81,0.01,27,95,0,0
5.3956e+05,1.955e+08,5,0,0,15.8,0.01,27,95,0,0
5.4002e+05,1.9561e+08,5,0,0,15.81,0.01,28,95,0,0
5.4044e+05,1.9571e+08,5,0,0,15.82,0.01,27,95,0,0
5.4093e+05,1.9583e+08,5,0,0,15.82,0.01,27,95,0,0
5.4138e+05,1.9594e+08,5,0,0,15.82,0.01,28,95,0,0
5.4188e+05,1.9605e+08,5,0,0,15.82,0.01,27,95,0,0
5.4229e+05,1.9615e+08,5,0,0,15.82,0.01,27,95,0,0
5.4279e+05,1.9626e+08,5,0,0,15.82,0.01,27,95,0,0
5.4324e+05,1.9637e+08,5,0,0,15.82,0.01,27,95,0,0
5.4373e+05,1.9648e+08,5,0,0,15.82,0.01,27,95,0,0
5.4418e+05,1.9659e+08,5,0,0,15.83,0.01,27,95,0,0
5.4464e+05,1.967e+08,5,0,0,15.82,0.01,27,95,0,0
5.451e+05,1.9681e+08,5,0,0,15.83,0.01,27,95,0,0
5.4555e+05,1.9692e+08,5,0,0,15.83,0.01,27,95,0,0
5.4617e+05,1.9713e+08,5,0,0,15.83,0.01,27,95,0,0
5.4663e+05,1.9724e+08,5,0,0,15.83,0.01,27,95,0,0
5.4707e+05,1.9734e+08,5,0,0,15.83,0.01,27,95,0,0
5.4757e+05,1.9745e+08,5,0,0,15.83,0.01,27,95,0,0
5.4802e+05,1.9756e+08,5,0,0,15.83,0.02,27,95,0,0
5.4851e+05,1.9768e+08,5,0,0,15.83,0.01,27,95,0,0
5.4897e+05,1.9779e+08,5,0,0,15.83,0.02,27,95,0,0
5.4942e+05,1.9789e+08,5,0,0,15.83,0.01,27,95,0,0
5.4988e+05,1.9801e+08,5,0,0,15.83,0.01,27,95,0,0
5.5033e+05,1.9811e+08,5,0,0,15.84,0.02,27,95,0,0
5.5078e+05,1.9821e+08,5,0,0,15.83,0.01,27,95,0,0
5.5123e+05,1.9832e+08,5,0,0,15.84,0.01,27,95,0,0
5.5173e+05,1.9844e+08,5,0,0,15.84,0.01,27,95,0,0
5.5214e+05,1.9854e+08,5,0,0,15.84,0.01,27,95,0,0
5.5264e+05,1.9865e+08,5,0,0,15.84,0.01,27,95,0,0
5.5354e+05,1.9886e+08,5,0,0,15.84,0.01,27,95,0,0
5.5399e+05,1.9897e+08,5,0,0,15.84,0.01,27,95,0,0
5.5448e+05,1.9908e+08,5,0,0,15.84,0.01,27,95,0,0
5.5493e+05,1.9919e+08,5,0,0,15.85,0.02,27,95,0,0
5.5538e+05,1.993e+08,5,0,0,15.85,0.02,27,95,0,0
5.5584e+05,1.9941e+08,5,0,0,15.85,0.01,27,95,0,0
5.5633e+05,1.9952e+08,5,0,0,15.85,0.02,27,95,0,0
5.5678e+05,1.9963e+08,5,0,0,15.85,0.02,27,95,0,0
5.5723e+05,1.9974e+08,5,0,0,15.85,0.02,27,95,0,0
5.5773e+05,1.9985e+08,5,0,0,15.85,0.02,27,95,0,0
5.5814e+05,1.9995e+08,5,0,0,15.85,0.02,27,95,0,0
5.5859e+05,2.0006e+08,5,0,0,15.85,0.01,27,95,0,0
