LineNo,TimeUS,Instance,RPM,RawRPM,Volt,Curr,Temp,CTot,MotTemp,Err
1473,64656117,0,0,0,16.08,0.05,34,0,0,0
1843,64753877,0,0,0,16.08,0.05,33,0,0,0
2309,64867257,0,0,0,16.08,0.05,33,0,0,0
2725,64977853,0,0,0,16.08,0.05,34,0,0,0
3138,65079559,0,0,0,16.08,0.05,34,0,0,0
3586,65192314,0,0,0,16.08,0.05,34,0,0,0
4007,65296850,0,0,0,16.08,0.05,33,0,0,0
4423,65402708,0,0,0,16.08,0.05,34,0,0,0
4838,65507266,0,0,0,16.08,0.05,34,0,0,0
5287,65620868,0,0,0,16.08,0.05,34,0,0,0
5698,65726593,0,0,0,16.08,0.05,34,0,0,0
6117,65829576,0,0,0,16.08,0.05,34,0,0,0
6980,66048889,0,0,0,16.08,0.05,34,0,0,0
7375,66146595,0,0,0,16.08,0.05,34,0,0,0
7874,66261235,0,0,0,16.08,0.05,34,0,0,0
8327,66366960,0,0,0,16.08,0.05,34,0,0,0
8782,66472996,0,0,0,16.08,0.05,33,0,0,0
9312,66591448,0,0,0,16.08,0.06,34,0,0,0
9765,66693548,0,0,0,16.08,0.05,34,0,0,0
10222,66803891,0,0,0,16.08,0.06,33,0,0,0
10678,66912958,0,0,0,16.08,0.05,33,0,0,0
11131,67013680,0,0,0,16.08,0.05,34,0,0,0
11625,67127907,0,0,0,16.08,0.05,33,0,0,0
12127,67239842,0,0,0,16.08,0.05,34,0,0,0
12578,67348858,0,0,0,16.08,0.05,34,0,0,0
13033,67452906,0,0,0,16.08,0.05,34,0,0,0
13480,67557567,0,0,0,16.08,0.05,33,0,0,0
13976,67671041,0,0,0,16.08,0.05,34,0,0,0
14389,67768813,0,0,0,16.08,0.05,34,0,0,0
14885,67882788,0,0,0,16.08,0.05,34,0,0,0
15336,67990980,0,0,0,16.08,0.05,33,0,0,0
15795,68098836,0,0,0,16.08,0.05,33,0,0,0
16246,68203967,0,0,0,16.08,0.06,34,0,0,0
16744,68319454,0,62,771,16.07,0.19,34,0,0,0
17199,68422532,0,1027,3728,16.04,0.77,34,0,0,0
17657,68533876,0,3501,1000,16.05,0.28,34,0,0,0
18066,68626606,0,1002,1200,16.06,0.15,34,0,0,0
18563,68744363,0,1204,1257,16.07,0.12,34,0,0,0
19016,68846927,0,1257,1285,16.07,0.12,34,0,0,0
19467,68954010,0,1285,1314,16.07,0.12,34,0,0,0
19963,69064146,0,1313,1300,16.06,0.12,34,0,0,0
20199,69172004,0,1300,1314,16.06,0.11,34,0,0,0
20700,69285837,0,1314,1314,16.07,0.11,34,0,0,0
21108,69382894,0,1313,1300,16.07,0.12,34,0,0,0
21611,69501910,0,1301,1314,16.07,0.12,34,0,0,0
22102,69609134,0,1314,1314,16.07,0.12,34,0,0,0
22559,69718263,0,1314,1314,16.06,0.12,34,0,0,0
23015,69823433,0,1313,1300,16.06,0.12,34,0,0,0
23427,69923015,0,1300,1314,16.07,0.12,34,0,0,0
23924,70034292,0,1314,1314,16.06,0.12,34,0,0,0
24414,70145855,0,1313,1300,16.05,0.12,34,0,0,0
24869,70247325,0,1300,1314,16.06,0.12,34,0,0,0
25366,70364283,0,1314,1314,16.07,0.12,34,0,0,0
25821,70468488,0,1314,1314,16.06,0.11,34,0,0,0
26273,70573824,0,1314,1314,16.06,0.12,34,0,0,0
26770,70686755,0,1314,1314,16.06,0.12,34,0,0,0
27230,70798331,0,1312,1300,16.07,0.12,34,0,0,0
27683,70900113,0,1300,1314,16.06,0.12,34,0,0,0
28096,71001785,0,1314,1314,16.07,0.11,34,0,0,0
28588,71114806,0,1314,1314,16.07,0.11,34,0,0,0
29087,71227949,0,1312,1300,16.07,0.11,34,0,0,0
29497,71328019,0,1300,1300,16.07,0.11,34,0,0,0
29953,71432275,0,1300,1314,16.07,0.12,34,0,0,0
30448,71546474,0,1314,1314,16.07,0.12,34,0,0,0
30948,71657651,0,1314,1314,16.06,0.12,34,0,0,0
31361,71754966,0,1313,1300,16.07,0.11,34,0,0,0
31859,71867863,0,1300,1300,16.07,0.12,34,0,0,0
32315,71977959,0,1301,1314,16.07,0.12,34,0,0,0
32768,72080118,0,1314,1314,16.07,0.12,34,0,0,0
33262,72196359,0,1314,1314,16.07,0.12,34,0,0,0
33721,72300948,0,1314,1314,16.06,0.12,34,0,0,0
34170,72407910,0,1314,1314,16.06,0.12,34,0,0,0
34623,72516326,0,1313,1300,16.06,0.12,34,0,0,0
35124,72630450,0,1301,1314,16.06,0.11,34,0,0,0
35540,72732020,0,1314,1314,16.07,0.12,34,0,0,0
35997,72838117,0,1313,1300,16.06,0.12,34,0,0,0
36492,72955899,0,1300,1314,16.06,0.12,34,0,0,0
36945,73057911,0,1313,1300,16.07,0.12,34,0,0,0
37431,73166901,0,1301,1314,16.07,0.12,34,0,0,0
37930,73276991,0,1314,1314,16.07,0.11,34,0,0,0
38385,73386388,0,1314,1314,16.05,0.11,34,0,0,0
38838,73491129,0,1313,1300,16.06,0.12,34,0,0,0
39294,73600459,0,1301,1314,16.06,0.12,34,0,0,0
39755,73705142,0,1314,1314,16.06,0.11,34,0,0,0
40204,73809844,0,1313,1300,16.06,0.11,34,0,0,0
40660,73914981,0,1300,1314,16.07,0.11,34,0,0,0
41156,74030120,0,1314,1314,16.06,0.11,34,0,0,0
41608,74135788,0,1314,1314,16.06,0.12,34,0,0,0
42108,74249280,0,1314,1314,16.06,0.12,34,0,0,0
42560,74357496,0,1314,1314,16.06,0.12,34,0,0,0
43016,74462997,0,1313,1300,16.06,0.11,34,0,0,0
43469,74567916,0,1300,1300,16.05,0.12,34,0,0,0
43968,74679768,0,1301,1314,16.06,0.12,34,0,0,0
44424,74788350,0,1312,1300,16.05,0.12,34,0,0,0
44877,74890141,0,1300,1314,16.05,0.12,34,0,0,0
45336,75001700,0,1314,1314,16.06,0.11,34,0,0,0
45790,75103128,0,1314,1314,16.06,0.12,34,0,0,0
46240,75207971,0,1314,1314,16.06,0.12,34,0,0,0
46735,75320760,0,1313,1300,16.07,0.12,34,0,0,0
47187,75425335,0,1300,1314,16.06,0.12,34,0,0,0
47683,75541536,0,1314,1314,16.06,0.12,34,0,0,0
48100,75638557,0,1313,1300,16.06,0.12,34,0,0,0
48599,75753947,0,1301,1314,16.06,0.12,34,0,0,0
49050,75856022,0,1313,1300,16.05,0.12,34,0,0,0
49506,75965462,0,1300,1300,16.06,0.12,34,0,0,0
49990,76079006,0,1231,485,16.08,0.01,34,0,0,0
50440,76187367,0,465,185,16.07,0.04,34,0,0,0
50893,76292063,0,176,0,16.08,0.05,34,0,0,0
51388,76406785,0,0,0,16.07,0.05,34,0,0,0
51844,76516933,0,0,0,16.07,0.05,34,0,0,0
52302,76626604,0,0,0,16.07,0.05,34,0,0,0
52756,76735029,0,0,0,16.07,0.05,34,0,0,0
53667,76950322,0,0,0,16.08,0.05,34,0,0,0
54121,77058472,0,0,0,16.08,0.05,34,0,0,0
54576,77166270,0,0,0,16.08,0.05,34,0,0,0
55072,77281575,0,0,0,16.07,0.05,34,0,0,0
55522,77387495,0,0,0,16.08,0.05,34,0,0,0
55971,77491140,0,0,0,16.07,0.05,34,0,0,0
56428,77602934,0,0,0,16.07,0.05,34,0,0,0
56886,77713505,0,0,0,16.07,0.05,34,0,0,0
57339,77816960,0,0,0,16.08,0.06,34,0,0,0
57789,77924314,0,0,0,16.08,0.05,34,0,0,0
58246,78031529,0,0,0,16.08,0.06,34,0,0,0
58702,78142824,0,0,0,16.07,0.05,34,0,0,0
59156,78247349,0,0,0,16.08,0.05,34,0,0,0
59607,78354346,0,0,0,16.08,0.05,34,0,0,0
60062,78460174,0,0,0,16.07,0.05,34,0,0,0
60514,78570711,0,0,0,16.08,0.05,34,0,0,0
61012,78685763,0,0,0,16.08,0.05,34,0,0,0
61463,78791741,0,0,0,16.08,0.06,34,0,0,0
61964,78910344,0,0,0,16.07,0.05,34,0,0,0
62414,79014842,0,0,0,16.07,0.05,34,0,0,0
62871,79126853,0,0,0,16.07,0.05,34,0,0,0
63324,79233308,0,0,0,16.07,0.05,34,0,0,0
63550,79341876,0,0,0,16.08,0.05,34,0,0,0
64001,79447370,0,0,0,16.08,0.05,34,0,0,0
64453,79555359,0,0,0,16.07,0.05,34,0,0,0
64908,79658109,0,0,0,16.08,0.05,34,0,0,0
65368,79771850,0,0,0,16.08,0.05,34,0,0,0
65826,79877382,0,0,0,16.07,0.05,34,0,0,0
66322,79996407,0,0,0,16.07,0.05,34,0,0,0
66777,80101584,0,0,0,16.08,0.05,34,0,0,0
67229,80208897,0,0,0,16.07,0.05,34,0,0,0
68178,80432929,0,0,0,16.08,0.05,34,0,0,0
68668,80546367,0,0,0,16.07,0.05,34,0,0,0
69126,80653240,0,0,0,16.08,0.05,34,0,0,0
69536,80754355,0,0,0,16.08,0.05,34,0,0,0
70035,80869774,0,0,0,16.08,0.05,34,0,0,0
70482,80974810,0,0,0,16.08,0.05,34,0,0,0
70979,81089931,0,0,0,16.08,0.05,34,0,0,0
71395,81188989,0,0,0,16.08,0.05,34,0,0,0
71893,81302745,0,0,0,16.08,0.05,34,0,0,0
72340,81410265,0,0,0,16.07,0.05,34,0,0,0
72832,81527908,0,0,0,16.08,0.05,34,0,0,0
73289,81633974,0,0,0,16.07,0.05,34,0,0,0
73741,81744562,0,0,0,16.08,0.05,34,0,0,0
74236,81858778,0,0,0,16.08,0.05,34,0,0,0
74686,81962284,0,0,0,16.08,0.05,34,0,0,0
75186,82078875,0,0,0,16.08,0.05,34,0,0,0
75640,82186554,0,0,0,16.08,0.05,34,0,0,0
76093,82290811,0,0,0,16.08,0.05,34,0,0,0
76588,82410351,0,0,0,16.08,0.05,34,0,0,0
77043,82520841,0,0,0,16.08,0.05,34,0,0,0
77951,82733841,0,0,0,16.08,0.05,34,0,0,0
78407,82842257,0,0,0,16.07,0.05,34,0,0,0
78858,82946975,0,0,0,16.07,0.05,34,0,0,0
79356,83061344,0,0,0,16.08,0.05,34,0,0,0
79813,83174034,0,0,0,16.07,0.05,34,0,0,0
80266,83279034,0,0,0,16.08,0.05,34,0,0,0
80721,83390943,0,0,0,16.08,0.05,34,0,0,0
81175,83494355,0,0,0,16.08,0.05,34,0,0,0
81670,83612076,0,0,0,16.08,0.05,34,0,0,0
82124,83721757,0,0,0,16.08,0.05,34,0,0,0
82576,83825537,0,0,0,16.08,0.05,34,0,0,0
83025,83930932,0,0,0,16.08,0.05,34,0,0,0
83525,84044996,0,0,0,16.08,0.05,34,0,0,0
83974,84150246,0,0,0,16.07,0.05,34,0,0,0
84473,84264003,0,0,0,16.07,0.05,34,0,0,0
84924,84370983,0,0,0,16.08,0.05,34,0,0,0
85379,84477901,0,0,0,16.08,0.05,34,0,0,0
85836,84587351,0,0,0,16.08,0.05,34,0,0,0
86341,84704234,0,0,0,16.08,0.05,34,0,0,0
86790,84810605,0,0,0,16.08,0.05,34,0,0,0
87244,84915770,0,0,0,16.08,0.05,34,0,0,0
87697,85022907,0,0,0,16.08,0.04,34,0,0,0
88192,85138578,0,0,0,16.08,0.05,34,0,0,0
88646,85243241,0,0,0,16.07,0.05,34,0,0,0
89096,85351536,0,0,0,16.08,0.05,34,0,0,0
89592,85466793,0,0,0,16.08,0.05,34,0,0,0
90046,85575773,0,0,0,16.08,0.05,34,0,0,0
90499,85682079,0,0,0,16.08,0.05,34,0,0,0
90913,85783534,0,0,0,16.08,0.05,34,0,0,0
91412,85897232,0,0,0,16.07,0.05,34,0,0,0
91863,86005984,0,0,0,16.07,0.05,34,0,0,0
92314,86110012,0,0,0,16.07,0.05,34,0,0,0
92812,86225511,0,0,0,16.08,0.05,34,0,0,0
93227,86328005,0,0,0,16.07,0.05,34,0,0,0
93723,86443999,0,0,0,16.07,0.05,34,0,0,0
94174,86550835,0,0,0,16.08,0.05,34,0,0,0
94626,86654797,0,0,0,16.07,0.05,34,0,0,0
95121,86771251,0,0,0,16.08,0.05,34,0,0,0
95618,86886233,0,0,0,16.08,0.05,34,0,0,0
96026,86983148,0,0,0,16.08,0.05,34,0,0,0
96560,87104147,0,0,0,16.07,0.05,34,0,0,0
96975,87198817,0,0,0,16.07,0.05,34,0,0,0
97474,87320849,0,0,0,16.07,0.05,34,0,0,0
97926,87423856,0,0,0,16.07,0.05,34,0,0,0
98337,87524848,0,0,0,16.07,0.05,34,0,0,0
99324,87750873,0,0,0,16.08,0.05,34,0,0,0
99776,87854277,0,0,0,16.07,0.05,34,0,0,0
100229,87963138,0,0,0,16.07,0.05,34,0,0,0
100729,88077947,0,0,0,16.07,0.05,34,0,0,0
101185,88189885,0,0,0,16.07,0.05,34,0,0,0
101642,88296974,0,0,0,16.07,0.05,34,0,0,0
102091,88407108,0,0,0,16.08,0.05,34,0,0,0
102585,88524789,0,0,0,16.08,0.05,34,0,0,0
103000,88620807,0,0,0,16.08,0.05,34,0,0,0
103458,88729958,0,0,0,16.07,0.05,34,0,0,0
103954,88846560,0,0,0,16.07,0.05,34,0,0,0
104409,88956864,0,0,0,16.07,0.05,34,0,0,0
104905,89069070,0,0,0,16.08,0.05,34,0,0,0
105316,89166586,0,0,0,16.08,0.05,34,0,0,0
105770,89271321,0,0,0,16.08,0.05,34,0,0,0
106267,89390248,0,0,0,16.07,0.05,34,0,0,0
106722,89494374,0,0,0,16.07,0.05,34,0,0,0
107173,89600984,0,0,0,16.08,0.05,34,0,0,0
107628,89703810,0,0,0,16.07,0.05,34,0,0,0
108122,89819811,0,0,0,16.07,0.05,34,0,0,0
108566,89921387,0,0,0,16.07,0.05,34,0,0,0
109069,90036228,0,0,0,16.07,0.05,34,0,0,0
109515,90139458,0,0,0,16.08,0.05,34,0,0,0
109972,90244939,0,0,0,16.07,0.05,34,1,0,0
110435,90358358,0,0,0,16.07,0.05,34,1,0,0
110887,90459821,0,0,0,16.08,0.05,34,1,0,0
111341,90565144,0,0,0,16.08,0.05,34,1,0,0
111837,90679463,0,0,0,16.07,0.05,34,1,0,0
112289,90784746,0,11,128,16.06,0.09,34,1,0,0
112742,90888301,0,137,771,16.05,0.15,34,1,0,0
113231,90998946,0,794,1142,16.05,0.16,34,1,0,0
113691,91103850,0,1146,1242,16.07,0.13,34,1,0,0
114185,91216838,0,1244,1285,16.06,0.12,34,1,0,0
114638,91322756,0,1285,1300,16.06,0.12,34,1,0,0
115138,91438831,0,1301,1314,16.05,0.12,34,1,0,0
116043,91648921,0,1314,1314,16.05,0.12,34,1,0,0
116796,91866827,0,1301,1314,16.06,0.12,34,1,0,0
117282,91975986,0,1314,1314,16.06,0.12,34,1,0,0
117737,92077119,0,1313,1300,16.06,0.12,34,1,0,0
118188,92185224,0,1300,1314,16.05,0.12,34,1,0,0
118642,92289574,0,1314,1314,16.06,0.12,34,1,0,0
119141,92406602,0,1312,1300,16.07,0.12,34,1,0,0
119597,92509774,0,1300,1300,16.05,0.12,34,1,0,0
120050,92618134,0,1300,1314,16.06,0.12,34,1,0,0
120504,92726868,0,1314,1314,16.05,0.11,34,1,0,0
120965,92830908,0,1314,1314,16.07,0.11,34,1,0,0
121456,92947040,0,1314,1314,16.06,0.12,34,1,0,0
121908,93048928,0,1314,1314,16.06,0.11,34,1,0,0
122363,93157485,0,1314,1314,16.06,0.12,34,1,0,0
122785,93260540,0,1314,1314,16.05,0.11,34,1,0,0
123279,93376858,0,1312,1300,16.06,0.12,34,1,0,0
123732,93479262,0,1300,1300,16.06,0.11,34,1,0,0
124227,93592784,0,1301,1314,16.05,0.11,34,1,0,0
124679,93696278,0,1314,1314,16.07,0.11,34,1,0,0
125172,93810570,0,1314,1314,16.06,0.12,34,1,0,0
125622,93916552,0,1314,1314,16.06,0.11,34,1,0,0
126082,94022299,0,1314,1314,16.05,0.12,34,1,0,0
126532,94127532,0,1314,1314,16.06,0.12,34,1,0,0
127031,94240452,0,1314,1314,16.05,0.11,34,1,0,0
128389,94556140,0,1313,1300,16.05,0.12,34,1,0,0
128841,94657946,0,1300,1300,16.05,0.11,34,1,0,0
129334,94769926,0,1305,1385,16.03,0.19,34,1,0,0
129791,94874910,0,1390,1785,15.98,0.5600000000000001,34,1,0,0
130292,94990905,0,1836,2371,15.93,0.74,34,1,0,0
130748,95097616,0,2374,2414,15.95,0.6,34,1,0,0
131161,95196794,0,2414,2485,16,0.5,34,1,0,0
131695,95315810,0,2482,2471,16.02,0.46,34,1,0,0
132118,95418807,0,2463,2357,15.98,0.6899999999999999,34,1,0,0
132570,95526804,0,2384,2728,15.91,1.33,34,1,0,0
133026,95635877,0,2762,3442,15.8,1.74,34,1,0,0
133478,95746814,0,3459,3814,15.51,3.23,34,1,0,0
133974,95861774,0,3870,4628,15.57,3.72,34,1,0,0
134431,95973235,0,4697,5357,15.47,3.63,34,1,0,0
134885,96079563,0,5383,5728,15.39,4.52,34,1,0,0
135337,96189894,0,5769,6171,15.54,3.94,34,1,0,0
135790,96293577,0,6156,5957,15.62,3.37,34,1,0,0
136240,96403536,0,5947,5857,15.57,3.66,34,2,0,0
137144,96618900,0,5859,5942,15.51,3.94,34,2,0,0
137594,96728848,0,5945,6042,15.62,4.05,34,2,0,0
138046,96835524,0,6044,6228,15.53,4.38,34,2,0,0
139026,97060820,0,6231,6414,15.58,4.65,34,2,0,0
139476,97167920,0,6415,6442,15.45,5,34,2,0,0
139932,97276772,0,6449,6542,15.44,4.95,34,3,0,0
140427,97394792,0,6529,6400,15.48,4.71,34,3,0,0
140879,97499145,0,6400,6400,15.47,4.81,35,3,0,0
141334,97610253,0,6398,6385,15.51,4.59,34,3,0,0
141786,97718070,0,6381,6342,15.47,4.29,35,3,0,0
142242,97827834,0,6329,6200,15.49,4.14,35,3,0,0
142690,97937032,0,6209,6300,15.47,4.25,35,3,0,0
143596,98151588,0,6298,6214,15.49,4.15,35,4,0,0
144096,98265473,0,6211,6185,15.51,4.21,35,4,0,0
144547,98374918,0,6186,6200,15.48,4.19,35,4,0,0
145000,98478014,0,6200,6214,15.54,4.22,35,4,0,0
145456,98588497,0,6211,6157,15.55,3.83,35,4,0,0
145909,98695808,0,6159,6228,15.5,4.13,35,4,0,0
146370,98811228,0,6244,6414,15.31,5.16,35,4,0,0
146820,98920466,0,6437,6685,15.31,5.5,35,5,0,0
147275,99024793,0,6686,6714,15.3,5.13,35,5,0,0
147773,99147003,0,6712,6700,15.3,5.26,35,5,0,0
148226,99251523,0,6718,6900,15.25,5.79,35,5,0,0
148632,99350788,0,6898,6800,15.3,5.49,35,5,0,0
149130,99469523,0,6797,6771,15.24,5.27,35,6,0,0
149577,99575301,0,6776,6857,15.25,5.8,35,6,0,0
150034,99686139,0,6855,6842,15.29,5.39,35,6,0,0
150488,99797930,0,6847,6900,15.32,5.5,35,6,0,0
150941,99902109,0,6900,6914,15.3,5.21,35,6,0,0
151394,100010778,0,6911,6857,15.37,5.36,35,6,0,0
151845,100117621,0,6854,6671,15.37,4.91,35,6,0,0
152168,100233124,0,6654,6500,15.41,4.68,35,7,0,0
152571,100334175,0,6499,6485,15.4,4.73,35,7,0,0
153067,100453572,0,6501,6657,15.4,5.4,35,7,0,0
153470,100557496,0,6658,6714,15.45,5.29,35,7,0,0
153917,100663980,0,6714,6714,15.44,5.17,35,7,0,0
154359,100770749,0,6706,6585,15.42,5.51,35,7,0,0
154811,100882818,0,6591,6685,15.41,5.25,35,8,0,0
155260,100995797,0,6675,6557,15.44,4.88,35,8,0,0
155712,101101995,0,6559,6600,15.52,4.52,35,8,0,0
156155,101215958,0,6592,6514,15.55,3.97,35,8,0,0
156591,101320441,0,6508,6414,15.51,4.06,35,8,0,0
157045,101434516,0,6408,6328,15.48,4.83,35,8,0,0
157448,101536520,0,6331,6471,15.44,4.57,35,8,0,0
157904,101651585,0,6456,6242,15.53,4.29,35,8,0,0
158355,101763926,0,6262,6471,15.45,5.26,36,9,0,0
158797,101864995,0,6477,6742,15.4,4.92,35,9,0,0
159253,101983458,0,6727,6585,15.47,4.41,36,9,0,0
159654,102079797,0,6576,6414,15.46,4.03,36,9,0,0
160102,102192077,0,6414,6428,15.35,4.32,36,9,0,0
160551,102298804,0,6428,6442,15.37,4.36,36,9,0,0
160996,102408566,0,6423,6185,15.39,4.11,36,9,0,0
161444,102521800,0,6185,6185,15.35,4.11,36,10,0,0
161890,102627509,0,6192,6371,15.35,4.7,36,10,0,0
162782,102845590,0,6373,6471,15.39,4.55,36,10,0,0
163232,102959991,0,6464,6371,15.35,4.66,36,10,0,0
163679,103066339,0,6376,6714,15.4,4.72,36,10,0,0
164129,103176909,0,6690,6485,15.41,4.67,36,10,0,0
164574,103283447,0,6488,6542,15.38,4.64,36,11,0,0
165009,103388043,0,6543,6642,15.43,4.48,36,11,0,0
165510,103505503,0,6644,6671,15.29,4.98,36,11,0,0
165950,103612894,0,6647,6428,15.41,4.91,36,11,0,0
166389,103718149,0,6430,6457,15.41,4.9,36,11,0,0
166797,103820140,0,6459,6514,15.35,4.89,36,11,0,0
167289,103939463,0,6518,6571,15.4,4.77,36,11,0,0
167734,104045556,0,6571,6585,15.38,4.8,36,12,0,0
168183,104155952,0,6575,6442,15.28,4.59,36,12,0,0
168631,104260945,0,6442,6500,15.39,4.65,36,12,0,0
169072,104367912,0,6500,6514,15.25,5.2,36,12,0,0
169526,104477877,0,6508,6428,15.2,4.99,36,12,0,0
169927,104578997,0,6434,6700,15.14,5.66,36,12,0,0
170378,104690843,0,6703,6785,15.08,5.57,36,13,0,0
170831,104806968,0,6788,6828,15.22,5.55,36,13,0,0
171282,104917361,0,6819,6742,15.17,5,36,13,0,0
171734,105026905,0,6743,6757,15.12,4.95,36,13,0,0
172135,105128019,0,6750,6671,15.19,4.87,36,13,0,0
172626,105243593,0,6665,6614,15.16,4.66,36,13,0,0
173072,105349229,0,6604,6514,15.16,4.6,36,13,0,0
173524,105458906,0,6495,6300,15.25,4.26,36,14,0,0
173965,105566793,0,6300,6300,15.22,4.35,36,14,0,0
174371,105664991,0,6300,6342,15.3,4.47,36,14,0,0
175303,105888583,0,6339,6271,15.38,3.97,36,14,0,0
175712,105993133,0,6270,6242,15.34,4.09,36,14,0,0
176200,106110918,0,6239,6185,15.37,4.18,36,14,0,0
177096,106335534,0,6176,6042,15.34,4,36,15,0,0
177506,106430940,0,6040,5942,15.34,3.86,36,15,0,0
178401,106657146,0,5962,6285,15.41,4.43,36,15,0,0
178804,106760875,0,6263,5985,15.42,3.3,36,15,0,0
179253,106867884,0,5987,6014,15.41,3.5,36,15,0,0
180145,107086932,0,6015,6071,15.29,4.03,36,15,0,0
180591,107195811,0,6073,6142,15.3,4.64,36,16,0,0
181080,107315883,0,6181,6528,15.16,5.53,36,16,0,0
181485,107414991,0,6536,6642,15.2,6.38,37,16,0,0
181895,107518928,0,6650,7314,15.14,7.43,37,16,0,0
182372,107631533,0,7331,7628,15.16,8.44,37,16,0,0
182819,107745559,0,7645,7885,15.19,8.49,37,16,0,0
183231,107848359,0,7870,7742,15.23,7.23,37,17,0,0
183632,107945011,0,7738,7428,15.26,6.47,37,17,0,0
184125,108064562,0,7362,6742,15.31,4.1,37,17,0,0
184564,108170141,0,6723,6457,15.28,3.19,37,17,0,0
185420,108380437,0,6413,4671,15.34,0.83,37,17,0,0
185869,108492616,0,4591,3828,15.32,0.68,37,17,0,0
186314,108606383,0,3836,3928,15.3,1.25,37,17,0,0
187160,108813556,0,3941,4185,15.33,1.73,37,18,0,0
187613,108926495,0,4244,4628,15.35,2.51,37,18,0,0
188058,109033599,0,4660,4985,15.35,2.95,37,18,0,0
188489,109136932,0,5019,5414,15.3,3.46,37,18,0,0
188986,109255712,0,5459,5914,15.23,4.24,37,18,0,0
189390,109353446,0,5923,6257,15.16,5.03,37,18,0,0
189881,109476812,0,6286,6600,15.22,5.34,37,18,0,0
190280,109576888,0,6603,6685,15.22,5.62,37,18,0,0
190768,109694025,0,6688,6728,15.22,4.92,37,19,0,0
191173,109796859,0,6703,6385,15.3,4.4,37,19,0,0
191587,109899906,0,6382,6328,15.27,4.39,37,19,0,0
192067,110014977,0,6310,6128,15.26,3.39,37,19,0,0
192468,110112890,0,6123,5857,15.24,3.62,37,19,0,0
192919,110227677,0,5875,6057,15.2,4.41,37,19,0,0
193811,110442275,0,6066,6557,15.29,4.88,37,19,0,0
194222,110550967,0,6549,6457,15.27,4.85,37,20,0,0
194710,110666781,0,6457,6457,15.24,4.93,37,20,0,0
195070,110758762,0,6456,6414,15.27,4.58,37,20,0,0
195567,110878454,0,6415,6428,15.27,4.27,37,20,0,0
195970,110980817,0,6422,6314,15.24,4.34,37,20,0,0
196428,111095771,0,6312,6300,15.27,4.2,37,20,0,0
196875,111202287,0,6300,6300,15.27,4.47,37,20,0,0
197324,111314000,0,6299,6271,15.3,4.34,37,20,0,0
197810,111432945,0,6266,6228,15.23,4.26,37,21,0,0
198213,111536043,0,6226,6214,15.26,4.24,37,21,0,0
198659,111644133,0,6204,6057,15.26,4.39,37,21,0,0
199101,111756934,0,6062,6114,15.25,4.18,37,21,0,0
199508,111855834,0,6119,6314,15.33,4.21,37,21,0,0
199955,111965758,0,6311,6200,15.19,4.19,37,21,0,0
200411,112077972,0,6203,6285,15.23,4.54,37,21,0,0
200895,112194978,0,6281,6242,15.16,4.19,37,22,0,0
201745,112403526,0,6243,6428,15.23,4.51,37,22,0,0
202232,112524437,0,6422,6314,15.3,4.31,37,22,0,0
202637,112621043,0,6312,6285,15.29,4.53,37,22,0,0
203083,112733945,0,6277,6185,15.29,4.29,37,22,0,0
203538,112845220,0,6200,6428,15.24,4.51,37,22,0,0
203943,112948872,0,6425,6328,15.22,4.31,37,23,0,0
204392,113058741,0,6320,6185,15.27,4.31,37,23,0,0
204840,113170239,0,6189,6257,15.26,4.29,37,23,0,0
205289,113277624,0,6255,6228,15.35,4.16,37,23,0,0
205739,113391356,0,6235,6342,15.29,4.35,37,23,0,0
206186,113496830,0,6346,6442,15.28,4.42,37,23,0,0
206636,113607336,0,6431,6228,15.28,4.6,37,23,0,0
207089,113717528,0,6229,6300,15.3,4.5,37,23,0,0
207538,113831271,0,6313,6442,15.27,4.31,37,24,0,0
208352,114040769,0,6435,6214,15.34,4.27,37,24,0,0
208756,114143850,0,6216,6314,15.35,4.37,37,24,0,0
209243,114259179,0,6308,6242,15.32,4.46,37,24,0,0
209698,114372887,0,6235,6157,15.31,4.21,37,24,0,0
210104,114473375,0,6157,6185,15.28,4.18,37,24,0,0
210596,114591044,0,6196,6314,15.22,4.91,37,24,0,0
211047,114701850,0,6312,6300,15.23,4.6,37,25,0,0
211449,114806898,0,6307,6457,15.33,4.55,37,25,0,0
211905,114921777,0,6466,6571,15.28,4.68,37,25,0,0
212309,115023561,0,6556,6428,15.36,3.9,37,25,0,0
212713,115127691,0,6422,6214,15.35,4.31,37,25,0,0
213167,115240473,0,6216,6342,15.33,4.09,37,25,0,0
213617,115349605,0,6337,6214,15.27,4.24,37,25,0,0
214553,115574789,0,6219,6342,15.23,4.76,37,26,0,0
214997,115677006,0,6350,6542,15.27,4.73,37,26,0,0
215445,115787524,0,6543,6571,15.22,4.89,37,26,0,0
215895,115895132,0,6571,6614,15.32,4.71,37,26,0,0
216337,116005514,0,6607,6528,15.25,4.9,37,26,0,0
216785,116119012,0,6530,6557,15.22,4.98,37,26,0,0
217676,116333254,0,6553,6457,15.29,4.53,37,27,0,0
218123,116439304,0,6451,6371,15.33,4.44,37,27,0,0
218570,116551057,0,6382,6500,15.29,4.73,37,27,0,0
218978,116653341,0,6501,6528,15.27,4.71,37,27,0,0
219384,116758004,0,6527,6471,15.27,4.67,37,27,0,0
219837,116868870,0,6449,6257,15.27,4.5,37,27,0,0
220222,116978767,0,6278,6585,15.27,4.95,37,28,0,0
220670,117087479,0,6574,6428,15.32,4.7,37,28,0,0
221069,117187237,0,6433,6657,15.29,4.98,37,28,0,0
221571,117307962,0,6647,6542,15.28,4.96,37,28,0,0
221972,117410850,0,6556,6757,15.07,4.84,37,28,0,0
222379,117517664,0,6757,6814,15.25,5.06,38,28,0,0
222863,117628474,0,6802,6642,15.23,4.96,37,28,0,0
223315,117739218,0,6631,6514,15.17,4.94,37,29,0,0
223763,117847507,0,6524,6628,15.19,5.52,37,29,0,0
224167,117947930,0,6630,6700,15.24,5.24,37,29,0,0
224618,118057045,0,6703,6757,15.25,4.97,37,29,0,0
225064,118169491,0,6749,6671,15.23,4.84,37,29,0,0
225552,118280457,0,6655,6485,15.17,4.63,37,29,0,0
225954,118382911,0,6480,6428,15.22,4.6,38,30,0,0
226407,118495719,0,6440,6614,15.24,4.73,37,30,0,0
226849,118607506,0,6599,6471,15.27,4.74,38,30,0,0
227258,118713897,0,6486,6642,15.23,4.36,38,30,0,0
227700,118816373,0,6616,6371,15.31,4.07,37,30,0,0
228149,118930379,0,6366,6314,15.27,3.85,38,30,0,0
228559,119032071,0,6314,6314,15.22,4.23,38,30,0,0
228962,119134253,0,6310,6114,15.29,3.9,38,30,0,0
229453,119250586,0,6125,6285,15.31,4.16,38,31,0,0
229905,119363516,0,6270,6128,15.27,3.96,38,31,0,0
230350,119470711,0,6122,6057,15.32,3.99,37,31,0,0
230751,119570917,0,6060,6200,15.29,4.11,38,31,0,0
231201,119681867,0,6200,6200,15.29,4.09,37,31,0,0
231648,119793346,0,6203,6242,15.3,4.13,38,31,0,0
232098,119903861,0,6234,6171,15.26,4.02,38,31,0,0
232543,120013122,0,6175,6271,15.25,4.35,38,31,0,0
232951,120119483,0,6269,6157,15.3,4.07,38,31,0,0
233438,120234149,0,6164,6257,15.29,4.28,38,32,0,0
233881,120346002,0,6250,6200,15.27,4.35,38,32,0,0
234333,120452106,0,6211,6328,15.21,4.31,38,32,0,0
234738,120555897,0,6318,6214,15.26,4.24,38,32,0,0
235184,120662346,0,6215,6228,15.25,4.31,38,32,0,0
235590,120764567,0,6228,6228,15.32,4.13,38,32,0,0
236039,120874851,0,6223,6100,15.27,4.13,38,32,0,0
236484,120984810,0,6104,6171,15.33,3.91,38,33,0,0
237423,121211510,0,6167,6071,15.3,3.91,38,33,0,0
238279,121426875,0,6072,6114,15.3,3.79,38,33,0,0
238726,121540530,0,6089,5828,15.32,3.49,38,33,0,0
239139,121644987,0,5842,5985,15.32,3.72,38,33,0,0
239586,121756517,0,5968,5800,15.28,3.48,38,33,0,0
240032,121862974,0,5816,5971,15.33,3.67,38,33,0,0
240437,121963744,0,5977,6100,15.27,3.83,38,34,0,0
240888,122071330,0,6097,6000,15.35,3.84,38,34,0,0
241336,122187341,0,5983,5814,15.27,3.46,38,34,0,0
241785,122294558,0,5816,5857,15.33,3.64,38,34,0,0
242230,122405225,0,5863,5942,15.33,3.78,38,34,0,0
242671,122513973,0,5947,6014,15.3,3.86,38,34,0,0
243117,122620043,0,6014,6028,15.27,4,38,34,0,0
243527,122726018,0,6027,6014,15.31,3.57,38,34,0,0
244054,122846832,0,6003,5857,15.3,3.54,38,35,0,0
244461,122953374,0,5862,5914,15.35,3.73,38,35,0,0
244867,123052001,0,5912,5842,15.28,3.53,38,35,0,0
245352,123168474,0,5851,5942,15.36,3.62,38,35,0,0
245762,123269555,0,5942,6000,15.33,3.63,38,35,0,0
246259,123392117,0,5974,5657,15.31,2.95,38,35,0,0
246708,123499827,0,5640,5414,15.29,2.4,38,35,0,0
247112,123603034,0,5412,5357,15.27,2.66,38,35,0,0
247601,123722948,0,5374,5614,15.36,3.49,38,35,0,0
248007,123821336,0,5623,5785,15.22,3.99,38,35,0,0
248455,123933993,0,5824,6242,15.22,5.04,38,36,0,0
248903,124040821,0,6260,6628,15.22,5.48,38,36,0,0
249351,124156363,0,6630,6657,15.22,4.97,38,36,0,0
249756,124256331,0,6657,6714,15.13,5.04,38,36,0,0
250240,124370871,0,6703,6557,15.06,5.44,38,36,0,0
250689,124480213,0,6573,6785,15.12,5.47,38,36,0,0
251096,124585740,0,6780,6685,15.08,5.42,38,36,0,0
251547,124696371,0,6683,6642,15.09,4.98,38,37,0,0
251995,124809586,0,6637,6571,15.06,4.92,38,37,0,0
252440,124920174,0,6557,6471,15.08,5.05,38,37,0,0
252844,125018910,0,6477,6600,15.05,4.85,38,37,0,0
253292,125131760,0,6590,6471,15.08,4.77,38,37,0,0
253744,125241033,0,6472,6500,15.12,4.73,38,37,0,0
254222,125352385,0,6489,6357,15.17,4.16,38,38,0,0
254676,125459914,0,6359,6414,15.19,4.3,38,38,0,0
255568,125680875,0,6411,6342,15.19,4.74,38,38,0,0
256016,125791877,0,6340,6328,15.16,4.53,38,38,0,0
256463,125900537,0,6338,6471,15.2,4.64,38,38,0,0
256905,126007944,0,6466,6400,15.19,4.22,38,38,0,0
257356,126117919,0,6395,6285,15.16,4.48,38,38,0,0
257802,126228118,0,6286,6300,15.23,4.13,38,39,0,0
258252,126340851,0,6286,6100,15.22,4.07,38,39,0,0
258701,126448512,0,6098,6057,15.19,3.69,38,39,0,0
259148,126562377,0,6072,6228,15.14,4.31,38,39,0,0
259594,126667982,0,6229,6242,15.14,4.39,38,39,0,0
260042,126777552,0,6245,6300,15.17,4.73,38,39,0,0
260901,126994576,0,6297,6257,15.14,4.46,38,39,0,0
261348,127099997,0,6246,6100,15.18,3.78,38,40,0,0
261791,127208801,0,6096,6028,15.13,3.63,38,40,0,0
262278,127330388,0,6014,5885,15.19,3.72,38,40,0,0
262685,127428531,0,5890,5957,15.2,3.69,38,40,0,0
263092,127533970,0,5952,5885,15.22,3.73,38,40,0,0
263540,127640823,0,5886,5971,15.17,3.98,38,40,0,0
264021,127756264,0,5974,6014,15.19,3.87,38,40,0,0
264473,127867149,0,6019,6057,15.15,4.09,38,40,0,0
264883,127970314,0,6056,6042,15.19,4.1,38,41,0,0
265330,128076539,0,6053,6157,15.15,3.82,38,41,0,0
265779,128191520,0,6153,6114,15.19,3.73,38,41,0,0
266233,128299476,0,6111,6057,15.19,3.78,38,41,0,0
266677,128413246,0,6045,5928,15.22,3.29,38,41,0,0
267154,128527034,0,5911,5771,15.16,3.57,38,41,0,0
267607,128641863,0,5779,5871,15.2,3.68,38,41,0,0
268009,128744850,0,5862,5785,15.25,3.3,38,41,0,0
268460,128854742,0,5782,5742,15.17,3.74,38,41,0,0
268906,128963591,0,5759,5928,15.2,3.88,38,42,0,0
269348,129072256,0,5938,6114,15.17,3.99,38,42,0,0
269798,129188875,0,6119,6185,15.19,4.31,38,42,0,0
270242,129296035,0,6185,6200,15.13,4.38,38,42,0,0
270687,129406945,0,6204,6271,15.15,4.53,38,42,0,0
271125,129512800,0,6266,6100,15.08,4.41,38,42,0,0
271573,129621243,0,6112,6285,15.17,4.46,38,42,0,0
272425,129835266,0,6290,6500,15.11,4.89,38,43,0,0
272832,129940275,0,6502,6557,15.17,5.21,38,43,0,0
273319,130055492,0,6559,6600,15.14,5.34,38,43,0,0
273768,130168859,0,6584,6442,15.09,4.64,38,43,0,0
274172,130267276,0,6443,6542,15.1,4.64,38,43,0,0
274657,130382788,0,6519,6314,15.08,4.44,38,43,0,0
275108,130493488,0,6308,6257,15.14,4.08,38,43,0,0
275514,130597217,0,6249,6142,15.11,4.17,38,44,0,0
275964,130705566,0,6138,6100,15.14,4.16,38,44,0,0
276371,130811506,0,6099,6085,15.07,3.95,38,44,0,0
276810,130918830,0,6089,6300,15.04,4.35,38,44,0,0
277257,131026035,0,6297,6257,15.04,4.47,38,44,0,0
277712,131143373,0,6273,6442,15.01,4.5,38,44,0,0
278121,131243524,0,6437,6342,15.1,4.41,38,44,0,0
278597,131354599,0,6347,6414,15.16,4.37,38,45,0,0
279041,131459231,0,6403,6185,15.1,4.46,38,45,0,0
279494,131574795,0,6198,6328,15.1,4.28,38,45,0,0
279896,131673136,0,6323,6085,15.16,3.9,38,45,0,0
280336,131779772,0,6079,5971,15.11,3.67,38,45,0,0
280786,131889361,0,5968,5914,15.2,3.81,38,45,0,0
281237,132003357,0,5914,5914,15.17,3.71,38,45,0,0
281637,132106766,0,5917,6085,15.14,3.92,38,45,0,0
282491,132320913,0,6086,6185,15.11,4.24,38,46,0,0
282948,132432567,0,6183,6114,15.09,4.41,38,46,0,0
283392,132544587,0,6115,6142,15.11,4.25,38,46,0,0
283842,132652912,0,6149,6257,15.08,4.64,38,46,0,0
284238,132753873,0,6257,6257,15.11,4.42,38,46,0,0
284734,132873348,0,6251,6200,15.18,4.15,38,46,0,0
285177,132981003,0,6193,6128,15.18,4.25,38,46,0,0
285582,133081353,0,6127,6071,15.14,3.77,38,46,0,0
286028,133192074,0,6064,5885,15.25,3.97,38,47,0,0
286473,133298823,0,5885,5900,15.16,3.99,38,47,0,0
286922,133410899,0,5906,6071,15.2,3.92,38,47,0,0
287369,133525474,0,6071,6071,15.1,4.28,38,47,0,0
287816,133631580,0,6083,6214,15.07,4.88,38,47,0,0
288656,133839568,0,6214,6242,15.16,4.3,38,47,0,0
289107,133951225,0,6235,5928,15.14,3.57,38,48,0,0
289560,134061860,0,5930,6000,15.21,3.77,38,48,0,0
290006,134173148,0,5996,5942,15.13,4.13,38,48,0,0
290454,134280437,0,5942,5971,15.13,4.22,38,48,0,0
290899,134390941,0,5980,6114,15.17,4.38,38,48,0,0
291348,134501363,0,6125,6242,15.14,4.11,38,48,0,0
291790,134609847,0,6223,6042,15.16,3.42,38,48,0,0
292232,134717656,0,5983,5514,15.22,2.66,38,48,0,0
292639,134819589,0,5512,5428,15.2,2.66,38,48,0,0
293124,134938353,0,5423,5371,15.19,3.2,38,49,0,0
293527,135037491,0,5385,5685,15.17,3.95,38,49,0,0
293974,135148029,0,5696,5957,15.18,4.47,38,49,0,0
294425,135258983,0,5977,6271,15.11,5.17,38,49,0,0
294872,135370792,0,6303,6714,15.11,5.29,38,49,0,0
295276,135469823,0,6714,6714,15.19,5.46,38,49,0,0
295767,135593867,0,6725,6814,15.1,5.57,38,49,0,0
296171,135690000,0,6812,6742,15.19,5.09,38,49,0,0
296613,135797324,0,6738,6585,15.1,5.77,38,50,0,0
297106,135916558,0,6596,6714,15.02,5.17,38,50,0,0
297547,136035260,0,6724,6785,14.99,6.04,38,50,0,0
298439,136248152,0,6794,6971,15.15,5.63,38,50,0,0
298884,136359764,0,6957,6842,15.14,4.61,38,51,0,0
299292,136457560,0,6827,6628,15.1,4.92,38,51,0,0
299742,136574175,0,6634,6685,15.01,5.64,38,51,0,0
300192,136679228,0,6697,6814,15.03,5.98,38,51,0,0
300630,136784031,0,6822,7014,14.99,5.99,38,51,0,0
301073,136898611,0,7017,7057,15.03,6.05,38,51,0,0
301975,137119710,0,7064,7171,14.97,6.16,38,52,0,0
302376,137223359,0,7157,7000,14.97,6.64,38,52,0,0
302858,137336605,0,7014,7200,14.97,6.09,38,52,0,0
303267,137435846,0,7173,6971,15.01,5.71,38,52,0,0
303714,137545906,0,6971,6971,14.93,6.56,38,52,0,0
304164,137655017,0,6982,7085,15.01,5.97,38,53,0,0
304567,137758301,0,7082,6842,15.16,4.98,38,53,0,0
305015,137867637,0,6841,6771,15.13,4.96,38,53,0,0
305462,137985234,0,6747,6542,15,4.87,38,53,0,0
305911,138093779,0,6534,6471,15.04,4.55,38,53,0,0
306307,138190330,0,6472,6571,15.02,5.07,38,53,0,0
306799,138306335,0,6569,6557,15.07,5.02,38,53,0,0
307204,138409327,0,6555,6542,15.07,5.08,38,54,0,0
307654,138516774,0,6540,6442,15.07,5.06,38,54,0,0
308096,138628024,0,6450,6571,15.05,5.02,38,54,0,0
308543,138743014,0,6560,6471,15.01,5.02,38,54,0,0
308951,138839503,0,6474,6714,15.02,5.18,38,54,0,0
309429,138955928,0,6707,6642,14.98,5.65,38,54,0,0
309879,139065866,0,6645,6685,15.07,4.78,38,55,0,0
310249,139162072,0,6681,6442,15.04,4.97,38,55,0,0
310744,139279001,0,6453,6642,15.05,4.87,38,55,0,0
311594,139489856,0,6640,6457,15.16,4.52,38,55,0,0
312042,139604992,0,6426,6100,15.19,3.52,38,55,0,0
312485,139716604,0,6085,5957,15.07,4.09,38,56,0,0
312937,139826897,0,5965,6057,15.1,4.27,38,56,0,0
313336,139926111,0,6072,6385,15.06,4.85,38,56,0,0
313820,140040235,0,6394,6514,15.15,4.36,38,56,0,0
314228,140146345,0,6503,6400,15.16,4.34,38,56,0,0
314676,140254918,0,6413,6585,15.1,5.19,39,56,0,0
315083,140358953,0,6577,6414,15.16,4.91,39,56,0,0
315534,140468218,0,6414,6442,15.14,5.06,38,56,0,0
315980,140579652,0,6442,6457,15.05,4.39,38,57,0,0
316426,140686863,0,6456,6428,15.13,4.96,38,57,0,0
316876,140804114,0,6435,6514,15.07,5.11,39,57,0,0
317278,140901775,0,6509,6371,15.11,5,38,57,0,0
317722,141011915,0,6372,6414,15.07,4.82,38,57,0,0
318612,141231861,0,6415,6457,15.04,4.67,38,57,0,0
319015,141335007,0,6461,6542,15.14,4.74,38,58,0,0
319466,141441921,0,6538,6385,15.1,4.71,38,58,0,0
319875,141546894,0,6385,6428,15.03,4.94,39,58,0,0
320365,141665340,0,6436,6528,15.08,4.89,39,58,0,0
320812,141777220,0,6525,6500,15.02,5,39,58,0,0
321217,141874784,0,6503,6642,15.05,5.18,39,58,0,0
321661,141983305,0,6628,6457,15.09,4.85,38,58,0,0
322114,142094927,0,6465,6557,15.09,4.83,39,59,0,0
322554,142204335,0,6553,6471,15.07,4.66,38,59,0,0
323438,142420777,0,6468,6342,15.11,4.49,39,59,0,0
323888,142534314,0,6330,6228,15.13,4.33,39,59,0,0
324335,142640830,0,6228,6257,15.11,4.33,39,59,0,0
324780,142752050,0,6266,6428,15.13,4.63,39,59,0,0
325266,142863851,0,6410,6171,15.15,4.2,38,60,0,0
325711,142974753,0,6184,6314,15.11,4.85,39,60,0,0
326115,143076762,0,6316,6371,15.14,4.67,39,60,0,0
326555,143184577,0,6369,6300,15.13,4.49,38,60,0,0
327487,143409319,0,6300,6328,15.12,4.54,39,60,0,0
327941,143520824,0,6324,6242,15.11,4.61,39,60,0,0
328389,143633875,0,6255,6385,15.13,4.4,39,61,0,0
328835,143745572,0,6391,6485,15.08,4.86,39,61,0,0
329242,143846877,0,6487,6514,15.14,4.37,39,61,0,0
329690,143960768,0,6480,6228,15.1,4.4,39,61,0,0
330099,144062273,0,6232,6528,15.09,4.86,39,61,0,0
330540,144171798,0,6525,6385,15.07,4.7,39,61,0,0
331028,144288285,0,6385,6400,15.1,4.75,39,61,0,0
331470,144397378,0,6396,6342,15.12,4.52,39,62,0,0
331920,144508867,0,6342,6400,15.12,4.76,39,62,0,0
332365,144616224,0,6395,6357,15.1,4.72,39,62,0,0
332846,144731310,0,6367,6485,15.14,4.73,39,62,0,0
333253,144831033,0,6475,6342,15.13,4.73,39,62,0,0
333697,144941496,0,6344,6414,15.07,4.63,39,62,0,0
334181,145054251,0,6418,6485,15.04,4.8,39,62,0,0
334584,145155961,0,6473,6257,15.13,4.52,39,63,0,0
335075,145279326,0,6273,6371,15.1,4.53,39,63,0,0
335481,145379487,0,6371,6385,15.11,4.76,39,63,0,0
335926,145486545,0,6387,6414,15.16,4.36,39,63,0,0
336411,145605596,0,6395,6214,15.14,4.58,39,63,0,0
336815,145706800,0,6215,6300,15.19,4.37,39,63,0,0
337297,145822032,0,6282,6071,15.19,3.9,39,63,0,0
338197,146043298,0,6070,6057,15.12,4.2,39,64,0,0
338598,146144762,0,6059,6228,15.16,4.5,39,64,0,0
339045,146253234,0,6227,6200,15.15,4.2,39,64,0,0
339935,146468851,0,6202,6257,15.1,4.74,39,64,0,0
340340,146568824,0,6257,6257,15.15,4.36,39,64,0,0
340783,146677900,0,6256,6214,15.11,4.29,39,64,0,0
341267,146798034,0,6216,6257,15.1,4.48,39,64,0,0
341675,146896847,0,6256,6242,15.11,4.38,39,65,0,0
342123,147011907,0,6262,6414,15.16,4.48,39,65,0,0
342573,147120152,0,6406,6328,15.09,4.63,39,65,0,0
343458,147335994,0,6330,6400,15.08,5.08,39,65,0,0
343907,147448747,0,6414,6571,15.11,4.77,39,65,0,0
344345,147553444,0,6561,6442,15.1,4.57,39,66,0,0
344797,147666279,0,6451,6585,15.11,5.01,39,66,0,0
345198,147765339,0,6580,6414,15.09,4.9,39,66,0,0
345694,147882923,0,6427,6557,15.05,5.18,39,66,0,0
346098,147989922,0,6560,6628,15.04,5.23,39,66,0,0
346554,148102351,0,6625,6600,15.11,5.19,39,66,0,0
347441,148321760,0,6605,6714,15.1,5.67,39,67,0,0
347840,148418866,0,6720,6957,15.09,6.55,39,67,0,0
348290,148527623,0,6963,7214,15.06,6.21,39,67,0,0
348741,148640825,0,7195,6714,15.11,5.23,39,67,0,0
349220,148754509,0,6710,6657,15.13,4.32,39,67,0,0
349668,148863544,0,6647,6500,15.08,4.89,39,67,0,0
350114,148975149,0,6494,6442,15.11,4.6,39,68,0,0
350561,149082803,0,6433,6357,15.12,4.46,39,68,0,0
350961,149182543,0,6355,6285,15.12,4.36,39,68,0,0
351453,149303472,0,6288,6328,15.11,4.54,39,68,0,0
351899,149416809,0,6329,6342,15.05,4.51,39,68,0,0
352346,149525991,0,6346,6400,15.14,4.67,39,68,0,0
352796,149637150,0,6393,6328,15.14,4.49,39,68,0,0
353236,149744004,0,6334,6414,15.14,4.62,39,69,0,0
353648,149848135,0,6415,6485,15.1,4.53,39,69,0,0
354060,149953553,0,6474,6342,15.12,4.29,39,69,0,0
354553,150069825,0,6344,6371,15.09,4.61,39,69,0,0
354995,150175972,0,6358,6228,15.11,4.38,39,69,0,0
355443,150284710,0,6231,6285,15.11,4.39,39,69,0,0
355848,150388907,0,6284,6271,15.13,4.45,39,69,0,0
356295,150496117,0,6271,6271,15.16,4.69,39,70,0,0
356743,150609388,0,6293,6528,15.1,4.78,39,70,0,0
357193,150718543,0,6526,6500,15.1,4.69,39,70,0,0
357637,150827898,0,6491,6414,15.13,4.69,39,70,0,0
358072,150931000,0,6414,6428,15.13,4.54,39,70,0,0
358968,151150017,0,6431,6585,15.04,5.97,39,70,0,0
359457,151262548,0,6593,6671,15.03,5.59,39,71,0,0
359898,151368974,0,6670,6657,15.18,4.36,39,71,0,0
360351,151481535,0,6613,6171,15.18,3.81,39,71,0,0
360761,151586959,0,6173,6228,15.04,4.21,39,71,0,0
361253,151707225,0,6219,6128,15.14,3.91,39,71,0,0
361651,151806980,0,6122,5885,15.11,3.55,39,71,0,0
362105,151920136,0,5896,6114,15.06,4.09,39,71,0,0
362548,152031445,0,6125,6285,15.09,4.26,39,71,0,0
362992,152143488,0,6277,6171,15.08,4.45,39,72,0,0
363437,152252082,0,6181,6328,15.05,4.39,39,72,0,0
363879,152360477,0,6323,6285,15.08,4.69,39,72,0,0
364326,152465739,0,6295,6500,15.1,4.75,39,72,0,0
364736,152570880,0,6500,6514,15.14,4.71,39,72,0,0
365186,152685372,0,6501,6357,15.19,4.61,39,72,0,0
365631,152795486,0,6333,6114,15.19,4.34,39,72,0,0
366078,152905798,0,6115,6128,15.1,4.33,39,73,0,0
366486,153009506,0,6132,6228,15.16,4.06,39,73,0,0
366971,153135965,0,6230,6257,15.14,4.07,39,73,0,0
367378,153229970,0,6247,6028,15.17,3.35,39,73,0,0
368262,153449869,0,6030,6342,15.05,4.57,39,73,0,0
368753,153572040,0,6339,6314,15.07,4.46,39,73,0,0
369192,153669764,0,6320,6428,15.06,4.73,39,73,0,0
369595,153773313,0,6428,6428,15.1,4.59,39,73,0,0
370084,153890152,0,6433,6514,15.03,4.8,39,74,0,0
370493,153996777,0,6520,6600,15.11,5.14,39,74,0,0
370981,154114846,0,6613,6728,15.08,4.91,39,74,0,0
371379,154215119,0,6714,6542,15.03,5.2,39,74,0,0
371826,154329029,0,6537,6500,15.07,4.92,39,74,0,0
372274,154433933,0,6498,6485,14.99,5.18,39,74,0,0
372724,154546125,0,6491,6557,15.04,5.09,39,75,0,0
373606,154759462,0,6558,6700,15.01,5.37,39,75,0,0
374057,154873234,0,6700,6700,15.07,5.29,39,75,0,0
374506,154983752,0,6707,6900,15.01,5.07,39,75,0,0
374951,155090046,0,6896,6685,15.02,4.89,39,75,0,0
375399,155201581,0,6691,6857,14.95,5.42,39,76,0,0
375885,155315592,0,6860,6900,14.99,4.83,39,76,0,0
376744,155533986,0,6893,6714,14.95,5.15,39,76,0,0
377194,155643457,0,6725,6828,15.04,5.22,39,76,0,0
377591,155740917,0,6822,6600,14.98,4.78,39,76,0,0
378045,155856953,0,6598,6571,15.01,5.55,39,76,0,0
378491,155968595,0,6591,6800,15.07,5.15,39,77,0,0
378895,156067338,0,6796,6657,15.07,5.1,39,77,0,0
379338,156175218,0,6654,6557,15.04,5.08,39,77,0,0
379786,156283117,0,6561,6657,15.08,4.92,39,77,0,0
380275,156402838,0,6655,6628,15.09,4.91,39,77,0,0
380726,156515021,0,6629,6642,15.1,4.81,39,77,0,0
381568,156725715,0,6627,6342,15.1,4.46,39,78,0,0
382014,156833227,0,6339,6314,15.19,3.95,39,78,0,0
382448,156931238,0,6309,6100,14.92,4.6,39,78,0,0
382899,157042266,0,6097,6042,15.15,4.19,39,78,0,0
383341,157150829,0,6042,6042,15.14,3.49,39,78,0,0
383802,157267695,0,6033,5942,15.17,3.61,39,78,0,0
384212,157374117,0,5945,5985,15.07,3.98,39,78,0,0
385108,157593894,0,5996,6242,15.11,4.1,39,79,0,0
385548,157695265,0,6243,6300,15.13,3.86,39,79,0,0
385997,157810423,0,6293,6228,15.07,4.58,39,79,0,0
386403,157909141,0,6231,6442,15.04,4.54,39,79,0,0
386892,158030332,0,6443,6457,15.04,4.59,39,79,0,0
387288,158128581,0,6461,6542,15.09,4.8,39,79,0,0
387744,158241267,0,6549,6628,15.11,4.27,39,79,0,0
388145,158343984,0,6616,6442,15.05,4.24,39,80,0,0
388598,158454284,0,6442,6442,15.05,4.68,39,80,0,0
389490,158673319,0,6446,6585,15.1,4.52,39,80,0,0
389935,158782947,0,6575,6442,15,4.94,39,80,0,0
390380,158888240,0,6445,6642,15.06,4.93,39,80,0,0
390871,159007011,0,6642,6642,15.03,4.82,39,80,0,0
391318,159114596,0,6643,6657,14.99,4.92,39,81,0,0
391759,159224259,0,6674,6857,14.98,5.41,39,81,0,0
392197,159332346,0,6840,6642,15,4.77,39,81,0,0
392649,159440376,0,6663,6871,14.94,5.66,40,81,0,0
393096,159551740,0,6849,6614,15.04,5.21,39,81,0,0
393538,159658882,0,6614,6614,15.05,4.75,39,81,0,0
393979,159770139,0,6637,6814,15.04,5.12,39,81,0,0
394391,159866855,0,6812,6700,15.11,4.93,39,82,0,0
394880,159988776,0,6684,6542,15.14,4.08,39,82,0,0
395731,160206030,0,6537,6428,15.1,4.2,40,82,0,0
396228,160324437,0,6413,6257,15.04,4.56,39,82,0,0
396632,160425340,0,6251,6200,15.13,4.15,39,82,0,0
397078,160530290,0,6208,6371,15.22,4.29,39,82,0,0
397486,160634869,0,6358,6100,15.11,3.36,39,83,0,0
397930,160744844,0,6097,6028,15.23,3.18,39,83,0,0
398419,160863829,0,6005,5757,15.24,3.26,39,83,0,0
398786,160960380,0,5763,5857,15.09,4.24,39,83,0,0
399276,161077983,0,5851,5785,15.28,2.9,39,83,0,0
400131,161290445,0,5793,6057,15.26,3.49,39,83,0,0
400534,161393531,0,6053,5900,15.16,3.05,39,83,0,0
400982,161499569,0,5899,5857,15.17,3.94,39,83,0,0
401460,161612069,0,5854,5785,15.19,3.58,39,84,0,0
401951,161737366,0,5785,5785,15.23,3.75,39,84,0,0
402352,161834109,0,5788,5828,15.27,3,39,84,0,0
402791,161937910,0,5829,5857,15.22,3.24,39,84,0,0
403239,162046371,0,5845,5700,15.24,3.83,39,84,0,0
403685,162157804,0,5717,5957,15.03,3.79,39,84,0,0
404130,162263377,0,5963,6100,15.17,3.83,39,84,0,0
404537,162368348,0,6100,6114,15.11,3.85,39,84,0,0
405029,162485837,0,6121,6200,15.08,4.2,39,84,0,0
405429,162585778,0,6200,6214,15.08,4.24,39,85,0,0
406322,162804962,0,6220,6414,15.1,4.16,39,85,0,0
406773,162914009,0,6415,6442,15.08,4.18,39,85,0,0
407177,163015932,0,6436,6185,15.16,3.65,39,85,0,0
408110,163245033,0,6187,6271,15.17,4.11,39,85,0,0
408508,163347496,0,6274,6442,15.18,4.06,39,85,0,0
409001,163466472,0,6412,6114,15.1,4.36,39,85,0,0
409884,163681499,0,6123,6385,15.16,4.53,39,86,0,0
410289,163786999,0,6380,6185,15.07,4.54,39,86,0,0
410740,163897479,0,6185,6200,15.05,4.12,39,86,0,0
411189,164008071,0,6221,6500,15,4.44,39,86,0,0
411634,164120373,0,6503,6528,14.94,4.95,39,86,0,0
412037,164223659,0,6531,6571,14.98,5.31,39,86,0,0
412484,164333960,0,6572,6671,14.92,5.14,39,87,0,0
412942,164446363,0,6675,6714,14.98,5.22,39,87,0,0
413340,164547439,0,6697,6500,15.05,4.77,39,87,0,0
413751,164649891,0,6500,6500,15.07,4.59,39,87,0,0
414194,164760006,0,6490,6242,15.07,4.3,39,87,0,0
414644,164868852,0,6242,6257,15.05,4.42,39,87,0,0
415086,164977525,0,6247,6128,15.02,4.47,39,88,0,0
415540,165088764,0,6141,6314,15.02,4.61,39,88,0,0
415941,165192863,0,6314,6357,14.99,4.54,39,88,0,0
416434,165308356,0,6355,6328,15.01,4.97,39,88,0,0
416879,165416480,0,6332,6428,14.97,5.04,39,88,0,0
417328,165530590,0,6421,6357,14.98,5.08,39,88,0,0
417777,165641467,0,6390,6714,15.04,4.89,39,88,0,0
418182,165745750,0,6702,6414,15.04,4.69,39,88,0,0
418629,165852986,0,6408,6128,15.08,4.08,39,89,0,0
419076,165963755,0,6130,6171,15.06,4.14,39,89,0,0
419528,166075998,0,6164,6071,15.03,4.47,39,89,0,0
419974,166187863,0,6088,6271,15.08,4.63,39,89,0,0
420424,166296503,0,6265,6185,15.07,4.06,39,89,0,0
420828,166401490,0,6181,6014,15.04,4.29,39,89,0,0
421314,166520771,0,6011,5957,15.07,3.86,39,89,0,0
421762,166630377,0,5948,5871,15.04,3.95,39,89,0,0
422163,166730512,0,5879,6028,15.06,3.89,39,90,0,0
422613,166838604,0,6029,6057,15.07,4.1,39,90,0,0
423060,166953829,0,6060,6100,15.04,4.23,39,90,0,0
423509,167063342,0,6098,6085,15.08,3.85,39,90,0,0
423954,167173831,0,6087,6142,15.04,4.1,39,90,0,0
424437,167290965,0,6150,6214,15.09,4.37,39,90,0,0
424844,167393453,0,6223,6300,15.07,4.44,39,90,0,0
425254,167492219,0,6296,6228,15.02,4.74,39,91,0,0
425700,167608507,0,6253,6500,14.96,5.06,39,91,0,0
426144,167715006,0,6486,6342,15,4.65,39,91,0,0
426593,167832249,0,6357,6471,15,4.89,39,91,0,0
427001,167924931,0,6467,6400,15.01,4.48,39,91,0,0
427881,168147953,0,6394,6285,15.06,4.24,39,91,0,0
428334,168259152,0,6285,6285,15.01,4.24,39,91,0,0
428742,168362878,0,6286,6300,15.01,4.46,39,92,0,0
429189,168469362,0,6294,6242,15.02,4.49,39,92,0,0
429634,168586879,0,6250,6328,15.05,4.67,39,92,0,0
430083,168691366,0,6326,6314,15.01,4.47,39,92,0,0
430526,168802906,0,6309,6271,15.02,4.63,39,92,0,0
430977,168912222,0,6279,6357,15.06,4.7,39,92,0,0
431424,169022923,0,6364,6442,15.07,4.63,39,92,0,0
431868,169137439,0,6438,6414,15.05,4.8,39,93,0,0
432275,169230977,0,6412,6385,15.06,4.57,39,93,0,0
432680,169334013,0,6384,6371,15.02,4.14,39,93,0,0
433166,169454107,0,6367,6342,14.98,4.45,39,93,0,0
433613,169563749,0,6360,6557,14.86,4.92,39,93,0,0
434063,169671452,0,6569,6685,14.9,5.38,39,93,0,0
435394,169998563,0,6680,6542,14.95,5,39,94,0,0
435799,170095479,0,6544,6714,14.94,5.09,39,94,0,0
436245,170209019,0,6712,6614,14.9,5.12,39,94,0,0
436699,170317910,0,6617,6685,14.94,4.86,39,94,0,0
437142,170426340,0,6675,6571,14.92,5.15,39,94,0,0
437587,170534892,0,6571,6642,14.92,5.26,39,94,0,0
438036,170643919,0,6652,6742,14.92,4.9,39,95,0,0
438442,170748338,0,6735,6571,14.98,4.85,39,95,0,0
438888,170854551,0,6571,6600,14.95,4.88,39,95,0,0
439338,170971261,0,6596,6557,14.97,4.56,39,95,0,0
439781,171075247,0,6548,6385,14.99,4.57,39,95,0,0
440270,171197131,0,6382,6357,14.98,4.43,39,95,0,0
440675,171294873,0,6354,6314,14.96,4.59,39,96,0,0
441568,171518797,0,6306,6185,15.01,4.04,39,96,0,0
442015,171628000,0,6191,6257,15.01,4.44,39,96,0,0
442449,171730251,0,6264,6400,15.02,4.79,39,96,0,0
442901,171841006,0,6393,6300,15.04,4.4,39,96,0,0
443351,171955986,0,6308,6385,15.1,4.33,39,96,0,0
443795,172063555,0,6374,6271,15.01,4.26,39,96,0,0
444239,172174522,0,6281,6385,15,4.42,39,97,0,0
444688,172285708,0,6382,6357,15.04,4.66,39,97,0,0
445130,172394886,0,6358,6371,15.07,4.89,39,97,0,0
445534,172495769,0,6370,6357,14.99,4.87,39,97,0,0
445978,172607189,0,6358,6385,15.01,4.61,39,97,0,0
446423,172716023,0,6399,6557,15.01,4.84,39,97,0,0
446870,172822031,0,6558,6642,14.98,4.83,39,97,0,0
447320,172934111,0,6638,6557,14.97,5.03,39,98,0,0
447725,173037041,0,6556,6485,15.04,4.8,39,98,0,0
448172,173151836,0,6486,6514,15.02,4.8,39,98,0,0
448662,173266266,0,6530,6685,14.98,5.02,39,98,0,0
449105,173374787,0,6679,6600,14.98,5,39,98,0,0
449513,173476788,0,6604,6700,15.07,4.68,39,98,0,0
449953,173585468,0,6683,6357,15.03,4.61,39,99,0,0
450403,173696511,0,6355,6328,15.07,4.66,39,99,0,0
451297,173919003,0,6329,6600,14.95,5.33,39,99,0,0
451745,174029530,0,6600,6600,15.04,5,39,99,0,0
452194,174143876,0,6604,6671,15,5.18,39,99,0,0
452643,174253531,0,6659,6557,14.99,5.24,40,99,0,0
453051,174356720,0,6568,6714,15.01,5.12,39,99,0,0
453501,174468499,0,6713,6700,15.02,4.98,39,100,0,0
453951,174582100,0,6687,6557,15.02,5.24,39,100,0,0
454388,174684748,0,6555,6528,15.02,4.84,39,100,0,0
454845,174800741,0,6538,6671,15.01,5.02,39,100,0,0
455295,174911129,0,6668,6642,15.07,4.56,39,100,0,0
455736,175019492,0,6621,6357,15.08,4.79,39,100,0,0
456141,175126344,0,6355,6342,15.07,4.42,39,101,0,0
456593,175239773,0,6334,6257,15.15,4.57,39,101,0,0
456996,175339834,0,6256,6228,15.02,4.41,39,101,0,0
457441,175445919,0,6228,6285,15.11,4.17,39,101,0,0
457923,175563569,0,6277,6200,15.01,4.48,39,101,0,0
458372,175671862,0,6204,6257,15.07,4.35,39,101,0,0
458787,175778033,0,6255,6242,15.06,4.16,39,101,0,0
459192,175876120,0,6240,6200,15.05,4.5,39,102,0,0
459647,175992232,0,6209,6342,15.02,4.58,39,102,0,0
460089,176094336,0,6349,6500,15.04,4.94,39,102,0,0
460576,176211134,0,6500,6500,15.07,5.08,39,102,0,0
461018,176320528,0,6497,6442,15.08,4.56,39,102,0,0
461463,176431579,0,6424,6271,15.02,4.48,39,102,0,0
462356,176651751,0,6274,6371,15.01,4.76,39,102,0,0
462799,176760945,0,6358,6200,15.05,4.56,39,103,0,0
463244,176871075,0,6216,6414,15.04,4.51,39,103,0,0
463659,176979950,0,6416,6442,15,4.92,39,103,0,0
464550,177195243,0,6447,6585,15,5.17,39,103,0,0
464962,177297129,0,6577,6442,14.99,4.99,39,103,0,0
465408,177408539,0,6455,6571,15.01,5.36,39,104,0,0
465853,177518538,0,6580,6642,14.94,5.3,39,104,0,0
466297,177624339,0,6644,6671,15,5.07,39,104,0,0
466738,177734136,0,6673,6700,15.03,4.89,40,104,0,0
467192,177845151,0,6687,6514,15.02,5.24,40,104,0,0
468049,178058482,0,6516,6600,15.03,4.92,39,104,0,0
468451,178160274,0,6597,6514,15.06,4.72,40,105,0,0
469345,178380871,0,6515,6557,15.11,4.36,39,105,0,0
469795,178490269,0,6545,6428,15,4.45,39,105,0,0
470233,178596044,0,6422,6342,15.12,4.38,39,105,0,0
470680,178703364,0,6340,6328,15.06,4.44,40,105,0,0
471127,178815000,0,6336,6428,15.12,4.49,40,105,0,0
471571,178926039,0,6430,6457,15.05,4.83,40,106,0,0
472905,179248452,0,6456,6314,15.09,4.67,39,106,0,0
473380,179360804,0,6312,6285,15.06,4.31,40,106,0,0
473790,179462817,0,6282,6171,15.1,3.99,39,106,0,0
474234,179575027,0,6177,6271,15.05,4.39,40,106,0,0
474682,179683866,0,6270,6257,15.07,4.17,40,106,0,0
475129,179793338,0,6262,6342,15.07,4.39,40,107,0,0
475576,179901867,0,6335,6271,15.09,4.08,39,107,0,0
476013,180006362,0,6264,6128,15.07,4.04,39,107,0,0
476425,180111264,0,6128,6128,15.13,4.29,39,107,0,0
476869,180221257,0,6129,6171,15.16,4.16,40,107,0,0
477769,180447486,0,6167,6100,15.11,3.73,39,107,0,0
478172,180550603,0,6102,6142,15.11,3.94,40,107,0,0
478619,180660803,0,6128,5928,15.16,2.9,40,108,0,0
479073,180775174,0,5910,5742,15.16,2.92,39,108,0,0
479519,180881585,0,5752,6000,15.07,3.96,40,108,0,0
479951,180985350,0,6008,6185,15.05,3.9,40,108,0,0
480447,181105491,0,6188,6228,15.08,4.28,39,108,0,0
480858,181210119,0,6239,6357,15.03,4.8,39,108,0,0
481272,181311541,0,6359,6514,15.04,4.92,39,108,0,0
481673,181413768,0,6516,6614,15.04,4.98,39,108,0,0
482569,181631777,0,6615,6671,15.05,5.18,40,109,0,0
483015,181743520,0,6669,6657,15.07,4.57,39,109,0,0
483463,181852936,0,6658,6685,14.94,5.31,40,109,0,0
483907,181960866,0,6676,6514,14.99,5.31,39,109,0,0
484354,182067438,0,6524,6657,15.05,5.18,39,109,0,0
484755,182167033,0,6656,6628,15,4.96,39,109,0,0
485251,182288022,0,6623,6571,15.04,5.05,39,110,0,0
485650,182385604,0,6569,6542,15.05,4.97,40,110,0,0
486101,182495497,0,6548,6642,15.02,5.1,39,110,0,0
486994,182715758,0,6639,6557,15.01,4.85,40,110,0,0
487441,182827952,0,6553,6457,15.02,4.79,40,110,0,0
487919,182940446,0,6453,6414,15.06,4.46,39,110,0,0
488371,183051555,0,6414,6414,15.07,4.24,39,111,0,0
488772,183153348,0,6414,6414,15.07,4.46,39,111,0,0
489225,183265866,0,6403,6300,15.05,4.21,40,111,0,0
489669,183377033,0,6324,6571,15.03,4.72,40,111,0,0
490120,183486784,0,6546,6285,15.04,4.53,39,111,0,0
490558,183592787,0,6291,6371,15.05,4.23,39,111,0,0
491010,183707134,0,6366,6328,15.06,4.47,39,111,0,0
491456,183813972,0,6318,6214,15.06,4.48,40,112,0,0
491850,183911305,0,6214,6242,14.99,4.53,40,112,0,0
492296,184019972,0,6247,6342,15.02,4.68,39,112,0,0
492743,184131894,0,6344,6485,15.04,4.84,40,112,0,0
493197,184243815,0,6477,6371,15.1,4.19,40,112,0,0
493597,184345107,0,6368,6328,15.02,4.76,40,112,0,0
494086,184460019,0,6336,6457,15,4.88,39,112,0,0
494491,184559966,0,6456,6428,15.01,4.55,40,113,0,0
494983,184677240,0,6434,6528,15.02,4.97,39,113,0,0
495431,184788222,0,6525,6500,15.02,4.68,40,113,0,0
495878,184899026,0,6497,6471,15.04,5.23,40,113,0,0
496283,184998566,0,6474,6614,15.06,5.09,39,113,0,0
496778,185124041,0,6602,6528,15.02,5.3,40,113,0,0
497185,185226766,0,6528,6528,15.09,4.89,39,113,0,0
497630,185332564,0,6521,6457,14.89,4.84,40,114,0,0
498071,185442393,0,6458,6471,15.06,4.96,40,114,0,0
498927,185651853,0,6465,6328,15.02,4.67,39,114,0,0
499411,185770011,0,6326,6314,15.06,4.43,39,114,0,0
499856,185880135,0,6312,6300,15.09,4.32,40,114,0,0
500302,185992880,0,6303,6342,15.07,4.38,40,114,0,0
500708,186085047,0,6341,6300,15,4.75,40,115,0,0
501151,186191767,0,6313,6585,14.96,4.93,40,115,0,0
501602,186303838,0,6581,6485,15.08,4.63,39,115,0,0
502043,186415565,0,6485,6485,15.07,4.37,40,115,0,0
502489,186521798,0,6480,6357,15.01,4.61,40,115,0,0
503381,186741780,0,6357,6357,14.92,4.96,40,115,0,0
503827,186851889,0,6368,6542,15.01,4.96,40,116,0,0
504277,186965389,0,6539,6514,15.04,4.7,40,116,0,0
504728,187071573,0,6506,6400,15.02,4.64,40,116,0,0
505177,187182033,0,6394,6314,15,4.69,40,116,0,0
505622,187287904,0,6316,6371,15.06,4.52,40,116,0,0
506064,187399143,0,6372,6400,14.98,4.62,40,116,0,0
506953,187613125,0,6393,6214,15.04,4.35,40,117,0,0
507403,187727853,0,6221,6271,15.02,4.29,40,117,0,0
507804,187822912,0,6268,6214,14.98,4.54,39,117,0,0
508249,187933267,0,6214,6257,15.04,4.18,40,117,0,0
508697,188042292,0,6255,6142,15.06,3.98,40,117,0,0
509583,188255006,0,6143,6257,15.13,4.2,40,117,0,0
510063,188366979,0,6254,6200,15.05,4.42,40,117,0,0
510514,188477691,0,6200,6214,15.04,4.4,40,118,0,0
510959,188588907,0,6220,6300,15.01,4.5,40,118,0,0
511446,188702017,0,6316,6485,15.01,4.62,39,118,0,0
511847,188802248,0,6484,6442,15.04,4.31,39,118,0,0
512296,188911255,0,6442,6485,15.04,4.15,39,118,0,0
512784,189029838,0,6479,6428,15.02,4.6,39,118,0,0
513183,189130374,0,6420,6285,15.02,4.2,40,118,0,0
513636,189241812,0,6243,5828,15.38,2.06,39,118,0,0
514077,189348873,0,5814,5628,15.18,2.55,39,119,0,0
514533,189460926,0,5614,5485,15.18,2.93,40,119,0,0
514933,189562073,0,5483,5385,15.31,2.31,39,119,0,0
515428,189678367,0,5373,5257,15.33,2.11,39,119,0,0
515824,189776932,0,5249,4828,15.45,1.32,40,119,0,0
516321,189892938,0,4762,3914,15.52,0.23,39,119,0,0
516765,190000224,0,3816,2914,15.5,0.19,40,119,0,0
517213,190109029,0,2901,2785,15.5,0.46,40,119,0,0
517609,190207916,0,2785,2785,15.5,0.45,40,119,0,0
518515,190435784,0,2788,2871,15.5,0.41,39,119,0,0
518916,190537246,0,2867,2814,15.5,0.49,39,119,0,0
519362,190643979,0,2814,2842,15.48,0.47,39,119,0,0
519813,190759956,0,2842,2842,15.5,0.46,39,119,0,0
520254,190863045,0,2839,2800,15.51,0.48,39,119,0,0
520704,190976308,0,2806,2871,15.51,0.5,39,119,0,0
521186,191088047,0,2868,2828,15.51,0.42,39,119,0,0
521557,191182813,0,2827,2785,15.5,0.47,39,119,0,0
522049,191298377,0,2785,2785,15.5,0.48,39,119,0,0
522490,191406005,0,2786,2814,15.52,0.46,39,119,0,0
522901,191506571,0,2812,2785,15.5,0.47,39,119,0,0
523346,191616807,0,2787,2828,15.52,0.46,39,119,0,0
523755,191715967,0,2817,2042,15.58,0.02,39,119,0,0
524246,191832831,0,1997,1514,15.57,0,39,119,0,0
524690,191940233,0,1501,1314,15.56,0.08,39,119,0,0
525179,192052857,0,1310,1271,15.57,0.09999999,39,119,0,0
525580,192151344,0,1271,1285,15.57,0.11,39,119,0,0
526070,192266142,0,1284,1271,15.57,0.11,39,119,0,0
526923,192475735,0,1271,1271,15.57,0.11,39,119,0,0
527376,192589274,0,1271,1271,15.58,0.11,39,119,0,0
527785,192689458,0,1271,1271,15.57,0.11,39,119,0,0
528267,192809281,0,1271,1271,15.57,0.11,39,119,0,0
528710,192921799,0,1271,1271,15.58,0.11,39,119,0,0
529195,193030792,0,1271,1271,15.58,0.11,39,119,0,0
529565,193123527,0,1271,1271,15.58,0.11,39,119,0,0
530053,193240008,0,1252,828,15.6,0.03,39,119,0,0
530482,193344911,0,809,328,15.6,0.02,39,119,0,0
530933,193449491,0,322,0,15.6,0.03,39,119,0,0
531922,193677296,0,0,0,15.6,0.04,38,119,0,0
532370,193783941,0,0,0,15.61,0.04,38,119,0,0
532823,193888824,0,0,0,15.61,0.05,38,119,0,0
533275,193999744,0,0,0,15.61,0.05,38,119,0,0
533730,194107142,0,0,0,15.61,0.05,38,119,0,0
534184,194218151,0,0,0,15.61,0.04,38,119,0,0
534596,194323414,0,0,0,15.61,0.04,38,119,0,0
535047,194426801,0,0,0,15.61,0.04,38,119,0,0
535495,194532605,0,0,0,15.61,0.04,38,119,0,0
535992,194647281,0,0,0,15.62,0.05,38,119,0,0
536440,194755258,0,0,0,15.62,0.05,38,119,0,0
536894,194862953,0,0,0,15.63,0.05,38,119,0,0
537346,194969977,0,0,0,15.63,0.05,38,119,0,0
537797,195073221,0,0,0,15.63,0.05,38,119,0,0
538257,195187330,0,0,0,15.63,0.05,38,119,0,0
538752,195301535,0,0,0,15.63,0.04,38,119,0,0
539207,195410920,0,0,0,15.63,0.04,38,119,0,0
539658,195520228,0,0,0,15.63,0.05,38,119,0,0
540112,195627247,0,0,0,15.63,0.04,38,119,0,0
540528,195731034,0,0,0,15.63,0.05,38,119,0,0
541023,195847042,0,0,0,15.64,0.05,38,119,0,0
541474,195956900,0,0,0,15.64,0.05,38,119,0,0
541925,196059529,0,0,0,15.63,0.04,38,119,0,0
542379,196169534,0,0,0,15.64,0.04,38,119,0,0
542916,196289007,0,0,0,15.64,0.05,38,119,0,0
543325,196390301,0,0,0,15.64,0.05,38,119,0,0
543820,196503849,0,0,0,15.64,0.05,38,119,0,0
544276,196615013,0,0,0,15.65,0.05,38,119,0,0
544733,196726269,0,0,0,15.64,0.05,38,119,0,0
545185,196829224,0,0,0,15.64,0.05,38,119,0,0
545595,196929316,0,0,0,15.64,0.05,38,119,0,0
545851,197042824,0,0,0,15.65,0.05,38,119,0,0
546219,197139733,0,0,0,15.65,0.05,38,119,0,0
546717,197255979,0,0,0,15.65,0.05,38,119,0,0
547162,197361552,0,0,0,15.64,0.05,38,119,0,0
547658,197475579,0,0,0,15.65,0.05,38,119,0,0
548106,197581923,0,0,0,15.65,0.05,38,119,0,0
548559,197685542,0,0,0,15.66,0.05,38,119,0,0
549013,197796344,0,0,0,15.66,0.05,38,119,0,0
549518,197921040,0,0,0,15.66,0.05,38,119,0,0
549926,198017634,0,0,0,15.66,0.05,38,119,0,0
550419,198131574,0,0,0,15.66,0.05,38,119,0,0
550870,198235769,0,0,0,15.66,0.05,38,119,0,0
551322,198343532,0,0,0,15.66,0.05,38,119,0,0
551817,198456580,0,0,0,15.66,0.05,38,119,0,0
552230,198560462,0,0,0,15.66,0.05,38,119,0,0
552683,198664469,0,0,0,15.66,0.04,38,119,0,0
553132,198771569,0,0,0,15.67,0.05,38,119,0,0
553628,198884791,0,0,0,15.67,0.05,38,119,0,0
554528,199095253,0,0,0,15.67,0.05,38,119,0,0
555019,199214133,0,0,0,15.67,0.05,38,119,0,0
555471,199322573,0,0,0,15.67,0.05,38,119,0,0
556870,199651329,0,0,0,15.67,0.05,38,119,0,0
557320,199760488,0,0,0,15.67,0.05,38,119,0,0
557773,199864487,0,0,0,15.67,0.05,38,119,0,0
558227,199975525,0,0,0,15.67,0.05,38,119,0,0
558678,200082308,0,0,0,15.67,0.05,38,119,0,0
