LineNo,TimeUS,Instance,RPM,RawRPM,Volt,Curr,Temp,CTot,MotTemp,Err
1676,6.4706e+07,3,0,0,16.13,0.04,28,0,0,0
2096,6.4814e+07,3,0,0,16.13,0.04,28,0,0,0
2516,6.4925e+07,3,0,0,16.13,0.04,28,0,0,0
2930,6.5029e+07,3,0,0,16.13,0.04,28,0,0,0
3338,6.5131e+07,3,0,0,16.13,0.04,28,0,0,0
3794,6.5246e+07,3,0,0,16.12,0.04,28,0,0,0
4216,6.5352e+07,3,0,0,16.13,0.04,28,0,0,0
4631,6.5456e+07,3,0,0,16.13,0.04,28,0,0,0
5080,6.5569e+07,3,0,0,16.13,0.04,28,0,0,0
5490,6.5672e+07,3,0,0,16.13,0.04,28,0,0,0
5908,6.5779e+07,3,0,0,16.13,0.04,28,0,0,0
6320,6.5881e+07,3,0,0,16.13,0.04,28,0,0,0
6740,6.5988e+07,3,0,0,16.13,0.04,28,0,0,0
7160,6.6093e+07,3,0,0,16.13,0.04,28,0,0,0
7649,6.6209e+07,3,0,0,16.13,0.04,28,0,0,0
8106,6.6312e+07,3,0,0,16.13,0.04,28,0,0,0
8599,6.6429e+07,3,0,0,16.13,0.04,28,0,0,0
9089,6.654e+07,3,0,0,16.13,0.04,28,0,0,0
9541,6.6642e+07,3,0,0,16.13,0.04,28,0,0,0
9997,6.6752e+07,3,0,0,16.13,0.04,28,0,0,0
10451,6.6857e+07,3,0,0,16.13,0.04,28,0,0,0
10906,6.6963e+07,3,0,0,16.12,0.04,28,0,0,0
11403,6.7076e+07,3,0,0,16.13,0.04,28,0,0,0
11852,6.7179e+07,3,0,0,16.13,0.04,28,0,0,0
12350,6.7292e+07,3,0,0,16.13,0.04,28,0,0,0
12805,6.7401e+07,3,0,0,16.13,0.04,28,0,0,0
13250,6.7505e+07,3,0,0,16.13,0.04,28,0,0,0
13705,6.7609e+07,3,0,0,16.13,0.04,28,0,0,0
14159,6.7719e+07,3,0,0,16.13,0.04,28,0,0,0
14611,6.7822e+07,3,0,0,16.13,0.04,28,0,0,0
15108,6.7939e+07,3,0,0,16.13,0.04,28,0,0,0
15564,6.8044e+07,3,0,0,16.13,0.04,28,0,0,0
16020,6.8153e+07,3,0,0,16.13,0.03,28,0,0,0
16479,6.8257e+07,3,17,257,16.11,0.06,28,0,0,0
16974,6.8371e+07,3,293,700,16.09,0.11,28,0,0,0
17432,6.8477e+07,3,735,1100,16.1,0.16,28,0,0,0
17886,6.8585e+07,3,1111,1228,16.11,0.12,28,0,0,0
18339,6.8689e+07,3,1232,1271,16.11,0.11,28,0,0,0
18791,6.8795e+07,3,1271,1285,16.11,0.11,28,0,0,0
19288,6.8913e+07,3,1286,1300,16.11,0.11,28,0,0,0
19740,6.9015e+07,3,1300,1300,16.11,0.11,28,0,0,0
20429,6.9224e+07,3,1300,1300,16.11,0.11,28,0,0,0
20880,6.9331e+07,3,1300,1314,16.11,0.11,28,0,0,0
21829,6.9548e+07,3,1314,1314,16.11,0.11,28,0,0,0
22326,6.9661e+07,3,1314,1314,16.11,0.11,29,0,0,0
22786,6.9773e+07,3,1312,1300,16.1,0.11,28,0,0,0
23242,6.9878e+07,3,1300,1314,16.11,0.11,28,0,0,0
23696,6.9983e+07,3,1314,1314,16.11,0.11,28,0,0,0
24147,7.0086e+07,3,1314,1314,16.11,0.11,29,0,0,0
24638,7.0197e+07,3,1314,1314,16.11,0.11,28,0,0,0
25133,7.031e+07,3,1312,1300,16.11,0.11,29,0,0,0
25590,7.0416e+07,3,1301,1314,16.1,0.11,29,0,0,0
26047,7.0523e+07,3,1313,1300,16.11,0.11,29,0,0,0
26545,7.0636e+07,3,1301,1314,16.11,0.11,29,0,0,0
27002,7.0744e+07,3,1314,1314,16.1,0.11,29,0,0,0
27459,7.085e+07,3,1314,1314,16.11,0.11,28,0,0,0
27909,7.0953e+07,3,1314,1314,16.11,0.11,29,0,0,0
28368,7.1063e+07,3,1312,1300,16.11,0.11,29,0,0,0
28816,7.1166e+07,3,1300,1314,16.11,0.11,28,0,0,0
29315,7.1278e+07,3,1314,1314,16.11,0.11,28,0,0,0
29769,7.1389e+07,3,1312,1300,16.11,0.11,29,0,0,0
30227,7.1494e+07,3,1301,1314,16.11,0.11,28,0,0,0
30677,7.1598e+07,3,1314,1314,16.11,0.11,29,0,0,0
31133,7.1705e+07,3,1313,1300,16.11,0.11,28,0,0,0
31630,7.1817e+07,3,1300,1314,16.11,0.11,29,0,0,0
32086,7.1926e+07,3,1312,1300,16.11,0.11,29,0,0,0
32539,7.2029e+07,3,1300,1314,16.11,0.11,28,0,0,0
33031,7.2144e+07,3,1314,1314,16.11,0.11,28,0,0,0
33489,7.225e+07,3,1314,1314,16.11,0.11,29,0,0,0
33941,7.2357e+07,3,1314,1314,16.1,0.11,28,0,0,0
34438,7.247e+07,3,1312,1300,16.11,0.11,29,0,0,0
34850,7.257e+07,3,1300,1314,16.11,0.11,29,0,0,0
35356,7.2685e+07,3,1314,1314,16.1,0.11,28,0,0,0
35767,7.2785e+07,3,1314,1314,16.11,0.11,28,0,0,0
36219,7.289e+07,3,1314,1314,16.11,0.11,29,0,0,0
36720,7.3006e+07,3,1312,1300,16.11,0.11,28,0,0,0
37175,7.3109e+07,3,1300,1314,16.11,0.11,29,0,0,0
37661,7.3217e+07,3,1314,1314,16.11,0.11,29,0,0,0
38154,7.3329e+07,3,1313,1300,16.11,0.11,28,0,0,0
38613,7.3438e+07,3,1300,1314,16.11,0.11,28,0,0,0
39070,7.3548e+07,3,1312,1300,16.11,0.11,28,0,0,0
39522,7.3651e+07,3,1300,1314,16.11,0.11,28,0,0,0
39979,7.3759e+07,3,1314,1314,16.11,0.11,28,0,0,0
40434,7.3861e+07,3,1314,1314,16.11,0.11,28,0,0,0
40928,7.3979e+07,3,1314,1314,16.11,0.11,28,0,0,0
41381,7.4082e+07,3,1314,1314,16.11,0.11,29,0,0,0
41836,7.4188e+07,3,1314,1314,16.11,0.11,28,0,0,0
42330,7.4301e+07,3,1314,1314,16.1,0.11,29,0,0,0
42787,7.4411e+07,3,1314,1314,16.11,0.11,28,0,0,0
43238,7.4515e+07,3,1312,1300,16.11,0.11,29,0,0,0
43738,7.4629e+07,3,1301,1314,16.1,0.11,28,0,0,0
44196,7.4737e+07,3,1312,1300,16.11,0.11,28,0,0,0
44647,7.4839e+07,3,1300,1300,16.1,0.11,28,0,0,0
45103,7.4948e+07,3,1301,1314,16.11,0.11,29,0,0,0
45561,7.5052e+07,3,1314,1314,16.11,0.11,28,0,0,0
46011,7.5156e+07,3,1313,1300,16.11,0.11,28,0,0,0
46512,7.5268e+07,3,1300,1300,16.11,0.11,28,0,0,0
46959,7.5373e+07,3,1300,1314,16.1,0.11,28,0,0,0
47416,7.5477e+07,3,1314,1314,16.11,0.11,28,0,0,0
47873,7.5585e+07,3,1314,1314,16.11,0.11,28,0,0,0
48374,7.5698e+07,3,1312,1300,16.11,0.11,28,0,0,0
48826,7.5806e+07,3,1300,1314,16.11,0.11,28,0,0,0
49281,7.5908e+07,3,1314,1314,16.11,0.11,29,0,0,0
49733,7.6017e+07,3,1313,1257,16.15,0.06,28,0,0,0
50669,7.6239e+07,3,1229,0,16.12,0.03,29,0,0,0
51161,7.6355e+07,3,0,0,16.13,0.04,28,0,0,0
51614,7.6459e+07,3,0,0,16.12,0.04,28,0,0,0
52028,7.6565e+07,3,0,0,16.12,0.04,28,0,0,0
52531,7.6683e+07,3,0,0,16.13,0.04,28,0,0,0
52984,7.679e+07,3,0,0,16.12,0.04,28,0,0,0
53440,7.6896e+07,3,0,0,16.13,0.04,28,0,0,0
53894,7.7005e+07,3,0,0,16.13,0.04,28,0,0,0
54345,7.7115e+07,3,0,0,16.12,0.04,28,0,0,0
54799,7.722e+07,3,0,0,16.12,0.04,28,0,0,0
55296,7.7335e+07,3,0,0,16.12,0.04,28,0,0,0
55743,7.744e+07,3,0,0,16.12,0.04,28,0,0,0
56202,7.7551e+07,3,0,0,16.12,0.03,28,0,0,0
56658,7.7656e+07,3,0,0,16.13,0.04,28,0,0,0
57068,7.7755e+07,3,0,0,16.13,0.04,28,0,0,0
57568,7.787e+07,3,0,0,16.13,0.04,28,0,0,0
58017,7.7977e+07,3,0,0,16.13,0.04,28,0,0,0
58473,7.8084e+07,3,0,0,16.13,0.04,28,0,0,0
58932,7.8195e+07,3,0,0,16.13,0.04,28,0,0,0
59383,7.83e+07,3,0,0,16.13,0.04,28,0,0,0
59834,7.8407e+07,3,0,0,16.13,0.04,28,0,0,0
60331,7.8526e+07,3,0,0,16.12,0.04,28,0,0,0
60789,7.8632e+07,3,0,0,16.12,0.04,28,0,0,0
61239,7.874e+07,3,0,0,16.13,0.04,28,0,0,0
61693,7.8844e+07,3,0,0,16.13,0.04,28,0,0,0
62146,7.8953e+07,3,0,0,16.12,0.04,28,0,0,0
62643,7.9067e+07,3,0,0,16.12,0.04,28,0,0,0
63100,7.9181e+07,3,0,0,16.13,0.04,28,0,0,0
64225,7.9501e+07,3,0,0,16.12,0.04,28,0,0,0
64680,7.9607e+07,3,0,0,16.12,0.04,28,0,0,0
65134,7.9718e+07,3,0,0,16.12,0.04,28,0,0,0
65592,7.9824e+07,3,0,0,16.13,0.04,28,0,0,0
66046,7.9931e+07,3,0,0,16.13,0.04,28,0,0,0
66546,8.005e+07,3,0,0,16.13,0.04,28,0,0,0
66999,8.0156e+07,3,0,0,16.13,0.04,28,0,0,0
67496,8.0272e+07,3,0,0,16.13,0.04,29,0,0,0
67949,8.0381e+07,3,0,0,16.12,0.04,29,0,0,0
68402,8.0484e+07,3,0,0,16.13,0.04,28,0,0,0
68900,8.06e+07,3,0,0,16.13,0.04,28,0,0,0
69353,8.0707e+07,3,0,0,16.13,0.04,28,0,0,0
69762,8.0807e+07,3,0,0,16.13,0.04,28,0,0,0
70253,8.0919e+07,3,0,0,16.13,0.04,28,0,0,0
70755,8.1037e+07,3,0,0,16.12,0.04,28,0,0,0
71169,8.1137e+07,3,0,0,16.13,0.04,29,0,0,0
71667,8.125e+07,3,0,0,16.11,0.04,28,0,0,0
72115,8.1357e+07,3,0,0,16.13,0.04,28,0,0,0
72611,8.1473e+07,3,0,0,16.13,0.04,28,0,0,0
73062,8.1582e+07,3,0,0,16.13,0.04,28,0,0,0
73517,8.1688e+07,3,0,0,16.12,0.04,28,0,0,0
73969,8.1796e+07,3,0,0,16.13,0.04,28,0,0,0
74466,8.191e+07,3,0,0,16.12,0.04,28,0,0,0
74959,8.2026e+07,3,0,0,16.12,0.04,28,0,0,0
75412,8.2135e+07,3,0,0,16.12,0.04,28,0,0,0
75910,8.2248e+07,3,0,0,16.13,0.04,28,0,0,0
76316,8.2347e+07,3,0,0,16.12,0.04,28,0,0,0
76781,8.2462e+07,3,0,0,16.13,0.04,28,0,0,0
77226,8.2566e+07,3,0,0,16.13,0.04,28,0,0,0
77725,8.2679e+07,3,0,0,16.12,0.04,28,0,0,0
78178,8.279e+07,3,0,0,16.13,0.04,28,0,0,0
78631,8.2894e+07,3,0,0,16.13,0.04,28,0,0,0
79128,8.3009e+07,3,0,0,16.12,0.05,28,0,0,0
79583,8.312e+07,3,0,0,16.13,0.04,28,0,0,0
80038,8.3226e+07,3,0,0,16.13,0.04,28,0,0,0
80493,8.3337e+07,3,0,0,16.12,0.04,28,0,0,0
80945,8.3443e+07,3,0,0,16.13,0.04,28,0,0,0
81399,8.355e+07,3,0,0,16.12,0.04,28,0,0,0
81857,8.3656e+07,3,0,0,16.13,0.04,28,0,0,0
82353,8.3774e+07,3,0,0,16.13,0.04,28,0,0,0
82805,8.3877e+07,3,0,0,16.12,0.04,28,0,0,0
83257,8.3983e+07,3,0,0,16.13,0.04,28,0,0,0
83757,8.4097e+07,3,0,0,16.12,0.04,28,0,0,0
84249,8.4213e+07,3,0,0,16.12,0.04,28,0,0,0
84700,8.4316e+07,3,0,0,16.13,0.04,28,0,0,0
85153,8.4423e+07,3,0,0,16.12,0.04,28,0,0,0
85610,8.4536e+07,3,0,0,16.13,0.04,28,0,0,0
86108,8.465e+07,3,0,0,16.13,0.04,28,0,0,0
86561,8.4759e+07,3,0,0,16.13,0.04,28,0,0,0
87014,8.4863e+07,3,0,0,16.13,0.04,28,0,0,0
87468,8.4971e+07,3,0,0,16.12,0.04,28,0,0,0
87925,8.5075e+07,3,0,0,16.13,0.03,28,0,0,0
88418,8.5192e+07,3,0,0,16.13,0.04,28,0,0,0
88907,8.5308e+07,3,0,0,16.13,0.04,28,0,0,0
89321,8.5404e+07,3,0,0,16.12,0.04,28,0,0,0
89768,8.5511e+07,3,0,0,16.12,0.04,28,0,0,0
90270,8.563e+07,3,0,0,16.13,0.03,28,0,0,0
90684,8.5732e+07,3,0,0,16.13,0.04,28,0,0,0
91181,8.5845e+07,3,0,0,16.13,0.04,28,0,0,0
91637,8.5954e+07,3,0,0,16.13,0.04,29,0,0,0
92094,8.606e+07,3,0,0,16.12,0.03,28,0,0,0
92588,8.6174e+07,3,0,0,16.12,0.03,28,0,0,0
93044,8.628e+07,3,0,0,16.13,0.03,28,0,0,0
93454,8.6381e+07,3,0,0,16.13,0.04,28,0,0,0
93951,8.6496e+07,3,0,0,16.13,0.04,28,0,0,0
94402,8.6603e+07,3,0,0,16.13,0.03,28,0,0,0
94853,8.671e+07,3,0,0,16.13,0.04,28,0,0,0
95350,8.6823e+07,3,0,0,16.13,0.04,29,0,0,0
95801,8.6931e+07,3,0,0,16.12,0.04,28,0,0,0
96302,8.7045e+07,3,0,0,16.12,0.04,28,0,0,0
96750,8.7147e+07,3,0,0,16.12,0.04,28,0,0,0
97247,8.7264e+07,3,0,0,16.13,0.04,28,0,0,0
97655,8.7363e+07,3,0,0,16.13,0.04,28,0,0,0
98154,8.7479e+07,3,0,0,16.13,0.04,28,0,0,0
98611,8.7587e+07,3,0,0,16.13,0.04,28,0,0,0
99062,8.7693e+07,3,0,0,16.13,0.04,28,0,0,0
99547,8.7803e+07,3,0,0,16.13,0.04,28,0,0,0
99996,8.7909e+07,3,0,0,16.13,0.04,28,0,0,0
1.005e+05,8.8026e+07,3,0,0,16.13,0.04,28,0,0,0
1.0091e+05,8.8126e+07,3,0,0,16.13,0.04,28,0,0,0
1.0141e+05,8.8245e+07,3,0,0,16.13,0.04,28,0,0,0
1.0186e+05,8.8355e+07,3,0,0,16.13,0.04,28,0,0,0
1.0232e+05,8.8461e+07,3,0,0,16.13,0.04,28,0,0,0
1.0276e+05,8.8568e+07,3,0,0,16.13,0.04,28,0,0,0
1.0327e+05,8.8686e+07,3,0,0,16.12,0.04,28,0,0,0
1.0373e+05,8.8794e+07,3,0,0,16.13,0.04,28,0,0,0
1.0418e+05,8.8898e+07,3,0,0,16.13,0.04,28,0,0,0
1.0464e+05,8.9007e+07,3,0,0,16.13,0.04,28,0,0,0
1.0509e+05,8.9116e+07,3,0,0,16.13,0.04,28,0,0,0
1.0555e+05,8.9219e+07,3,0,0,16.13,0.04,28,0,0,0
1.0604e+05,8.9334e+07,3,0,0,16.12,0.04,28,0,0,0
1.065e+05,8.9442e+07,3,0,0,16.13,0.04,28,0,0,0
1.0695e+05,8.9549e+07,3,0,0,16.13,0.04,28,0,0,0
1.074e+05,8.9652e+07,3,0,0,16.13,0.04,28,0,0,0
1.0785e+05,8.9759e+07,3,0,0,16.13,0.04,28,0,0,0
1.0835e+05,8.9871e+07,3,0,0,16.13,0.04,28,0,0,0
1.088e+05,8.9974e+07,3,0,0,16.12,0.04,28,0,0,0
1.093e+05,9.0087e+07,3,0,0,16.13,0.04,28,0,0,0
1.0975e+05,9.0193e+07,3,0,0,16.12,0.04,28,0,0,0
1.1021e+05,9.0302e+07,3,0,0,16.13,0.04,28,0,0,0
1.1066e+05,9.0409e+07,3,0,0,16.13,0.04,29,0,0,0
1.1116e+05,9.0524e+07,3,0,0,16.12,0.04,28,0,0,0
1.1157e+05,9.0616e+07,3,0,0,16.13,0.04,29,0,0,0
1.1206e+05,9.0733e+07,3,13,157,16.11,0.05,28,0,0,0
1.1251e+05,9.0837e+07,3,174,614,16.1,0.1,28,0,0,0
1.13e+05,9.0946e+07,3,632,1028,16.1,0.16,28,0,0,0
1.1346e+05,9.1053e+07,3,1040,1214,16.11,0.12,29,0,0,0
1.1396e+05,9.1165e+07,3,1218,1271,16.11,0.11,29,0,0,0
1.1441e+05,9.1268e+07,3,1272,1300,16.1,0.11,28,0,0,0
1.1486e+05,9.1375e+07,3,1300,1314,16.11,0.11,28,0,0,0
1.1537e+05,9.1491e+07,3,1314,1314,16.11,0.11,29,0,0,0
1.1577e+05,9.1588e+07,3,1314,1314,16.11,0.11,28,0,0,0
1.1627e+05,9.1702e+07,3,1314,1314,16.11,0.11,28,0,0,0
1.1657e+05,9.1815e+07,3,1314,1314,16.11,0.11,28,0,0,0
1.1706e+05,9.1923e+07,3,1314,1314,16.11,0.11,29,0,0,0
1.1751e+05,9.2027e+07,3,1314,1314,16.11,0.11,29,0,0,0
1.1797e+05,9.2133e+07,3,1314,1314,16.11,0.11,29,0,0,0
1.1842e+05,9.2237e+07,3,1314,1314,16.1,0.11,29,0,0,0
1.1892e+05,9.2354e+07,3,1314,1314,16.11,0.11,29,0,0,0
1.1937e+05,9.2458e+07,3,1314,1314,16.11,0.11,29,0,0,0
1.1983e+05,9.2568e+07,3,1314,1314,16.11,0.11,29,0,0,0
1.2028e+05,9.2671e+07,3,1314,1314,16.11,0.11,28,0,0,0
1.2078e+05,9.279e+07,3,1314,1314,16.11,0.11,29,0,0,0
1.2168e+05,9.2998e+07,3,1314,1314,16.11,0.11,29,0,0,0
1.2213e+05,9.3101e+07,3,1314,1314,16.1,0.11,29,0,0,0
1.2256e+05,9.3209e+07,3,1314,1314,16.11,0.11,29,0,0,0
1.2305e+05,9.3325e+07,3,1314,1314,16.11,0.11,28,0,0,0
1.2395e+05,9.3532e+07,3,1314,1314,16.11,0.11,29,0,0,0
1.2445e+05,9.3644e+07,3,1314,1314,16.11,0.11,29,0,0,0
1.249e+05,9.3748e+07,3,1314,1314,16.1,0.11,29,0,0,0
1.254e+05,9.3861e+07,3,1314,1314,16.11,0.11,29,0,0,0
1.2585e+05,9.3968e+07,3,1314,1314,16.11,0.11,29,0,0,0
1.2631e+05,9.4073e+07,3,1314,1314,16.11,0.11,29,0,0,0
1.2676e+05,9.4178e+07,3,1314,1314,16.11,0.11,29,0,0,0
1.2726e+05,9.429e+07,3,1314,1314,16.11,0.11,29,0,0,0
1.2771e+05,9.4399e+07,3,1314,1314,16.11,0.11,28,0,0,0
1.2817e+05,9.45e+07,3,1314,1314,16.11,0.11,28,0,0,0
1.2862e+05,9.4607e+07,3,1314,1314,16.11,0.11,29,0,0,0
1.2911e+05,9.472e+07,3,1314,1314,16.1,0.12,29,0,0,0
1.2956e+05,9.4821e+07,3,1317,1557,16.07,0.25,29,0,0,0
1.3006e+05,9.4941e+07,3,1624,2257,15.99,0.6,29,0,0,0
1.3052e+05,9.5042e+07,3,2273,2500,16.04,0.48,29,0,0,0
1.3093e+05,9.5146e+07,3,2502,2542,16.02,0.48,29,0,0,0
1.3143e+05,9.5258e+07,3,2542,2542,16.1,0.34,29,0,0,0
1.3189e+05,9.5367e+07,3,2538,2500,16.05,0.47,29,1,0,0
1.3234e+05,9.547e+07,3,2508,2714,16.05,0.62,29,1,0,0
1.328e+05,9.5583e+07,3,2762,3385,15.93,1.58,29,1,0,0
1.3325e+05,9.569e+07,3,3406,3942,15.83,1.84,29,1,0,0
1.3375e+05,9.5809e+07,3,4005,4671,15.67,2.79,29,1,0,0
1.3415e+05,9.5909e+07,3,4679,5071,15.6,2.87,29,1,0,0
1.3465e+05,9.6027e+07,3,5118,5614,15.48,3.55,29,1,0,0
1.3506e+05,9.6125e+07,3,5620,6142,15.47,3.85,29,1,0,0
1.3556e+05,9.6242e+07,3,6087,5528,15.7,2.16,29,1,0,0
1.3602e+05,9.6351e+07,3,5500,5242,15.69,2.12,29,1,0,0
1.3647e+05,9.6457e+07,3,5237,5185,15.6,2.26,29,1,0,0
1.3692e+05,9.6566e+07,3,5186,5200,15.62,2.34,29,1,0,0
1.3737e+05,9.6673e+07,3,5197,5071,15.64,1.89,29,1,0,0
1.3782e+05,9.6782e+07,3,5069,5042,15.68,1.96,29,1,0,0
1.3832e+05,9.6898e+07,3,5023,4842,15.48,2.03,29,1,0,0
1.388e+05,9.7008e+07,3,4838,4800,15.66,1.49,29,2,0,0
1.3926e+05,9.7112e+07,3,4795,4414,15.57,1.21,29,2,0,0
1.3971e+05,9.722e+07,3,4419,4528,15.44,2.02,29,2,0,0
1.4016e+05,9.7331e+07,3,4550,4871,15.48,2.34,29,2,0,0
1.4066e+05,9.7448e+07,3,4884,5028,15.57,2.32,29,2,0,0
1.4111e+05,9.7555e+07,3,5044,5214,15.57,2.1,29,2,0,0
1.4156e+05,9.7661e+07,3,5208,5128,15.55,2.06,29,2,0,0
1.4202e+05,9.7774e+07,3,5119,5042,15.54,2.16,29,2,0,0
1.4247e+05,9.7881e+07,3,5040,5028,15.6,2.09,29,2,0,0
1.4292e+05,9.799e+07,3,5028,5042,15.54,2,29,2,0,0
1.4342e+05,9.8107e+07,3,5036,4985,15.59,2.03,29,2,0,0
1.4387e+05,9.8214e+07,3,4997,5114,15.54,2.17,29,2,0,0
1.4432e+05,9.8323e+07,3,5123,5214,15.58,2.14,29,2,0,0
1.4477e+05,9.8427e+07,3,5209,5100,15.58,2.39,29,2,0,0
1.4522e+05,9.8535e+07,3,5103,5171,15.57,2.17,29,2,0,0
1.4568e+05,9.8643e+07,3,5166,5071,15.47,2.13,29,2,0,0
1.461e+05,9.875e+07,3,5074,5257,15.43,2.74,29,2,0,0
1.466e+05,9.8867e+07,3,5292,5657,15.26,3.38,29,3,0,0
1.4705e+05,9.8972e+07,3,5661,5728,15.39,3.17,29,3,0,0
1.475e+05,9.9078e+07,3,5726,5685,15.41,3.06,29,3,0,0
1.4795e+05,9.9189e+07,3,5684,5642,15.34,3.02,29,3,0,0
1.4845e+05,9.9309e+07,3,5651,5714,15.36,3.17,29,3,0,0
1.489e+05,9.9415e+07,3,5697,5528,15.42,2.59,29,3,0,0
1.4935e+05,9.9524e+07,3,5525,5485,15.3,2.56,29,3,0,0
1.4981e+05,9.9631e+07,3,5482,5457,15.39,2.68,29,3,0,0
1.5021e+05,9.9732e+07,3,5459,5571,15.42,2.83,29,3,0,0
1.5072e+05,9.9848e+07,3,5564,5471,15.43,2.64,29,3,0,0
1.5117e+05,9.9958e+07,3,5465,5414,15.33,2.51,29,4,0,0
1.5162e+05,1.0006e+08,3,5406,5314,15.47,2.32,29,4,0,0
1.524e+05,1.0029e+08,3,4900,5057,15.44,2.14,29,4,0,0
1.5284e+05,1.004e+08,3,5053,5014,15.47,1.92,29,4,0,0
1.5329e+05,1.0051e+08,3,5008,4942,15.49,1.81,29,4,0,0
1.537e+05,1.0061e+08,3,4936,4642,15.51,1.36,29,4,0,0
1.541e+05,1.0071e+08,3,4636,4371,15.55,1.46,29,4,0,0
1.5463e+05,1.0083e+08,3,4371,4371,15.46,1.61,29,4,0,0
1.5549e+05,1.0105e+08,3,4380,4642,15.6,1.73,29,4,0,0
1.5594e+05,1.0116e+08,3,4626,4400,15.57,1.26,29,4,0,0
1.5638e+05,1.0127e+08,3,4395,4285,15.61,1.19,29,4,0,0
1.5682e+05,1.0138e+08,3,4282,4242,15.47,1.48,29,4,0,0
1.5727e+05,1.0149e+08,3,4250,4428,15.52,1.72,29,4,0,0
1.5772e+05,1.016e+08,3,4438,4542,15.53,1.85,29,4,0,0
1.5813e+05,1.017e+08,3,4542,4585,15.48,1.58,29,4,0,0
1.5858e+05,1.0182e+08,3,4580,4457,15.52,1.32,29,4,0,0
1.5903e+05,1.0192e+08,3,4475,4714,15.54,2.29,29,4,0,0
1.5948e+05,1.0204e+08,3,4731,4900,15.5,2.42,29,4,0,0
1.5988e+05,1.0214e+08,3,4918,5300,15.37,2.93,29,5,0,0
1.6033e+05,1.0224e+08,3,5301,5371,15.47,2.78,29,5,0,0
1.6078e+05,1.0235e+08,3,5378,5485,15.45,3.18,29,5,0,0
1.6122e+05,1.0246e+08,3,5501,5828,15.47,3.45,29,5,0,0
1.6167e+05,1.0257e+08,3,5826,5785,15.4,2.98,29,5,0,0
1.6215e+05,1.0269e+08,3,5782,5757,15.43,2.98,29,5,0,0
1.626e+05,1.028e+08,3,5738,5542,15.49,2.33,29,5,0,0
1.6301e+05,1.0291e+08,3,5539,5371,15.5,2.3,29,5,0,0
1.6346e+05,1.0301e+08,3,5368,5200,15.46,2.28,29,5,0,0
1.639e+05,1.0313e+08,3,5189,5100,15.48,2.29,29,5,0,0
1.6483e+05,1.0334e+08,3,5100,5100,15.45,2.15,29,5,0,0
1.6524e+05,1.0344e+08,3,5096,5014,15.48,2.13,29,6,0,0
1.6573e+05,1.0356e+08,3,5027,5157,15.47,2.3,29,6,0,0
1.6621e+05,1.0367e+08,3,5155,5142,15.46,2.36,29,6,0,0
1.6657e+05,1.0377e+08,3,5142,5157,15.51,2.02,29,6,0,0
1.6706e+05,1.0388e+08,3,5139,4957,15.47,2.03,29,6,0,0
1.6751e+05,1.0399e+08,3,4956,4942,15.43,1.95,29,6,0,0
1.6796e+05,1.041e+08,3,4943,5071,15.48,1.97,29,6,0,0
1.6845e+05,1.0422e+08,3,5049,4857,15.45,1.93,29,6,0,0
1.6884e+05,1.0432e+08,3,4863,5028,15.35,2.31,29,6,0,0
1.693e+05,1.0442e+08,3,5060,5457,15.35,3.24,29,6,0,0
1.6974e+05,1.0454e+08,3,5466,5600,15.2,3.16,29,6,0,0
1.7015e+05,1.0464e+08,3,5608,5757,15.17,3.61,29,6,0,0
1.7055e+05,1.0474e+08,3,5763,5985,15.2,3.77,29,6,0,0
1.7101e+05,1.0485e+08,3,5986,6057,15.22,3.47,29,7,0,0
1.7146e+05,1.0496e+08,3,6057,6057,15.22,3.49,29,7,0,0
1.7191e+05,1.0507e+08,3,6056,6042,15.25,3.63,29,7,0,0
1.7235e+05,1.0518e+08,3,6048,6357,15.17,3.85,29,7,0,0
1.7284e+05,1.053e+08,3,6332,6085,15.23,3.84,29,7,0,0
1.733e+05,1.0541e+08,3,6108,6342,15.24,3.82,29,7,0,0
1.7373e+05,1.0551e+08,3,6326,6042,15.3,3.36,29,7,0,0
1.7414e+05,1.0561e+08,3,6039,5914,15.33,3.06,29,7,0,0
1.7462e+05,1.0573e+08,3,5909,5857,15.39,3.03,29,7,0,0
1.7507e+05,1.0584e+08,3,5814,5385,15.41,2.03,29,7,0,0
1.7548e+05,1.0594e+08,3,5383,5271,15.4,2.26,30,8,0,0
1.7598e+05,1.0606e+08,3,5261,5157,15.39,2.46,29,8,0,0
1.7642e+05,1.0617e+08,3,5165,5257,15.46,2.34,29,8,0,0
1.7683e+05,1.0626e+08,3,5256,5242,15.44,2.58,29,8,0,0
1.7728e+05,1.0638e+08,3,5246,5314,15.45,2.25,29,8,0,0
1.7773e+05,1.0649e+08,3,5310,5271,15.34,2.55,29,8,0,0
1.7813e+05,1.0659e+08,3,5281,5514,15.43,3.01,29,8,0,0
1.7858e+05,1.067e+08,3,5507,5400,15.49,2.36,29,8,0,0
1.7902e+05,1.0681e+08,3,5401,5414,15.5,2.54,30,8,0,0
1.7946e+05,1.0692e+08,3,5414,5414,15.43,2.71,29,8,0,0
1.7992e+05,1.0703e+08,3,5414,5414,15.42,2.82,29,8,0,0
1.8036e+05,1.0714e+08,3,5420,5485,15.29,2.7,29,8,0,0
1.8081e+05,1.0725e+08,3,5479,5400,15.33,2.93,29,8,0,0
1.8126e+05,1.0736e+08,3,5400,5400,15.3,2.18,29,9,0,0
1.8171e+05,1.0747e+08,3,5377,5157,15.23,1.89,30,9,0,0
1.8215e+05,1.0758e+08,3,5147,5014,15.16,1.86,29,9,0,0
1.826e+05,1.0769e+08,3,5021,5100,15.15,2.35,29,9,0,0
1.8301e+05,1.0779e+08,3,5092,4928,15.27,1.9,29,9,0,0
1.839e+05,1.0801e+08,3,4931,5014,15.3,2.46,30,9,0,0
1.8434e+05,1.0812e+08,3,5060,5457,15.33,3.15,30,9,0,0
1.848e+05,1.0823e+08,3,5500,5971,15.29,3.98,29,9,0,0
1.8519e+05,1.0833e+08,3,6009,6485,15.31,5.18,30,9,0,0
1.8564e+05,1.0844e+08,3,6508,6828,15.32,5.58,30,9,0,0
1.8604e+05,1.0854e+08,3,6828,6828,15.29,5.61,29,10,0,0
1.8649e+05,1.0865e+08,3,6827,6814,15.25,5.39,29,10,0,0
1.8693e+05,1.0876e+08,3,6816,6842,15.38,5.01,29,10,0,0
1.8739e+05,1.0887e+08,3,6830,6600,15.37,4.27,29,10,0,0
1.8779e+05,1.0897e+08,3,6594,6300,15.38,4.03,30,10,0,0
1.8828e+05,1.0909e+08,3,6300,6300,15.3,3.74,29,10,0,0
1.8872e+05,1.0919e+08,3,6280,6014,15.3,3.26,30,10,0,0
1.8921e+05,1.0931e+08,3,6004,5800,15.26,2.66,30,10,0,0
1.8961e+05,1.0941e+08,3,5789,5442,15.3,2.49,30,11,0,0
1.9006e+05,1.0952e+08,3,5440,5342,15.28,2.22,30,11,0,0
1.9096e+05,1.0974e+08,3,5351,5542,15.35,2.99,30,11,0,0
1.914e+05,1.0985e+08,3,5544,5585,15.38,2.67,30,11,0,0
1.9185e+05,1.0996e+08,3,5582,5557,15.29,3.18,30,11,0,0
1.923e+05,1.1007e+08,3,5599,6028,15.3,4.35,30,11,0,0
1.9274e+05,1.1018e+08,3,6041,6171,15.33,3.61,30,11,0,0
1.9315e+05,1.1028e+08,3,6167,6085,15.32,3.07,30,11,0,0
1.9359e+05,1.1039e+08,3,6050,5600,15.36,2.41,30,11,0,0
1.9404e+05,1.105e+08,3,5584,5400,15.32,2.32,30,11,0,0
1.949e+05,1.1071e+08,3,5402,5528,15.3,2.82,30,12,0,0
1.9534e+05,1.1082e+08,3,5536,5628,15.32,2.81,30,12,0,0
1.9579e+05,1.1093e+08,3,5629,5642,15.25,3.05,30,12,0,0
1.962e+05,1.1104e+08,3,5647,5757,15.33,3.25,30,12,0,0
1.9665e+05,1.1115e+08,3,5758,5785,15.35,3.32,30,12,0,0
1.9715e+05,1.1127e+08,3,5771,5628,15.28,2.92,30,12,0,0
1.9755e+05,1.1137e+08,3,5630,5685,15.35,2.8,30,12,0,0
1.9804e+05,1.1149e+08,3,5677,5600,15.32,3.13,30,12,0,0
1.9844e+05,1.1159e+08,3,5600,5614,15.35,3.15,30,12,0,0
1.9889e+05,1.117e+08,3,5629,5785,15.33,2.8,30,12,0,0
1.9933e+05,1.1181e+08,3,5770,5557,15.33,2.99,30,12,0,0
1.9978e+05,1.1192e+08,3,5565,5742,15.31,2.89,30,13,0,0
2.0023e+05,1.1203e+08,3,5730,5614,15.31,3.04,30,13,0,0
2.0067e+05,1.1214e+08,3,5624,5757,15.27,3.01,30,13,0,0
2.0112e+05,1.1225e+08,3,5750,5685,15.25,2.92,30,13,0,0
2.0153e+05,1.1235e+08,3,5684,5642,15.35,2.95,30,13,0,0
2.0202e+05,1.1247e+08,3,5645,5685,15.35,2.9,30,13,0,0
2.0242e+05,1.1257e+08,3,5682,5585,15.35,2.56,30,13,0,0
2.0291e+05,1.1268e+08,3,5569,5414,15.34,2.73,30,13,0,0
2.0331e+05,1.1279e+08,3,5417,5457,15.38,2.49,30,13,0,0
2.0376e+05,1.129e+08,3,5458,5485,15.3,2.7,30,13,0,0
2.0417e+05,1.13e+08,3,5486,5542,15.35,2.63,30,13,0,0
2.0462e+05,1.1311e+08,3,5532,5400,15.32,2.71,30,13,0,0
2.0507e+05,1.1322e+08,3,5401,5442,15.33,2.64,30,14,0,0
2.0552e+05,1.1333e+08,3,5438,5285,15.37,2.16,30,14,0,0
2.0597e+05,1.1344e+08,3,5280,5185,15.38,2.36,30,14,0,0
2.0642e+05,1.1355e+08,3,5184,5171,15.35,2.26,30,14,0,0
2.0691e+05,1.1368e+08,3,5169,5157,15.39,2.31,30,14,0,0
2.0731e+05,1.1378e+08,3,5157,5157,15.35,2.16,30,14,0,0
2.0776e+05,1.1389e+08,3,5160,5200,15.33,2.13,30,14,0,0
2.0817e+05,1.14e+08,3,5177,5014,15.3,1.91,30,14,0,0
2.0858e+05,1.1409e+08,3,5010,4942,15.38,1.86,30,14,0,0
2.0906e+05,1.1421e+08,3,4953,5014,15.4,2.15,30,14,0,0
2.0947e+05,1.1432e+08,3,5007,4942,15.37,1.67,30,14,0,0
2.0992e+05,1.1443e+08,3,4948,5028,15.36,2.14,30,14,0,0
2.1037e+05,1.1454e+08,3,5035,5100,15.26,2.22,30,14,0,0
2.1082e+05,1.1464e+08,3,5116,5271,15.27,2.31,30,14,0,0
2.1122e+05,1.1475e+08,3,5263,5185,15.38,2.24,30,14,0,0
2.1168e+05,1.1486e+08,3,5170,5000,15.42,1.83,30,15,0,0
2.1208e+05,1.1497e+08,3,4998,4985,15.41,1.9,30,15,0,0
2.1254e+05,1.1508e+08,3,4970,4857,15.42,1.45,30,15,0,0
2.1295e+05,1.1519e+08,3,4855,4771,15.38,1.77,30,15,0,0
2.134e+05,1.153e+08,3,4770,4742,15.39,1.63,30,15,0,0
2.1388e+05,1.1541e+08,3,4748,4814,15.36,1.71,30,15,0,0
2.1433e+05,1.1552e+08,3,4816,4871,15.39,2.16,30,15,0,0
2.1481e+05,1.1563e+08,3,4891,5028,15.35,2.19,30,15,0,0
2.1521e+05,1.1573e+08,3,5030,5114,15.34,2.02,30,15,0,0
2.1567e+05,1.1584e+08,3,5115,5128,15.33,2.2,30,15,0,0
2.1611e+05,1.1595e+08,3,5126,5100,15.37,1.82,30,15,0,0
2.1656e+05,1.1606e+08,3,5086,4900,15.33,1.9,30,15,0,0
2.17e+05,1.1617e+08,3,4910,5057,15.35,1.96,30,15,0,0
2.1746e+05,1.1628e+08,3,5045,4885,15.38,1.94,30,15,0,0
2.179e+05,1.1639e+08,3,4879,4828,15.38,1.8,30,15,0,0
2.1875e+05,1.166e+08,3,4829,4900,15.38,1.93,30,15,0,0
2.192e+05,1.1671e+08,3,4895,4842,15.39,1.86,30,16,0,0
2.1961e+05,1.1681e+08,3,4840,4714,15.39,1.79,30,16,0,0
2.1999e+05,1.1692e+08,3,4726,4842,15.25,2.01,30,16,0,0
2.2044e+05,1.1703e+08,3,4857,5071,15.35,2.06,30,16,0,0
2.2129e+05,1.1725e+08,3,5071,5085,15.39,2.28,30,16,0,0
2.2174e+05,1.1736e+08,3,5074,4942,15.31,2.13,30,16,0,0
2.2215e+05,1.1746e+08,3,4943,5071,15.33,2.04,30,16,0,0
2.2263e+05,1.1757e+08,3,5075,5142,15.32,2.12,30,16,0,0
2.2304e+05,1.1767e+08,3,5140,5071,15.29,2.15,29,16,0,0
2.2349e+05,1.1778e+08,3,5074,5142,15.31,2.12,30,16,0,0
2.2394e+05,1.1789e+08,3,5142,5142,15.35,2.37,30,16,0,0
2.2439e+05,1.1801e+08,3,5155,5357,15.3,2.77,30,16,0,0
2.2528e+05,1.1822e+08,3,5356,5314,15.26,2.25,30,16,0,0
2.2572e+05,1.1833e+08,3,5304,5200,15.3,2.34,30,17,0,0
2.2618e+05,1.1844e+08,3,5209,5342,15.27,2.62,30,17,0,0
2.2662e+05,1.1855e+08,3,5353,5514,15.32,2.86,30,17,0,0
2.2703e+05,1.1865e+08,3,5514,5542,15.39,2.78,30,17,0,0
2.2747e+05,1.1876e+08,3,5536,5471,15.39,2.66,30,17,0,0
2.2792e+05,1.1887e+08,3,5488,5671,15.33,2.96,30,17,0,0
2.2833e+05,1.1898e+08,3,5663,5571,15.38,2.62,30,17,0,0
2.2878e+05,1.1909e+08,3,5571,5571,15.29,2.83,30,17,0,0
2.2922e+05,1.192e+08,3,5560,5457,15.35,2.56,30,17,0,0
2.2967e+05,1.1931e+08,3,5448,5357,15.36,2.44,30,17,0,0
2.3012e+05,1.1942e+08,3,5350,5285,15.37,2.55,30,17,0,0
2.3057e+05,1.1953e+08,3,5305,5442,15.33,2.64,30,17,0,0
2.3097e+05,1.1963e+08,3,5442,5442,15.27,2.45,30,17,0,0
2.3142e+05,1.1974e+08,3,5447,5514,15.36,2.65,30,18,0,0
2.3187e+05,1.1985e+08,3,5507,5414,15.37,2.55,30,18,0,0
2.3232e+05,1.1996e+08,3,5426,5614,15.38,2.69,30,18,0,0
2.3277e+05,1.2007e+08,3,5604,5485,15.33,2.69,30,18,0,0
2.3317e+05,1.2018e+08,3,5485,5485,15.3,2.74,30,18,0,0
2.3366e+05,1.2029e+08,3,5497,5657,15.33,2.87,30,18,0,0
2.3406e+05,1.2039e+08,3,5655,5600,15.33,2.68,30,18,0,0
2.3451e+05,1.205e+08,3,5605,5871,15.35,3.18,30,18,0,0
2.3496e+05,1.2061e+08,3,5857,5671,15.3,3.05,30,18,0,0
2.3541e+05,1.2072e+08,3,5691,5885,15.3,3.02,30,18,0,0
2.3581e+05,1.2082e+08,3,5882,5828,15.37,2.68,30,18,0,0
2.363e+05,1.2094e+08,3,5806,5600,15.32,2.8,30,18,0,0
2.3671e+05,1.2104e+08,3,5598,5557,15.37,2.66,30,19,0,0
2.3715e+05,1.2115e+08,3,5555,5514,15.38,2.48,30,19,0,0
2.3761e+05,1.2126e+08,3,5520,5657,15.41,2.52,30,19,0,0
2.3806e+05,1.2137e+08,3,5651,5585,15.35,2.63,30,19,0,0
2.3851e+05,1.2148e+08,3,5571,5400,15.35,2.68,30,19,0,0
2.3896e+05,1.216e+08,3,5416,5571,15.38,2.95,30,19,0,0
2.3937e+05,1.217e+08,3,5597,5828,15.36,2.83,30,19,0,0
2.3977e+05,1.218e+08,3,5823,5742,15.36,2.82,30,19,0,0
2.4066e+05,1.2202e+08,3,5744,5942,15.34,3.1,30,19,0,0
2.4111e+05,1.2213e+08,3,5929,5771,15.32,2.82,30,20,0,0
2.4157e+05,1.2224e+08,3,5769,5728,15.38,2.67,30,20,0,0
2.4201e+05,1.2235e+08,3,5721,5585,15.43,2.6,30,20,0,0
2.4246e+05,1.2246e+08,3,5587,5628,15.39,2.64,30,20,0,0
2.429e+05,1.2257e+08,3,5630,5671,15.35,2.66,30,20,0,0
2.4335e+05,1.2267e+08,3,5671,5671,15.35,2.56,30,20,0,0
2.438e+05,1.2279e+08,3,5669,5657,15.4,2.86,30,20,0,0
2.4428e+05,1.229e+08,3,5661,5728,15.32,2.8,30,20,0,0
2.4469e+05,1.23e+08,3,5728,5728,15.39,2.9,30,20,0,0
2.4518e+05,1.2312e+08,3,5749,5942,15.3,3.4,30,20,0,0
2.4558e+05,1.2322e+08,3,5936,5871,15.43,2.88,30,20,0,0
2.4604e+05,1.2334e+08,3,5865,5742,15.39,2.67,30,20,0,0
2.4649e+05,1.2345e+08,3,5753,5871,15.37,3.54,30,21,0,0
2.4689e+05,1.2355e+08,3,5875,6028,15.38,3.74,30,21,0,0
2.4739e+05,1.2367e+08,3,6043,6228,15.35,3.81,30,21,0,0
2.4779e+05,1.2377e+08,3,6224,6142,15.29,2.85,30,21,0,0
2.4824e+05,1.2387e+08,3,6123,5728,15.26,2.77,30,21,0,0
2.4868e+05,1.2399e+08,3,5721,5585,15.28,2.58,30,21,0,0
2.4914e+05,1.241e+08,3,5580,5514,15.32,2.8,30,21,0,0
2.4958e+05,1.2421e+08,3,5518,5571,15.18,2.89,30,21,0,0
2.4999e+05,1.2431e+08,3,5576,5914,15.19,3.25,30,21,0,0
2.5047e+05,1.2442e+08,3,5910,5871,15.14,3.48,30,21,0,0
2.5088e+05,1.2453e+08,3,5869,5757,15.17,3.36,30,21,0,0
2.5132e+05,1.2464e+08,3,5762,5957,15.1,3.35,30,22,0,0
2.5178e+05,1.2476e+08,3,5959,6000,15.11,3.39,30,22,0,0
2.5222e+05,1.2486e+08,3,6011,6142,15.11,3.63,30,22,0,0
2.5263e+05,1.2496e+08,3,6141,6128,15.14,3.69,30,22,0,0
2.5308e+05,1.2507e+08,3,6122,6014,15.16,3.76,30,22,0,0
2.5352e+05,1.2519e+08,3,6014,6100,15.21,3.62,30,22,0,0
2.5397e+05,1.2529e+08,3,6097,5928,15.23,3.3,30,22,0,0
2.5445e+05,1.254e+08,3,5927,5914,15.26,3.09,30,22,0,0
2.5493e+05,1.2553e+08,3,5898,5757,15.15,3.17,30,22,0,0
2.5534e+05,1.2563e+08,3,5754,5714,15.19,2.91,30,23,0,0
2.5579e+05,1.2574e+08,3,5695,5528,15.25,2.65,30,23,0,0
2.5624e+05,1.2585e+08,3,5536,5614,15.18,2.97,30,23,0,0
2.5668e+05,1.2596e+08,3,5606,5528,15.33,2.51,30,23,0,0
2.5713e+05,1.2606e+08,3,5518,5385,15.33,2.6,30,23,0,0
2.5757e+05,1.2618e+08,3,5382,5357,15.27,2.36,30,23,0,0
2.5802e+05,1.2628e+08,3,5345,5100,15.24,2.41,30,23,0,0
2.5847e+05,1.264e+08,3,5109,5300,15.3,2.67,30,23,0,0
2.5892e+05,1.2651e+08,3,5309,5442,15.18,2.83,30,23,0,0
2.5937e+05,1.2662e+08,3,5462,5671,15.19,3.13,30,23,0,0
2.5981e+05,1.2672e+08,3,5661,5528,15.16,2.82,30,23,0,0
2.6026e+05,1.2684e+08,3,5545,5714,15.25,3.27,30,23,0,0
2.6067e+05,1.2694e+08,3,5722,5814,15.15,3.35,30,24,0,0
2.6112e+05,1.2705e+08,3,5815,5842,15.19,3.29,30,24,0,0
2.6156e+05,1.2716e+08,3,5835,5714,15.2,3.26,30,24,0,0
2.6202e+05,1.2727e+08,3,5715,5728,15.23,2.97,30,24,0,0
2.6246e+05,1.2738e+08,3,5715,5585,15.23,2.96,30,24,0,0
2.629e+05,1.2748e+08,3,5589,5642,15.29,2.77,30,24,0,0
2.6331e+05,1.2759e+08,3,5639,5542,15.27,2.71,30,24,0,0
2.6376e+05,1.2769e+08,3,5543,5642,15.22,2.76,30,24,0,0
2.642e+05,1.278e+08,3,5631,5414,15.28,2.75,30,24,0,0
2.6465e+05,1.2791e+08,3,5422,5514,15.25,2.76,30,24,0,0
2.651e+05,1.2802e+08,3,5515,5528,15.23,2.9,30,24,0,0
2.6555e+05,1.2814e+08,3,5523,5457,15.27,2.63,30,24,0,0
2.66e+05,1.2825e+08,3,5458,5485,15.25,2.62,30,25,0,0
2.6641e+05,1.2835e+08,3,5483,5400,15.27,2.56,30,25,0,0
2.6733e+05,1.2857e+08,3,5399,5357,15.28,2.6,30,25,0,0
2.6779e+05,1.2868e+08,3,5358,5400,15.26,2.79,30,25,0,0
2.6824e+05,1.288e+08,3,5407,5485,15.17,3.1,30,25,0,0
2.6869e+05,1.2891e+08,3,5502,5671,15.24,3.01,30,25,0,0
2.6913e+05,1.2902e+08,3,5659,5500,15.25,2.75,30,25,0,0
2.6954e+05,1.2912e+08,3,5498,5400,15.23,2.6,30,25,0,0
2.7047e+05,1.2935e+08,3,5397,5300,15.23,2.46,30,25,0,0
2.7092e+05,1.2946e+08,3,5295,5228,15.23,2.24,30,25,0,0
2.7136e+05,1.2957e+08,3,5221,5128,15.2,2.1,30,26,0,0
2.718e+05,1.2967e+08,3,5127,5114,15.2,2.25,30,26,0,0
2.7221e+05,1.2978e+08,3,5124,5342,15.17,2.95,30,26,0,0
2.7266e+05,1.2989e+08,3,5339,5300,15.25,2.71,30,26,0,0
2.7306e+05,1.2999e+08,3,5300,5342,15.19,2.6,30,26,0,0
2.7355e+05,1.3011e+08,3,5337,5271,15.21,2.31,30,26,0,0
2.74e+05,1.3022e+08,3,5258,5142,15.19,2.13,30,26,0,0
2.7488e+05,1.3043e+08,3,5152,5428,15.17,3,30,26,0,0
2.7529e+05,1.3054e+08,3,5430,5542,15.19,3.01,30,26,0,0
2.7574e+05,1.3065e+08,3,5555,5742,15.14,3.04,30,26,0,0
2.7619e+05,1.3077e+08,3,5707,5457,15.15,2.68,30,26,0,0
2.7753e+05,1.3109e+08,3,5462,5671,15.11,3.18,30,27,0,0
2.7794e+05,1.312e+08,3,5697,5842,15.11,3.4,30,27,0,0
2.7838e+05,1.313e+08,3,5842,5857,15.13,3.27,30,27,0,0
2.7931e+05,1.3153e+08,3,5848,5671,15.15,3.09,30,27,0,0
2.7972e+05,1.3163e+08,3,5686,5828,15.13,2.97,30,27,0,0
2.8012e+05,1.3172e+08,3,5825,5685,15.17,2.81,30,27,0,0
2.806e+05,1.3184e+08,3,5687,5714,15.23,2.88,30,27,0,0
2.8101e+05,1.3195e+08,3,5699,5557,15.22,2.83,30,27,0,0
2.8146e+05,1.3206e+08,3,5558,5571,15.15,2.85,30,27,0,0
2.8186e+05,1.3216e+08,3,5567,5500,15.25,2.83,30,28,0,0
2.8236e+05,1.3228e+08,3,5507,5585,15.18,2.75,30,28,0,0
2.8276e+05,1.3239e+08,3,5585,5585,15.13,2.9,30,28,0,0
2.8322e+05,1.325e+08,3,5577,5500,15.17,2.86,30,28,0,0
2.8362e+05,1.326e+08,3,5511,5628,15.19,3.16,30,28,0,0
2.8402e+05,1.327e+08,3,5628,5657,15.21,2.82,30,28,0,0
2.8446e+05,1.3281e+08,3,5656,5628,15.25,2.59,30,28,0,0
2.8491e+05,1.3292e+08,3,5625,5385,15.23,2.62,30,28,0,0
2.8535e+05,1.3303e+08,3,5386,5457,15.21,2.44,30,28,0,0
2.858e+05,1.3314e+08,3,5452,5371,15.27,2.59,30,28,0,0
2.8625e+05,1.3325e+08,3,5369,5342,15.24,2.69,30,28,0,0
2.8669e+05,1.3336e+08,3,5348,5442,15.26,2.71,30,28,0,0
2.871e+05,1.3346e+08,3,5443,5528,15.14,3.03,30,29,0,0
2.8754e+05,1.3357e+08,3,5530,5685,15.07,3.12,30,29,0,0
2.8848e+05,1.338e+08,3,5698,5985,15.13,3.18,30,29,0,0
2.8892e+05,1.339e+08,3,5962,5742,15.19,3.03,30,29,0,0
2.8938e+05,1.3402e+08,3,5748,5814,15.17,3.02,30,29,0,0
2.8982e+05,1.3413e+08,3,5807,5757,15.14,3.05,30,29,0,0
2.9023e+05,1.3423e+08,3,5746,5614,15.22,2.88,30,29,0,0
2.9067e+05,1.3434e+08,3,5611,5571,15.17,2.91,30,29,0,0
2.9112e+05,1.3445e+08,3,5571,5571,15.22,2.96,30,29,0,0
2.9151e+05,1.3455e+08,3,5572,5628,15.19,2.96,30,29,0,0
2.9201e+05,1.3466e+08,3,5634,5700,15.22,3.2,30,30,0,0
2.9241e+05,1.3477e+08,3,5703,5914,15.25,3.71,30,30,0,0
2.9286e+05,1.3487e+08,3,5908,5800,15.22,3.79,30,30,0,0
2.9334e+05,1.35e+08,3,5812,5957,15.21,2.98,30,30,0,0
2.942e+05,1.3521e+08,3,5930,5185,15.21,2.18,30,30,0,0
2.9505e+05,1.3542e+08,3,5183,5028,15.21,1.81,30,30,0,0
2.9549e+05,1.3553e+08,3,5014,4685,15.26,1.63,30,30,0,0
2.9594e+05,1.3564e+08,3,4685,4714,15.25,1.7,30,30,0,0
2.9638e+05,1.3575e+08,3,4705,4600,15.19,1.65,30,30,0,0
2.9773e+05,1.3608e+08,3,4610,5471,15.1,3.21,30,31,0,0
2.9817e+05,1.3618e+08,3,5473,5557,15.13,2.9,30,31,0,0
2.9862e+05,1.3629e+08,3,5555,5500,15.22,2.31,30,31,0,0
2.9906e+05,1.364e+08,3,5485,5271,15.22,2.42,30,31,0,0
2.9956e+05,1.3653e+08,3,5289,5442,15.09,2.6,30,31,0,0
2.9992e+05,1.3662e+08,3,5444,5585,15.11,2.78,30,31,0,0
3.004e+05,1.3673e+08,3,5566,5328,15.03,2.3,30,31,0,0
3.0125e+05,1.3694e+08,3,5330,5442,15.07,2.36,30,31,0,0
3.017e+05,1.3705e+08,3,5437,5271,15.01,2.58,30,31,0,0
3.0215e+05,1.3717e+08,3,5278,5385,14.99,2.64,30,31,0,0
3.026e+05,1.3727e+08,3,5382,5357,15.08,2.4,30,31,0,0
3.0304e+05,1.3738e+08,3,5353,5300,15.07,2.55,30,32,0,0
3.0349e+05,1.3749e+08,3,5311,5471,15.04,2.82,30,32,0,0
3.039e+05,1.3759e+08,3,5474,5714,15.13,3.07,30,32,0,0
3.0439e+05,1.3771e+08,3,5676,5314,15.2,1.73,30,32,0,0
3.0479e+05,1.3781e+08,3,5283,4857,15.21,1.37,30,32,0,0
3.0569e+05,1.3804e+08,3,4858,4885,15.16,2.11,30,32,0,0
3.0614e+05,1.3815e+08,3,4909,5157,15.14,2.86,30,32,0,0
3.0658e+05,1.3825e+08,3,5183,5428,15.17,2.94,30,32,0,0
3.0698e+05,1.3836e+08,3,5443,5642,15.14,2.71,30,32,0,0
3.0743e+05,1.3846e+08,3,5627,5428,15.16,2.29,30,32,0,0
3.0788e+05,1.3857e+08,3,5424,5371,15.08,2.68,30,32,0,0
3.0832e+05,1.3868e+08,3,5361,5242,15.05,2.24,30,32,0,0
3.0873e+05,1.3878e+08,3,5242,5314,15.15,2.37,30,32,0,0
3.0918e+05,1.3889e+08,3,5311,5185,15.14,2.21,30,33,0,0
3.0961e+05,1.39e+08,3,5186,5228,15.19,2.56,30,33,0,0
3.1003e+05,1.3911e+08,3,5227,5214,15.09,2.5,30,33,0,0
3.1052e+05,1.3922e+08,3,5229,5385,15.12,2.76,30,33,0,0
3.1096e+05,1.3933e+08,3,5386,5414,15.13,3.02,30,33,0,0
3.1141e+05,1.3944e+08,3,5413,5371,15.16,2.54,30,33,0,0
3.1182e+05,1.3955e+08,3,5373,5400,15.24,2.52,30,33,0,0
3.1227e+05,1.3966e+08,3,5389,5271,15.17,2.46,30,33,0,0
3.1271e+05,1.3977e+08,3,5298,5600,15.09,3.3,30,33,0,0
3.1312e+05,1.3987e+08,3,5611,5857,15.05,4.15,30,33,0,0
3.1356e+05,1.3998e+08,3,5883,6214,15.18,3.9,30,33,0,0
3.1401e+05,1.4008e+08,3,6198,5857,15.19,2.63,30,34,0,0
3.1446e+05,1.402e+08,3,5798,5214,15.2,1.8,30,34,0,0
3.1536e+05,1.4042e+08,3,5184,4514,15.22,1.13,30,34,0,0
3.1576e+05,1.4052e+08,3,4513,4485,15.24,1.39,30,34,0,0
3.1621e+05,1.4063e+08,3,4484,4471,15.21,1.6,30,34,0,0
3.1666e+05,1.4075e+08,3,4474,4528,15.21,1.93,30,34,0,0
3.171e+05,1.4086e+08,3,4541,4671,15.25,1.74,30,34,0,0
3.175e+05,1.4096e+08,3,4674,4814,15.13,2.08,30,34,0,0
3.1796e+05,1.4107e+08,3,4822,5000,15.12,2.29,30,34,0,0
3.184e+05,1.4118e+08,3,5014,5157,15.07,2.57,30,34,0,0
3.1884e+05,1.4128e+08,3,5157,5157,15.13,2.43,30,34,0,0
3.1924e+05,1.4139e+08,3,5159,5271,15.22,2.47,30,34,0,0
3.197e+05,1.415e+08,3,5267,5200,15.14,2.3,30,34,0,0
3.201e+05,1.416e+08,3,5198,5114,15.09,2.1,30,34,0,0
3.2059e+05,1.4172e+08,3,5130,5271,15.09,2.19,30,34,0,0
3.2104e+05,1.4183e+08,3,5267,5228,15.2,2.29,30,34,0,0
3.2144e+05,1.4193e+08,3,5229,5285,15.17,2.46,30,35,0,0
3.2189e+05,1.4204e+08,3,5281,5200,15.18,2.2,30,35,0,0
3.2234e+05,1.4215e+08,3,5198,5171,15.14,2.14,30,35,0,0
3.2281e+05,1.4226e+08,3,5169,5142,15.21,2.26,30,35,0,0
3.2322e+05,1.4237e+08,3,5144,5285,15.2,2.17,30,35,0,0
3.2367e+05,1.4248e+08,3,5267,5071,15.16,2.23,30,35,0,0
3.2411e+05,1.4259e+08,3,5080,5200,15.21,2.1,30,35,0,0
3.246e+05,1.4271e+08,3,5172,5042,15.23,2.1,30,35,0,0
3.2549e+05,1.4292e+08,3,5032,4828,15.24,1.78,30,35,0,0
3.2589e+05,1.4302e+08,3,4828,4842,15.27,1.82,30,35,0,0
3.2638e+05,1.4314e+08,3,4834,4757,15.22,1.55,30,35,0,0
3.2682e+05,1.4325e+08,3,4748,4671,15.23,1.68,30,35,0,0
3.2726e+05,1.4335e+08,3,4671,4700,15.25,1.77,30,35,0,0
3.2771e+05,1.4347e+08,3,4711,4828,15.23,1.93,30,35,0,0
3.2816e+05,1.4358e+08,3,4836,4971,15.18,2.13,30,35,0,0
3.2861e+05,1.4369e+08,3,4972,4985,15.22,1.91,30,36,0,0
3.2906e+05,1.438e+08,3,4973,4885,15.27,1.44,30,36,0,0
3.2946e+05,1.439e+08,3,4881,4814,15.2,1.57,30,36,0,0
3.2987e+05,1.4401e+08,3,4815,4942,15.19,1.96,30,36,0,0
3.3036e+05,1.4413e+08,3,4955,5085,15.17,1.91,30,36,0,0
3.308e+05,1.4423e+08,3,5096,5214,15.2,1.96,30,36,0,0
3.3124e+05,1.4434e+08,3,5205,5128,15.18,2.06,30,36,0,0
3.3169e+05,1.4445e+08,3,5126,5114,15.1,2.07,30,36,0,0
3.3258e+05,1.4467e+08,3,5116,5171,15.1,2.13,30,36,0,0
3.3302e+05,1.4478e+08,3,5171,5171,15.1,2.28,30,36,0,0
3.3347e+05,1.4489e+08,3,5174,5214,15.14,2.27,30,36,0,0
3.3395e+05,1.45e+08,3,5206,5128,15.1,2.16,30,36,0,0
3.3436e+05,1.451e+08,3,5131,5214,15.09,2.18,30,36,0,0
3.348e+05,1.4521e+08,3,5206,5057,15.14,1.98,30,36,0,0
3.3525e+05,1.4533e+08,3,5042,4900,15.2,1.86,30,36,0,0
3.357e+05,1.4543e+08,3,4902,4928,15.22,1.9,30,37,0,0
3.3614e+05,1.4554e+08,3,4927,4871,15.23,1.85,30,37,0,0
3.3659e+05,1.4565e+08,3,4871,4885,15.23,1.81,30,37,0,0
3.3707e+05,1.4577e+08,3,4881,4828,15.2,1.68,29,37,0,0
3.3753e+05,1.4587e+08,3,4826,4800,15.25,1.56,29,37,0,0
3.3797e+05,1.4598e+08,3,4795,4742,15.27,1.96,29,37,0,0
3.3838e+05,1.4608e+08,3,4742,4800,15.27,1.71,30,37,0,0
3.3883e+05,1.462e+08,3,4798,4771,15.26,1.64,30,37,0,0
3.3927e+05,1.463e+08,3,4774,4871,15.26,1.81,29,37,0,0
3.3971e+05,1.4642e+08,3,4861,4771,15.27,1.38,29,37,0,0
3.4012e+05,1.4651e+08,3,4765,4542,15.23,1.58,30,37,0,0
3.4061e+05,1.4663e+08,3,4554,4685,15.16,1.83,30,37,0,0
3.4101e+05,1.4674e+08,3,4702,4928,15.27,2.25,30,37,0,0
3.4145e+05,1.4684e+08,3,4939,5185,15.18,2.41,30,37,0,0
3.419e+05,1.4696e+08,3,5193,5314,15.21,2.17,29,37,0,0
3.4235e+05,1.4706e+08,3,5304,5214,15.25,1.97,29,37,0,0
3.4275e+05,1.4716e+08,3,5211,5028,15.2,1.84,30,37,0,0
3.4324e+05,1.4728e+08,3,5029,5128,15.23,2,30,37,0,0
3.4369e+05,1.4739e+08,3,5123,5085,15.2,2.09,29,38,0,0
3.4414e+05,1.475e+08,3,5087,5128,15.17,2.18,30,38,0,0
3.4458e+05,1.4761e+08,3,5129,5157,15.14,2.07,29,38,0,0
3.4503e+05,1.4772e+08,3,5150,5057,15.21,2.14,29,38,0,0
3.4547e+05,1.4783e+08,3,5059,5085,15.15,2.27,29,38,0,0
3.4592e+05,1.4794e+08,3,5097,5228,15.18,2.52,30,38,0,0
3.4633e+05,1.4804e+08,3,5227,5214,15.2,2.17,29,38,0,0
3.4673e+05,1.4815e+08,3,5212,5142,15.17,2.27,29,38,0,0
3.4722e+05,1.4826e+08,3,5144,5171,15.1,2.02,29,38,0,0
3.4767e+05,1.4838e+08,3,5154,4985,15.15,1.77,29,38,0,0
3.4812e+05,1.4848e+08,3,4948,4571,15.13,0.99,29,38,0,0
3.4856e+05,1.4859e+08,3,4564,4500,15.13,1.76,29,38,0,0
3.4897e+05,1.4869e+08,3,4505,4857,15.13,2.24,29,38,0,0
3.4945e+05,1.4881e+08,3,4877,5171,15.15,2.87,29,38,0,0
3.499e+05,1.4892e+08,3,5184,5371,15.23,2.64,29,38,0,0
3.5034e+05,1.4903e+08,3,5373,5400,15.19,2.55,29,38,0,0
3.5074e+05,1.4913e+08,3,5398,5300,15.19,2.46,29,39,0,0
3.5123e+05,1.4925e+08,3,5302,5342,15.17,2.56,29,39,0,0
3.5168e+05,1.4936e+08,3,5337,5285,15.17,2.39,29,39,0,0
3.5213e+05,1.4947e+08,3,5280,5214,15.11,2.34,29,39,0,0
3.5302e+05,1.4969e+08,3,5209,5100,15.16,2.39,29,39,0,0
3.5347e+05,1.4981e+08,3,5107,5200,15.16,2.29,29,39,0,0
3.5388e+05,1.499e+08,3,5197,5100,15.22,2.27,29,39,0,0
3.5428e+05,1.5001e+08,3,5100,5157,15.2,2.14,29,39,0,0
3.5522e+05,1.5023e+08,3,5158,5200,15.21,2.14,29,39,0,0
3.5607e+05,1.5044e+08,3,5199,5128,15.21,2.43,29,39,0,0
3.5648e+05,1.5055e+08,3,5128,5128,15.25,2.43,29,39,0,0
3.5697e+05,1.5066e+08,3,5129,5157,15.13,2.1,29,40,0,0
3.5741e+05,1.5078e+08,3,5154,5128,15.23,2.08,29,40,0,0
3.5786e+05,1.5088e+08,3,5125,5100,15.23,2.11,29,40,0,0
3.583e+05,1.5099e+08,3,5096,5042,15.15,2.39,29,40,0,0
3.5874e+05,1.5109e+08,3,5042,5057,15.23,1.89,29,40,0,0
3.5923e+05,1.5121e+08,3,5013,4671,15.18,1.35,29,40,0,0
3.5963e+05,1.5131e+08,3,4672,4757,15.28,1.95,29,40,0,0
3.6053e+05,1.5153e+08,3,4763,5342,15.17,2.98,29,40,0,0
3.6098e+05,1.5164e+08,3,5350,5685,15.11,3.45,29,40,0,0
3.6188e+05,1.5187e+08,3,5695,5914,15.13,3.15,29,40,0,0
3.6277e+05,1.5209e+08,3,5917,5985,15.16,3.41,29,41,0,0
3.6316e+05,1.5219e+08,3,5982,5828,15.19,3.02,29,41,0,0
3.6361e+05,1.523e+08,3,5825,5671,15.16,2.9,29,41,0,0
3.641e+05,1.5241e+08,3,5674,5728,15.18,3.03,29,41,0,0
3.6451e+05,1.5252e+08,3,5729,5800,15.11,2.83,29,41,0,0
3.6496e+05,1.5263e+08,3,5781,5400,15.26,2.44,29,41,0,0
3.6585e+05,1.5285e+08,3,5401,5442,15.25,2.79,29,41,0,0
3.6626e+05,1.5296e+08,3,5441,5428,15.27,2.64,29,41,0,0
3.667e+05,1.5306e+08,3,5432,5528,15.24,2.87,29,41,0,0
3.6715e+05,1.5318e+08,3,5530,5557,15.26,2.83,29,41,0,0
3.6764e+05,1.5329e+08,3,5550,5485,15.2,3.04,29,42,0,0
3.6804e+05,1.5339e+08,3,5489,5757,15.19,3.09,29,42,0,0
3.6848e+05,1.535e+08,3,5755,5671,15.13,3.28,29,42,0,0
3.6894e+05,1.5361e+08,3,5670,5657,15.16,2.81,29,42,0,0
3.6942e+05,1.5373e+08,3,5650,5600,15.1,2.96,29,42,0,0
3.6986e+05,1.5384e+08,3,5598,5585,15.17,2.92,29,42,0,0
3.7031e+05,1.5395e+08,3,5585,5585,15.17,2.93,29,42,0,0
3.7072e+05,1.5405e+08,3,5580,5514,15.08,2.96,29,42,0,0
3.7116e+05,1.5416e+08,3,5509,5457,15.1,2.9,29,42,0,0
3.7161e+05,1.5427e+08,3,5462,5542,15.1,3.04,29,42,0,0
3.7201e+05,1.5437e+08,3,5543,5585,15.17,2.62,29,42,0,0
3.725e+05,1.5449e+08,3,5585,5585,15.07,2.83,29,43,0,0
3.7295e+05,1.546e+08,3,5585,5585,15.04,2.82,29,43,0,0
3.734e+05,1.5471e+08,3,5585,5600,15.1,2.84,29,43,0,0
3.7388e+05,1.5483e+08,3,5601,5614,15.11,2.91,29,43,0,0
3.7433e+05,1.5494e+08,3,5591,5442,15.13,2.82,29,43,0,0
3.7518e+05,1.5514e+08,3,5446,5585,15.1,2.79,29,43,0,0
3.7563e+05,1.5525e+08,3,5586,5685,15.14,3.02,29,43,0,0
3.7611e+05,1.5537e+08,3,5680,5628,15.05,2.98,29,43,0,0
3.7652e+05,1.5547e+08,3,5629,5642,15.05,3.11,30,43,0,0
3.7698e+05,1.5559e+08,3,5661,5885,15.07,3.37,29,43,0,0
3.7742e+05,1.5569e+08,3,5870,5714,15.05,3.11,29,44,0,0
3.7786e+05,1.5581e+08,3,5707,5657,15.12,3.19,29,44,0,0
3.7827e+05,1.5591e+08,3,5656,5642,15.1,2.8,29,44,0,0
3.7916e+05,1.5613e+08,3,5641,5614,15.17,2.62,29,44,0,0
3.7961e+05,1.5624e+08,3,5596,5414,15.12,2.58,29,44,0,0
3.8001e+05,1.5634e+08,3,5415,5485,15.08,2.98,30,44,0,0
3.805e+05,1.5646e+08,3,5482,5457,15.19,2.4,29,44,0,0
3.809e+05,1.5656e+08,3,5453,5257,15.22,2.5,29,44,0,0
3.8135e+05,1.5667e+08,3,5254,5228,15.13,2.36,29,44,0,0
3.8179e+05,1.5678e+08,3,5229,5242,15.2,2.09,30,44,0,0
3.8224e+05,1.5688e+08,3,5242,5242,15.08,2.78,29,44,0,0
3.8272e+05,1.57e+08,3,5237,5200,15.16,2.66,29,44,0,0
3.8317e+05,1.5711e+08,3,5242,5600,15.14,2.73,29,45,0,0
3.8354e+05,1.5721e+08,3,5593,5514,15.22,2.78,30,45,0,0
3.8402e+05,1.5732e+08,3,5519,5600,15.14,2.77,29,45,0,0
3.8444e+05,1.5743e+08,3,5600,5600,15.14,3.5,29,45,0,0
3.8488e+05,1.5754e+08,3,5595,5557,15.16,2.87,30,45,0,0
3.8532e+05,1.5764e+08,3,5561,5771,15.24,3.26,30,45,0,0
3.8577e+05,1.5776e+08,3,5762,5685,15.18,2.83,30,45,0,0
3.8622e+05,1.5787e+08,3,5686,5700,15.16,3.04,29,45,0,0
3.8666e+05,1.5798e+08,3,5694,5642,15.11,3.35,29,45,0,0
3.8711e+05,1.5809e+08,3,5648,5742,15.11,3.04,29,45,0,0
3.8752e+05,1.5819e+08,3,5720,5542,15.22,2.75,29,45,0,0
3.8837e+05,1.584e+08,3,5540,5500,15.17,2.79,29,46,0,0
3.8882e+05,1.5851e+08,3,5498,5485,15.11,2.88,29,46,0,0
3.8926e+05,1.5862e+08,3,5483,5471,15.23,2.51,29,46,0,0
3.8971e+05,1.5873e+08,3,5469,5457,15.13,2.56,29,46,0,0
3.902e+05,1.5885e+08,3,5454,5428,15.13,3,29,46,0,0
3.906e+05,1.5895e+08,3,5431,5700,15.05,3.05,29,46,0,0
3.9109e+05,1.5906e+08,3,5694,5642,15.04,3.42,29,46,0,0
3.9242e+05,1.5939e+08,3,5645,5800,15.01,3.83,29,46,0,0
3.9287e+05,1.595e+08,3,5839,6228,15.02,4.1,29,47,0,0
3.9331e+05,1.5961e+08,3,6209,5928,15.16,2.95,29,47,0,0
3.9376e+05,1.5971e+08,3,5927,5914,15.1,3.34,29,47,0,0
3.9421e+05,1.5983e+08,3,5912,5900,15.11,2.99,29,47,0,0
3.9465e+05,1.5993e+08,3,5865,5542,15.25,2.16,29,47,0,0
3.9511e+05,1.6005e+08,3,5501,5114,15.27,1.89,29,47,0,0
3.9551e+05,1.6015e+08,3,5108,5028,15.18,2.2,29,47,0,0
3.9596e+05,1.6026e+08,3,5060,5471,15.04,3.09,29,47,0,0
3.9641e+05,1.6037e+08,3,5472,5485,15.19,2.63,29,47,0,0
3.973e+05,1.6059e+08,3,5486,5514,15.32,2.02,29,47,0,0
3.9775e+05,1.607e+08,3,5500,5357,15.21,2.68,29,47,0,0
3.9861e+05,1.6091e+08,3,5355,5328,15.26,2.88,30,48,0,0
3.9901e+05,1.6101e+08,3,5331,5542,15.33,2.5,29,48,0,0
3.9991e+05,1.6123e+08,3,5539,5457,15.27,2.71,29,48,0,0
4.0076e+05,1.6144e+08,3,5458,5628,15.19,2.63,30,48,0,0
4.012e+05,1.6155e+08,3,5624,5414,15.29,2.22,29,48,0,0
4.0173e+05,1.6168e+08,3,5416,5442,15.23,2.94,29,48,0,0
4.0214e+05,1.6178e+08,3,5445,5514,15.26,2.54,30,48,0,0
4.0258e+05,1.6189e+08,3,5506,5414,15.27,2.52,29,48,0,0
4.0302e+05,1.6199e+08,3,5417,5557,15.29,2.36,30,48,0,0
4.0347e+05,1.621e+08,3,5559,5642,15.11,3.14,30,48,0,0
4.0391e+05,1.6221e+08,3,5656,5942,15.14,3.05,29,49,0,0
4.0436e+05,1.6232e+08,3,5932,5814,15.24,3.1,29,49,0,0
4.0477e+05,1.6242e+08,3,5815,5900,15.17,3.16,29,49,0,0
4.0525e+05,1.6254e+08,3,5903,5942,15.14,3.43,30,49,0,0
4.0566e+05,1.6264e+08,3,5944,6057,15.17,3.11,29,49,0,0
4.0614e+05,1.6276e+08,3,6047,5957,15.13,2.95,29,49,0,0
4.0655e+05,1.6286e+08,3,5954,5757,15.23,2.71,30,49,0,0
4.07e+05,1.6297e+08,3,5751,5628,15.2,2.52,30,49,0,0
4.0745e+05,1.6308e+08,3,5618,5528,15.16,2.56,30,49,0,0
4.0789e+05,1.6319e+08,3,5528,5542,15.17,2.91,30,49,0,0
4.0833e+05,1.633e+08,3,5531,5442,15.2,2.85,30,49,0,0
4.0874e+05,1.634e+08,3,5439,5314,15.24,2.11,30,50,0,0
4.0923e+05,1.6353e+08,3,5308,5271,15.23,2.25,29,50,0,0
4.0966e+05,1.6363e+08,3,5274,5314,15.13,2.54,30,50,0,0
4.1011e+05,1.6374e+08,3,5314,5314,15.19,2.5,30,50,0,0
4.1052e+05,1.6384e+08,3,5327,5542,15.07,2.94,30,50,0,0
4.1096e+05,1.6395e+08,3,5547,5614,15.1,2.89,29,50,0,0
4.1141e+05,1.6406e+08,3,5627,5900,15.04,3.9,30,50,0,0
4.1181e+05,1.6417e+08,3,5901,6014,15.02,3.88,29,50,0,0
4.1226e+05,1.6428e+08,3,6016,6185,15.01,3.99,30,50,0,0
4.1271e+05,1.6439e+08,3,6175,6057,15.06,3.42,29,50,0,0
4.1316e+05,1.645e+08,3,6048,5971,15.11,3.43,30,50,0,0
4.1357e+05,1.646e+08,3,5967,5928,15.16,3.12,29,51,0,0
4.1402e+05,1.6472e+08,3,5916,5828,15.13,2.97,30,51,0,0
4.1446e+05,1.6483e+08,3,5831,5885,15.15,2.99,29,51,0,0
4.1486e+05,1.6493e+08,3,5873,5771,15.1,3.16,29,51,0,0
4.1531e+05,1.6503e+08,3,5769,5757,15.06,2.86,30,51,0,0
4.1572e+05,1.6514e+08,3,5751,5628,15.05,3.3,30,51,0,0
4.1617e+05,1.6525e+08,3,5631,5800,15.07,3.34,30,51,0,0
4.1665e+05,1.6536e+08,3,5813,6000,15.06,3.42,30,51,0,0
4.1711e+05,1.6548e+08,3,5986,5900,15.1,3.35,30,51,0,0
4.175e+05,1.6558e+08,3,5897,5771,15.06,3.06,30,51,0,0
4.18e+05,1.657e+08,3,5748,5528,15.06,2.83,30,52,0,0
4.184e+05,1.658e+08,3,5529,5657,15.13,2.7,30,52,0,0
4.1889e+05,1.6592e+08,3,5638,5457,15.14,2.85,30,52,0,0
4.193e+05,1.6602e+08,3,5464,5571,15.12,3.01,30,52,0,0
4.1974e+05,1.6613e+08,3,5583,5700,15.08,3.17,30,52,0,0
4.2019e+05,1.6624e+08,3,5701,5728,15.11,3.2,30,52,0,0
4.2064e+05,1.6636e+08,3,5717,5600,15.14,3.05,30,52,0,0
4.2105e+05,1.6646e+08,3,5602,5828,15.15,3.17,30,52,0,0
4.2153e+05,1.6658e+08,3,5820,5714,15.13,3.14,30,52,0,0
4.2194e+05,1.6668e+08,3,5725,5928,15.11,3.14,30,52,0,0
4.2238e+05,1.6679e+08,3,5916,5757,15.17,3.45,30,52,0,0
4.2283e+05,1.669e+08,3,5768,5914,15.1,3.14,30,53,0,0
4.2328e+05,1.6701e+08,3,5910,5871,15.1,3.1,30,53,0,0
4.2421e+05,1.6723e+08,3,5866,5742,15.1,3.25,30,53,0,0
4.2462e+05,1.6734e+08,3,5735,5685,15.13,3.11,30,53,0,0
4.2503e+05,1.6744e+08,3,5685,5700,15.15,2.97,30,53,0,0
4.2588e+05,1.6765e+08,3,5700,5785,15.05,3.33,30,53,0,0
4.2632e+05,1.6776e+08,3,5783,5742,15.11,3.05,30,53,0,0
4.2677e+05,1.6787e+08,3,5741,5685,15.11,2.72,30,53,0,0
4.2721e+05,1.6798e+08,3,5685,5685,15.05,3.06,30,54,0,0
4.2766e+05,1.6809e+08,3,5684,5657,15.07,2.97,30,54,0,0
4.281e+05,1.682e+08,3,5652,5557,15.09,2.85,30,54,0,0
4.2851e+05,1.683e+08,3,5555,5542,15.07,2.91,30,54,0,0
4.2941e+05,1.6853e+08,3,5548,5728,15.15,2.97,30,54,0,0
4.2981e+05,1.6863e+08,3,5726,5642,15.08,2.8,30,54,0,0
4.303e+05,1.6875e+08,3,5638,5600,15.08,2.79,30,54,0,0
4.3071e+05,1.6885e+08,3,5599,5585,15.08,2.98,30,54,0,0
4.3116e+05,1.6896e+08,3,5585,5614,15.1,2.73,30,54,0,0
4.3165e+05,1.6908e+08,3,5596,5428,15.14,2.56,30,54,0,0
4.3205e+05,1.6918e+08,3,5441,5614,15.12,2.91,30,54,0,0
4.325e+05,1.6929e+08,3,5613,5600,15.1,2.87,30,55,0,0
4.3295e+05,1.694e+08,3,5609,5700,15.03,3.05,30,55,0,0
4.3339e+05,1.6951e+08,3,5708,5785,15,3.06,30,55,0,0
4.3384e+05,1.6962e+08,3,5807,6042,14.99,3.68,30,55,0,0
4.3429e+05,1.6973e+08,3,6044,6071,15.01,3.74,30,55,0,0
4.3473e+05,1.6984e+08,3,6071,6071,14.91,3.85,30,55,0,0
4.3514e+05,1.6994e+08,3,6074,6285,14.96,3.65,30,55,0,0
4.3558e+05,1.7004e+08,3,6276,6100,14.95,3.5,30,55,0,0
4.3606e+05,1.7016e+08,3,6101,6128,14.97,3.57,30,55,0,0
4.3647e+05,1.7026e+08,3,6128,6142,14.99,3.89,30,56,0,0
4.3692e+05,1.7037e+08,3,6138,6085,15.03,3.11,30,56,0,0
4.3737e+05,1.7048e+08,3,6081,6042,15.01,3.33,30,56,0,0
4.3781e+05,1.7059e+08,3,6025,5800,14.98,3.03,30,56,0,0
4.3867e+05,1.708e+08,3,5799,5742,15.1,2.87,30,56,0,0
4.3916e+05,1.7092e+08,3,5727,5571,15.08,2.83,30,56,0,0
4.3957e+05,1.7102e+08,3,5574,5671,15.09,2.77,30,56,0,0
4.4005e+05,1.7114e+08,3,5671,5671,15.06,2.94,30,56,0,0
4.4045e+05,1.7124e+08,3,5676,5785,15.06,3.4,30,56,0,0
4.409e+05,1.7135e+08,3,5781,5728,15.06,3.04,30,56,0,0
4.4135e+05,1.7146e+08,3,5724,5671,15.15,2.94,30,57,0,0
4.4179e+05,1.7157e+08,3,5667,5628,15.05,2.73,30,57,0,0
4.422e+05,1.7167e+08,3,5627,5614,15.04,3.02,30,57,0,0
4.4268e+05,1.7178e+08,3,5618,5685,15.07,2.77,30,57,0,0
4.4313e+05,1.7189e+08,3,5669,5300,15.2,2.3,30,57,0,0
4.4358e+05,1.7201e+08,3,5297,5271,15.17,2.58,30,57,0,0
4.4402e+05,1.7212e+08,3,5271,5285,15.14,2.63,30,57,0,0
4.4446e+05,1.7223e+08,3,5300,5442,15.08,2.8,30,57,0,0
4.4491e+05,1.7234e+08,3,5426,5285,15.05,2.48,30,57,0,0
4.4531e+05,1.7244e+08,3,5285,5300,15.1,2.51,30,57,0,0
4.4621e+05,1.7266e+08,3,5302,5442,15.08,2.64,30,57,0,0
4.4665e+05,1.7277e+08,3,5439,5414,15.08,2.86,30,58,0,0
4.471e+05,1.7288e+08,3,5425,5614,15.04,3.18,30,58,0,0
4.4754e+05,1.7299e+08,3,5625,5728,15.08,2.92,30,58,0,0
4.48e+05,1.7311e+08,3,5709,5585,15.08,2.66,30,58,0,0
4.4843e+05,1.7321e+08,3,5569,5428,15.07,2.73,30,58,0,0
4.4888e+05,1.7332e+08,3,5419,5342,15.1,2.57,30,58,0,0
4.4928e+05,1.7342e+08,3,5340,5271,15.14,2.47,30,58,0,0
4.5062e+05,1.7375e+08,3,5267,5014,15.11,2.2,30,58,0,0
4.5107e+05,1.7387e+08,3,5015,5128,15.04,2.55,30,58,0,0
4.5196e+05,1.7409e+08,3,5129,5171,15.08,2.03,30,58,0,0
4.5237e+05,1.7419e+08,3,5173,5271,15.09,2.78,30,58,0,0
4.5282e+05,1.743e+08,3,5269,5242,15.04,2.57,30,59,0,0
4.5327e+05,1.7442e+08,3,5247,5300,15.01,2.32,30,59,0,0
4.5368e+05,1.7452e+08,3,5295,5171,15.05,2.19,30,59,0,0
4.5461e+05,1.7475e+08,3,5158,4857,15.13,1.9,30,59,0,0
4.5551e+05,1.7497e+08,3,4845,4614,15.14,1.6,30,59,0,0
4.5592e+05,1.7507e+08,3,4611,4585,15.14,1.65,30,59,0,0
4.5636e+05,1.7519e+08,3,4590,4657,15.17,1.83,30,59,0,0
4.5677e+05,1.7529e+08,3,4660,4857,15.08,2.24,30,59,0,0
4.5721e+05,1.7539e+08,3,4863,5014,15.08,2.39,30,59,0,0
4.5769e+05,1.755e+08,3,5018,5114,15.18,2.28,30,59,0,0
4.581e+05,1.7561e+08,3,5114,5114,15.19,2.56,30,59,0,0
4.5855e+05,1.7572e+08,3,5114,5114,15.12,2.22,30,59,0,0
4.5896e+05,1.7582e+08,3,5118,5214,15.12,2.34,30,60,0,0
4.5942e+05,1.7594e+08,3,5209,5114,15.07,2.3,30,60,0,0
4.5986e+05,1.7604e+08,3,5119,5342,15.08,2.59,30,60,0,0
4.603e+05,1.7615e+08,3,5333,5142,15.13,2.21,30,60,0,0
4.608e+05,1.7627e+08,3,5135,5071,15.14,2.19,30,60,0,0
4.6124e+05,1.7638e+08,3,5062,4971,15.16,1.78,30,60,0,0
4.6169e+05,1.7649e+08,3,4974,5014,15.11,2.37,30,60,0,0
4.6214e+05,1.766e+08,3,5026,5157,15.1,2.44,30,60,0,0
4.6258e+05,1.7671e+08,3,5174,5342,15.1,2.73,30,60,0,0
4.6303e+05,1.7682e+08,3,5348,5414,15.16,2.65,30,60,0,0
4.6348e+05,1.7693e+08,3,5400,5300,15.09,2.62,30,60,0,0
4.6389e+05,1.7703e+08,3,5313,5514,15.07,2.82,30,60,0,0
4.6433e+05,1.7714e+08,3,5496,5242,15.05,2.43,30,60,0,0
4.6478e+05,1.7725e+08,3,5252,5371,15.1,2.57,30,60,0,0
4.6519e+05,1.7735e+08,3,5369,5357,15.03,2.64,30,61,0,0
4.6564e+05,1.7746e+08,3,5345,5228,15.1,2.42,30,61,0,0
4.6608e+05,1.7757e+08,3,5250,5485,14.99,2.96,30,61,0,0
4.6652e+05,1.7768e+08,3,5479,5428,15.07,2.5,30,61,0,0
4.6697e+05,1.7779e+08,3,5412,5242,15.11,2.74,30,61,0,0
4.6738e+05,1.7789e+08,3,5249,5414,15.12,2.39,29,61,0,0
4.6783e+05,1.78e+08,3,5403,5257,15.13,2.55,30,61,0,0
4.6828e+05,1.7811e+08,3,5253,5214,15.12,2.35,30,61,0,0
4.6872e+05,1.7822e+08,3,5219,5271,15.14,2.29,30,61,0,0
4.6913e+05,1.7833e+08,3,5249,4971,15.17,1.94,30,61,0,0
4.6957e+05,1.7843e+08,3,4959,4800,15.17,1.34,30,61,0,0
4.6998e+05,1.7854e+08,3,4795,4542,15.17,1.78,30,61,0,0
4.7046e+05,1.7865e+08,3,4557,4757,15.13,1.92,30,61,0,0
4.7091e+05,1.7876e+08,3,4783,5128,15.16,2.29,30,61,0,0
4.7136e+05,1.7887e+08,3,5120,5014,15.16,1.84,30,61,0,0
4.718e+05,1.7898e+08,3,5008,4957,15.2,1.92,30,62,0,0
4.7224e+05,1.7909e+08,3,4961,5014,15.15,2.29,30,62,0,0
4.7269e+05,1.7919e+08,3,5016,5157,15.19,2.26,30,62,0,0
4.7361e+05,1.7941e+08,3,5155,5128,15.14,2.43,29,62,0,0
4.7402e+05,1.7952e+08,3,5128,5128,15.14,2.37,30,62,0,0
4.7446e+05,1.7963e+08,3,5131,5242,15.14,2.54,30,62,0,0
4.7491e+05,1.7974e+08,3,5243,5371,15.14,2.84,30,62,0,0
4.7536e+05,1.7985e+08,3,5365,5300,15.14,2.1,30,62,0,0
4.758e+05,1.7996e+08,3,5291,5200,15.16,2.51,30,62,0,0
4.7624e+05,1.8007e+08,3,5192,5128,15.2,2.29,30,62,0,0
4.7669e+05,1.8017e+08,3,5143,5300,15.19,2.75,30,62,0,0
4.7714e+05,1.8029e+08,3,5300,5300,15.29,2.02,30,62,0,0
4.7755e+05,1.8039e+08,3,5306,5371,15.27,2.35,30,62,0,0
4.78e+05,1.8051e+08,3,5361,5300,15.18,2.38,29,63,0,0
4.784e+05,1.8061e+08,3,5309,5414,15.16,2.76,30,63,0,0
4.7929e+05,1.8083e+08,3,5419,5714,15.14,2.82,30,63,0,0
4.7974e+05,1.8093e+08,3,5714,5714,15.17,2.92,30,63,0,0
4.8018e+05,1.8104e+08,3,5710,5571,15.12,2.96,30,63,0,0
4.8062e+05,1.8116e+08,3,5566,5500,15.1,2.79,29,63,0,0
4.8108e+05,1.8127e+08,3,5488,5385,15.09,2.25,29,63,0,0
4.8149e+05,1.8137e+08,3,5379,5300,15.13,2.36,30,63,0,0
4.8194e+05,1.8148e+08,3,5294,5257,15.12,2.26,30,63,0,0
4.8238e+05,1.8159e+08,3,5249,5171,15.09,2.46,30,63,0,0
4.8283e+05,1.817e+08,3,5165,5114,15.14,2.11,30,63,0,0
4.8319e+05,1.8179e+08,3,5112,5000,15.08,1.84,30,63,0,0
4.8368e+05,1.8191e+08,3,4998,4985,15.07,2.1,30,64,0,0
4.8413e+05,1.8202e+08,3,4983,4971,15.11,2.1,30,64,0,0
4.8457e+05,1.8212e+08,3,4964,4900,15.03,1.79,30,64,0,0
4.8502e+05,1.8223e+08,3,4904,4942,15.07,2.17,30,64,0,0
4.8543e+05,1.8233e+08,3,4944,4985,15.08,2.38,29,64,0,0
4.8587e+05,1.8245e+08,3,5002,5157,15.09,2.38,30,64,0,0
4.8632e+05,1.8255e+08,3,5159,5228,15.14,2.48,30,64,0,0
4.8676e+05,1.8266e+08,3,5232,5328,15.11,2.59,30,64,0,0
4.8717e+05,1.8277e+08,3,5328,5357,15.15,2.78,29,64,0,0
4.8766e+05,1.8288e+08,3,5355,5285,15.09,2.29,30,64,0,0
4.881e+05,1.8299e+08,3,5285,5328,15.1,2.6,30,64,0,0
4.8859e+05,1.8311e+08,3,5328,5328,15.16,2.67,30,64,0,0
4.89e+05,1.8321e+08,3,5334,5400,15.08,2.47,30,64,0,0
4.8944e+05,1.8332e+08,3,5387,5257,15.13,2.63,30,64,0,0
4.8985e+05,1.8342e+08,3,5261,5528,15.11,2.55,29,65,0,0
4.9033e+05,1.8354e+08,3,5525,5485,15.15,2.89,30,65,0,0
4.9078e+05,1.8365e+08,3,5471,5300,15.13,2.66,30,65,0,0
4.9123e+05,1.8376e+08,3,5310,5428,15.05,2.74,29,65,0,0
4.9163e+05,1.8386e+08,3,5428,5442,15.13,2.62,30,65,0,0
4.9252e+05,1.8408e+08,3,5446,5557,15.1,2.74,30,65,0,0
4.9297e+05,1.8419e+08,3,5541,5371,15.13,2.58,30,65,0,0
4.9337e+05,1.8429e+08,3,5365,4957,15.15,1.87,29,65,0,0
4.9381e+05,1.844e+08,3,4958,5028,15.06,2.33,30,65,0,0
4.9431e+05,1.8452e+08,3,5047,5214,15.17,2.6,30,65,0,0
4.9476e+05,1.8463e+08,3,5207,5142,15.06,2.17,29,65,0,0
4.952e+05,1.8474e+08,3,5135,5071,15.03,2.3,30,65,0,0
4.9561e+05,1.8483e+08,3,5070,5057,15.04,2,29,66,0,0
4.9606e+05,1.8495e+08,3,5050,4928,15.13,1.97,30,66,0,0
4.965e+05,1.8506e+08,3,4926,4885,15,2.12,30,66,0,0
4.9695e+05,1.8517e+08,3,4873,4657,15.11,1.66,29,66,0,0
4.974e+05,1.8528e+08,3,4678,4914,15.13,2.07,30,66,0,0
4.9781e+05,1.8538e+08,3,4913,4900,15.11,2.15,30,66,0,0
4.9825e+05,1.8549e+08,3,4904,5014,15.11,2.15,30,66,0,0
4.987e+05,1.856e+08,3,5015,5042,15.12,2.24,29,66,0,0
4.9915e+05,1.8571e+08,3,5047,5128,15.11,2.46,30,66,0,0
5.0048e+05,1.8603e+08,3,5131,5271,15.15,2.28,30,66,0,0
5.0092e+05,1.8614e+08,3,5270,5257,15.03,2.63,30,66,0,0
5.0137e+05,1.8625e+08,3,5262,5342,15.1,2.6,30,66,0,0
5.0181e+05,1.8635e+08,3,5338,5228,15.17,2.33,29,66,0,0
5.0227e+05,1.8647e+08,3,5242,5385,15.05,2.46,30,67,0,0
5.0271e+05,1.8658e+08,3,5380,5300,15.11,2.54,30,67,0,0
5.0316e+05,1.8669e+08,3,5300,5300,15.11,2.5,30,67,0,0
5.0361e+05,1.868e+08,3,5303,5342,15.05,2.56,30,67,0,0
5.0406e+05,1.8691e+08,3,5342,5342,15.08,2.48,30,67,0,0
5.045e+05,1.8702e+08,3,5326,5100,15.13,2.33,29,67,0,0
5.0495e+05,1.8713e+08,3,5103,5128,15.13,2.07,30,67,0,0
5.054e+05,1.8723e+08,3,5118,4985,15.11,2,29,67,0,0
5.0585e+05,1.8734e+08,3,4991,5100,15.11,2.14,30,67,0,0
5.0629e+05,1.8745e+08,3,5098,4985,15.08,2.16,30,67,0,0
5.0673e+05,1.8756e+08,3,4983,4957,15.13,2.02,29,67,0,0
5.0718e+05,1.8767e+08,3,4963,5057,15.16,2.41,30,67,0,0
5.0759e+05,1.8777e+08,3,5058,5142,15.1,2.23,30,67,0,0
5.0808e+05,1.8789e+08,3,5156,5300,15.17,2.3,30,67,0,0
5.0852e+05,1.88e+08,3,5264,4900,15.17,1.73,30,68,0,0
5.0893e+05,1.8809e+08,3,4899,4857,15.16,1.79,30,68,0,0
5.094e+05,1.8821e+08,3,4861,4914,15.14,1.96,29,68,0,0
5.0989e+05,1.8832e+08,3,4907,4871,15.14,1.92,30,68,0,0
5.1029e+05,1.8842e+08,3,4870,4857,15.11,1.76,30,68,0,0
5.1074e+05,1.8853e+08,3,4852,4742,15.16,1.87,30,68,0,0
5.1122e+05,1.8865e+08,3,4743,4757,15.13,1.85,30,68,0,0
5.1167e+05,1.8876e+08,3,4745,4642,15.17,1.25,30,68,0,0
5.1212e+05,1.8887e+08,3,4619,4471,15.07,1.48,30,68,0,0
5.1256e+05,1.8898e+08,3,4477,4542,15.09,1.46,30,68,0,0
5.13e+05,1.8908e+08,3,4531,4414,15.13,1.47,30,68,0,0
5.1341e+05,1.8918e+08,3,4421,4728,15.36,2.04,29,68,0,0
5.1386e+05,1.8929e+08,3,4644,3642,15.16,0.69,30,68,0,0
5.1431e+05,1.894e+08,3,3636,3514,15.36,0.81,30,68,0,0
5.1476e+05,1.8952e+08,3,3515,3528,15.39,0.96,30,68,0,0
5.152e+05,1.8963e+08,3,3508,3300,15.38,0.74,30,68,0,0
5.1564e+05,1.8974e+08,3,3251,2842,15.41,0.39,30,68,0,0
5.1609e+05,1.8984e+08,3,2812,2585,15.54,0.43,30,68,0,0
5.1654e+05,1.8995e+08,3,2565,2314,15.58,0.21,30,68,0,0
5.1699e+05,1.9006e+08,3,2304,2200,15.54,0.21,29,68,0,0
5.1743e+05,1.9017e+08,3,2187,2057,15.55,0.17,29,68,0,0
5.1788e+05,1.9028e+08,3,2060,2100,15.55,0.22,30,68,0,0
5.1828e+05,1.9038e+08,3,2099,2071,15.56,0.22,30,68,0,0
5.1874e+05,1.9049e+08,3,2074,2100,15.53,0.26,30,68,0,0
5.1918e+05,1.906e+08,3,2101,2114,15.57,0.22,29,68,0,0
5.1959e+05,1.907e+08,3,2113,2085,15.55,0.27,29,68,0,0
5.2007e+05,1.9082e+08,3,2083,2071,15.57,0.26,29,68,0,0
5.2048e+05,1.9092e+08,3,2069,2028,15.57,0.22,29,68,0,0
5.2096e+05,1.9103e+08,3,2028,2028,15.56,0.21,30,68,0,0
5.2138e+05,1.9114e+08,3,2028,2042,15.58,0.23,29,68,0,0
5.2182e+05,1.9124e+08,3,2042,2042,15.56,0.22,30,68,0,0
5.2226e+05,1.9135e+08,3,2042,2042,15.56,0.23,29,68,0,0
5.2267e+05,1.9145e+08,3,2042,2042,15.57,0.23,29,68,0,0
5.2312e+05,1.9156e+08,3,2042,2042,15.58,0.24,29,68,0,0
5.2357e+05,1.9167e+08,3,2034,1957,15.66,0.09,30,68,0,0
5.2402e+05,1.9178e+08,3,1921,1600,15.65,0.01,29,68,0,0
5.2446e+05,1.9188e+08,3,1592,1357,15.63,0.04,29,68,0,0
5.249e+05,1.9199e+08,3,1355,1300,15.63,0.09,29,68,0,0
5.258e+05,1.922e+08,3,1299,1271,15.63,0.1,29,68,0,0
5.2625e+05,1.9232e+08,3,1271,1271,15.63,0.1,29,68,0,0
5.267e+05,1.9242e+08,3,1271,1271,15.64,0.1,29,68,0,0
5.2715e+05,1.9254e+08,3,1271,1271,15.64,0.1,29,68,0,0
5.2756e+05,1.9264e+08,3,1271,1271,15.64,0.1,29,68,0,0
5.2889e+05,1.9296e+08,3,1271,1271,15.65,0.1,29,68,0,0
5.2938e+05,1.9307e+08,3,1271,1271,15.65,0.1,29,68,0,0
5.2983e+05,1.9319e+08,3,1271,1271,15.65,0.1,29,68,0,0
5.3027e+05,1.9329e+08,3,1241,471,15.66,0,29,68,0,0
5.3071e+05,1.934e+08,3,464,0,15.67,0,29,68,0,0
5.3121e+05,1.9351e+08,3,0,0,15.67,0.03,29,68,0,0
5.3165e+05,1.9362e+08,3,0,0,15.67,0.03,29,68,0,0
5.3215e+05,1.9373e+08,3,0,0,15.67,0.03,29,68,0,0
5.326e+05,1.9384e+08,3,0,0,15.67,0.03,29,68,0,0
5.335e+05,1.9405e+08,3,0,0,15.68,0.03,29,68,0,0
5.3441e+05,1.9427e+08,3,0,0,15.68,0.03,29,68,0,0
5.3482e+05,1.9437e+08,3,0,0,15.69,0.03,29,68,0,0
5.3528e+05,1.9448e+08,3,0,0,15.68,0.04,29,68,0,0
5.3622e+05,1.947e+08,3,0,0,15.69,0.04,29,68,0,0
5.3667e+05,1.9481e+08,3,0,0,15.69,0.03,29,68,0,0
5.3712e+05,1.9492e+08,3,0,0,15.69,0.03,29,68,0,0
5.3757e+05,1.9502e+08,3,0,0,15.69,0.03,29,68,0,0
5.3803e+05,1.9513e+08,3,0,0,15.69,0.03,29,68,0,0
5.3852e+05,1.9525e+08,3,0,0,15.69,0.03,29,68,0,0
5.3894e+05,1.9535e+08,3,0,0,15.69,0.03,29,68,0,0
5.3943e+05,1.9546e+08,3,0,0,15.7,0.03,29,68,0,0
5.3988e+05,1.9557e+08,3,0,0,15.7,0.03,29,68,0,0
5.403e+05,1.9568e+08,3,0,0,15.7,0.03,29,68,0,0
5.408e+05,1.9579e+08,3,0,0,15.7,0.03,29,68,0,0
5.4125e+05,1.959e+08,3,0,0,15.7,0.03,29,68,0,0
5.417e+05,1.9601e+08,3,0,0,15.7,0.03,29,68,0,0
5.422e+05,1.9613e+08,3,0,0,15.7,0.03,29,68,0,0
5.426e+05,1.9622e+08,3,0,0,15.7,0.03,29,68,0,0
5.431e+05,1.9634e+08,3,0,0,15.71,0.03,29,68,0,0
5.4355e+05,1.9644e+08,3,0,0,15.7,0.03,29,68,0,0
5.4405e+05,1.9656e+08,3,0,0,15.7,0.03,29,68,0,0
5.4451e+05,1.9667e+08,3,0,0,15.71,0.03,29,68,0,0
5.4492e+05,1.9677e+08,3,0,0,15.71,0.03,29,68,0,0
