LineNo,TimeUS,Instance,RPM,RawRPM,Volt,Curr,Temp,CTot,MotTemp,Err
1514,6.4666e+07,1,0,0,16.23,0.04,26,0,0,0
1934,6.4774e+07,1,0,0,16.23,0.04,26,0,0,0
2351,6.4877e+07,1,0,0,16.23,0.04,26,0,0,0
2766,6.4988e+07,1,0,0,16.23,0.04,26,0,0,0
3219,6.51e+07,1,0,0,16.23,0.04,26,0,0,0
3627,6.5203e+07,1,0,0,16.23,0.04,26,0,0,0
4086,6.5319e+07,1,0,0,16.23,0.04,26,0,0,0
4508,6.5425e+07,1,0,0,16.23,0.04,26,0,0,0
4915,6.5528e+07,1,0,0,16.23,0.04,26,0,0,0
5368,6.564e+07,1,0,0,16.23,0.04,26,0,0,0
5784,6.5749e+07,1,0,0,16.23,0.04,26,0,0,0
6198,6.5851e+07,1,0,0,16.23,0.04,26,0,0,0
7021,6.6059e+07,1,0,0,16.22,0.04,26,0,0,0
7465,6.6168e+07,1,0,0,16.23,0.04,26,0,0,0
8872,6.6493e+07,1,0,0,16.23,0.04,26,0,0,0
9359,6.6601e+07,1,0,0,16.23,0.04,26,0,0,0
9858,6.6719e+07,1,0,0,16.23,0.04,26,0,0,0
10316,6.6825e+07,1,0,0,16.23,0.04,26,0,0,0
10771,6.6933e+07,1,0,0,16.23,0.04,26,0,0,0
11224,6.7034e+07,1,0,0,16.23,0.04,26,0,0,0
11717,6.7149e+07,1,0,0,16.23,0.04,26,0,0,0
12172,6.725e+07,1,0,0,16.23,0.04,26,0,0,0
12623,6.7359e+07,1,0,0,16.22,0.04,26,0,0,0
13123,6.7473e+07,1,0,0,16.23,0.04,26,0,0,0
13570,6.7579e+07,1,0,0,16.22,0.04,26,0,0,0
14022,6.7681e+07,1,0,0,16.23,0.04,26,0,0,0
14478,6.779e+07,1,0,0,16.23,0.03,26,0,0,0
14930,6.7894e+07,1,0,0,16.23,0.04,26,0,0,0
15425,6.8011e+07,1,0,0,16.23,0.03,26,0,0,0
16337,6.8224e+07,1,6,185,16.22,0.03,26,0,0,0
16789,6.833e+07,1,209,571,16.21,0.09,26,0,0,0
17293,6.8446e+07,1,612,971,16.17,0.15,26,0,0,0
17702,6.8544e+07,1,981,1214,16.21,0.12,26,0,0,0
18155,6.8648e+07,1,1214,1257,16.21,0.11,26,0,0,0
18652,6.8764e+07,1,1259,1285,16.21,0.11,26,0,0,0
19105,6.8868e+07,1,1286,1300,16.21,0.11,26,0,0,0
19556,6.8974e+07,1,1300,1300,16.22,0.11,26,0,0,0
20055,6.9085e+07,1,1300,1300,16.22,0.11,26,0,0,0
20292,6.9194e+07,1,1300,1300,16.22,0.11,26,0,0,0
20746,6.9296e+07,1,1300,1300,16.21,0.11,26,0,0,0
21203,6.9403e+07,1,1300,1314,16.21,0.11,26,0,0,0
21656,6.9512e+07,1,1313,1300,16.2,0.11,26,0,0,0
22147,6.962e+07,1,1300,1300,16.22,0.11,26,0,0,0
22608,6.9731e+07,1,1300,1300,16.21,0.1,26,0,0,0
23108,6.9847e+07,1,1300,1300,16.21,0.11,26,0,0,0
23516,6.9943e+07,1,1300,1300,16.2,0.1,26,0,0,0
24013,7.0055e+07,1,1300,1300,16.22,0.1,26,0,0,0
24503,7.0167e+07,1,1301,1314,16.21,0.1,26,0,0,0
24958,7.0269e+07,1,1314,1314,16.22,0.11,26,0,0,0
25412,7.0375e+07,1,1313,1300,16.21,0.1,26,0,0,0
25910,7.0489e+07,1,1300,1300,16.22,0.11,26,0,0,0
26363,7.0596e+07,1,1300,1300,16.21,0.1,26,0,0,0
26862,7.0707e+07,1,1300,1314,16.21,0.1,26,0,0,0
27275,7.0808e+07,1,1314,1314,16.2,0.1,27,0,0,0
27772,7.0921e+07,1,1314,1314,16.22,0.1,26,0,0,0
28185,7.1022e+07,1,1314,1314,16.22,0.1,26,0,0,0
28677,7.1135e+07,1,1314,1314,16.22,0.1,26,0,0,0
29132,7.1238e+07,1,1313,1300,16.21,0.11,26,0,0,0
29590,7.1349e+07,1,1300,1300,16.21,0.1,26,0,0,0
30047,7.1453e+07,1,1300,1300,16.21,0.11,26,0,0,0
30541,7.1567e+07,1,1300,1300,16.21,0.1,26,0,0,0
30995,7.1667e+07,1,1300,1300,16.21,0.11,26,0,0,0
31451,7.1776e+07,1,1300,1314,16.21,0.1,26,0,0,0
31949,7.1888e+07,1,1312,1300,16.21,0.1,26,0,0,0
32405,7.1998e+07,1,1300,1300,16.2,0.1,26,0,0,0
32857,7.2101e+07,1,1300,1314,16.2,0.1,26,0,0,0
33352,7.2217e+07,1,1312,1300,16.21,0.1,26,0,0,0
33763,7.2315e+07,1,1300,1300,16.21,0.11,27,0,0,0
34259,7.2428e+07,1,1300,1300,16.2,0.11,27,0,0,0
34716,7.254e+07,1,1300,1300,16.2,0.1,26,0,0,0
35173,7.2644e+07,1,1300,1300,16.2,0.11,27,0,0,0
35632,7.2755e+07,1,1300,1314,16.2,0.1,27,0,0,0
36086,7.2859e+07,1,1313,1300,16.21,0.1,27,0,0,0
36537,7.2965e+07,1,1300,1300,16.21,0.1,27,0,0,0
37034,7.3078e+07,1,1300,1300,16.21,0.1,27,0,0,0
37523,7.3186e+07,1,1300,1300,16.2,0.1,27,0,0,0
37976,7.3288e+07,1,1300,1300,16.2,0.11,27,0,0,0
38430,7.3397e+07,1,1300,1314,16.21,0.11,27,0,0,0
38931,7.3515e+07,1,1314,1314,16.2,0.11,27,0,0,0
39339,7.3611e+07,1,1314,1314,16.2,0.1,27,0,0,0
39800,7.3719e+07,1,1313,1300,16.21,0.11,27,0,0,0
40297,7.383e+07,1,1300,1300,16.2,0.11,27,0,0,0
40750,7.3937e+07,1,1300,1300,16.2,0.1,27,0,0,0
41247,7.4051e+07,1,1300,1300,16.21,0.1,27,0,0,0
41699,7.4158e+07,1,1301,1314,16.2,0.1,27,0,0,0
42154,7.426e+07,1,1313,1300,16.21,0.1,27,0,0,0
42605,7.4368e+07,1,1300,1314,16.21,0.1,27,0,0,0
43105,7.4484e+07,1,1314,1314,16.2,0.1,27,0,0,0
43558,7.4589e+07,1,1314,1314,16.2,0.1,27,0,0,0
44013,7.4691e+07,1,1314,1314,16.21,0.1,27,0,0,0
44469,7.4798e+07,1,1314,1314,16.21,0.1,27,0,0,0
44969,7.4917e+07,1,1314,1314,16.21,0.1,27,0,0,0
45381,7.5012e+07,1,1314,1314,16.2,0.1,27,0,0,0
45873,7.5125e+07,1,1314,1314,16.21,0.1,27,0,0,0
46330,7.5228e+07,1,1314,1314,16.21,0.1,27,0,0,0
46821,7.5342e+07,1,1312,1300,16.2,0.1,27,0,0,0
47276,7.5446e+07,1,1300,1300,16.21,0.1,27,0,0,0
47732,7.5554e+07,1,1300,1300,16.2,0.1,27,0,0,0
48191,7.5658e+07,1,1300,1300,16.2,0.11,27,0,0,0
48644,7.5764e+07,1,1300,1314,16.21,0.1,27,0,0,0
49143,7.5877e+07,1,1314,1314,16.21,0.1,27,0,0,0
49598,7.5986e+07,1,1314,1314,16.22,0.1,27,0,0,0
50036,7.609e+07,1,1297,414,16.22,0,27,0,0,0
50533,7.6209e+07,1,396,214,16.22,0.03,27,0,0,0
50988,7.6312e+07,1,206,0,16.22,0.03,27,0,0,0
51479,7.6427e+07,1,0,0,16.22,0.03,27,0,0,0
51892,7.6529e+07,1,0,0,16.23,0.04,27,0,0,0
52349,7.6637e+07,1,0,0,16.22,0.03,27,0,0,0
52802,7.6745e+07,1,0,0,16.23,0.03,26,0,0,0
53303,7.6865e+07,1,0,0,16.22,0.03,27,0,0,0
53756,7.6972e+07,1,0,0,16.23,0.03,27,0,0,0
54207,7.7078e+07,1,0,0,16.22,0.03,27,0,0,0
54665,7.7188e+07,1,0,0,16.22,0.03,27,0,0,0
55117,7.7292e+07,1,0,0,16.22,0.03,27,0,0,0
55564,7.7398e+07,1,0,0,16.22,0.03,27,0,0,0
56021,7.7509e+07,1,0,0,16.22,0.03,27,0,0,0
56519,7.7624e+07,1,0,0,16.22,0.03,27,0,0,0
56931,7.7724e+07,1,0,0,16.22,0.04,27,0,0,0
57385,7.7828e+07,1,0,0,16.22,0.04,27,0,0,0
57834,7.7935e+07,1,0,0,16.22,0.04,27,0,0,0
58335,7.8052e+07,1,0,0,16.23,0.04,27,0,0,0
58748,7.8154e+07,1,0,0,16.23,0.03,26,0,0,0
59245,7.8267e+07,1,0,0,16.23,0.04,26,0,0,0
60151,7.8482e+07,1,0,0,16.22,0.04,26,0,0,0
60603,7.8591e+07,1,0,0,16.23,0.03,26,0,0,0
61103,7.8707e+07,1,0,0,16.22,0.03,27,0,0,0
61555,7.8812e+07,1,0,0,16.22,0.04,27,0,0,0
62010,7.8922e+07,1,0,0,16.22,0.04,27,0,0,0
62462,7.9025e+07,1,0,0,16.22,0.04,27,0,0,0
62920,7.9138e+07,1,0,0,16.22,0.04,27,0,0,0
63373,7.9244e+07,1,0,0,16.23,0.04,27,0,0,0
63596,7.9354e+07,1,0,0,16.22,0.04,27,0,0,0
64092,7.9468e+07,1,0,0,16.22,0.04,27,0,0,0
64543,7.9576e+07,1,0,0,16.22,0.03,27,0,0,0
64998,7.9679e+07,1,0,0,16.22,0.04,27,0,0,0
65457,7.9793e+07,1,0,0,16.22,0.04,27,0,0,0
65916,7.9898e+07,1,0,0,16.22,0.03,27,0,0,0
66367,8.0007e+07,1,0,0,16.22,0.04,27,0,0,0
66864,8.0125e+07,1,0,0,16.22,0.03,27,0,0,0
67318,8.0229e+07,1,0,0,16.23,0.04,27,0,0,0
67768,8.0336e+07,1,0,0,16.22,0.04,27,0,0,0
68267,8.0454e+07,1,0,0,16.22,0.04,27,0,0,0
68713,8.0557e+07,1,0,0,16.22,0.03,27,0,0,0
69215,8.0675e+07,1,0,0,16.23,0.04,27,0,0,0
69626,8.0776e+07,1,0,0,16.22,0.04,27,0,0,0
70080,8.0881e+07,1,0,0,16.22,0.04,27,0,0,0
70571,8.0995e+07,1,0,0,16.22,0.04,27,0,0,0
71072,8.1114e+07,1,0,0,16.22,0.04,27,0,0,0
71484,8.1209e+07,1,0,0,16.22,0.04,26,0,0,0
71976,8.1325e+07,1,0,0,16.22,0.04,27,0,0,0
72429,8.1432e+07,1,0,0,16.22,0.03,27,0,0,0
72880,8.154e+07,1,0,0,16.23,0.04,27,0,0,0
73381,8.1656e+07,1,0,0,16.23,0.04,27,0,0,0
73833,8.1765e+07,1,0,0,16.22,0.04,27,0,0,0
74287,8.187e+07,1,0,0,16.22,0.04,27,0,0,0
74779,8.1984e+07,1,0,0,16.22,0.04,27,0,0,0
75232,8.2088e+07,1,0,0,16.23,0.04,27,0,0,0
75730,8.2208e+07,1,0,0,16.22,0.04,27,0,0,0
76634,8.242e+07,1,0,0,16.22,0.04,27,0,0,0
77088,8.2531e+07,1,0,0,16.23,0.04,27,0,0,0
77545,8.2637e+07,1,0,0,16.23,0.04,27,0,0,0
77996,8.2744e+07,1,0,0,16.22,0.04,27,0,0,0
78497,8.2862e+07,1,0,0,16.22,0.04,27,0,0,0
78947,8.2969e+07,1,0,0,16.22,0.04,27,0,0,0
79448,8.3085e+07,1,0,0,16.22,0.04,27,0,0,0
79903,8.3194e+07,1,0,0,16.22,0.04,27,0,0,0
80354,8.3304e+07,1,0,0,16.23,0.03,27,0,0,0
80810,8.3411e+07,1,0,0,16.23,0.04,27,0,0,0
81258,8.3516e+07,1,0,0,16.23,0.04,27,0,0,0
81715,8.3622e+07,1,0,0,16.22,0.04,27,0,0,0
82171,8.3732e+07,1,0,0,16.22,0.04,27,0,0,0
82667,8.3846e+07,1,0,0,16.23,0.04,27,0,0,0
83115,8.3951e+07,1,0,0,16.23,0.04,27,0,0,0
83617,8.4065e+07,1,0,0,16.23,0.04,27,0,0,0
84065,8.4171e+07,1,0,0,16.23,0.04,27,0,0,0
84566,8.4284e+07,1,0,0,16.23,0.04,27,0,0,0
85018,8.4391e+07,1,0,0,16.23,0.04,27,0,0,0
85474,8.4499e+07,1,0,0,16.23,0.04,27,0,0,0
85929,8.4608e+07,1,0,0,16.23,0.04,27,0,0,0
86879,8.483e+07,1,0,0,16.22,0.04,27,0,0,0
87286,8.493e+07,1,0,0,16.22,0.04,27,0,0,0
87787,8.5044e+07,1,0,0,16.22,0.04,27,0,0,0
88237,8.5149e+07,1,0,0,16.23,0.04,27,0,0,0
88735,8.5265e+07,1,0,0,16.22,0.04,27,0,0,0
89185,8.5374e+07,1,0,0,16.23,0.03,27,0,0,0
89638,8.5477e+07,1,0,0,16.22,0.04,27,0,0,0
90591,8.5706e+07,1,0,0,16.23,0.03,27,0,0,0
91046,8.5815e+07,1,0,0,16.23,0.03,27,0,0,0
91454,8.5911e+07,1,0,0,16.23,0.04,27,0,0,0
91952,8.6028e+07,1,0,0,16.23,0.04,27,0,0,0
92403,8.6132e+07,1,0,0,16.22,0.04,27,0,0,0
92861,8.6238e+07,1,0,0,16.23,0.04,27,0,0,0
93316,8.6349e+07,1,0,0,16.22,0.04,27,0,0,0
93769,8.6454e+07,1,0,0,16.23,0.03,27,0,0,0
94263,8.6572e+07,1,0,0,16.22,0.04,27,0,0,0
94716,8.6676e+07,1,0,0,16.23,0.03,27,0,0,0
95167,8.6783e+07,1,0,0,16.22,0.03,27,0,0,0
95663,8.6897e+07,1,0,0,16.23,0.03,27,0,0,0
96119,8.7003e+07,1,0,0,16.23,0.04,27,0,0,0
96614,8.7116e+07,1,0,0,16.22,0.04,27,0,0,0
97069,8.722e+07,1,0,0,16.22,0.04,27,0,0,0
97520,8.7331e+07,1,0,0,16.22,0.03,27,0,0,0
97972,8.7434e+07,1,0,0,16.23,0.03,27,0,0,0
98432,8.7545e+07,1,0,0,16.22,0.04,27,0,0,0
98928,8.7661e+07,1,0,0,16.22,0.03,27,0,0,0
99369,8.7762e+07,1,0,0,16.22,0.03,27,0,0,0
99865,8.7876e+07,1,0,0,16.23,0.03,27,0,0,0
1.0032e+05,8.7984e+07,1,0,0,16.22,0.04,27,0,0,0
1.0082e+05,8.81e+07,1,0,0,16.22,0.03,27,0,0,0
1.0123e+05,8.8201e+07,1,0,0,16.22,0.03,27,0,0,0
1.0168e+05,8.8312e+07,1,0,0,16.22,0.03,27,0,0,0
1.0214e+05,8.8419e+07,1,0,0,16.23,0.03,27,0,0,0
1.0263e+05,8.8536e+07,1,0,0,16.22,0.04,27,0,0,0
1.0309e+05,8.8645e+07,1,0,0,16.22,0.04,27,0,0,0
1.0355e+05,8.8752e+07,1,0,0,16.22,0.03,27,0,0,0
1.0404e+05,8.8868e+07,1,0,0,16.22,0.04,27,0,0,0
1.045e+05,8.8977e+07,1,0,0,16.22,0.04,27,0,0,0
1.0495e+05,8.9079e+07,1,0,0,16.22,0.04,27,0,0,0
1.054e+05,8.9187e+07,1,0,0,16.22,0.03,27,0,0,0
1.0586e+05,8.9292e+07,1,0,0,16.22,0.03,27,0,0,0
1.0631e+05,8.9401e+07,1,0,0,16.22,0.03,27,0,0,0
1.0676e+05,8.9506e+07,1,0,0,16.22,0.03,27,0,0,0
1.0726e+05,8.9622e+07,1,0,0,16.23,0.03,27,0,0,0
1.0771e+05,8.9727e+07,1,0,0,16.22,0.03,27,0,0,0
1.0817e+05,8.983e+07,1,0,0,16.22,0.03,27,0,0,0
1.0866e+05,8.9942e+07,1,0,0,16.22,0.03,27,0,0,0
1.0961e+05,9.0159e+07,1,0,0,16.23,0.03,27,0,0,0
1.1007e+05,9.0266e+07,1,0,0,16.22,0.03,27,0,0,0
1.1048e+05,9.0368e+07,1,0,0,16.22,0.04,27,0,0,0
1.1098e+05,9.0479e+07,1,0,0,16.22,0.03,27,0,0,0
1.1143e+05,9.0586e+07,1,0,0,16.23,0.04,27,0,0,0
1.1188e+05,9.0689e+07,1,2,171,16.22,0.03,27,0,0,0
1.1233e+05,9.0795e+07,1,175,442,16.21,0.07,27,0,0,0
1.1283e+05,9.0908e+07,1,458,885,16.2,0.13,27,0,0,0
1.1332e+05,9.102e+07,1,912,1171,16.21,0.13,27,0,0,0
1.1378e+05,9.1125e+07,1,1176,1257,16.21,0.11,27,0,0,0
1.1423e+05,9.1227e+07,1,1257,1285,16.2,0.11,27,0,0,0
1.1473e+05,9.1344e+07,1,1286,1300,16.21,0.1,27,0,0,0
1.1518e+05,9.145e+07,1,1301,1314,16.2,0.1,27,0,0,0
1.1564e+05,9.1558e+07,1,1314,1314,16.21,0.11,27,0,0,0
1.1609e+05,9.166e+07,1,1314,1314,16.2,0.11,27,0,0,0
1.1684e+05,9.1877e+07,1,1314,1314,16.21,0.11,27,0,0,0
1.1733e+05,9.1986e+07,1,1314,1314,16.21,0.11,27,0,0,0
1.1783e+05,9.2102e+07,1,1314,1314,16.2,0.11,27,0,0,0
1.1828e+05,9.2206e+07,1,1314,1314,16.2,0.1,27,0,0,0
1.1873e+05,9.2311e+07,1,1314,1314,16.2,0.1,27,0,0,0
1.1919e+05,9.2417e+07,1,1314,1314,16.21,0.1,27,0,0,0
1.1968e+05,9.2532e+07,1,1314,1314,16.21,0.1,27,0,0,0
1.2014e+05,9.2639e+07,1,1314,1314,16.2,0.1,27,0,0,0
1.206e+05,9.2747e+07,1,1314,1314,16.21,0.1,27,0,0,0
1.2105e+05,9.2852e+07,1,1314,1314,16.2,0.1,27,0,0,0
1.2154e+05,9.2968e+07,1,1314,1314,16.21,0.1,27,0,0,0
1.22e+05,9.307e+07,1,1314,1314,16.2,0.1,27,0,0,0
1.2245e+05,9.3178e+07,1,1314,1314,16.2,0.1,27,0,0,0
1.2287e+05,9.3281e+07,1,1314,1314,16.22,0.1,27,0,0,0
1.2337e+05,9.3398e+07,1,1314,1314,16.2,0.1,27,0,0,0
1.2382e+05,9.35e+07,1,1314,1314,16.21,0.1,27,0,0,0
1.2432e+05,9.3614e+07,1,1314,1314,16.2,0.1,27,0,0,0
1.2476e+05,9.3718e+07,1,1314,1314,16.21,0.1,27,0,0,0
1.2522e+05,9.382e+07,1,1314,1314,16.2,0.1,27,0,0,0
1.2571e+05,9.3936e+07,1,1314,1314,16.2,0.1,27,0,0,0
1.2617e+05,9.4042e+07,1,1314,1314,16.21,0.1,27,0,0,0
1.2662e+05,9.4147e+07,1,1314,1314,16.2,0.1,27,0,0,0
1.2708e+05,9.425e+07,1,1314,1314,16.2,0.1,27,0,0,0
1.2753e+05,9.4358e+07,1,1314,1314,16.2,0.1,27,0,0,0
1.2803e+05,9.4469e+07,1,1314,1314,16.2,0.1,27,0,0,0
1.2848e+05,9.4576e+07,1,1314,1314,16.2,0.1,27,0,0,0
1.2893e+05,9.4678e+07,1,1314,1314,16.2,0.1,27,0,0,0
1.2943e+05,9.4791e+07,1,1325,1442,16.18,0.2,27,0,0,0
1.2989e+05,9.4896e+07,1,1480,1971,16.09,0.49,27,0,0,0
1.3034e+05,9.5002e+07,1,1987,2328,16.16,0.55,27,0,0,0
1.308e+05,9.5113e+07,1,2341,2471,16.11,0.6,27,0,0,0
1.3125e+05,9.5218e+07,1,2469,2428,16.16,0.46,27,0,0,0
1.3174e+05,9.5326e+07,1,2428,2428,16.14,0.37,27,0,0,0
1.3221e+05,9.544e+07,1,2434,2528,16.08,0.72,27,0,0,0
1.3262e+05,9.554e+07,1,2530,2714,16.02,1.24,27,1,0,0
1.3312e+05,9.5657e+07,1,2736,3214,15.89,2.16,27,1,0,0
1.3357e+05,9.5767e+07,1,3246,3971,15.7,3.85,27,1,0,0
1.3406e+05,9.5884e+07,1,4037,4700,15.76,3.48,27,1,0,0
1.3448e+05,9.5984e+07,1,4725,5257,15.65,3.17,27,1,0,0
1.3497e+05,9.61e+07,1,5291,5657,15.47,3.38,27,1,0,0
1.3538e+05,9.62e+07,1,5653,5585,15.7,2.66,27,1,0,0
1.3588e+05,9.6317e+07,1,5550,5257,15.75,1.79,27,1,0,0
1.3628e+05,9.6415e+07,1,5253,5185,15.75,2.09,27,1,0,0
1.3678e+05,9.6534e+07,1,5167,4985,15.77,1.9,27,1,0,0
1.3723e+05,9.664e+07,1,4978,4914,15.68,1.91,27,1,0,0
1.3813e+05,9.6857e+07,1,4912,4671,15.72,1.38,27,1,0,0
1.3862e+05,9.6967e+07,1,4656,4457,15.76,1.42,27,1,0,0
1.3912e+05,9.7081e+07,1,4439,4271,15.75,1.38,27,1,0,0
1.3956e+05,9.7189e+07,1,4285,4485,15.64,1.79,27,2,0,0
1.4002e+05,9.7297e+07,1,4497,4671,15.66,1.88,27,2,0,0
1.4047e+05,9.7406e+07,1,4682,4842,15.66,1.88,27,2,0,0
1.4097e+05,9.7525e+07,1,4830,4728,15.69,1.53,27,2,0,0
1.4138e+05,9.762e+07,1,4724,4642,15.66,1.66,27,2,0,0
1.4184e+05,9.7731e+07,1,4640,4614,15.65,1.76,27,2,0,0
1.4229e+05,9.7839e+07,1,4615,4642,15.67,1.76,27,2,0,0
1.4278e+05,9.7958e+07,1,4652,4771,15.73,1.67,27,2,0,0
1.4324e+05,9.8061e+07,1,4771,4785,15.69,1.94,27,2,0,0
1.4369e+05,9.8172e+07,1,4788,4871,15.66,1.93,28,2,0,0
1.4418e+05,9.8287e+07,1,4872,4885,15.7,1.72,28,2,0,0
1.4464e+05,9.8396e+07,1,4875,4785,15.56,1.76,28,2,0,0
1.4509e+05,9.85e+07,1,4783,4757,15.74,1.52,27,2,0,0
1.4554e+05,9.8609e+07,1,4755,4714,15.6,1.75,28,2,0,0
1.4601e+05,9.8729e+07,1,4721,4800,15.51,2.38,28,2,0,0
1.4642e+05,9.8821e+07,1,4804,5100,15.51,2.57,28,2,0,0
1.4691e+05,9.8942e+07,1,5112,5300,15.51,2.35,28,2,0,0
1.4782e+05,9.9158e+07,1,5302,5428,15.51,2.84,28,3,0,0
1.4827e+05,9.9261e+07,1,5428,5457,15.42,2.42,28,3,0,0
1.4872e+05,9.9374e+07,1,5457,5457,15.53,2.38,28,3,0,0
1.4918e+05,9.948e+07,1,5450,5300,15.52,2.36,28,3,0,0
1.4962e+05,9.9586e+07,1,5299,5285,15.47,2.37,28,3,0,0
1.5008e+05,9.9697e+07,1,5282,5242,15.51,2.32,28,3,0,0
1.5058e+05,9.9818e+07,1,5233,5128,15.52,1.91,28,3,0,0
1.5103e+05,9.9925e+07,1,5099,4900,15.48,1.87,28,3,0,0
1.5148e+05,1.0003e+08,1,4891,4800,15.59,1.96,28,3,0,0
1.5221e+05,1.0024e+08,1,4840,4814,15.6,1.75,28,3,0,0
1.5266e+05,1.0035e+08,1,4804,4585,15.6,1.35,28,3,0,0
1.5311e+05,1.0046e+08,1,4569,4271,15.61,0.97,28,3,0,0
1.5356e+05,1.0058e+08,1,4249,4042,15.62,1.3,28,3,0,0
1.5401e+05,1.0069e+08,1,4017,3700,15.64,1.04,28,3,0,0
1.5445e+05,1.0079e+08,1,3691,3585,15.66,1.1,28,3,0,0
1.549e+05,1.009e+08,1,3600,3771,15.59,1.23,28,3,0,0
1.5535e+05,1.0102e+08,1,3774,3814,15.69,0.99,28,3,0,0
1.558e+05,1.0113e+08,1,3793,3600,15.69,0.96,28,4,0,0
1.562e+05,1.0123e+08,1,3599,3571,15.7,0.98,28,4,0,0
1.5668e+05,1.0134e+08,1,3577,3671,15.66,1.4,28,4,0,0
1.5714e+05,1.0146e+08,1,3668,3642,15.45,1.87,28,4,0,0
1.5754e+05,1.0156e+08,1,3664,3942,15.62,1.25,28,4,0,0
1.58e+05,1.0167e+08,1,3936,3857,15.5,1.86,28,4,0,0
1.584e+05,1.0177e+08,1,3851,3628,15.66,0.87,28,4,0,0
1.5889e+05,1.0189e+08,1,3627,3614,15.66,1.03,28,4,0,0
1.593e+05,1.0199e+08,1,3639,4185,15.57,2.12,28,4,0,0
1.5975e+05,1.021e+08,1,4195,4328,15.59,2.63,28,4,0,0
1.602e+05,1.0221e+08,1,4358,4657,15.53,1.98,28,4,0,0
1.6064e+05,1.0232e+08,1,4668,4785,15.57,1.82,28,4,0,0
1.6109e+05,1.0243e+08,1,4792,4971,15.54,1.99,28,4,0,0
1.6154e+05,1.0254e+08,1,4982,5100,15.52,1.93,28,4,0,0
1.6198e+05,1.0265e+08,1,5095,4985,15.55,1.71,28,4,0,0
1.6242e+05,1.0276e+08,1,4983,4957,15.63,1.46,28,4,0,0
1.6288e+05,1.0287e+08,1,4946,4671,15.6,1.3,28,4,0,0
1.6333e+05,1.0298e+08,1,4661,4514,15.58,1.32,28,4,0,0
1.6377e+05,1.0309e+08,1,4508,4442,15.59,1.2,28,4,0,0
1.6417e+05,1.0319e+08,1,4441,4385,15.6,1.43,28,4,0,0
1.6466e+05,1.033e+08,1,4382,4357,15.63,1.22,28,4,0,0
1.651e+05,1.0341e+08,1,4371,4571,15.58,1.72,28,4,0,0
1.6555e+05,1.0352e+08,1,4569,4428,15.56,1.34,28,5,0,0
1.6604e+05,1.0363e+08,1,4421,4357,15.58,1.08,28,5,0,0
1.6644e+05,1.0373e+08,1,4350,4214,15.59,1.11,28,5,0,0
1.6689e+05,1.0384e+08,1,4204,4085,15.55,1.56,28,5,0,0
1.6733e+05,1.0395e+08,1,4089,4185,15.55,1.41,28,5,0,0
1.6782e+05,1.0407e+08,1,4183,4157,15.6,1.2,28,5,0,0
1.6827e+05,1.0418e+08,1,4163,4228,15.58,1.79,28,5,0,0
1.6872e+05,1.0428e+08,1,4227,4214,15.51,2.02,28,5,0,0
1.6916e+05,1.0439e+08,1,4240,4600,15.49,2.18,28,5,0,0
1.6962e+05,1.045e+08,1,4662,5214,15.37,3.12,28,5,0,0
1.7002e+05,1.046e+08,1,5233,5471,15.36,3.14,28,5,0,0
1.7047e+05,1.0472e+08,1,5481,5600,15.31,2.85,28,5,0,0
1.7088e+05,1.0482e+08,1,5605,5728,15.39,2.93,28,5,0,0
1.7137e+05,1.0494e+08,1,5741,5871,15.35,3.47,28,5,0,0
1.7178e+05,1.0504e+08,1,5873,5928,15.37,3.27,28,5,0,0
1.7222e+05,1.0515e+08,1,5940,6085,15.37,3.26,28,6,0,0
1.7271e+05,1.0527e+08,1,6078,6014,15.33,3.32,28,6,0,0
1.7312e+05,1.0536e+08,1,6007,5942,15.42,3.25,28,6,0,0
1.7357e+05,1.0547e+08,1,5942,5957,15.41,3.22,28,6,0,0
1.7401e+05,1.0558e+08,1,5949,5800,15.48,2.56,28,6,0,0
1.7446e+05,1.0569e+08,1,5780,5428,15.52,2.24,28,6,0,0
1.7494e+05,1.0581e+08,1,5378,5071,15.56,1.45,28,6,0,0
1.7535e+05,1.0591e+08,1,5065,4742,15.55,1.57,28,6,0,0
1.758e+05,1.0601e+08,1,4741,4714,15.51,1.75,28,6,0,0
1.7629e+05,1.0613e+08,1,4701,4571,15.61,1.49,28,6,0,0
1.7674e+05,1.0624e+08,1,4569,4557,15.61,1.67,28,6,0,0
1.7714e+05,1.0635e+08,1,4564,4728,15.58,1.89,28,6,0,0
1.7755e+05,1.0645e+08,1,4730,4871,15.49,2.01,28,6,0,0
1.7803e+05,1.0657e+08,1,4869,4857,15.5,1.97,28,6,0,0
1.7844e+05,1.0667e+08,1,4848,4628,15.59,1.18,28,7,0,0
1.7885e+05,1.0677e+08,1,4629,4714,15.54,1.55,28,7,0,0
1.7934e+05,1.0689e+08,1,4719,4771,15.54,1.83,28,7,0,0
1.7978e+05,1.07e+08,1,4774,4814,15.54,1.99,28,7,0,0
1.8019e+05,1.071e+08,1,4816,4942,15.48,1.92,28,7,0,0
1.8112e+05,1.0733e+08,1,4941,4928,15.42,1.68,28,7,0,0
1.8153e+05,1.0743e+08,1,4924,4657,15.33,1.38,28,7,0,0
1.8242e+05,1.0764e+08,1,4642,4057,15.3,0.72,28,7,0,0
1.8287e+05,1.0776e+08,1,3937,3000,15.38,0.49,28,7,0,0
1.8328e+05,1.0786e+08,1,2986,2685,15.45,0.78,28,7,0,0
1.8372e+05,1.0797e+08,1,2699,2900,15.44,1.47,28,7,0,0
1.8417e+05,1.0808e+08,1,3000,4342,15.46,2.83,28,7,0,0
1.8461e+05,1.0818e+08,1,4363,5228,15.36,3.37,28,7,0,0
1.8506e+05,1.0829e+08,1,5261,6028,15.49,4.67,28,7,0,0
1.8551e+05,1.084e+08,1,6065,6442,15.48,5.26,28,7,0,0
1.8591e+05,1.085e+08,1,6459,6814,15.38,4.81,28,8,0,0
1.8636e+05,1.0862e+08,1,6815,6828,15.42,4.86,28,8,0,0
1.8725e+05,1.0883e+08,1,6815,6557,15.5,3.71,28,8,0,0
1.8765e+05,1.0894e+08,1,6553,6285,15.48,3.34,28,8,0,0
1.881e+05,1.0904e+08,1,6278,5971,15.48,2.82,28,8,0,0
1.8858e+05,1.0916e+08,1,5954,5742,15.51,2.49,28,8,0,0
1.8903e+05,1.0927e+08,1,5719,5414,15.42,2.18,28,8,0,0
1.9037e+05,1.096e+08,1,5393,4457,15.45,1.46,28,9,0,0
1.9082e+05,1.0971e+08,1,4471,4657,15.5,1.82,28,9,0,0
1.9122e+05,1.0981e+08,1,4661,4828,15.54,1.73,28,9,0,0
1.9171e+05,1.0993e+08,1,4833,4885,15.47,1.95,28,9,0,0
1.9211e+05,1.1003e+08,1,4904,5342,15.39,3.01,28,9,0,0
1.9255e+05,1.1014e+08,1,5356,5657,15.44,2.95,28,9,0,0
1.9301e+05,1.1025e+08,1,5635,5414,15.41,1.79,28,9,0,0
1.9345e+05,1.1036e+08,1,5367,4928,15.45,1.31,28,9,0,0
1.939e+05,1.1046e+08,1,4918,4785,15.45,1.59,28,9,0,0
1.9431e+05,1.1057e+08,1,4783,4771,15.45,1.38,28,9,0,0
1.9476e+05,1.1068e+08,1,4772,4800,15.44,1.83,28,9,0,0
1.9516e+05,1.1078e+08,1,4801,4914,15.44,1.95,28,9,0,0
1.9561e+05,1.1089e+08,1,4916,5028,15.45,2.05,28,9,0,0
1.9606e+05,1.11e+08,1,5035,5142,15.36,2.22,28,9,0,0
1.9651e+05,1.1112e+08,1,5144,5171,15.47,1.85,28,9,0,0
1.9696e+05,1.1122e+08,1,5158,4928,15.49,1.49,28,9,0,0
1.9737e+05,1.1133e+08,1,4928,4942,15.48,1.65,28,9,0,0
1.9786e+05,1.1144e+08,1,4938,4871,15.46,1.83,28,9,0,0
1.983e+05,1.1156e+08,1,4879,4957,15.48,1.93,28,10,0,0
1.9875e+05,1.1167e+08,1,4958,4971,15.45,2.11,28,10,0,0
1.9915e+05,1.1177e+08,1,4975,5071,15.47,2.09,28,10,0,0
1.996e+05,1.1188e+08,1,5070,5057,15.5,1.85,28,10,0,0
2.0005e+05,1.1199e+08,1,5057,5071,15.4,2.05,28,10,0,0
2.0054e+05,1.121e+08,1,5067,5042,15.42,1.98,28,10,0,0
2.0099e+05,1.1222e+08,1,5040,5028,15.49,1.94,28,10,0,0
2.0144e+05,1.1233e+08,1,5024,5000,15.48,1.83,28,10,0,0
2.0228e+05,1.1253e+08,1,4998,4942,15.47,1.72,28,10,0,0
2.0273e+05,1.1264e+08,1,4937,4842,15.45,1.72,28,10,0,0
2.0318e+05,1.1276e+08,1,4847,4900,15.5,1.5,28,10,0,0
2.0363e+05,1.1287e+08,1,4893,4828,15.43,1.76,28,10,0,0
2.0404e+05,1.1297e+08,1,4831,4900,15.51,1.82,28,10,0,0
2.0449e+05,1.1308e+08,1,4901,4914,15.47,1.72,28,10,0,0
2.0493e+05,1.1319e+08,1,4911,4871,15.48,1.55,28,10,0,0
2.0538e+05,1.133e+08,1,4865,4757,15.52,1.38,28,10,0,0
2.0583e+05,1.1341e+08,1,4749,4628,15.48,1.38,28,10,0,0
2.0628e+05,1.1352e+08,1,4629,4642,15.49,1.68,28,10,0,0
2.0673e+05,1.1363e+08,1,4637,4571,15.5,1.41,28,11,0,0
2.0718e+05,1.1374e+08,1,4579,4671,15.45,1.6,28,11,0,0
2.0759e+05,1.1384e+08,1,4672,4700,15.48,1.63,28,11,0,0
2.0803e+05,1.1396e+08,1,4701,4714,15.47,1.6,28,11,0,0
2.0934e+05,1.1428e+08,1,4706,4400,15.51,1.41,28,11,0,0
2.0975e+05,1.1438e+08,1,4400,4442,15.49,1.55,28,11,0,0
2.1064e+05,1.146e+08,1,4443,4514,15.41,1.61,28,11,0,0
2.1109e+05,1.1472e+08,1,4526,4671,15.39,1.55,28,11,0,0
2.1154e+05,1.1483e+08,1,4657,4471,15.5,1.13,28,11,0,0
2.1195e+05,1.1493e+08,1,4455,4128,15.52,0.88,28,11,0,0
2.124e+05,1.1504e+08,1,4129,4142,15.54,1.28,28,11,0,0
2.1281e+05,1.1515e+08,1,4140,4114,15.51,1.3,28,11,0,0
2.1326e+05,1.1526e+08,1,4116,4200,15.53,1.4,28,11,0,0
2.1371e+05,1.1537e+08,1,4201,4242,15.41,2.07,28,11,0,0
2.146e+05,1.1558e+08,1,4243,4385,15.44,1.49,28,11,0,0
2.1509e+05,1.157e+08,1,4387,4428,15.45,1.49,28,11,0,0
2.1554e+05,1.1581e+08,1,4424,4371,15.45,1.12,28,11,0,0
2.1598e+05,1.1592e+08,1,4363,4271,15.48,1.2,28,11,0,0
2.1643e+05,1.1603e+08,1,4261,4157,15.47,1.2,28,11,0,0
2.1683e+05,1.1613e+08,1,4156,4100,15.41,1.44,28,11,0,0
2.1732e+05,1.1624e+08,1,4110,4214,15.5,1.33,28,12,0,0
2.1777e+05,1.1635e+08,1,4208,4157,15.48,1.39,28,12,0,0
2.1821e+05,1.1646e+08,1,4162,4242,15.51,1.36,28,12,0,0
2.1862e+05,1.1656e+08,1,4238,4171,15.49,1.08,28,12,0,0
2.1907e+05,1.1667e+08,1,4166,4100,15.44,1.07,28,12,0,0
2.1948e+05,1.1678e+08,1,4092,4028,15.47,1.41,28,12,0,0
2.1993e+05,1.1689e+08,1,4037,4142,15.5,1.22,28,12,0,0
2.2031e+05,1.17e+08,1,4148,4214,15.43,1.47,28,12,0,0
2.2076e+05,1.1711e+08,1,4217,4242,15.5,1.28,28,12,0,0
2.2116e+05,1.1721e+08,1,4237,4142,15.35,1.28,28,12,0,0
2.2206e+05,1.1744e+08,1,4133,4000,15.41,1.72,28,12,0,0
2.225e+05,1.1754e+08,1,4018,4142,15.39,3.24,28,12,0,0
2.2295e+05,1.1765e+08,1,4133,4071,15.46,2.3,28,12,0,0
2.2336e+05,1.1775e+08,1,4087,4285,15.45,1.75,28,12,0,0
2.2381e+05,1.1786e+08,1,4281,4242,15.34,1.62,28,12,0,0
2.2425e+05,1.1797e+08,1,4242,4242,15.43,1.35,28,12,0,0
2.2471e+05,1.1808e+08,1,4233,4171,15.45,1.24,28,12,0,0
2.2519e+05,1.182e+08,1,4173,4200,15.46,1.31,28,12,0,0
2.2604e+05,1.1841e+08,1,4207,4414,15.42,1.41,28,12,0,0
2.265e+05,1.1852e+08,1,4418,4457,15.41,1.43,28,12,0,0
2.2689e+05,1.1862e+08,1,4454,4400,15.46,1.25,28,13,0,0
2.2733e+05,1.1873e+08,1,4398,4371,15.5,1.48,28,13,0,0
2.2779e+05,1.1884e+08,1,4380,4457,15.48,1.4,28,13,0,0
2.2819e+05,1.1895e+08,1,4462,4514,15.48,1.57,28,13,0,0
2.2954e+05,1.1927e+08,1,4514,4528,15.48,1.3,28,13,0,0
2.3043e+05,1.1949e+08,1,4524,4428,15.51,1.28,28,13,0,0
2.3084e+05,1.196e+08,1,4429,4442,15.46,1.49,28,13,0,0
2.3129e+05,1.197e+08,1,4444,4471,15.5,1.38,28,13,0,0
2.3174e+05,1.1981e+08,1,4475,4514,15.47,1.61,28,13,0,0
2.3218e+05,1.1993e+08,1,4514,4528,15.48,1.43,28,13,0,0
2.3263e+05,1.2004e+08,1,4526,4500,15.43,1.32,28,13,0,0
2.3352e+05,1.2026e+08,1,4504,4628,15.47,1.33,28,13,0,0
2.3393e+05,1.2036e+08,1,4619,4457,15.5,1.18,28,13,0,0
2.3438e+05,1.2047e+08,1,4463,4542,15.43,1.44,28,13,0,0
2.3482e+05,1.2058e+08,1,4557,4700,15.5,1.71,28,13,0,0
2.3527e+05,1.2069e+08,1,4701,4714,15.38,1.69,28,13,0,0
2.3568e+05,1.2079e+08,1,4714,4714,15.5,1.54,28,13,0,0
2.3612e+05,1.209e+08,1,4709,4642,15.45,1.38,28,13,0,0
2.3657e+05,1.2101e+08,1,4642,4642,15.49,1.56,28,13,0,0
2.3747e+05,1.2122e+08,1,4636,4500,15.51,1.03,28,14,0,0
2.3832e+05,1.2144e+08,1,4498,4342,15.5,1.11,28,14,0,0
2.3877e+05,1.2155e+08,1,4352,4571,15.47,1.74,28,14,0,0
2.3918e+05,1.2166e+08,1,4571,4585,15.47,1.69,28,14,0,0
2.3963e+05,1.2177e+08,1,4597,4771,15.51,1.76,28,14,0,0
2.4008e+05,1.2187e+08,1,4771,4771,15.51,1.65,28,14,0,0
2.4053e+05,1.2198e+08,1,4773,4814,15.5,1.69,28,14,0,0
2.4098e+05,1.221e+08,1,4797,4585,15.51,1.63,28,14,0,0
2.4142e+05,1.2221e+08,1,4588,4628,15.57,1.47,28,14,0,0
2.4187e+05,1.2232e+08,1,4629,4642,15.49,1.53,28,14,0,0
2.4228e+05,1.2242e+08,1,4639,4542,15.5,1.18,28,14,0,0
2.4321e+05,1.2264e+08,1,4538,4371,15.5,1.35,28,14,0,0
2.4362e+05,1.2275e+08,1,4372,4442,15.5,1.41,28,14,0,0
2.4451e+05,1.2296e+08,1,4444,4728,15.51,1.51,28,14,0,0
2.4496e+05,1.2307e+08,1,4728,4742,15.47,1.46,28,14,0,0
2.4544e+05,1.2319e+08,1,4735,4671,15.55,1.22,28,14,0,0
2.4585e+05,1.2329e+08,1,4663,4514,15.58,1.21,28,14,0,0
2.463e+05,1.234e+08,1,4514,4514,15.55,1.75,28,14,0,0
2.468e+05,1.2353e+08,1,4550,5085,15.5,2.33,28,15,0,0
2.472e+05,1.2363e+08,1,5101,5314,15.49,2.11,28,15,0,0
2.4765e+05,1.2373e+08,1,5309,5214,15.46,1.91,28,15,0,0
2.481e+05,1.2384e+08,1,5208,5085,15.5,1.89,28,15,0,0
2.485e+05,1.2394e+08,1,5078,4828,15.47,1.02,28,15,0,0
2.49e+05,1.2406e+08,1,4761,4100,15.44,0.68,28,15,0,0
2.494e+05,1.2417e+08,1,4103,4171,15.39,1.29,28,15,0,0
2.4985e+05,1.2428e+08,1,4216,4657,15.3,2,28,15,0,0
2.5029e+05,1.2438e+08,1,4663,4942,15.35,1.69,28,15,0,0
2.5074e+05,1.2449e+08,1,4942,4957,15.33,2.03,28,15,0,0
2.5119e+05,1.2461e+08,1,4967,5171,15.27,2.5,28,15,0,0
2.5164e+05,1.2472e+08,1,5203,5414,15.3,2.75,28,15,0,0
2.5209e+05,1.2483e+08,1,5417,5471,15.24,2.98,28,15,0,0
2.5294e+05,1.2504e+08,1,5475,5600,15.32,2.64,28,15,0,0
2.5338e+05,1.2515e+08,1,5596,5428,15.32,2.66,28,15,0,0
2.5384e+05,1.2526e+08,1,5438,5542,15.33,2.44,28,16,0,0
2.5432e+05,1.2537e+08,1,5530,5371,15.35,2.51,28,16,0,0
2.5477e+05,1.2548e+08,1,5375,5485,15.33,2.45,28,16,0,0
2.5521e+05,1.2559e+08,1,5482,5400,15.39,2.19,28,16,0,0
2.5566e+05,1.257e+08,1,5378,5171,15.34,1.87,28,16,0,0
2.561e+05,1.2581e+08,1,5157,5014,15.39,1.86,28,16,0,0
2.5655e+05,1.2592e+08,1,4994,4800,15.45,1.61,28,16,0,0
2.57e+05,1.2603e+08,1,4799,4785,15.42,1.65,28,16,0,0
2.5744e+05,1.2614e+08,1,4772,4600,15.43,1.51,28,16,0,0
2.5785e+05,1.2624e+08,1,4600,4628,15.44,1.7,28,16,0,0
2.583e+05,1.2635e+08,1,4631,4771,15.41,2.22,28,16,0,0
2.5919e+05,1.2657e+08,1,4773,5014,15.42,2.25,28,16,0,0
2.5964e+05,1.2668e+08,1,5015,5114,15.41,2.01,28,16,0,0
2.6013e+05,1.268e+08,1,5103,5028,15.26,2.16,28,16,0,0
2.6054e+05,1.269e+08,1,5029,5100,15.36,2.33,28,16,0,0
2.6098e+05,1.2702e+08,1,5104,5142,15.36,2.28,28,17,0,0
2.6143e+05,1.2712e+08,1,5147,5371,15.39,2.52,28,17,0,0
2.6188e+05,1.2723e+08,1,5373,5400,15.35,2.66,28,17,0,0
2.6228e+05,1.2733e+08,1,5399,5357,15.38,2.47,28,17,0,0
2.6277e+05,1.2745e+08,1,5357,5371,15.39,2.43,28,17,0,0
2.6318e+05,1.2756e+08,1,5358,5157,15.29,2.3,28,17,0,0
2.6362e+05,1.2766e+08,1,5163,5257,15.38,2.35,28,17,0,0
2.6452e+05,1.2788e+08,1,5258,5314,15.35,2.29,28,17,0,0
2.6493e+05,1.2798e+08,1,5308,5171,15.4,2.37,28,17,0,0
2.6537e+05,1.2809e+08,1,5175,5400,15.34,2.74,28,17,0,0
2.6582e+05,1.282e+08,1,5400,5414,15.4,2.53,28,17,0,0
2.6628e+05,1.2832e+08,1,5413,5357,15.39,2.36,28,17,0,0
2.6765e+05,1.2865e+08,1,5354,5242,15.37,2.26,28,18,0,0
2.6805e+05,1.2876e+08,1,5246,5342,15.38,2.64,28,18,0,0
2.6851e+05,1.2887e+08,1,5342,5342,15.33,2.32,28,18,0,0
2.6944e+05,1.291e+08,1,5329,5057,15.38,2.03,28,18,0,0
2.6984e+05,1.292e+08,1,5052,4928,15.36,1.96,28,18,0,0
2.7078e+05,1.2943e+08,1,4927,4914,15.33,2.04,28,18,0,0
2.7122e+05,1.2953e+08,1,4920,5000,15.38,1.94,28,18,0,0
2.7166e+05,1.2964e+08,1,5000,5014,15.28,2.27,28,18,0,0
2.7207e+05,1.2975e+08,1,5005,4900,15.36,1.71,28,18,0,0
2.7251e+05,1.2986e+08,1,4893,4828,15.31,1.65,28,18,0,0
2.7292e+05,1.2996e+08,1,4817,4571,15.34,1.24,28,18,0,0
2.7341e+05,1.3008e+08,1,4563,4485,15.34,1.55,28,18,0,0
2.7381e+05,1.3018e+08,1,4493,4685,15.3,1.97,28,19,0,0
2.7426e+05,1.3029e+08,1,4686,4757,15.3,2.21,28,19,0,0
2.7475e+05,1.304e+08,1,4794,5171,15.32,2.6,28,19,0,0
2.7516e+05,1.305e+08,1,5172,5200,15.3,2.61,28,19,0,0
2.7561e+05,1.3062e+08,1,5196,5157,15.31,2.3,28,19,0,0
2.7605e+05,1.3073e+08,1,5170,5285,15.29,2.57,28,19,0,0
2.769e+05,1.3094e+08,1,5300,5714,15.2,3.05,28,19,0,0
2.7735e+05,1.3105e+08,1,5710,5642,15.24,2.92,28,19,0,0
2.7776e+05,1.3115e+08,1,5640,5614,15.25,2.78,28,19,0,0
2.7821e+05,1.3126e+08,1,5612,5571,15.25,2.7,28,19,0,0
2.7865e+05,1.3136e+08,1,5569,5514,15.27,2.67,28,19,0,0
2.7914e+05,1.3148e+08,1,5524,5628,15.27,2.47,28,19,0,0
2.7958e+05,1.316e+08,1,5615,5485,15.3,2.4,28,20,0,0
2.7999e+05,1.3169e+08,1,5478,5314,15.34,2.54,28,20,0,0
2.8043e+05,1.318e+08,1,5323,5442,15.32,2.65,28,20,0,0
2.8088e+05,1.3192e+08,1,5436,5400,15.32,2.4,28,20,0,0
2.8133e+05,1.3202e+08,1,5396,5357,15.39,2.54,28,20,0,0
2.8173e+05,1.3213e+08,1,5357,5357,15.33,2.31,28,20,0,0
2.8218e+05,1.3224e+08,1,5347,5214,15.35,2.34,28,20,0,0
2.8259e+05,1.3234e+08,1,5218,5271,15.38,2.36,28,20,0,0
2.8304e+05,1.3245e+08,1,5263,5157,15.28,2.18,28,20,0,0
2.8348e+05,1.3257e+08,1,5152,5085,15.3,2.09,28,20,0,0
2.8393e+05,1.3267e+08,1,5082,5057,15.33,2.17,28,20,0,0
2.8433e+05,1.3277e+08,1,5052,5000,15.33,1.76,28,20,0,0
2.8478e+05,1.3288e+08,1,4997,4871,15.38,1.8,28,20,0,0
2.8522e+05,1.3299e+08,1,4870,4857,15.34,1.88,28,20,0,0
2.8567e+05,1.331e+08,1,4869,5014,15.38,2.22,28,20,0,0
2.8612e+05,1.3321e+08,1,5008,4957,15.4,1.91,28,21,0,0
2.8656e+05,1.3332e+08,1,4973,5114,15.37,2.14,28,21,0,0
2.8701e+05,1.3343e+08,1,5114,5128,15.35,2.33,28,21,0,0
2.8741e+05,1.3354e+08,1,5128,5142,15.3,2.44,28,21,0,0
2.8786e+05,1.3364e+08,1,5143,5228,15.26,2.27,28,21,0,0
2.8874e+05,1.3386e+08,1,5227,5142,15.32,2.4,28,21,0,0
2.892e+05,1.3397e+08,1,5155,5442,15.21,2.54,28,21,0,0
2.8965e+05,1.3408e+08,1,5438,5357,15.3,2.46,28,21,0,0
2.901e+05,1.3419e+08,1,5352,5285,15.35,1.95,28,21,0,0
2.9054e+05,1.343e+08,1,5286,5300,15.35,2.31,28,21,0,0
2.9099e+05,1.3442e+08,1,5280,5100,15.33,1.96,28,21,0,0
2.9143e+05,1.3452e+08,1,5103,5142,15.3,2.29,28,21,0,0
2.9184e+05,1.3462e+08,1,5148,5271,15.4,2.96,28,21,0,0
2.9228e+05,1.3473e+08,1,5277,5571,15.35,2.84,28,22,0,0
2.9272e+05,1.3484e+08,1,5580,5785,15.32,2.89,28,22,0,0
2.9362e+05,1.3506e+08,1,5766,5271,15.39,1.56,28,22,0,0
2.9406e+05,1.3517e+08,1,5224,4900,15.38,1.25,28,22,0,0
2.9451e+05,1.3528e+08,1,4876,4585,15.35,1.08,28,22,0,0
2.9496e+05,1.3539e+08,1,4568,4385,15.34,0.99,28,22,0,0
2.9541e+05,1.355e+08,1,4354,4014,15.33,1.11,28,22,0,0
2.9581e+05,1.356e+08,1,3998,3771,15.37,1.23,28,22,0,0
2.9626e+05,1.3571e+08,1,3782,3957,15.36,1.33,28,22,0,0
2.967e+05,1.3582e+08,1,3957,3971,15.29,1.73,28,22,0,0
2.9714e+05,1.3593e+08,1,3982,4542,15.19,2.52,28,22,0,0
2.9759e+05,1.3605e+08,1,4551,4814,15.2,2.28,28,22,0,0
2.9807e+05,1.3616e+08,1,4810,4771,15.29,1.41,28,22,0,0
2.9848e+05,1.3626e+08,1,4744,4442,15.33,1.05,28,22,0,0
2.9893e+05,1.3637e+08,1,4442,4442,15.36,1.43,28,22,0,0
2.9938e+05,1.3648e+08,1,4455,4628,15.32,2.05,28,22,0,0
2.9979e+05,1.3658e+08,1,4630,4757,15.28,1.63,28,22,0,0
3.0027e+05,1.367e+08,1,4752,4714,15.23,1.67,28,22,0,0
3.0112e+05,1.3691e+08,1,4715,4800,15.22,2.23,28,23,0,0
3.0156e+05,1.3702e+08,1,4820,5100,15.17,2.51,28,23,0,0
3.0201e+05,1.3713e+08,1,5108,5200,15.11,2.41,28,23,0,0
3.0247e+05,1.3724e+08,1,5184,5028,15.13,1.96,28,23,0,0
3.029e+05,1.3735e+08,1,5009,4828,15.23,1.65,28,23,0,0
3.0331e+05,1.3745e+08,1,4828,4842,15.14,2.26,28,23,0,0
3.0376e+05,1.3756e+08,1,4848,4914,15.19,1.6,28,23,0,0
3.0421e+05,1.3766e+08,1,4900,4600,15.3,1.17,28,23,0,0
3.0466e+05,1.3778e+08,1,4572,4314,15.32,1.57,28,23,0,0
3.051e+05,1.3789e+08,1,4321,4400,15.32,1.4,28,23,0,0
3.0551e+05,1.38e+08,1,4419,4685,15.33,2.13,28,23,0,0
3.0596e+05,1.381e+08,1,4700,4914,15.26,2.35,28,23,0,0
3.064e+05,1.3821e+08,1,4915,5028,15.3,2.1,28,23,0,0
3.0685e+05,1.3832e+08,1,5025,4971,15.26,2.01,28,23,0,0
3.0729e+05,1.3843e+08,1,4955,4757,15.29,1.9,28,23,0,0
3.0769e+05,1.3853e+08,1,4758,4871,15.28,1.72,28,23,0,0
3.0814e+05,1.3864e+08,1,4873,4971,15.22,2.26,28,23,0,0
3.0859e+05,1.3875e+08,1,4972,5042,15.26,2.1,28,24,0,0
3.0904e+05,1.3886e+08,1,5043,5071,15.26,2.09,28,24,0,0
3.0947e+05,1.3897e+08,1,5060,4857,15.29,1.57,28,24,0,0
3.0992e+05,1.3908e+08,1,4850,4728,15.27,1.73,28,24,0,0
3.1034e+05,1.3918e+08,1,4733,4800,15.27,1.92,28,24,0,0
3.1079e+05,1.3929e+08,1,4799,4785,15.3,1.95,28,24,0,0
3.1127e+05,1.3941e+08,1,4782,4742,15.31,1.62,28,24,0,0
3.1209e+05,1.3962e+08,1,4744,4985,15.26,2.52,28,24,0,0
3.1253e+05,1.3973e+08,1,4996,5157,15.27,2.55,28,24,0,0
3.1298e+05,1.3984e+08,1,5185,5471,15.23,2.8,28,24,0,0
3.1342e+05,1.3995e+08,1,5455,5300,15.26,1.9,28,24,0,0
3.1387e+05,1.4005e+08,1,5286,5157,15.33,1.65,28,24,0,0
3.1427e+05,1.4016e+08,1,5146,4742,15.34,1.12,28,24,0,0
3.1472e+05,1.4027e+08,1,4729,4271,15.32,0.9,28,24,0,0
3.1517e+05,1.4038e+08,1,4265,4185,15.37,1.39,28,24,0,0
3.1562e+05,1.4049e+08,1,4181,4014,15.35,1.33,28,24,0,0
3.1607e+05,1.406e+08,1,4017,4100,15.34,1.99,28,25,0,0
3.1652e+05,1.4071e+08,1,4117,4257,15.33,1.53,28,25,0,0
3.1697e+05,1.4083e+08,1,4240,4071,15.32,1.21,28,25,0,0
3.1737e+05,1.4093e+08,1,4075,4114,15.28,2.01,28,25,0,0
3.1781e+05,1.4104e+08,1,4126,4300,15.35,1.5,28,25,0,0
3.1822e+05,1.4114e+08,1,4301,4442,15.33,1.52,28,25,0,0
3.187e+05,1.4125e+08,1,4454,4642,15.33,1.58,28,25,0,0
3.191e+05,1.4136e+08,1,4638,4571,15.29,1.6,28,25,0,0
3.1956e+05,1.4147e+08,1,4582,4742,15.26,1.86,28,25,0,0
3.1996e+05,1.4157e+08,1,4743,4800,15.3,1.91,28,25,0,0
3.2041e+05,1.4168e+08,1,4799,4771,15.29,1.9,28,25,0,0
3.2086e+05,1.4179e+08,1,4771,4785,15.27,1.63,28,25,0,0
3.2131e+05,1.4189e+08,1,4783,4757,15.34,1.58,28,25,0,0
3.2175e+05,1.42e+08,1,4754,4728,15.33,1.79,28,25,0,0
3.2216e+05,1.4211e+08,1,4727,4685,15.33,1.69,28,25,0,0
3.2265e+05,1.4223e+08,1,4687,4714,15.34,1.62,28,25,0,0
3.2308e+05,1.4234e+08,1,4710,4671,15.34,1.64,28,25,0,0
3.2398e+05,1.4255e+08,1,4671,4685,15.35,1.53,28,25,0,0
3.2443e+05,1.4266e+08,1,4683,4671,15.33,1.41,28,25,0,0
3.2487e+05,1.4277e+08,1,4651,4457,15.32,1.36,28,26,0,0
3.2536e+05,1.4288e+08,1,4473,4642,15.33,1.63,28,26,0,0
3.2621e+05,1.431e+08,1,4635,4342,15.38,1.42,28,26,0,0
3.2665e+05,1.4321e+08,1,4340,4314,15.38,1.22,28,26,0,0
3.2758e+05,1.4343e+08,1,4311,4242,15.35,1.43,28,26,0,0
3.2803e+05,1.4355e+08,1,4247,4385,15.36,1.42,28,26,0,0
3.2848e+05,1.4365e+08,1,4397,4514,15.35,1.67,28,26,0,0
3.2888e+05,1.4376e+08,1,4506,4357,15.36,1.09,28,26,0,0
3.2933e+05,1.4387e+08,1,4356,4342,15.36,1.92,28,26,0,0
3.2974e+05,1.4397e+08,1,4354,4628,15.29,1.67,28,26,0,0
3.3019e+05,1.4408e+08,1,4629,4685,15.29,1.89,28,26,0,0
3.3063e+05,1.4419e+08,1,4685,4742,15.35,1.72,28,26,0,0
3.3111e+05,1.4431e+08,1,4730,4628,15.26,1.82,28,26,0,0
3.3156e+05,1.4442e+08,1,4639,4742,15.23,1.99,28,26,0,0
3.32e+05,1.4453e+08,1,4753,4857,15.28,1.87,28,26,0,0
3.3289e+05,1.4474e+08,1,4853,4771,15.25,2.02,28,26,0,0
3.3334e+05,1.4486e+08,1,4786,4928,15.26,2.02,28,26,0,0
3.3382e+05,1.4497e+08,1,4930,4957,15.29,1.91,28,27,0,0
3.3423e+05,1.4507e+08,1,4956,4900,15.33,1.62,28,27,0,0
3.3467e+05,1.4518e+08,1,4892,4828,15.32,1.66,28,27,0,0
3.3512e+05,1.4529e+08,1,4824,4800,15.25,1.99,28,27,0,0
3.3601e+05,1.4551e+08,1,4794,4685,15.35,1.75,28,27,0,0
3.3646e+05,1.4562e+08,1,4672,4514,15.37,1.52,28,27,0,0
3.3694e+05,1.4573e+08,1,4514,4514,15.36,1.43,28,27,0,0
3.3739e+05,1.4584e+08,1,4516,4542,15.3,1.85,28,27,0,0
3.3783e+05,1.4595e+08,1,4546,4585,15.33,1.48,28,27,0,0
3.3824e+05,1.4605e+08,1,4585,4600,15.37,1.49,28,27,0,0
3.3869e+05,1.4617e+08,1,4593,4528,15.36,1.43,28,27,0,0
3.3913e+05,1.4627e+08,1,4518,4428,15.38,1.26,28,27,0,0
3.3958e+05,1.4638e+08,1,4417,4314,15.4,1.23,28,27,0,0
3.3998e+05,1.4648e+08,1,4297,4100,15.33,1.29,28,27,0,0
3.4043e+05,1.4659e+08,1,4100,4114,15.34,1.95,28,27,0,0
3.4131e+05,1.4681e+08,1,4124,4557,15.31,1.56,28,27,0,0
3.4176e+05,1.4692e+08,1,4563,4614,15.35,1.71,28,27,0,0
3.4217e+05,1.4702e+08,1,4614,4628,15.34,1.63,28,27,0,0
3.4262e+05,1.4713e+08,1,4634,4728,15.27,1.81,28,27,0,0
3.4306e+05,1.4724e+08,1,4727,4671,15.32,1.51,28,27,0,0
3.4355e+05,1.4736e+08,1,4659,4542,15.3,1.26,28,28,0,0
3.4395e+05,1.4746e+08,1,4540,4485,15.32,1.38,28,28,0,0
3.4444e+05,1.4758e+08,1,4485,4485,15.31,1.5,28,28,0,0
3.4489e+05,1.4769e+08,1,4486,4500,15.31,1.38,28,28,0,0
3.4529e+05,1.4779e+08,1,4505,4614,15.3,1.66,28,28,0,0
3.4574e+05,1.4789e+08,1,4612,4571,15.26,1.48,28,28,0,0
3.4619e+05,1.4801e+08,1,4571,4571,15.28,1.37,28,28,0,0
3.466e+05,1.4811e+08,1,4570,4528,15.33,1.38,28,28,0,0
3.4704e+05,1.4822e+08,1,4525,4471,15.3,1.41,28,28,0,0
3.4748e+05,1.4833e+08,1,4462,4357,15.25,1.11,28,28,0,0
3.4793e+05,1.4844e+08,1,4320,3814,15.27,0.78,28,28,0,0
3.4838e+05,1.4855e+08,1,3793,3514,15.32,1,28,28,0,0
3.4883e+05,1.4866e+08,1,3534,4000,15.26,2.06,28,28,0,0
3.4931e+05,1.4878e+08,1,4042,4471,15.28,2.05,28,28,0,0
3.5016e+05,1.4899e+08,1,4473,4685,15.35,1.5,28,28,0,0
3.5061e+05,1.4909e+08,1,4682,4642,15.31,1.59,28,28,0,0
3.511e+05,1.4922e+08,1,4643,4657,15.27,1.45,28,28,0,0
3.515e+05,1.4931e+08,1,4650,4528,15.36,1.36,28,28,0,0
3.5194e+05,1.4943e+08,1,4527,4514,15.31,1.46,28,28,0,0
3.524e+05,1.4954e+08,1,4513,4471,15.33,1.25,28,28,0,0
3.5284e+05,1.4965e+08,1,4470,4457,15.35,1.34,28,28,0,0
3.5325e+05,1.4975e+08,1,4454,4371,15.35,1.31,28,28,0,0
3.5374e+05,1.4987e+08,1,4369,4357,15.35,1.29,28,29,0,0
3.5415e+05,1.4997e+08,1,4363,4428,15.34,1.32,28,29,0,0
3.5508e+05,1.502e+08,1,4428,4442,15.38,1.49,28,29,0,0
3.5549e+05,1.503e+08,1,4444,4500,15.33,1.33,28,29,0,0
3.5594e+05,1.5041e+08,1,4501,4514,15.32,1.59,28,29,0,0
3.5638e+05,1.5052e+08,1,4515,4528,15.23,1.57,28,29,0,0
3.5679e+05,1.5062e+08,1,4526,4500,15.29,1.28,28,29,0,0
3.5728e+05,1.5074e+08,1,4490,4385,15.31,1.39,28,29,0,0
3.5768e+05,1.5084e+08,1,4386,4471,15.36,1.1,28,29,0,0
3.5817e+05,1.5095e+08,1,4471,4485,15.31,1.5,28,29,0,0
3.5861e+05,1.5106e+08,1,4462,4242,15.33,0.93,28,29,0,0
3.5906e+05,1.5117e+08,1,4199,3757,15.16,1.31,28,29,0,0
3.595e+05,1.5127e+08,1,3743,3442,15.3,1.01,28,29,0,0
3.5999e+05,1.5139e+08,1,3466,3728,15.25,1.43,28,29,0,0
3.604e+05,1.5149e+08,1,3754,4285,15.33,2.23,28,29,0,0
3.6085e+05,1.5161e+08,1,4304,4600,15.27,2.16,28,29,0,0
3.613e+05,1.5172e+08,1,4621,4900,15.36,1.9,28,29,0,0
3.6174e+05,1.5183e+08,1,4911,5042,15.25,2.23,28,29,0,0
3.6218e+05,1.5195e+08,1,5038,5014,15.25,1.76,28,29,0,0
3.6263e+05,1.5206e+08,1,5031,5200,15.25,2.05,28,29,0,0
3.6308e+05,1.5217e+08,1,5192,5128,15.31,2.01,28,30,0,0
3.6352e+05,1.5228e+08,1,5122,5085,15.26,1.88,28,30,0,0
3.6396e+05,1.5238e+08,1,5056,4842,15.28,1.35,28,30,0,0
3.6442e+05,1.5249e+08,1,4835,4771,15.32,1.37,28,30,0,0
3.6482e+05,1.526e+08,1,4763,4700,15.34,1.2,28,30,0,0
3.6523e+05,1.527e+08,1,4693,4314,15.42,0.68,28,30,0,0
3.6572e+05,1.5282e+08,1,4304,4200,15.42,0.83,28,30,0,0
3.6617e+05,1.5293e+08,1,4198,4185,15.3,1.6,28,30,0,0
3.6657e+05,1.5303e+08,1,4196,4314,15.39,1.3,28,30,0,0
3.6697e+05,1.5314e+08,1,4315,4485,15.39,2.02,28,30,0,0
3.675e+05,1.5326e+08,1,4526,4771,15.34,1.86,28,30,0,0
3.679e+05,1.5336e+08,1,4769,4728,15.25,1.78,28,30,0,0
3.688e+05,1.5358e+08,1,4739,4985,15.33,2.02,28,30,0,0
3.6928e+05,1.5369e+08,1,4983,4957,15.23,1.79,28,30,0,0
3.7013e+05,1.539e+08,1,4955,4857,15.29,1.63,28,30,0,0
3.7058e+05,1.5402e+08,1,4850,4785,15.3,1.67,28,30,0,0
3.7102e+05,1.5413e+08,1,4780,4742,15.3,1.84,28,30,0,0
3.7142e+05,1.5423e+08,1,4743,4814,15.27,1.52,28,30,0,0
3.7232e+05,1.5444e+08,1,4813,4771,15.23,1.75,28,31,0,0
3.7281e+05,1.5457e+08,1,4780,4885,15.22,1.93,28,31,0,0
3.7322e+05,1.5467e+08,1,4885,4885,15.26,2.01,28,31,0,0
3.737e+05,1.5478e+08,1,4876,4571,15.25,1.3,28,31,0,0
3.7415e+05,1.5489e+08,1,4568,4528,15.27,1.26,28,31,0,0
3.746e+05,1.55e+08,1,4526,4514,15.19,1.57,28,31,0,0
3.7504e+05,1.5511e+08,1,4511,4485,15.27,1.43,28,31,0,0
3.7549e+05,1.5522e+08,1,4483,4471,15.23,1.77,28,31,0,0
3.7598e+05,1.5534e+08,1,4502,4814,15.22,2.32,28,31,0,0
3.7639e+05,1.5544e+08,1,4842,5100,15.14,2.53,28,31,0,0
3.7679e+05,1.5554e+08,1,5110,5314,15.16,2.43,28,31,0,0
3.7724e+05,1.5565e+08,1,5298,5014,15.22,1.88,28,31,0,0
3.7769e+05,1.5576e+08,1,5032,5271,15.14,2.68,28,31,0,0
3.7814e+05,1.5588e+08,1,5248,5028,15.23,1.53,28,31,0,0
3.7854e+05,1.5598e+08,1,5023,4828,15.26,1.75,28,31,0,0
3.7899e+05,1.5609e+08,1,4821,4571,15.29,1.47,28,31,0,0
3.7943e+05,1.562e+08,1,4576,4671,15.27,1.8,28,31,0,0
3.7988e+05,1.563e+08,1,4662,4542,15.3,1.38,28,31,0,0
3.8122e+05,1.5663e+08,1,4528,4100,15.35,1.36,28,32,0,0
3.8162e+05,1.5674e+08,1,4092,3900,15.17,2.35,28,32,0,0
3.8211e+05,1.5685e+08,1,3912,4042,15.26,2.83,28,32,0,0
3.8254e+05,1.5695e+08,1,4056,4328,15.05,3.2,28,32,0,0
3.8299e+05,1.5706e+08,1,4337,4571,15.24,1.93,28,32,0,0
3.8344e+05,1.5717e+08,1,4588,4814,15.3,1.94,28,32,0,0
3.8385e+05,1.5728e+08,1,4817,4900,15.34,2.19,28,32,0,0
3.8426e+05,1.5738e+08,1,4903,4971,15.27,1.77,28,32,0,0
3.8471e+05,1.5749e+08,1,4967,4800,15.32,1.82,28,32,0,0
3.8515e+05,1.576e+08,1,4800,4800,15.29,1.67,28,32,0,0
3.8564e+05,1.5772e+08,1,4797,4771,15.26,1.83,28,32,0,0
3.8609e+05,1.5783e+08,1,4766,4714,15.26,1.54,28,32,0,0
3.865e+05,1.5793e+08,1,4713,4685,15.24,1.55,28,32,0,0
3.8694e+05,1.5804e+08,1,4684,4671,15.24,1.39,28,32,0,0
3.8738e+05,1.5815e+08,1,4667,4600,15.3,1.35,28,32,0,0
3.8779e+05,1.5825e+08,1,4597,4485,15.32,1.49,28,32,0,0
3.8819e+05,1.5835e+08,1,4487,4600,15.28,1.87,28,32,0,0
3.8869e+05,1.5847e+08,1,4604,4657,15.26,1.68,28,33,0,0
3.8913e+05,1.5858e+08,1,4652,4614,15.29,1.42,28,33,0,0
3.8958e+05,1.5869e+08,1,4598,4371,15.33,1.42,28,33,0,0
3.9002e+05,1.588e+08,1,4377,4442,15.28,1.64,28,33,0,0
3.9047e+05,1.5891e+08,1,4448,4585,15.25,1.53,28,33,0,0
3.9096e+05,1.5903e+08,1,4593,4671,15.23,1.68,28,33,0,0
3.9136e+05,1.5913e+08,1,4672,4742,15.25,1.86,28,33,0,0
3.9184e+05,1.5925e+08,1,4744,4771,15.26,1.66,28,33,0,0
3.9224e+05,1.5934e+08,1,4774,4928,15.16,2.5,28,33,0,0
3.9274e+05,1.5946e+08,1,4936,5071,15.19,2.15,28,33,0,0
3.9318e+05,1.5957e+08,1,5069,5057,15.26,1.64,28,33,0,0
3.9407e+05,1.5979e+08,1,5043,4742,15.22,1.65,28,33,0,0
3.9492e+05,1.6e+08,1,4726,4200,15.36,1.01,28,33,0,0
3.9582e+05,1.6023e+08,1,4213,4514,15.27,2.04,28,33,0,0
3.9627e+05,1.6034e+08,1,4515,4528,15.28,1.3,28,33,0,0
3.9668e+05,1.6044e+08,1,4524,4442,15.3,1.42,28,33,0,0
3.9716e+05,1.6055e+08,1,4421,4128,15.37,1.51,28,34,0,0
3.9757e+05,1.6066e+08,1,4136,4257,15.42,1.49,28,34,0,0
3.9802e+05,1.6077e+08,1,4235,3928,15.33,1.4,28,34,0,0
3.9846e+05,1.6087e+08,1,3921,3828,15.44,2.39,28,34,0,0
3.9888e+05,1.6098e+08,1,3833,3885,15.42,2.07,28,34,0,0
3.9932e+05,1.6109e+08,1,3882,3842,15.43,2.05,28,34,0,0
3.9976e+05,1.612e+08,1,3863,4142,15.39,1.71,28,34,0,0
4.0018e+05,1.613e+08,1,4139,4000,15.45,0.97,28,34,0,0
4.0062e+05,1.6141e+08,1,4005,4128,15.35,1.58,28,34,0,0
4.0106e+05,1.6152e+08,1,4117,3871,15.32,2.44,28,34,0,0
4.0155e+05,1.6163e+08,1,3889,4142,15.36,2.93,28,34,0,0
4.02e+05,1.6175e+08,1,4154,4285,15.42,1.97,28,34,0,0
4.0288e+05,1.6196e+08,1,4274,3857,15.42,2.08,28,34,0,0
4.0333e+05,1.6207e+08,1,3876,4128,15.39,2.68,28,34,0,0
4.0373e+05,1.6217e+08,1,4135,4385,15.35,2.3,28,34,0,0
4.0423e+05,1.6229e+08,1,4398,4542,15.34,2.35,28,34,0,0
4.0463e+05,1.6239e+08,1,4547,4828,15.33,2.08,28,35,0,0
4.0507e+05,1.625e+08,1,4829,4928,15.29,1.91,28,35,0,0
4.0552e+05,1.6261e+08,1,4932,5000,15.29,2.08,28,35,0,0
4.0597e+05,1.6271e+08,1,4993,4842,15.33,1.5,28,35,0,0
4.0642e+05,1.6283e+08,1,4824,4657,15.35,1.34,28,35,0,0
4.0687e+05,1.6293e+08,1,4647,4557,15.36,1.26,28,35,0,0
4.0727e+05,1.6304e+08,1,4561,4671,15.36,1.89,28,35,0,0
4.0776e+05,1.6316e+08,1,4656,4500,15.34,1.37,28,35,0,0
4.082e+05,1.6327e+08,1,4501,4514,15.39,1.22,28,35,0,0
4.086e+05,1.6337e+08,1,4505,4071,15.23,1.58,28,35,0,0
4.091e+05,1.6349e+08,1,4057,3928,15.31,1.66,28,35,0,0
4.0949e+05,1.6359e+08,1,3928,3928,15.33,1.76,28,35,0,0
4.1083e+05,1.6392e+08,1,3945,4557,15.27,2.45,28,35,0,0
4.1168e+05,1.6413e+08,1,4570,5128,15.17,2.43,28,35,0,0
4.1213e+05,1.6424e+08,1,5134,5200,15.2,2.03,28,35,0,0
4.1258e+05,1.6435e+08,1,5194,5142,15.21,2.01,28,36,0,0
4.1343e+05,1.6457e+08,1,5136,4971,15.23,1.71,28,36,0,0
4.1384e+05,1.6467e+08,1,4969,4914,15.22,1.89,28,36,0,0
4.1429e+05,1.6478e+08,1,4922,5042,15.29,1.56,28,36,0,0
4.1474e+05,1.6489e+08,1,5038,4985,15.24,2.02,28,36,0,0
4.1518e+05,1.65e+08,1,5000,5157,15.25,2.12,28,36,0,0
4.1563e+05,1.6511e+08,1,5170,5314,15.17,2.38,28,36,0,0
4.1603e+05,1.6521e+08,1,5310,5271,15.21,2.32,28,36,0,0
4.1648e+05,1.6532e+08,1,5271,5271,15.15,2.12,28,36,0,0
4.1697e+05,1.6544e+08,1,5268,5228,15.24,2.04,28,36,0,0
4.1737e+05,1.6554e+08,1,5222,5100,15.23,1.83,28,36,0,0
4.1782e+05,1.6565e+08,1,5090,4900,15.24,1.85,28,36,0,0
4.1827e+05,1.6577e+08,1,4916,5085,15.22,1.89,28,36,0,0
4.1872e+05,1.6587e+08,1,5083,5057,15.27,2,28,36,0,0
4.1917e+05,1.6598e+08,1,5055,5028,15.25,1.92,28,36,0,0
4.1962e+05,1.661e+08,1,5031,5071,15.26,1.78,28,37,0,0
4.2002e+05,1.662e+08,1,5070,5014,15.27,1.72,28,37,0,0
4.2051e+05,1.6632e+08,1,5016,5042,15.25,1.99,28,37,0,0
4.2092e+05,1.6642e+08,1,5042,5042,15.19,1.99,28,37,0,0
4.214e+05,1.6654e+08,1,5056,5257,15.25,2.13,28,37,0,0
4.218e+05,1.6665e+08,1,5265,5342,15.23,2.16,28,37,0,0
4.2225e+05,1.6675e+08,1,5340,5314,15.21,2.26,28,37,0,0
4.227e+05,1.6686e+08,1,5295,5142,15.27,1.79,28,37,0,0
4.2315e+05,1.6698e+08,1,5148,5257,15.3,2,28,37,0,0
4.2404e+05,1.672e+08,1,5258,5285,15.22,2.09,28,37,0,0
4.2448e+05,1.673e+08,1,5271,5128,15.23,2.08,28,37,0,0
4.2534e+05,1.6752e+08,1,5121,5028,15.21,1.93,28,37,0,0
4.2574e+05,1.6762e+08,1,5024,4885,15.23,2.03,28,37,0,0
4.2618e+05,1.6773e+08,1,4888,5028,15.16,2.11,28,37,0,0
4.2664e+05,1.6784e+08,1,5017,4900,15.19,2.01,28,37,0,0
4.2753e+05,1.6806e+08,1,4900,5042,15.18,1.98,28,38,0,0
4.2838e+05,1.6827e+08,1,5048,5157,15.26,2.13,28,38,0,0
4.2879e+05,1.6837e+08,1,5153,5071,15.25,1.9,28,38,0,0
4.2923e+05,1.6848e+08,1,5070,4985,15.23,1.86,28,38,0,0
4.2968e+05,1.686e+08,1,4978,4900,15.26,1.57,28,38,0,0
4.3016e+05,1.6872e+08,1,4883,4728,15.25,1.68,28,38,0,0
4.3057e+05,1.6882e+08,1,4729,4814,15.23,1.78,28,38,0,0
4.3106e+05,1.6894e+08,1,4810,4785,15.27,1.51,28,38,0,0
4.3147e+05,1.6903e+08,1,4783,4671,15.26,1.58,28,38,0,0
4.3191e+05,1.6915e+08,1,4668,4642,15.25,1.49,28,38,0,0
4.3236e+05,1.6926e+08,1,4640,4628,15.26,1.79,28,38,0,0
4.3276e+05,1.6936e+08,1,4630,4842,15.22,2.23,28,38,0,0
4.3321e+05,1.6946e+08,1,4843,5000,15.15,2.63,28,38,0,0
4.3366e+05,1.6957e+08,1,5006,5400,15.1,2.95,28,38,0,0
4.3411e+05,1.6968e+08,1,5401,5457,15.17,2.45,28,38,0,0
4.3455e+05,1.6979e+08,1,5449,5300,15.15,2.55,28,39,0,0
4.3496e+05,1.699e+08,1,5302,5442,15.13,2.64,28,39,0,0
4.3544e+05,1.7001e+08,1,5440,5400,15.07,2.57,28,39,0,0
4.3633e+05,1.7023e+08,1,5403,5471,15.08,2.64,28,39,0,0
4.3674e+05,1.7033e+08,1,5469,5385,15.16,2.75,28,39,0,0
4.3723e+05,1.7045e+08,1,5388,5428,15.15,2.35,28,39,0,0
4.3768e+05,1.7056e+08,1,5403,5157,15.08,2.17,28,39,0,0
4.3808e+05,1.7066e+08,1,5159,5214,15.14,2.43,28,39,0,0
4.3853e+05,1.7077e+08,1,5208,5157,15.2,2.03,28,39,0,0
4.3898e+05,1.7088e+08,1,5154,4957,15.16,1.97,28,39,0,0
4.3938e+05,1.7098e+08,1,4958,5028,15.21,2.13,28,39,0,0
4.3987e+05,1.711e+08,1,5020,4914,15.24,1.86,28,39,0,0
4.4032e+05,1.7121e+08,1,4922,5042,15.25,2.04,28,39,0,0
4.4076e+05,1.7132e+08,1,5038,4985,15.19,2.03,28,40,0,0
4.4121e+05,1.7143e+08,1,4978,4914,15.24,2.01,28,40,0,0
4.4161e+05,1.7153e+08,1,4914,4928,15.21,2.2,28,40,0,0
4.4206e+05,1.7164e+08,1,4929,5014,15.25,1.92,28,40,0,0
4.4254e+05,1.7175e+08,1,5010,4928,15.25,1.6,28,40,0,0
4.43e+05,1.7186e+08,1,4915,4757,15.29,1.33,28,40,0,0
4.4384e+05,1.7207e+08,1,4754,4657,15.27,1.58,28,40,0,0
4.4474e+05,1.723e+08,1,4654,4542,15.27,1.55,28,40,0,0
4.4522e+05,1.7242e+08,1,4542,4542,15.22,1.45,28,40,0,0
4.4607e+05,1.7263e+08,1,4541,4528,15.24,1.58,28,40,0,0
4.4652e+05,1.7274e+08,1,4542,4685,15.23,1.78,28,40,0,0
4.4697e+05,1.7285e+08,1,4693,4800,15.18,2.14,28,40,0,0
4.4741e+05,1.7296e+08,1,4802,4828,15.24,1.75,28,40,0,0
4.4782e+05,1.7306e+08,1,4827,4814,15.23,1.69,28,40,0,0
4.4826e+05,1.7317e+08,1,4802,4700,15.25,1.58,28,40,0,0
4.4871e+05,1.7328e+08,1,4698,4614,15.21,1.35,28,40,0,0
4.4919e+05,1.734e+08,1,4607,4542,15.28,1.2,28,41,0,0
4.496e+05,1.735e+08,1,4531,4400,15.3,1.27,28,41,0,0
4.5004e+05,1.7361e+08,1,4402,4457,15.25,1.5,28,41,0,0
4.5053e+05,1.7373e+08,1,4451,4400,15.29,1.4,28,41,0,0
4.5134e+05,1.7393e+08,1,4400,4471,15.26,1.41,28,41,0,0
4.5183e+05,1.7405e+08,1,4470,4457,15.2,1.7,28,41,0,0
4.5224e+05,1.7415e+08,1,4458,4500,15.2,1.48,28,41,0,0
4.5269e+05,1.7426e+08,1,4500,4500,15.22,1.5,28,41,0,0
4.5314e+05,1.7438e+08,1,4498,4471,15.23,1.4,28,41,0,0
4.5359e+05,1.7449e+08,1,4471,4471,15.19,1.43,28,41,0,0
4.5447e+05,1.7471e+08,1,4465,4285,15.23,1.22,28,41,0,0
4.5494e+05,1.7483e+08,1,4275,4185,15.29,0.97,28,41,0,0
4.5534e+05,1.7492e+08,1,4183,4157,15.28,1.16,28,41,0,0
4.5623e+05,1.7515e+08,1,4144,3928,15.29,1.36,28,41,0,0
4.5664e+05,1.7525e+08,1,3931,4014,15.29,1.69,28,41,0,0
4.5712e+05,1.7537e+08,1,4040,4342,15.1,2.03,28,41,0,0
4.5801e+05,1.7559e+08,1,4347,4500,15.29,1.47,28,41,0,0
4.5842e+05,1.7568e+08,1,4495,4414,15.29,1.39,28,41,0,0
4.5883e+05,1.7579e+08,1,4420,4485,15.28,1.62,28,41,0,0
4.5928e+05,1.759e+08,1,4489,4542,15.21,1.61,28,42,0,0
4.6018e+05,1.7612e+08,1,4535,4385,15.15,1.4,28,42,0,0
4.6066e+05,1.7623e+08,1,4377,4300,15.28,1.07,28,42,0,0
4.62e+05,1.7657e+08,1,4312,4614,15.23,1.61,28,42,0,0
4.6244e+05,1.7668e+08,1,4607,4528,15.22,1.51,28,42,0,0
4.6289e+05,1.7678e+08,1,4529,4557,15.21,1.52,28,42,0,0
4.6329e+05,1.7688e+08,1,4559,4657,15.14,1.83,28,42,0,0
4.637e+05,1.7699e+08,1,4657,4700,15.23,1.51,28,42,0,0
4.6419e+05,1.771e+08,1,4683,4528,15.26,1.49,28,42,0,0
4.646e+05,1.7721e+08,1,4525,4485,15.16,1.53,28,42,0,0
4.6505e+05,1.7732e+08,1,4499,4600,15.22,1.47,28,42,0,0
4.6545e+05,1.7742e+08,1,4599,4571,15.22,1.61,28,42,0,0
4.659e+05,1.7753e+08,1,4570,4557,15.16,1.75,28,42,0,0
4.6634e+05,1.7763e+08,1,4557,4557,15.17,1.81,28,42,0,0
4.6678e+05,1.7774e+08,1,4559,4614,15.2,1.5,28,42,0,0
4.6724e+05,1.7786e+08,1,4606,4442,15.23,1.24,28,42,0,0
4.6764e+05,1.7796e+08,1,4442,4457,15.27,1.4,28,42,0,0
4.6814e+05,1.7808e+08,1,4447,4300,15.24,1.25,28,42,0,0
4.6854e+05,1.7818e+08,1,4300,4300,15.29,1.14,28,42,0,0
4.6943e+05,1.784e+08,1,4295,4200,15.3,1.28,28,43,0,0
4.6984e+05,1.785e+08,1,4200,4214,15.27,1.11,28,43,0,0
4.7032e+05,1.7862e+08,1,4214,4214,15.32,1.48,28,43,0,0
4.7076e+05,1.7873e+08,1,4221,4285,15.23,1.19,28,43,0,0
4.7122e+05,1.7884e+08,1,4271,4128,15.32,1.13,28,43,0,0
4.7162e+05,1.7894e+08,1,4118,3985,15.26,1.25,28,43,0,0
4.725e+05,1.7915e+08,1,3988,4400,15.29,1.39,28,43,0,0
4.73e+05,1.7927e+08,1,4400,4414,15.3,1.35,28,43,0,0
4.7347e+05,1.7938e+08,1,4416,4485,15.26,1.37,28,43,0,0
4.7433e+05,1.796e+08,1,4487,4528,15.26,1.4,28,43,0,0
4.7478e+05,1.797e+08,1,4523,4457,15.25,1.38,28,43,0,0
4.7522e+05,1.7981e+08,1,4451,4400,15.31,1.12,28,43,0,0
4.7563e+05,1.7991e+08,1,4401,4471,15.33,1.38,28,43,0,0
4.7611e+05,1.8003e+08,1,4469,4442,15.28,1.38,28,43,0,0
4.7651e+05,1.8013e+08,1,4442,4442,15.29,1.33,28,43,0,0
4.7696e+05,1.8024e+08,1,4424,4071,15.36,0.73,28,43,0,0
4.7737e+05,1.8035e+08,1,4057,3728,15.42,1.47,28,43,0,0
4.7782e+05,1.8046e+08,1,3728,3742,15.36,1.95,28,43,0,0
4.7871e+05,1.8068e+08,1,3771,4642,15.3,2.37,28,43,0,0
4.7912e+05,1.8078e+08,1,4647,5042,15.31,2.01,28,44,0,0
4.7961e+05,1.809e+08,1,5016,4757,15.29,1.37,28,44,0,0
4.805e+05,1.8112e+08,1,4747,4571,15.22,1.73,28,44,0,0
4.809e+05,1.8122e+08,1,4570,4557,15.27,1.19,28,44,0,0
4.8132e+05,1.8133e+08,1,4553,4314,15.26,1.11,28,44,0,0
4.8177e+05,1.8143e+08,1,4314,4328,15.26,1.06,28,44,0,0
4.8221e+05,1.8155e+08,1,4323,4285,15.23,1.15,27,44,0,0
4.8266e+05,1.8165e+08,1,4279,4200,15.3,1.23,28,44,0,0
4.831e+05,1.8176e+08,1,4175,3928,15.3,1.3,28,44,0,0
4.8355e+05,1.8187e+08,1,3931,3971,15.13,1.68,28,44,0,0
4.8395e+05,1.8197e+08,1,3971,4014,15.17,2.62,28,44,0,0
4.844e+05,1.8208e+08,1,4011,3900,15.25,1.39,28,44,0,0
4.8484e+05,1.8219e+08,1,3900,3900,15.18,1.59,28,44,0,0
4.853e+05,1.823e+08,1,3909,4042,15.01,2.15,28,44,0,0
4.8619e+05,1.8252e+08,1,4051,4228,15.26,1.59,28,44,0,0
4.8663e+05,1.8262e+08,1,4240,4414,15.29,1.58,28,44,0,0
4.8704e+05,1.8273e+08,1,4415,4457,15.26,1.28,28,44,0,0
4.8749e+05,1.8284e+08,1,4455,4328,15.28,1.26,28,44,0,0
4.8797e+05,1.8295e+08,1,4323,4242,15.22,1.13,28,44,0,0
4.8846e+05,1.8307e+08,1,4238,4200,15.29,1.66,28,44,0,0
4.8886e+05,1.8318e+08,1,4201,4214,15.29,1.35,28,44,0,0
4.8931e+05,1.8329e+08,1,4241,4485,15.25,1.68,28,45,0,0
4.8976e+05,1.834e+08,1,4483,4471,15.22,1.48,28,45,0,0
4.902e+05,1.8351e+08,1,4473,4500,15.23,1.45,28,45,0,0
4.906e+05,1.836e+08,1,4500,4514,15.26,1.53,28,45,0,0
4.9105e+05,1.8372e+08,1,4515,4600,15.27,1.58,28,45,0,0
4.915e+05,1.8382e+08,1,4598,4585,15.26,1.37,28,45,0,0
4.9238e+05,1.8404e+08,1,4589,4700,15.22,1.63,28,45,0,0
4.9283e+05,1.8416e+08,1,4686,4600,15.26,1.4,28,45,0,0
4.9328e+05,1.8427e+08,1,4595,4557,15.29,1.62,28,45,0,0
4.9369e+05,1.8437e+08,1,4554,4500,15.26,1.23,28,45,0,0
4.9417e+05,1.8448e+08,1,4492,4371,15.24,1.32,28,45,0,0
4.9458e+05,1.8458e+08,1,4371,4371,15.29,1.32,28,45,0,0
4.9507e+05,1.847e+08,1,4363,4285,15.23,1.37,28,45,0,0
4.9552e+05,1.8481e+08,1,4295,4385,15.22,1.88,28,45,0,0
4.9593e+05,1.8491e+08,1,4372,4228,15.25,0.96,28,45,0,0
4.9637e+05,1.8502e+08,1,4213,3914,15.22,1.43,27,45,0,0
4.9682e+05,1.8514e+08,1,3914,3914,15.2,2.6,28,45,0,0
4.9772e+05,1.8536e+08,1,3937,4328,15.2,2.05,28,45,0,0
4.9812e+05,1.8545e+08,1,4334,4414,15.25,1.59,28,45,0,0
4.9856e+05,1.8556e+08,1,4413,4400,15.29,1.35,28,46,0,0
4.9902e+05,1.8567e+08,1,4403,4442,15.25,1.75,28,46,0,0
4.9945e+05,1.8578e+08,1,4446,4557,15.23,1.65,28,46,0,0
4.999e+05,1.8589e+08,1,4553,4485,15.28,1.42,28,46,0,0
5.0079e+05,1.8611e+08,1,4485,4500,15.19,1.5,28,46,0,0
5.0124e+05,1.8622e+08,1,4507,4614,15.23,1.51,28,46,0,0
5.0172e+05,1.8633e+08,1,4616,4642,15.27,1.59,28,46,0,0
5.0209e+05,1.8643e+08,1,4642,4642,15.16,1.86,28,46,0,0
5.0257e+05,1.8654e+08,1,4650,4742,15.05,1.94,28,46,0,0
5.0302e+05,1.8665e+08,1,4743,4757,15.24,1.61,28,46,0,0
5.0343e+05,1.8675e+08,1,4756,4742,15.2,1.66,28,46,0,0
5.0432e+05,1.8698e+08,1,4740,4671,15.23,1.58,28,46,0,0
5.0481e+05,1.8709e+08,1,4664,4600,15.23,1.52,28,46,0,0
5.0526e+05,1.872e+08,1,4594,4542,15.22,1.37,28,46,0,0
5.0571e+05,1.8731e+08,1,4537,4485,15.23,1.52,28,46,0,0
5.0615e+05,1.8742e+08,1,4486,4500,15.2,1.68,28,46,0,0
5.0659e+05,1.8752e+08,1,4501,4557,15.22,1.59,28,46,0,0
5.0704e+05,1.8763e+08,1,4557,4557,15.19,1.85,28,46,0,0
5.0789e+05,1.8784e+08,1,4560,4657,15.23,1.43,28,47,0,0
5.0834e+05,1.8795e+08,1,4649,4542,15.29,1.31,28,47,0,0
5.0879e+05,1.8806e+08,1,4539,4485,15.29,1.4,28,47,0,0
5.0927e+05,1.8818e+08,1,4478,4414,15.29,1.7,28,47,0,0
5.0967e+05,1.8828e+08,1,4412,4314,15.29,1.54,28,47,0,0
5.1016e+05,1.8839e+08,1,4310,4271,15.29,1.18,28,47,0,0
5.1061e+05,1.885e+08,1,4262,4142,15.19,1.52,28,47,0,0
5.1105e+05,1.8861e+08,1,4158,4328,15.22,1.38,28,47,0,0
5.115e+05,1.8871e+08,1,4317,4100,15.25,1.36,28,47,0,0
5.1238e+05,1.8893e+08,1,4095,3971,15.31,1.63,28,47,0,0
5.1283e+05,1.8904e+08,1,3972,4057,15.26,1.78,28,47,0,0
5.1328e+05,1.8915e+08,1,4052,3957,15.27,1.48,28,47,0,0
5.1373e+05,1.8926e+08,1,3890,3242,15.52,0.82,28,47,0,0
5.1417e+05,1.8937e+08,1,3263,3485,15.45,1.62,28,47,0,0
5.1458e+05,1.8947e+08,1,3477,3071,15.4,1.07,28,47,0,0
5.1503e+05,1.8958e+08,1,3064,2914,15.42,0.74,28,47,0,0
5.1547e+05,1.8969e+08,1,2911,2700,15.52,0.9,28,47,0,0
5.1596e+05,1.8981e+08,1,2690,2585,15.63,0.73,28,47,0,0
5.1641e+05,1.8991e+08,1,2571,2428,15.7,0.27,28,47,0,0
5.1686e+05,1.9002e+08,1,2414,2285,15.66,0.28,28,47,0,0
5.1729e+05,1.9013e+08,1,2272,2142,15.66,0.16,28,47,0,0
5.177e+05,1.9023e+08,1,2140,2114,15.66,0.15,28,47,0,0
5.1816e+05,1.9035e+08,1,2102,1985,15.66,0.19,28,47,0,0
5.1856e+05,1.9045e+08,1,1988,2057,15.67,0.25,28,47,0,0
5.1901e+05,1.9056e+08,1,2057,2057,15.66,0.21,28,47,0,0
5.1946e+05,1.9067e+08,1,2053,2014,15.66,0.2,28,47,0,0
5.1986e+05,1.9077e+08,1,2014,2028,15.67,0.24,28,47,0,0
5.2034e+05,1.9088e+08,1,2029,2042,15.65,0.21,28,47,0,0
5.2075e+05,1.9099e+08,1,2042,2042,15.68,0.22,28,47,0,0
5.2123e+05,1.911e+08,1,2042,2057,15.68,0.23,28,47,0,0
5.2165e+05,1.912e+08,1,2058,2085,15.67,0.29,28,47,0,0
5.2209e+05,1.9131e+08,1,2084,2071,15.69,0.21,28,47,0,0
5.2254e+05,1.9142e+08,1,2071,2071,15.67,0.23,28,47,0,0
5.2299e+05,1.9153e+08,1,2070,2057,15.67,0.21,28,47,0,0
5.2344e+05,1.9164e+08,1,2057,2057,15.73,0.23,28,47,0,0
5.2385e+05,1.9174e+08,1,2053,1771,15.74,0.01,28,47,0,0
5.2429e+05,1.9184e+08,1,1765,1414,15.74,0.01,28,47,0,0
5.2481e+05,1.9197e+08,1,1395,1300,15.73,0.08,28,47,0,0
5.2522e+05,1.9206e+08,1,1299,1285,15.73,0.09,28,47,0,0
5.2567e+05,1.9217e+08,1,1284,1271,15.73,0.1,28,47,0,0
5.2612e+05,1.9228e+08,1,1271,1271,15.73,0.1,28,47,0,0
5.2656e+05,1.9239e+08,1,1271,1271,15.73,0.1,28,47,0,0
5.2701e+05,1.925e+08,1,1271,1271,15.73,0.1,28,47,0,0
5.2742e+05,1.9261e+08,1,1271,1271,15.74,0.1,27,47,0,0
5.2787e+05,1.9271e+08,1,1271,1271,15.74,0.09,27,47,0,0
5.2876e+05,1.9293e+08,1,1271,1271,15.74,0.1,28,47,0,0
5.2924e+05,1.9304e+08,1,1271,1271,15.75,0.1,27,47,0,0
5.2965e+05,1.9315e+08,1,1271,1271,15.75,0.1,27,47,0,0
5.301e+05,1.9325e+08,1,1259,642,15.77,0.01,27,47,0,0
5.3057e+05,1.9337e+08,1,602,200,15.77,0.01,27,47,0,0
5.3102e+05,1.9347e+08,1,196,0,15.77,0.02,27,47,0,0
5.3152e+05,1.9358e+08,1,0,0,15.77,0.03,27,47,0,0
5.3197e+05,1.9369e+08,1,0,0,15.77,0.03,27,47,0,0
5.3246e+05,1.938e+08,1,0,0,15.77,0.03,27,47,0,0
5.3291e+05,1.9391e+08,1,0,0,15.77,0.03,27,47,0,0
5.3332e+05,1.9401e+08,1,0,0,15.77,0.03,27,47,0,0
5.3382e+05,1.9413e+08,1,0,0,15.77,0.03,27,47,0,0
5.3423e+05,1.9423e+08,1,0,0,15.77,0.03,27,47,0,0
5.3464e+05,1.9433e+08,1,0,0,15.77,0.03,27,47,0,0
5.3514e+05,1.9445e+08,1,0,0,15.79,0.02,27,47,0,0
5.3559e+05,1.9455e+08,1,0,0,15.78,0.03,27,47,0,0
5.3609e+05,1.9467e+08,1,0,0,15.78,0.03,27,47,0,0
5.3649e+05,1.9477e+08,1,0,0,15.79,0.03,27,47,0,0
5.3699e+05,1.9488e+08,1,0,0,15.79,0.03,27,47,0,0
5.3744e+05,1.9499e+08,1,0,0,15.79,0.03,27,47,0,0
5.3789e+05,1.9509e+08,1,0,0,15.79,0.03,27,47,0,0
5.3835e+05,1.9521e+08,1,0,0,15.79,0.03,27,47,0,0
5.388e+05,1.9531e+08,1,0,0,15.79,0.03,27,47,0,0
5.3925e+05,1.9542e+08,1,0,0,15.8,0.03,27,47,0,0
5.3971e+05,1.9553e+08,1,0,0,15.8,0.03,27,47,0,0
5.4017e+05,1.9565e+08,1,0,0,15.8,0.03,27,47,0,0
5.4062e+05,1.9575e+08,1,0,0,15.8,0.03,27,47,0,0
5.4107e+05,1.9586e+08,1,0,0,15.8,0.03,27,47,0,0
5.4156e+05,1.9598e+08,1,0,0,15.8,0.03,27,47,0,0
5.4201e+05,1.9608e+08,1,0,0,15.8,0.03,27,47,0,0
5.4247e+05,1.9619e+08,1,0,0,15.8,0.03,27,47,0,0
5.4296e+05,1.963e+08,1,0,0,15.8,0.03,27,47,0,0
5.4341e+05,1.9641e+08,1,0,0,15.8,0.03,27,47,0,0
5.4386e+05,1.9651e+08,1,0,0,15.8,0.03,27,47,0,0
5.4432e+05,1.9663e+08,1,0,0,15.8,0.03,27,47,0,0
5.4478e+05,1.9674e+08,1,0,0,15.81,0.03,27,47,0,0
5.4523e+05,1.9684e+08,1,0,0,15.81,0.03,27,47,0,0
5.4568e+05,1.9695e+08,1,0,0,15.81,0.03,27,47,0,0
5.4586e+05,1.9705e+08,1,0,0,15.81,0.03,27,47,0,0
5.4631e+05,1.9716e+08,1,0,0,15.81,0.03,27,47,0,0
5.4676e+05,1.9727e+08,1,0,0,15.82,0.03,27,47,0,0
5.4725e+05,1.9738e+08,1,0,0,15.82,0.03,27,47,0,0
5.4775e+05,1.975e+08,1,0,0,15.82,0.03,27,47,0,0
5.482e+05,1.976e+08,1,0,0,15.82,0.03,27,47,0,0
5.4865e+05,1.9771e+08,1,0,0,15.82,0.03,27,47,0,0
5.4911e+05,1.9782e+08,1,0,0,15.82,0.03,27,47,0,0
5.4956e+05,1.9793e+08,1,0,0,15.82,0.03,27,47,0,0
5.5002e+05,1.9804e+08,1,0,0,15.83,0.03,27,47,0,0
5.5046e+05,1.9814e+08,1,0,0,15.82,0.03,27,47,0,0
5.5096e+05,1.9826e+08,1,0,0,15.83,0.03,27,47,0,0
5.5141e+05,1.9836e+08,1,0,0,15.82,0.03,27,47,0,0
5.5186e+05,1.9847e+08,1,0,0,15.82,0.03,27,47,0,0
5.5232e+05,1.9858e+08,1,0,0,15.83,0.03,27,47,0,0
5.5277e+05,1.9868e+08,1,0,0,15.83,0.03,27,47,0,0
5.5326e+05,1.988e+08,1,0,0,15.83,0.03,27,47,0,0
5.5372e+05,1.9891e+08,1,0,0,15.83,0.03,27,47,0,0
5.5462e+05,1.9912e+08,1,0,0,15.83,0.03,27,47,0,0
5.5506e+05,1.9922e+08,1,0,0,15.83,0.03,27,47,0,0
5.5552e+05,1.9934e+08,1,0,0,15.83,0.03,27,47,0,0
5.5601e+05,1.9945e+08,1,0,0,15.83,0.03,27,47,0,0
5.5692e+05,1.9966e+08,1,0,0,15.83,0.03,27,47,0,0
5.5736e+05,1.9977e+08,1,0,0,15.83,0.03,27,47,0,0
5.5786e+05,1.9988e+08,1,0,0,15.84,0.03,27,47,0,0
5.5827e+05,1.9999e+08,1,0,0,15.84,0.03,27,47,0,0
