LineNo,TimeUS,Instance,RPM,RawRPM,Volt,Curr,Temp,CTot,MotTemp,Err
1473,6.4656e+07,0,0,0,16.08,0.05,34,0,0,0
1843,6.4754e+07,0,0,0,16.08,0.05,33,0,0,0
2309,6.4867e+07,0,0,0,16.08,0.05,33,0,0,0
2725,6.4978e+07,0,0,0,16.08,0.05,34,0,0,0
3138,6.508e+07,0,0,0,16.08,0.05,34,0,0,0
3586,6.5192e+07,0,0,0,16.08,0.05,34,0,0,0
4007,6.5297e+07,0,0,0,16.08,0.05,33,0,0,0
4423,6.5403e+07,0,0,0,16.08,0.05,34,0,0,0
4838,6.5507e+07,0,0,0,16.08,0.05,34,0,0,0
5287,6.5621e+07,0,0,0,16.08,0.05,34,0,0,0
5698,6.5727e+07,0,0,0,16.08,0.05,34,0,0,0
6117,6.583e+07,0,0,0,16.08,0.05,34,0,0,0
6980,6.6049e+07,0,0,0,16.08,0.05,34,0,0,0
7375,6.6147e+07,0,0,0,16.08,0.05,34,0,0,0
7874,6.6261e+07,0,0,0,16.08,0.05,34,0,0,0
8327,6.6367e+07,0,0,0,16.08,0.05,34,0,0,0
8782,6.6473e+07,0,0,0,16.08,0.05,33,0,0,0
9312,6.6591e+07,0,0,0,16.08,0.06,34,0,0,0
9765,6.6694e+07,0,0,0,16.08,0.05,34,0,0,0
10222,6.6804e+07,0,0,0,16.08,0.06,33,0,0,0
10678,6.6913e+07,0,0,0,16.08,0.05,33,0,0,0
11131,6.7014e+07,0,0,0,16.08,0.05,34,0,0,0
11625,6.7128e+07,0,0,0,16.08,0.05,33,0,0,0
12127,6.724e+07,0,0,0,16.08,0.05,34,0,0,0
12578,6.7349e+07,0,0,0,16.08,0.05,34,0,0,0
13033,6.7453e+07,0,0,0,16.08,0.05,34,0,0,0
13480,6.7558e+07,0,0,0,16.08,0.05,33,0,0,0
13976,6.7671e+07,0,0,0,16.08,0.05,34,0,0,0
14389,6.7769e+07,0,0,0,16.08,0.05,34,0,0,0
14885,6.7883e+07,0,0,0,16.08,0.05,34,0,0,0
15336,6.7991e+07,0,0,0,16.08,0.05,33,0,0,0
15795,6.8099e+07,0,0,0,16.08,0.05,33,0,0,0
16246,6.8204e+07,0,0,0,16.08,0.06,34,0,0,0
16744,6.8319e+07,0,62,771,16.07,0.19,34,0,0,0
17199,6.8423e+07,0,1027,3728,16.04,0.77,34,0,0,0
17657,6.8534e+07,0,3501,1000,16.05,0.28,34,0,0,0
18066,6.8627e+07,0,1002,1200,16.06,0.15,34,0,0,0
18563,6.8744e+07,0,1204,1257,16.07,0.12,34,0,0,0
19016,6.8847e+07,0,1257,1285,16.07,0.12,34,0,0,0
19467,6.8954e+07,0,1285,1314,16.07,0.12,34,0,0,0
19963,6.9064e+07,0,1313,1300,16.06,0.12,34,0,0,0
20199,6.9172e+07,0,1300,1314,16.06,0.11,34,0,0,0
20700,6.9286e+07,0,1314,1314,16.07,0.11,34,0,0,0
21108,6.9383e+07,0,1313,1300,16.07,0.12,34,0,0,0
21611,6.9502e+07,0,1301,1314,16.07,0.12,34,0,0,0
22102,6.9609e+07,0,1314,1314,16.07,0.12,34,0,0,0
22559,6.9718e+07,0,1314,1314,16.06,0.12,34,0,0,0
23015,6.9823e+07,0,1313,1300,16.06,0.12,34,0,0,0
23427,6.9923e+07,0,1300,1314,16.07,0.12,34,0,0,0
23924,7.0034e+07,0,1314,1314,16.06,0.12,34,0,0,0
24414,7.0146e+07,0,1313,1300,16.05,0.12,34,0,0,0
24869,7.0247e+07,0,1300,1314,16.06,0.12,34,0,0,0
25366,7.0364e+07,0,1314,1314,16.07,0.12,34,0,0,0
25821,7.0468e+07,0,1314,1314,16.06,0.11,34,0,0,0
26273,7.0574e+07,0,1314,1314,16.06,0.12,34,0,0,0
26770,7.0687e+07,0,1314,1314,16.06,0.12,34,0,0,0
27230,7.0798e+07,0,1312,1300,16.07,0.12,34,0,0,0
27683,7.09e+07,0,1300,1314,16.06,0.12,34,0,0,0
28096,7.1002e+07,0,1314,1314,16.07,0.11,34,0,0,0
28588,7.1115e+07,0,1314,1314,16.07,0.11,34,0,0,0
29087,7.1228e+07,0,1312,1300,16.07,0.11,34,0,0,0
29497,7.1328e+07,0,1300,1300,16.07,0.11,34,0,0,0
29953,7.1432e+07,0,1300,1314,16.07,0.12,34,0,0,0
30448,7.1546e+07,0,1314,1314,16.07,0.12,34,0,0,0
30948,7.1658e+07,0,1314,1314,16.06,0.12,34,0,0,0
31361,7.1755e+07,0,1313,1300,16.07,0.11,34,0,0,0
31859,7.1868e+07,0,1300,1300,16.07,0.12,34,0,0,0
32315,7.1978e+07,0,1301,1314,16.07,0.12,34,0,0,0
32768,7.208e+07,0,1314,1314,16.07,0.12,34,0,0,0
33262,7.2196e+07,0,1314,1314,16.07,0.12,34,0,0,0
33721,7.2301e+07,0,1314,1314,16.06,0.12,34,0,0,0
34170,7.2408e+07,0,1314,1314,16.06,0.12,34,0,0,0
34623,7.2516e+07,0,1313,1300,16.06,0.12,34,0,0,0
35124,7.263e+07,0,1301,1314,16.06,0.11,34,0,0,0
35540,7.2732e+07,0,1314,1314,16.07,0.12,34,0,0,0
35997,7.2838e+07,0,1313,1300,16.06,0.12,34,0,0,0
36492,7.2956e+07,0,1300,1314,16.06,0.12,34,0,0,0
36945,7.3058e+07,0,1313,1300,16.07,0.12,34,0,0,0
37431,7.3167e+07,0,1301,1314,16.07,0.12,34,0,0,0
37930,7.3277e+07,0,1314,1314,16.07,0.11,34,0,0,0
38385,7.3386e+07,0,1314,1314,16.05,0.11,34,0,0,0
38838,7.3491e+07,0,1313,1300,16.06,0.12,34,0,0,0
39294,7.36e+07,0,1301,1314,16.06,0.12,34,0,0,0
39755,7.3705e+07,0,1314,1314,16.06,0.11,34,0,0,0
40204,7.381e+07,0,1313,1300,16.06,0.11,34,0,0,0
40660,7.3915e+07,0,1300,1314,16.07,0.11,34,0,0,0
41156,7.403e+07,0,1314,1314,16.06,0.11,34,0,0,0
41608,7.4136e+07,0,1314,1314,16.06,0.12,34,0,0,0
42108,7.4249e+07,0,1314,1314,16.06,0.12,34,0,0,0
42560,7.4357e+07,0,1314,1314,16.06,0.12,34,0,0,0
43016,7.4463e+07,0,1313,1300,16.06,0.11,34,0,0,0
43469,7.4568e+07,0,1300,1300,16.05,0.12,34,0,0,0
43968,7.468e+07,0,1301,1314,16.06,0.12,34,0,0,0
44424,7.4788e+07,0,1312,1300,16.05,0.12,34,0,0,0
44877,7.489e+07,0,1300,1314,16.05,0.12,34,0,0,0
45336,7.5002e+07,0,1314,1314,16.06,0.11,34,0,0,0
45790,7.5103e+07,0,1314,1314,16.06,0.12,34,0,0,0
46240,7.5208e+07,0,1314,1314,16.06,0.12,34,0,0,0
46735,7.5321e+07,0,1313,1300,16.07,0.12,34,0,0,0
47187,7.5425e+07,0,1300,1314,16.06,0.12,34,0,0,0
47683,7.5542e+07,0,1314,1314,16.06,0.12,34,0,0,0
48100,7.5639e+07,0,1313,1300,16.06,0.12,34,0,0,0
48599,7.5754e+07,0,1301,1314,16.06,0.12,34,0,0,0
49050,7.5856e+07,0,1313,1300,16.05,0.12,34,0,0,0
49506,7.5965e+07,0,1300,1300,16.06,0.12,34,0,0,0
49990,7.6079e+07,0,1231,485,16.08,0.01,34,0,0,0
50440,7.6187e+07,0,465,185,16.07,0.04,34,0,0,0
50893,7.6292e+07,0,176,0,16.08,0.05,34,0,0,0
51388,7.6407e+07,0,0,0,16.07,0.05,34,0,0,0
51844,7.6517e+07,0,0,0,16.07,0.05,34,0,0,0
52302,7.6627e+07,0,0,0,16.07,0.05,34,0,0,0
52756,7.6735e+07,0,0,0,16.07,0.05,34,0,0,0
53667,7.695e+07,0,0,0,16.08,0.05,34,0,0,0
54121,7.7058e+07,0,0,0,16.08,0.05,34,0,0,0
54576,7.7166e+07,0,0,0,16.08,0.05,34,0,0,0
55072,7.7282e+07,0,0,0,16.07,0.05,34,0,0,0
55522,7.7387e+07,0,0,0,16.08,0.05,34,0,0,0
55971,7.7491e+07,0,0,0,16.07,0.05,34,0,0,0
56428,7.7603e+07,0,0,0,16.07,0.05,34,0,0,0
56886,7.7714e+07,0,0,0,16.07,0.05,34,0,0,0
57339,7.7817e+07,0,0,0,16.08,0.06,34,0,0,0
57789,7.7924e+07,0,0,0,16.08,0.05,34,0,0,0
58246,7.8032e+07,0,0,0,16.08,0.06,34,0,0,0
58702,7.8143e+07,0,0,0,16.07,0.05,34,0,0,0
59156,7.8247e+07,0,0,0,16.08,0.05,34,0,0,0
59607,7.8354e+07,0,0,0,16.08,0.05,34,0,0,0
60062,7.846e+07,0,0,0,16.07,0.05,34,0,0,0
60514,7.8571e+07,0,0,0,16.08,0.05,34,0,0,0
61012,7.8686e+07,0,0,0,16.08,0.05,34,0,0,0
61463,7.8792e+07,0,0,0,16.08,0.06,34,0,0,0
61964,7.891e+07,0,0,0,16.07,0.05,34,0,0,0
62414,7.9015e+07,0,0,0,16.07,0.05,34,0,0,0
62871,7.9127e+07,0,0,0,16.07,0.05,34,0,0,0
63324,7.9233e+07,0,0,0,16.07,0.05,34,0,0,0
63550,7.9342e+07,0,0,0,16.08,0.05,34,0,0,0
64001,7.9447e+07,0,0,0,16.08,0.05,34,0,0,0
64453,7.9555e+07,0,0,0,16.07,0.05,34,0,0,0
64908,7.9658e+07,0,0,0,16.08,0.05,34,0,0,0
65368,7.9772e+07,0,0,0,16.08,0.05,34,0,0,0
65826,7.9877e+07,0,0,0,16.07,0.05,34,0,0,0
66322,7.9996e+07,0,0,0,16.07,0.05,34,0,0,0
66777,8.0102e+07,0,0,0,16.08,0.05,34,0,0,0
67229,8.0209e+07,0,0,0,16.07,0.05,34,0,0,0
68178,8.0433e+07,0,0,0,16.08,0.05,34,0,0,0
68668,8.0546e+07,0,0,0,16.07,0.05,34,0,0,0
69126,8.0653e+07,0,0,0,16.08,0.05,34,0,0,0
69536,8.0754e+07,0,0,0,16.08,0.05,34,0,0,0
70035,8.087e+07,0,0,0,16.08,0.05,34,0,0,0
70482,8.0975e+07,0,0,0,16.08,0.05,34,0,0,0
70979,8.109e+07,0,0,0,16.08,0.05,34,0,0,0
71395,8.1189e+07,0,0,0,16.08,0.05,34,0,0,0
71893,8.1303e+07,0,0,0,16.08,0.05,34,0,0,0
72340,8.141e+07,0,0,0,16.07,0.05,34,0,0,0
72832,8.1528e+07,0,0,0,16.08,0.05,34,0,0,0
73289,8.1634e+07,0,0,0,16.07,0.05,34,0,0,0
73741,8.1745e+07,0,0,0,16.08,0.05,34,0,0,0
74236,8.1859e+07,0,0,0,16.08,0.05,34,0,0,0
74686,8.1962e+07,0,0,0,16.08,0.05,34,0,0,0
75186,8.2079e+07,0,0,0,16.08,0.05,34,0,0,0
75640,8.2187e+07,0,0,0,16.08,0.05,34,0,0,0
76093,8.2291e+07,0,0,0,16.08,0.05,34,0,0,0
76588,8.241e+07,0,0,0,16.08,0.05,34,0,0,0
77043,8.2521e+07,0,0,0,16.08,0.05,34,0,0,0
77951,8.2734e+07,0,0,0,16.08,0.05,34,0,0,0
78407,8.2842e+07,0,0,0,16.07,0.05,34,0,0,0
78858,8.2947e+07,0,0,0,16.07,0.05,34,0,0,0
79356,8.3061e+07,0,0,0,16.08,0.05,34,0,0,0
79813,8.3174e+07,0,0,0,16.07,0.05,34,0,0,0
80266,8.3279e+07,0,0,0,16.08,0.05,34,0,0,0
80721,8.3391e+07,0,0,0,16.08,0.05,34,0,0,0
81175,8.3494e+07,0,0,0,16.08,0.05,34,0,0,0
81670,8.3612e+07,0,0,0,16.08,0.05,34,0,0,0
82124,8.3722e+07,0,0,0,16.08,0.05,34,0,0,0
82576,8.3826e+07,0,0,0,16.08,0.05,34,0,0,0
83025,8.3931e+07,0,0,0,16.08,0.05,34,0,0,0
83525,8.4045e+07,0,0,0,16.08,0.05,34,0,0,0
83974,8.415e+07,0,0,0,16.07,0.05,34,0,0,0
84473,8.4264e+07,0,0,0,16.07,0.05,34,0,0,0
84924,8.4371e+07,0,0,0,16.08,0.05,34,0,0,0
85379,8.4478e+07,0,0,0,16.08,0.05,34,0,0,0
85836,8.4587e+07,0,0,0,16.08,0.05,34,0,0,0
86341,8.4704e+07,0,0,0,16.08,0.05,34,0,0,0
86790,8.4811e+07,0,0,0,16.08,0.05,34,0,0,0
87244,8.4916e+07,0,0,0,16.08,0.05,34,0,0,0
87697,8.5023e+07,0,0,0,16.08,0.04,34,0,0,0
88192,8.5139e+07,0,0,0,16.08,0.05,34,0,0,0
88646,8.5243e+07,0,0,0,16.07,0.05,34,0,0,0
89096,8.5352e+07,0,0,0,16.08,0.05,34,0,0,0
89592,8.5467e+07,0,0,0,16.08,0.05,34,0,0,0
90046,8.5576e+07,0,0,0,16.08,0.05,34,0,0,0
90499,8.5682e+07,0,0,0,16.08,0.05,34,0,0,0
90913,8.5784e+07,0,0,0,16.08,0.05,34,0,0,0
91412,8.5897e+07,0,0,0,16.07,0.05,34,0,0,0
91863,8.6006e+07,0,0,0,16.07,0.05,34,0,0,0
92314,8.611e+07,0,0,0,16.07,0.05,34,0,0,0
92812,8.6226e+07,0,0,0,16.08,0.05,34,0,0,0
93227,8.6328e+07,0,0,0,16.07,0.05,34,0,0,0
93723,8.6444e+07,0,0,0,16.07,0.05,34,0,0,0
94174,8.6551e+07,0,0,0,16.08,0.05,34,0,0,0
94626,8.6655e+07,0,0,0,16.07,0.05,34,0,0,0
95121,8.6771e+07,0,0,0,16.08,0.05,34,0,0,0
95618,8.6886e+07,0,0,0,16.08,0.05,34,0,0,0
96026,8.6983e+07,0,0,0,16.08,0.05,34,0,0,0
96560,8.7104e+07,0,0,0,16.07,0.05,34,0,0,0
96975,8.7199e+07,0,0,0,16.07,0.05,34,0,0,0
97474,8.7321e+07,0,0,0,16.07,0.05,34,0,0,0
97926,8.7424e+07,0,0,0,16.07,0.05,34,0,0,0
98337,8.7525e+07,0,0,0,16.07,0.05,34,0,0,0
99324,8.7751e+07,0,0,0,16.08,0.05,34,0,0,0
99776,8.7854e+07,0,0,0,16.07,0.05,34,0,0,0
1.0023e+05,8.7963e+07,0,0,0,16.07,0.05,34,0,0,0
1.0073e+05,8.8078e+07,0,0,0,16.07,0.05,34,0,0,0
1.0118e+05,8.819e+07,0,0,0,16.07,0.05,34,0,0,0
1.0164e+05,8.8297e+07,0,0,0,16.07,0.05,34,0,0,0
1.0209e+05,8.8407e+07,0,0,0,16.08,0.05,34,0,0,0
1.0258e+05,8.8525e+07,0,0,0,16.08,0.05,34,0,0,0
1.03e+05,8.8621e+07,0,0,0,16.08,0.05,34,0,0,0
1.0346e+05,8.873e+07,0,0,0,16.07,0.05,34,0,0,0
1.0395e+05,8.8847e+07,0,0,0,16.07,0.05,34,0,0,0
1.0441e+05,8.8957e+07,0,0,0,16.07,0.05,34,0,0,0
1.049e+05,8.9069e+07,0,0,0,16.08,0.05,34,0,0,0
1.0532e+05,8.9167e+07,0,0,0,16.08,0.05,34,0,0,0
1.0577e+05,8.9271e+07,0,0,0,16.08,0.05,34,0,0,0
1.0627e+05,8.939e+07,0,0,0,16.07,0.05,34,0,0,0
1.0672e+05,8.9494e+07,0,0,0,16.07,0.05,34,0,0,0
1.0717e+05,8.9601e+07,0,0,0,16.08,0.05,34,0,0,0
1.0763e+05,8.9704e+07,0,0,0,16.07,0.05,34,0,0,0
1.0812e+05,8.982e+07,0,0,0,16.07,0.05,34,0,0,0
1.0857e+05,8.9921e+07,0,0,0,16.07,0.05,34,0,0,0
1.0907e+05,9.0036e+07,0,0,0,16.07,0.05,34,0,0,0
1.0952e+05,9.0139e+07,0,0,0,16.08,0.05,34,0,0,0
1.0997e+05,9.0245e+07,0,0,0,16.07,0.05,34,1,0,0
1.1044e+05,9.0358e+07,0,0,0,16.07,0.05,34,1,0,0
1.1089e+05,9.046e+07,0,0,0,16.08,0.05,34,1,0,0
1.1134e+05,9.0565e+07,0,0,0,16.08,0.05,34,1,0,0
1.1184e+05,9.0679e+07,0,0,0,16.07,0.05,34,1,0,0
1.1229e+05,9.0785e+07,0,11,128,16.06,0.09,34,1,0,0
1.1274e+05,9.0888e+07,0,137,771,16.05,0.15,34,1,0,0
1.1323e+05,9.0999e+07,0,794,1142,16.05,0.16,34,1,0,0
1.1369e+05,9.1104e+07,0,1146,1242,16.07,0.13,34,1,0,0
1.1418e+05,9.1217e+07,0,1244,1285,16.06,0.12,34,1,0,0
1.1464e+05,9.1323e+07,0,1285,1300,16.06,0.12,34,1,0,0
1.1514e+05,9.1439e+07,0,1301,1314,16.05,0.12,34,1,0,0
1.1604e+05,9.1649e+07,0,1314,1314,16.05,0.12,34,1,0,0
1.168e+05,9.1867e+07,0,1301,1314,16.06,0.12,34,1,0,0
1.1728e+05,9.1976e+07,0,1314,1314,16.06,0.12,34,1,0,0
1.1774e+05,9.2077e+07,0,1313,1300,16.06,0.12,34,1,0,0
1.1819e+05,9.2185e+07,0,1300,1314,16.05,0.12,34,1,0,0
1.1864e+05,9.229e+07,0,1314,1314,16.06,0.12,34,1,0,0
1.1914e+05,9.2407e+07,0,1312,1300,16.07,0.12,34,1,0,0
1.196e+05,9.251e+07,0,1300,1300,16.05,0.12,34,1,0,0
1.2005e+05,9.2618e+07,0,1300,1314,16.06,0.12,34,1,0,0
1.205e+05,9.2727e+07,0,1314,1314,16.05,0.11,34,1,0,0
1.2096e+05,9.2831e+07,0,1314,1314,16.07,0.11,34,1,0,0
1.2146e+05,9.2947e+07,0,1314,1314,16.06,0.12,34,1,0,0
1.2191e+05,9.3049e+07,0,1314,1314,16.06,0.11,34,1,0,0
1.2236e+05,9.3157e+07,0,1314,1314,16.06,0.12,34,1,0,0
1.2278e+05,9.3261e+07,0,1314,1314,16.05,0.11,34,1,0,0
1.2328e+05,9.3377e+07,0,1312,1300,16.06,0.12,34,1,0,0
1.2373e+05,9.3479e+07,0,1300,1300,16.06,0.11,34,1,0,0
1.2423e+05,9.3593e+07,0,1301,1314,16.05,0.11,34,1,0,0
1.2468e+05,9.3696e+07,0,1314,1314,16.07,0.11,34,1,0,0
1.2517e+05,9.3811e+07,0,1314,1314,16.06,0.12,34,1,0,0
1.2562e+05,9.3917e+07,0,1314,1314,16.06,0.11,34,1,0,0
1.2608e+05,9.4022e+07,0,1314,1314,16.05,0.12,34,1,0,0
1.2653e+05,9.4128e+07,0,1314,1314,16.06,0.12,34,1,0,0
1.2703e+05,9.424e+07,0,1314,1314,16.05,0.11,34,1,0,0
1.2839e+05,9.4556e+07,0,1313,1300,16.05,0.12,34,1,0,0
1.2884e+05,9.4658e+07,0,1300,1300,16.05,0.11,34,1,0,0
1.2933e+05,9.477e+07,0,1305,1385,16.03,0.19,34,1,0,0
1.2979e+05,9.4875e+07,0,1390,1785,15.98,0.56,34,1,0,0
1.3029e+05,9.4991e+07,0,1836,2371,15.93,0.74,34,1,0,0
1.3075e+05,9.5098e+07,0,2374,2414,15.95,0.6,34,1,0,0
1.3116e+05,9.5197e+07,0,2414,2485,16,0.5,34,1,0,0
1.317e+05,9.5316e+07,0,2482,2471,16.02,0.46,34,1,0,0
1.3212e+05,9.5419e+07,0,2463,2357,15.98,0.69,34,1,0,0
1.3257e+05,9.5527e+07,0,2384,2728,15.91,1.33,34,1,0,0
1.3303e+05,9.5636e+07,0,2762,3442,15.8,1.74,34,1,0,0
1.3348e+05,9.5747e+07,0,3459,3814,15.51,3.23,34,1,0,0
1.3397e+05,9.5862e+07,0,3870,4628,15.57,3.72,34,1,0,0
1.3443e+05,9.5973e+07,0,4697,5357,15.47,3.63,34,1,0,0
1.3488e+05,9.608e+07,0,5383,5728,15.39,4.52,34,1,0,0
1.3534e+05,9.619e+07,0,5769,6171,15.54,3.94,34,1,0,0
1.3579e+05,9.6294e+07,0,6156,5957,15.62,3.37,34,1,0,0
1.3624e+05,9.6404e+07,0,5947,5857,15.57,3.66,34,2,0,0
1.3714e+05,9.6619e+07,0,5859,5942,15.51,3.94,34,2,0,0
1.3759e+05,9.6729e+07,0,5945,6042,15.62,4.05,34,2,0,0
1.3805e+05,9.6836e+07,0,6044,6228,15.53,4.38,34,2,0,0
1.3903e+05,9.7061e+07,0,6231,6414,15.58,4.65,34,2,0,0
1.3948e+05,9.7168e+07,0,6415,6442,15.45,5,34,2,0,0
1.3993e+05,9.7277e+07,0,6449,6542,15.44,4.95,34,3,0,0
1.4043e+05,9.7395e+07,0,6529,6400,15.48,4.71,34,3,0,0
1.4088e+05,9.7499e+07,0,6400,6400,15.47,4.81,35,3,0,0
1.4133e+05,9.761e+07,0,6398,6385,15.51,4.59,34,3,0,0
1.4179e+05,9.7718e+07,0,6381,6342,15.47,4.29,35,3,0,0
1.4224e+05,9.7828e+07,0,6329,6200,15.49,4.14,35,3,0,0
1.4269e+05,9.7937e+07,0,6209,6300,15.47,4.25,35,3,0,0
1.436e+05,9.8152e+07,0,6298,6214,15.49,4.15,35,4,0,0
1.441e+05,9.8265e+07,0,6211,6185,15.51,4.21,35,4,0,0
1.4455e+05,9.8375e+07,0,6186,6200,15.48,4.19,35,4,0,0
1.45e+05,9.8478e+07,0,6200,6214,15.54,4.22,35,4,0,0
1.4546e+05,9.8588e+07,0,6211,6157,15.55,3.83,35,4,0,0
1.4591e+05,9.8696e+07,0,6159,6228,15.5,4.13,35,4,0,0
1.4637e+05,9.8811e+07,0,6244,6414,15.31,5.16,35,4,0,0
1.4682e+05,9.892e+07,0,6437,6685,15.31,5.5,35,5,0,0
1.4728e+05,9.9025e+07,0,6686,6714,15.3,5.13,35,5,0,0
1.4777e+05,9.9147e+07,0,6712,6700,15.3,5.26,35,5,0,0
1.4823e+05,9.9252e+07,0,6718,6900,15.25,5.79,35,5,0,0
1.4863e+05,9.9351e+07,0,6898,6800,15.3,5.49,35,5,0,0
1.4913e+05,9.947e+07,0,6797,6771,15.24,5.27,35,6,0,0
1.4958e+05,9.9575e+07,0,6776,6857,15.25,5.8,35,6,0,0
1.5003e+05,9.9686e+07,0,6855,6842,15.29,5.39,35,6,0,0
1.5049e+05,9.9798e+07,0,6847,6900,15.32,5.5,35,6,0,0
1.5094e+05,9.9902e+07,0,6900,6914,15.3,5.21,35,6,0,0
1.5139e+05,1.0001e+08,0,6911,6857,15.37,5.36,35,6,0,0
1.5184e+05,1.0012e+08,0,6854,6671,15.37,4.91,35,6,0,0
1.5217e+05,1.0023e+08,0,6654,6500,15.41,4.68,35,7,0,0
1.5257e+05,1.0033e+08,0,6499,6485,15.4,4.73,35,7,0,0
1.5307e+05,1.0045e+08,0,6501,6657,15.4,5.4,35,7,0,0
1.5347e+05,1.0056e+08,0,6658,6714,15.45,5.29,35,7,0,0
1.5392e+05,1.0066e+08,0,6714,6714,15.44,5.17,35,7,0,0
1.5436e+05,1.0077e+08,0,6706,6585,15.42,5.51,35,7,0,0
1.5481e+05,1.0088e+08,0,6591,6685,15.41,5.25,35,8,0,0
1.5526e+05,1.01e+08,0,6675,6557,15.44,4.88,35,8,0,0
1.5571e+05,1.011e+08,0,6559,6600,15.52,4.52,35,8,0,0
1.5616e+05,1.0122e+08,0,6592,6514,15.55,3.97,35,8,0,0
1.5659e+05,1.0132e+08,0,6508,6414,15.51,4.06,35,8,0,0
1.5704e+05,1.0143e+08,0,6408,6328,15.48,4.83,35,8,0,0
1.5745e+05,1.0154e+08,0,6331,6471,15.44,4.57,35,8,0,0
1.579e+05,1.0165e+08,0,6456,6242,15.53,4.29,35,8,0,0
1.5836e+05,1.0176e+08,0,6262,6471,15.45,5.26,36,9,0,0
1.588e+05,1.0186e+08,0,6477,6742,15.4,4.92,35,9,0,0
1.5925e+05,1.0198e+08,0,6727,6585,15.47,4.41,36,9,0,0
1.5965e+05,1.0208e+08,0,6576,6414,15.46,4.03,36,9,0,0
1.601e+05,1.0219e+08,0,6414,6428,15.35,4.32,36,9,0,0
1.6055e+05,1.023e+08,0,6428,6442,15.37,4.36,36,9,0,0
1.61e+05,1.0241e+08,0,6423,6185,15.39,4.11,36,9,0,0
1.6144e+05,1.0252e+08,0,6185,6185,15.35,4.11,36,10,0,0
1.6189e+05,1.0263e+08,0,6192,6371,15.35,4.7,36,10,0,0
1.6278e+05,1.0285e+08,0,6373,6471,15.39,4.55,36,10,0,0
1.6323e+05,1.0296e+08,0,6464,6371,15.35,4.66,36,10,0,0
1.6368e+05,1.0307e+08,0,6376,6714,15.4,4.72,36,10,0,0
1.6413e+05,1.0318e+08,0,6690,6485,15.41,4.67,36,10,0,0
1.6457e+05,1.0328e+08,0,6488,6542,15.38,4.64,36,11,0,0
1.6501e+05,1.0339e+08,0,6543,6642,15.43,4.48,36,11,0,0
1.6551e+05,1.0351e+08,0,6644,6671,15.29,4.98,36,11,0,0
1.6595e+05,1.0361e+08,0,6647,6428,15.41,4.91,36,11,0,0
1.6639e+05,1.0372e+08,0,6430,6457,15.41,4.9,36,11,0,0
1.668e+05,1.0382e+08,0,6459,6514,15.35,4.89,36,11,0,0
1.6729e+05,1.0394e+08,0,6518,6571,15.4,4.77,36,11,0,0
1.6773e+05,1.0405e+08,0,6571,6585,15.38,4.8,36,12,0,0
1.6818e+05,1.0416e+08,0,6575,6442,15.28,4.59,36,12,0,0
1.6863e+05,1.0426e+08,0,6442,6500,15.39,4.65,36,12,0,0
1.6907e+05,1.0437e+08,0,6500,6514,15.25,5.2,36,12,0,0
1.6953e+05,1.0448e+08,0,6508,6428,15.2,4.99,36,12,0,0
1.6993e+05,1.0458e+08,0,6434,6700,15.14,5.66,36,12,0,0
1.7038e+05,1.0469e+08,0,6703,6785,15.08,5.57,36,13,0,0
1.7083e+05,1.0481e+08,0,6788,6828,15.22,5.55,36,13,0,0
1.7128e+05,1.0492e+08,0,6819,6742,15.17,5,36,13,0,0
1.7173e+05,1.0503e+08,0,6743,6757,15.12,4.95,36,13,0,0
1.7214e+05,1.0513e+08,0,6750,6671,15.19,4.87,36,13,0,0
1.7263e+05,1.0524e+08,0,6665,6614,15.16,4.66,36,13,0,0
1.7307e+05,1.0535e+08,0,6604,6514,15.16,4.6,36,13,0,0
1.7352e+05,1.0546e+08,0,6495,6300,15.25,4.26,36,14,0,0
1.7396e+05,1.0557e+08,0,6300,6300,15.22,4.35,36,14,0,0
1.7437e+05,1.0566e+08,0,6300,6342,15.3,4.47,36,14,0,0
1.753e+05,1.0589e+08,0,6339,6271,15.38,3.97,36,14,0,0
1.7571e+05,1.0599e+08,0,6270,6242,15.34,4.09,36,14,0,0
1.762e+05,1.0611e+08,0,6239,6185,15.37,4.18,36,14,0,0
1.771e+05,1.0634e+08,0,6176,6042,15.34,4,36,15,0,0
1.7751e+05,1.0643e+08,0,6040,5942,15.34,3.86,36,15,0,0
1.784e+05,1.0666e+08,0,5962,6285,15.41,4.43,36,15,0,0
1.788e+05,1.0676e+08,0,6263,5985,15.42,3.3,36,15,0,0
1.7925e+05,1.0687e+08,0,5987,6014,15.41,3.5,36,15,0,0
1.8014e+05,1.0709e+08,0,6015,6071,15.29,4.03,36,15,0,0
1.8059e+05,1.072e+08,0,6073,6142,15.3,4.64,36,16,0,0
1.8108e+05,1.0732e+08,0,6181,6528,15.16,5.53,36,16,0,0
1.8148e+05,1.0741e+08,0,6536,6642,15.2,6.38,37,16,0,0
1.819e+05,1.0752e+08,0,6650,7314,15.14,7.43,37,16,0,0
1.8237e+05,1.0763e+08,0,7331,7628,15.16,8.44,37,16,0,0
1.8282e+05,1.0775e+08,0,7645,7885,15.19,8.49,37,16,0,0
1.8323e+05,1.0785e+08,0,7870,7742,15.23,7.23,37,17,0,0
1.8363e+05,1.0795e+08,0,7738,7428,15.26,6.47,37,17,0,0
1.8412e+05,1.0806e+08,0,7362,6742,15.31,4.1,37,17,0,0
1.8456e+05,1.0817e+08,0,6723,6457,15.28,3.19,37,17,0,0
1.8542e+05,1.0838e+08,0,6413,4671,15.34,0.83,37,17,0,0
1.8587e+05,1.0849e+08,0,4591,3828,15.32,0.68,37,17,0,0
1.8631e+05,1.0861e+08,0,3836,3928,15.3,1.25,37,17,0,0
1.8716e+05,1.0881e+08,0,3941,4185,15.33,1.73,37,18,0,0
1.8761e+05,1.0893e+08,0,4244,4628,15.35,2.51,37,18,0,0
1.8806e+05,1.0903e+08,0,4660,4985,15.35,2.95,37,18,0,0
1.8849e+05,1.0914e+08,0,5019,5414,15.3,3.46,37,18,0,0
1.8899e+05,1.0926e+08,0,5459,5914,15.23,4.24,37,18,0,0
1.8939e+05,1.0935e+08,0,5923,6257,15.16,5.03,37,18,0,0
1.8988e+05,1.0948e+08,0,6286,6600,15.22,5.34,37,18,0,0
1.9028e+05,1.0958e+08,0,6603,6685,15.22,5.62,37,18,0,0
1.9077e+05,1.0969e+08,0,6688,6728,15.22,4.92,37,19,0,0
1.9117e+05,1.098e+08,0,6703,6385,15.3,4.4,37,19,0,0
1.9159e+05,1.099e+08,0,6382,6328,15.27,4.39,37,19,0,0
1.9207e+05,1.1001e+08,0,6310,6128,15.26,3.39,37,19,0,0
1.9247e+05,1.1011e+08,0,6123,5857,15.24,3.62,37,19,0,0
1.9292e+05,1.1023e+08,0,5875,6057,15.2,4.41,37,19,0,0
1.9381e+05,1.1044e+08,0,6066,6557,15.29,4.88,37,19,0,0
1.9422e+05,1.1055e+08,0,6549,6457,15.27,4.85,37,20,0,0
1.9471e+05,1.1067e+08,0,6457,6457,15.24,4.93,37,20,0,0
1.9507e+05,1.1076e+08,0,6456,6414,15.27,4.58,37,20,0,0
1.9557e+05,1.1088e+08,0,6415,6428,15.27,4.27,37,20,0,0
1.9597e+05,1.1098e+08,0,6422,6314,15.24,4.34,37,20,0,0
1.9643e+05,1.111e+08,0,6312,6300,15.27,4.2,37,20,0,0
1.9688e+05,1.112e+08,0,6300,6300,15.27,4.47,37,20,0,0
1.9732e+05,1.1131e+08,0,6299,6271,15.3,4.34,37,20,0,0
1.9781e+05,1.1143e+08,0,6266,6228,15.23,4.26,37,21,0,0
1.9821e+05,1.1154e+08,0,6226,6214,15.26,4.24,37,21,0,0
1.9866e+05,1.1164e+08,0,6204,6057,15.26,4.39,37,21,0,0
1.991e+05,1.1176e+08,0,6062,6114,15.25,4.18,37,21,0,0
1.9951e+05,1.1186e+08,0,6119,6314,15.33,4.21,37,21,0,0
1.9996e+05,1.1197e+08,0,6311,6200,15.19,4.19,37,21,0,0
2.0041e+05,1.1208e+08,0,6203,6285,15.23,4.54,37,21,0,0
2.009e+05,1.1219e+08,0,6281,6242,15.16,4.19,37,22,0,0
2.0174e+05,1.124e+08,0,6243,6428,15.23,4.51,37,22,0,0
2.0223e+05,1.1252e+08,0,6422,6314,15.3,4.31,37,22,0,0
2.0264e+05,1.1262e+08,0,6312,6285,15.29,4.53,37,22,0,0
2.0308e+05,1.1273e+08,0,6277,6185,15.29,4.29,37,22,0,0
2.0354e+05,1.1285e+08,0,6200,6428,15.24,4.51,37,22,0,0
2.0394e+05,1.1295e+08,0,6425,6328,15.22,4.31,37,23,0,0
2.0439e+05,1.1306e+08,0,6320,6185,15.27,4.31,37,23,0,0
2.0484e+05,1.1317e+08,0,6189,6257,15.26,4.29,37,23,0,0
2.0529e+05,1.1328e+08,0,6255,6228,15.35,4.16,37,23,0,0
2.0574e+05,1.1339e+08,0,6235,6342,15.29,4.35,37,23,0,0
2.0619e+05,1.135e+08,0,6346,6442,15.28,4.42,37,23,0,0
2.0664e+05,1.1361e+08,0,6431,6228,15.28,4.6,37,23,0,0
2.0709e+05,1.1372e+08,0,6229,6300,15.3,4.5,37,23,0,0
2.0754e+05,1.1383e+08,0,6313,6442,15.27,4.31,37,24,0,0
2.0835e+05,1.1404e+08,0,6435,6214,15.34,4.27,37,24,0,0
2.0876e+05,1.1414e+08,0,6216,6314,15.35,4.37,37,24,0,0
2.0924e+05,1.1426e+08,0,6308,6242,15.32,4.46,37,24,0,0
2.097e+05,1.1437e+08,0,6235,6157,15.31,4.21,37,24,0,0
2.101e+05,1.1447e+08,0,6157,6185,15.28,4.18,37,24,0,0
2.106e+05,1.1459e+08,0,6196,6314,15.22,4.91,37,24,0,0
2.1105e+05,1.147e+08,0,6312,6300,15.23,4.6,37,25,0,0
2.1145e+05,1.1481e+08,0,6307,6457,15.33,4.55,37,25,0,0
2.119e+05,1.1492e+08,0,6466,6571,15.28,4.68,37,25,0,0
2.1231e+05,1.1502e+08,0,6556,6428,15.36,3.9,37,25,0,0
2.1271e+05,1.1513e+08,0,6422,6214,15.35,4.31,37,25,0,0
2.1317e+05,1.1524e+08,0,6216,6342,15.33,4.09,37,25,0,0
2.1362e+05,1.1535e+08,0,6337,6214,15.27,4.24,37,25,0,0
2.1455e+05,1.1557e+08,0,6219,6342,15.23,4.76,37,26,0,0
2.15e+05,1.1568e+08,0,6350,6542,15.27,4.73,37,26,0,0
2.1544e+05,1.1579e+08,0,6543,6571,15.22,4.89,37,26,0,0
2.159e+05,1.159e+08,0,6571,6614,15.32,4.71,37,26,0,0
2.1634e+05,1.1601e+08,0,6607,6528,15.25,4.9,37,26,0,0
2.1678e+05,1.1612e+08,0,6530,6557,15.22,4.98,37,26,0,0
2.1768e+05,1.1633e+08,0,6553,6457,15.29,4.53,37,27,0,0
2.1812e+05,1.1644e+08,0,6451,6371,15.33,4.44,37,27,0,0
2.1857e+05,1.1655e+08,0,6382,6500,15.29,4.73,37,27,0,0
2.1898e+05,1.1665e+08,0,6501,6528,15.27,4.71,37,27,0,0
2.1938e+05,1.1676e+08,0,6527,6471,15.27,4.67,37,27,0,0
2.1984e+05,1.1687e+08,0,6449,6257,15.27,4.5,37,27,0,0
2.2022e+05,1.1698e+08,0,6278,6585,15.27,4.95,37,28,0,0
2.2067e+05,1.1709e+08,0,6574,6428,15.32,4.7,37,28,0,0
2.2107e+05,1.1719e+08,0,6433,6657,15.29,4.98,37,28,0,0
2.2157e+05,1.1731e+08,0,6647,6542,15.28,4.96,37,28,0,0
2.2197e+05,1.1741e+08,0,6556,6757,15.07,4.84,37,28,0,0
2.2238e+05,1.1752e+08,0,6757,6814,15.25,5.06,38,28,0,0
2.2286e+05,1.1763e+08,0,6802,6642,15.23,4.96,37,28,0,0
2.2332e+05,1.1774e+08,0,6631,6514,15.17,4.94,37,29,0,0
2.2376e+05,1.1785e+08,0,6524,6628,15.19,5.52,37,29,0,0
2.2417e+05,1.1795e+08,0,6630,6700,15.24,5.24,37,29,0,0
2.2462e+05,1.1806e+08,0,6703,6757,15.25,4.97,37,29,0,0
2.2506e+05,1.1817e+08,0,6749,6671,15.23,4.84,37,29,0,0
2.2555e+05,1.1828e+08,0,6655,6485,15.17,4.63,37,29,0,0
2.2595e+05,1.1838e+08,0,6480,6428,15.22,4.6,38,30,0,0
2.2641e+05,1.185e+08,0,6440,6614,15.24,4.73,37,30,0,0
2.2685e+05,1.1861e+08,0,6599,6471,15.27,4.74,38,30,0,0
2.2726e+05,1.1871e+08,0,6486,6642,15.23,4.36,38,30,0,0
2.277e+05,1.1882e+08,0,6616,6371,15.31,4.07,37,30,0,0
2.2815e+05,1.1893e+08,0,6366,6314,15.27,3.85,38,30,0,0
2.2856e+05,1.1903e+08,0,6314,6314,15.22,4.23,38,30,0,0
2.2896e+05,1.1913e+08,0,6310,6114,15.29,3.9,38,30,0,0
2.2945e+05,1.1925e+08,0,6125,6285,15.31,4.16,38,31,0,0
2.299e+05,1.1936e+08,0,6270,6128,15.27,3.96,38,31,0,0
2.3035e+05,1.1947e+08,0,6122,6057,15.32,3.99,37,31,0,0
2.3075e+05,1.1957e+08,0,6060,6200,15.29,4.11,38,31,0,0
2.312e+05,1.1968e+08,0,6200,6200,15.29,4.09,37,31,0,0
2.3165e+05,1.1979e+08,0,6203,6242,15.3,4.13,38,31,0,0
2.321e+05,1.199e+08,0,6234,6171,15.26,4.02,38,31,0,0
2.3254e+05,1.2001e+08,0,6175,6271,15.25,4.35,38,31,0,0
2.3295e+05,1.2012e+08,0,6269,6157,15.3,4.07,38,31,0,0
2.3344e+05,1.2023e+08,0,6164,6257,15.29,4.28,38,32,0,0
2.3388e+05,1.2035e+08,0,6250,6200,15.27,4.35,38,32,0,0
2.3433e+05,1.2045e+08,0,6211,6328,15.21,4.31,38,32,0,0
2.3474e+05,1.2056e+08,0,6318,6214,15.26,4.24,38,32,0,0
2.3518e+05,1.2066e+08,0,6215,6228,15.25,4.31,38,32,0,0
2.3559e+05,1.2076e+08,0,6228,6228,15.32,4.13,38,32,0,0
2.3604e+05,1.2087e+08,0,6223,6100,15.27,4.13,38,32,0,0
2.3648e+05,1.2098e+08,0,6104,6171,15.33,3.91,38,33,0,0
2.3742e+05,1.2121e+08,0,6167,6071,15.3,3.91,38,33,0,0
2.3828e+05,1.2143e+08,0,6072,6114,15.3,3.79,38,33,0,0
2.3873e+05,1.2154e+08,0,6089,5828,15.32,3.49,38,33,0,0
2.3914e+05,1.2164e+08,0,5842,5985,15.32,3.72,38,33,0,0
2.3959e+05,1.2176e+08,0,5968,5800,15.28,3.48,38,33,0,0
2.4003e+05,1.2186e+08,0,5816,5971,15.33,3.67,38,33,0,0
2.4044e+05,1.2196e+08,0,5977,6100,15.27,3.83,38,34,0,0
2.4089e+05,1.2207e+08,0,6097,6000,15.35,3.84,38,34,0,0
2.4134e+05,1.2219e+08,0,5983,5814,15.27,3.46,38,34,0,0
2.4178e+05,1.2229e+08,0,5816,5857,15.33,3.64,38,34,0,0
2.4223e+05,1.2241e+08,0,5863,5942,15.33,3.78,38,34,0,0
2.4267e+05,1.2251e+08,0,5947,6014,15.3,3.86,38,34,0,0
2.4312e+05,1.2262e+08,0,6014,6028,15.27,4,38,34,0,0
2.4353e+05,1.2273e+08,0,6027,6014,15.31,3.57,38,34,0,0
2.4405e+05,1.2285e+08,0,6003,5857,15.3,3.54,38,35,0,0
2.4446e+05,1.2295e+08,0,5862,5914,15.35,3.73,38,35,0,0
2.4487e+05,1.2305e+08,0,5912,5842,15.28,3.53,38,35,0,0
2.4535e+05,1.2317e+08,0,5851,5942,15.36,3.62,38,35,0,0
2.4576e+05,1.2327e+08,0,5942,6000,15.33,3.63,38,35,0,0
2.4626e+05,1.2339e+08,0,5974,5657,15.31,2.95,38,35,0,0
2.4671e+05,1.235e+08,0,5640,5414,15.29,2.4,38,35,0,0
2.4711e+05,1.236e+08,0,5412,5357,15.27,2.66,38,35,0,0
2.476e+05,1.2372e+08,0,5374,5614,15.36,3.49,38,35,0,0
2.4801e+05,1.2382e+08,0,5623,5785,15.22,3.99,38,35,0,0
2.4846e+05,1.2393e+08,0,5824,6242,15.22,5.04,38,36,0,0
2.489e+05,1.2404e+08,0,6260,6628,15.22,5.48,38,36,0,0
2.4935e+05,1.2416e+08,0,6630,6657,15.22,4.97,38,36,0,0
2.4976e+05,1.2426e+08,0,6657,6714,15.13,5.04,38,36,0,0
2.5024e+05,1.2437e+08,0,6703,6557,15.06,5.44,38,36,0,0
2.5069e+05,1.2448e+08,0,6573,6785,15.12,5.47,38,36,0,0
2.511e+05,1.2459e+08,0,6780,6685,15.08,5.42,38,36,0,0
2.5155e+05,1.247e+08,0,6683,6642,15.09,4.98,38,37,0,0
2.52e+05,1.2481e+08,0,6637,6571,15.06,4.92,38,37,0,0
2.5244e+05,1.2492e+08,0,6557,6471,15.08,5.05,38,37,0,0
2.5284e+05,1.2502e+08,0,6477,6600,15.05,4.85,38,37,0,0
2.5329e+05,1.2513e+08,0,6590,6471,15.08,4.77,38,37,0,0
2.5374e+05,1.2524e+08,0,6472,6500,15.12,4.73,38,37,0,0
2.5422e+05,1.2535e+08,0,6489,6357,15.17,4.16,38,38,0,0
2.5468e+05,1.2546e+08,0,6359,6414,15.19,4.3,38,38,0,0
2.5557e+05,1.2568e+08,0,6411,6342,15.19,4.74,38,38,0,0
2.5602e+05,1.2579e+08,0,6340,6328,15.16,4.53,38,38,0,0
2.5646e+05,1.259e+08,0,6338,6471,15.2,4.64,38,38,0,0
2.569e+05,1.2601e+08,0,6466,6400,15.19,4.22,38,38,0,0
2.5736e+05,1.2612e+08,0,6395,6285,15.16,4.48,38,38,0,0
2.578e+05,1.2623e+08,0,6286,6300,15.23,4.13,38,39,0,0
2.5825e+05,1.2634e+08,0,6286,6100,15.22,4.07,38,39,0,0
2.587e+05,1.2645e+08,0,6098,6057,15.19,3.69,38,39,0,0
2.5915e+05,1.2656e+08,0,6072,6228,15.14,4.31,38,39,0,0
2.5959e+05,1.2667e+08,0,6229,6242,15.14,4.39,38,39,0,0
2.6004e+05,1.2678e+08,0,6245,6300,15.17,4.73,38,39,0,0
2.609e+05,1.2699e+08,0,6297,6257,15.14,4.46,38,39,0,0
2.6135e+05,1.271e+08,0,6246,6100,15.18,3.78,38,40,0,0
2.6179e+05,1.2721e+08,0,6096,6028,15.13,3.63,38,40,0,0
2.6228e+05,1.2733e+08,0,6014,5885,15.19,3.72,38,40,0,0
2.6268e+05,1.2743e+08,0,5890,5957,15.2,3.69,38,40,0,0
2.6309e+05,1.2753e+08,0,5952,5885,15.22,3.73,38,40,0,0
2.6354e+05,1.2764e+08,0,5886,5971,15.17,3.98,38,40,0,0
2.6402e+05,1.2776e+08,0,5974,6014,15.19,3.87,38,40,0,0
2.6447e+05,1.2787e+08,0,6019,6057,15.15,4.09,38,40,0,0
2.6488e+05,1.2797e+08,0,6056,6042,15.19,4.1,38,41,0,0
2.6533e+05,1.2808e+08,0,6053,6157,15.15,3.82,38,41,0,0
2.6578e+05,1.2819e+08,0,6153,6114,15.19,3.73,38,41,0,0
2.6623e+05,1.283e+08,0,6111,6057,15.19,3.78,38,41,0,0
2.6668e+05,1.2841e+08,0,6045,5928,15.22,3.29,38,41,0,0
2.6715e+05,1.2853e+08,0,5911,5771,15.16,3.57,38,41,0,0
2.6761e+05,1.2864e+08,0,5779,5871,15.2,3.68,38,41,0,0
2.6801e+05,1.2874e+08,0,5862,5785,15.25,3.3,38,41,0,0
2.6846e+05,1.2885e+08,0,5782,5742,15.17,3.74,38,41,0,0
2.6891e+05,1.2896e+08,0,5759,5928,15.2,3.88,38,42,0,0
2.6935e+05,1.2907e+08,0,5938,6114,15.17,3.99,38,42,0,0
2.698e+05,1.2919e+08,0,6119,6185,15.19,4.31,38,42,0,0
2.7024e+05,1.293e+08,0,6185,6200,15.13,4.38,38,42,0,0
2.7069e+05,1.2941e+08,0,6204,6271,15.15,4.53,38,42,0,0
2.7112e+05,1.2951e+08,0,6266,6100,15.08,4.41,38,42,0,0
2.7157e+05,1.2962e+08,0,6112,6285,15.17,4.46,38,42,0,0
2.7242e+05,1.2984e+08,0,6290,6500,15.11,4.89,38,43,0,0
2.7283e+05,1.2994e+08,0,6502,6557,15.17,5.21,38,43,0,0
2.7332e+05,1.3006e+08,0,6559,6600,15.14,5.34,38,43,0,0
2.7377e+05,1.3017e+08,0,6584,6442,15.09,4.64,38,43,0,0
2.7417e+05,1.3027e+08,0,6443,6542,15.1,4.64,38,43,0,0
2.7466e+05,1.3038e+08,0,6519,6314,15.08,4.44,38,43,0,0
2.7511e+05,1.3049e+08,0,6308,6257,15.14,4.08,38,43,0,0
2.7551e+05,1.306e+08,0,6249,6142,15.11,4.17,38,44,0,0
2.7596e+05,1.3071e+08,0,6138,6100,15.14,4.16,38,44,0,0
2.7637e+05,1.3081e+08,0,6099,6085,15.07,3.95,38,44,0,0
2.7681e+05,1.3092e+08,0,6089,6300,15.04,4.35,38,44,0,0
2.7726e+05,1.3103e+08,0,6297,6257,15.04,4.47,38,44,0,0
2.7771e+05,1.3114e+08,0,6273,6442,15.01,4.5,38,44,0,0
2.7812e+05,1.3124e+08,0,6437,6342,15.1,4.41,38,44,0,0
2.786e+05,1.3135e+08,0,6347,6414,15.16,4.37,38,45,0,0
2.7904e+05,1.3146e+08,0,6403,6185,15.1,4.46,38,45,0,0
2.7949e+05,1.3157e+08,0,6198,6328,15.1,4.28,38,45,0,0
2.799e+05,1.3167e+08,0,6323,6085,15.16,3.9,38,45,0,0
2.8034e+05,1.3178e+08,0,6079,5971,15.11,3.67,38,45,0,0
2.8079e+05,1.3189e+08,0,5968,5914,15.2,3.81,38,45,0,0
2.8124e+05,1.32e+08,0,5914,5914,15.17,3.71,38,45,0,0
2.8164e+05,1.3211e+08,0,5917,6085,15.14,3.92,38,45,0,0
2.8249e+05,1.3232e+08,0,6086,6185,15.11,4.24,38,46,0,0
2.8295e+05,1.3243e+08,0,6183,6114,15.09,4.41,38,46,0,0
2.8339e+05,1.3254e+08,0,6115,6142,15.11,4.25,38,46,0,0
2.8384e+05,1.3265e+08,0,6149,6257,15.08,4.64,38,46,0,0
2.8424e+05,1.3275e+08,0,6257,6257,15.11,4.42,38,46,0,0
2.8473e+05,1.3287e+08,0,6251,6200,15.18,4.15,38,46,0,0
2.8518e+05,1.3298e+08,0,6193,6128,15.18,4.25,38,46,0,0
2.8558e+05,1.3308e+08,0,6127,6071,15.14,3.77,38,46,0,0
2.8603e+05,1.3319e+08,0,6064,5885,15.25,3.97,38,47,0,0
2.8647e+05,1.333e+08,0,5885,5900,15.16,3.99,38,47,0,0
2.8692e+05,1.3341e+08,0,5906,6071,15.2,3.92,38,47,0,0
2.8737e+05,1.3353e+08,0,6071,6071,15.1,4.28,38,47,0,0
2.8782e+05,1.3363e+08,0,6083,6214,15.07,4.88,38,47,0,0
2.8866e+05,1.3384e+08,0,6214,6242,15.16,4.3,38,47,0,0
2.8911e+05,1.3395e+08,0,6235,5928,15.14,3.57,38,48,0,0
2.8956e+05,1.3406e+08,0,5930,6000,15.21,3.77,38,48,0,0
2.9001e+05,1.3417e+08,0,5996,5942,15.13,4.13,38,48,0,0
2.9045e+05,1.3428e+08,0,5942,5971,15.13,4.22,38,48,0,0
2.909e+05,1.3439e+08,0,5980,6114,15.17,4.38,38,48,0,0
2.9135e+05,1.345e+08,0,6125,6242,15.14,4.11,38,48,0,0
2.9179e+05,1.3461e+08,0,6223,6042,15.16,3.42,38,48,0,0
2.9223e+05,1.3472e+08,0,5983,5514,15.22,2.66,38,48,0,0
2.9264e+05,1.3482e+08,0,5512,5428,15.2,2.66,38,48,0,0
2.9312e+05,1.3494e+08,0,5423,5371,15.19,3.2,38,49,0,0
2.9353e+05,1.3504e+08,0,5385,5685,15.17,3.95,38,49,0,0
2.9397e+05,1.3515e+08,0,5696,5957,15.18,4.47,38,49,0,0
2.9442e+05,1.3526e+08,0,5977,6271,15.11,5.17,38,49,0,0
2.9487e+05,1.3537e+08,0,6303,6714,15.11,5.29,38,49,0,0
2.9528e+05,1.3547e+08,0,6714,6714,15.19,5.46,38,49,0,0
2.9577e+05,1.3559e+08,0,6725,6814,15.1,5.57,38,49,0,0
2.9617e+05,1.3569e+08,0,6812,6742,15.19,5.09,38,49,0,0
2.9661e+05,1.358e+08,0,6738,6585,15.1,5.77,38,50,0,0
2.9711e+05,1.3592e+08,0,6596,6714,15.02,5.17,38,50,0,0
2.9755e+05,1.3604e+08,0,6724,6785,14.99,6.04,38,50,0,0
2.9844e+05,1.3625e+08,0,6794,6971,15.15,5.63,38,50,0,0
2.9888e+05,1.3636e+08,0,6957,6842,15.14,4.61,38,51,0,0
2.9929e+05,1.3646e+08,0,6827,6628,15.1,4.92,38,51,0,0
2.9974e+05,1.3657e+08,0,6634,6685,15.01,5.64,38,51,0,0
3.0019e+05,1.3668e+08,0,6697,6814,15.03,5.98,38,51,0,0
3.0063e+05,1.3678e+08,0,6822,7014,14.99,5.99,38,51,0,0
3.0107e+05,1.369e+08,0,7017,7057,15.03,6.05,38,51,0,0
3.0198e+05,1.3712e+08,0,7064,7171,14.97,6.16,38,52,0,0
3.0238e+05,1.3722e+08,0,7157,7000,14.97,6.64,38,52,0,0
3.0286e+05,1.3734e+08,0,7014,7200,14.97,6.09,38,52,0,0
3.0327e+05,1.3744e+08,0,7173,6971,15.01,5.71,38,52,0,0
3.0371e+05,1.3755e+08,0,6971,6971,14.93,6.56,38,52,0,0
3.0416e+05,1.3766e+08,0,6982,7085,15.01,5.97,38,53,0,0
3.0457e+05,1.3776e+08,0,7082,6842,15.16,4.98,38,53,0,0
3.0502e+05,1.3787e+08,0,6841,6771,15.13,4.96,38,53,0,0
3.0546e+05,1.3799e+08,0,6747,6542,15,4.87,38,53,0,0
3.0591e+05,1.3809e+08,0,6534,6471,15.04,4.55,38,53,0,0
3.0631e+05,1.3819e+08,0,6472,6571,15.02,5.07,38,53,0,0
3.068e+05,1.3831e+08,0,6569,6557,15.07,5.02,38,53,0,0
3.072e+05,1.3841e+08,0,6555,6542,15.07,5.08,38,54,0,0
3.0765e+05,1.3852e+08,0,6540,6442,15.07,5.06,38,54,0,0
3.081e+05,1.3863e+08,0,6450,6571,15.05,5.02,38,54,0,0
3.0854e+05,1.3874e+08,0,6560,6471,15.01,5.02,38,54,0,0
3.0895e+05,1.3884e+08,0,6474,6714,15.02,5.18,38,54,0,0
3.0943e+05,1.3896e+08,0,6707,6642,14.98,5.65,38,54,0,0
3.0988e+05,1.3907e+08,0,6645,6685,15.07,4.78,38,55,0,0
3.1025e+05,1.3916e+08,0,6681,6442,15.04,4.97,38,55,0,0
3.1074e+05,1.3928e+08,0,6453,6642,15.05,4.87,38,55,0,0
3.1159e+05,1.3949e+08,0,6640,6457,15.16,4.52,38,55,0,0
3.1204e+05,1.396e+08,0,6426,6100,15.19,3.52,38,55,0,0
3.1248e+05,1.3972e+08,0,6085,5957,15.07,4.09,38,56,0,0
3.1294e+05,1.3983e+08,0,5965,6057,15.1,4.27,38,56,0,0
3.1334e+05,1.3993e+08,0,6072,6385,15.06,4.85,38,56,0,0
3.1382e+05,1.4004e+08,0,6394,6514,15.15,4.36,38,56,0,0
3.1423e+05,1.4015e+08,0,6503,6400,15.16,4.34,38,56,0,0
3.1468e+05,1.4025e+08,0,6413,6585,15.1,5.19,39,56,0,0
3.1508e+05,1.4036e+08,0,6577,6414,15.16,4.91,39,56,0,0
3.1553e+05,1.4047e+08,0,6414,6442,15.14,5.06,38,56,0,0
3.1598e+05,1.4058e+08,0,6442,6457,15.05,4.39,38,57,0,0
3.1643e+05,1.4069e+08,0,6456,6428,15.13,4.96,38,57,0,0
3.1688e+05,1.408e+08,0,6435,6514,15.07,5.11,39,57,0,0
3.1728e+05,1.409e+08,0,6509,6371,15.11,5,38,57,0,0
3.1772e+05,1.4101e+08,0,6372,6414,15.07,4.82,38,57,0,0
3.1861e+05,1.4123e+08,0,6415,6457,15.04,4.67,38,57,0,0
3.1902e+05,1.4134e+08,0,6461,6542,15.14,4.74,38,58,0,0
3.1947e+05,1.4144e+08,0,6538,6385,15.1,4.71,38,58,0,0
3.1988e+05,1.4155e+08,0,6385,6428,15.03,4.94,39,58,0,0
3.2036e+05,1.4167e+08,0,6436,6528,15.08,4.89,39,58,0,0
3.2081e+05,1.4178e+08,0,6525,6500,15.02,5,39,58,0,0
3.2122e+05,1.4187e+08,0,6503,6642,15.05,5.18,39,58,0,0
3.2166e+05,1.4198e+08,0,6628,6457,15.09,4.85,38,58,0,0
3.2211e+05,1.4209e+08,0,6465,6557,15.09,4.83,39,59,0,0
3.2255e+05,1.422e+08,0,6553,6471,15.07,4.66,38,59,0,0
3.2344e+05,1.4242e+08,0,6468,6342,15.11,4.49,39,59,0,0
3.2389e+05,1.4253e+08,0,6330,6228,15.13,4.33,39,59,0,0
3.2434e+05,1.4264e+08,0,6228,6257,15.11,4.33,39,59,0,0
3.2478e+05,1.4275e+08,0,6266,6428,15.13,4.63,39,59,0,0
3.2527e+05,1.4286e+08,0,6410,6171,15.15,4.2,38,60,0,0
3.2571e+05,1.4297e+08,0,6184,6314,15.11,4.85,39,60,0,0
3.2612e+05,1.4308e+08,0,6316,6371,15.14,4.67,39,60,0,0
3.2656e+05,1.4318e+08,0,6369,6300,15.13,4.49,38,60,0,0
3.2749e+05,1.4341e+08,0,6300,6328,15.12,4.54,39,60,0,0
3.2794e+05,1.4352e+08,0,6324,6242,15.11,4.61,39,60,0,0
3.2839e+05,1.4363e+08,0,6255,6385,15.13,4.4,39,61,0,0
3.2884e+05,1.4375e+08,0,6391,6485,15.08,4.86,39,61,0,0
3.2924e+05,1.4385e+08,0,6487,6514,15.14,4.37,39,61,0,0
3.2969e+05,1.4396e+08,0,6480,6228,15.1,4.4,39,61,0,0
3.301e+05,1.4406e+08,0,6232,6528,15.09,4.86,39,61,0,0
3.3054e+05,1.4417e+08,0,6525,6385,15.07,4.7,39,61,0,0
3.3103e+05,1.4429e+08,0,6385,6400,15.1,4.75,39,61,0,0
3.3147e+05,1.444e+08,0,6396,6342,15.12,4.52,39,62,0,0
3.3192e+05,1.4451e+08,0,6342,6400,15.12,4.76,39,62,0,0
3.3236e+05,1.4462e+08,0,6395,6357,15.1,4.72,39,62,0,0
3.3285e+05,1.4473e+08,0,6367,6485,15.14,4.73,39,62,0,0
3.3325e+05,1.4483e+08,0,6475,6342,15.13,4.73,39,62,0,0
3.337e+05,1.4494e+08,0,6344,6414,15.07,4.63,39,62,0,0
3.3418e+05,1.4505e+08,0,6418,6485,15.04,4.8,39,62,0,0
3.3458e+05,1.4516e+08,0,6473,6257,15.13,4.52,39,63,0,0
3.3508e+05,1.4528e+08,0,6273,6371,15.1,4.53,39,63,0,0
3.3548e+05,1.4538e+08,0,6371,6385,15.11,4.76,39,63,0,0
3.3593e+05,1.4549e+08,0,6387,6414,15.16,4.36,39,63,0,0
3.3641e+05,1.4561e+08,0,6395,6214,15.14,4.58,39,63,0,0
3.3682e+05,1.4571e+08,0,6215,6300,15.19,4.37,39,63,0,0
3.373e+05,1.4582e+08,0,6282,6071,15.19,3.9,39,63,0,0
3.382e+05,1.4604e+08,0,6070,6057,15.12,4.2,39,64,0,0
3.386e+05,1.4614e+08,0,6059,6228,15.16,4.5,39,64,0,0
3.3904e+05,1.4625e+08,0,6227,6200,15.15,4.2,39,64,0,0
3.3994e+05,1.4647e+08,0,6202,6257,15.1,4.74,39,64,0,0
3.4034e+05,1.4657e+08,0,6257,6257,15.15,4.36,39,64,0,0
3.4078e+05,1.4668e+08,0,6256,6214,15.11,4.29,39,64,0,0
3.4127e+05,1.468e+08,0,6216,6257,15.1,4.48,39,64,0,0
3.4168e+05,1.469e+08,0,6256,6242,15.11,4.38,39,65,0,0
3.4212e+05,1.4701e+08,0,6262,6414,15.16,4.48,39,65,0,0
3.4257e+05,1.4712e+08,0,6406,6328,15.09,4.63,39,65,0,0
3.4346e+05,1.4734e+08,0,6330,6400,15.08,5.08,39,65,0,0
3.4391e+05,1.4745e+08,0,6414,6571,15.11,4.77,39,65,0,0
3.4434e+05,1.4755e+08,0,6561,6442,15.1,4.57,39,66,0,0
3.448e+05,1.4767e+08,0,6451,6585,15.11,5.01,39,66,0,0
3.452e+05,1.4777e+08,0,6580,6414,15.09,4.9,39,66,0,0
3.4569e+05,1.4788e+08,0,6427,6557,15.05,5.18,39,66,0,0
3.461e+05,1.4799e+08,0,6560,6628,15.04,5.23,39,66,0,0
3.4655e+05,1.481e+08,0,6625,6600,15.11,5.19,39,66,0,0
3.4744e+05,1.4832e+08,0,6605,6714,15.1,5.67,39,67,0,0
3.4784e+05,1.4842e+08,0,6720,6957,15.09,6.55,39,67,0,0
3.4829e+05,1.4853e+08,0,6963,7214,15.06,6.21,39,67,0,0
3.4874e+05,1.4864e+08,0,7195,6714,15.11,5.23,39,67,0,0
3.4922e+05,1.4875e+08,0,6710,6657,15.13,4.32,39,67,0,0
3.4967e+05,1.4886e+08,0,6647,6500,15.08,4.89,39,67,0,0
3.5011e+05,1.4898e+08,0,6494,6442,15.11,4.6,39,68,0,0
3.5056e+05,1.4908e+08,0,6433,6357,15.12,4.46,39,68,0,0
3.5096e+05,1.4918e+08,0,6355,6285,15.12,4.36,39,68,0,0
3.5145e+05,1.493e+08,0,6288,6328,15.11,4.54,39,68,0,0
3.519e+05,1.4942e+08,0,6329,6342,15.05,4.51,39,68,0,0
3.5235e+05,1.4953e+08,0,6346,6400,15.14,4.67,39,68,0,0
3.528e+05,1.4964e+08,0,6393,6328,15.14,4.49,39,68,0,0
3.5324e+05,1.4974e+08,0,6334,6414,15.14,4.62,39,69,0,0
3.5365e+05,1.4985e+08,0,6415,6485,15.1,4.53,39,69,0,0
3.5406e+05,1.4995e+08,0,6474,6342,15.12,4.29,39,69,0,0
3.5455e+05,1.5007e+08,0,6344,6371,15.09,4.61,39,69,0,0
3.55e+05,1.5018e+08,0,6358,6228,15.11,4.38,39,69,0,0
3.5544e+05,1.5028e+08,0,6231,6285,15.11,4.39,39,69,0,0
3.5585e+05,1.5039e+08,0,6284,6271,15.13,4.45,39,69,0,0
3.563e+05,1.505e+08,0,6271,6271,15.16,4.69,39,70,0,0
3.5674e+05,1.5061e+08,0,6293,6528,15.1,4.78,39,70,0,0
3.5719e+05,1.5072e+08,0,6526,6500,15.1,4.69,39,70,0,0
3.5764e+05,1.5083e+08,0,6491,6414,15.13,4.69,39,70,0,0
3.5807e+05,1.5093e+08,0,6414,6428,15.13,4.54,39,70,0,0
3.5897e+05,1.5115e+08,0,6431,6585,15.04,5.97,39,70,0,0
3.5946e+05,1.5126e+08,0,6593,6671,15.03,5.59,39,71,0,0
3.599e+05,1.5137e+08,0,6670,6657,15.18,4.36,39,71,0,0
3.6035e+05,1.5148e+08,0,6613,6171,15.18,3.81,39,71,0,0
3.6076e+05,1.5159e+08,0,6173,6228,15.04,4.21,39,71,0,0
3.6125e+05,1.5171e+08,0,6219,6128,15.14,3.91,39,71,0,0
3.6165e+05,1.5181e+08,0,6122,5885,15.11,3.55,39,71,0,0
3.621e+05,1.5192e+08,0,5896,6114,15.06,4.09,39,71,0,0
3.6255e+05,1.5203e+08,0,6125,6285,15.09,4.26,39,71,0,0
3.6299e+05,1.5214e+08,0,6277,6171,15.08,4.45,39,72,0,0
3.6344e+05,1.5225e+08,0,6181,6328,15.05,4.39,39,72,0,0
3.6388e+05,1.5236e+08,0,6323,6285,15.08,4.69,39,72,0,0
3.6433e+05,1.5247e+08,0,6295,6500,15.1,4.75,39,72,0,0
3.6474e+05,1.5257e+08,0,6500,6514,15.14,4.71,39,72,0,0
3.6519e+05,1.5269e+08,0,6501,6357,15.19,4.61,39,72,0,0
3.6563e+05,1.528e+08,0,6333,6114,15.19,4.34,39,72,0,0
3.6608e+05,1.5291e+08,0,6115,6128,15.1,4.33,39,73,0,0
3.6649e+05,1.5301e+08,0,6132,6228,15.16,4.06,39,73,0,0
3.6697e+05,1.5314e+08,0,6230,6257,15.14,4.07,39,73,0,0
3.6738e+05,1.5323e+08,0,6247,6028,15.17,3.35,39,73,0,0
3.6826e+05,1.5345e+08,0,6030,6342,15.05,4.57,39,73,0,0
3.6875e+05,1.5357e+08,0,6339,6314,15.07,4.46,39,73,0,0
3.6919e+05,1.5367e+08,0,6320,6428,15.06,4.73,39,73,0,0
3.696e+05,1.5377e+08,0,6428,6428,15.1,4.59,39,73,0,0
3.7008e+05,1.5389e+08,0,6433,6514,15.03,4.8,39,74,0,0
3.7049e+05,1.54e+08,0,6520,6600,15.11,5.14,39,74,0,0
3.7098e+05,1.5411e+08,0,6613,6728,15.08,4.91,39,74,0,0
3.7138e+05,1.5422e+08,0,6714,6542,15.03,5.2,39,74,0,0
3.7183e+05,1.5433e+08,0,6537,6500,15.07,4.92,39,74,0,0
3.7227e+05,1.5443e+08,0,6498,6485,14.99,5.18,39,74,0,0
3.7272e+05,1.5455e+08,0,6491,6557,15.04,5.09,39,75,0,0
3.7361e+05,1.5476e+08,0,6558,6700,15.01,5.37,39,75,0,0
3.7406e+05,1.5487e+08,0,6700,6700,15.07,5.29,39,75,0,0
3.7451e+05,1.5498e+08,0,6707,6900,15.01,5.07,39,75,0,0
3.7495e+05,1.5509e+08,0,6896,6685,15.02,4.89,39,75,0,0
3.754e+05,1.552e+08,0,6691,6857,14.95,5.42,39,76,0,0
3.7588e+05,1.5532e+08,0,6860,6900,14.99,4.83,39,76,0,0
3.7674e+05,1.5553e+08,0,6893,6714,14.95,5.15,39,76,0,0
3.7719e+05,1.5564e+08,0,6725,6828,15.04,5.22,39,76,0,0
3.7759e+05,1.5574e+08,0,6822,6600,14.98,4.78,39,76,0,0
3.7804e+05,1.5586e+08,0,6598,6571,15.01,5.55,39,76,0,0
3.7849e+05,1.5597e+08,0,6591,6800,15.07,5.15,39,77,0,0
3.789e+05,1.5607e+08,0,6796,6657,15.07,5.1,39,77,0,0
3.7934e+05,1.5618e+08,0,6654,6557,15.04,5.08,39,77,0,0
3.7979e+05,1.5628e+08,0,6561,6657,15.08,4.92,39,77,0,0
3.8028e+05,1.564e+08,0,6655,6628,15.09,4.91,39,77,0,0
3.8073e+05,1.5652e+08,0,6629,6642,15.1,4.81,39,77,0,0
3.8157e+05,1.5673e+08,0,6627,6342,15.1,4.46,39,78,0,0
3.8201e+05,1.5683e+08,0,6339,6314,15.19,3.95,39,78,0,0
3.8245e+05,1.5693e+08,0,6309,6100,14.92,4.6,39,78,0,0
3.829e+05,1.5704e+08,0,6097,6042,15.15,4.19,39,78,0,0
3.8334e+05,1.5715e+08,0,6042,6042,15.14,3.49,39,78,0,0
3.838e+05,1.5727e+08,0,6033,5942,15.17,3.61,39,78,0,0
3.8421e+05,1.5737e+08,0,5945,5985,15.07,3.98,39,78,0,0
3.8511e+05,1.5759e+08,0,5996,6242,15.11,4.1,39,79,0,0
3.8555e+05,1.577e+08,0,6243,6300,15.13,3.86,39,79,0,0
3.86e+05,1.5781e+08,0,6293,6228,15.07,4.58,39,79,0,0
3.864e+05,1.5791e+08,0,6231,6442,15.04,4.54,39,79,0,0
3.8689e+05,1.5803e+08,0,6443,6457,15.04,4.59,39,79,0,0
3.8729e+05,1.5813e+08,0,6461,6542,15.09,4.8,39,79,0,0
3.8774e+05,1.5824e+08,0,6549,6628,15.11,4.27,39,79,0,0
3.8814e+05,1.5834e+08,0,6616,6442,15.05,4.24,39,80,0,0
3.886e+05,1.5845e+08,0,6442,6442,15.05,4.68,39,80,0,0
3.8949e+05,1.5867e+08,0,6446,6585,15.1,4.52,39,80,0,0
3.8994e+05,1.5878e+08,0,6575,6442,15,4.94,39,80,0,0
3.9038e+05,1.5889e+08,0,6445,6642,15.06,4.93,39,80,0,0
3.9087e+05,1.5901e+08,0,6642,6642,15.03,4.82,39,80,0,0
3.9132e+05,1.5911e+08,0,6643,6657,14.99,4.92,39,81,0,0
3.9176e+05,1.5922e+08,0,6674,6857,14.98,5.41,39,81,0,0
3.922e+05,1.5933e+08,0,6840,6642,15,4.77,39,81,0,0
3.9265e+05,1.5944e+08,0,6663,6871,14.94,5.66,40,81,0,0
3.931e+05,1.5955e+08,0,6849,6614,15.04,5.21,39,81,0,0
3.9354e+05,1.5966e+08,0,6614,6614,15.05,4.75,39,81,0,0
3.9398e+05,1.5977e+08,0,6637,6814,15.04,5.12,39,81,0,0
3.9439e+05,1.5987e+08,0,6812,6700,15.11,4.93,39,82,0,0
3.9488e+05,1.5999e+08,0,6684,6542,15.14,4.08,39,82,0,0
3.9573e+05,1.6021e+08,0,6537,6428,15.1,4.2,40,82,0,0
3.9623e+05,1.6032e+08,0,6413,6257,15.04,4.56,39,82,0,0
3.9663e+05,1.6043e+08,0,6251,6200,15.13,4.15,39,82,0,0
3.9708e+05,1.6053e+08,0,6208,6371,15.22,4.29,39,82,0,0
3.9749e+05,1.6063e+08,0,6358,6100,15.11,3.36,39,83,0,0
3.9793e+05,1.6074e+08,0,6097,6028,15.23,3.18,39,83,0,0
3.9842e+05,1.6086e+08,0,6005,5757,15.24,3.26,39,83,0,0
3.9879e+05,1.6096e+08,0,5763,5857,15.09,4.24,39,83,0,0
3.9928e+05,1.6108e+08,0,5851,5785,15.28,2.9,39,83,0,0
4.0013e+05,1.6129e+08,0,5793,6057,15.26,3.49,39,83,0,0
4.0053e+05,1.6139e+08,0,6053,5900,15.16,3.05,39,83,0,0
4.0098e+05,1.615e+08,0,5899,5857,15.17,3.94,39,83,0,0
4.0146e+05,1.6161e+08,0,5854,5785,15.19,3.58,39,84,0,0
4.0195e+05,1.6174e+08,0,5785,5785,15.23,3.75,39,84,0,0
4.0235e+05,1.6183e+08,0,5788,5828,15.27,3,39,84,0,0
4.0279e+05,1.6194e+08,0,5829,5857,15.22,3.24,39,84,0,0
4.0324e+05,1.6205e+08,0,5845,5700,15.24,3.83,39,84,0,0
4.0368e+05,1.6216e+08,0,5717,5957,15.03,3.79,39,84,0,0
4.0413e+05,1.6226e+08,0,5963,6100,15.17,3.83,39,84,0,0
4.0454e+05,1.6237e+08,0,6100,6114,15.11,3.85,39,84,0,0
4.0503e+05,1.6249e+08,0,6121,6200,15.08,4.2,39,84,0,0
4.0543e+05,1.6259e+08,0,6200,6214,15.08,4.24,39,85,0,0
4.0632e+05,1.628e+08,0,6220,6414,15.1,4.16,39,85,0,0
4.0677e+05,1.6291e+08,0,6415,6442,15.08,4.18,39,85,0,0
4.0718e+05,1.6302e+08,0,6436,6185,15.16,3.65,39,85,0,0
4.0811e+05,1.6325e+08,0,6187,6271,15.17,4.11,39,85,0,0
4.0851e+05,1.6335e+08,0,6274,6442,15.18,4.06,39,85,0,0
4.09e+05,1.6347e+08,0,6412,6114,15.1,4.36,39,85,0,0
4.0988e+05,1.6368e+08,0,6123,6385,15.16,4.53,39,86,0,0
4.1029e+05,1.6379e+08,0,6380,6185,15.07,4.54,39,86,0,0
4.1074e+05,1.639e+08,0,6185,6200,15.05,4.12,39,86,0,0
4.1119e+05,1.6401e+08,0,6221,6500,15,4.44,39,86,0,0
4.1163e+05,1.6412e+08,0,6503,6528,14.94,4.95,39,86,0,0
4.1204e+05,1.6422e+08,0,6531,6571,14.98,5.31,39,86,0,0
4.1248e+05,1.6433e+08,0,6572,6671,14.92,5.14,39,87,0,0
4.1294e+05,1.6445e+08,0,6675,6714,14.98,5.22,39,87,0,0
4.1334e+05,1.6455e+08,0,6697,6500,15.05,4.77,39,87,0,0
4.1375e+05,1.6465e+08,0,6500,6500,15.07,4.59,39,87,0,0
4.1419e+05,1.6476e+08,0,6490,6242,15.07,4.3,39,87,0,0
4.1464e+05,1.6487e+08,0,6242,6257,15.05,4.42,39,87,0,0
4.1509e+05,1.6498e+08,0,6247,6128,15.02,4.47,39,88,0,0
4.1554e+05,1.6509e+08,0,6141,6314,15.02,4.61,39,88,0,0
4.1594e+05,1.6519e+08,0,6314,6357,14.99,4.54,39,88,0,0
4.1643e+05,1.6531e+08,0,6355,6328,15.01,4.97,39,88,0,0
4.1688e+05,1.6542e+08,0,6332,6428,14.97,5.04,39,88,0,0
4.1733e+05,1.6553e+08,0,6421,6357,14.98,5.08,39,88,0,0
4.1778e+05,1.6564e+08,0,6390,6714,15.04,4.89,39,88,0,0
4.1818e+05,1.6575e+08,0,6702,6414,15.04,4.69,39,88,0,0
4.1863e+05,1.6585e+08,0,6408,6128,15.08,4.08,39,89,0,0
4.1908e+05,1.6596e+08,0,6130,6171,15.06,4.14,39,89,0,0
4.1953e+05,1.6608e+08,0,6164,6071,15.03,4.47,39,89,0,0
4.1997e+05,1.6619e+08,0,6088,6271,15.08,4.63,39,89,0,0
4.2042e+05,1.663e+08,0,6265,6185,15.07,4.06,39,89,0,0
4.2083e+05,1.664e+08,0,6181,6014,15.04,4.29,39,89,0,0
4.2131e+05,1.6652e+08,0,6011,5957,15.07,3.86,39,89,0,0
4.2176e+05,1.6663e+08,0,5948,5871,15.04,3.95,39,89,0,0
4.2216e+05,1.6673e+08,0,5879,6028,15.06,3.89,39,90,0,0
4.2261e+05,1.6684e+08,0,6029,6057,15.07,4.1,39,90,0,0
4.2306e+05,1.6695e+08,0,6060,6100,15.04,4.23,39,90,0,0
4.2351e+05,1.6706e+08,0,6098,6085,15.08,3.85,39,90,0,0
4.2395e+05,1.6717e+08,0,6087,6142,15.04,4.1,39,90,0,0
4.2444e+05,1.6729e+08,0,6150,6214,15.09,4.37,39,90,0,0
4.2484e+05,1.6739e+08,0,6223,6300,15.07,4.44,39,90,0,0
4.2525e+05,1.6749e+08,0,6296,6228,15.02,4.74,39,91,0,0
4.257e+05,1.6761e+08,0,6253,6500,14.96,5.06,39,91,0,0
4.2614e+05,1.6772e+08,0,6486,6342,15,4.65,39,91,0,0
4.2659e+05,1.6783e+08,0,6357,6471,15,4.89,39,91,0,0
4.27e+05,1.6792e+08,0,6467,6400,15.01,4.48,39,91,0,0
4.2788e+05,1.6815e+08,0,6394,6285,15.06,4.24,39,91,0,0
4.2833e+05,1.6826e+08,0,6285,6285,15.01,4.24,39,91,0,0
4.2874e+05,1.6836e+08,0,6286,6300,15.01,4.46,39,92,0,0
4.2919e+05,1.6847e+08,0,6294,6242,15.02,4.49,39,92,0,0
4.2963e+05,1.6859e+08,0,6250,6328,15.05,4.67,39,92,0,0
4.3008e+05,1.6869e+08,0,6326,6314,15.01,4.47,39,92,0,0
4.3053e+05,1.688e+08,0,6309,6271,15.02,4.63,39,92,0,0
4.3098e+05,1.6891e+08,0,6279,6357,15.06,4.7,39,92,0,0
4.3142e+05,1.6902e+08,0,6364,6442,15.07,4.63,39,92,0,0
4.3187e+05,1.6914e+08,0,6438,6414,15.05,4.8,39,93,0,0
4.3228e+05,1.6923e+08,0,6412,6385,15.06,4.57,39,93,0,0
4.3268e+05,1.6933e+08,0,6384,6371,15.02,4.14,39,93,0,0
4.3317e+05,1.6945e+08,0,6367,6342,14.98,4.45,39,93,0,0
4.3361e+05,1.6956e+08,0,6360,6557,14.86,4.92,39,93,0,0
4.3406e+05,1.6967e+08,0,6569,6685,14.9,5.38,39,93,0,0
4.3539e+05,1.7e+08,0,6680,6542,14.95,5,39,94,0,0
4.358e+05,1.701e+08,0,6544,6714,14.94,5.09,39,94,0,0
4.3624e+05,1.7021e+08,0,6712,6614,14.9,5.12,39,94,0,0
4.367e+05,1.7032e+08,0,6617,6685,14.94,4.86,39,94,0,0
4.3714e+05,1.7043e+08,0,6675,6571,14.92,5.15,39,94,0,0
4.3759e+05,1.7053e+08,0,6571,6642,14.92,5.26,39,94,0,0
4.3804e+05,1.7064e+08,0,6652,6742,14.92,4.9,39,95,0,0
4.3844e+05,1.7075e+08,0,6735,6571,14.98,4.85,39,95,0,0
4.3889e+05,1.7085e+08,0,6571,6600,14.95,4.88,39,95,0,0
4.3934e+05,1.7097e+08,0,6596,6557,14.97,4.56,39,95,0,0
4.3978e+05,1.7108e+08,0,6548,6385,14.99,4.57,39,95,0,0
4.4027e+05,1.712e+08,0,6382,6357,14.98,4.43,39,95,0,0
4.4068e+05,1.7129e+08,0,6354,6314,14.96,4.59,39,96,0,0
4.4157e+05,1.7152e+08,0,6306,6185,15.01,4.04,39,96,0,0
4.4202e+05,1.7163e+08,0,6191,6257,15.01,4.44,39,96,0,0
4.4245e+05,1.7173e+08,0,6264,6400,15.02,4.79,39,96,0,0
4.429e+05,1.7184e+08,0,6393,6300,15.04,4.4,39,96,0,0
4.4335e+05,1.7196e+08,0,6308,6385,15.1,4.33,39,96,0,0
4.438e+05,1.7206e+08,0,6374,6271,15.01,4.26,39,96,0,0
4.4424e+05,1.7217e+08,0,6281,6385,15,4.42,39,97,0,0
4.4469e+05,1.7229e+08,0,6382,6357,15.04,4.66,39,97,0,0
4.4513e+05,1.7239e+08,0,6358,6371,15.07,4.89,39,97,0,0
4.4553e+05,1.725e+08,0,6370,6357,14.99,4.87,39,97,0,0
4.4598e+05,1.7261e+08,0,6358,6385,15.01,4.61,39,97,0,0
4.4642e+05,1.7272e+08,0,6399,6557,15.01,4.84,39,97,0,0
4.4687e+05,1.7282e+08,0,6558,6642,14.98,4.83,39,97,0,0
4.4732e+05,1.7293e+08,0,6638,6557,14.97,5.03,39,98,0,0
4.4772e+05,1.7304e+08,0,6556,6485,15.04,4.8,39,98,0,0
4.4817e+05,1.7315e+08,0,6486,6514,15.02,4.8,39,98,0,0
4.4866e+05,1.7327e+08,0,6530,6685,14.98,5.02,39,98,0,0
4.491e+05,1.7337e+08,0,6679,6600,14.98,5,39,98,0,0
4.4951e+05,1.7348e+08,0,6604,6700,15.07,4.68,39,98,0,0
4.4995e+05,1.7359e+08,0,6683,6357,15.03,4.61,39,99,0,0
4.504e+05,1.737e+08,0,6355,6328,15.07,4.66,39,99,0,0
4.513e+05,1.7392e+08,0,6329,6600,14.95,5.33,39,99,0,0
4.5174e+05,1.7403e+08,0,6600,6600,15.04,5,39,99,0,0
4.5219e+05,1.7414e+08,0,6604,6671,15,5.18,39,99,0,0
4.5264e+05,1.7425e+08,0,6659,6557,14.99,5.24,40,99,0,0
4.5305e+05,1.7436e+08,0,6568,6714,15.01,5.12,39,99,0,0
4.535e+05,1.7447e+08,0,6713,6700,15.02,4.98,39,100,0,0
4.5395e+05,1.7458e+08,0,6687,6557,15.02,5.24,39,100,0,0
4.5439e+05,1.7468e+08,0,6555,6528,15.02,4.84,39,100,0,0
4.5484e+05,1.748e+08,0,6538,6671,15.01,5.02,39,100,0,0
4.553e+05,1.7491e+08,0,6668,6642,15.07,4.56,39,100,0,0
4.5574e+05,1.7502e+08,0,6621,6357,15.08,4.79,39,100,0,0
4.5614e+05,1.7513e+08,0,6355,6342,15.07,4.42,39,101,0,0
4.5659e+05,1.7524e+08,0,6334,6257,15.15,4.57,39,101,0,0
4.57e+05,1.7534e+08,0,6256,6228,15.02,4.41,39,101,0,0
4.5744e+05,1.7545e+08,0,6228,6285,15.11,4.17,39,101,0,0
4.5792e+05,1.7556e+08,0,6277,6200,15.01,4.48,39,101,0,0
4.5837e+05,1.7567e+08,0,6204,6257,15.07,4.35,39,101,0,0
4.5879e+05,1.7578e+08,0,6255,6242,15.06,4.16,39,101,0,0
4.5919e+05,1.7588e+08,0,6240,6200,15.05,4.5,39,102,0,0
4.5965e+05,1.7599e+08,0,6209,6342,15.02,4.58,39,102,0,0
4.6009e+05,1.7609e+08,0,6349,6500,15.04,4.94,39,102,0,0
4.6058e+05,1.7621e+08,0,6500,6500,15.07,5.08,39,102,0,0
4.6102e+05,1.7632e+08,0,6497,6442,15.08,4.56,39,102,0,0
4.6146e+05,1.7643e+08,0,6424,6271,15.02,4.48,39,102,0,0
4.6236e+05,1.7665e+08,0,6274,6371,15.01,4.76,39,102,0,0
4.628e+05,1.7676e+08,0,6358,6200,15.05,4.56,39,103,0,0
4.6324e+05,1.7687e+08,0,6216,6414,15.04,4.51,39,103,0,0
4.6366e+05,1.7698e+08,0,6416,6442,15,4.92,39,103,0,0
4.6455e+05,1.772e+08,0,6447,6585,15,5.17,39,103,0,0
4.6496e+05,1.773e+08,0,6577,6442,14.99,4.99,39,103,0,0
4.6541e+05,1.7741e+08,0,6455,6571,15.01,5.36,39,104,0,0
4.6585e+05,1.7752e+08,0,6580,6642,14.94,5.3,39,104,0,0
4.663e+05,1.7762e+08,0,6644,6671,15,5.07,39,104,0,0
4.6674e+05,1.7773e+08,0,6673,6700,15.03,4.89,40,104,0,0
4.6719e+05,1.7785e+08,0,6687,6514,15.02,5.24,40,104,0,0
4.6805e+05,1.7806e+08,0,6516,6600,15.03,4.92,39,104,0,0
4.6845e+05,1.7816e+08,0,6597,6514,15.06,4.72,40,105,0,0
4.6934e+05,1.7838e+08,0,6515,6557,15.11,4.36,39,105,0,0
4.698e+05,1.7849e+08,0,6545,6428,15,4.45,39,105,0,0
4.7023e+05,1.786e+08,0,6422,6342,15.12,4.38,39,105,0,0
4.7068e+05,1.787e+08,0,6340,6328,15.06,4.44,40,105,0,0
4.7113e+05,1.7882e+08,0,6336,6428,15.12,4.49,40,105,0,0
4.7157e+05,1.7893e+08,0,6430,6457,15.05,4.83,40,106,0,0
4.729e+05,1.7925e+08,0,6456,6314,15.09,4.67,39,106,0,0
4.7338e+05,1.7936e+08,0,6312,6285,15.06,4.31,40,106,0,0
4.7379e+05,1.7946e+08,0,6282,6171,15.1,3.99,39,106,0,0
4.7423e+05,1.7958e+08,0,6177,6271,15.05,4.39,40,106,0,0
4.7468e+05,1.7968e+08,0,6270,6257,15.07,4.17,40,106,0,0
4.7513e+05,1.7979e+08,0,6262,6342,15.07,4.39,40,107,0,0
4.7558e+05,1.799e+08,0,6335,6271,15.09,4.08,39,107,0,0
4.7601e+05,1.8001e+08,0,6264,6128,15.07,4.04,39,107,0,0
4.7642e+05,1.8011e+08,0,6128,6128,15.13,4.29,39,107,0,0
4.7687e+05,1.8022e+08,0,6129,6171,15.16,4.16,40,107,0,0
4.7777e+05,1.8045e+08,0,6167,6100,15.11,3.73,39,107,0,0
4.7817e+05,1.8055e+08,0,6102,6142,15.11,3.94,40,107,0,0
4.7862e+05,1.8066e+08,0,6128,5928,15.16,2.9,40,108,0,0
4.7907e+05,1.8078e+08,0,5910,5742,15.16,2.92,39,108,0,0
4.7952e+05,1.8088e+08,0,5752,6000,15.07,3.96,40,108,0,0
4.7995e+05,1.8099e+08,0,6008,6185,15.05,3.9,40,108,0,0
4.8045e+05,1.8111e+08,0,6188,6228,15.08,4.28,39,108,0,0
4.8086e+05,1.8121e+08,0,6239,6357,15.03,4.8,39,108,0,0
4.8127e+05,1.8131e+08,0,6359,6514,15.04,4.92,39,108,0,0
4.8167e+05,1.8141e+08,0,6516,6614,15.04,4.98,39,108,0,0
4.8257e+05,1.8163e+08,0,6615,6671,15.05,5.18,40,109,0,0
4.8302e+05,1.8174e+08,0,6669,6657,15.07,4.57,39,109,0,0
4.8346e+05,1.8185e+08,0,6658,6685,14.94,5.31,40,109,0,0
4.8391e+05,1.8196e+08,0,6676,6514,14.99,5.31,39,109,0,0
4.8435e+05,1.8207e+08,0,6524,6657,15.05,5.18,39,109,0,0
4.8476e+05,1.8217e+08,0,6656,6628,15,4.96,39,109,0,0
4.8525e+05,1.8229e+08,0,6623,6571,15.04,5.05,39,110,0,0
4.8565e+05,1.8239e+08,0,6569,6542,15.05,4.97,40,110,0,0
4.861e+05,1.825e+08,0,6548,6642,15.02,5.1,39,110,0,0
4.8699e+05,1.8272e+08,0,6639,6557,15.01,4.85,40,110,0,0
4.8744e+05,1.8283e+08,0,6553,6457,15.02,4.79,40,110,0,0
4.8792e+05,1.8294e+08,0,6453,6414,15.06,4.46,39,110,0,0
4.8837e+05,1.8305e+08,0,6414,6414,15.07,4.24,39,111,0,0
4.8877e+05,1.8315e+08,0,6414,6414,15.07,4.46,39,111,0,0
4.8922e+05,1.8327e+08,0,6403,6300,15.05,4.21,40,111,0,0
4.8967e+05,1.8338e+08,0,6324,6571,15.03,4.72,40,111,0,0
4.9012e+05,1.8349e+08,0,6546,6285,15.04,4.53,39,111,0,0
4.9056e+05,1.8359e+08,0,6291,6371,15.05,4.23,39,111,0,0
4.9101e+05,1.8371e+08,0,6366,6328,15.06,4.47,39,111,0,0
4.9146e+05,1.8381e+08,0,6318,6214,15.06,4.48,40,112,0,0
4.9185e+05,1.8391e+08,0,6214,6242,14.99,4.53,40,112,0,0
4.923e+05,1.8402e+08,0,6247,6342,15.02,4.68,39,112,0,0
4.9274e+05,1.8413e+08,0,6344,6485,15.04,4.84,40,112,0,0
4.932e+05,1.8424e+08,0,6477,6371,15.1,4.19,40,112,0,0
4.936e+05,1.8435e+08,0,6368,6328,15.02,4.76,40,112,0,0
4.9409e+05,1.8446e+08,0,6336,6457,15,4.88,39,112,0,0
4.9449e+05,1.8456e+08,0,6456,6428,15.01,4.55,40,113,0,0
4.9498e+05,1.8468e+08,0,6434,6528,15.02,4.97,39,113,0,0
4.9543e+05,1.8479e+08,0,6525,6500,15.02,4.68,40,113,0,0
4.9588e+05,1.849e+08,0,6497,6471,15.04,5.23,40,113,0,0
4.9628e+05,1.85e+08,0,6474,6614,15.06,5.09,39,113,0,0
4.9678e+05,1.8512e+08,0,6602,6528,15.02,5.3,40,113,0,0
4.9718e+05,1.8523e+08,0,6528,6528,15.09,4.89,39,113,0,0
4.9763e+05,1.8533e+08,0,6521,6457,14.89,4.84,40,114,0,0
4.9807e+05,1.8544e+08,0,6458,6471,15.06,4.96,40,114,0,0
4.9893e+05,1.8565e+08,0,6465,6328,15.02,4.67,39,114,0,0
4.9941e+05,1.8577e+08,0,6326,6314,15.06,4.43,39,114,0,0
4.9986e+05,1.8588e+08,0,6312,6300,15.09,4.32,40,114,0,0
5.003e+05,1.8599e+08,0,6303,6342,15.07,4.38,40,114,0,0
5.0071e+05,1.8609e+08,0,6341,6300,15,4.75,40,115,0,0
5.0115e+05,1.8619e+08,0,6313,6585,14.96,4.93,40,115,0,0
5.016e+05,1.863e+08,0,6581,6485,15.08,4.63,39,115,0,0
5.0204e+05,1.8642e+08,0,6485,6485,15.07,4.37,40,115,0,0
5.0249e+05,1.8652e+08,0,6480,6357,15.01,4.61,40,115,0,0
5.0338e+05,1.8674e+08,0,6357,6357,14.92,4.96,40,115,0,0
5.0383e+05,1.8685e+08,0,6368,6542,15.01,4.96,40,116,0,0
5.0428e+05,1.8697e+08,0,6539,6514,15.04,4.7,40,116,0,0
5.0473e+05,1.8707e+08,0,6506,6400,15.02,4.64,40,116,0,0
5.0518e+05,1.8718e+08,0,6394,6314,15,4.69,40,116,0,0
5.0562e+05,1.8729e+08,0,6316,6371,15.06,4.52,40,116,0,0
5.0606e+05,1.874e+08,0,6372,6400,14.98,4.62,40,116,0,0
5.0695e+05,1.8761e+08,0,6393,6214,15.04,4.35,40,117,0,0
5.074e+05,1.8773e+08,0,6221,6271,15.02,4.29,40,117,0,0
5.078e+05,1.8782e+08,0,6268,6214,14.98,4.54,39,117,0,0
5.0825e+05,1.8793e+08,0,6214,6257,15.04,4.18,40,117,0,0
5.087e+05,1.8804e+08,0,6255,6142,15.06,3.98,40,117,0,0
5.0958e+05,1.8826e+08,0,6143,6257,15.13,4.2,40,117,0,0
5.1006e+05,1.8837e+08,0,6254,6200,15.05,4.42,40,117,0,0
5.1051e+05,1.8848e+08,0,6200,6214,15.04,4.4,40,118,0,0
5.1096e+05,1.8859e+08,0,6220,6300,15.01,4.5,40,118,0,0
5.1145e+05,1.887e+08,0,6316,6485,15.01,4.62,39,118,0,0
5.1185e+05,1.888e+08,0,6484,6442,15.04,4.31,39,118,0,0
5.123e+05,1.8891e+08,0,6442,6485,15.04,4.15,39,118,0,0
5.1278e+05,1.8903e+08,0,6479,6428,15.02,4.6,39,118,0,0
5.1318e+05,1.8913e+08,0,6420,6285,15.02,4.2,40,118,0,0
5.1364e+05,1.8924e+08,0,6243,5828,15.38,2.06,39,118,0,0
5.1408e+05,1.8935e+08,0,5814,5628,15.18,2.55,39,119,0,0
5.1453e+05,1.8946e+08,0,5614,5485,15.18,2.93,40,119,0,0
5.1493e+05,1.8956e+08,0,5483,5385,15.31,2.31,39,119,0,0
5.1543e+05,1.8968e+08,0,5373,5257,15.33,2.11,39,119,0,0
5.1582e+05,1.8978e+08,0,5249,4828,15.45,1.32,40,119,0,0
5.1632e+05,1.8989e+08,0,4762,3914,15.52,0.23,39,119,0,0
5.1676e+05,1.9e+08,0,3816,2914,15.5,0.19,40,119,0,0
5.1721e+05,1.9011e+08,0,2901,2785,15.5,0.46,40,119,0,0
5.1761e+05,1.9021e+08,0,2785,2785,15.5,0.45,40,119,0,0
5.1852e+05,1.9044e+08,0,2788,2871,15.5,0.41,39,119,0,0
5.1892e+05,1.9054e+08,0,2867,2814,15.5,0.49,39,119,0,0
5.1936e+05,1.9064e+08,0,2814,2842,15.48,0.47,39,119,0,0
5.1981e+05,1.9076e+08,0,2842,2842,15.5,0.46,39,119,0,0
5.2025e+05,1.9086e+08,0,2839,2800,15.51,0.48,39,119,0,0
5.207e+05,1.9098e+08,0,2806,2871,15.51,0.5,39,119,0,0
5.2119e+05,1.9109e+08,0,2868,2828,15.51,0.42,39,119,0,0
5.2156e+05,1.9118e+08,0,2827,2785,15.5,0.47,39,119,0,0
5.2205e+05,1.913e+08,0,2785,2785,15.5,0.48,39,119,0,0
5.2249e+05,1.9141e+08,0,2786,2814,15.52,0.46,39,119,0,0
5.229e+05,1.9151e+08,0,2812,2785,15.5,0.47,39,119,0,0
5.2335e+05,1.9162e+08,0,2787,2828,15.52,0.46,39,119,0,0
5.2376e+05,1.9172e+08,0,2817,2042,15.58,0.02,39,119,0,0
5.2425e+05,1.9183e+08,0,1997,1514,15.57,0,39,119,0,0
5.2469e+05,1.9194e+08,0,1501,1314,15.56,0.08,39,119,0,0
5.2518e+05,1.9205e+08,0,1310,1271,15.57,0.1,39,119,0,0
5.2558e+05,1.9215e+08,0,1271,1285,15.57,0.11,39,119,0,0
5.2607e+05,1.9227e+08,0,1284,1271,15.57,0.11,39,119,0,0
5.2692e+05,1.9248e+08,0,1271,1271,15.57,0.11,39,119,0,0
5.2738e+05,1.9259e+08,0,1271,1271,15.58,0.11,39,119,0,0
5.2778e+05,1.9269e+08,0,1271,1271,15.57,0.11,39,119,0,0
5.2827e+05,1.9281e+08,0,1271,1271,15.57,0.11,39,119,0,0
5.2871e+05,1.9292e+08,0,1271,1271,15.58,0.11,39,119,0,0
5.292e+05,1.9303e+08,0,1271,1271,15.58,0.11,39,119,0,0
5.2956e+05,1.9312e+08,0,1271,1271,15.58,0.11,39,119,0,0
5.3005e+05,1.9324e+08,0,1252,828,15.6,0.03,39,119,0,0
5.3048e+05,1.9334e+08,0,809,328,15.6,0.02,39,119,0,0
5.3093e+05,1.9345e+08,0,322,0,15.6,0.03,39,119,0,0
5.3192e+05,1.9368e+08,0,0,0,15.6,0.04,38,119,0,0
5.3237e+05,1.9378e+08,0,0,0,15.61,0.04,38,119,0,0
5.3282e+05,1.9389e+08,0,0,0,15.61,0.05,38,119,0,0
5.3328e+05,1.94e+08,0,0,0,15.61,0.05,38,119,0,0
5.3373e+05,1.9411e+08,0,0,0,15.61,0.05,38,119,0,0
5.3418e+05,1.9422e+08,0,0,0,15.61,0.04,38,119,0,0
5.346e+05,1.9432e+08,0,0,0,15.61,0.04,38,119,0,0
5.3505e+05,1.9443e+08,0,0,0,15.61,0.04,38,119,0,0
5.355e+05,1.9453e+08,0,0,0,15.61,0.04,38,119,0,0
5.3599e+05,1.9465e+08,0,0,0,15.62,0.05,38,119,0,0
5.3644e+05,1.9476e+08,0,0,0,15.62,0.05,38,119,0,0
5.3689e+05,1.9486e+08,0,0,0,15.63,0.05,38,119,0,0
5.3735e+05,1.9497e+08,0,0,0,15.63,0.05,38,119,0,0
5.378e+05,1.9507e+08,0,0,0,15.63,0.05,38,119,0,0
5.3826e+05,1.9519e+08,0,0,0,15.63,0.05,38,119,0,0
5.3875e+05,1.953e+08,0,0,0,15.63,0.04,38,119,0,0
5.3921e+05,1.9541e+08,0,0,0,15.63,0.04,38,119,0,0
5.3966e+05,1.9552e+08,0,0,0,15.63,0.05,38,119,0,0
5.4011e+05,1.9563e+08,0,0,0,15.63,0.04,38,119,0,0
5.4053e+05,1.9573e+08,0,0,0,15.63,0.05,38,119,0,0
5.4102e+05,1.9585e+08,0,0,0,15.64,0.05,38,119,0,0
5.4147e+05,1.9596e+08,0,0,0,15.64,0.05,38,119,0,0
5.4192e+05,1.9606e+08,0,0,0,15.63,0.04,38,119,0,0
5.4238e+05,1.9617e+08,0,0,0,15.64,0.04,38,119,0,0
5.4292e+05,1.9629e+08,0,0,0,15.64,0.05,38,119,0,0
5.4332e+05,1.9639e+08,0,0,0,15.64,0.05,38,119,0,0
5.4382e+05,1.965e+08,0,0,0,15.64,0.05,38,119,0,0
5.4428e+05,1.9662e+08,0,0,0,15.65,0.05,38,119,0,0
