LineNo,TimeUS,Instance,RPM,RawRPM,Volt,Curr,Temp,CTot,MotTemp,Err
1802,64742904,5,0,0,16.26,0.03,24,0,0,0
2224,64846880,5,0,0,16.26,0.03,24,0,0,0
2639,64957461,5,0,0,16.26,0.03,24,0,0,0
3052,65058763,5,0,0,16.26,0.03,24,0,0,0
3505,65172946,5,0,0,16.26,0.03,24,0,0,0
3926,65277024,5,0,0,16.26,0.03,24,0,0,0
4342,65382828,5,0,0,16.26,0.03,24,0,0,0
4797,65497374,5,0,0,16.26,0.03,25,0,0,0
5206,65599898,5,0,0,16.26,0.03,24,0,0,0
5657,65715891,5,0,0,16.26,0.03,25,0,0,0
6035,65809830,5,0,0,16.26,0.03,24,0,0,0
6490,65926995,5,0,0,16.26,0.03,24,0,0,0
6902,66027713,5,0,0,16.26,0.03,24,0,0,0
7330,66135815,5,0,0,16.26,0.03,24,0,0,0
7829,66249580,5,0,0,16.26,0.03,24,0,0,0
8281,66355984,5,0,0,16.26,0.03,24,0,0,0
8737,66462831,5,0,0,16.26,0.03,24,0,0,0
9223,66570001,5,0,0,16.26,0.03,24,0,0,0
9676,66673573,5,0,0,16.26,0.03,24,0,0,0
10131,66783880,5,0,0,16.26,0.03,24,0,0,0
10631,66897473,5,0,0,16.26,0.03,25,0,0,0
11085,67003795,5,0,0,16.26,0.03,24,0,0,0
11539,67106822,5,0,0,16.26,0.03,25,0,0,0
12030,67220006,5,0,0,16.26,0.03,25,0,0,0
12943,67431824,5,0,0,16.26,0.03,24,0,0,0
13390,67537287,5,0,0,16.26,0.03,24,0,0,0
14344,67758603,5,0,0,16.26,0.03,25,0,0,0
14795,67862885,5,0,0,16.26,0.03,25,0,0,0
15247,67969894,5,0,0,16.26,0.03,25,0,0,0
15702,68074529,5,0,0,16.26,0.03,24,0,0,0
16157,68182942,5,8,200,16.25,0.02,25,0,0,0
16661,68298149,5,218,414,16.24,0.06,25,0,0,0
17109,68402651,5,444,842,16.2,0.12,25,0,0,0
17568,68513498,5,877,1185,16.25,0.13,25,0,0,0
18021,68616140,5,1185,1257,16.25,0.11,25,0,0,0
18474,68723778,5,1258,1285,16.24,0.11,25,0,0,0
18927,68826240,5,1285,1300,16.24,0.11,25,0,0,0
19422,68943022,5,1301,1314,16.25,0.09999999,25,0,0,0
19874,69044560,5,1314,1314,16.24,0.09999999,25,0,0,0
20607,69265769,5,1314,1314,16.24,0.11,25,0,0,0
21061,69373220,5,1314,1314,16.25,0.11,25,0,0,0
22009,69588124,5,1314,1314,16.25,0.09999999,25,0,0,0
22461,69691011,5,1314,1314,16.24,0.09999999,25,0,0,0
22924,69803466,5,1314,1314,16.25,0.11,25,0,0,0
23384,69912253,5,1314,1314,16.24,0.11,25,0,0,0
23833,70013821,5,1314,1314,16.24,0.09999999,25,0,0,0
24324,70126005,5,1314,1314,16.24,0.09999999,25,0,0,0
24824,70237505,5,1314,1314,16.25,0.09999999,25,0,0,0
25274,70340860,5,1314,1314,16.24,0.09999999,25,0,0,0
25731,70447912,5,1314,1314,16.25,0.11,25,0,0,0
26228,70563249,5,1314,1314,16.25,0.09999999,25,0,0,0
26681,70666877,5,1314,1314,16.25,0.09999999,25,0,0,0
27136,70774127,5,1314,1314,16.24,0.09999999,25,0,0,0
28050,70990831,5,1314,1314,16.24,0.09999999,25,0,0,0
28502,71093741,5,1314,1314,16.23,0.09999999,25,0,0,0
28998,71206958,5,1314,1314,16.25,0.09999999,25,0,0,0
29452,71317342,5,1314,1314,16.25,0.09999999,25,0,0,0
29908,71422918,5,1314,1314,16.24,0.09999999,25,0,0,0
30360,71525604,5,1314,1328,16.25,0.09999999,25,0,0,0
30856,71637461,5,1327,1314,16.24,0.09999999,25,0,0,0
31313,71745275,5,1314,1314,16.24,0.09999999,25,0,0,0
31766,71846717,5,1314,1314,16.25,0.09999999,25,0,0,0
32221,71956784,5,1314,1314,16.24,0.09999999,25,0,0,0
32722,72069230,5,1314,1314,16.24,0.09999999,25,0,0,0
33169,72174804,5,1314,1314,16.23,0.09999999,25,0,0,0
33629,72280763,5,1314,1314,16.25,0.09999999,25,0,0,0
34124,72397529,5,1314,1314,16.23,0.09999999,25,0,0,0
34579,72501915,5,1313,1300,16.24,0.09999999,25,0,0,0
35034,72610917,5,1300,1314,16.24,0.09999999,25,0,0,0
35494,72721354,5,1314,1314,16.25,0.11,25,0,0,0
35950,72827010,5,1314,1314,16.24,0.09999999,25,0,0,0
36435,72935588,5,1314,1314,16.25,0.09999999,25,0,0,0
36854,73036580,5,1314,1314,16.25,0.09999999,25,0,0,0
37841,73257454,5,1314,1314,16.25,0.09999999,25,0,0,0
38296,73365776,5,1314,1314,16.24,0.09999999,25,0,0,0
38748,73470241,5,1314,1314,16.24,0.09999999,25,0,0,0
39205,73579969,5,1314,1314,16.23,0.09999999,25,0,0,0
39664,73684590,5,1314,1314,16.24,0.09999999,25,0,0,0
40115,73789492,5,1314,1314,16.23,0.09999999,25,0,0,0
40612,73901759,5,1314,1314,16.25,0.09999999,25,0,0,0
41064,74009973,5,1314,1314,16.24,0.09999999,25,0,0,0
41559,74125137,5,1314,1314,16.23,0.09999999,25,0,0,0
42015,74229359,5,1314,1314,16.24,0.09999999,25,0,0,0
42470,74337334,5,1314,1314,16.25,0.09999999,25,0,0,0
42926,74442040,5,1314,1314,16.24,0.09999999,25,0,0,0
43379,74547995,5,1314,1314,16.24,0.09999999,25,0,0,0
43879,74658923,5,1314,1314,16.23,0.09999999,25,0,0,0
44334,74766824,5,1314,1314,16.24,0.09999999,25,0,0,0
44788,74868754,5,1314,1314,16.25,0.09999999,25,0,0,0
45243,74977674,5,1314,1314,16.24,0.09999999,25,0,0,0
45699,75082578,5,1314,1314,16.23,0.09999999,25,0,0,0
46195,75197492,5,1314,1314,16.24,0.09999999,25,0,0,0
46647,75299327,5,1314,1314,16.23,0.09999999,25,0,0,0
47142,75415335,5,1314,1314,16.23,0.09999999,25,0,0,0
47597,75517029,5,1314,1314,16.23,0.09999999,25,0,0,0
48055,75627983,5,1314,1314,16.23,0.09999999,25,0,0,0
48508,75733606,5,1314,1314,16.23,0.09999999,25,0,0,0
49905,76058950,5,1296,757,16.26,0.01,25,0,0,0
50350,76166705,5,720,228,16.25,0.01,25,0,0,0
50848,76281283,5,208,0,16.25,0.02,25,0,0,0
51296,76386976,5,0,0,16.25,0.03,25,0,0,0
51753,76492386,5,0,0,16.26,0.03,25,0,0,0
52206,76606445,5,0,0,16.25,0.03,25,0,0,0
52668,76714232,5,0,0,16.25,0.03,25,0,0,0
53121,76819744,5,0,0,16.26,0.03,25,0,0,0
53573,76927499,5,0,0,16.26,0.03,25,0,0,0
54032,77037379,5,0,0,16.25,0.03,25,0,0,0
54485,77145982,5,0,0,16.25,0.03,25,0,0,0
54983,77261454,5,0,0,16.26,0.03,25,0,0,0
55925,77480794,5,0,0,16.26,0.03,25,0,0,0
56337,77581905,5,0,0,16.25,0.03,25,0,0,0
56839,77696354,5,0,0,16.26,0.03,25,0,0,0
57250,77796002,5,0,0,16.26,0.03,25,0,0,0
57743,77913598,5,0,0,16.25,0.03,25,0,0,0
58153,78007130,5,0,0,16.26,0.03,25,0,0,0
58657,78131853,5,0,0,16.25,0.03,25,0,0,0
59066,78226971,5,0,0,16.25,0.03,25,0,0,0
59559,78341914,5,0,0,16.26,0.03,25,0,0,0
60013,78448045,5,0,0,16.26,0.03,25,0,0,0
60468,78559921,5,0,0,16.26,0.03,25,0,0,0
60923,78663887,5,0,0,16.25,0.03,25,0,0,0
61374,78771864,5,0,0,16.25,0.03,25,0,0,0
61871,78885593,5,0,0,16.25,0.03,25,0,0,0
62324,78994512,5,0,0,16.26,0.03,25,0,0,0
62780,79104985,5,0,0,16.25,0.03,25,0,0,0
63235,79212127,5,0,0,16.26,0.03,25,0,0,0
63908,79427037,5,0,0,16.26,0.03,25,0,0,0
64360,79535789,5,0,0,16.26,0.03,25,0,0,0
64858,79648380,5,0,0,16.26,0.03,25,0,0,0
65272,79750864,5,0,0,16.26,0.03,25,0,0,0
65779,79867985,5,0,0,16.25,0.03,25,0,0,0
66231,79975841,5,0,0,16.26,0.03,25,0,0,0
66684,80079761,5,0,0,16.25,0.03,25,0,0,0
67138,80188524,5,0,0,16.25,0.03,25,0,0,0
67636,80302924,5,0,0,16.25,0.03,25,0,0,0
68089,80410953,5,0,0,16.25,0.02,25,0,0,0
68544,80521987,5,0,0,16.26,0.02,25,0,0,0
69036,80630966,5,0,0,16.25,0.03,25,0,0,0
69447,80734424,5,0,0,16.26,0.03,25,0,0,0
69945,80849093,5,0,0,16.26,0.03,25,0,0,0
70433,80961504,5,0,0,16.26,0.03,25,0,0,0
70889,81068592,5,0,0,16.26,0.03,25,0,0,0
71349,81178814,5,0,0,16.26,0.03,25,0,0,0
71802,81282788,5,0,0,16.25,0.03,25,0,0,0
72294,81399835,5,0,0,16.25,0.03,25,0,0,0
72746,81504511,5,0,0,16.25,0.03,25,0,0,0
73200,81613507,5,0,0,16.25,0.03,25,0,0,0
73651,81723486,5,0,0,16.25,0.03,25,0,0,0
74147,81838135,5,0,0,16.26,0.03,25,0,0,0
74640,81950940,5,0,0,16.26,0.03,25,0,0,0
75093,82057684,5,0,0,16.25,0.03,25,0,0,0
75547,82166144,5,0,0,16.25,0.03,25,0,0,0
76045,82281133,5,0,0,16.26,0.03,25,0,0,0
76495,82389930,5,0,0,16.26,0.03,25,0,0,0
76916,82493708,5,0,0,16.25,0.03,25,0,0,0
77410,82606564,5,0,0,16.26,0.03,25,0,0,0
77858,82710869,5,0,0,16.26,0.03,25,0,0,0
78318,82820798,5,0,0,16.26,0.03,25,0,0,0
78813,82936179,5,0,0,16.26,0.03,25,0,0,0
79267,83039792,5,0,0,16.26,0.02,25,0,0,0
79723,83152337,5,0,0,16.25,0.02,25,0,0,0
80176,83256835,5,0,0,16.26,0.02,25,0,0,0
80631,83368575,5,0,0,16.26,0.02,25,0,0,0
81128,83483604,5,0,0,16.25,0.02,25,0,0,0
81581,83590574,5,0,0,16.25,0.02,25,0,0,0
82036,83696522,5,0,0,16.26,0.02,25,0,0,0
82487,83803920,5,0,0,16.26,0.02,25,0,0,0
82980,83920885,5,0,0,16.26,0.02,25,0,0,0
83436,84023802,5,0,0,16.26,0.02,25,0,0,0
84384,84243527,5,0,0,16.26,0.03,25,0,0,0
84835,84350503,5,0,0,16.26,0.03,25,0,0,0
85334,84467332,5,0,0,16.26,0.03,25,0,0,0
85791,84577695,5,0,0,16.26,0.03,25,0,0,0
86246,84682362,5,0,0,16.26,0.03,25,0,0,0
86697,84789995,5,0,0,16.26,0.03,25,0,0,0
87149,84893859,5,0,0,16.26,0.03,25,0,0,0
87602,85002252,5,0,0,16.26,0.03,25,0,0,0
88555,85222304,5,0,0,16.25,0.03,25,0,0,0
89002,85328759,5,0,0,16.25,0.03,25,0,0,0
89503,85447031,5,0,0,16.26,0.03,25,0,0,0
89954,85555523,5,0,0,16.25,0.03,25,0,0,0
90410,85660917,5,0,0,16.26,0.03,25,0,0,0
90868,85773849,5,0,0,16.26,0.03,25,0,0,0
91320,85876947,5,0,0,16.26,0.03,25,0,0,0
91772,85983941,5,0,0,16.26,0.03,25,0,0,0
92723,86205032,5,0,0,16.26,0.03,25,0,0,0
93138,86307323,5,0,0,16.26,0.03,25,0,0,0
93634,86422828,5,0,0,16.26,0.03,25,0,0,0
94083,86529476,5,0,0,16.26,0.03,25,0,0,0
94581,86644346,5,0,0,16.26,0.03,25,0,0,0
95032,86750833,5,0,0,16.26,0.03,25,0,0,0
95485,86855039,5,0,0,16.26,0.03,25,0,0,0
95936,86962521,5,0,0,16.26,0.03,25,0,0,0
96437,87075601,5,0,0,16.25,0.03,25,0,0,0
96930,87189142,5,0,0,16.26,0.03,25,0,0,0
97383,87296500,5,0,0,16.26,0.03,25,0,0,0
97834,87403556,5,0,0,16.26,0.02,25,0,0,0
98292,87514891,5,0,0,16.26,0.02,25,0,0,0
98745,87618385,5,0,0,16.26,0.02,25,0,0,0
99683,87833773,5,0,0,16.26,0.03,25,0,0,0
100183,87952560,5,0,0,16.25,0.03,25,0,0,0
100640,88058028,5,0,0,16.26,0.03,25,0,0,0
101093,88167142,5,0,0,16.26,0.03,25,0,0,0
101550,88276524,5,0,0,16.25,0.03,25,0,0,0
102002,88386130,5,0,0,16.26,0.03,25,0,0,0
102498,88503124,5,0,0,16.26,0.03,25,0,0,0
102955,88610582,5,0,0,16.26,0.03,25,0,0,0
103412,88719518,5,0,0,16.26,0.02,25,0,0,0
103865,88825225,5,0,0,16.26,0.02,25,0,0,0
104819,89047244,5,0,0,16.25,0.02,25,0,0,0
105227,89146821,5,0,0,16.26,0.03,25,0,0,0
105725,89260112,5,0,0,16.26,0.02,25,0,0,0
106175,89367010,5,0,0,16.25,0.02,25,0,0,0
106631,89473553,5,0,0,16.26,0.03,25,0,0,0
107084,89580024,5,0,0,16.25,0.03,25,0,0,0
107581,89693992,5,0,0,16.25,0.02,25,0,0,0
108033,89799585,5,0,0,16.25,0.02,25,0,0,0
108487,89904941,5,0,0,16.25,0.02,25,0,0,0
108980,90015594,5,0,0,16.25,0.02,25,0,0,0
109426,90118887,5,0,0,16.25,0.02,25,0,0,0
110342,90337037,5,0,0,16.26,0.02,25,0,0,0
110794,90438864,5,0,0,16.26,0.02,25,0,0,0
111248,90544368,5,0,0,16.26,0.02,25,0,0,0
111744,90658366,5,0,0,16.26,0.01,25,0,0,0
112195,90763872,5,4,128,16.23,0.07000000000000001,25,0,0,0
112648,90867956,5,139,742,16.23,0.11,25,0,0,0
113142,90978978,5,759,1142,16.23,0.13,25,0,0,0
113644,91093044,5,1150,1242,16.24,0.11,25,0,0,0
114095,91196371,5,1244,1285,16.23,0.09999999,25,0,0,0
114596,91309596,5,1287,1314,16.25,0.09,25,0,0,0
115046,91415040,5,1314,1314,16.24,0.09,25,0,0,0
115503,91524601,5,1314,1314,16.24,0.09,25,0,0,0
115954,91628932,5,1314,1314,16.23,0.09999999,25,0,0,0
116706,91845918,5,1314,1314,16.24,0.09,25,0,0,0
117648,92057484,5,1314,1314,16.24,0.09,25,0,0,0
118099,92164024,5,1314,1314,16.24,0.09999999,25,0,0,0
118597,92279130,5,1314,1314,16.23,0.09999999,25,0,0,0
119050,92386471,5,1314,1314,16.23,0.09999999,25,0,0,0
119506,92488913,5,1314,1314,16.23,0.09999999,25,0,0,0
119960,92597810,5,1314,1314,16.23,0.09999999,25,0,0,0
120459,92715963,5,1314,1314,16.24,0.09999999,25,0,0,0
120915,92820311,5,1314,1314,16.24,0.09999999,25,0,0,0
121362,92926976,5,1314,1314,16.24,0.09999999,25,0,0,0
121815,93029220,5,1314,1314,16.23,0.09,25,0,0,0
122318,93147508,5,1314,1314,16.24,0.09999999,25,0,0,0
122739,93249859,5,1314,1314,16.23,0.09,25,0,0,0
123190,93356378,5,1314,1314,16.23,0.09,25,0,0,0
123687,93469453,5,1315,1328,16.23,0.09,25,0,0,0
124137,93572517,5,1326,1314,16.23,0.09,25,0,0,0
124589,93674480,5,1314,1314,16.23,0.09,25,0,0,0
125083,93787934,5,1314,1314,16.24,0.09999999,25,0,0,0
125536,93891488,5,1314,1314,16.23,0.09,25,0,0,0
125988,93998130,5,1314,1314,16.23,0.09,25,0,0,0
126484,94114786,5,1314,1314,16.23,0.09,25,0,0,0
126942,94219597,5,1314,1314,16.23,0.09,25,0,0,0
127847,94429195,5,1314,1314,16.24,0.09,25,0,0,0
128796,94648542,5,1314,1314,16.24,0.09,25,0,0,0
129245,94750515,5,1315,1371,16.22,0.15,25,0,0,0
129700,94854229,5,1375,1671,16.19,0.44,25,0,0,0
130655,95077608,5,1706,2514,16.19,0.43,25,0,0,0
131068,95176796,5,2514,2557,16.15,0.46,25,0,0,0
131566,95288929,5,2555,2514,16.13,0.51,25,0,0,0
132028,95398132,5,2514,2514,16.1,0.43,25,0,0,0
132525,95515781,5,2538,2814,16.14,0.97,25,0,0,0
132981,95624773,5,2867,3442,15.81,1.51,25,0,0,0
133432,95735552,5,3499,4085,15.44,3.35,25,0,0,0
133885,95839764,5,4112,4814,15.75,3.05,25,1,0,0
134339,95952598,5,4856,5271,15.72,3.41,25,1,0,0
134796,96057958,5,5301,5728,15.55,3.75,25,1,0,0
135248,96167925,5,5763,6100,15.74,3.42,25,1,0,0
135701,96273370,5,6072,5714,15.76,2.91,25,1,0,0
136150,96381882,5,5717,5771,15.72,2.85,25,1,0,0
137055,96597134,5,5772,6014,15.75,3.43,25,1,0,0
137549,96718026,5,6015,6028,15.72,3.2,25,1,0,0
138001,96824918,5,6026,6014,15.67,3.46,25,1,0,0
138482,96935813,5,6010,5957,15.73,3.17,25,2,0,0
138936,97040513,5,5961,6057,15.74,3.69,25,2,0,0
139887,97266122,5,6075,6471,15.6,4.12,25,2,0,0
140338,97373909,5,6456,6300,15.69,3.5,25,2,0,0
140790,97478468,5,6300,6300,15.62,3.52,25,2,0,0
141245,97589137,5,6280,6085,15.68,3.37,25,2,0,0
141703,97695581,5,6086,6128,15.7,3.17,25,2,0,0
142152,97806408,5,6109,5842,15.74,3.25,26,2,0,0
143098,98030602,5,5843,5871,15.68,3.05,26,3,0,0
143551,98141529,5,5880,5971,15.63,3.2,26,3,0,0
144003,98245042,5,5968,5928,15.71,3.03,26,3,0,0
144454,98354035,5,5909,5671,15.57,3.17,26,3,0,0
144955,98468049,5,5683,5885,15.67,2.97,26,3,0,0
145408,98576141,5,5871,5700,15.74,2.8,26,3,0,0
145864,98685939,5,5703,5742,15.57,3.1,26,3,0,0
146280,98790997,5,5772,6071,15.54,4.19,26,3,0,0
146737,98898214,5,6080,6314,15.51,4.22,26,3,0,0
147185,99003939,5,6322,6500,15.5,4.44,26,4,0,0
147683,99125964,5,6504,6542,15.48,4.56,26,4,0,0
148137,99230529,5,6542,6542,15.41,4.27,26,4,0,0
148543,99330483,5,6542,6585,15.47,4.59,26,4,0,0
149041,99448368,5,6586,6600,15.5,4.31,26,4,0,0
149945,99663975,5,6600,6628,15.44,4.62,26,4,0,0
150399,99777353,5,6630,6657,15.45,4.32,26,4,0,0
150852,99880940,5,6649,6514,15.54,4.18,26,5,0,0
151305,99990002,5,6507,6414,15.51,4.27,26,5,0,0
151801,100105902,5,6416,6442,15.56,4.38,26,5,0,0
152030,100200909,5,6441,6400,15.51,3.98,26,5,0,0
152524,100320119,5,6409,6585,15.58,4.15,26,5,0,0
152980,100431140,5,6574,6471,15.56,3.79,26,5,0,0
153425,100546047,5,6493,6700,15.59,4.33,26,5,0,0
153831,100641886,5,6694,6328,15.62,3.72,26,6,0,0
154282,100755970,5,6329,6428,15.55,3.92,26,6,0,0
154765,100872260,5,6423,6385,15.61,3.79,26,6,0,0
155215,100981558,5,6380,6328,15.61,4.01,26,6,0,0
155620,101080807,5,6320,6128,15.73,3.13,26,6,0,0
156110,101205926,5,6109,5971,15.72,2.93,26,6,0,0
156956,101413138,5,5966,5757,15.51,3.03,26,6,0,0
157815,101630267,5,5757,5914,15.65,3.37,26,6,0,0
158263,101743822,5,5926,6157,15.55,3.81,26,7,0,0
158752,101855009,5,6163,6228,15.61,3.54,26,7,0,0
159161,101959466,5,6211,5900,15.64,3.02,26,7,0,0
160057,102181873,5,5905,6028,15.55,3.31,26,7,0,0
160504,102287661,5,6010,5828,15.58,3,26,7,0,0
160905,102388129,5,5832,6142,15.54,3.75,27,7,0,0
161359,102499461,5,6144,6271,15.54,3.75,26,7,0,0
161801,102606515,5,6270,6214,15.57,3.3,27,7,0,0
162287,102726446,5,6197,6071,15.57,3.4,27,8,0,0
162737,102835504,5,6061,5971,15.6,3.19,27,8,0,0
163142,102938986,5,5971,5985,15.56,3.41,27,8,0,0
163634,103055902,5,5993,6085,15.63,3.7,26,8,0,0
164036,103155888,5,6093,6285,15.52,3.6,27,8,0,0
164964,103377046,5,6276,6100,15.55,3.45,26,8,0,0
165415,103484555,5,6093,6028,15.53,3.23,26,8,0,0
165857,103592272,5,6034,6185,15.56,3.37,27,8,0,0
166302,103695247,5,6183,6100,15.54,3.57,27,8,0,0
166748,103809791,5,6094,6042,15.63,3.45,27,9,0,0
167195,103917925,5,6042,6042,15.55,3.35,27,9,0,0
167641,104024835,5,6042,6042,15.54,3.2,27,9,0,0
168090,104134342,5,6038,5800,15.64,3.14,27,9,0,0
168585,104250907,5,5812,5928,15.48,3.56,27,9,0,0
169026,104357909,5,5949,6157,15.46,4.19,27,9,0,0
169437,104458468,5,6174,6528,15.31,4.73,27,9,0,0
169880,104569011,5,6534,6628,15.36,4.64,27,9,0,0
170285,104669906,5,6630,6714,15.27,5.3,27,10,0,0
170741,104786587,5,6720,6814,15.37,5.03,27,10,0,0
171193,104896275,5,6810,6757,15.35,4.98,27,10,0,0
171644,105005980,5,6762,6814,15.29,5.06,27,10,0,0
172088,105117376,5,6819,6871,15.36,4.76,27,10,0,0
172536,105222363,5,6864,6800,15.36,4.61,27,10,0,0
172983,105329105,5,6794,6714,15.33,4.52,27,10,0,0
173434,105437622,5,6716,6742,15.39,4.71,27,11,0,0
173876,105546129,5,6744,6785,15.38,4.48,27,11,0,0
174325,105654762,5,6757,6500,15.44,3.73,27,11,0,0
174764,105760901,5,6462,5971,15.57,3.07,27,11,0,0
175211,105868808,5,5972,6000,15.54,3.28,27,11,0,0
175622,105971526,5,6000,6042,15.55,3.55,27,11,0,0
176115,106088070,5,6042,6042,15.57,3.55,27,11,0,0
177011,106308450,5,6049,6200,15.51,3.42,27,11,0,0
177461,106420860,5,6194,6057,15.54,3.45,27,12,0,0
178311,106633852,5,6055,6028,15.6,3.23,27,12,0,0
178717,106739464,5,6010,5785,15.6,3.13,27,12,0,0
179164,106845907,5,5790,6100,15.53,3.71,27,12,0,0
179650,106963549,5,6098,6071,15.54,3.54,27,12,0,0
180055,107062999,5,6077,6214,15.54,3.79,27,12,0,0
180505,107174799,5,6214,6228,15.44,3.76,27,12,0,0
180995,107291850,5,6233,6285,15.35,4.5,27,12,0,0
181398,107392377,5,6306,6742,15.3,5.72,27,13,0,0
181850,107502273,5,6773,7157,15.3,6.49,27,13,0,0
182288,107608991,5,7174,7542,15.26,7.7,27,13,0,0
182736,107722598,5,7569,7842,15.31,7.6,27,13,0,0
183183,107835493,5,7838,7814,15.38,6.82,27,13,0,0
183633,107945025,5,7742,7328,15.44,5.35,27,14,0,0
184037,108039763,5,7297,6900,15.42,4.8,27,14,0,0
184481,108147038,5,6882,6657,15.36,4.17,27,14,0,0
185334,108358503,5,6630,5585,15.5,1.79,27,14,0,0
185780,108467458,5,5563,5100,15.54,1.55,27,14,0,0
186228,108581125,5,5052,4557,15.5,1.28,27,14,0,0
186632,108679926,5,4558,4671,15.42,2.13,27,14,0,0
187071,108788814,5,4677,4828,15.51,2.37,27,14,0,0
187565,108908490,5,4849,5071,15.48,2.4,27,14,0,0
187972,109011492,5,5114,5571,15.42,3.38,27,14,0,0
188412,109122941,5,5602,5871,15.4,3.49,27,14,0,0
188901,109233127,5,5894,6142,15.47,4.03,27,15,0,0
189301,109331535,5,6151,6542,15.41,5.06,27,15,0,0
189792,109452090,5,6560,6800,15.39,5.32,27,15,0,0
190682,109671877,5,6805,6928,15.39,4.7,27,15,0,0
191083,109776567,5,6921,6642,15.45,4.33,27,15,0,0
191540,109886018,5,6631,6514,15.44,4.02,27,16,0,0
192022,110004452,5,6505,6442,15.38,3.98,27,16,0,0
192429,110100734,5,6433,6257,15.45,3.67,27,16,0,0
192871,110215132,5,6241,6128,15.44,3.92,27,16,0,0
193769,110430532,5,6147,6528,15.45,4.39,27,16,0,0
194176,110537478,5,6537,6600,15.45,4.42,27,16,0,0
194583,110633998,5,6600,6628,15.42,4.26,27,16,0,0
195025,110748139,5,6629,6657,15.4,4.62,27,16,0,0
195522,110867666,5,6646,6542,15.44,4.36,27,17,0,0
195925,110970758,5,6548,6600,15.42,4.22,27,17,0,0
196378,111079481,5,6592,6428,15.45,3.93,27,17,0,0
196830,111191734,5,6423,6371,15.42,3.77,28,17,0,0
197277,111303230,5,6365,6314,15.45,3.73,27,17,0,0
197715,111408266,5,6314,6314,15.42,3.88,27,17,0,0
198127,111514500,5,6314,6314,15.46,3.85,28,17,0,0
198572,111622313,5,6308,6171,15.47,3.81,27,17,0,0
199011,111735135,5,6162,6057,15.48,3.41,27,18,0,0
199463,111845272,5,6054,6028,15.46,3.47,27,18,0,0
199910,111955299,5,6033,6142,15.47,3.44,27,18,0,0
200322,112057580,5,6136,6042,15.44,3.33,27,18,0,0
200805,112173885,5,6058,6314,15.41,4,28,18,0,0
201253,112282809,5,6306,6214,15.41,3.68,27,18,0,0
201700,112393522,5,6221,6314,15.38,3.9,28,18,0,0
202145,112501442,5,6310,6271,15.42,3.68,28,18,0,0
202592,112611048,5,6266,6228,15.37,3.45,28,18,0,0
203038,112723451,5,6235,6300,15.42,4.08,28,19,0,0
203448,112825000,5,6301,6328,15.47,3.24,28,19,0,0
203898,112938113,5,6322,6257,15.47,4.01,27,19,0,0
204303,113037535,5,6259,6314,15.43,3.4,27,19,0,0
204751,113148938,5,6311,6257,15.47,3.44,28,19,0,0
205199,113256535,5,6253,6114,15.39,3.26,28,19,0,0
205650,113370373,5,6105,5942,15.47,3.04,28,19,0,0
206097,113475818,5,5942,5985,15.43,3.3,28,19,0,0
206591,113596373,5,5985,5985,15.42,3.29,28,19,0,0
207445,113808026,5,5983,5928,15.45,3.45,28,20,0,0
207896,113925242,5,5928,5928,15.41,3.27,28,20,0,0
208307,114029848,5,5922,5871,15.51,3.08,28,20,0,0
208711,114133025,5,5865,5728,15.47,2.88,28,20,0,0
209151,114235506,5,5728,5728,15.51,2.91,28,20,0,0
209608,114351244,5,5730,5771,15.52,2.89,28,20,0,0
210059,114463242,5,5789,5971,15.43,3.47,28,20,0,0
210503,114569953,5,5965,5885,15.45,3.33,28,20,0,0
210954,114680253,5,5889,5957,15.47,2.92,28,20,0,0
211360,114785568,5,5954,5914,15.48,3.14,28,21,0,0
211809,114895881,5,5894,5642,15.48,2.38,28,21,0,0
212220,115001926,5,5651,5785,15.55,3.02,28,21,0,0
213122,115229953,5,5779,5671,15.52,2.67,28,21,0,0
213528,115328790,5,5669,5585,15.43,2.76,28,21,0,0
214018,115444838,5,5590,5728,15.41,3.23,28,21,0,0
214948,115666845,5,5734,5871,15.46,3.22,28,21,0,0
215400,115778287,5,5873,5900,15.43,3.21,28,21,0,0
215802,115875831,5,5903,6071,15.47,3.15,28,21,0,0
216292,115995136,5,6059,5914,15.51,3.12,28,21,0,0
216693,116094226,5,5914,5942,15.42,3.37,28,22,0,0
217136,116201869,5,5942,5942,15.44,3.5,28,22,0,0
217630,116322323,5,5953,6071,15.51,3.34,28,22,0,0
218029,116418774,5,6071,6071,15.5,3.4,28,22,0,0
218480,116530923,5,6069,5971,15.45,3.04,28,22,0,0
218885,116632780,5,5967,5900,15.5,3.33,28,22,0,0
219291,116736524,5,5902,6057,15.45,3.11,28,22,0,0
219744,116846652,5,6058,6185,15.43,3.4,28,22,0,0
220126,116955931,5,6171,5900,15.46,3.52,28,22,0,0
220581,117066560,5,5907,6042,15.42,3.39,28,22,0,0
221024,117177024,5,6034,5928,15.5,3.19,28,23,0,0
221480,117287137,5,5931,5971,15.39,3.47,28,23,0,0
221883,117389760,5,5978,6114,15.45,3.99,28,23,0,0
222332,117499823,5,6116,6157,15.32,3.32,28,23,0,0
222773,117607822,5,6146,6000,15.47,3.26,28,23,0,0
223225,117715505,5,6019,6257,15.34,4.09,28,23,0,0
223674,117826451,5,6251,6185,15.42,3.74,28,23,0,0
224128,117936471,5,6205,6414,15.42,3.61,28,23,0,0
224527,118036469,5,6405,6214,15.38,3.82,28,23,0,0
224974,118148726,5,6216,6257,15.47,3.32,28,23,0,0
225863,118362007,5,6255,6200,15.46,4.01,28,24,0,0
226315,118472304,5,6198,6171,15.45,3.57,28,24,0,0
226763,118584815,5,6168,6142,15.44,3.44,28,24,0,0
227213,118703042,5,6116,5971,15.4,3.24,28,24,0,0
227610,118795127,5,5974,6042,15.42,3.32,28,24,0,0
228059,118904567,5,6037,5928,15.48,3.02,28,24,0,0
228514,119021815,5,5921,5857,15.47,2.64,28,24,0,0
228916,119123915,5,5845,5728,15.44,2.87,28,24,0,0
229812,119340473,5,5729,5771,15.39,2.93,28,25,0,0
230260,119449003,5,5765,5685,15.45,2.9,28,25,0,0
230706,119560972,5,5688,5842,15.51,3.33,28,25,0,0
231559,119772234,5,5843,5957,15.43,3.08,28,25,0,0
232006,119879036,5,5956,5942,15.42,3.31,28,25,0,0
232453,119991529,5,5950,6157,15.44,3.38,28,25,0,0
232906,120108964,5,6155,6057,15.45,3.54,28,25,0,0
233354,120217371,5,6058,6071,15.38,3.48,28,25,0,0
233839,120330909,5,6071,6071,15.45,3.38,28,25,0,0
234244,120427641,5,6075,6157,15.48,3.37,28,26,0,0
234693,120542212,5,6146,6042,15.41,3.56,28,26,0,0
235098,120639861,5,6041,6014,15.42,3.42,28,26,0,0
235548,120753761,5,6020,6085,15.48,3.06,28,26,0,0
235953,120853133,5,6085,6100,15.52,3.11,28,26,0,0
236441,120973454,5,6090,6000,15.45,3.36,28,26,0,0
236890,121080913,5,5997,5971,15.48,3.31,28,26,0,0
237336,121188019,5,5975,6028,15.42,3.27,28,26,0,0
237787,121303339,5,6020,5957,15.45,3.01,28,26,0,0
238192,121401146,5,5953,5885,15.5,3.09,28,26,0,0
238644,121512921,5,5893,6057,15.48,3.44,28,27,0,0
239094,121634342,5,6055,6042,15.45,3.5,28,27,0,0
239494,121733554,5,6049,6100,15.43,3.53,28,27,0,0
239949,121839888,5,6087,5900,15.48,3.17,28,27,0,0
240391,121952905,5,5919,6114,15.47,3.08,28,27,0,0
240843,122061019,5,6094,5871,15.5,3.17,28,27,0,0
241289,122176966,5,5884,6071,15.44,3.53,28,27,0,0
241739,122283919,5,6049,5900,15.51,3.33,28,27,0,0
242185,122394569,5,5912,6042,15.51,3.32,28,27,0,0
242592,122488747,5,6042,6042,15.46,3.16,28,27,0,0
243030,122598529,5,6036,5800,15.5,3.12,28,28,0,0
243528,122726032,5,5813,5971,15.43,3.44,28,28,0,0
243964,122826440,5,5980,6100,15.52,3.22,28,28,0,0
244416,122942861,5,6084,5942,15.47,3.38,28,28,0,0
244821,123040941,5,5955,6071,15.51,3.56,28,28,0,0
245263,123146872,5,6060,5928,15.54,3.45,28,28,0,0
245718,123256994,5,5930,5957,15.56,2.99,28,28,0,0
246173,123370520,5,5936,5514,15.54,2.36,28,28,0,0
246663,123488975,5,5504,5414,15.47,2.51,28,28,0,0
247067,123592586,5,5409,5357,15.49,2.44,28,28,0,0
247476,123693983,5,5360,5571,15.42,3.24,28,28,0,0
247962,123810944,5,5598,5885,15.5,4.01,28,29,0,0
248367,123908447,5,5890,6257,15.45,3.84,28,29,0,0
248813,124019945,5,6258,6285,15.48,3.81,28,29,0,0
249262,124134450,5,6280,6214,15.45,3.99,28,29,0,0
250151,124350237,5,6226,6757,15.31,5.25,28,29,0,0
251007,124565217,5,6757,6800,15.23,4.82,28,30,0,0
251456,124675570,5,6798,6728,15.23,5.07,28,30,0,0
252352,124895460,5,6727,6700,15.22,4.73,28,30,0,0
253202,125110140,5,6695,6500,15.27,4.16,28,30,0,0
253654,125220421,5,6501,6585,15.25,4.29,28,30,0,0
254627,125448936,5,6576,6400,15.32,4.03,28,31,0,0
255068,125558024,5,6404,6471,15.32,4.16,28,31,0,0
255472,125657356,5,6470,6457,15.32,3.96,28,31,0,0
255922,125770837,5,6443,6257,15.32,3.93,28,31,0,0
256370,125878817,5,6270,6457,15.31,4.31,28,31,0,0
256812,125987115,5,6448,6242,15.36,3.98,28,31,0,0
257260,126097988,5,6248,6371,15.36,3.57,28,31,0,0
257709,126207037,5,6357,6085,15.43,3.45,28,31,0,0
258207,126330233,5,6088,6114,15.42,3.42,28,32,0,0
258612,126429268,5,6122,6285,15.28,4.43,28,32,0,0
259059,126540926,5,6285,6285,15.38,3.94,28,32,0,0
259505,126646520,5,6286,6371,15.32,3.52,28,32,0,0
259953,126757275,5,6351,5900,15.33,3.21,28,32,0,0
260403,126866973,5,5901,5928,15.26,3.44,28,32,0,0
260812,126974114,5,5946,6200,15.38,3.58,28,32,0,0
261259,127078502,5,6197,6142,15.36,3.53,28,32,0,0
262595,127407329,5,6140,6057,15.38,3.54,28,33,0,0
263047,127523827,5,6043,5957,15.36,3.55,28,33,0,0
263495,127630363,5,5961,6000,15.37,3.67,28,33,0,0
263934,127733979,5,6003,6071,15.42,3.89,28,33,0,0
264383,127842800,5,6071,6071,15.36,3.6,28,33,0,0
264794,127949372,5,6072,6114,15.33,3.6,28,33,0,0
265241,128054806,5,6115,6142,15.31,3.84,28,33,0,0
265693,128167908,5,6148,6242,15.32,3.92,28,33,0,0
266142,128279361,5,6241,6228,15.36,3.59,28,34,0,0
266591,128391375,5,6207,6000,15.36,3.5,28,34,0,0
267034,128497031,5,6002,6085,15.39,3.62,28,34,0,0
267512,128615239,5,6086,6100,15.34,3.76,28,34,0,0
267967,128729602,5,6100,6100,15.39,3.9,28,34,0,0
268374,128829591,5,6096,6042,15.41,3.37,28,34,0,0
268820,128940754,5,6038,5985,15.39,3.65,28,34,0,0
270153,129275582,5,5985,6157,15.32,3.94,28,35,0,0
270639,129394536,5,6160,6214,15.38,4.06,28,35,0,0
271484,129600449,5,6215,6285,15.29,4.26,28,35,0,0
272380,129824845,5,6295,6485,15.3,4.4,28,35,0,0
272787,129930517,5,6483,6471,15.32,4.12,28,35,0,0
273274,130044725,5,6478,6557,15.32,4.19,28,35,0,0
273682,130146972,5,6541,6342,15.32,4.31,28,36,0,0
274127,130256981,5,6342,6342,15.3,4.21,28,36,0,0
274568,130358400,5,6345,6514,15.26,4.39,28,36,0,0
275019,130472067,5,6515,6542,15.27,4.19,28,36,0,0
275425,130577304,5,6532,6414,15.32,4.01,28,36,0,0
275878,130683890,5,6411,6371,15.36,3.71,28,36,0,0
276770,130906547,5,6371,6385,15.23,4.41,28,36,0,0
277212,131015588,5,6386,6400,15.19,4.09,28,37,0,0
277627,131121446,5,6413,6542,15.22,4.33,28,37,0,0
278032,131223028,5,6543,6642,15.2,4.75,28,37,0,0
278955,131437636,5,6639,6442,15.22,4.12,29,37,0,0
279401,131553905,5,6443,6457,15.29,4.13,28,37,0,0
279807,131651896,5,6455,6385,15.3,4.08,28,37,0,0
280291,131769536,5,6367,6185,15.33,4.09,29,37,0,0
280738,131876850,5,6191,6271,15.29,3.73,28,38,0,0
281144,131982105,5,6271,6285,15.28,3.77,28,38,0,0
281590,132089468,5,6284,6271,15.26,4.04,28,38,0,0
282042,132204151,5,6271,6271,15.32,3.87,28,38,0,0
282899,132421036,5,6269,6228,15.3,3.88,28,38,0,0
283343,132534136,5,6242,6385,15.26,4.08,29,38,0,0
283749,132631832,5,6384,6371,15.3,4.18,28,38,0,0
284148,132733955,5,6372,6428,15.3,3.97,28,39,0,0
284641,132851547,5,6424,6385,15.33,3.97,28,39,0,0
285083,132959854,5,6372,6171,15.32,3.73,28,39,0,0
285532,133070548,5,6177,6242,15.37,3.88,28,39,0,0
285935,133171071,5,6244,6314,15.37,3.92,28,39,0,0
286423,133288539,5,6317,6357,15.36,3.71,28,39,0,0
286829,133390888,5,6352,6242,15.28,3.78,28,39,0,0
287280,133502891,5,6239,6171,15.25,3.96,28,39,0,0
287723,133611335,5,6173,6200,15.25,3.89,28,39,0,0
288606,133828716,5,6200,6228,15.28,3.92,28,40,0,0
289056,133940988,5,6241,6414,15.3,4.13,28,40,0,0
289515,134051784,5,6412,6400,15.29,3.9,28,40,0,0
289961,134162592,5,6384,6171,15.27,3.78,29,40,0,0
290360,134259578,5,6168,6028,15.27,3.6,28,40,0,0
290810,134370605,5,6030,6157,15.27,3.57,28,40,0,0
291258,134480242,5,6152,6100,15.31,3.65,29,40,0,0
291699,134589149,5,6090,5971,15.36,3.19,29,40,0,0
292146,134694466,5,5961,5842,15.39,2.48,28,41,0,0
292594,134808987,5,5798,5371,15.36,2.21,29,41,0,0
293035,134917943,5,5385,5571,15.3,2.73,28,41,0,0
293482,135026837,5,5579,5671,15.41,2.9,28,41,0,0
293888,135126905,5,5674,5957,15.42,3.46,28,41,0,0
294782,135348822,5,5963,6142,15.29,3.79,29,41,0,0
295231,135458762,5,6147,6200,15.33,3.56,29,41,0,0
295676,135569041,5,6188,6014,15.35,3.54,28,41,0,0
296126,135679586,5,6026,6142,15.37,3.72,28,41,0,0
296567,135786890,5,6156,6357,15.25,4.28,29,42,0,0
297015,135895596,5,6378,6657,15.13,5.42,29,42,0,0
297458,136007983,5,6672,6900,15.08,5.21,29,42,0,0
297867,136109844,5,6897,6757,15.24,4.35,29,42,0,0
298353,136225390,5,6736,6457,15.3,3.88,28,42,0,0
298797,136337011,5,6425,6114,15.33,3.44,29,42,0,0
299203,136436918,5,6115,6157,15.3,4.01,29,42,0,0
299653,136549953,5,6173,6414,15.16,4.46,29,43,0,0
300103,136657975,5,6415,6514,15.23,3.92,28,43,0,0
300541,136763262,5,6515,6542,15.21,4.73,29,43,0,0
300987,136871863,5,6547,6671,15.14,5.01,29,43,0,0
301438,136986129,5,6679,6800,15.08,4.95,29,43,0,0
301884,137091473,5,6802,6857,15.12,5.57,29,43,0,0
302334,137207675,5,6869,7057,15.11,5.15,29,43,0,0
302743,137306393,5,7050,6757,15.18,4.25,29,43,0,0
303181,137411495,5,6750,6614,15.17,4.92,29,44,0,0
303627,137522977,5,6617,6657,15.17,4.46,29,44,0,0
304078,137633367,5,6645,6542,15.23,3.91,29,44,0,0
304522,137744797,5,6516,6185,15.29,3.43,29,44,0,0
304973,137855040,5,6187,6214,15.31,3.61,29,44,0,0
305375,137960277,5,6218,6271,15.31,3.82,29,44,0,0
305825,138067971,5,6276,6400,15.21,4.39,29,44,0,0
306754,138294262,5,6404,6485,15.2,4.3,29,45,0,0
307120,138385932,5,6487,6600,15.26,4.26,29,45,0,0
307610,138504394,5,6583,6428,15.18,4.46,29,45,0,0
308051,138617843,5,6442,6557,15.15,4.76,29,45,0,0
308457,138715843,5,6557,6642,15.2,4.69,29,45,0,0
308906,138828837,5,6627,6500,15.15,4.33,29,45,0,0
309308,138927629,5,6497,6385,15.25,4.21,29,45,0,0
309788,139044752,5,6390,6442,15.2,3.93,29,46,0,0
310204,139152445,5,6429,6328,15.2,4.02,29,46,0,0
310655,139258969,5,6328,6328,15.29,3.83,29,46,0,0
311094,139364534,5,6323,6242,15.32,3.53,29,46,0,0
311548,139475565,5,6238,5985,15.31,3.3,29,46,0,0
311952,139580895,5,5984,5957,15.29,3.4,29,46,0,0
312443,139704919,5,5959,5985,15.24,3.61,29,46,0,0
312847,139806334,5,6020,6285,15.2,4.03,29,46,0,0
313294,139912288,5,6286,6300,15.22,3.74,29,46,0,0
313699,140015232,5,6301,6328,15.25,3.66,29,47,0,0
314142,140121558,5,6324,6171,15.31,3.06,29,47,0,0
314590,140232959,5,6165,6071,15.32,3.36,29,47,0,0
315037,140348727,5,6075,6114,15.35,3.48,29,47,0,0
315489,140457640,5,6111,6085,15.3,3.61,29,47,0,0
315935,140569021,5,6090,6142,15.22,4.14,29,47,0,0
316787,140783141,5,6144,6200,15.34,3.45,29,47,0,0
317233,140891258,5,6198,6171,15.32,3.65,29,47,0,0
317633,140991233,5,6172,6214,15.22,3.74,29,48,0,0
318129,141115245,5,6195,6014,15.29,3.6,29,48,0,0
318970,141324533,5,6017,6142,15.29,3.26,29,48,0,0
319421,141431386,5,6149,6228,15.29,3.49,29,48,0,0
319876,141546928,5,6213,6042,15.27,3.56,29,48,0,0
320276,141644526,5,6044,6114,15.22,3.51,29,48,0,0
320723,141755948,5,6115,6128,15.31,3.64,29,48,0,0
321172,141864251,5,6130,6157,15.29,3.36,29,48,0,0
321569,141959886,5,6159,6257,15.22,3.65,29,49,0,0
322025,142075537,5,6242,5942,15.26,3.12,29,49,0,0
323349,142401525,5,5943,6014,15.34,3.14,29,49,0,0
323800,142513150,5,6012,5914,15.31,3.48,29,49,0,0
324246,142620478,5,5914,5957,15.3,3.28,29,49,0,0
324691,142732064,5,5957,5971,15.28,3.33,29,49,0,0
325173,142843114,5,5974,6057,15.3,3.83,29,49,0,0
326026,143055539,5,6056,6000,15.31,3.41,29,50,0,0
326466,143163979,5,6000,6028,15.29,3.65,29,50,0,0
326955,143280899,5,6022,5871,15.37,2.97,29,50,0,0
327391,143386990,5,5869,5814,15.35,3.05,29,50,0,0
327844,143499213,5,5820,5957,15.25,3.32,29,50,0,0
328296,143612983,5,5951,5871,15.28,3.29,29,50,0,0
328742,143725362,5,5868,5728,15.32,2.73,29,50,0,0
329197,143835861,5,5707,5514,15.32,2.67,29,50,0,0
329600,143934937,5,5527,5785,15.26,3.39,29,50,0,0
330054,144052533,5,5787,5857,15.3,3.11,29,50,0,0
330495,144161041,5,5854,5828,15.26,3.32,29,50,0,0
331381,144376799,5,5831,5914,15.3,3.18,29,51,0,0
331829,144484594,5,5912,5814,15.28,3.15,29,51,0,0
332276,144595252,5,5827,6000,15.28,3.55,29,51,0,0
332723,144703517,5,6003,6057,15.23,3.36,29,51,0,0
333164,144810031,5,6056,6014,15.23,3.66,29,51,0,0
333612,144919033,5,6016,6214,15.26,3.55,29,51,0,0
334092,145032865,5,6204,6071,15.22,3.46,29,51,0,0
334539,145145020,5,6080,6185,15.27,3.39,29,51,0,0
334983,145252375,5,6172,6014,15.26,3.24,29,51,0,0
335391,145359000,5,6008,5942,15.26,3.24,29,52,0,0
335837,145464802,5,5940,5857,15.33,3.09,29,52,0,0
336325,145583315,5,5860,5914,15.37,3.22,29,52,0,0
336773,145691908,5,5908,5857,15.31,2.76,29,52,0,0
337211,145796529,5,5851,5728,15.36,2.8,29,52,0,0
337701,145915820,5,5730,5757,15.34,2.67,29,52,0,0
338108,146018910,5,5758,5771,15.36,2.92,29,52,0,0
338962,146229782,5,5770,5728,15.36,2.49,29,52,0,0
339403,146338355,5,5725,5671,15.38,2.68,29,52,0,0
339848,146445990,5,5679,5800,15.33,3.05,29,52,0,0
340298,146557315,5,5807,5885,15.35,2.87,29,53,0,0
340744,146664372,5,5868,5642,15.31,2.66,29,53,0,0
341146,146768849,5,5642,5657,15.36,2.71,29,53,0,0
341632,146884552,5,5660,5700,15.34,2.89,29,53,0,0
342037,146986149,5,5698,5600,15.29,2.68,29,53,0,0
342485,147094811,5,5601,5628,15.27,2.48,28,53,0,0
342932,147206588,5,5625,5571,15.27,2.74,29,53,0,0
343377,147312912,5,5572,5671,15.3,3.12,29,53,0,0
343821,147423033,5,5673,5742,15.26,3.27,29,53,0,0
344300,147542846,5,5766,5914,15.36,3.46,29,53,0,0
344710,147643323,5,5913,5900,15.25,3.51,29,53,0,0
345153,147754792,5,5913,6057,15.33,3.63,28,54,0,0
345605,147861844,5,6057,6057,15.28,3.47,29,54,0,0
346053,147979483,5,6068,6228,15.33,3.49,29,54,0,0
346509,148091831,5,6214,6114,15.29,3.35,29,54,0,0
346953,148199981,5,6120,6185,15.27,3.3,29,54,0,0
347356,148298785,5,6187,6328,15.27,4.31,29,54,0,0
347795,148408752,5,6337,6485,15.26,4.77,29,54,0,0
348248,148516293,5,6490,6600,15.26,4.54,29,54,0,0
348696,148630003,5,6590,6485,15.22,4.08,28,55,0,0
349172,148742002,5,6483,6457,15.22,3.47,29,55,0,0
349623,148853482,5,6415,6114,15.21,3.41,29,55,0,0
350022,148954573,5,6110,6028,15.29,3.21,28,55,0,0
350470,149062526,5,6026,6014,15.34,3.01,29,55,0,0
350919,149170508,5,6015,6042,15.3,3.15,29,55,0,0
351361,149280572,5,6043,6071,15.34,3.43,29,55,0,0
352258,149501545,5,6069,5971,15.32,3.3,29,55,0,0
352707,149617243,5,5976,6057,15.29,3.5,29,55,0,0
353559,149827318,5,6057,6114,15.31,3.35,28,56,0,0
353999,149933336,5,6114,6157,15.32,3.49,29,56,0,0
354460,150049018,5,6142,5942,15.26,3.37,29,56,0,0
354902,150155234,5,5950,6071,15.32,3.25,29,56,0,0
355350,150263886,5,6061,5928,15.29,3.44,29,56,0,0
355754,150367690,5,5927,5914,15.29,3.17,29,56,0,0
356202,150476810,5,5921,6014,15.26,3.39,29,56,0,0
356650,150589040,5,6020,6085,15.26,3.65,28,56,0,0
357098,150697383,5,6084,6071,15.26,3.35,29,56,0,0
357591,150817120,5,6055,5871,15.29,3.26,29,56,0,0
358026,150919840,5,5871,5871,15.3,3.23,29,57,0,0
358480,151030824,5,5887,6057,15.27,3.65,28,57,0,0
358875,151128925,5,6065,6285,15.28,4.07,29,57,0,0
359363,151241348,5,6278,6214,15.28,4.04,29,57,0,0
359805,151348235,5,6207,6114,15.31,3,28,57,0,0
360262,151460362,5,6094,5828,15.36,2.73,29,57,0,0
360716,151576894,5,5830,5857,15.3,3.05,29,57,0,0
361164,151686776,5,5861,5914,15.35,3.45,28,57,0,0
362014,151898949,5,5912,5800,15.31,2.89,29,58,0,0
362459,152009910,5,5795,5700,15.25,2.93,29,58,0,0
362909,152120992,5,5703,5942,15.23,3.2,29,58,0,0
363348,152230881,5,5944,5985,15.27,3.51,29,58,0,0
363790,152338774,5,5995,6142,15.23,3.52,29,58,0,0
364237,152444990,5,6136,6028,15.35,3.36,29,58,0,0
364647,152550361,5,6025,5914,15.32,3.08,29,58,0,0
365138,152668883,5,5915,5942,15.39,2.92,29,58,0,0
365542,152774594,5,5929,5757,15.36,3.48,28,58,0,0
365986,152880717,5,5751,5628,15.27,3.45,29,58,0,0
366396,152988030,5,5627,5614,15.32,2.89,28,58,0,0
366886,153106174,5,5608,5528,15.36,2.73,29,59,0,0
367288,153208929,5,5535,5700,15.24,3.12,29,59,0,0
368220,153435139,5,5705,5828,15.26,3.07,28,59,0,0
368667,153547010,5,5849,6071,15.25,3.36,28,59,0,0
369071,153644893,5,6069,5985,15.29,3.25,28,59,0,0
369553,153761869,5,5990,6071,15.25,3.62,29,59,0,0
369998,153868362,5,6076,6157,15.18,3.64,28,59,0,0
370448,153985745,5,6142,6014,15.23,3.55,28,59,0,0
370896,154089956,5,6034,6242,15.23,3.82,28,59,0,0
371293,154190030,5,6246,6414,15.27,3.95,28,60,0,0
371741,154302826,5,6415,6442,15.24,4.35,28,60,0,0
373127,154646897,5,6440,6385,15.21,4.14,29,60,0,0
373561,154749241,5,6391,6542,15.2,3.77,29,60,0,0
374012,154862355,5,6530,6428,15.26,3.61,29,60,0,0
374460,154974008,5,6407,6257,15.23,3.76,28,60,0,0
374906,155079905,5,6255,6242,15.24,4.05,29,61,0,0
375312,155178871,5,6240,6128,15.22,3.23,29,61,0,0
375795,155294833,5,6160,6471,15.16,4.52,28,61,0,0
376204,155399761,5,6481,6685,15.13,4.82,29,61,0,0
376655,155508997,5,6682,6485,15.13,4.55,28,61,0,0
377107,155620602,5,6491,6571,15.14,4.12,29,61,0,0
377545,155730759,5,6567,6485,15.14,4.39,28,61,0,0
377999,155846144,5,6481,6457,15.14,4.15,29,62,0,0
378405,155946880,5,6449,6342,15.23,3.65,29,62,0,0
378850,156056823,5,6342,6342,15.2,3.66,29,62,0,0
379291,156165032,5,6336,6271,15.25,3.75,28,62,0,0
379741,156273329,5,6269,6257,15.15,3.72,29,62,0,0
380185,156382223,5,6262,6342,15.29,4.08,29,62,0,0
381482,156703885,5,6340,6000,15.36,3.62,28,62,0,0
381924,156811807,5,5996,5900,15.24,2.65,29,63,0,0
382406,156920130,5,5904,5957,15.32,3.74,28,63,0,0
382854,157032000,5,5958,5971,15.25,3.51,29,63,0,0
383252,157130041,5,5971,5985,15.31,2.96,29,63,0,0
383709,157246147,5,5980,5914,15.33,3.21,29,63,0,0
384115,157351131,5,5920,6042,15.21,3.5,29,63,0,0
384570,157462765,5,6033,5914,15.27,3.23,29,63,0,0
385014,157572981,5,5904,5814,15.33,3.32,29,63,0,0
385455,157674269,5,5816,5900,15.29,3.25,28,63,0,0
386352,157898897,5,5905,6057,15.23,3.23,29,63,0,0
386799,158009510,5,6066,6157,15.29,3.66,29,64,0,0
387239,158118326,5,6152,6071,15.3,3.14,29,64,0,0
387650,158221553,5,6072,6085,15.29,3.47,29,64,0,0
388096,158333979,5,6096,6171,15.27,3.46,29,64,0,0
388504,158433472,5,6171,6185,15.15,3.71,29,64,0,0
388945,158541499,5,6182,6128,15.13,3.63,28,64,0,0
389396,158653100,5,6125,6085,15.29,3.39,29,64,0,0
389842,158762271,5,6086,6142,15.23,3.37,29,64,0,0
390335,158878035,5,6134,6057,15.27,3.71,29,64,0,0
390782,158986514,5,6072,6300,15.26,3.81,29,65,0,0
391227,159093372,5,6304,6357,15.2,3.63,29,65,0,0
392114,159310938,5,6349,6028,15.19,3.87,29,65,0,0
392559,159419508,5,6061,6528,15.11,4.26,29,65,0,0
393007,159531583,5,6524,6471,15.17,4.19,29,65,0,0
393496,159647462,5,6460,6357,15.27,3.65,29,65,0,0
393936,159754767,5,6342,6200,15.17,3.57,29,65,0,0
394346,159856966,5,6201,6228,15.29,3.07,29,65,0,0
394794,159967500,5,6215,6028,15.36,3.03,29,66,0,0
395644,160179328,5,6027,6014,15.28,3.39,28,66,0,0
396138,160299589,5,6029,6200,15.27,4.16,29,66,0,0
396544,160399480,5,6183,5942,15.29,3.14,29,66,0,0
396992,160507580,5,5942,5971,15.35,2.92,29,66,0,0
397441,160623990,5,5944,5714,15.42,2.85,29,66,0,0
397882,160732596,5,5695,5457,15.32,2.48,29,66,0,0
398741,160950763,5,5447,5314,15.38,2.43,28,66,0,0
399145,161045784,5,5312,5242,15.45,2.09,29,66,0,0
399629,161167235,5,5253,5342,15.35,2.81,28,67,0,0
400086,161281154,5,5351,5400,15.4,2.42,29,67,0,0
400443,161373120,5,5400,5400,15.35,2.71,29,67,0,0
400938,161487852,5,5398,5271,15.42,2.86,29,67,0,0
401370,161591793,5,5273,5442,15.27,2.68,28,67,0,0
401860,161709782,5,5445,5500,15.41,2.87,29,67,0,0
402263,161813144,5,5491,5385,15.47,2.15,28,67,0,0
402746,161927228,5,5374,5257,15.45,2.46,28,67,0,0
403194,162035890,5,5262,5385,15.4,2.6,29,67,0,0
404041,162242799,5,5389,5700,15.35,3.04,28,67,0,0
404492,162357902,5,5703,5800,15.35,3.14,28,67,0,0
404940,162465112,5,5801,5842,15.21,3.42,29,68,0,0
405384,162575568,5,5858,6028,15.29,3.34,28,68,0,0
405789,162674250,5,6030,6114,15.26,3.46,28,68,0,0
406233,162783578,5,6111,5914,15.26,3.49,28,68,0,0
406684,162893012,5,5917,6128,15.32,3.35,28,68,0,0
408064,163235585,5,6121,5914,15.32,3.5,28,68,0,0
408912,163444974,5,5911,5857,15.38,3.06,28,68,0,0
409311,163547476,5,5853,5657,15.32,2.85,28,69,0,0
409794,163660510,5,5656,5642,15.36,3.44,28,69,0,0
410199,163766336,5,5651,6014,15.23,3.36,28,69,0,0
410651,163876699,5,6006,5914,15.25,3.65,28,69,0,0
411095,163986994,5,5920,6057,15.2,3.84,28,69,0,0
411545,164096749,5,6077,6357,15.09,4.31,28,69,0,0
411948,164202060,5,6358,6428,15.16,4.07,28,69,0,0
412442,164322300,5,6425,6400,15.13,4.12,28,69,0,0
412849,164425830,5,6394,6342,15.12,3.91,28,69,0,0
413295,164536920,5,6348,6442,15.19,3.63,28,70,0,0
413706,164638983,5,6433,6300,15.22,3.63,28,70,0,0
414105,164739583,5,6299,6285,15.2,3.99,28,70,0,0
414555,164848822,5,6277,6114,15.2,3.16,28,70,0,0
414997,164956859,5,6120,6257,15.14,4.32,28,70,0,0
415444,165065744,5,6256,6242,15.2,3.72,28,70,0,0
415855,165170754,5,6244,6385,15.15,4.04,28,70,0,0
416341,165287937,5,6391,6485,15.15,4.1,28,70,0,0
416786,165395729,5,6479,6371,15.11,4.27,28,70,0,0
417283,165520766,5,6389,6471,15.16,4.23,28,71,0,0
417683,165620977,5,6471,6471,15.22,4.03,29,71,0,0
418089,165724778,5,6470,6428,15.25,4.33,28,71,0,0
419028,165950808,5,6428,6442,15.19,4.36,28,71,0,0
419431,166052390,5,6444,6485,15.23,3.9,28,71,0,0
419882,166167913,5,6462,6171,15.29,3.62,28,71,0,0
420334,166276022,5,6169,6157,15.26,3.77,28,71,0,0
421231,166498460,5,6163,6342,15.29,3.88,28,72,0,0
421670,166606902,5,6328,6071,15.2,3.75,28,72,0,0
422121,166719255,5,6072,6085,15.17,3.39,28,72,0,0
422522,166817985,5,6083,6057,15.3,3.3,28,72,0,0
422971,166932022,5,6057,6071,15.26,3.27,28,72,0,0
423865,167153149,5,6069,5957,15.23,3.07,28,72,0,0
424347,167265844,5,5963,6057,15.25,3.46,28,72,0,0
424755,167369025,5,6062,6128,15.18,3.63,28,73,0,0
425165,167471464,5,6132,6228,15.17,3.79,28,73,0,0
425614,167587454,5,6233,6285,15.2,3.89,28,73,0,0
426502,167804230,5,6289,6414,15.27,3.69,28,73,0,0
426912,167902766,5,6415,6485,15.17,4.31,28,73,0,0
427397,168021391,5,6462,6228,15.17,3.73,28,73,0,0
428245,168233465,5,6227,6214,15.22,3.79,28,73,0,0
428653,168341864,5,6219,6271,15.2,3.9,28,74,0,0
429100,168447883,5,6273,6414,15.25,4.13,28,74,0,0
429548,168561552,5,6403,6300,15.2,3.85,28,74,0,0
429997,168669954,5,6292,6214,15.27,3.88,28,74,0,0
430437,168778502,5,6214,6214,15.2,4.08,28,74,0,0
430891,168889324,5,6214,6214,15.23,4,28,74,0,0
431338,169000846,5,6220,6285,15.25,3.61,28,74,0,0
431785,169108043,5,6272,6100,15.18,3.42,28,74,0,0
432230,169220246,5,6106,6200,15.23,3.95,28,75,0,0
432635,169324143,5,6204,6271,15.23,3.52,28,75,0,0
433080,169429906,5,6271,6285,15.13,3.72,28,75,0,0
433568,169553229,5,6298,6414,15.07,4.63,28,75,0,0
433976,169646238,5,6415,6485,15.08,4.5,28,75,0,0
434414,169761146,5,6475,6385,15.11,4.4,28,75,0,0
434869,169874987,5,6429,6728,15.06,4.84,28,75,0,0
435308,169976351,5,6722,6657,15.05,4.61,28,75,0,0
435760,170083042,5,6645,6528,15.07,4.58,28,76,0,0
436657,170305838,5,6545,6928,15.11,5.13,28,76,0,0
437503,170511243,5,6925,6571,15.05,4.71,28,76,0,0
437991,170633383,5,6572,6585,15.08,4.83,29,76,0,0
438359,170725342,5,6583,6514,15.17,4.34,28,76,0,0
439249,170950432,5,6509,6328,15.18,4.08,28,77,0,0
439732,171062252,5,6321,6257,15.16,3.86,28,77,0,0
440178,171171880,5,6256,6242,15.17,3.96,29,77,0,0
440625,171282338,5,6240,6228,15.17,3.89,28,77,0,0
441477,171494032,5,6226,6185,15.25,3.94,28,77,0,0
441926,171606972,5,6192,6400,15.14,3.77,28,77,0,0
442372,171715816,5,6367,6114,15.14,3.59,28,78,0,0
442853,171828941,5,6101,5914,15.27,2.96,28,78,0,0
443304,171939109,5,5909,5857,15.27,3.22,28,78,0,0
443706,172042575,5,5868,6014,15.21,3.7,29,78,0,0
444147,172151785,5,6018,6085,15.2,3.86,29,78,0,0
445040,172374025,5,6084,6057,15.15,3.36,29,78,0,0
445486,172482865,5,6059,6100,15.26,3.38,28,78,0,0
445889,172586803,5,6102,6128,15.22,3.49,28,78,0,0
446383,172703710,5,6138,6242,15.2,3.57,29,78,0,0
446781,172801649,5,6242,6242,15.1,4.09,29,79,0,0
447229,172910364,5,6241,6214,15.1,3.97,28,79,0,0
447680,173026457,5,6223,6357,15.17,3.93,29,79,0,0
448083,173130710,5,6356,6314,15.21,3.54,29,79,0,0
448569,173245115,5,6298,6128,15.16,3.63,29,79,0,0
449012,173353579,5,6129,6157,15.26,3.41,28,79,0,0
449464,173465948,5,6162,6214,15.25,3.94,28,79,0,0
449860,173564990,5,6212,6142,15.23,3.54,29,79,0,0
450354,173685578,5,6149,6228,15.23,3.7,28,79,0,0
450804,173795829,5,6229,6242,15.16,3.84,28,80,0,0
451208,173897112,5,6239,6085,15.2,3.61,29,80,0,0
451651,174008599,5,6087,6228,15.22,3.84,29,80,0,0
452105,174123242,5,6225,6200,15.19,3.33,28,80,0,0
452553,174231490,5,6219,6485,15.16,4.27,28,80,0,0
452957,174335984,5,6485,6528,15.18,4.04,29,80,0,0
453411,174447124,5,6525,6485,15.17,3.92,28,80,0,0
453861,174561573,5,6469,6300,15.16,3.64,28,80,0,0
454298,174664243,5,6297,6214,15.2,3.91,28,80,0,0
454752,174776990,5,6217,6285,15.29,3.75,28,81,0,0
455647,174998462,5,6281,6142,15.26,3.42,29,81,0,0
456056,175103320,5,6140,6042,15.2,3.31,29,81,0,0
456503,175217659,5,6052,6157,15.28,3.42,28,81,0,0
456951,175329140,5,6139,5957,15.19,3.74,28,81,0,0
457396,175435497,5,5962,6014,15.21,3.47,29,81,0,0
457831,175539586,5,6009,5928,15.24,2.96,28,81,0,0
458282,175651794,5,5922,5842,15.29,2.87,29,81,0,0
458695,175756728,5,5842,5842,15.24,2.77,29,82,0,0
459147,175865565,5,5840,5814,15.23,3.24,29,82,0,0
459557,175971038,5,5823,5957,15.2,3.29,29,82,0,0
460044,176084142,5,5953,5914,15.2,3.39,28,82,0,0
460485,176190572,5,5915,5942,15.21,3.42,28,82,0,0
460933,176298372,5,5937,5871,15.19,3.07,29,82,0,0
461376,176409270,5,5870,5857,15.23,3.36,28,82,0,0
462270,176630510,5,5860,6014,15.26,3.4,28,82,0,0
462752,176750217,5,6011,6000,15.23,3.76,28,82,0,0
463161,176847457,5,6000,6071,15.2,3.68,29,83,0,0
463612,176965380,5,6085,6214,15.16,3.71,28,83,0,0
464021,177061772,5,6215,6300,15.19,3.74,28,83,0,0
464464,177169488,5,6301,6328,15.19,3.69,28,83,0,0
464914,177284343,5,6329,6342,15.12,4.2,28,83,0,0
465325,177386391,5,6340,6300,15.17,4.01,28,83,0,0
465812,177503046,5,6304,6357,15.19,4.11,29,83,0,0
466211,177602584,5,6362,6471,15.19,4.11,29,83,0,0
466659,177708807,5,6466,6200,15.23,3.85,28,84,0,0
467103,177821011,5,6213,6357,15.17,3.72,28,84,0,0
467555,177937138,5,6341,6214,15.2,3.39,28,84,0,0
467963,178037248,5,6211,6142,15.29,3.57,28,84,0,0
468858,178256943,5,6140,6100,15.25,3.22,28,84,0,0
469259,178358673,5,6092,5942,15.32,3.3,28,84,0,0
469706,178470359,5,5919,5657,15.27,2.27,28,84,0,0
470144,178574847,5,5652,5542,15.25,2.87,28,84,0,0
470588,178680516,5,5551,5742,15.29,3.15,29,84,0,0
471486,178900243,5,5735,5400,15.27,2.71,28,85,0,0
472377,179120959,5,5403,5714,15.23,3.2,28,85,0,0
472858,179237835,5,5706,5628,15.34,2.35,28,85,0,0
473291,179339947,5,5629,5700,15.26,3.57,28,85,0,0
473745,179452039,5,5696,5657,15.31,2.87,29,85,0,0
474189,179564438,5,5644,5514,15.19,3.09,28,85,0,0
474593,179662995,5,5515,5557,15.21,2.95,29,85,0,0
475084,179782839,5,5559,5585,15.26,2.47,28,85,0,0
475487,179880824,5,5573,5314,15.29,2.36,29,85,0,0
475923,179985442,5,5314,5314,15.18,2.48,28,85,0,0
476378,180100518,5,5306,5242,15.25,2.12,28,85,0,0
476824,180210354,5,5243,5257,15.39,1.96,29,86,0,0
477680,180427244,5,5253,5142,15.25,2.25,28,86,0,0
478083,180529605,5,5143,5171,15.36,2.2,29,86,0,0
478530,180640744,5,5165,5042,15.28,2.05,29,86,0,0
478978,180753523,5,5036,4900,15.22,1.98,28,86,0,0
479424,180859476,5,4905,5185,15.27,2.56,28,86,0,0
480354,181083765,5,5217,5900,15.24,3.41,29,86,0,0
480759,181187692,5,5903,5971,15.23,3.62,29,86,0,0
481219,181300467,5,5973,6000,15.2,3.26,28,86,0,0
481627,181403140,5,6008,6085,15.24,3.48,29,86,0,0
482034,181501547,5,6085,6114,15.22,3.29,28,87,0,0
482475,181610551,5,6115,6214,15.25,3.26,28,87,0,0
482966,181732599,5,6200,6071,15.26,3.3,29,87,0,0
483370,181831771,5,6061,5942,15.2,3.47,28,87,0,0
483814,181939800,5,5945,6114,15.2,3.72,28,87,0,0
484706,182156868,5,6110,6000,15.17,3.85,29,87,0,0
485158,182266521,5,6013,6157,15.23,3.88,28,87,0,0
486007,182474994,5,6157,6228,15.23,3.63,28,87,0,0
486496,182592260,5,6223,6185,15.17,3.5,29,88,0,0
486948,182704993,5,6186,6200,15.15,3.6,29,88,0,0
487352,182807464,5,6202,6257,15.26,3.48,28,88,0,0
487833,182915791,5,6243,6000,15.3,3.14,28,88,0,0
488282,183030365,5,5983,5800,15.25,3.22,28,88,0,0
488727,183142739,5,5809,5914,15.29,3.17,28,88,0,0
489136,183244940,5,5911,5742,15.23,3.14,28,88,0,0
489579,183356251,5,5751,5885,15.25,3.29,28,88,0,0
490030,183465939,5,5884,5871,15.22,3.19,28,88,0,0
490469,183571890,5,5874,5942,15.19,3.41,28,88,0,0
490913,183678769,5,5941,5914,15.26,3.3,28,89,0,0
491365,183794366,5,5912,5900,15.25,3.34,28,89,0,0
491771,183893024,5,5900,5928,15.19,3.08,28,89,0,0
492700,184119243,5,5926,5900,15.17,3.25,29,89,0,0
493108,184223601,5,5897,5871,15.22,3.16,28,89,0,0
493552,184334848,5,5871,5885,15.19,3.31,28,89,0,0
493996,184439506,5,5889,5985,15.2,3.44,28,89,0,0
494445,184549979,5,5992,6100,15.26,3.54,28,89,0,0
494893,184656865,5,6101,6128,15.15,3.68,29,89,0,0
495342,184766927,5,6116,6000,15.18,3.47,28,90,0,0
496194,184978041,5,5999,5985,15.21,3.36,28,90,0,0
496686,185097919,5,5985,6000,15.25,3.75,28,90,0,0
497094,185202071,5,5999,5985,15.16,3.47,28,90,0,0
497545,185310118,5,5986,6057,15.14,3.99,29,90,0,0
498435,185529842,5,6054,6000,15.22,3.43,28,90,0,0
498882,185637976,5,5994,5942,15.27,3.44,28,90,0,0
499290,185744567,5,5944,6014,15.2,3.29,28,91,0,0
499773,185857142,5,6007,5914,15.18,3.22,29,91,0,0
500175,185959980,5,5913,5900,15.22,3.22,28,91,0,0
500663,186075859,5,5896,5857,15.22,3.2,28,91,0,0
501103,186179137,5,5857,5857,15.23,3.17,28,91,0,0
501557,186293908,5,5839,5714,15.2,3.41,28,91,0,0
501998,186405582,5,5748,5942,15.14,3.41,28,91,0,0
502845,186606247,5,5942,5957,15.19,3.48,29,91,0,0
503295,186719868,5,5958,6000,15.17,3.71,28,91,0,0
503743,186828856,5,6002,6042,15.17,3.47,29,92,0,0
504191,186943899,5,6053,6214,15.22,3.5,28,92,0,0
504639,187051863,5,6208,6142,15.14,3.55,28,92,0,0
505085,187158756,5,6138,6014,15.22,3.44,28,92,0,0
505533,187267268,5,6011,5842,15.21,3.28,28,92,0,0
506019,187389534,5,5864,6071,15.16,3.64,28,92,0,0
506468,187496541,5,6068,6042,15.22,3.7,28,92,0,0
506908,187602593,5,6039,6014,15.17,3.61,28,92,0,0
507312,187699802,5,6017,6100,15.18,3.78,28,92,0,0
507759,187813246,5,6091,6014,15.22,3.37,28,93,0,0
508204,187923123,5,5995,5814,15.25,3.13,28,93,0,0
508652,188032253,5,5828,5971,15.29,3.29,28,93,0,0
509538,188244544,5,5978,6128,15.3,3.35,28,93,0,0
509976,188345984,5,6129,6185,15.31,3.49,28,93,0,0
510422,188455137,5,6182,6057,15.15,3.49,28,93,0,0
510870,188567818,5,6061,6328,15.2,4.3,28,93,0,0
512205,188890781,5,6327,6300,15.24,3.65,28,94,0,0
512691,189008550,5,6307,6385,15.26,3.99,28,94,0,0
513138,189119851,5,6368,6228,15.19,4,28,94,0,0
513591,189231471,5,6220,6142,15.6,2.25,28,94,0,0
513988,189328479,5,6122,5685,15.34,3,28,94,0,0
514440,189439850,5,5681,5628,15.35,2.65,28,94,0,0
514844,189540040,5,5627,5571,15.52,2.4,28,94,0,0
515335,189657978,5,5555,5414,15.46,2.34,29,94,0,0
515779,189766474,5,5384,5085,15.57,1.5,28,94,0,0
516227,189871815,5,5073,4357,15.68,0.44,28,94,0,0
516672,189978947,5,4335,3157,15.66,0.16,28,94,0,0
517120,190086891,5,3149,2957,15.68,0.41,28,94,0,0
517564,190197522,5,2955,2942,15.67,0.45,28,94,0,0
517974,190300894,5,2940,2900,15.66,0.42,28,94,0,0
518422,190414295,5,2896,2842,15.67,0.39,28,94,0,0
518827,190515361,5,2841,2828,15.66,0.43,28,94,0,0
519720,190739040,5,2828,2857,15.66,0.4,28,95,0,0
520204,190851505,5,2858,2871,15.66,0.48,28,95,0,0
520610,190955447,5,2871,2871,15.67,0.45,28,95,0,0
521093,191067041,5,2871,2885,15.7,0.42,28,95,0,0
521508,191172561,5,2882,2857,15.68,0.45,28,95,0,0
521955,191277356,5,2855,2828,15.68,0.39,28,95,0,0
522396,191385224,5,2828,2828,15.69,0.46,28,95,0,0
522845,191494015,5,2828,2828,15.69,0.47,28,95,0,0
523252,191596992,5,2828,2828,15.71,0.46,28,95,0,0
523705,191705349,5,2800,2100,15.76,0.04,28,95,0,0
524153,191812834,5,2079,1585,15.75,0,28,95,0,0
524600,191919938,5,1574,1328,15.75,0.05,28,95,0,0
525087,192029951,5,1325,1285,15.74,0.07000000000000001,28,95,0,0
525535,192140962,5,1285,1285,15.75,0.08,28,95,0,0
525980,192245597,5,1285,1285,15.74,0.08,28,95,0,0
526834,192455356,5,1284,1271,15.75,0.08,28,95,0,0
527286,192568142,5,1271,1285,15.75,0.08,28,95,0,0
527739,192678929,5,1283,1271,15.75,0.08,28,95,0,0
528627,192894850,5,1271,1285,15.76,0.07000000000000001,28,95,0,0
529072,193002910,5,1284,1271,15.76,0.08,28,95,0,0
529566,193123568,5,1273,1285,15.76,0.08,28,95,0,0
529968,193218999,5,1283,1257,15.79,0.04,28,95,0,0
530401,193323280,5,1235,257,15.78,0,28,95,0,0
530888,193438772,5,234,0,15.78,0,28,95,0,0
531336,193542961,5,0,0,15.78,0.01,28,95,0,0
531833,193657341,5,0,0,15.78,0.01,28,95,0,0
532280,193763015,5,0,0,15.79,0.01,28,95,0,0
532732,193868555,5,0,0,15.79,0.01,28,95,0,0
533185,193979357,5,0,0,15.79,0.01,28,95,0,0
533685,194096557,5,0,0,15.79,0.01,28,95,0,0
534095,194197456,5,0,0,15.79,0.01,28,95,0,0
534549,194306109,5,0,0,15.8,0.01,28,95,0,0
534958,194405835,5,0,0,15.8,0.01,28,95,0,0
535406,194512275,5,0,0,15.8,0.01,28,95,0,0
535903,194626775,5,0,0,15.8,0.01,28,95,0,0
536805,194841231,5,0,0,15.8,0.01,28,95,0,0
537256,194948893,5,0,0,15.8,0.01,28,95,0,0
537752,195062969,5,0,0,15.8,0.01,27,95,0,0
538208,195176010,5,0,0,15.81,0.01,27,95,0,0
538659,195280792,5,0,0,15.8,0.01,27,95,0,0
539114,195389832,5,0,0,15.81,0.01,27,95,0,0
539565,195495223,5,0,0,15.8,0.01,27,95,0,0
540021,195605393,5,0,0,15.81,0.01,28,95,0,0
540443,195710129,5,0,0,15.82,0.01,27,95,0,0
540934,195825858,5,0,0,15.82,0.01,27,95,0,0
541385,195935487,5,0,0,15.82,0.01,28,95,0,0
541880,196048856,5,0,0,15.82,0.01,27,95,0,0
542290,196148971,5,0,0,15.82,0.01,27,95,0,0
542789,196263368,5,0,0,15.82,0.01,27,95,0,0
543236,196367594,5,0,0,15.82,0.01,27,95,0,0
543731,196482823,5,0,0,15.82,0.01,27,95,0,0
544181,196590234,5,0,0,15.83,0.01,27,95,0,0
544641,196700497,5,0,0,15.82,0.01,27,95,0,0
545095,196808522,5,0,0,15.83,0.01,27,95,0,0
545553,196917946,5,0,0,15.83,0.01,27,95,0,0
546174,197129723,5,0,0,15.83,0.01,27,95,0,0
546627,197235573,5,0,0,15.83,0.01,27,95,0,0
547073,197340842,5,0,0,15.83,0.01,27,95,0,0
547568,197453934,5,0,0,15.83,0.01,27,95,0,0
548016,197561467,5,0,0,15.83,0.02,27,95,0,0
548514,197675980,5,0,0,15.83,0.01,27,95,0,0
548967,197785336,5,0,0,15.83,0.02,27,95,0,0
549422,197893746,5,0,0,15.83,0.01,27,95,0,0
549877,198006762,5,0,0,15.83,0.01,27,95,0,0
550332,198110245,5,0,0,15.84,0.02,27,95,0,0
550777,198214351,5,0,0,15.83,0.01,27,95,0,0
551229,198321535,5,0,0,15.84,0.01,27,95,0,0
551728,198437223,5,0,0,15.84,0.01,27,95,0,0
552141,198540012,5,0,0,15.84,0.01,27,95,0,0
552638,198653975,5,0,0,15.84,0.01,27,95,0,0
553539,198863719,5,0,0,15.84,0.01,27,95,0,0
553988,198969226,5,0,0,15.84,0.01,27,95,0,0
554481,199084784,5,0,0,15.84,0.01,27,95,0,0
554930,199193829,5,0,0,15.85,0.02,27,95,0,0
555384,199299397,5,0,0,15.85,0.02,27,95,0,0
555836,199407968,5,0,0,15.85,0.01,27,95,0,0
556329,199524797,5,0,0,15.85,0.02,27,95,0,0
556781,199631797,5,0,0,15.85,0.02,27,95,0,0
557231,199738877,5,0,0,15.85,0.02,27,95,0,0
557727,199853598,5,0,0,15.85,0.02,27,95,0,0
558138,199954864,5,0,0,15.85,0.02,27,95,0,0
558589,200060882,5,0,0,15.85,0.01,27,95,0,0
