LineNo,TimeUS,C,Roll,Pitch,Yaw,VN,VE,VD,dPD,PN,PE,PD,GX,GY,GZ,OH
542,64330138,1,0.5,0.72,24.23,0.01616755,-0.005643359,0.03013138,0.04871145,-1.669571,0.2578826,0.726433,-0.03,0.04,0.21,96.55
1462,64639548,1,0.53,0.73,24.28,0.008145217,-0.003123214,-0.5351596,-0.4584143,-1.665697,0.2512497,0.679168,-0.03,0.04,0.19,96.55
1494,64659322,1,0.53,0.73,24.27,0.009089375,-0.003263579,-0.5338679,-0.4614788,-1.665623,0.2507879,0.6695386,-0.03,0.04,0.2,96.55
1535,64669319,1,0.53,0.74,24.27,0.008739316,-0.003531663,-0.5320928,-0.4623828,-1.665582,0.2505817,0.6646673,-0.03,0.04,0.2,96.55
1575,64679359,1,0.52,0.73,24.27,0.008291008000000001,-0.003446077,-0.5333664,-0.4666527,-1.665496,0.2505433,0.6593364,-0.03,0.04,0.2,96.55
1616,64689625,1,0.52,0.73,24.27,0.008101779,-0.003085126,-0.5342723,-0.4712933,-1.665466,0.2503507,0.6544594,-0.03,0.04,0.2,96.55
1659,64702347,1,0.52,0.74,24.27,0.007726246,-0.002818211,-0.5312171,-0.4720933,-1.665415,0.2501711,0.6483536,-0.03,0.04,0.2,96.55
1703,64718221,1,0.52,0.73,24.27,0.007954816,-0.002809028,-0.5296826,-0.4716616,-1.665396,0.2500555,0.6462274,-0.03,0.04,0.19,96.55
1745,64728136,1,0.52,0.74,24.27,0.008434189,-0.003826138,-0.5291313,-0.4548924,-1.665403,0.2499532,0.6464282,-0.03,0.04,0.2,96.55
1785,64738604,1,0.51,0.74,24.27,0.008629075999999999,-0.003206762,-0.5262294,-0.417625,-1.665395,0.2498631,0.6457967999999999,-0.03,0.04,0.2,96.55
1826,64748986,1,0.52,0.74,24.27,0.007492141,-0.002394806,-0.5253971,-0.3739133,-1.665312,0.2498343,0.6400967,-0.03,0.04,0.2,96.55
1874,64759584,1,0.52,0.74,24.27,0.007142676,-0.003285756,-0.5233949,-0.3363864,-1.665327,0.2497693,0.6398331,-0.03,0.04,0.2,96.55
1917,64769574,1,0.52,0.74,24.27,0.006527453,-0.003468994,-0.5216507,-0.2999341,-1.665341,0.2497085,0.6393615,-0.03,0.04,0.2,96.55
1958,64779569,1,0.52,0.74,24.27,0.00678937,-0.003289711,-0.5189678,-0.2673187,-1.665354,0.2496596,0.6386859,-0.03,0.04,0.2,96.55
1998,64789555,1,0.53,0.74,24.27,0.006342565,-0.003249181,-0.5162532,-0.2374049,-1.665363,0.2496238,0.6378164,-0.03,0.04,0.2,96.55
2039,64799629,1,0.53,0.74,24.27,0.006191015,-0.003632868,-0.5160263,-0.208117,-1.6653,0.2495882,0.6326718,-0.03,0.04,0.2,96.55
2079,64810022,1,0.53,0.74,24.28,0.00570337,-0.002857693,-0.5143555,-0.186766,-1.66531,0.2495582,0.6315837,-0.03,0.04,0.2,96.55
2126,64822925,1,0.53,0.74,24.28,0.004690295,-0.002941855,-0.5121471,-0.1700244,-1.665318,0.249533,0.6298178,-0.03,0.04,0.2,96.55
2167,64832885,1,0.53,0.74,24.28,0.004331884,-0.001990473,-0.5109462,-0.157085,-1.665271,0.2495096,0.6246654,-0.03,0.04,0.2,96.55
2207,64842938,1,0.53,0.74,24.28,0.003342354,-0.002200546,-0.5087324,-0.1470047,-1.6653,0.2495112,0.6238132,-0.03,0.04,0.2,96.55
2248,64852693,1,0.53,0.75,24.28,0.003834589,-0.002658014,-0.5075526,-0.1358653,-1.66533,0.2495167,0.6227418,-0.03,0.04,0.2,96.55
2292,64863362,1,0.52,0.75,24.27,0.003970183,-0.001075947,-0.505511,-0.1300892,-1.665348,0.2495301,0.6209238,-0.03,0.04,0.2,96.55
2334,64873383,1,0.52,0.75,24.27,0.003662139,-0.001046552,-0.5042691,-0.1244431,-1.665366,0.2495597,0.6194988,-0.03,0.04,0.2,96.55
2375,64883371,1,0.51,0.76,24.26,0.003608946,-0.000664623,-0.5036996,-0.1241611,-1.665388,0.2495978,0.6178913,-0.03,0.04,0.2,96.55
2417,64893877,1,0.51,0.76,24.26,0.003361309,-0.0009016782,-0.5027836,-0.1213382,-1.665354,0.24959,0.6129095,-0.03,0.04,0.2,96.55
2458,64910959,1,0.51,0.76,24.25,0.002206686,-0.001105018,-0.495872,-0.0902317,-1.665403,0.2496002,0.6200966,-0.03,0.04,0.2,96.55
2499,64921445,1,0.51,0.76,24.25,0.002884187,-0.0009738351,-0.493112,-0.06815333,-1.665419,0.2496141,0.6228536,-0.03,0.04,0.2,96.55
2541,64932044,1,0.51,0.76,24.25,0.002789614,-0.001500772,-0.4905814,-0.03511282,-1.665428,0.2496313,0.625216,-0.03,0.04,0.2,96.55
2582,64942451,1,0.52,0.76,24.25,0.001994052,-0.0006997592,-0.4914027,0.004217314,-1.665399,0.2496185,0.6198366,-0.03,0.04,0.2,96.55
2622,64953032,1,0.52,0.76,24.24,0.001360625,-0.0005576718,-0.488363,0.0333596,-1.665417,0.2496453,0.6218973,-0.03,0.04,0.2,96.55
2667,64963475,1,0.52,0.77,24.24,0.001439161,0.0001964523,-0.4862421,0.05243956,-1.665435,0.2496816,0.623211,-0.03,0.04,0.2,96.55
2708,64973892,1,0.53,0.77,24.25,0.001192185,0.000178059,-0.483542,0.06433427,-1.665446,0.2497245,0.6247026,-0.03,0.04,0.2,96.55
2749,64984148,1,0.52,0.77,24.25,0.0008402965,-0.0007635391,-0.4818869,0.0797379,-1.665459,0.2497649,0.6254161,-0.03,0.04,0.2,96.55
2790,64994282,1,0.52,0.77,24.25,0.0005143121,-0.001043583,-0.4802645,0.09568446,-1.665451,0.2497562,0.6206048,-0.03,0.04,0.2,96.55
2830,65004288,1,0.52,0.78,24.26,0.0005655932,-0.001177271,-0.4780836,0.1058676,-1.665464,0.2497939,0.6215768,-0.03,0.04,0.2,96.55
2871,65014981,1,0.52,0.77,24.26,0.001376719,-0.002128509,-0.475983,0.1089446,-1.66547,0.2498278,0.6222598,-0.03,0.04,0.2,96.55
2913,65024949,1,0.52,0.78,24.26,0.001078099,-0.002480764,-0.4747047,0.1001224,-1.665471,0.2498574,0.6226943,-0.03,0.04,0.2,96.55
2954,65034948,1,0.52,0.78,24.26,0.001021269,-0.003759617,-0.4723582,0.09591138,-1.665474,0.2498813,0.6228437999999999,-0.03,0.04,0.2,96.55
2994,65044979,1,0.52,0.78,24.26,0.001111602,-0.003138148,-0.472084,0.09275229,-1.665461,0.2498461,0.6181386,-0.03,0.04,0.2,96.55
3035,65054917,1,0.51,0.78,24.25,0.001312808,-0.003292724,-0.4720057,0.08257630000000001,-1.665457,0.2498686,0.6180679,-0.03,0.04,0.2,96.55
3081,65065000,1,0.51,0.78,24.25,0.001293059,-0.002398791,-0.4719801,0.06142847,-1.665447,0.249842,0.6133668,-0.03,0.04,0.2,96.55
3121,65075498,1,0.51,0.78,24.25,0.001689282,-0.002204474,-0.4708992,0.0327063,-1.665441,0.2498719,0.6127465,-0.03,0.04,0.2,96.55
3162,65085599,1,0.51,0.78,24.25,0.001575912,-0.002037622,-0.4702128,0.01003796,-1.665426,0.2499093,0.6123829,-0.03,0.04,0.2,96.55
3202,65095506,1,0.51,0.78,24.25,0.001365929,-0.002066125,-0.470273,-0.01193203,-1.665409,0.2498873,0.6076667,-0.03,0.04,0.2,96.55
3245,65105502,1,0.52,0.77,24.25,0.0009390611,-0.002602411,-0.4692502,-0.03282648,-1.665401,0.2499213,0.6071164,-0.03,0.04,0.2,96.55
3279,65117127,1,0.52,0.78,24.25,0.0007347123,-0.002714739,-0.4658486,-0.05395521,-1.665233,0.2498449,0.6093737,-0.03,0.04,0.2,96.55
3320,65127240,1,0.53,0.78,24.25,0.001953777,-0.00260583,-0.4619403,-0.04887177,-1.665062,0.2497828,0.6123593000000001,-0.03,0.04,0.2,96.55
3362,65137006,1,0.53,0.77,24.25,0.001676634,-0.002343064,-0.4585324,-0.04087161,-1.66489,0.2497326,0.6155040000000001,-0.03,0.04,0.2,96.55
3403,65147496,1,0.53,0.77,24.26,0.001455223,-0.003038887,-0.4594657,-0.02013334,-1.664873,0.2497045,0.6104727,-0.03,0.04,0.2,96.55
3444,65157437,1,0.53,0.77,24.26,0.002119221,-0.003970736,-0.4564728,-0.003210143,-1.664693,0.2496483,0.6128212,-0.03,0.04,0.2,96.55
3488,65167962,1,0.53,0.78,24.26,0.002246819,-0.00460333,-0.4558261,-0.001126034,-1.664674,0.2496044,0.6082788,-0.03,0.04,0.2,96.55
3529,65178409,1,0.53,0.78,24.26,0.001798781,-0.004914538,-0.4515047,0.004975307,-1.664489,0.2495264,0.609934,-0.03,0.04,0.2,96.55
3569,65188371,1,0.53,0.79,24.26,0.002358688,-0.005514576,-0.4484249,0.005327114,-1.664297,0.2494554,0.6118764,-0.03,0.04,0.2,96.55
3610,65198384,1,0.53,0.79,24.26,0.001684935,-0.004255467,-0.4475681,0.005467409,-1.664279,0.2494054,0.6073773,-0.03,0.04,0.2,96.55
3651,65208404,1,0.53,0.79,24.26,0.001872998,-0.004553961,-0.4429956,0.008649885,-1.664091,0.2493511,0.6090757,-0.03,0.04,0.2,96.55
3695,65221122,1,0.53,0.79,24.25,0.001348451,-0.005915666,-0.4396415,0.01306125,-1.663901,0.2492776,0.6092343,-0.03,0.04,0.2,96.55
3736,65231278,1,0.53,0.79,24.25,0.0004424083,-0.005163169,-0.4369486,0.01730007,-1.663721,0.2492218,0.6109441,-0.03,0.04,0.2,96.55
3777,65241618,1,0.52,0.79,24.25,0.0009717725,-0.0059289,-0.4337997,0.02024677,-1.663547,0.2491749,0.6123957,-0.03,0.04,0.2,96.55
3820,65252623,1,0.52,0.79,24.25,0.001607305,-0.007149619,-0.4331653,0.02216488,-1.663534,0.2491041,0.6076162000000001,-0.03,0.04,0.2,96.55
3862,65262975,1,0.52,0.78,24.25,0.00189755,-0.008617542000000001,-0.4310261,0.01689748,-1.663346,0.2490321,0.6088719,-0.03,0.04,0.2,96.55
3909,65273213,1,0.52,0.78,24.25,0.002445739,-0.009066931,-0.4299768,0.006596403,-1.663326,0.2489438,0.6045477,-0.03,0.04,0.2,96.55
3950,65283322,1,0.53,0.79,24.26,0.002693026,-0.009217268000000001,-0.4269142,-0.005415327,-1.66313,0.2488594,0.6056391,-0.03,0.04,0.2,96.55
3990,65293259,1,0.53,0.79,24.26,0.002819901,-0.009708181,-0.4235487,-0.01502392,-1.662932,0.2487799,0.6064479,-0.03,0.04,0.2,96.55
4031,65303038,1,0.53,0.79,24.26,0.001605678,-0.008872497,-0.4223322,-0.01825,-1.662739,0.2486978,0.6066539,-0.03,0.04,0.2,96.55
4072,65316982,1,0.53,0.78,24.27,0.001632696,-0.007823210000000001,-0.419304,-0.01681929,-1.662572,0.2485932,0.6091673,-0.03,0.04,0.2,96.55
4116,65327129,1,0.53,0.78,24.27,0.002630722,-0.007723396,-0.416111,0.0012075,-1.662411,0.2485232,0.6127135,-0.03,0.04,0.2,96.55
4157,65337426,1,0.53,0.78,24.27,0.001597791,-0.007545487,-0.4179432,0.01579162,-1.662388,0.2484453,0.6085501,-0.03,0.04,0.2,96.55
4199,65347443,1,0.53,0.78,24.26,0.001688313,-0.007862289999999999,-0.4148992,0.03428474,-1.662233,0.2483843,0.6122172,-0.03,0.04,0.2,96.55
4240,65357992,1,0.52,0.78,24.26,0.001113221,-0.005987213,-0.4129972,0.04432389,-1.662083,0.248333,0.6155205,-0.03,0.04,0.2,96.55
4280,65368372,1,0.53,0.78,24.26,0.0004582915,-0.005711633,-0.4106,0.06827869,-1.661936,0.2482938,0.6180229,-0.03,0.04,0.2,96.55
4325,65378428,1,0.52,0.79,24.26,0.0004510167,-0.006849092,-0.410562,0.08335085,-1.661935,0.2482276,0.613896,-0.03,0.04,0.2,96.55
4366,65388381,1,0.52,0.79,24.25,0.0005404345,-0.0069545,-0.4066735,0.09707325,-1.661793,0.2481941,0.6165988,-0.03,0.04,0.2,96.55
4406,65398371,1,0.52,0.79,24.25,0.0007725005,-0.006319312,-0.4054589,0.1072818,-1.661656,0.2481668,0.6189799,-0.03,0.04,0.2,96.55
4451,65410960,1,0.52,0.79,24.25,0.0005818433,-0.005055346,-0.4032874,0.1189435,-1.661522,0.2481389,0.6202789,-0.03,0.04,0.2,96.55
4491,65420918,1,0.52,0.79,24.25,0.0005104583,-0.004030547,-0.4020995,0.1181913,-1.661516,0.2480928,0.6162483,-0.03,0.04,0.2,96.55
4532,65431894,1,0.53,0.8,24.25,-0.0001835476,-0.002625655,-0.3978158,0.1020537,-1.661386,0.2480927,0.6181025999999999,-0.03,0.04,0.2,96.55
4573,65442043,1,0.53,0.8,24.25,-0.000394693,-0.002524978,-0.3963993,0.09182738999999999,-1.661387,0.2480681,0.6141706,-0.03,0.04,0.2,96.55
4614,65452113,1,0.54,0.8,24.26,-0.0009367715,-0.001462302,-0.394487,0.08254889,-1.66127,0.2480876,0.6161949,-0.03,0.04,0.2,96.55
4655,65462021,1,0.54,0.8,24.26,-0.0006502042,-0.001524893,-0.3925108,0.07675232999999999,-1.661165,0.2481187,0.6175994,-0.03,0.04,0.2,96.55
4695,65472275,1,0.54,0.8,24.27,-0.000875706,-0.002027028,-0.3905526,0.07013558,-1.661057,0.2481505,0.6194828999999999,-0.03,0.04,0.2,96.55
4740,65482948,1,0.54,0.8,24.27,-0.0009383363,-0.002118665,-0.3878204,0.06403556000000001,-1.660957,0.2481818,0.6203433,-0.03,0.04,0.2,96.55
4780,65493268,1,0.53,0.8,24.27,-0.0007482325,-0.001948734,-0.3878821,0.05974894,-1.660859,0.2482163,0.6212996,-0.03,0.04,0.2,96.55
4821,65503149,1,0.53,0.8,24.27,-0.001338722,-0.002684207,-0.3882934,0.05849311,-1.66087,0.2481921,0.6170532,-0.03,0.04,0.2,96.55
4864,65513268,1,0.53,0.8,24.26,-0.00126044,-0.001396679,-0.3868389,0.05476221,-1.660782,0.2482328,0.6177899,-0.03,0.04,0.2,96.55
4898,65524243,1,0.53,0.8,24.26,-0.001584328,-0.00209681,-0.3830201,0.05994036,-1.660705,0.2481917,0.6211056,-0.03,0.04,0.2,96.55
4940,65534314,1,0.52,0.8100000000000001,24.25,-0.001457162,-0.001974485,-0.3823784,0.05358474,-1.660719,0.2481745,0.6172737,-0.03,0.04,0.2,96.55
4980,65544898,1,0.52,0.8,24.25,-0.001473326,-0.003485373,-0.3801258,0.05540369,-1.660643,0.2481308,0.6216254,-0.03,0.04,0.2,96.55
5022,65555124,1,0.52,0.8,24.25,-0.002721554,-0.003143917,-0.3769942,0.06319296000000001,-1.660577,0.2480877,0.6255444,-0.03,0.04,0.2,96.55
5063,65565029,1,0.51,0.8100000000000001,24.25,-0.002968482,-0.003327852,-0.3757558,0.07395546,-1.660519,0.2480484,0.6291612,-0.03,0.04,0.2,96.55
5104,65575301,1,0.52,0.8100000000000001,24.25,-0.003475851,-0.003419805,-0.374886,0.08666182,-1.660473,0.2480132,0.6323443,-0.03,0.04,0.2,96.55
5149,65585577,1,0.52,0.8100000000000001,24.25,-0.002523155,-0.003909034,-0.3745271,0.1078539,-1.660502,0.2479744,0.6282635,-0.03,0.04,0.2,96.55
5189,65595572,1,0.52,0.8100000000000001,24.25,-0.003457149,-0.004670387,-0.3711007,0.1250793,-1.660454,0.247931,0.6311619000000001,-0.03,0.04,0.2,96.55
5230,65605966,1,0.51,0.8100000000000001,24.26,-0.00240433,-0.003636893,-0.3684492,0.140943,-1.660405,0.2478943,0.6337642999999999,-0.03,0.04,0.2,96.55
5270,65616323,1,0.51,0.8100000000000001,24.26,-0.003024358,-0.003158042,-0.3659932,0.1399764,-1.660435,0.2478566,0.6297057,-0.03,0.04,0.2,96.55
5311,65626368,1,0.52,0.8100000000000001,24.27,-0.004351654,-0.003346311,-0.3644144,0.1299283,-1.660397,0.2478265,0.6321548,-0.03,0.04,0.2,96.55
5351,65636285,1,0.51,0.8100000000000001,24.27,-0.003708091,-0.001798045,-0.3628254,0.1236591,-1.660369,0.2478062,0.6346017,-0.03,0.04,0.2,96.55
5392,65646585,1,0.52,0.8100000000000001,24.27,-0.005174855,-0.001464103,-0.3618155,0.124131,-1.660351,0.2478012,0.6368283,-0.03,0.04,0.2,96.55
5433,65656583,1,0.52,0.8100000000000001,24.27,-0.006086251,-0.001285188,-0.3603202,0.1215357,-1.660346,0.2478033,0.6387219,-0.03,0.04,0.2,96.55
5473,65667141,1,0.51,0.8100000000000001,24.27,-0.007060203,-0.0002754524,-0.361371,0.1223079,-1.660409,0.2477951,0.6350814,-0.03,0.04,0.2,96.55
5515,65677913,1,0.51,0.82,24.27,-0.00772945,0.0005107667,-0.358343,0.1193421,-1.660429,0.2478178,0.6364077,-0.03,0.04,0.2,96.55
5560,65687965,1,0.51,0.82,24.27,-0.006846848,0.001260831,-0.3556109,0.1157657,-1.660444,0.2478496,0.6378289,-0.03,0.04,0.2,96.55
5603,65700819,1,0.51,0.82,24.26,-0.007035006,0.001168733,-0.3517833,0.1077733,-1.66053,0.2478883,0.6407316,-0.03,0.04,0.2,96.55
5640,65711032,1,0.51,0.83,24.26,-0.00780653,0.001445131,-0.3508133,0.1029104,-1.660602,0.2479275,0.6443442,-0.03,0.04,0.2,96.55
5681,65722039,1,0.51,0.83,24.26,-0.008418646,0.001161789,-0.3523881,0.1102063,-1.660692,0.2479402,0.6404992,-0.03,0.04,0.2,96.55
5725,65734824,1,0.5,0.83,24.25,-0.008428298000000001,0.001464914,-0.3497275,0.117935,-1.660803,0.2479854,0.6429245,-0.03,0.04,0.2,96.55
5767,65744576,1,0.5,0.82,24.25,-0.008599279,0.001845741,-0.3470772,0.121312,-1.660886,0.2480334,0.6460916,-0.03,0.04,0.2,96.55
5808,65754999,1,0.51,0.82,24.26,-0.009689157,0.002469028,-0.3461495,0.1179402,-1.660979,0.2480579,0.6426381,-0.03,0.04,0.2,96.55
5850,65765434,1,0.5,0.82,24.26,-0.01035202,0.002469584,-0.344428,0.1150029,-1.661089,0.2481142,0.6452338,-0.03,0.04,0.2,96.55
5891,65775510,1,0.5,0.82,24.26,-0.01242335,0.002868904,-0.3427678,0.1132891,-1.661206,0.2481767,0.6478587,-0.03,0.04,0.2,96.55
5936,65785418,1,0.5,0.82,24.27,-0.01323735,0.002537138,-0.3398561,0.1145723,-1.661338,0.2482392,0.6502096000000001,-0.03,0.04,0.2,96.55
5977,65795432,1,0.5,0.82,24.27,-0.01421444,0.003384262,-0.3415015,0.110125,-1.661479,0.2482724,0.64676,-0.03,0.04,0.2,96.55
6018,65805860,1,0.51,0.82,24.28,-0.0141322,0.002747537,-0.3400249,0.1061224,-1.661625,0.2483407,0.648885,-0.03,0.04,0.2,96.55
6060,65815885,1,0.5,0.82,24.28,-0.01435011,0.003450771,-0.3399496,0.1017703,-1.661772,0.2484145,0.6507015,-0.03,0.04,0.2,96.55
6100,65825970,1,0.51,0.82,24.28,-0.01481886,0.004524069,-0.3380317,0.09643909000000001,-1.661924,0.2484989,0.6522619,-0.03,0.04,0.2,96.55
6141,65835873,1,0.51,0.83,24.29,-0.0139676,0.003751146,-0.3351312,0.09193042999999999,-1.662072,0.2485821,0.6535249,-0.03,0.04,0.2,96.55
6181,65846406,1,0.51,0.83,24.29,-0.01488759,0.003710149,-0.3363118,0.08683215,-1.66223,0.2486246,0.6498102,-0.03,0.04,0.2,96.55
6222,65856921,1,0.51,0.83,24.29,-0.01618169,0.002706015,-0.3348692,0.07924687,-1.662389,0.2487072,0.6508665,-0.03,0.04,0.2,96.55
6262,65867043,1,0.52,0.84,24.29,-0.01605842,0.002889712,-0.3357709,0.06043699,-1.66255,0.2487335,0.647513,-0.03,0.04,0.2,96.55
6303,65876976,1,0.52,0.84,24.28,-0.01600702,0.002523354,-0.3331072,0.04211378,-1.662718,0.2488049,0.64845,-0.03,0.04,0.2,96.55
6350,65886895,1,0.52,0.83,24.28,-0.01639967,0.002682773,-0.3324736,0.01941971,-1.662888,0.2488768,0.6491652,-0.03,0.04,0.2,96.55
6390,65897427,1,0.52,0.83,24.28,-0.01639244,0.001745568,-0.3328675,0.003070334,-1.663066,0.2488992,0.6455046,-0.03,0.04,0.2,96.55
6433,65913122,1,0.52,0.83,24.28,-0.01699825,0.001454482,-0.331353,-0.01472305,-1.663085,0.2489984,0.6499302,-0.03,0.04,0.2,96.55
6473,65923275,1,0.52,0.83,24.29,-0.0167527,0.001768295,-0.3302733,-0.01794569,-1.662986,0.2490396,0.6525022,-0.03,0.04,0.2,96.55
6514,65933296,1,0.52,0.83,24.29,-0.01712879,0.0006695734,-0.3285182,-0.008128289,-1.663174,0.2490532,0.6488993,-0.03,0.04,0.2,96.55
6555,65943055,1,0.52,0.83,24.29,-0.01736109,0.001026218,-0.3239585,0.00353762,-1.663104,0.2490894,0.6510813,-0.03,0.04,0.2,96.55
6595,65953926,1,0.53,0.84,24.29,-0.01714097,0.001108327,-0.3220826,0.01515774,-1.663042,0.2491329,0.6530089,-0.03,0.04,0.2,96.55
6635,65963859,1,0.53,0.84,24.3,-0.01810691,0.001358762,-0.3198284,0.02577421,-1.662997,0.2491847,0.6546653,-0.03,0.04,0.2,96.55
6675,65973817,1,0.53,0.84,24.29,-0.01837352,0.001467571,-0.3175259,0.03267014,-1.662967,0.2492393,0.6561108,-0.03,0.04,0.21,96.55
6719,65983892,1,0.53,0.84,24.3,-0.01796049,0.001876617,-0.3142532,0.03866895,-1.662938,0.249298,0.6573620999999999,-0.03,0.04,0.21,96.55
6764,65993902,1,0.54,0.84,24.3,-0.01709772,0.001661867,-0.3148955,0.04432797,-1.663113,0.2493177,0.6542103,-0.03,0.04,0.21,96.55
6804,66003887,1,0.54,0.84,24.3,-0.0168206,0.001909738,-0.3137029,0.04601228,-1.663082,0.2493784,0.6552696,-0.03,0.04,0.21,96.55
6845,66013895,1,0.54,0.84,24.3,-0.0167043,0.002916931,-0.3120606,0.04104891,-1.663058,0.2494471,0.6560999,-0.03,0.04,0.21,96.55
6885,66023904,1,0.54,0.84,24.3,-0.01641263,0.002973715,-0.3099847,0.03592109,-1.663039,0.249521,0.6571292,-0.03,0.04,0.21,96.55
6923,66034142,1,0.53,0.84,24.3,-0.01578664,0.001916078,-0.3083232,0.03378069,-1.663036,0.2495915,0.6576185,-0.03,0.04,0.21,96.55
6963,66044989,1,0.53,0.83,24.3,-0.01585157,0.002258721,-0.3084766,0.03288094,-1.663193,0.2496137,0.654547,-0.03,0.04,0.21,96.55
7004,66054895,1,0.53,0.83,24.3,-0.01546597,0.003613375,-0.3043351,0.03197983,-1.663179,0.2496899,0.6551741,-0.03,0.04,0.21,96.55
7046,66065299,1,0.52,0.84,24.3,-0.01679707,0.003149668,-0.3032756,0.02548897,-1.663179,0.2497753,0.6556321000000001,-0.03,0.04,0.21,96.55
7086,66075334,1,0.52,0.83,24.29,-0.01711829,0.003439935,-0.3010098,0.02220401,-1.663207,0.2498607,0.6556205000000001,-0.03,0.04,0.21,96.55
7129,66085136,1,0.53,0.84,24.3,-0.0154695,0.004110416,-0.3005083,0.0155381,-1.663222,0.2499485,0.655739,-0.03,0.04,0.21,96.55
7181,66095672,1,0.52,0.84,24.29,-0.01674837,0.004524626,-0.3018843,0.003774433,-1.663236,0.2500427,0.6556882000000001,-0.03,0.04,0.21,96.55
7223,66106354,1,0.52,0.84,24.3,-0.01702692,0.004228028,-0.3011627,-0.004507498,-1.66342,0.2500922,0.6523665,-0.03,0.04,0.21,96.55
7261,66117047,1,0.53,0.85,24.3,-0.01631823,0.003939494,-0.2997565,-0.007428314,-1.663302,0.2500977,0.6540584,-0.03,0.04,0.21,96.55
7309,66129512,1,0.53,0.84,24.31,-0.01684698,0.004001974,-0.2981339,-0.003331325,-1.663215,0.2501104,0.655156,-0.03,0.04,0.21,96.55
7355,66139927,1,0.53,0.84,24.31,-0.0169824,0.003568892,-0.2968771,0.003198222,-1.663104,0.2501169,0.6567452,-0.03,0.04,0.21,96.55
7400,66150292,1,0.53,0.85,24.31,-0.01816379,0.004266906,-0.295106,0.003562363,-1.663028,0.2501325,0.657849,-0.03,0.04,0.21,96.55
7445,66161454,1,0.53,0.84,24.31,-0.01768164,0.003866067,-0.295883,0.0009276762,-1.663229,0.250176,0.6545897000000001,-0.03,0.04,0.21,96.55
7490,66172266,1,0.52,0.84,24.3,-0.01809123,0.003443765,-0.2936397,-0.0001714063,-1.663147,0.2501844,0.6558303,-0.03,0.04,0.21,96.55
7535,66182965,1,0.52,0.85,24.3,-0.01874203,0.004899847,-0.2928475,-0.002457185,-1.663106,0.2502054,0.6565557,-0.03,0.04,0.21,96.55
7583,66192828,1,0.52,0.85,24.29,-0.01729625,0.00622878,-0.2928967,-0.006553185,-1.66305,0.2502405,0.6573851000000001,-0.03,0.04,0.21,96.55
7628,66202934,1,0.52,0.85,24.29,-0.01778078,0.006382627,-0.2927224,-0.009730043000000001,-1.662996,0.2502845,0.6580112,-0.03,0.04,0.21,96.55
7674,66213149,1,0.52,0.85,24.28,-0.01695155,0.006812186,-0.2932114,-0.009217794,-1.663174,0.2503519,0.6550553,-0.03,0.04,0.21,96.55
7718,66223004,1,0.52,0.86,24.28,-0.01672102,0.005852645,-0.2910599,-0.009386894999999999,-1.66312,0.2504,0.6555327,-0.03,0.04,0.21,96.55
7768,66235906,1,0.52,0.86,24.28,-0.01659797,0.004627664,-0.2870251,-0.007208811,-1.663127,0.2504517,0.6549696,-0.03,0.04,0.21,96.55
7812,66245629,1,0.53,0.86,24.28,-0.01703574,0.004955134,-0.2871087,-0.01030487,-1.663094,0.2504902,0.6553015,-0.03,0.04,0.21,96.55
7857,66256250,1,0.53,0.86,24.28,-0.01749645,0.004584734,-0.2879182,-0.02080906,-1.663268,0.2505378,0.6524217,-0.03,0.04,0.21,96.55
7902,66266817,1,0.53,0.86,24.28,-0.0177732,0.004212978,-0.2865944,-0.03158207,-1.663265,0.2505759,0.6523712,-0.03,0.04,0.21,96.55
7946,66276804,1,0.53,0.85,24.28,-0.01834061,0.003908769,-0.286713,-0.04067345,-1.663255,0.2506084,0.6524418,-0.03,0.04,0.21,96.55
7990,66286603,1,0.53,0.85,24.28,-0.01844345,0.004172043,-0.2845126,-0.05043511,-1.663254,0.2506422,0.6523814999999999,-0.03,0.04,0.21,96.55
8042,66297124,1,0.53,0.84,24.28,-0.01875341,0.003585558,-0.2846822,-0.05733299,-1.663439,0.2506786,0.6495309,-0.03,0.04,0.21,96.55
8087,66307889,1,0.54,0.84,24.28,-0.01927802,0.00452486,-0.2846223,-0.06676685,-1.663467,0.250717,0.6490582,-0.03,0.04,0.21,96.55
8131,66318183,1,0.53,0.84,24.28,-0.01951252,0.004643661,-0.2818037,-0.06757499,-1.663502,0.2507308,0.65079,-0.03,0.04,0.21,96.55
8172,66328574,1,0.53,0.84,24.27,-0.0183127,0.004123602,-0.2790327,-0.06522720999999999,-1.66356,0.2507523,0.6520156,-0.03,0.04,0.21,96.55
8217,66338840,1,0.53,0.84,24.27,-0.01903818,0.002916885,-0.2759998,-0.05930044,-1.663608,0.2507637,0.6533375,-0.03,0.04,0.21,96.55
8261,66348966,1,0.53,0.85,24.27,-0.01987698,0.002557565,-0.2770308,-0.04998073,-1.663804,0.2507913,0.6505588,-0.03,0.04,0.21,96.55
8306,66360032,1,0.53,0.85,24.26,-0.01982395,0.002144519,-0.275833,-0.04130268,-1.663884,0.2508003,0.6515919,-0.03,0.04,0.21,96.55
8353,66370822,1,0.53,0.85,24.26,-0.0192699,0.001676428,-0.2740939,-0.03756654,-1.663972,0.2508069,0.6523908,-0.03,0.04,0.21,96.55
8397,66380964,1,0.53,0.85,24.25,-0.01902708,0.0001428883,-0.270877,-0.03179655,-1.664041,0.2508032,0.6533098000000001,-0.03,0.04,0.21,96.55
8442,66391323,1,0.52,0.85,24.25,-0.01916752,0.001199982,-0.2696225,-0.02412313,-1.664138,0.2508016,0.6537973,-0.03,0.04,0.21,96.55
8490,66402066,1,0.52,0.85,24.25,-0.02025534,0.001023451,-0.2700656,-0.01647039,-1.664332,0.25081,0.6510956,-0.03,0.04,0.21,96.55
8535,66411947,1,0.52,0.85,24.25,-0.01877481,0.0006059604,-0.2683817,-0.01088721,-1.66442,0.2508157,0.6516602,-0.03,0.04,0.21,96.55
8579,66422388,1,0.52,0.84,24.25,-0.01912308,0.0008653480000000001,-0.2677302,-0.005223295,-1.664524,0.2508253,0.6518149,-0.03,0.04,0.21,96.55
8624,66433063,1,0.53,0.84,24.25,-0.01852657,5.333094e-05,-0.265392,0.0003149491,-1.66462,0.2508337,0.6520641,-0.03,0.04,0.21,96.55
8668,66443442,1,0.53,0.84,24.25,-0.02001186,-0.0006341524000000001,-0.2641701,0.0028825,-1.664743,0.2508392,0.652155,-0.03,0.04,0.22,96.55
8714,66453462,1,0.53,0.84,24.25,-0.02105801,-0.0001736229,-0.2625108,0.004763379,-1.664863,0.2508454,0.652365,-0.03,0.04,0.22,96.55
8759,66463461,1,0.54,0.84,24.25,-0.02182805,0.001157327,-0.2607137,0.00473133,-1.664999,0.2508603,0.6524292,-0.03,0.04,0.22,96.55
8804,66473492,1,0.54,0.84,24.25,-0.02168404,0.0006319929,-0.2580009,0.002323308,-1.665143,0.2508844,0.6523851000000001,-0.03,0.04,0.22,96.55
8848,66483927,1,0.54,0.84,24.25,-0.02224073,0.001328213,-0.2585875,-0.001628063,-1.665364,0.2508958,0.6497847,-0.03,0.04,0.22,96.55
8894,66493942,1,0.53,0.85,24.25,-0.0232711,0.0005386546000000001,-0.2588839,-0.008448666000000001,-1.665519,0.2509182,0.6496198,-0.03,0.04,0.22,96.55
8944,66503944,1,0.53,0.85,24.25,-0.02301559,0.0001273853,-0.2568365,-0.01392985,-1.665686,0.2509407,0.6493078,-0.03,0.04,0.22,96.55
8982,66514804,1,0.53,0.85,24.25,-0.0232132,0.0001289438,-0.2570565,-0.02149364,-1.665593,0.2510877,0.6509392000000001,-0.03,0.04,0.22,96.55
9027,66524613,1,0.53,0.84,24.25,-0.02142975,0.0008901237,-0.2567188,-0.02410263,-1.665485,0.2512344,0.6525844,-0.03,0.04,0.22,96.55
9072,66534984,1,0.53,0.84,24.25,-0.02154959,0.0004663781,-0.2570709,-0.01781148,-1.6657,0.2512394,0.6500144,-0.03,0.04,0.22,96.55
9117,66545409,1,0.53,0.84,24.25,-0.02089352,0.0003850918,-0.257746,-0.01235738,-1.665608,0.2513874,0.6512111,-0.03,0.04,0.22,96.55
9162,66556124,1,0.53,0.84,24.25,-0.02061494,0.0002410474,-0.2563875,-0.006423056,-1.665529,0.251531,0.6522127,-0.03,0.04,0.22,96.55
9206,66566134,1,0.53,0.84,24.25,-0.02063188,0.0007949259,-0.2555857,-0.001009538,-1.665439,0.2516744,0.6532766,-0.03,0.04,0.22,96.55
9251,66576124,1,0.53,0.85,24.25,-0.02050855,0.0007644704,-0.2551878,0.001663211,-1.665354,0.2518215,0.6542127,-0.03,0.04,0.22,96.55
9295,66586933,1,0.53,0.85,24.25,-0.02108223,-0.0001323324,-0.2556906,0.0075301,-1.665567,0.2518247,0.6516497,-0.03,0.04,0.22,96.55
9342,66597303,1,0.53,0.86,24.25,-0.02024011,-0.0008039745,-0.2536089,0.01234071,-1.665519,0.2519608,0.6521354,-0.03,0.04,0.22,96.55
9391,66607280,1,0.53,0.86,24.24,-0.0201076,-0.00151043,-0.2523056,0.01396758,-1.665454,0.2520865,0.6527308000000001,-0.03,0.04,0.22,96.55
9435,66617268,1,0.53,0.86,24.25,-0.02048596,-0.001142078,-0.251157,0.01007175,-1.665392,0.2522072,0.6532051,-0.03,0.04,0.22,96.55
9480,66627640,1,0.53,0.86,24.25,-0.02136585,-0.001599765,-0.2523964,0.007769749,-1.665602,0.2521926,0.6506883,-0.03,0.04,0.22,96.55
9524,66637918,1,0.53,0.86,24.25,-0.02158243,3.292222e-05,-0.2509045,0.005512569,-1.665562,0.2523195,0.6510284,-0.03,0.04,0.22,96.55
9570,66648187,1,0.53,0.86,24.25,-0.02158094,0.0002567632,-0.2509409,0.0001464421,-1.665535,0.2524559,0.6511938,-0.03,0.04,0.22,96.55
9614,66658895,1,0.53,0.86,24.25,-0.02115942,0.0002051212,-0.2495133,-0.00504935,-1.66554,0.252594,0.6511539,-0.03,0.04,0.22,96.55
9659,66668980,1,0.53,0.85,24.25,-0.02154821,0.0002816978,-0.2491006,-0.0101185,-1.665754,0.2525961,0.6486552,-0.03,0.04,0.22,96.55
9704,66678966,1,0.52,0.85,24.24,-0.02150266,0.0006301025,-0.2487688,-0.01705897,-1.665758,0.2527342,0.6485476,-0.03,0.04,0.22,96.55
9748,66689478,1,0.52,0.86,24.24,-0.02087288,0.0004253461,-0.2473348,-0.02273868,-1.66575,0.2528694,0.6485208,-0.03,0.04,0.22,96.55
9794,66699548,1,0.52,0.86,24.24,-0.02051875,0.001540378,-0.2472737,-0.02945689,-1.665745,0.2530076,0.6483821,-0.03,0.04,0.22,96.55
9844,66716719,1,0.51,0.87,24.23,-0.02104554,0.00291026,-0.2459632,-0.04026587,-1.665719,0.2531432,0.6481779,-0.03,0.04,0.22,96.55
9891,66726880,1,0.51,0.87,24.23,-0.02182976,0.00421151,-0.2445219,-0.0428264,-1.66557,0.253267,0.6495343,-0.03,0.04,0.22,96.55
9936,66737370,1,0.52,0.87,24.23,-0.0211825,0.005397194,-0.2451462,-0.03824336,-1.665806,0.2533178,0.6468214,-0.03,0.04,0.22,96.55
9980,66747493,1,0.52,0.88,24.23,-0.01999319,0.005468071,-0.243516,-0.03145473,-1.665657,0.2534616,0.6479986,-0.03,0.04,0.22,96.55
10025,66758278,1,0.51,0.87,24.23,-0.02025386,0.006594319,-0.2416525,-0.02155269,-1.665533,0.2536129,0.6487674,-0.03,0.04,0.22,96.55
10069,66768872,1,0.51,0.87,24.23,-0.02081713,0.006144899,-0.2403468,-0.01198654,-1.665407,0.2537657,0.6496665,-0.03,0.04,0.22,96.55
10114,66779585,1,0.52,0.87,24.23,-0.02125487,0.005169505,-0.2370948,-0.002232192,-1.665325,0.2539168,0.6502069,-0.03,0.04,0.22,96.55
10160,66789561,1,0.52,0.87,24.24,-0.02144332,0.005680473,-0.2353862,0.003653815,-1.665231,0.2540568,0.6508375,-0.03,0.04,0.22,96.55
10205,66799871,1,0.52,0.87,24.24,-0.02243751,0.006360852,-0.232825,0.007318991,-1.665158,0.2542028,0.6513113,-0.03,0.04,0.22,96.55
10251,66810215,1,0.52,0.86,24.24,-0.02200948,0.005950076,-0.2320898,0.0102782,-1.665118,0.2543578,0.6514214,-0.03,0.04,0.22,96.55
10299,66821001,1,0.52,0.86,24.23,-0.0227012,0.006246293,-0.2314489,0.01354832,-1.665344,0.2544194,0.6491004,-0.03,0.04,0.22,96.55
10344,66830978,1,0.52,0.86,24.23,-0.02293589,0.005961053,-0.2300497,0.01368285,-1.665293,0.2545676,0.6493478,-0.03,0.04,0.22,96.55
10389,66840980,1,0.52,0.86,24.23,-0.02271041,0.005614936,-0.2284684,0.007724799,-1.665522,0.2546284,0.647033,-0.03,0.04,0.22,96.55
10434,66851434,1,0.52,0.87,24.23,-0.02216312,0.006174464,-0.2271503,-2.18749e-05,-1.6655,0.2547769,0.6469994999999999,-0.03,0.04,0.22,96.55
10479,66862040,1,0.52,0.87,24.23,-0.02227682,0.006443808,-0.2254926,-0.00655733,-1.665462,0.2549242,0.6470674,-0.03,0.04,0.22,96.55
10523,66872032,1,0.53,0.86,24.22,-0.02316599,0.008244837,-0.2243419,-0.01400247,-1.66544,0.2550786,0.6471001,-0.03,0.04,0.22,96.55
10568,66882234,1,0.52,0.86,24.22,-0.02343946,0.007876196,-0.2233419,-0.02191868,-1.665456,0.255248,0.64678,-0.03,0.04,0.22,96.55
10612,66892917,1,0.52,0.86,24.22,-0.0242062,0.008840852,-0.2230287,-0.02690765,-1.66569,0.2553321,0.6445469,-0.03,0.04,0.22,96.55
10661,66903045,1,0.53,0.86,24.23,-0.02478324,0.00861,-0.2210628,-0.03158177,-1.665702,0.2555017,0.6443608,-0.03,0.04,0.22,96.55
10700,66913881,1,0.52,0.86,24.22,-0.02318739,0.007320096,-0.2193957,-0.03506301,-1.665553,0.2554287,0.6452998,-0.03,0.04,0.22,96.55
10748,66923870,1,0.52,0.86,24.23,-0.02342259,0.008126141999999999,-0.2182059,-0.03174371,-1.665395,0.2553556,0.646285,-0.03,0.04,0.22,96.55
10794,66933984,1,0.52,0.86,24.23,-0.02218668,0.008190708999999999,-0.2160874,-0.03042843,-1.665242,0.2552873,0.6471376,-0.03,0.04,0.22,96.55
10839,66943981,1,0.52,0.86,24.23,-0.0218364,0.00779017,-0.2153249,-0.02494436,-1.66546,0.2553665,0.6449932,-0.03,0.04,0.22,96.55
10883,66954016,1,0.51,0.86,24.23,-0.0213087,0.007610998,-0.2148921,-0.02128725,-1.665326,0.2553003,0.6455154,-0.03,0.04,0.22,96.55
10928,66963908,1,0.51,0.86,24.22,-0.02071317,0.008071424000000001,-0.2127611,-0.01666464,-1.665162,0.2552288,0.6463196,-0.03,0.04,0.22,96.55
10972,66974529,1,0.51,0.87,24.22,-0.02063723,0.007997119,-0.2139881,-0.01855573,-1.665389,0.2553144,0.6439772,-0.03,0.04,0.22,96.55
11017,66984626,1,0.51,0.87,24.22,-0.02063314,0.007216062,-0.2127305,-0.02101727,-1.665246,0.2552462,0.64472,-0.03,0.04,0.22,96.55
11062,66994564,1,0.51,0.87,24.22,-0.020322,0.007494803,-0.2115747,-0.02445035,-1.66545,0.2553208,0.6426092,-0.03,0.04,0.22,96.55
11107,67004546,1,0.51,0.86,24.22,-0.01971568,0.006634178,-0.2094268,-0.02603692,-1.665313,0.2552498,0.643271,-0.03,0.04,0.22,96.55
11153,67014551,1,0.51,0.86,24.22,-0.01960923,0.006265999,-0.2089928,-0.02730004,-1.665187,0.2551741,0.6437995,-0.03,0.04,0.22,96.55
11201,67025044,1,0.51,0.85,24.22,-0.01958068,0.005385424,-0.210429,-0.03214322,-1.665381,0.2552336,0.6416914,-0.03,0.04,0.22,96.55
11246,67035467,1,0.51,0.85,24.22,-0.01909382,0.004248633,-0.2086629,-0.03384783,-1.665279,0.2551487,0.6419119,-0.03,0.04,0.21,96.55
11290,67045405,1,0.52,0.85,24.22,-0.01930442,0.003859651,-0.2067043,-0.03648457,-1.665167,0.2550546,0.6422219,-0.03,0.04,0.21,96.55
11336,67055858,1,0.52,0.85,24.22,-0.01867724,0.001988466,-0.2043266,-0.03624176,-1.665067,0.2549548,0.6424164999999999,-0.03,0.04,0.21,96.55
11380,67066027,1,0.52,0.85,24.22,-0.01904467,0.00212615,-0.2022931,-0.03596624,-1.664983,0.254851,0.642487,-0.03,0.04,0.22,96.55
11425,67076418,1,0.52,0.85,24.22,-0.01892091,0.003157737,-0.2009828,-0.03418495,-1.665193,0.25488,0.6402814,-0.03,0.04,0.22,96.55
11470,67086494,1,0.52,0.85,24.22,-0.01966391,0.002131118,-0.200002,-0.0351431,-1.665119,0.2547863,0.6402758,-0.03,0.04,0.22,96.55
11514,67097292,1,0.52,0.85,24.22,-0.01884874,0.002792675,-0.1979124,-0.03754217,-1.665074,0.2546958,0.6400995,-0.03,0.04,0.22,96.55
11561,67113813,1,0.52,0.85,24.22,-0.0171878,0.001757683,-0.1954624,-0.04027249,-1.66485,0.2545939,0.640743,-0.03,0.04,0.21,96.55
11608,67123833,1,0.52,0.85,24.22,-0.01653353,0.001202987,-0.1945234,-0.0386818,-1.664536,0.2544813,0.642382,-0.03,0.04,0.21,96.55
11654,67133898,1,0.52,0.85,24.22,-0.01638008,0.002330387,-0.194922,-0.02955991,-1.664702,0.2544997,0.640433,-0.03,0.04,0.21,96.55
11700,67144044,1,0.51,0.85,24.21,-0.01698813,0.001803356,-0.1943314,-0.02015749,-1.6644,0.2543961,0.6418922,-0.03,0.04,0.21,96.55
11746,67154432,1,0.51,0.85,24.21,-0.01728577,0.001332709,-0.1940012,-0.007572331,-1.664137,0.2542894,0.6429849,-0.03,0.04,0.22,96.55
11790,67164418,1,0.51,0.85,24.21,-0.01726754,0.001394867,-0.1933516,0.003522385,-1.663879,0.254189,0.6440821,-0.03,0.04,0.22,96.55
11835,67174494,1,0.51,0.85,24.21,-0.01911517,0.00153166,-0.1946284,0.008064356,-1.664061,0.2542073,0.6421481999999999,-0.03,0.04,0.22,96.55
11880,67184910,1,0.51,0.86,24.21,-0.01751754,0.001985068,-0.1925265,0.01450156,-1.663824,0.2541171,0.6432847,-0.03,0.04,0.22,96.55
11924,67194944,1,0.52,0.86,24.21,-0.01679365,0.001768988,-0.1888744,0.02267007,-1.663591,0.2540304,0.6442928,-0.03,0.04,0.22,96.55
11969,67205414,1,0.52,0.86,24.21,-0.01530137,0.001018021,-0.1888386,0.02237154,-1.663377,0.2539457,0.6449894,-0.03,0.04,0.21,96.55
12013,67215913,1,0.52,0.86,24.2,-0.01619034,0.0005965067,-0.1879342,0.02632696,-1.663535,0.253955,0.6431148,-0.03,0.04,0.21,96.55
12065,67225935,1,0.53,0.86,24.2,-0.0162129,-0.0003571726,-0.1848036,0.03007041,-1.663319,0.2538583,0.6438752,-0.03,0.04,0.22,96.55
12110,67235730,1,0.53,0.86,24.2,-0.01607923,-0.001963726,-0.1841067,0.02547013,-1.663115,0.2537548,0.6445538,-0.03,0.04,0.21,96.55
12155,67246382,1,0.53,0.86,24.2,-0.01534607,-0.001969134,-0.1835576,0.02437144,-1.663287,0.2537308,0.6425111,-0.03,0.04,0.21,96.55
12200,67256351,1,0.53,0.86,24.2,-0.01595667,-0.002422528,-0.1817789,0.02369475,-1.663087,0.2536219,0.6430718,-0.03,0.04,0.21,96.55
12247,67269726,1,0.53,0.86,24.2,-0.01617122,-0.00182631,-0.1823933,0.02036743,-1.662956,0.2535106,0.6429403,-0.03,0.04,0.22,96.55
12292,67279444,1,0.52,0.86,24.2,-0.016186,-0.002752884,-0.1819543,0.01802844,-1.662794,0.253409,0.643221,-0.03,0.04,0.22,96.55
12336,67289346,1,0.52,0.86,24.2,-0.01579238,-0.002602248,-0.1828253,0.009854721,-1.662955,0.2533846,0.6414036,-0.03,0.04,0.22,96.55
12378,67299669,1,0.52,0.86,24.2,-0.01575802,-0.002543683,-0.1825611,0.0009355792,-1.662791,0.2532732,0.6416109,-0.03,0.04,0.21,96.55
12421,67313343,1,0.52,0.86,24.2,-0.01584326,-0.003044943,-0.1809418,-0.00418062,-1.662624,0.2532248,0.6425746,-0.03,0.04,0.21,96.55
12465,67323384,1,0.52,0.86,24.19,-0.0163,-0.002616799,-0.180016,-0.008315573999999999,-1.662415,0.2531916,0.644103,-0.03,0.04,0.21,96.55
12516,67333838,1,0.51,0.87,24.19,-0.01707957,-0.002063137,-0.1802674,-0.004646685,-1.662579,0.2531672,0.6423113,-0.03,0.04,0.21,96.55
12561,67344324,1,0.51,0.86,24.19,-0.01596871,-0.002894585,-0.1778015,0.002294843,-1.662406,0.2531369,0.6434972,-0.03,0.04,0.21,96.55
12606,67354684,1,0.51,0.86,24.18,-0.01633935,-0.004374868,-0.1755888,0.01132227,-1.662226,0.2531042,0.6447278,-0.03,0.04,0.21,96.55
12651,67364804,1,0.51,0.86,24.18,-0.01695334,-0.003889629,-0.1744151,0.01911838,-1.662067,0.2530691,0.6457787,-0.03,0.04,0.21,96.55
12695,67374568,1,0.51,0.86,24.18,-0.01642204,-0.0052683,-0.1718744,0.02594323,-1.661923,0.2530309,0.6467049,-0.03,0.04,0.21,96.55
12743,67387492,1,0.51,0.85,24.18,-0.01609538,-0.006888212,-0.1697362,0.03455828,-1.661838,0.2529652,0.6471497,-0.03,0.04,0.22,96.55
12787,67397129,1,0.51,0.85,24.19,-0.01683912,-0.007719075,-0.1697554,0.03629653,-1.661708,0.2529157,0.6481125,-0.03,0.04,0.22,96.55
12834,67407954,1,0.51,0.85,24.18,-0.0185124,-0.008804444,-0.1685077,0.04231782,-1.661902,0.2528287,0.6462729,-0.03,0.04,0.22,96.55
12879,67418022,1,0.52,0.86,24.19,-0.01915138,-0.009354194,-0.1679259,0.04337347,-1.661821,0.2527534,0.6469682,-0.03,0.04,0.22,96.55
12926,67427688,1,0.52,0.86,24.19,-0.01848947,-0.008593228,-0.1678962,0.03775729,-1.661752,0.2526819,0.6475634,-0.03,0.04,0.21,96.55
12972,67438307,1,0.52,0.86,24.19,-0.0184952,-0.009379554999999999,-0.1673616,0.03541685,-1.661955,0.2525804,0.6457052,-0.03,0.04,0.21,96.55
13016,67448300,1,0.52,0.86,24.18,-0.01775844,-0.008338879,-0.1664945,0.02576521,-1.662136,0.2524898,0.6440412,-0.03,0.04,0.21,96.55
13061,67458297,1,0.52,0.86,24.18,-0.01745786,-0.008142635,-0.1665353,0.0174254,-1.662059,0.2524265,0.6445991,-0.03,0.04,0.21,96.55
13106,67468752,1,0.52,0.86,24.18,-0.01646944,-0.009058617,-0.1645241,0.01368848,-1.661991,0.25236,0.6450156,-0.03,0.04,0.21,96.55
13151,67479485,1,0.51,0.86,24.18,-0.01639856,-0.008783328999999999,-0.1632033,0.00908285,-1.661941,0.2522846,0.6451873,-0.03,0.04,0.21,96.55
13198,67492331,1,0.51,0.85,24.17,-0.01686431,-0.008911281,-0.1616435,0.002960762,-1.661939,0.2521931,0.6452177,-0.03,0.04,0.21,96.55
13236,67503037,1,0.51,0.85,24.17,-0.01632762,-0.009412881,-0.1592764,0.004555815,-1.661522,0.2520118,0.6476082,-0.03,0.04,0.21,96.55
13281,67513204,1,0.51,0.85,24.17,-0.01752519,-0.009109054,-0.1572163,0.01103617,-1.66169,0.2519174,0.6460248,-0.03,0.04,0.21,96.55
13325,67523118,1,0.51,0.84,24.17,-0.01826825,-0.008972043000000001,-0.1571768,0.01746696,-1.661303,0.2517353,0.6482761,-0.03,0.04,0.21,96.55
13373,67533193,1,0.5,0.84,24.17,-0.01840255,-0.008152061,-0.1558623,0.02826814,-1.660947,0.251565,0.6502994,-0.03,0.04,0.21,96.55
13419,67543806,1,0.51,0.85,24.17,-0.01885856,-0.007156173,-0.153213,0.04435381,-1.660635,0.251404,0.651994,-0.03,0.04,0.21,96.55
13463,67553799,1,0.51,0.85,24.18,-0.0175893,-0.00722154,-0.1534865,0.05390054,-1.660316,0.2512599,0.6536729,-0.03,0.04,0.21,96.55
13508,67563601,1,0.51,0.85,24.17,-0.01666359,-0.008138354,-0.1532899,0.06564801000000001,-1.660008,0.2511129,0.655158,-0.03,0.04,0.22,96.55
13553,67573986,1,0.52,0.85,24.18,-0.01692156,-0.008419569,-0.1533861,0.07458919,-1.659718,0.2509645,0.6565636,-0.03,0.04,0.22,96.55
13599,67584931,1,0.52,0.84,24.18,-0.01723745,-0.00852782,-0.153415,0.08548293999999999,-1.659904,0.2508717,0.6548821,-0.03,0.04,0.22,96.55
13643,67595414,1,0.52,0.83,24.18,-0.01756264,-0.008138375999999999,-0.1535678,0.08154454999999999,-1.660096,0.2507811,0.6531944,-0.03,0.04,0.22,96.55
13688,67605468,1,0.52,0.83,24.18,-0.01690997,-0.008768821,-0.152475,0.07968500000000001,-1.659816,0.2506282,0.6545481,-0.03,0.04,0.21,96.55
13733,67615385,1,0.52,0.82,24.17,-0.01609934,-0.009708649999999999,-0.1506699,0.07210235,-1.659544,0.250469,0.6557993,-0.03,0.04,0.21,96.55
13777,67625974,1,0.51,0.82,24.17,-0.01646468,-0.008533193,-0.150214,0.06933338,-1.659707,0.2503774,0.6542923,-0.03,0.04,0.21,96.55
13825,67636476,1,0.51,0.83,24.17,-0.01566522,-0.008194958,-0.1477577,0.06744625999999999,-1.659463,0.2502213,0.6552603,-0.03,0.04,0.21,96.55
13870,67646480,1,0.51,0.82,24.16,-0.01476841,-0.008660473,-0.1482152,0.06328977,-1.659215,0.2500828,0.6562476,-0.03,0.04,0.21,96.55
13915,67656424,1,0.51,0.82,24.16,-0.01438766,-0.009257048,-0.1457225,0.06237401,-1.658979,0.2499383,0.6570905,-0.03,0.04,0.21,96.55
13959,67666416,1,0.51,0.83,24.16,-0.01360232,-0.01060637,-0.1447985,0.05935217,-1.659117,0.2498407,0.6556277,-0.03,0.04,0.21,96.55
14005,67676482,1,0.52,0.83,24.16,-0.01300572,-0.01104027,-0.1441074,0.05504941,-1.658877,0.2496791,0.6563857,-0.03,0.04,0.21,96.55
14053,67689799,1,0.52,0.83,24.17,-0.01441904,-0.01015475,-0.1443151,0.05027491,-1.658699,0.2494973,0.6565754,-0.03,0.04,0.21,96.55
14099,67702979,1,0.52,0.83,24.17,-0.01355378,-0.01084412,-0.143243,0.04543407,-1.658541,0.249313,0.6566445,-0.03,0.04,0.21,96.55
14142,67714141,1,0.52,0.83,24.18,-0.01260871,-0.01013999,-0.1424693,0.04542651,-1.65799,0.2490724,0.6583769,-0.03,0.04,0.21,96.55
14189,67724443,1,0.53,0.83,24.18,-0.01312487,-0.01050626,-0.1406174,0.05147362,-1.65746,0.2488312,0.6599417,-0.03,0.04,0.21,96.55
14233,67734404,1,0.53,0.83,24.18,-0.01279873,-0.01098977,-0.1400609,0.05572166,-1.656946,0.2486097,0.6615004,-0.03,0.04,0.21,96.55
14282,67744419,1,0.53,0.82,24.18,-0.01217192,-0.01048976,-0.1383634,0.06137259,-1.656455,0.2483867,0.6628922,-0.03,0.04,0.22,96.55
14327,67754429,1,0.53,0.83,24.18,-0.01273022,-0.009443019,-0.1380745,0.06457905,-1.656578,0.2482862,0.661503,-0.03,0.04,0.22,96.55
14372,67764446,1,0.53,0.83,24.19,-0.01146423,-0.009450398,-0.1368864,0.06683782000000001,-1.656101,0.2480867,0.6627958,-0.03,0.04,0.21,96.55
14417,67775235,1,0.53,0.83,24.19,-0.01035681,-0.009629598,-0.1358975,0.06384723,-1.656207,0.2479889,0.6614255,-0.03,0.04,0.21,96.55
14461,67785935,1,0.52,0.83,24.19,-0.009182366000000001,-0.01055683,-0.135745,0.05871992,-1.655732,0.2477719,0.6625016,-0.03,0.04,0.21,96.55
14504,67796896,1,0.52,0.83,24.18,-0.008585713999999999,-0.01176943,-0.1355002,0.0552798,-1.655273,0.2475449,0.6635855000000001,-0.03,0.04,0.21,96.55
14548,67807463,1,0.52,0.83,24.18,-0.008367362,-0.01196272,-0.1340634,0.05393682,-1.654838,0.2473217,0.6645065,-0.03,0.04,0.21,96.55
14594,67817456,1,0.52,0.83,24.19,-0.007767522,-0.01251661,-0.1331599,0.05222537,-1.65492,0.2471972,0.6631842,-0.03,0.04,0.21,96.55
14640,67827940,1,0.52,0.83,24.19,-0.007365683,-0.01159756,-0.132313,0.04981843,-1.654482,0.2469806,0.6641644,-0.03,0.04,0.21,96.55
14685,67837963,1,0.51,0.82,24.19,-0.007867176,-0.01134354,-0.1320119,0.0426332,-1.654064,0.2467746,0.6650389,-0.03,0.04,0.21,96.55
14734,67848149,1,0.52,0.82,24.18,-0.008349528,-0.01132162,-0.1308314,0.04074182,-1.654142,0.2466588,0.6637077,-0.03,0.04,0.21,96.55
14778,67858918,1,0.52,0.8100000000000001,24.18,-0.008793909000000001,-0.01111851,-0.1289494,0.03777548,-1.653759,0.2464508,0.6643753999999999,-0.03,0.04,0.21,96.55
14823,67868617,1,0.52,0.8100000000000001,24.18,-0.008401911999999999,-0.01143929,-0.1291227,0.03404267,-1.65339,0.2462549,0.665011,-0.03,0.04,0.21,96.55
14868,67878653,1,0.52,0.8100000000000001,24.18,-0.006708349,-0.01110097,-0.1267664,0.0321185,-1.653028,0.2460673,0.6655788,-0.03,0.04,0.21,96.55
14913,67888918,1,0.53,0.8100000000000001,24.18,-0.007448465,-0.009915943,-0.1246937,0.03013052,-1.652683,0.2458868,0.6660131,-0.03,0.04,0.21,96.55
14958,67899377,1,0.53,0.8100000000000001,24.18,-0.007561292,-0.01127618,-0.1233108,0.02890021,-1.652765,0.2457658,0.6646506,-0.03,0.04,0.21,96.55
15004,67912948,1,0.53,0.82,24.18,-0.007578465,-0.01117459,-0.1206004,0.02584422,-1.65246,0.2455423,0.6647102,-0.03,0.04,0.21,96.55
15047,67923932,1,0.53,0.82,24.18,-0.007364708,-0.01125408,-0.1208263,0.02316711,-1.651889,0.2454456,0.6657006,-0.03,0.04,0.21,96.55
15091,67934699,1,0.52,0.82,24.18,-0.00720483,-0.01071097,-0.1178312,0.0267197,-1.651347,0.2453552,0.6665538,-0.03,0.04,0.21,96.55
15140,67945013,1,0.53,0.82,24.18,-0.00601945,-0.01001351,-0.1166419,0.02811116,-1.650813,0.2452804,0.6674231,-0.03,0.04,0.21,96.55
15186,67954892,1,0.52,0.83,24.18,-0.006159951,-0.009467059999999999,-0.1163305,0.0259218,-1.650305,0.2452128,0.6681833,-0.03,0.04,0.21,96.55
15230,67965332,1,0.52,0.83,24.18,-0.005002129,-0.009537761000000001,-0.1154348,0.02703921,-1.650365,0.2451072,0.6669106,-0.03,0.04,0.21,96.55
15275,67975976,1,0.52,0.83,24.18,-0.004114103,-0.008233147999999999,-0.1132152,0.02775289,-1.649857,0.2450445,0.6675858,-0.03,0.04,0.21,96.55
15319,67986353,1,0.52,0.82,24.18,-0.00421507,-0.009730796,-0.11265,0.02285734,-1.649902,0.2449456,0.6663435,-0.03,0.04,0.21,96.55
15364,67996368,1,0.52,0.82,24.19,-0.004240231,-0.009670842000000001,-0.1111129,0.01809635,-1.649408,0.2448762,0.6669994,-0.03,0.04,0.21,96.55
15411,68008987,1,0.52,0.82,24.19,-0.005096501,-0.008943512000000001,-0.1100426,0.01218458,-1.648955,0.2447819,0.6674729,-0.03,0.04,0.21,96.55
15456,68018646,1,0.52,0.82,24.19,-0.00427946,-0.00869698,-0.1093294,0.009062677999999999,-1.648506,0.2447328,0.6682567,-0.03,0.04,0.21,96.55
15503,68028988,1,0.53,0.82,24.19,-0.003770723,-0.009697564000000001,-0.1097364,0.008136137999999999,-1.648551,0.2446304,0.6670669,-0.03,0.04,0.21,96.55
15547,68039578,1,0.53,0.83,24.19,-0.002986758,-0.01028283,-0.1081908,0.008351707999999999,-1.648114,0.2445628,0.6676582,-0.03,0.04,0.21,96.55
15595,68049630,1,0.54,0.83,24.19,-0.002668466,-0.009717491999999999,-0.1056971,0.008566895,-1.647692,0.2444975,0.6681704000000001,-0.03,0.04,0.21,96.55
15640,68059887,1,0.54,0.82,24.19,-0.00228562,-0.009823873,-0.1052003,0.006504147,-1.647287,0.2444323,0.6685928,-0.03,0.04,0.21,96.55
15685,68070012,1,0.54,0.82,24.2,-0.002721463,-0.009311715999999999,-0.1035214,0.007272143,-1.646907,0.2443745,0.6689022,-0.03,0.04,0.21,96.55
15730,68080841,1,0.54,0.82,24.2,-0.002619951,-0.009218383,-0.1047595,0.006103091,-1.646936,0.2442695,0.6677489,-0.03,0.04,0.21,96.55
15781,68096814,1,0.54,0.8100000000000001,24.19,-0.001509055,-0.008803818,-0.1035521,0.005463845,-1.645836,0.2442963,0.6694055,-0.03,0.04,0.21,96.55
15823,68107386,1,0.54,0.8,24.19,-0.001731172,-0.007878793,-0.1051552,0.003832506,-1.645142,0.2443373,0.6701858000000001,-0.03,0.04,0.21,96.55
15867,68118006,1,0.54,0.8,24.19,-0.002332493,-0.008834870999999999,-0.1050073,0.007206982,-1.645161,0.244255,0.6691394000000001,-0.03,0.04,0.21,96.55
15911,68127984,1,0.53,0.8,24.19,-0.001577639,-0.009362405000000001,-0.1035336,0.01091095,-1.644492,0.2442868,0.6699041,-0.03,0.04,0.21,96.55
15955,68138019,1,0.53,0.8,24.19,-0.003871209,-0.008485993000000001,-0.1015663,0.01634837,-1.643863,0.244324,0.6705611,-0.03,0.04,0.22,96.55
16000,68148374,1,0.53,0.8,24.19,-0.004057294,-0.00846938,-0.1003504,0.01995035,-1.643285,0.2443507,0.6710163,-0.03,0.04,0.22,96.55
16050,68158335,1,0.54,0.8100000000000001,24.2,-0.00276068,-0.008911923,-0.09954710999999999,0.02199487,-1.642726,0.2443832,0.6714957,-0.03,0.04,0.22,96.55
16094,68168686,1,0.54,0.8100000000000001,24.2,-0.0013767,-0.009031633000000001,-0.09819672,0.02415742,-1.642187,0.2444173,0.6718816,-0.03,0.04,0.22,96.55
16140,68178623,1,0.54,0.82,24.19,-0.0002335938,-0.00780166,-0.098569,0.02343833,-1.641663,0.2444577,0.6721721000000001,-0.03,0.04,0.22,96.55
16185,68188621,1,0.54,0.82,24.19,-0.001901455,-0.006029469,-0.09917860000000001,0.0229647,-1.641678,0.2443836,0.6711813,-0.03,0.04,0.22,96.55
16232,68201886,1,0.54,0.8100000000000001,24.18,8.398399e-05,-0.006679914,-0.09901424,0.02035838,-1.641171,0.2444032,0.6711009999999999,-0.03,0.04,0.22,96.55
16277,68212284,1,0.52,0.8100000000000001,24.18,0.0003913166,-0.0058826,-0.09795864999999999,0.01839656,-1.64067,0.2444385,0.6712379000000001,-0.03,0.04,0.22,96.55
16323,68222086,1,0.53,0.8100000000000001,24.18,0.001201256,-0.00556872,-0.09774513999999999,0.01494513,-1.640183,0.2444713,0.6712852,-0.03,0.04,0.22,96.55
16370,68232128,1,0.54,0.8100000000000001,24.18,0.002425378,-0.00737846,-0.0991393,0.008893234999999999,-1.639718,0.2445081,0.6712548,-0.03,0.04,0.22,96.55
16415,68242571,1,0.55,0.82,24.18,0.00328612,-0.007893821000000001,-0.1017933,0.0009113665,-1.639701,0.2444248,0.6701421,-0.03,0.04,0.22,96.55
16462,68253196,1,0.55,0.83,24.19,0.003418277,-0.008574666,-0.1006303,-0.004300308,-1.639241,0.2444454,0.6700481,-0.03,0.04,0.22,96.55
16508,68263394,1,0.54,0.84,24.19,0.003770195,-0.007899608000000001,-0.1010549,-0.01149888,-1.638787,0.2444571,0.6697781,-0.03,0.04,0.22,96.55
16553,68273365,1,0.53,0.84,24.19,0.004194394,-0.006590846,-0.1012438,-0.0179876,-1.638349,0.244475,0.6695577,-0.03,0.04,0.22,96.55
16598,68283903,1,0.53,0.84,24.17,0.003350776,-0.007182391,-0.09795181,-0.01956559,-1.638304,0.2443984,0.6685581,-0.03,0.04,0.22,96.55
16642,68293969,1,0.53,0.83,24.17,0.003990574,-0.008390681000000001,-0.1007139,-0.02753131,-1.637878,0.2444192,0.6683011,-0.03,0.04,0.22,96.55
16683,68305756,1,0.53,0.83,24.17,0.004005044,-0.00701974,-0.09968222,-0.02937975,-1.637088,0.2446477,0.6688752,-0.03,0.04,0.22,96.55
16727,68315754,1,0.53,0.83,24.17,0.006850971,-0.00756165,-0.09706756,-0.0256174,-1.636327,0.2448891,0.6697358,-0.03,0.04,0.22,96.55
16772,68325609,1,0.55,0.83,24.17,0.008410233,-0.008246109,-0.09639995,-0.02183324,-1.635601,0.2451411,0.6704867,-0.03,0.04,0.22,96.55
16817,68336132,1,0.5600000000000001,0.84,24.17,0.008501158999999999,-0.007156344,-0.09702764,-0.01862255,-1.635544,0.245104,0.6695156,-0.03,0.04,0.22,96.55
16862,68346502,1,0.55,0.82,24.18,0.006584142,-0.008436143,-0.09692183,-0.01466678,-1.634836,0.245344,0.6700933,-0.03,0.04,0.22,96.55
16912,68356501,1,0.53,0.84,24.19,0.006627838,-0.00422965,-0.09711284000000001,-0.01137782,-1.63416,0.2455693,0.6706651,-0.03,0.04,0.22,96.55
16957,68366912,1,0.52,0.84,24.19,0.007507099,-0.003466811,-0.09802122000000001,-0.01087699,-1.633503,0.2457945,0.6711579,-0.03,0.04,0.22,96.55
17003,68377437,1,0.54,0.84,24.2,0.006448639,-0.00434907,-0.09690211999999999,-0.0060899,-1.633428,0.2457528,0.6701025,-0.03,0.04,0.22,96.55
17048,68387445,1,0.55,0.85,24.2,0.006295744,-0.00422322,-0.09613143,-0.003444199,-1.632803,0.24598,0.6705073,-0.03,0.04,0.22,96.55
17092,68397693,1,0.54,0.85,24.2,0.006401293,-0.00467968,-0.09452988,-0.002715125,-1.632747,0.2459313,0.6695583000000001,-0.03,0.04,0.22,96.55
17137,68408988,1,0.55,0.86,24.2,0.006659841,-0.004258498,-0.09343563000000001,-0.004190085,-1.632126,0.2461336,0.6698719,-0.03,0.04,0.21,96.55
17182,68418665,1,0.54,0.87,24.2,0.00537503,-0.001643023,-0.09613926,-0.008743063000000001,-1.631541,0.2463447,0.6701835,-0.03,0.04,0.21,96.55
17230,68431817,1,0.55,0.86,24.2,0.005883109,-0.004213681,-0.09470244,-0.007461399,-1.630958,0.2465476,0.6703719,-0.03,0.04,0.22,96.55
17275,68442002,1,0.5600000000000001,0.87,24.17,0.005305268,-0.003617517,-0.0943088,-0.007297895,-1.630419,0.2467439,0.6707610000000001,-0.03,0.04,0.22,96.55
17321,68452436,1,0.5600000000000001,0.87,24.15,0.006257595,-0.007067109,-0.09589977,-0.007042331,-1.63036,0.2466851,0.6696987,-0.03,0.04,0.22,96.55
17370,68463051,1,0.57,0.86,24.14,0.00814353,-0.006924615,-0.09584595,-0.006453522,-1.629818,0.2468571,0.6699861,-0.03,0.04,0.22,96.55
17415,68472827,1,0.54,0.86,24.14,0.007248001,-0.004483405,-0.09635166000000001,-0.006482585,-1.62929,0.247021,0.6701868,-0.03,0.04,0.22,96.55
17460,68483016,1,0.52,0.87,24.13,0.00966152,-0.003748256,-0.09237434999999999,-0.003571441,-1.62919,0.2469584,0.6692418,-0.03,0.04,0.22,96.55
17504,68492925,1,0.53,0.87,24.12,0.01045241,-0.005572401,-0.09284057,-0.005544506,-1.628663,0.2471156,0.6694059,-0.03,0.04,0.21,96.55
17551,68503045,1,0.51,0.87,24.14,0.0111795,-0.008876903,-0.08883145000000001,-0.004917415,-1.628556,0.2470241,0.6685006,-0.03,0.04,0.21,96.55
17590,68514505,1,0.49,0.87,24.16,0.01322512,-0.003004313,-0.08789350999999999,-0.006611482,-1.627888,0.2471667,0.669513,-0.03,0.04,0.21,96.55
17634,68524930,1,0.47,0.87,24.19,0.01101867,-0.0001209141,-0.08326761000000001,0.001433039,-1.627277,0.2473594,0.6708993,-0.03,0.04,0.21,96.55
17679,68534922,1,0.5,0.86,24.19,0.01090863,-0.004317286,-0.08586278,0.001695975,-1.626702,0.2475475,0.6721652,-0.03,0.04,0.21,96.55
17724,68544893,1,0.49,0.88,24.23,0.01350055,-0.008357406,-0.08324039,0.01135436,-1.62614,0.2476981,0.6732836,-0.03,0.04,0.21,96.55
17770,68555358,1,0.47,0.87,24.24,0.01259155,-0.004402751,-0.08900321,0.01588735,-1.625981,0.2476155,0.672336,-0.03,0.04,0.21,96.55
17818,68565874,1,0.47,0.88,24.25,0.008856294000000001,-0.001741461,-0.08427295,0.02770706,-1.625448,0.2477972,0.6733261,-0.03,0.04,0.21,96.55
17863,68575955,1,0.52,0.87,24.23,0.009598479,-0.004682633,-0.08501108,0.0334928,-1.624954,0.247977,0.6742321999999999,-0.03,0.04,0.22,96.55
17908,68585860,1,0.52,0.87,24.24,0.01421895,-0.00917517,-0.07877049999999999,0.04443511,-1.624449,0.2481211,0.6750272,-0.03,0.04,0.22,96.55
17953,68595913,1,0.53,0.85,24.22,0.0137918,-0.00726596,-0.08018166,0.04665243,-1.623925,0.2482447,0.6757722,-0.03,0.04,0.22,96.55
18000,68608919,1,0.52,0.87,24.2,0.01333958,-0.0001174361,-0.07464574,0.05616507,-1.623417,0.2483963,0.6762056,-0.03,0.04,0.22,96.55
18046,68619917,1,0.57,0.87,24.15,0.01630536,-0.002783564,-0.07899067999999999,0.05406354,-1.622968,0.2485554,0.6767536,-0.03,0.04,0.22,96.55
18091,68630315,1,0.5600000000000001,0.87,24.15,0.02140674,-0.008195391,-0.07336751,0.06115343,-1.622482,0.2486577,0.6771969,-0.03,0.04,0.22,96.55
18135,68640990,1,0.55,0.86,24.13,0.01656167,-0.004878829,-0.07795158000000001,0.05758588,-1.622306,0.2485715,0.6764449,-0.03,0.04,0.22,96.55
18180,68651426,1,0.53,0.87,24.13,0.01317356,-0.000707624,-0.06967326,0.06404674,-1.621882,0.2487049,0.6768274,-0.03,0.04,0.22,96.55
18224,68661452,1,0.57,0.88,24.12,0.01620988,-0.006002003,-0.07826569999999999,0.05028273,-1.621488,0.2488184,0.6772299000000001,-0.03,0.04,0.22,96.55
18273,68672607,1,0.53,0.88,24.14,0.02231672,-0.0114061,-0.07485285,0.04949565,-1.621277,0.2487063,0.6764041,-0.03,0.04,0.22,96.55
18319,68682484,1,0.5,0.88,24.16,0.0140674,-0.006805799,-0.07787760000000001,0.04160376,-1.620849,0.2487494,0.676717,-0.03,0.04,0.22,96.55
18366,68693201,1,0.49,0.89,24.17,0.009973493999999999,-0.002414685,-0.07603456,0.03864682,-1.620504,0.2488379,0.6769514,-0.03,0.04,0.22,96.55
18405,68704241,1,0.51,0.91,24.19,0.01596593,-0.007897532000000001,-0.07864036000000001,0.03291331,-1.619926,0.2486727,0.677959,-0.03,0.04,0.22,96.55
18451,68714497,1,0.48,0.88,24.2,0.01970509,-0.01189102,-0.07524415,0.03686621,-1.619285,0.2484712,0.6788591,-0.03,0.04,0.22,96.55
18499,68727664,1,0.46,0.9,24.21,0.008317579,-0.005765402,-0.07268291,0.03982534,-1.618689,0.2482768,0.6796092,-0.03,0.04,0.22,96.55
18543,68737854,1,0.49,0.88,24.18,0.009466449,-0.007260289,-0.07341916,0.04054552,-1.618227,0.2481556,0.6805091,-0.03,0.04,0.22,96.55
18588,68747662,1,0.51,0.91,24.19,0.01998318,-0.01227745,-0.07189962,0.04411971,-1.618081,0.2480691,0.6797874,-0.03,0.04,0.22,96.55
18632,68757915,1,0.49,0.88,24.16,0.02005484,-0.01308969,-0.0687319,0.04826466,-1.617497,0.2478725,0.6806037,-0.03,0.04,0.22,96.55
18677,68767720,1,0.51,0.9,24.15,0.00941587,-0.008393032,-0.06944205000000001,0.04944672,-1.617012,0.2477152,0.6813253,-0.03,0.04,0.22,96.55
18726,68778141,1,0.55,0.88,24.11,0.0091524,-0.009929591999999999,-0.06862143,0.04960556,-1.6166,0.2475943,0.6819784,-0.03,0.04,0.22,96.55
18771,68788682,1,0.57,0.93,24.12,0.02397417,-0.01512927,-0.06999234999999999,0.04814448,-1.616105,0.247424,0.6824629,-0.03,0.04,0.22,96.55
18817,68798667,1,0.55,0.88,24.08,0.02136233,-0.01401592,-0.0674959,0.04948365,-1.61556,0.2472211,0.6829312,-0.03,0.04,0.22,96.55
18862,68809018,1,0.55,0.93,24.08,0.01056964,-0.008773212000000001,-0.06774672,0.04824504,-1.615119,0.2470382,0.6832566,-0.03,0.04,0.22,96.55
18907,68819857,1,0.58,0.9,24.07,0.01220332,-0.009032989,-0.06640699,0.04876093,-1.615013,0.2469521,0.6825826,-0.03,0.04,0.22,96.55
18952,68829912,1,0.59,0.9399999999999999,24.1,0.02891373,-0.01305604,-0.06696808,0.0462896,-1.61454,0.2467786,0.6831082000000001,-0.03,0.04,0.22,96.55
18996,68839901,1,0.55,0.89,24.09,0.02103638,-0.01198874,-0.06581228,0.04526037,-1.614016,0.2465886,0.6835607,-0.03,0.04,0.22,96.55
19041,68850838,1,0.52,0.92,24.11,0.008983662,-0.005501896,-0.0605748,0.04692702,-1.613624,0.2464223,0.6838962,-0.03,0.04,0.22,96.55
19085,68860841,1,0.54,0.91,24.12,0.01198922,-0.008060342,-0.06640611,0.03751002,-1.613306,0.2462818,0.6842443,-0.03,0.04,0.22,96.55
19132,68871304,1,0.52,0.92,24.15,0.02864276,-0.01036375,-0.06410483,0.03686473,-1.613054,0.2461593,0.6835174000000001,-0.03,0.04,0.22,96.55
19180,68881553,1,0.49,0.91,24.16,0.01755473,-0.009110684000000001,-0.06858470999999999,0.02862194,-1.61259,0.2459858,0.6837816,-0.03,0.04,0.22,96.55
19225,68892193,1,0.48,0.92,24.15,0.008880328999999999,-0.005459873,-0.06198475,0.03196806,-1.612262,0.2458406,0.6839721,-0.03,0.04,0.22,96.55
19268,68903135,1,0.51,0.96,24.17,0.01968034,-0.01195152,-0.06852361,0.02169102,-1.6121,0.2457511,0.6851456,-0.03,0.04,0.22,96.55
19310,68913522,1,0.5,0.93,24.14,0.0321353,-0.01512634,-0.06538351000000001,0.02386769,-1.611784,0.2455992,0.6844264,-0.03,0.04,0.22,96.55
19355,68923418,1,0.49,0.97,24.15,0.02026673,-0.01390924,-0.06659397,0.02292442,-1.611522,0.2454954,0.6855691,-0.03,0.04,0.22,96.55
19399,68933486,1,0.52,0.93,24.1,0.0120951,-0.01422534,-0.06246809,0.02571154,-1.611388,0.2453861,0.6849483,-0.03,0.04,0.22,96.55
19444,68944422,1,0.55,1,24.13,0.02862029,-0.01571709,-0.06108283,0.02770251,-1.611196,0.2452665,0.68613,-0.03,0.04,0.22,96.55
19489,68954941,1,0.54,0.92,24.08,0.02987205,-0.01507608,-0.06317971999999999,0.02761024,-1.610889,0.2451484,0.6872916,-0.03,0.04,0.22,96.55
19533,68964907,1,0.53,0.97,24.09,0.01730244,-0.01212049,-0.05715765,0.03438453,-1.610681,0.2450581,0.6883432,-0.03,0.04,0.22,96.55
19578,68974898,1,0.58,0.92,24.05,0.009666546,-0.01478428,-0.05968183,0.03535432,-1.610583,0.2449767,0.689329,-0.03,0.04,0.22,96.55
19628,68984931,1,0.59,0.99,24.1,0.02816803,-0.01681121,-0.05533175,0.04500819,-1.610426,0.2448489,0.6887323,-0.03,0.04,0.22,96.55
19673,68995373,1,0.5600000000000001,0.93,24.07,0.02228123,-0.01258289,-0.05978738,0.04450458,-1.61013,0.2447177,0.689573,-0.03,0.04,0.22,96.55
19717,69005449,1,0.53,0.95,24.09,0.008678989,-0.01021163,-0.05278483,0.05397226,-1.609976,0.2446243,0.6903558,-0.03,0.04,0.22,96.55
19762,69015368,1,0.57,0.95,24.1,0.003689061,-0.01146736,-0.057819,0.04920371,-1.609916,0.2445147,0.6897888,-0.03,0.04,0.22,96.55
19807,69025375,1,0.5600000000000001,0.98,24.13,0.02232259,-0.01160429,-0.05312979,0.05393724,-1.609774,0.2444158,0.6905274,-0.03,0.04,0.22,96.55
19851,69035429,1,0.53,0.96,24.13,0.01835975,-0.007802541,-0.05689327,0.04947738,-1.609547,0.2443268,0.6911933,-0.03,0.04,0.22,96.55
19896,69045424,1,0.5,0.98,24.14,0.006193021,-0.004376146,-0.05026228,0.05391894,-1.609388,0.2442487,0.6906414,-0.03,0.04,0.22,96.55
19940,69055430,1,0.53,1,24.14,0.005495868,-0.008178906999999999,-0.05461467,0.0480779,-1.609359,0.2441819,0.6914671999999999,-0.03,0.04,0.22,96.55
19985,69065393,1,0.52,1,24.14,0.02401542,-0.01057236,-0.05009164,0.05114943,-1.609213,0.2440871,0.6922174,-0.03,0.04,0.22,96.55
20029,69075438,1,0.5,0.99,24.13,0.01717578,-0.006262472,-0.05387404,0.04486832,-1.60896,0.2439986,0.691683,-0.03,0.04,0.22,96.55
20078,69086033,1,0.49,0.98,24.11,0.004534362,-0.003705483,-0.04721302,0.04813846,-1.608869,0.2439581,0.6924145,-0.03,0.04,0.22,96.55
20123,69096477,1,0.54,1.02,24.12,0.008734130999999999,-0.006591057,-0.05334792,0.03736177,-1.608848,0.2439004,0.6930256,-0.03,0.04,0.22,96.55
20182,69168176,1,0.58,0.99,24.07,0.003308028,-0.01125838,-0.04964667,0.07020651999999999,-1.608658,0.2445079,0.7002931,-0.03,0.04,0.22,96.55
20227,69178261,1,0.57,1.02,24.11,0.02136707,-0.0135904,-0.04337453,0.08261955,-1.608737,0.2446047,0.7016945999999999,-0.03,0.04,0.22,96.55
20275,69188669,1,0.5600000000000001,1,24.1,0.02338654,-0.01158252,-0.04810419,0.08276843,-1.608514,0.2444692,0.7012332999999999,-0.03,0.04,0.22,96.55
20320,69199480,1,0.51,0.98,24.11,0.004696798,-0.01047359,-0.03712314,0.09745972,-1.60853,0.2445646,0.7025361,-0.03,0.04,0.22,96.55
20367,69209670,1,0.55,1,24.11,-0.001306303,-0.01337569,-0.04240556,0.09446336,-1.608697,0.2446646,0.7038103,-0.03,0.04,0.22,96.55
20412,69219676,1,0.53,0.99,24.12,0.0162954,-0.01498276,-0.03700308,0.09931383000000001,-1.608775,0.2447395,0.7049951,-0.03,0.04,0.22,96.55
20457,69230452,1,0.52,0.99,24.11,0.0097441,-0.01299398,-0.04269379,0.09492857,-1.60859,0.2446063,0.7045252,-0.03,0.04,0.22,96.55
20501,69240983,1,0.49,0.95,24.08,-0.005862562,-0.01196247,-0.0369456,0.09997673,-1.608698,0.2447017,0.7056357,-0.03,0.04,0.22,96.55
20546,69250907,1,0.53,0.99,24.09,-0.006211537,-0.01518377,-0.04123369,0.09462352,-1.608919,0.2447701,0.7066076,-0.03,0.04,0.22,96.55
20590,69260993,1,0.52,0.96,24.08,0.009390086000000001,-0.01560087,-0.03779477,0.09527425,-1.608862,0.2446414,0.70624,-0.03,0.04,0.22,96.55
20636,69271442,1,0.52,1.01,24.08,0.004797807,-0.00887868,-0.04545659,0.08277833,-1.608901,0.2447045,0.7070601,-0.03,0.04,0.22,96.55
20680,69282054,1,0.53,0.97,24.04,-0.009539883000000001,-0.008351391999999999,-0.04490655,0.07957123000000001,-1.609082,0.2448061,0.7078837,-0.03,0.04,0.22,96.55
20732,69294535,1,0.55,1.04,24.07,0.007943775,-0.01298764,-0.0423764,0.07626874,-1.609306,0.2448184,0.7084442,-0.03,0.04,0.22,96.55
20777,69304332,1,0.55,1,24.05,0.01207233,-0.009263509,-0.04848773,0.0650671,-1.609389,0.2448449,0.7090793,-0.03,0.04,0.22,96.55
20821,69318258,1,0.55,0.97,24.03,-0.01196216,-0.01198569,-0.03939429,0.06977015,-1.609157,0.244745,0.7098228,-0.03,0.04,0.22,96.55
20866,69328276,1,0.59,1.03,24.06,-0.008805775,-0.01429566,-0.04450046,0.06163939,-1.609255,0.2446278,0.7093878,-0.03,0.04,0.22,96.55
20911,69338289,1,0.57,0.99,24.07,0.006343671,-0.01721252,-0.04051632,0.06313712,-1.609012,0.244544,0.7102694000000001,-0.03,0.04,0.22,96.55
20955,69348302,1,0.5600000000000001,1.03,24.09,0.002246758,-0.0144903,-0.0444779,0.05737375,-1.608745,0.2444621,0.7113532,-0.03,0.04,0.22,96.55
21000,69358867,1,0.5600000000000001,0.98,24.07,-0.01157804,-0.01154525,-0.04130555,0.05909383,-1.608591,0.2444046,0.7123831,-0.03,0.04,0.22,96.55
