LineNo,TimeUS,C,Roll,Pitch,Yaw,VN,VE,VD,dPD,PN,PE,PD,GX,GY,GZ,OH
542,6.433e+07,1,0.5,0.72,24.23,0.016168,-0.0056434,0.030131,0.048711,-1.6696,0.25788,0.72643,-0.03,0.04,0.21,96.55
1462,6.464e+07,1,0.53,0.73,24.28,0.0081452,-0.0031232,-0.53516,-0.45841,-1.6657,0.25125,0.67917,-0.03,0.04,0.19,96.55
1494,6.4659e+07,1,0.53,0.73,24.27,0.0090894,-0.0032636,-0.53387,-0.46148,-1.6656,0.25079,0.66954,-0.03,0.04,0.2,96.55
1535,6.4669e+07,1,0.53,0.74,24.27,0.0087393,-0.0035317,-0.53209,-0.46238,-1.6656,0.25058,0.66467,-0.03,0.04,0.2,96.55
1575,6.4679e+07,1,0.52,0.73,24.27,0.008291,-0.0034461,-0.53337,-0.46665,-1.6655,0.25054,0.65934,-0.03,0.04,0.2,96.55
1616,6.469e+07,1,0.52,0.73,24.27,0.0081018,-0.0030851,-0.53427,-0.47129,-1.6655,0.25035,0.65446,-0.03,0.04,0.2,96.55
1659,6.4702e+07,1,0.52,0.74,24.27,0.0077262,-0.0028182,-0.53122,-0.47209,-1.6654,0.25017,0.64835,-0.03,0.04,0.2,96.55
1703,6.4718e+07,1,0.52,0.73,24.27,0.0079548,-0.002809,-0.52968,-0.47166,-1.6654,0.25006,0.64623,-0.03,0.04,0.19,96.55
1745,6.4728e+07,1,0.52,0.74,24.27,0.0084342,-0.0038261,-0.52913,-0.45489,-1.6654,0.24995,0.64643,-0.03,0.04,0.2,96.55
1785,6.4739e+07,1,0.51,0.74,24.27,0.0086291,-0.0032068,-0.52623,-0.41763,-1.6654,0.24986,0.6458,-0.03,0.04,0.2,96.55
1826,6.4749e+07,1,0.52,0.74,24.27,0.0074921,-0.0023948,-0.5254,-0.37391,-1.6653,0.24983,0.6401,-0.03,0.04,0.2,96.55
1874,6.476e+07,1,0.52,0.74,24.27,0.0071427,-0.0032858,-0.52339,-0.33639,-1.6653,0.24977,0.63983,-0.03,0.04,0.2,96.55
1917,6.477e+07,1,0.52,0.74,24.27,0.0065275,-0.003469,-0.52165,-0.29993,-1.6653,0.24971,0.63936,-0.03,0.04,0.2,96.55
1958,6.478e+07,1,0.52,0.74,24.27,0.0067894,-0.0032897,-0.51897,-0.26732,-1.6654,0.24966,0.63869,-0.03,0.04,0.2,96.55
1998,6.479e+07,1,0.53,0.74,24.27,0.0063426,-0.0032492,-0.51625,-0.2374,-1.6654,0.24962,0.63782,-0.03,0.04,0.2,96.55
2039,6.48e+07,1,0.53,0.74,24.27,0.006191,-0.0036329,-0.51603,-0.20812,-1.6653,0.24959,0.63267,-0.03,0.04,0.2,96.55
2079,6.481e+07,1,0.53,0.74,24.28,0.0057034,-0.0028577,-0.51436,-0.18677,-1.6653,0.24956,0.63158,-0.03,0.04,0.2,96.55
2126,6.4823e+07,1,0.53,0.74,24.28,0.0046903,-0.0029419,-0.51215,-0.17002,-1.6653,0.24953,0.62982,-0.03,0.04,0.2,96.55
2167,6.4833e+07,1,0.53,0.74,24.28,0.0043319,-0.0019905,-0.51095,-0.15709,-1.6653,0.24951,0.62467,-0.03,0.04,0.2,96.55
2207,6.4843e+07,1,0.53,0.74,24.28,0.0033424,-0.0022005,-0.50873,-0.147,-1.6653,0.24951,0.62381,-0.03,0.04,0.2,96.55
2248,6.4853e+07,1,0.53,0.75,24.28,0.0038346,-0.002658,-0.50755,-0.13587,-1.6653,0.24952,0.62274,-0.03,0.04,0.2,96.55
2292,6.4863e+07,1,0.52,0.75,24.27,0.0039702,-0.0010759,-0.50551,-0.13009,-1.6653,0.24953,0.62092,-0.03,0.04,0.2,96.55
2334,6.4873e+07,1,0.52,0.75,24.27,0.0036621,-0.0010466,-0.50427,-0.12444,-1.6654,0.24956,0.6195,-0.03,0.04,0.2,96.55
2375,6.4883e+07,1,0.51,0.76,24.26,0.0036089,-0.00066462,-0.5037,-0.12416,-1.6654,0.2496,0.61789,-0.03,0.04,0.2,96.55
2417,6.4894e+07,1,0.51,0.76,24.26,0.0033613,-0.00090168,-0.50278,-0.12134,-1.6654,0.24959,0.61291,-0.03,0.04,0.2,96.55
2458,6.4911e+07,1,0.51,0.76,24.25,0.0022067,-0.001105,-0.49587,-0.090232,-1.6654,0.2496,0.6201,-0.03,0.04,0.2,96.55
2499,6.4921e+07,1,0.51,0.76,24.25,0.0028842,-0.00097384,-0.49311,-0.068153,-1.6654,0.24961,0.62285,-0.03,0.04,0.2,96.55
2541,6.4932e+07,1,0.51,0.76,24.25,0.0027896,-0.0015008,-0.49058,-0.035113,-1.6654,0.24963,0.62522,-0.03,0.04,0.2,96.55
2582,6.4942e+07,1,0.52,0.76,24.25,0.0019941,-0.00069976,-0.4914,0.0042173,-1.6654,0.24962,0.61984,-0.03,0.04,0.2,96.55
2622,6.4953e+07,1,0.52,0.76,24.24,0.0013606,-0.00055767,-0.48836,0.03336,-1.6654,0.24965,0.6219,-0.03,0.04,0.2,96.55
2667,6.4963e+07,1,0.52,0.77,24.24,0.0014392,0.00019645,-0.48624,0.05244,-1.6654,0.24968,0.62321,-0.03,0.04,0.2,96.55
2708,6.4974e+07,1,0.53,0.77,24.25,0.0011922,0.00017806,-0.48354,0.064334,-1.6654,0.24972,0.6247,-0.03,0.04,0.2,96.55
2749,6.4984e+07,1,0.52,0.77,24.25,0.0008403,-0.00076354,-0.48189,0.079738,-1.6655,0.24976,0.62542,-0.03,0.04,0.2,96.55
2790,6.4994e+07,1,0.52,0.77,24.25,0.00051431,-0.0010436,-0.48026,0.095684,-1.6655,0.24976,0.6206,-0.03,0.04,0.2,96.55
2830,6.5004e+07,1,0.52,0.78,24.26,0.00056559,-0.0011773,-0.47808,0.10587,-1.6655,0.24979,0.62158,-0.03,0.04,0.2,96.55
2871,6.5015e+07,1,0.52,0.77,24.26,0.0013767,-0.0021285,-0.47598,0.10894,-1.6655,0.24983,0.62226,-0.03,0.04,0.2,96.55
2913,6.5025e+07,1,0.52,0.78,24.26,0.0010781,-0.0024808,-0.4747,0.10012,-1.6655,0.24986,0.62269,-0.03,0.04,0.2,96.55
2954,6.5035e+07,1,0.52,0.78,24.26,0.0010213,-0.0037596,-0.47236,0.095911,-1.6655,0.24988,0.62284,-0.03,0.04,0.2,96.55
2994,6.5045e+07,1,0.52,0.78,24.26,0.0011116,-0.0031381,-0.47208,0.092752,-1.6655,0.24985,0.61814,-0.03,0.04,0.2,96.55
3035,6.5055e+07,1,0.51,0.78,24.25,0.0013128,-0.0032927,-0.47201,0.082576,-1.6655,0.24987,0.61807,-0.03,0.04,0.2,96.55
3081,6.5065e+07,1,0.51,0.78,24.25,0.0012931,-0.0023988,-0.47198,0.061428,-1.6654,0.24984,0.61337,-0.03,0.04,0.2,96.55
3121,6.5075e+07,1,0.51,0.78,24.25,0.0016893,-0.0022045,-0.4709,0.032706,-1.6654,0.24987,0.61275,-0.03,0.04,0.2,96.55
3162,6.5086e+07,1,0.51,0.78,24.25,0.0015759,-0.0020376,-0.47021,0.010038,-1.6654,0.24991,0.61238,-0.03,0.04,0.2,96.55
3202,6.5096e+07,1,0.51,0.78,24.25,0.0013659,-0.0020661,-0.47027,-0.011932,-1.6654,0.24989,0.60767,-0.03,0.04,0.2,96.55
3245,6.5106e+07,1,0.52,0.77,24.25,0.00093906,-0.0026024,-0.46925,-0.032826,-1.6654,0.24992,0.60712,-0.03,0.04,0.2,96.55
3279,6.5117e+07,1,0.52,0.78,24.25,0.00073471,-0.0027147,-0.46585,-0.053955,-1.6652,0.24984,0.60937,-0.03,0.04,0.2,96.55
3320,6.5127e+07,1,0.53,0.78,24.25,0.0019538,-0.0026058,-0.46194,-0.048872,-1.6651,0.24978,0.61236,-0.03,0.04,0.2,96.55
3362,6.5137e+07,1,0.53,0.77,24.25,0.0016766,-0.0023431,-0.45853,-0.040872,-1.6649,0.24973,0.6155,-0.03,0.04,0.2,96.55
3403,6.5147e+07,1,0.53,0.77,24.26,0.0014552,-0.0030389,-0.45947,-0.020133,-1.6649,0.2497,0.61047,-0.03,0.04,0.2,96.55
3444,6.5157e+07,1,0.53,0.77,24.26,0.0021192,-0.0039707,-0.45647,-0.0032101,-1.6647,0.24965,0.61282,-0.03,0.04,0.2,96.55
3488,6.5168e+07,1,0.53,0.78,24.26,0.0022468,-0.0046033,-0.45583,-0.001126,-1.6647,0.2496,0.60828,-0.03,0.04,0.2,96.55
3529,6.5178e+07,1,0.53,0.78,24.26,0.0017988,-0.0049145,-0.4515,0.0049753,-1.6645,0.24953,0.60993,-0.03,0.04,0.2,96.55
3569,6.5188e+07,1,0.53,0.79,24.26,0.0023587,-0.0055146,-0.44842,0.0053271,-1.6643,0.24946,0.61188,-0.03,0.04,0.2,96.55
3610,6.5198e+07,1,0.53,0.79,24.26,0.0016849,-0.0042555,-0.44757,0.0054674,-1.6643,0.24941,0.60738,-0.03,0.04,0.2,96.55
3651,6.5208e+07,1,0.53,0.79,24.26,0.001873,-0.004554,-0.443,0.0086499,-1.6641,0.24935,0.60908,-0.03,0.04,0.2,96.55
3695,6.5221e+07,1,0.53,0.79,24.25,0.0013485,-0.0059157,-0.43964,0.013061,-1.6639,0.24928,0.60923,-0.03,0.04,0.2,96.55
3736,6.5231e+07,1,0.53,0.79,24.25,0.00044241,-0.0051632,-0.43695,0.0173,-1.6637,0.24922,0.61094,-0.03,0.04,0.2,96.55
3777,6.5242e+07,1,0.52,0.79,24.25,0.00097177,-0.0059289,-0.4338,0.020247,-1.6635,0.24917,0.6124,-0.03,0.04,0.2,96.55
3820,6.5253e+07,1,0.52,0.79,24.25,0.0016073,-0.0071496,-0.43317,0.022165,-1.6635,0.2491,0.60762,-0.03,0.04,0.2,96.55
3862,6.5263e+07,1,0.52,0.78,24.25,0.0018976,-0.0086175,-0.43103,0.016897,-1.6633,0.24903,0.60887,-0.03,0.04,0.2,96.55
3909,6.5273e+07,1,0.52,0.78,24.25,0.0024457,-0.0090669,-0.42998,0.0065964,-1.6633,0.24894,0.60455,-0.03,0.04,0.2,96.55
3950,6.5283e+07,1,0.53,0.79,24.26,0.002693,-0.0092173,-0.42691,-0.0054153,-1.6631,0.24886,0.60564,-0.03,0.04,0.2,96.55
3990,6.5293e+07,1,0.53,0.79,24.26,0.0028199,-0.0097082,-0.42355,-0.015024,-1.6629,0.24878,0.60645,-0.03,0.04,0.2,96.55
4031,6.5303e+07,1,0.53,0.79,24.26,0.0016057,-0.0088725,-0.42233,-0.01825,-1.6627,0.2487,0.60665,-0.03,0.04,0.2,96.55
4072,6.5317e+07,1,0.53,0.78,24.27,0.0016327,-0.0078232,-0.4193,-0.016819,-1.6626,0.24859,0.60917,-0.03,0.04,0.2,96.55
4116,6.5327e+07,1,0.53,0.78,24.27,0.0026307,-0.0077234,-0.41611,0.0012075,-1.6624,0.24852,0.61271,-0.03,0.04,0.2,96.55
4157,6.5337e+07,1,0.53,0.78,24.27,0.0015978,-0.0075455,-0.41794,0.015792,-1.6624,0.24845,0.60855,-0.03,0.04,0.2,96.55
4199,6.5347e+07,1,0.53,0.78,24.26,0.0016883,-0.0078623,-0.4149,0.034285,-1.6622,0.24838,0.61222,-0.03,0.04,0.2,96.55
4240,6.5358e+07,1,0.52,0.78,24.26,0.0011132,-0.0059872,-0.413,0.044324,-1.6621,0.24833,0.61552,-0.03,0.04,0.2,96.55
4280,6.5368e+07,1,0.53,0.78,24.26,0.00045829,-0.0057116,-0.4106,0.068279,-1.6619,0.24829,0.61802,-0.03,0.04,0.2,96.55
4325,6.5378e+07,1,0.52,0.79,24.26,0.00045102,-0.0068491,-0.41056,0.083351,-1.6619,0.24823,0.6139,-0.03,0.04,0.2,96.55
4366,6.5388e+07,1,0.52,0.79,24.25,0.00054043,-0.0069545,-0.40667,0.097073,-1.6618,0.24819,0.6166,-0.03,0.04,0.2,96.55
4406,6.5398e+07,1,0.52,0.79,24.25,0.0007725,-0.0063193,-0.40546,0.10728,-1.6617,0.24817,0.61898,-0.03,0.04,0.2,96.55
4451,6.5411e+07,1,0.52,0.79,24.25,0.00058184,-0.0050553,-0.40329,0.11894,-1.6615,0.24814,0.62028,-0.03,0.04,0.2,96.55
4491,6.5421e+07,1,0.52,0.79,24.25,0.00051046,-0.0040305,-0.4021,0.11819,-1.6615,0.24809,0.61625,-0.03,0.04,0.2,96.55
4532,6.5432e+07,1,0.53,0.8,24.25,-0.00018355,-0.0026257,-0.39782,0.10205,-1.6614,0.24809,0.6181,-0.03,0.04,0.2,96.55
4573,6.5442e+07,1,0.53,0.8,24.25,-0.00039469,-0.002525,-0.3964,0.091827,-1.6614,0.24807,0.61417,-0.03,0.04,0.2,96.55
4614,6.5452e+07,1,0.54,0.8,24.26,-0.00093677,-0.0014623,-0.39449,0.082549,-1.6613,0.24809,0.61619,-0.03,0.04,0.2,96.55
4655,6.5462e+07,1,0.54,0.8,24.26,-0.0006502,-0.0015249,-0.39251,0.076752,-1.6612,0.24812,0.6176,-0.03,0.04,0.2,96.55
4695,6.5472e+07,1,0.54,0.8,24.27,-0.00087571,-0.002027,-0.39055,0.070136,-1.6611,0.24815,0.61948,-0.03,0.04,0.2,96.55
4740,6.5483e+07,1,0.54,0.8,24.27,-0.00093834,-0.0021187,-0.38782,0.064036,-1.661,0.24818,0.62034,-0.03,0.04,0.2,96.55
4780,6.5493e+07,1,0.53,0.8,24.27,-0.00074823,-0.0019487,-0.38788,0.059749,-1.6609,0.24822,0.6213,-0.03,0.04,0.2,96.55
4821,6.5503e+07,1,0.53,0.8,24.27,-0.0013387,-0.0026842,-0.38829,0.058493,-1.6609,0.24819,0.61705,-0.03,0.04,0.2,96.55
4864,6.5513e+07,1,0.53,0.8,24.26,-0.0012604,-0.0013967,-0.38684,0.054762,-1.6608,0.24823,0.61779,-0.03,0.04,0.2,96.55
4898,6.5524e+07,1,0.53,0.8,24.26,-0.0015843,-0.0020968,-0.38302,0.05994,-1.6607,0.24819,0.62111,-0.03,0.04,0.2,96.55
4940,6.5534e+07,1,0.52,0.81,24.25,-0.0014572,-0.0019745,-0.38238,0.053585,-1.6607,0.24817,0.61727,-0.03,0.04,0.2,96.55
4980,6.5545e+07,1,0.52,0.8,24.25,-0.0014733,-0.0034854,-0.38013,0.055404,-1.6606,0.24813,0.62163,-0.03,0.04,0.2,96.55
5022,6.5555e+07,1,0.52,0.8,24.25,-0.0027216,-0.0031439,-0.37699,0.063193,-1.6606,0.24809,0.62554,-0.03,0.04,0.2,96.55
5063,6.5565e+07,1,0.51,0.81,24.25,-0.0029685,-0.0033279,-0.37576,0.073955,-1.6605,0.24805,0.62916,-0.03,0.04,0.2,96.55
5104,6.5575e+07,1,0.52,0.81,24.25,-0.0034759,-0.0034198,-0.37489,0.086662,-1.6605,0.24801,0.63234,-0.03,0.04,0.2,96.55
5149,6.5586e+07,1,0.52,0.81,24.25,-0.0025232,-0.003909,-0.37453,0.10785,-1.6605,0.24797,0.62826,-0.03,0.04,0.2,96.55
5189,6.5596e+07,1,0.52,0.81,24.25,-0.0034571,-0.0046704,-0.3711,0.12508,-1.6605,0.24793,0.63116,-0.03,0.04,0.2,96.55
5230,6.5606e+07,1,0.51,0.81,24.26,-0.0024043,-0.0036369,-0.36845,0.14094,-1.6604,0.24789,0.63376,-0.03,0.04,0.2,96.55
5270,6.5616e+07,1,0.51,0.81,24.26,-0.0030244,-0.003158,-0.36599,0.13998,-1.6604,0.24786,0.62971,-0.03,0.04,0.2,96.55
5311,6.5626e+07,1,0.52,0.81,24.27,-0.0043517,-0.0033463,-0.36441,0.12993,-1.6604,0.24783,0.63215,-0.03,0.04,0.2,96.55
5351,6.5636e+07,1,0.51,0.81,24.27,-0.0037081,-0.001798,-0.36283,0.12366,-1.6604,0.24781,0.6346,-0.03,0.04,0.2,96.55
5392,6.5647e+07,1,0.52,0.81,24.27,-0.0051749,-0.0014641,-0.36182,0.12413,-1.6604,0.2478,0.63683,-0.03,0.04,0.2,96.55
5433,6.5657e+07,1,0.52,0.81,24.27,-0.0060863,-0.0012852,-0.36032,0.12154,-1.6603,0.2478,0.63872,-0.03,0.04,0.2,96.55
5473,6.5667e+07,1,0.51,0.81,24.27,-0.0070602,-0.00027545,-0.36137,0.12231,-1.6604,0.2478,0.63508,-0.03,0.04,0.2,96.55
5515,6.5678e+07,1,0.51,0.82,24.27,-0.0077294,0.00051077,-0.35834,0.11934,-1.6604,0.24782,0.63641,-0.03,0.04,0.2,96.55
5560,6.5688e+07,1,0.51,0.82,24.27,-0.0068468,0.0012608,-0.35561,0.11577,-1.6604,0.24785,0.63783,-0.03,0.04,0.2,96.55
5603,6.5701e+07,1,0.51,0.82,24.26,-0.007035,0.0011687,-0.35178,0.10777,-1.6605,0.24789,0.64073,-0.03,0.04,0.2,96.55
5640,6.5711e+07,1,0.51,0.83,24.26,-0.0078065,0.0014451,-0.35081,0.10291,-1.6606,0.24793,0.64434,-0.03,0.04,0.2,96.55
5681,6.5722e+07,1,0.51,0.83,24.26,-0.0084186,0.0011618,-0.35239,0.11021,-1.6607,0.24794,0.6405,-0.03,0.04,0.2,96.55
5725,6.5735e+07,1,0.5,0.83,24.25,-0.0084283,0.0014649,-0.34973,0.11793,-1.6608,0.24799,0.64292,-0.03,0.04,0.2,96.55
5767,6.5745e+07,1,0.5,0.82,24.25,-0.0085993,0.0018457,-0.34708,0.12131,-1.6609,0.24803,0.64609,-0.03,0.04,0.2,96.55
5808,6.5755e+07,1,0.51,0.82,24.26,-0.0096892,0.002469,-0.34615,0.11794,-1.661,0.24806,0.64264,-0.03,0.04,0.2,96.55
5850,6.5765e+07,1,0.5,0.82,24.26,-0.010352,0.0024696,-0.34443,0.115,-1.6611,0.24811,0.64523,-0.03,0.04,0.2,96.55
5891,6.5776e+07,1,0.5,0.82,24.26,-0.012423,0.0028689,-0.34277,0.11329,-1.6612,0.24818,0.64786,-0.03,0.04,0.2,96.55
5936,6.5785e+07,1,0.5,0.82,24.27,-0.013237,0.0025371,-0.33986,0.11457,-1.6613,0.24824,0.65021,-0.03,0.04,0.2,96.55
5977,6.5795e+07,1,0.5,0.82,24.27,-0.014214,0.0033843,-0.3415,0.11013,-1.6615,0.24827,0.64676,-0.03,0.04,0.2,96.55
6018,6.5806e+07,1,0.51,0.82,24.28,-0.014132,0.0027475,-0.34002,0.10612,-1.6616,0.24834,0.64889,-0.03,0.04,0.2,96.55
6060,6.5816e+07,1,0.5,0.82,24.28,-0.01435,0.0034508,-0.33995,0.10177,-1.6618,0.24841,0.6507,-0.03,0.04,0.2,96.55
6100,6.5826e+07,1,0.51,0.82,24.28,-0.014819,0.0045241,-0.33803,0.096439,-1.6619,0.2485,0.65226,-0.03,0.04,0.2,96.55
6141,6.5836e+07,1,0.51,0.83,24.29,-0.013968,0.0037511,-0.33513,0.09193,-1.6621,0.24858,0.65352,-0.03,0.04,0.2,96.55
6181,6.5846e+07,1,0.51,0.83,24.29,-0.014888,0.0037101,-0.33631,0.086832,-1.6622,0.24862,0.64981,-0.03,0.04,0.2,96.55
6222,6.5857e+07,1,0.51,0.83,24.29,-0.016182,0.002706,-0.33487,0.079247,-1.6624,0.24871,0.65087,-0.03,0.04,0.2,96.55
6262,6.5867e+07,1,0.52,0.84,24.29,-0.016058,0.0028897,-0.33577,0.060437,-1.6625,0.24873,0.64751,-0.03,0.04,0.2,96.55
6303,6.5877e+07,1,0.52,0.84,24.28,-0.016007,0.0025234,-0.33311,0.042114,-1.6627,0.2488,0.64845,-0.03,0.04,0.2,96.55
6350,6.5887e+07,1,0.52,0.83,24.28,-0.0164,0.0026828,-0.33247,0.01942,-1.6629,0.24888,0.64917,-0.03,0.04,0.2,96.55
6390,6.5897e+07,1,0.52,0.83,24.28,-0.016392,0.0017456,-0.33287,0.0030703,-1.6631,0.2489,0.6455,-0.03,0.04,0.2,96.55
6433,6.5913e+07,1,0.52,0.83,24.28,-0.016998,0.0014545,-0.33135,-0.014723,-1.6631,0.249,0.64993,-0.03,0.04,0.2,96.55
6473,6.5923e+07,1,0.52,0.83,24.29,-0.016753,0.0017683,-0.33027,-0.017946,-1.663,0.24904,0.6525,-0.03,0.04,0.2,96.55
6514,6.5933e+07,1,0.52,0.83,24.29,-0.017129,0.00066957,-0.32852,-0.0081283,-1.6632,0.24905,0.6489,-0.03,0.04,0.2,96.55
6555,6.5943e+07,1,0.52,0.83,24.29,-0.017361,0.0010262,-0.32396,0.0035376,-1.6631,0.24909,0.65108,-0.03,0.04,0.2,96.55
6595,6.5954e+07,1,0.53,0.84,24.29,-0.017141,0.0011083,-0.32208,0.015158,-1.663,0.24913,0.65301,-0.03,0.04,0.2,96.55
6635,6.5964e+07,1,0.53,0.84,24.3,-0.018107,0.0013588,-0.31983,0.025774,-1.663,0.24918,0.65467,-0.03,0.04,0.2,96.55
6675,6.5974e+07,1,0.53,0.84,24.29,-0.018374,0.0014676,-0.31753,0.03267,-1.663,0.24924,0.65611,-0.03,0.04,0.21,96.55
6719,6.5984e+07,1,0.53,0.84,24.3,-0.01796,0.0018766,-0.31425,0.038669,-1.6629,0.2493,0.65736,-0.03,0.04,0.21,96.55
6764,6.5994e+07,1,0.54,0.84,24.3,-0.017098,0.0016619,-0.3149,0.044328,-1.6631,0.24932,0.65421,-0.03,0.04,0.21,96.55
6804,6.6004e+07,1,0.54,0.84,24.3,-0.016821,0.0019097,-0.3137,0.046012,-1.6631,0.24938,0.65527,-0.03,0.04,0.21,96.55
6845,6.6014e+07,1,0.54,0.84,24.3,-0.016704,0.0029169,-0.31206,0.041049,-1.6631,0.24945,0.6561,-0.03,0.04,0.21,96.55
6885,6.6024e+07,1,0.54,0.84,24.3,-0.016413,0.0029737,-0.30998,0.035921,-1.663,0.24952,0.65713,-0.03,0.04,0.21,96.55
6923,6.6034e+07,1,0.53,0.84,24.3,-0.015787,0.0019161,-0.30832,0.033781,-1.663,0.24959,0.65762,-0.03,0.04,0.21,96.55
6963,6.6045e+07,1,0.53,0.83,24.3,-0.015852,0.0022587,-0.30848,0.032881,-1.6632,0.24961,0.65455,-0.03,0.04,0.21,96.55
7004,6.6055e+07,1,0.53,0.83,24.3,-0.015466,0.0036134,-0.30434,0.03198,-1.6632,0.24969,0.65517,-0.03,0.04,0.21,96.55
7046,6.6065e+07,1,0.52,0.84,24.3,-0.016797,0.0031497,-0.30328,0.025489,-1.6632,0.24978,0.65563,-0.03,0.04,0.21,96.55
7086,6.6075e+07,1,0.52,0.83,24.29,-0.017118,0.0034399,-0.30101,0.022204,-1.6632,0.24986,0.65562,-0.03,0.04,0.21,96.55
7129,6.6085e+07,1,0.53,0.84,24.3,-0.01547,0.0041104,-0.30051,0.015538,-1.6632,0.24995,0.65574,-0.03,0.04,0.21,96.55
7181,6.6096e+07,1,0.52,0.84,24.29,-0.016748,0.0045246,-0.30188,0.0037744,-1.6632,0.25004,0.65569,-0.03,0.04,0.21,96.55
7223,6.6106e+07,1,0.52,0.84,24.3,-0.017027,0.004228,-0.30116,-0.0045075,-1.6634,0.25009,0.65237,-0.03,0.04,0.21,96.55
7261,6.6117e+07,1,0.53,0.85,24.3,-0.016318,0.0039395,-0.29976,-0.0074283,-1.6633,0.2501,0.65406,-0.03,0.04,0.21,96.55
7309,6.613e+07,1,0.53,0.84,24.31,-0.016847,0.004002,-0.29813,-0.0033313,-1.6632,0.25011,0.65516,-0.03,0.04,0.21,96.55
7355,6.614e+07,1,0.53,0.84,24.31,-0.016982,0.0035689,-0.29688,0.0031982,-1.6631,0.25012,0.65675,-0.03,0.04,0.21,96.55
7400,6.615e+07,1,0.53,0.85,24.31,-0.018164,0.0042669,-0.29511,0.0035624,-1.663,0.25013,0.65785,-0.03,0.04,0.21,96.55
7445,6.6161e+07,1,0.53,0.84,24.31,-0.017682,0.0038661,-0.29588,0.00092768,-1.6632,0.25018,0.65459,-0.03,0.04,0.21,96.55
7490,6.6172e+07,1,0.52,0.84,24.3,-0.018091,0.0034438,-0.29364,-0.00017141,-1.6631,0.25018,0.65583,-0.03,0.04,0.21,96.55
7535,6.6183e+07,1,0.52,0.85,24.3,-0.018742,0.0048998,-0.29285,-0.0024572,-1.6631,0.25021,0.65656,-0.03,0.04,0.21,96.55
7583,6.6193e+07,1,0.52,0.85,24.29,-0.017296,0.0062288,-0.2929,-0.0065532,-1.663,0.25024,0.65739,-0.03,0.04,0.21,96.55
7628,6.6203e+07,1,0.52,0.85,24.29,-0.017781,0.0063826,-0.29272,-0.00973,-1.663,0.25028,0.65801,-0.03,0.04,0.21,96.55
7674,6.6213e+07,1,0.52,0.85,24.28,-0.016952,0.0068122,-0.29321,-0.0092178,-1.6632,0.25035,0.65506,-0.03,0.04,0.21,96.55
7718,6.6223e+07,1,0.52,0.86,24.28,-0.016721,0.0058526,-0.29106,-0.0093869,-1.6631,0.2504,0.65553,-0.03,0.04,0.21,96.55
7768,6.6236e+07,1,0.52,0.86,24.28,-0.016598,0.0046277,-0.28703,-0.0072088,-1.6631,0.25045,0.65497,-0.03,0.04,0.21,96.55
7812,6.6246e+07,1,0.53,0.86,24.28,-0.017036,0.0049551,-0.28711,-0.010305,-1.6631,0.25049,0.6553,-0.03,0.04,0.21,96.55
7857,6.6256e+07,1,0.53,0.86,24.28,-0.017496,0.0045847,-0.28792,-0.020809,-1.6633,0.25054,0.65242,-0.03,0.04,0.21,96.55
7902,6.6267e+07,1,0.53,0.86,24.28,-0.017773,0.004213,-0.28659,-0.031582,-1.6633,0.25058,0.65237,-0.03,0.04,0.21,96.55
7946,6.6277e+07,1,0.53,0.85,24.28,-0.018341,0.0039088,-0.28671,-0.040673,-1.6633,0.25061,0.65244,-0.03,0.04,0.21,96.55
7990,6.6287e+07,1,0.53,0.85,24.28,-0.018443,0.004172,-0.28451,-0.050435,-1.6633,0.25064,0.65238,-0.03,0.04,0.21,96.55
8042,6.6297e+07,1,0.53,0.84,24.28,-0.018753,0.0035856,-0.28468,-0.057333,-1.6634,0.25068,0.64953,-0.03,0.04,0.21,96.55
8087,6.6308e+07,1,0.54,0.84,24.28,-0.019278,0.0045249,-0.28462,-0.066767,-1.6635,0.25072,0.64906,-0.03,0.04,0.21,96.55
8131,6.6318e+07,1,0.53,0.84,24.28,-0.019513,0.0046437,-0.2818,-0.067575,-1.6635,0.25073,0.65079,-0.03,0.04,0.21,96.55
8172,6.6329e+07,1,0.53,0.84,24.27,-0.018313,0.0041236,-0.27903,-0.065227,-1.6636,0.25075,0.65202,-0.03,0.04,0.21,96.55
8217,6.6339e+07,1,0.53,0.84,24.27,-0.019038,0.0029169,-0.276,-0.0593,-1.6636,0.25076,0.65334,-0.03,0.04,0.21,96.55
8261,6.6349e+07,1,0.53,0.85,24.27,-0.019877,0.0025576,-0.27703,-0.049981,-1.6638,0.25079,0.65056,-0.03,0.04,0.21,96.55
8306,6.636e+07,1,0.53,0.85,24.26,-0.019824,0.0021445,-0.27583,-0.041303,-1.6639,0.2508,0.65159,-0.03,0.04,0.21,96.55
8353,6.6371e+07,1,0.53,0.85,24.26,-0.01927,0.0016764,-0.27409,-0.037567,-1.664,0.25081,0.65239,-0.03,0.04,0.21,96.55
8397,6.6381e+07,1,0.53,0.85,24.25,-0.019027,0.00014289,-0.27088,-0.031797,-1.664,0.2508,0.65331,-0.03,0.04,0.21,96.55
8442,6.6391e+07,1,0.52,0.85,24.25,-0.019168,0.0012,-0.26962,-0.024123,-1.6641,0.2508,0.6538,-0.03,0.04,0.21,96.55
8490,6.6402e+07,1,0.52,0.85,24.25,-0.020255,0.0010235,-0.27007,-0.01647,-1.6643,0.25081,0.6511,-0.03,0.04,0.21,96.55
8535,6.6412e+07,1,0.52,0.85,24.25,-0.018775,0.00060596,-0.26838,-0.010887,-1.6644,0.25082,0.65166,-0.03,0.04,0.21,96.55
8579,6.6422e+07,1,0.52,0.84,24.25,-0.019123,0.00086535,-0.26773,-0.0052233,-1.6645,0.25083,0.65181,-0.03,0.04,0.21,96.55
8624,6.6433e+07,1,0.53,0.84,24.25,-0.018527,5.3331e-05,-0.26539,0.00031495,-1.6646,0.25083,0.65206,-0.03,0.04,0.21,96.55
8668,6.6443e+07,1,0.53,0.84,24.25,-0.020012,-0.00063415,-0.26417,0.0028825,-1.6647,0.25084,0.65216,-0.03,0.04,0.22,96.55
8714,6.6453e+07,1,0.53,0.84,24.25,-0.021058,-0.00017362,-0.26251,0.0047634,-1.6649,0.25085,0.65236,-0.03,0.04,0.22,96.55
8759,6.6463e+07,1,0.54,0.84,24.25,-0.021828,0.0011573,-0.26071,0.0047313,-1.665,0.25086,0.65243,-0.03,0.04,0.22,96.55
8804,6.6473e+07,1,0.54,0.84,24.25,-0.021684,0.00063199,-0.258,0.0023233,-1.6651,0.25088,0.65239,-0.03,0.04,0.22,96.55
8848,6.6484e+07,1,0.54,0.84,24.25,-0.022241,0.0013282,-0.25859,-0.0016281,-1.6654,0.2509,0.64978,-0.03,0.04,0.22,96.55
8894,6.6494e+07,1,0.53,0.85,24.25,-0.023271,0.00053865,-0.25888,-0.0084487,-1.6655,0.25092,0.64962,-0.03,0.04,0.22,96.55
8944,6.6504e+07,1,0.53,0.85,24.25,-0.023016,0.00012739,-0.25684,-0.01393,-1.6657,0.25094,0.64931,-0.03,0.04,0.22,96.55
8982,6.6515e+07,1,0.53,0.85,24.25,-0.023213,0.00012894,-0.25706,-0.021494,-1.6656,0.25109,0.65094,-0.03,0.04,0.22,96.55
9027,6.6525e+07,1,0.53,0.84,24.25,-0.02143,0.00089012,-0.25672,-0.024103,-1.6655,0.25123,0.65258,-0.03,0.04,0.22,96.55
9072,6.6535e+07,1,0.53,0.84,24.25,-0.02155,0.00046638,-0.25707,-0.017811,-1.6657,0.25124,0.65001,-0.03,0.04,0.22,96.55
9117,6.6545e+07,1,0.53,0.84,24.25,-0.020894,0.00038509,-0.25775,-0.012357,-1.6656,0.25139,0.65121,-0.03,0.04,0.22,96.55
9162,6.6556e+07,1,0.53,0.84,24.25,-0.020615,0.00024105,-0.25639,-0.0064231,-1.6655,0.25153,0.65221,-0.03,0.04,0.22,96.55
9206,6.6566e+07,1,0.53,0.84,24.25,-0.020632,0.00079493,-0.25559,-0.0010095,-1.6654,0.25167,0.65328,-0.03,0.04,0.22,96.55
9251,6.6576e+07,1,0.53,0.85,24.25,-0.020509,0.00076447,-0.25519,0.0016632,-1.6654,0.25182,0.65421,-0.03,0.04,0.22,96.55
9295,6.6587e+07,1,0.53,0.85,24.25,-0.021082,-0.00013233,-0.25569,0.0075301,-1.6656,0.25182,0.65165,-0.03,0.04,0.22,96.55
9342,6.6597e+07,1,0.53,0.86,24.25,-0.02024,-0.00080397,-0.25361,0.012341,-1.6655,0.25196,0.65214,-0.03,0.04,0.22,96.55
9391,6.6607e+07,1,0.53,0.86,24.24,-0.020108,-0.0015104,-0.25231,0.013968,-1.6655,0.25209,0.65273,-0.03,0.04,0.22,96.55
9435,6.6617e+07,1,0.53,0.86,24.25,-0.020486,-0.0011421,-0.25116,0.010072,-1.6654,0.25221,0.65321,-0.03,0.04,0.22,96.55
9480,6.6628e+07,1,0.53,0.86,24.25,-0.021366,-0.0015998,-0.2524,0.0077697,-1.6656,0.25219,0.65069,-0.03,0.04,0.22,96.55
9524,6.6638e+07,1,0.53,0.86,24.25,-0.021582,3.2922e-05,-0.2509,0.0055126,-1.6656,0.25232,0.65103,-0.03,0.04,0.22,96.55
9570,6.6648e+07,1,0.53,0.86,24.25,-0.021581,0.00025676,-0.25094,0.00014644,-1.6655,0.25246,0.65119,-0.03,0.04,0.22,96.55
9614,6.6659e+07,1,0.53,0.86,24.25,-0.021159,0.00020512,-0.24951,-0.0050494,-1.6655,0.25259,0.65115,-0.03,0.04,0.22,96.55
9659,6.6669e+07,1,0.53,0.85,24.25,-0.021548,0.0002817,-0.2491,-0.010119,-1.6658,0.2526,0.64866,-0.03,0.04,0.22,96.55
9704,6.6679e+07,1,0.52,0.85,24.24,-0.021503,0.0006301,-0.24877,-0.017059,-1.6658,0.25273,0.64855,-0.03,0.04,0.22,96.55
9748,6.6689e+07,1,0.52,0.86,24.24,-0.020873,0.00042535,-0.24733,-0.022739,-1.6658,0.25287,0.64852,-0.03,0.04,0.22,96.55
9794,6.67e+07,1,0.52,0.86,24.24,-0.020519,0.0015404,-0.24727,-0.029457,-1.6657,0.25301,0.64838,-0.03,0.04,0.22,96.55
9844,6.6717e+07,1,0.51,0.87,24.23,-0.021046,0.0029103,-0.24596,-0.040266,-1.6657,0.25314,0.64818,-0.03,0.04,0.22,96.55
9891,6.6727e+07,1,0.51,0.87,24.23,-0.02183,0.0042115,-0.24452,-0.042826,-1.6656,0.25327,0.64953,-0.03,0.04,0.22,96.55
9936,6.6737e+07,1,0.52,0.87,24.23,-0.021182,0.0053972,-0.24515,-0.038243,-1.6658,0.25332,0.64682,-0.03,0.04,0.22,96.55
9980,6.6747e+07,1,0.52,0.88,24.23,-0.019993,0.0054681,-0.24352,-0.031455,-1.6657,0.25346,0.648,-0.03,0.04,0.22,96.55
10025,6.6758e+07,1,0.51,0.87,24.23,-0.020254,0.0065943,-0.24165,-0.021553,-1.6655,0.25361,0.64877,-0.03,0.04,0.22,96.55
10069,6.6769e+07,1,0.51,0.87,24.23,-0.020817,0.0061449,-0.24035,-0.011987,-1.6654,0.25377,0.64967,-0.03,0.04,0.22,96.55
10114,6.678e+07,1,0.52,0.87,24.23,-0.021255,0.0051695,-0.23709,-0.0022322,-1.6653,0.25392,0.65021,-0.03,0.04,0.22,96.55
10160,6.679e+07,1,0.52,0.87,24.24,-0.021443,0.0056805,-0.23539,0.0036538,-1.6652,0.25406,0.65084,-0.03,0.04,0.22,96.55
10205,6.68e+07,1,0.52,0.87,24.24,-0.022438,0.0063609,-0.23283,0.007319,-1.6652,0.2542,0.65131,-0.03,0.04,0.22,96.55
10251,6.681e+07,1,0.52,0.86,24.24,-0.022009,0.0059501,-0.23209,0.010278,-1.6651,0.25436,0.65142,-0.03,0.04,0.22,96.55
10299,6.6821e+07,1,0.52,0.86,24.23,-0.022701,0.0062463,-0.23145,0.013548,-1.6653,0.25442,0.6491,-0.03,0.04,0.22,96.55
10344,6.6831e+07,1,0.52,0.86,24.23,-0.022936,0.0059611,-0.23005,0.013683,-1.6653,0.25457,0.64935,-0.03,0.04,0.22,96.55
10389,6.6841e+07,1,0.52,0.86,24.23,-0.02271,0.0056149,-0.22847,0.0077248,-1.6655,0.25463,0.64703,-0.03,0.04,0.22,96.55
10434,6.6851e+07,1,0.52,0.87,24.23,-0.022163,0.0061745,-0.22715,-2.1875e-05,-1.6655,0.25478,0.647,-0.03,0.04,0.22,96.55
10479,6.6862e+07,1,0.52,0.87,24.23,-0.022277,0.0064438,-0.22549,-0.0065573,-1.6655,0.25492,0.64707,-0.03,0.04,0.22,96.55
10523,6.6872e+07,1,0.53,0.86,24.22,-0.023166,0.0082448,-0.22434,-0.014002,-1.6654,0.25508,0.6471,-0.03,0.04,0.22,96.55
10568,6.6882e+07,1,0.52,0.86,24.22,-0.023439,0.0078762,-0.22334,-0.021919,-1.6655,0.25525,0.64678,-0.03,0.04,0.22,96.55
10612,6.6893e+07,1,0.52,0.86,24.22,-0.024206,0.0088409,-0.22303,-0.026908,-1.6657,0.25533,0.64455,-0.03,0.04,0.22,96.55
10661,6.6903e+07,1,0.53,0.86,24.23,-0.024783,0.00861,-0.22106,-0.031582,-1.6657,0.2555,0.64436,-0.03,0.04,0.22,96.55
10700,6.6914e+07,1,0.52,0.86,24.22,-0.023187,0.0073201,-0.2194,-0.035063,-1.6656,0.25543,0.6453,-0.03,0.04,0.22,96.55
10748,6.6924e+07,1,0.52,0.86,24.23,-0.023423,0.0081261,-0.21821,-0.031744,-1.6654,0.25536,0.64628,-0.03,0.04,0.22,96.55
10794,6.6934e+07,1,0.52,0.86,24.23,-0.022187,0.0081907,-0.21609,-0.030428,-1.6652,0.25529,0.64714,-0.03,0.04,0.22,96.55
10839,6.6944e+07,1,0.52,0.86,24.23,-0.021836,0.0077902,-0.21532,-0.024944,-1.6655,0.25537,0.64499,-0.03,0.04,0.22,96.55
10883,6.6954e+07,1,0.51,0.86,24.23,-0.021309,0.007611,-0.21489,-0.021287,-1.6653,0.2553,0.64552,-0.03,0.04,0.22,96.55
10928,6.6964e+07,1,0.51,0.86,24.22,-0.020713,0.0080714,-0.21276,-0.016665,-1.6652,0.25523,0.64632,-0.03,0.04,0.22,96.55
10972,6.6975e+07,1,0.51,0.87,24.22,-0.020637,0.0079971,-0.21399,-0.018556,-1.6654,0.25531,0.64398,-0.03,0.04,0.22,96.55
11017,6.6985e+07,1,0.51,0.87,24.22,-0.020633,0.0072161,-0.21273,-0.021017,-1.6652,0.25525,0.64472,-0.03,0.04,0.22,96.55
11062,6.6995e+07,1,0.51,0.87,24.22,-0.020322,0.0074948,-0.21157,-0.02445,-1.6655,0.25532,0.64261,-0.03,0.04,0.22,96.55
11107,6.7005e+07,1,0.51,0.86,24.22,-0.019716,0.0066342,-0.20943,-0.026037,-1.6653,0.25525,0.64327,-0.03,0.04,0.22,96.55
11153,6.7015e+07,1,0.51,0.86,24.22,-0.019609,0.006266,-0.20899,-0.0273,-1.6652,0.25517,0.6438,-0.03,0.04,0.22,96.55
11201,6.7025e+07,1,0.51,0.85,24.22,-0.019581,0.0053854,-0.21043,-0.032143,-1.6654,0.25523,0.64169,-0.03,0.04,0.22,96.55
11246,6.7035e+07,1,0.51,0.85,24.22,-0.019094,0.0042486,-0.20866,-0.033848,-1.6653,0.25515,0.64191,-0.03,0.04,0.21,96.55
11290,6.7045e+07,1,0.52,0.85,24.22,-0.019304,0.0038597,-0.2067,-0.036485,-1.6652,0.25505,0.64222,-0.03,0.04,0.21,96.55
11336,6.7056e+07,1,0.52,0.85,24.22,-0.018677,0.0019885,-0.20433,-0.036242,-1.6651,0.25495,0.64242,-0.03,0.04,0.21,96.55
11380,6.7066e+07,1,0.52,0.85,24.22,-0.019045,0.0021261,-0.20229,-0.035966,-1.665,0.25485,0.64249,-0.03,0.04,0.22,96.55
11425,6.7076e+07,1,0.52,0.85,24.22,-0.018921,0.0031577,-0.20098,-0.034185,-1.6652,0.25488,0.64028,-0.03,0.04,0.22,96.55
11470,6.7086e+07,1,0.52,0.85,24.22,-0.019664,0.0021311,-0.2,-0.035143,-1.6651,0.25479,0.64028,-0.03,0.04,0.22,96.55
11514,6.7097e+07,1,0.52,0.85,24.22,-0.018849,0.0027927,-0.19791,-0.037542,-1.6651,0.2547,0.6401,-0.03,0.04,0.22,96.55
11561,6.7114e+07,1,0.52,0.85,24.22,-0.017188,0.0017577,-0.19546,-0.040272,-1.6648,0.25459,0.64074,-0.03,0.04,0.21,96.55
11608,6.7124e+07,1,0.52,0.85,24.22,-0.016534,0.001203,-0.19452,-0.038682,-1.6645,0.25448,0.64238,-0.03,0.04,0.21,96.55
11654,6.7134e+07,1,0.52,0.85,24.22,-0.01638,0.0023304,-0.19492,-0.02956,-1.6647,0.2545,0.64043,-0.03,0.04,0.21,96.55
11700,6.7144e+07,1,0.51,0.85,24.21,-0.016988,0.0018034,-0.19433,-0.020157,-1.6644,0.2544,0.64189,-0.03,0.04,0.21,96.55
11746,6.7154e+07,1,0.51,0.85,24.21,-0.017286,0.0013327,-0.194,-0.0075723,-1.6641,0.25429,0.64298,-0.03,0.04,0.22,96.55
11790,6.7164e+07,1,0.51,0.85,24.21,-0.017268,0.0013949,-0.19335,0.0035224,-1.6639,0.25419,0.64408,-0.03,0.04,0.22,96.55
11835,6.7174e+07,1,0.51,0.85,24.21,-0.019115,0.0015317,-0.19463,0.0080644,-1.6641,0.25421,0.64215,-0.03,0.04,0.22,96.55
11880,6.7185e+07,1,0.51,0.86,24.21,-0.017518,0.0019851,-0.19253,0.014502,-1.6638,0.25412,0.64328,-0.03,0.04,0.22,96.55
11924,6.7195e+07,1,0.52,0.86,24.21,-0.016794,0.001769,-0.18887,0.02267,-1.6636,0.25403,0.64429,-0.03,0.04,0.22,96.55
11969,6.7205e+07,1,0.52,0.86,24.21,-0.015301,0.001018,-0.18884,0.022372,-1.6634,0.25395,0.64499,-0.03,0.04,0.21,96.55
12013,6.7216e+07,1,0.52,0.86,24.2,-0.01619,0.00059651,-0.18793,0.026327,-1.6635,0.25395,0.64311,-0.03,0.04,0.21,96.55
12065,6.7226e+07,1,0.53,0.86,24.2,-0.016213,-0.00035717,-0.1848,0.03007,-1.6633,0.25386,0.64388,-0.03,0.04,0.22,96.55
12110,6.7236e+07,1,0.53,0.86,24.2,-0.016079,-0.0019637,-0.18411,0.02547,-1.6631,0.25375,0.64455,-0.03,0.04,0.21,96.55
12155,6.7246e+07,1,0.53,0.86,24.2,-0.015346,-0.0019691,-0.18356,0.024371,-1.6633,0.25373,0.64251,-0.03,0.04,0.21,96.55
12200,6.7256e+07,1,0.53,0.86,24.2,-0.015957,-0.0024225,-0.18178,0.023695,-1.6631,0.25362,0.64307,-0.03,0.04,0.21,96.55
12247,6.727e+07,1,0.53,0.86,24.2,-0.016171,-0.0018263,-0.18239,0.020367,-1.663,0.25351,0.64294,-0.03,0.04,0.22,96.55
12292,6.7279e+07,1,0.52,0.86,24.2,-0.016186,-0.0027529,-0.18195,0.018028,-1.6628,0.25341,0.64322,-0.03,0.04,0.22,96.55
12336,6.7289e+07,1,0.52,0.86,24.2,-0.015792,-0.0026022,-0.18283,0.0098547,-1.663,0.25338,0.6414,-0.03,0.04,0.22,96.55
12378,6.73e+07,1,0.52,0.86,24.2,-0.015758,-0.0025437,-0.18256,0.00093558,-1.6628,0.25327,0.64161,-0.03,0.04,0.21,96.55
12421,6.7313e+07,1,0.52,0.86,24.2,-0.015843,-0.0030449,-0.18094,-0.0041806,-1.6626,0.25322,0.64257,-0.03,0.04,0.21,96.55
12465,6.7323e+07,1,0.52,0.86,24.19,-0.0163,-0.0026168,-0.18002,-0.0083156,-1.6624,0.25319,0.6441,-0.03,0.04,0.21,96.55
12516,6.7334e+07,1,0.51,0.87,24.19,-0.01708,-0.0020631,-0.18027,-0.0046467,-1.6626,0.25317,0.64231,-0.03,0.04,0.21,96.55
12561,6.7344e+07,1,0.51,0.86,24.19,-0.015969,-0.0028946,-0.1778,0.0022948,-1.6624,0.25314,0.6435,-0.03,0.04,0.21,96.55
12606,6.7355e+07,1,0.51,0.86,24.18,-0.016339,-0.0043749,-0.17559,0.011322,-1.6622,0.2531,0.64473,-0.03,0.04,0.21,96.55
12651,6.7365e+07,1,0.51,0.86,24.18,-0.016953,-0.0038896,-0.17442,0.019118,-1.6621,0.25307,0.64578,-0.03,0.04,0.21,96.55
12695,6.7375e+07,1,0.51,0.86,24.18,-0.016422,-0.0052683,-0.17187,0.025943,-1.6619,0.25303,0.6467,-0.03,0.04,0.21,96.55
12743,6.7387e+07,1,0.51,0.85,24.18,-0.016095,-0.0068882,-0.16974,0.034558,-1.6618,0.25297,0.64715,-0.03,0.04,0.22,96.55
12787,6.7397e+07,1,0.51,0.85,24.19,-0.016839,-0.0077191,-0.16976,0.036297,-1.6617,0.25292,0.64811,-0.03,0.04,0.22,96.55
12834,6.7408e+07,1,0.51,0.85,24.18,-0.018512,-0.0088044,-0.16851,0.042318,-1.6619,0.25283,0.64627,-0.03,0.04,0.22,96.55
12879,6.7418e+07,1,0.52,0.86,24.19,-0.019151,-0.0093542,-0.16793,0.043373,-1.6618,0.25275,0.64697,-0.03,0.04,0.22,96.55
12926,6.7428e+07,1,0.52,0.86,24.19,-0.018489,-0.0085932,-0.1679,0.037757,-1.6618,0.25268,0.64756,-0.03,0.04,0.21,96.55
12972,6.7438e+07,1,0.52,0.86,24.19,-0.018495,-0.0093796,-0.16736,0.035417,-1.662,0.25258,0.64571,-0.03,0.04,0.21,96.55
13016,6.7448e+07,1,0.52,0.86,24.18,-0.017758,-0.0083389,-0.16649,0.025765,-1.6621,0.25249,0.64404,-0.03,0.04,0.21,96.55
13061,6.7458e+07,1,0.52,0.86,24.18,-0.017458,-0.0081426,-0.16654,0.017425,-1.6621,0.25243,0.6446,-0.03,0.04,0.21,96.55
13106,6.7469e+07,1,0.52,0.86,24.18,-0.016469,-0.0090586,-0.16452,0.013688,-1.662,0.25236,0.64502,-0.03,0.04,0.21,96.55
13151,6.7479e+07,1,0.51,0.86,24.18,-0.016399,-0.0087833,-0.1632,0.0090828,-1.6619,0.25228,0.64519,-0.03,0.04,0.21,96.55
13198,6.7492e+07,1,0.51,0.85,24.17,-0.016864,-0.0089113,-0.16164,0.0029608,-1.6619,0.25219,0.64522,-0.03,0.04,0.21,96.55
13236,6.7503e+07,1,0.51,0.85,24.17,-0.016328,-0.0094129,-0.15928,0.0045558,-1.6615,0.25201,0.64761,-0.03,0.04,0.21,96.55
13281,6.7513e+07,1,0.51,0.85,24.17,-0.017525,-0.0091091,-0.15722,0.011036,-1.6617,0.25192,0.64602,-0.03,0.04,0.21,96.55
13325,6.7523e+07,1,0.51,0.84,24.17,-0.018268,-0.008972,-0.15718,0.017467,-1.6613,0.25174,0.64828,-0.03,0.04,0.21,96.55
13373,6.7533e+07,1,0.5,0.84,24.17,-0.018403,-0.0081521,-0.15586,0.028268,-1.6609,0.25156,0.6503,-0.03,0.04,0.21,96.55
13419,6.7544e+07,1,0.51,0.85,24.17,-0.018859,-0.0071562,-0.15321,0.044354,-1.6606,0.2514,0.65199,-0.03,0.04,0.21,96.55
13463,6.7554e+07,1,0.51,0.85,24.18,-0.017589,-0.0072215,-0.15349,0.053901,-1.6603,0.25126,0.65367,-0.03,0.04,0.21,96.55
13508,6.7564e+07,1,0.51,0.85,24.17,-0.016664,-0.0081384,-0.15329,0.065648,-1.66,0.25111,0.65516,-0.03,0.04,0.22,96.55
13553,6.7574e+07,1,0.52,0.85,24.18,-0.016922,-0.0084196,-0.15339,0.074589,-1.6597,0.25096,0.65656,-0.03,0.04,0.22,96.55
13599,6.7585e+07,1,0.52,0.84,24.18,-0.017237,-0.0085278,-0.15341,0.085483,-1.6599,0.25087,0.65488,-0.03,0.04,0.22,96.55
13643,6.7595e+07,1,0.52,0.83,24.18,-0.017563,-0.0081384,-0.15357,0.081545,-1.6601,0.25078,0.65319,-0.03,0.04,0.22,96.55
13688,6.7605e+07,1,0.52,0.83,24.18,-0.01691,-0.0087688,-0.15247,0.079685,-1.6598,0.25063,0.65455,-0.03,0.04,0.21,96.55
13733,6.7615e+07,1,0.52,0.82,24.17,-0.016099,-0.0097086,-0.15067,0.072102,-1.6595,0.25047,0.6558,-0.03,0.04,0.21,96.55
13777,6.7626e+07,1,0.51,0.82,24.17,-0.016465,-0.0085332,-0.15021,0.069333,-1.6597,0.25038,0.65429,-0.03,0.04,0.21,96.55
13825,6.7636e+07,1,0.51,0.83,24.17,-0.015665,-0.008195,-0.14776,0.067446,-1.6595,0.25022,0.65526,-0.03,0.04,0.21,96.55
13870,6.7646e+07,1,0.51,0.82,24.16,-0.014768,-0.0086605,-0.14822,0.06329,-1.6592,0.25008,0.65625,-0.03,0.04,0.21,96.55
13915,6.7656e+07,1,0.51,0.82,24.16,-0.014388,-0.009257,-0.14572,0.062374,-1.659,0.24994,0.65709,-0.03,0.04,0.21,96.55
13959,6.7666e+07,1,0.51,0.83,24.16,-0.013602,-0.010606,-0.1448,0.059352,-1.6591,0.24984,0.65563,-0.03,0.04,0.21,96.55
14005,6.7676e+07,1,0.52,0.83,24.16,-0.013006,-0.01104,-0.14411,0.055049,-1.6589,0.24968,0.65639,-0.03,0.04,0.21,96.55
14053,6.769e+07,1,0.52,0.83,24.17,-0.014419,-0.010155,-0.14432,0.050275,-1.6587,0.2495,0.65658,-0.03,0.04,0.21,96.55
14099,6.7703e+07,1,0.52,0.83,24.17,-0.013554,-0.010844,-0.14324,0.045434,-1.6585,0.24931,0.65664,-0.03,0.04,0.21,96.55
14142,6.7714e+07,1,0.52,0.83,24.18,-0.012609,-0.01014,-0.14247,0.045427,-1.658,0.24907,0.65838,-0.03,0.04,0.21,96.55
14189,6.7724e+07,1,0.53,0.83,24.18,-0.013125,-0.010506,-0.14062,0.051474,-1.6575,0.24883,0.65994,-0.03,0.04,0.21,96.55
14233,6.7734e+07,1,0.53,0.83,24.18,-0.012799,-0.01099,-0.14006,0.055722,-1.6569,0.24861,0.6615,-0.03,0.04,0.21,96.55
14282,6.7744e+07,1,0.53,0.82,24.18,-0.012172,-0.01049,-0.13836,0.061373,-1.6565,0.24839,0.66289,-0.03,0.04,0.22,96.55
14327,6.7754e+07,1,0.53,0.83,24.18,-0.01273,-0.009443,-0.13807,0.064579,-1.6566,0.24829,0.6615,-0.03,0.04,0.22,96.55
14372,6.7764e+07,1,0.53,0.83,24.19,-0.011464,-0.0094504,-0.13689,0.066838,-1.6561,0.24809,0.6628,-0.03,0.04,0.21,96.55
14417,6.7775e+07,1,0.53,0.83,24.19,-0.010357,-0.0096296,-0.1359,0.063847,-1.6562,0.24799,0.66143,-0.03,0.04,0.21,96.55
14461,6.7786e+07,1,0.52,0.83,24.19,-0.0091824,-0.010557,-0.13575,0.05872,-1.6557,0.24777,0.6625,-0.03,0.04,0.21,96.55
14504,6.7797e+07,1,0.52,0.83,24.18,-0.0085857,-0.011769,-0.1355,0.05528,-1.6553,0.24754,0.66359,-0.03,0.04,0.21,96.55
14548,6.7807e+07,1,0.52,0.83,24.18,-0.0083674,-0.011963,-0.13406,0.053937,-1.6548,0.24732,0.66451,-0.03,0.04,0.21,96.55
14594,6.7817e+07,1,0.52,0.83,24.19,-0.0077675,-0.012517,-0.13316,0.052225,-1.6549,0.2472,0.66318,-0.03,0.04,0.21,96.55
14640,6.7828e+07,1,0.52,0.83,24.19,-0.0073657,-0.011598,-0.13231,0.049818,-1.6545,0.24698,0.66416,-0.03,0.04,0.21,96.55
14685,6.7838e+07,1,0.51,0.82,24.19,-0.0078672,-0.011344,-0.13201,0.042633,-1.6541,0.24677,0.66504,-0.03,0.04,0.21,96.55
14734,6.7848e+07,1,0.52,0.82,24.18,-0.0083495,-0.011322,-0.13083,0.040742,-1.6541,0.24666,0.66371,-0.03,0.04,0.21,96.55
14778,6.7859e+07,1,0.52,0.81,24.18,-0.0087939,-0.011119,-0.12895,0.037775,-1.6538,0.24645,0.66438,-0.03,0.04,0.21,96.55
14823,6.7869e+07,1,0.52,0.81,24.18,-0.0084019,-0.011439,-0.12912,0.034043,-1.6534,0.24625,0.66501,-0.03,0.04,0.21,96.55
14868,6.7879e+07,1,0.52,0.81,24.18,-0.0067083,-0.011101,-0.12677,0.032119,-1.653,0.24607,0.66558,-0.03,0.04,0.21,96.55
14913,6.7889e+07,1,0.53,0.81,24.18,-0.0074485,-0.0099159,-0.12469,0.030131,-1.6527,0.24589,0.66601,-0.03,0.04,0.21,96.55
14958,6.7899e+07,1,0.53,0.81,24.18,-0.0075613,-0.011276,-0.12331,0.0289,-1.6528,0.24577,0.66465,-0.03,0.04,0.21,96.55
15004,6.7913e+07,1,0.53,0.82,24.18,-0.0075785,-0.011175,-0.1206,0.025844,-1.6525,0.24554,0.66471,-0.03,0.04,0.21,96.55
15047,6.7924e+07,1,0.53,0.82,24.18,-0.0073647,-0.011254,-0.12083,0.023167,-1.6519,0.24545,0.6657,-0.03,0.04,0.21,96.55
15091,6.7935e+07,1,0.52,0.82,24.18,-0.0072048,-0.010711,-0.11783,0.02672,-1.6513,0.24536,0.66655,-0.03,0.04,0.21,96.55
15140,6.7945e+07,1,0.53,0.82,24.18,-0.0060194,-0.010014,-0.11664,0.028111,-1.6508,0.24528,0.66742,-0.03,0.04,0.21,96.55
15186,6.7955e+07,1,0.52,0.83,24.18,-0.00616,-0.0094671,-0.11633,0.025922,-1.6503,0.24521,0.66818,-0.03,0.04,0.21,96.55
15230,6.7965e+07,1,0.52,0.83,24.18,-0.0050021,-0.0095378,-0.11543,0.027039,-1.6504,0.24511,0.66691,-0.03,0.04,0.21,96.55
15275,6.7976e+07,1,0.52,0.83,24.18,-0.0041141,-0.0082331,-0.11322,0.027753,-1.6499,0.24504,0.66759,-0.03,0.04,0.21,96.55
15319,6.7986e+07,1,0.52,0.82,24.18,-0.0042151,-0.0097308,-0.11265,0.022857,-1.6499,0.24495,0.66634,-0.03,0.04,0.21,96.55
15364,6.7996e+07,1,0.52,0.82,24.19,-0.0042402,-0.0096708,-0.11111,0.018096,-1.6494,0.24488,0.667,-0.03,0.04,0.21,96.55
15411,6.8009e+07,1,0.52,0.82,24.19,-0.0050965,-0.0089435,-0.11004,0.012185,-1.649,0.24478,0.66747,-0.03,0.04,0.21,96.55
15456,6.8019e+07,1,0.52,0.82,24.19,-0.0042795,-0.008697,-0.10933,0.0090627,-1.6485,0.24473,0.66826,-0.03,0.04,0.21,96.55
15503,6.8029e+07,1,0.53,0.82,24.19,-0.0037707,-0.0096976,-0.10974,0.0081361,-1.6486,0.24463,0.66707,-0.03,0.04,0.21,96.55
15547,6.804e+07,1,0.53,0.83,24.19,-0.0029868,-0.010283,-0.10819,0.0083517,-1.6481,0.24456,0.66766,-0.03,0.04,0.21,96.55
15595,6.805e+07,1,0.54,0.83,24.19,-0.0026685,-0.0097175,-0.1057,0.0085669,-1.6477,0.2445,0.66817,-0.03,0.04,0.21,96.55
15640,6.806e+07,1,0.54,0.82,24.19,-0.0022856,-0.0098239,-0.1052,0.0065041,-1.6473,0.24443,0.66859,-0.03,0.04,0.21,96.55
15685,6.807e+07,1,0.54,0.82,24.2,-0.0027215,-0.0093117,-0.10352,0.0072721,-1.6469,0.24437,0.6689,-0.03,0.04,0.21,96.55
15730,6.8081e+07,1,0.54,0.82,24.2,-0.00262,-0.0092184,-0.10476,0.0061031,-1.6469,0.24427,0.66775,-0.03,0.04,0.21,96.55
15781,6.8097e+07,1,0.54,0.81,24.19,-0.0015091,-0.0088038,-0.10355,0.0054638,-1.6458,0.2443,0.66941,-0.03,0.04,0.21,96.55
15823,6.8107e+07,1,0.54,0.8,24.19,-0.0017312,-0.0078788,-0.10516,0.0038325,-1.6451,0.24434,0.67019,-0.03,0.04,0.21,96.55
15867,6.8118e+07,1,0.54,0.8,24.19,-0.0023325,-0.0088349,-0.10501,0.007207,-1.6452,0.24425,0.66914,-0.03,0.04,0.21,96.55
15911,6.8128e+07,1,0.53,0.8,24.19,-0.0015776,-0.0093624,-0.10353,0.010911,-1.6445,0.24429,0.6699,-0.03,0.04,0.21,96.55
15955,6.8138e+07,1,0.53,0.8,24.19,-0.0038712,-0.008486,-0.10157,0.016348,-1.6439,0.24432,0.67056,-0.03,0.04,0.22,96.55
16000,6.8148e+07,1,0.53,0.8,24.19,-0.0040573,-0.0084694,-0.10035,0.01995,-1.6433,0.24435,0.67102,-0.03,0.04,0.22,96.55
16050,6.8158e+07,1,0.54,0.81,24.2,-0.0027607,-0.0089119,-0.099547,0.021995,-1.6427,0.24438,0.6715,-0.03,0.04,0.22,96.55
16094,6.8169e+07,1,0.54,0.81,24.2,-0.0013767,-0.0090316,-0.098197,0.024157,-1.6422,0.24442,0.67188,-0.03,0.04,0.22,96.55
16140,6.8179e+07,1,0.54,0.82,24.19,-0.00023359,-0.0078017,-0.098569,0.023438,-1.6417,0.24446,0.67217,-0.03,0.04,0.22,96.55
16185,6.8189e+07,1,0.54,0.82,24.19,-0.0019015,-0.0060295,-0.099179,0.022965,-1.6417,0.24438,0.67118,-0.03,0.04,0.22,96.55
16232,6.8202e+07,1,0.54,0.81,24.18,8.3984e-05,-0.0066799,-0.099014,0.020358,-1.6412,0.2444,0.6711,-0.03,0.04,0.22,96.55
16277,6.8212e+07,1,0.52,0.81,24.18,0.00039132,-0.0058826,-0.097959,0.018397,-1.6407,0.24444,0.67124,-0.03,0.04,0.22,96.55
16323,6.8222e+07,1,0.53,0.81,24.18,0.0012013,-0.0055687,-0.097745,0.014945,-1.6402,0.24447,0.67129,-0.03,0.04,0.22,96.55
16370,6.8232e+07,1,0.54,0.81,24.18,0.0024254,-0.0073785,-0.099139,0.0088932,-1.6397,0.24451,0.67125,-0.03,0.04,0.22,96.55
16415,6.8243e+07,1,0.55,0.82,24.18,0.0032861,-0.0078938,-0.10179,0.00091137,-1.6397,0.24442,0.67014,-0.03,0.04,0.22,96.55
16462,6.8253e+07,1,0.55,0.83,24.19,0.0034183,-0.0085747,-0.10063,-0.0043003,-1.6392,0.24445,0.67005,-0.03,0.04,0.22,96.55
16508,6.8263e+07,1,0.54,0.84,24.19,0.0037702,-0.0078996,-0.10105,-0.011499,-1.6388,0.24446,0.66978,-0.03,0.04,0.22,96.55
16553,6.8273e+07,1,0.53,0.84,24.19,0.0041944,-0.0065908,-0.10124,-0.017988,-1.6383,0.24447,0.66956,-0.03,0.04,0.22,96.55
16598,6.8284e+07,1,0.53,0.84,24.17,0.0033508,-0.0071824,-0.097952,-0.019566,-1.6383,0.2444,0.66856,-0.03,0.04,0.22,96.55
16642,6.8294e+07,1,0.53,0.83,24.17,0.0039906,-0.0083907,-0.10071,-0.027531,-1.6379,0.24442,0.6683,-0.03,0.04,0.22,96.55
16683,6.8306e+07,1,0.53,0.83,24.17,0.004005,-0.0070197,-0.099682,-0.02938,-1.6371,0.24465,0.66888,-0.03,0.04,0.22,96.55
16727,6.8316e+07,1,0.53,0.83,24.17,0.006851,-0.0075616,-0.097068,-0.025617,-1.6363,0.24489,0.66974,-0.03,0.04,0.22,96.55
16772,6.8326e+07,1,0.55,0.83,24.17,0.0084102,-0.0082461,-0.0964,-0.021833,-1.6356,0.24514,0.67049,-0.03,0.04,0.22,96.55
16817,6.8336e+07,1,0.56,0.84,24.17,0.0085012,-0.0071563,-0.097028,-0.018623,-1.6355,0.2451,0.66952,-0.03,0.04,0.22,96.55
16862,6.8347e+07,1,0.55,0.82,24.18,0.0065841,-0.0084361,-0.096922,-0.014667,-1.6348,0.24534,0.67009,-0.03,0.04,0.22,96.55
16912,6.8357e+07,1,0.53,0.84,24.19,0.0066278,-0.0042296,-0.097113,-0.011378,-1.6342,0.24557,0.67067,-0.03,0.04,0.22,96.55
16957,6.8367e+07,1,0.52,0.84,24.19,0.0075071,-0.0034668,-0.098021,-0.010877,-1.6335,0.24579,0.67116,-0.03,0.04,0.22,96.55
17003,6.8377e+07,1,0.54,0.84,24.2,0.0064486,-0.0043491,-0.096902,-0.0060899,-1.6334,0.24575,0.6701,-0.03,0.04,0.22,96.55
17048,6.8387e+07,1,0.55,0.85,24.2,0.0062957,-0.0042232,-0.096131,-0.0034442,-1.6328,0.24598,0.67051,-0.03,0.04,0.22,96.55
17092,6.8398e+07,1,0.54,0.85,24.2,0.0064013,-0.0046797,-0.09453,-0.0027151,-1.6327,0.24593,0.66956,-0.03,0.04,0.22,96.55
17137,6.8409e+07,1,0.55,0.86,24.2,0.0066598,-0.0042585,-0.093436,-0.0041901,-1.6321,0.24613,0.66987,-0.03,0.04,0.21,96.55
17182,6.8419e+07,1,0.54,0.87,24.2,0.005375,-0.001643,-0.096139,-0.0087431,-1.6315,0.24634,0.67018,-0.03,0.04,0.21,96.55
17230,6.8432e+07,1,0.55,0.86,24.2,0.0058831,-0.0042137,-0.094702,-0.0074614,-1.631,0.24655,0.67037,-0.03,0.04,0.22,96.55
17275,6.8442e+07,1,0.56,0.87,24.17,0.0053053,-0.0036175,-0.094309,-0.0072979,-1.6304,0.24674,0.67076,-0.03,0.04,0.22,96.55
17321,6.8452e+07,1,0.56,0.87,24.15,0.0062576,-0.0070671,-0.0959,-0.0070423,-1.6304,0.24669,0.6697,-0.03,0.04,0.22,96.55
17370,6.8463e+07,1,0.57,0.86,24.14,0.0081435,-0.0069246,-0.095846,-0.0064535,-1.6298,0.24686,0.66999,-0.03,0.04,0.22,96.55
17415,6.8473e+07,1,0.54,0.86,24.14,0.007248,-0.0044834,-0.096352,-0.0064826,-1.6293,0.24702,0.67019,-0.03,0.04,0.22,96.55
17460,6.8483e+07,1,0.52,0.87,24.13,0.0096615,-0.0037483,-0.092374,-0.0035714,-1.6292,0.24696,0.66924,-0.03,0.04,0.22,96.55
17504,6.8493e+07,1,0.53,0.87,24.12,0.010452,-0.0055724,-0.092841,-0.0055445,-1.6287,0.24712,0.66941,-0.03,0.04,0.21,96.55
17551,6.8503e+07,1,0.51,0.87,24.14,0.01118,-0.0088769,-0.088831,-0.0049174,-1.6286,0.24702,0.6685,-0.03,0.04,0.21,96.55
17590,6.8515e+07,1,0.49,0.87,24.16,0.013225,-0.0030043,-0.087894,-0.0066115,-1.6279,0.24717,0.66951,-0.03,0.04,0.21,96.55
17634,6.8525e+07,1,0.47,0.87,24.19,0.011019,-0.00012091,-0.083268,0.001433,-1.6273,0.24736,0.6709,-0.03,0.04,0.21,96.55
17679,6.8535e+07,1,0.5,0.86,24.19,0.010909,-0.0043173,-0.085863,0.001696,-1.6267,0.24755,0.67217,-0.03,0.04,0.21,96.55
17724,6.8545e+07,1,0.49,0.88,24.23,0.013501,-0.0083574,-0.08324,0.011354,-1.6261,0.2477,0.67328,-0.03,0.04,0.21,96.55
17770,6.8555e+07,1,0.47,0.87,24.24,0.012592,-0.0044028,-0.089003,0.015887,-1.626,0.24762,0.67234,-0.03,0.04,0.21,96.55
17818,6.8566e+07,1,0.47,0.88,24.25,0.0088563,-0.0017415,-0.084273,0.027707,-1.6254,0.2478,0.67333,-0.03,0.04,0.21,96.55
17863,6.8576e+07,1,0.52,0.87,24.23,0.0095985,-0.0046826,-0.085011,0.033493,-1.625,0.24798,0.67423,-0.03,0.04,0.22,96.55
17908,6.8586e+07,1,0.52,0.87,24.24,0.014219,-0.0091752,-0.07877,0.044435,-1.6244,0.24812,0.67503,-0.03,0.04,0.22,96.55
17953,6.8596e+07,1,0.53,0.85,24.22,0.013792,-0.007266,-0.080182,0.046652,-1.6239,0.24824,0.67577,-0.03,0.04,0.22,96.55
18000,6.8609e+07,1,0.52,0.87,24.2,0.01334,-0.00011744,-0.074646,0.056165,-1.6234,0.2484,0.67621,-0.03,0.04,0.22,96.55
18046,6.862e+07,1,0.57,0.87,24.15,0.016305,-0.0027836,-0.078991,0.054064,-1.623,0.24856,0.67675,-0.03,0.04,0.22,96.55
18091,6.863e+07,1,0.56,0.87,24.15,0.021407,-0.0081954,-0.073368,0.061153,-1.6225,0.24866,0.6772,-0.03,0.04,0.22,96.55
18135,6.8641e+07,1,0.55,0.86,24.13,0.016562,-0.0048788,-0.077952,0.057586,-1.6223,0.24857,0.67644,-0.03,0.04,0.22,96.55
18180,6.8651e+07,1,0.53,0.87,24.13,0.013174,-0.00070762,-0.069673,0.064047,-1.6219,0.2487,0.67683,-0.03,0.04,0.22,96.55
18224,6.8661e+07,1,0.57,0.88,24.12,0.01621,-0.006002,-0.078266,0.050283,-1.6215,0.24882,0.67723,-0.03,0.04,0.22,96.55
18273,6.8673e+07,1,0.53,0.88,24.14,0.022317,-0.011406,-0.074853,0.049496,-1.6213,0.24871,0.6764,-0.03,0.04,0.22,96.55
18319,6.8682e+07,1,0.5,0.88,24.16,0.014067,-0.0068058,-0.077878,0.041604,-1.6208,0.24875,0.67672,-0.03,0.04,0.22,96.55
18366,6.8693e+07,1,0.49,0.89,24.17,0.0099735,-0.0024147,-0.076035,0.038647,-1.6205,0.24884,0.67695,-0.03,0.04,0.22,96.55
18405,6.8704e+07,1,0.51,0.91,24.19,0.015966,-0.0078975,-0.07864,0.032913,-1.6199,0.24867,0.67796,-0.03,0.04,0.22,96.55
18451,6.8714e+07,1,0.48,0.88,24.2,0.019705,-0.011891,-0.075244,0.036866,-1.6193,0.24847,0.67886,-0.03,0.04,0.22,96.55
18499,6.8728e+07,1,0.46,0.9,24.21,0.0083176,-0.0057654,-0.072683,0.039825,-1.6187,0.24828,0.67961,-0.03,0.04,0.22,96.55
18543,6.8738e+07,1,0.49,0.88,24.18,0.0094664,-0.0072603,-0.073419,0.040546,-1.6182,0.24816,0.68051,-0.03,0.04,0.22,96.55
18588,6.8748e+07,1,0.51,0.91,24.19,0.019983,-0.012277,-0.0719,0.04412,-1.6181,0.24807,0.67979,-0.03,0.04,0.22,96.55
18632,6.8758e+07,1,0.49,0.88,24.16,0.020055,-0.01309,-0.068732,0.048265,-1.6175,0.24787,0.6806,-0.03,0.04,0.22,96.55
18677,6.8768e+07,1,0.51,0.9,24.15,0.0094159,-0.008393,-0.069442,0.049447,-1.617,0.24772,0.68133,-0.03,0.04,0.22,96.55
18726,6.8778e+07,1,0.55,0.88,24.11,0.0091524,-0.0099296,-0.068621,0.049606,-1.6166,0.24759,0.68198,-0.03,0.04,0.22,96.55
18771,6.8789e+07,1,0.57,0.93,24.12,0.023974,-0.015129,-0.069992,0.048144,-1.6161,0.24742,0.68246,-0.03,0.04,0.22,96.55
18817,6.8799e+07,1,0.55,0.88,24.08,0.021362,-0.014016,-0.067496,0.049484,-1.6156,0.24722,0.68293,-0.03,0.04,0.22,96.55
18862,6.8809e+07,1,0.55,0.93,24.08,0.01057,-0.0087732,-0.067747,0.048245,-1.6151,0.24704,0.68326,-0.03,0.04,0.22,96.55
18907,6.882e+07,1,0.58,0.9,24.07,0.012203,-0.009033,-0.066407,0.048761,-1.615,0.24695,0.68258,-0.03,0.04,0.22,96.55
18952,6.883e+07,1,0.59,0.94,24.1,0.028914,-0.013056,-0.066968,0.04629,-1.6145,0.24678,0.68311,-0.03,0.04,0.22,96.55
18996,6.884e+07,1,0.55,0.89,24.09,0.021036,-0.011989,-0.065812,0.04526,-1.614,0.24659,0.68356,-0.03,0.04,0.22,96.55
19041,6.8851e+07,1,0.52,0.92,24.11,0.0089837,-0.0055019,-0.060575,0.046927,-1.6136,0.24642,0.6839,-0.03,0.04,0.22,96.55
19085,6.8861e+07,1,0.54,0.91,24.12,0.011989,-0.0080603,-0.066406,0.03751,-1.6133,0.24628,0.68424,-0.03,0.04,0.22,96.55
19132,6.8871e+07,1,0.52,0.92,24.15,0.028643,-0.010364,-0.064105,0.036865,-1.6131,0.24616,0.68352,-0.03,0.04,0.22,96.55
19180,6.8882e+07,1,0.49,0.91,24.16,0.017555,-0.0091107,-0.068585,0.028622,-1.6126,0.24599,0.68378,-0.03,0.04,0.22,96.55
19225,6.8892e+07,1,0.48,0.92,24.15,0.0088803,-0.0054599,-0.061985,0.031968,-1.6123,0.24584,0.68397,-0.03,0.04,0.22,96.55
19268,6.8903e+07,1,0.51,0.96,24.17,0.01968,-0.011952,-0.068524,0.021691,-1.6121,0.24575,0.68515,-0.03,0.04,0.22,96.55
19310,6.8914e+07,1,0.5,0.93,24.14,0.032135,-0.015126,-0.065384,0.023868,-1.6118,0.2456,0.68443,-0.03,0.04,0.22,96.55
19355,6.8923e+07,1,0.49,0.97,24.15,0.020267,-0.013909,-0.066594,0.022924,-1.6115,0.2455,0.68557,-0.03,0.04,0.22,96.55
19399,6.8933e+07,1,0.52,0.93,24.1,0.012095,-0.014225,-0.062468,0.025712,-1.6114,0.24539,0.68495,-0.03,0.04,0.22,96.55
19444,6.8944e+07,1,0.55,1,24.13,0.02862,-0.015717,-0.061083,0.027703,-1.6112,0.24527,0.68613,-0.03,0.04,0.22,96.55
19489,6.8955e+07,1,0.54,0.92,24.08,0.029872,-0.015076,-0.06318,0.02761,-1.6109,0.24515,0.68729,-0.03,0.04,0.22,96.55
19533,6.8965e+07,1,0.53,0.97,24.09,0.017302,-0.01212,-0.057158,0.034385,-1.6107,0.24506,0.68834,-0.03,0.04,0.22,96.55
19578,6.8975e+07,1,0.58,0.92,24.05,0.0096665,-0.014784,-0.059682,0.035354,-1.6106,0.24498,0.68933,-0.03,0.04,0.22,96.55
19628,6.8985e+07,1,0.59,0.99,24.1,0.028168,-0.016811,-0.055332,0.045008,-1.6104,0.24485,0.68873,-0.03,0.04,0.22,96.55
19673,6.8995e+07,1,0.56,0.93,24.07,0.022281,-0.012583,-0.059787,0.044505,-1.6101,0.24472,0.68957,-0.03,0.04,0.22,96.55
19717,6.9005e+07,1,0.53,0.95,24.09,0.008679,-0.010212,-0.052785,0.053972,-1.61,0.24462,0.69036,-0.03,0.04,0.22,96.55
19762,6.9015e+07,1,0.57,0.95,24.1,0.0036891,-0.011467,-0.057819,0.049204,-1.6099,0.24451,0.68979,-0.03,0.04,0.22,96.55
19807,6.9025e+07,1,0.56,0.98,24.13,0.022323,-0.011604,-0.05313,0.053937,-1.6098,0.24442,0.69053,-0.03,0.04,0.22,96.55
19851,6.9035e+07,1,0.53,0.96,24.13,0.01836,-0.0078025,-0.056893,0.049477,-1.6095,0.24433,0.69119,-0.03,0.04,0.22,96.55
19896,6.9045e+07,1,0.5,0.98,24.14,0.006193,-0.0043761,-0.050262,0.053919,-1.6094,0.24425,0.69064,-0.03,0.04,0.22,96.55
19940,6.9055e+07,1,0.53,1,24.14,0.0054959,-0.0081789,-0.054615,0.048078,-1.6094,0.24418,0.69147,-0.03,0.04,0.22,96.55
19985,6.9065e+07,1,0.52,1,24.14,0.024015,-0.010572,-0.050092,0.051149,-1.6092,0.24409,0.69222,-0.03,0.04,0.22,96.55
20029,6.9075e+07,1,0.5,0.99,24.13,0.017176,-0.0062625,-0.053874,0.044868,-1.609,0.244,0.69168,-0.03,0.04,0.22,96.55
20078,6.9086e+07,1,0.49,0.98,24.11,0.0045344,-0.0037055,-0.047213,0.048138,-1.6089,0.24396,0.69241,-0.03,0.04,0.22,96.55
20123,6.9096e+07,1,0.54,1.02,24.12,0.0087341,-0.0065911,-0.053348,0.037362,-1.6088,0.2439,0.69303,-0.03,0.04,0.22,96.55
20182,6.9168e+07,1,0.58,0.99,24.07,0.003308,-0.011258,-0.049647,0.070207,-1.6087,0.24451,0.70029,-0.03,0.04,0.22,96.55
20227,6.9178e+07,1,0.57,1.02,24.11,0.021367,-0.01359,-0.043375,0.08262,-1.6087,0.2446,0.70169,-0.03,0.04,0.22,96.55
20275,6.9189e+07,1,0.56,1,24.1,0.023387,-0.011583,-0.048104,0.082768,-1.6085,0.24447,0.70123,-0.03,0.04,0.22,96.55
20320,6.9199e+07,1,0.51,0.98,24.11,0.0046968,-0.010474,-0.037123,0.09746,-1.6085,0.24456,0.70254,-0.03,0.04,0.22,96.55
20367,6.921e+07,1,0.55,1,24.11,-0.0013063,-0.013376,-0.042406,0.094463,-1.6087,0.24466,0.70381,-0.03,0.04,0.22,96.55
20412,6.922e+07,1,0.53,0.99,24.12,0.016295,-0.014983,-0.037003,0.099314,-1.6088,0.24474,0.705,-0.03,0.04,0.22,96.55
20457,6.923e+07,1,0.52,0.99,24.11,0.0097441,-0.012994,-0.042694,0.094929,-1.6086,0.24461,0.70453,-0.03,0.04,0.22,96.55
20501,6.9241e+07,1,0.49,0.95,24.08,-0.0058626,-0.011962,-0.036946,0.099977,-1.6087,0.2447,0.70564,-0.03,0.04,0.22,96.55
20546,6.9251e+07,1,0.53,0.99,24.09,-0.0062115,-0.015184,-0.041234,0.094624,-1.6089,0.24477,0.70661,-0.03,0.04,0.22,96.55
20590,6.9261e+07,1,0.52,0.96,24.08,0.0093901,-0.015601,-0.037795,0.095274,-1.6089,0.24464,0.70624,-0.03,0.04,0.22,96.55
20636,6.9271e+07,1,0.52,1.01,24.08,0.0047978,-0.0088787,-0.045457,0.082778,-1.6089,0.2447,0.70706,-0.03,0.04,0.22,96.55
20680,6.9282e+07,1,0.53,0.97,24.04,-0.0095399,-0.0083514,-0.044907,0.079571,-1.6091,0.24481,0.70788,-0.03,0.04,0.22,96.55
20732,6.9295e+07,1,0.55,1.04,24.07,0.0079438,-0.012988,-0.042376,0.076269,-1.6093,0.24482,0.70844,-0.03,0.04,0.22,96.55
20777,6.9304e+07,1,0.55,1,24.05,0.012072,-0.0092635,-0.048488,0.065067,-1.6094,0.24484,0.70908,-0.03,0.04,0.22,96.55
20821,6.9318e+07,1,0.55,0.97,24.03,-0.011962,-0.011986,-0.039394,0.06977,-1.6092,0.24474,0.70982,-0.03,0.04,0.22,96.55
20866,6.9328e+07,1,0.59,1.03,24.06,-0.0088058,-0.014296,-0.0445,0.061639,-1.6093,0.24463,0.70939,-0.03,0.04,0.22,96.55
20911,6.9338e+07,1,0.57,0.99,24.07,0.0063437,-0.017213,-0.040516,0.063137,-1.609,0.24454,0.71027,-0.03,0.04,0.22,96.55
20955,6.9348e+07,1,0.56,1.03,24.09,0.0022468,-0.01449,-0.044478,0.057374,-1.6087,0.24446,0.71135,-0.03,0.04,0.22,96.55
21000,6.9359e+07,1,0.56,0.98,24.07,-0.011578,-0.011545,-0.041306,0.059094,-1.6086,0.2444,0.71238,-0.03,0.04,0.22,96.55
21044,6.9369e+07,1,0.57,1.05,24.11,-0.0053049,-0.016166,-0.04531,0.054737,-1.6087,0.24426,0.71193,-0.03,0.04,0.22,96.55
21091,6.9379e+07,1,0.55,0.99,24.11,0.0053673,-0.017739,-0.043257,0.055044,-1.6085,0.24413,0.71288,-0.03,0.04,0.22,96.55
21141,6.9389e+07,1,0.52,1.03,24.12,-0.0019179,-0.014111,-0.045894,0.050695,-1.6083,0.24403,0.71369,-0.03,0.04,0.22,96.55
21186,6.9399e+07,1,0.53,0.99,24.09,-0.01622,-0.015121,-0.043494,0.051767,-1.6083,0.24394,0.71448,-0.03,0.04,0.22,96.55
21231,6.9409e+07,1,0.54,1.06,24.12,-0.0046584,-0.016992,-0.043799,0.051676,-1.6084,0.24377,0.71403,-0.03,0.04,0.22,96.55
21275,6.9419e+07,1,0.53,1.03,24.1,0.0055515,-0.014867,-0.045616,0.048947,-1.6083,0.24361,0.7147,-0.03,0.04,0.22,96.55
21320,6.9429e+07,1,0.5,1.04,24.08,-0.0051543,-0.010954,-0.042818,0.049397,-1.6081,0.24351,0.71528,-0.03,0.04,0.22,96.55
21364,6.9439e+07,1,0.54,1.01,24.05,-0.017493,-0.013366,-0.043488,0.047506,-1.6082,0.24341,0.71602,-0.03,0.04,0.22,96.55
21408,6.9449e+07,1,0.54,1.05,24.07,-0.0031027,-0.014906,-0.039946,0.049634,-1.6083,0.24324,0.71559,-0.03,0.04,0.22,96.55
21453,6.946e+07,1,0.54,1.03,24.06,0.003115,-0.016315,-0.044064,0.044063,-1.6082,0.24309,0.71626,-0.03,0.04,0.22,96.55
21499,6.947e+07,1,0.51,1.02,24.05,-0.01049,-0.017213,-0.036423,0.050457,-1.6081,0.24292,0.71678,-0.03,0.04,0.22,96.55
21543,6.9481e+07,1,0.57,1.03,24.06,-0.019383,-0.020293,-0.045443,0.040386,-1.6082,0.24277,0.71729,-0.03,0.04,0.22,96.55
21592,6.9492e+07,1,0.57,1.02,24.06,-0.0025408,-0.02563,-0.038702,0.045126,-1.6082,0.24257,0.71769,-0.03,0.04,0.22,96.55
21633,6.9503e+07,1,0.55,1.04,24.08,-0.0055042,-0.024949,-0.043105,0.039336,-1.6077,0.2426,0.71836,-0.03,0.04,0.22,96.55
21678,6.9513e+07,1,0.53,0.99,24.06,-0.019345,-0.023044,-0.039123,0.041915,-1.6073,0.24265,0.71904,-0.03,0.04,0.22,96.55
21723,6.9523e+07,1,0.57,1.06,24.1,-0.014829,-0.025761,-0.042823,0.037126,-1.6071,0.24269,0.71962,-0.03,0.04,0.22,96.55
21767,6.9534e+07,1,0.58,1.01,24.1,0.00028693,-0.024394,-0.039415,0.040452,-1.6071,0.24246,0.7192,-0.03,0.04,0.22,96.55
21812,6.9543e+07,1,0.54,1.06,24.11,-0.0032891,-0.021444,-0.03888,0.040497,-1.6067,0.2425,0.71995,-0.03,0.04,0.22,96.55
21857,6.9554e+07,1,0.55,1.01,24.09,-0.016007,-0.019692,-0.036386,0.042806,-1.6063,0.24254,0.72069,-0.03,0.04,0.22,96.55
21901,6.9564e+07,1,0.55,1.09,24.13,-0.0015294,-0.019388,-0.037226,0.041623,-1.6061,0.24253,0.72127,-0.03,0.04,0.22,96.55
21947,6.9574e+07,1,0.55,1.04,24.11,0.0061112,-0.018813,-0.040786,0.037291,-1.6061,0.2423,0.72091,-0.03,0.04,0.22,96.55
21992,6.9584e+07,1,0.51,1.06,24.1,-0.0024344,-0.013425,-0.036315,0.040533,-1.6057,0.24231,0.72147,-0.03,0.04,0.22,96.55
22040,6.9594e+07,1,0.54,1.03,24.08,-0.014056,-0.013012,-0.037255,0.036585,-1.6058,0.24215,0.72113,-0.03,0.04,0.22,96.55
22085,6.9605e+07,1,0.54,1.07,24.1,0.0025175,-0.014862,-0.034477,0.036601,-1.6055,0.24217,0.72168,-0.03,0.04,0.22,96.55
22130,6.9615e+07,1,0.54,1.05,24.09,0.0057382,-0.014635,-0.038585,0.028103,-1.6055,0.24196,0.72129,-0.03,0.04,0.22,96.55
22175,6.9626e+07,1,0.51,1.02,24.07,-0.0044179,-0.015031,-0.030539,0.032017,-1.6051,0.24199,0.72184,-0.03,0.04,0.22,96.55
22220,6.9636e+07,1,0.56,1.04,24.08,-0.014669,-0.018381,-0.036671,0.02254,-1.6049,0.24201,0.72237,-0.03,0.04,0.22,96.55
22265,6.9646e+07,1,0.55,1.04,24.09,0.0019753,-0.021061,-0.026812,0.029986,-1.6046,0.24199,0.72283,-0.03,0.04,0.22,96.55
22309,6.9656e+07,1,0.56,1.06,24.1,0.0010363,-0.020802,-0.033905,0.021683,-1.6046,0.24175,0.72249,-0.03,0.04,0.22,96.55
22354,6.9667e+07,1,0.53,1.02,24.08,-0.012936,-0.019214,-0.023848,0.030203,-1.6043,0.24175,0.72292,-0.03,0.04,0.22,96.55
22399,6.9677e+07,1,0.58,1.07,24.11,-0.013296,-0.022439,-0.029566,0.023517,-1.6041,0.24174,0.72352,-0.03,0.04,0.22,96.55
22444,6.9687e+07,1,0.58,1.04,24.12,0.0011144,-0.026893,-0.024052,0.028206,-1.6038,0.24168,0.72407,-0.03,0.04,0.22,96.55
22500,6.9703e+07,1,0.51,1.04,24.12,-0.011085,-0.017193,-0.02218,0.029899,-1.6036,0.24147,0.72436,-0.03,0.04,0.22,96.55
22545,6.9716e+07,1,0.58,1.08,24.13,-0.013514,-0.026587,-0.02672,0.024667,-1.6037,0.2418,0.72549,-0.03,0.04,0.22,96.55
22591,6.9726e+07,1,0.57,1.04,24.12,-0.00052953,-0.027417,-0.020682,0.031811,-1.6036,0.24217,0.72668,-0.03,0.04,0.22,96.55
22636,6.9737e+07,1,0.55,1.07,24.12,-0.0023716,-0.025827,-0.024929,0.032573,-1.6036,0.24191,0.72641,-0.03,0.04,0.22,96.55
22680,6.9747e+07,1,0.56,1.04,24.09,-0.017181,-0.02256,-0.018593,0.043248,-1.6036,0.24224,0.72749,-0.03,0.04,0.22,96.55
22725,6.9757e+07,1,0.56,1.1,24.11,-0.0081934,-0.02506,-0.017632,0.0473,-1.6037,0.24255,0.72876,-0.03,0.04,0.22,96.55
22769,6.9768e+07,1,0.56,1.05,24.09,0.00092885,-0.028226,-0.018677,0.050749,-1.6036,0.24281,0.72996,-0.03,0.04,0.22,96.55
22814,6.9778e+07,1,0.52,1.07,24.08,-0.0062431,-0.022523,-0.01557,0.058923,-1.6036,0.24303,0.73101,-0.03,0.04,0.22,96.55
22860,6.9789e+07,1,0.56,1.07,24.07,-0.016538,-0.024009,-0.017511,0.062336,-1.6037,0.24279,0.73086,-0.03,0.04,0.22,96.55
22907,6.9799e+07,1,0.56,1.1,24.08,-0.0027273,-0.026418,-0.016781,0.067036,-1.6038,0.24301,0.73186,-0.03,0.04,0.22,96.55
22954,6.9809e+07,1,0.56,1.08,24.08,0.0023055,-0.025079,-0.01914,0.068762,-1.6038,0.24319,0.73281,-0.03,0.04,0.22,96.55
22998,6.9819e+07,1,0.53,1.08,24.07,-0.0091508,-0.02272,-0.014678,0.076243,-1.6037,0.24338,0.73365,-0.03,0.04,0.22,96.55
23044,6.983e+07,1,0.59,1.1,24.09,-0.02012,-0.024318,-0.018546,0.073583,-1.6039,0.24354,0.73446,-0.03,0.04,0.22,96.55
23088,6.984e+07,1,0.57,1.08,24.1,-0.0058049,-0.027078,-0.012051,0.080171,-1.604,0.24369,0.73519,-0.03,0.04,0.22,96.55
23133,6.9851e+07,1,0.58,1.1,24.11,-0.0074218,-0.026835,-0.018414,0.073827,-1.604,0.24378,0.73581,-0.03,0.04,0.22,96.55
23178,6.9862e+07,1,0.54,1.05,24.09,-0.020785,-0.025583,-0.0090762,0.082532,-1.6041,0.2435,0.73568,-0.03,0.04,0.22,96.55
23222,6.9872e+07,1,0.58,1.11,24.11,-0.018286,-0.027434,-0.016179,0.073184,-1.6043,0.24363,0.73628,-0.03,0.04,0.22,96.55
23269,6.9882e+07,1,0.56,1.07,24.09,-0.0034647,-0.031261,-0.011208,0.075315,-1.6044,0.24373,0.73684,-0.03,0.04,0.22,96.55
23313,6.9892e+07,1,0.55,1.1,24.1,-0.0065978,-0.028822,-0.017024,0.065417,-1.6044,0.24346,0.7367,-0.03,0.04,0.22,96.55
23361,6.9903e+07,1,0.53,1.07,24.07,-0.020098,-0.023879,-0.0099788,0.067568,-1.6045,0.24356,0.73722,-0.03,0.04,0.22,96.55
23407,6.9913e+07,1,0.55,1.12,24.08,-0.0094147,-0.024042,-0.011059,0.062643,-1.6045,0.24367,0.73812,-0.03,0.04,0.22,96.55
23449,6.9924e+07,1,0.54,1.1,24.07,-0.001239,-0.023363,-0.01125,0.060173,-1.6044,0.24374,0.73897,-0.03,0.04,0.22,96.55
23493,6.9934e+07,1,0.51,1.09,24.05,-0.010151,-0.018723,-0.0069031,0.063136,-1.6043,0.24385,0.73975,-0.03,0.04,0.22,96.55
23538,6.9944e+07,1,0.55,1.09,24.05,-0.019793,-0.019321,-0.0072038,0.061458,-1.6043,0.24399,0.74052,-0.03,0.04,0.22,96.55
23582,6.9954e+07,1,0.55,1.11,24.06,-0.0065771,-0.022731,-0.0026753,0.065686,-1.6045,0.24376,0.74043,-0.03,0.04,0.22,96.55
23627,6.9964e+07,1,0.56,1.1,24.06,-0.0041902,-0.021133,-0.0077133,0.060009,-1.6044,0.24384,0.7412,-0.03,0.04,0.22,96.55
23671,6.9975e+07,1,0.51,1.08,24.04,-0.013777,-0.018332,-0.0019284,0.062974,-1.6043,0.24393,0.74193,-0.03,0.04,0.22,96.55
