LineNo,TimeUS,DesRoll,Roll,DesPitch,Pitch,DesYaw,Yaw,ErrRP,ErrYaw,AEKF
185,21376789,0,-0.51,0,-1.37,355.19,355.21,0,0.01,3
408,21442252,0,-0.51,0,-1.37,355.2,355.22,0,0.01,3
980,21558785,0,-0.51,0,-1.37,355.21,355.23,0,0.01,3
1517,21780618,0,-0.51,0,-1.37,355.23,355.24,0,0.01,3
1557,21791227,0,-0.51,0,-1.37,355.23,355.25,0,0.01,3
1599,21800933,0,-0.51,0,-1.37,355.23,355.25,0,0.01,3
1636,21811553,0,-0.51,0,-1.37,355.23,355.25,0,0.01,3
1677,21821406,0,-0.51,0,-1.37,355.23,355.25,0,0.01,3
1718,21831825,0,-0.51,0,-1.37,355.23,355.24,0,0.01,3
1764,21842414,0,-0.51,0,-1.37,355.23,355.24,0,0.01,3
1804,21852886,0,-0.51,0,-1.37,355.22,355.24,0,0.01,3
1845,21862837,0,-0.51,0,-1.37,355.22,355.24,0,0.01,3
1886,21872822,0,-0.51,0,-1.38,355.22,355.23,0,0.01,3
1926,21883273,0,-0.51,0,-1.38,355.21,355.23,0,0.01,3
1969,21893429,0,-0.51,0,-1.38,355.21,355.22,0,0.01,3
2011,21904477,0,-0.51,0,-1.38,355.21,355.22,0,0.01,3
2052,21914847,0,-0.51,0,-1.37,355.2,355.22,0,0.01,3
2092,21925085,0,-0.51,0,-1.37,355.2,355.22,0,0.01,3
2133,21934661,0,-0.51,0,-1.37,355.2,355.22,0,0.01,3
2182,21945570,0,-0.51,0,-1.37,355.2,355.22,0,0.01,3
2222,21955705,0,-0.51,0,-1.36,355.2,355.22,0,0.01,3
2263,21965298,0,-0.51,0,-1.37,355.2,355.22,0,0.01,3
2303,21975836,0,-0.51,0,-1.37,355.2,355.22,0,0.01,3
2344,21985695,0,-0.51,0,-1.37,355.2,355.22,0,0.01,3
2381,21996291,0,-0.51,0,-1.37,355.2,355.22,0,0.01,3
2422,22006334,0,-0.51,0,-1.37,355.2,355.22,0,0.01,3
2464,22016560,0,-0.51,0,-1.37,355.2,355.22,0,0.01,3
2505,22025878,0,-0.5,0,-1.38,355.2,355.21,0,0.01,3
2546,22036279,0,-0.5,0,-1.37,355.2,355.21,0,0.01,3
2590,22046834,0,-0.51,0,-1.37,355.19,355.21,0,0.01,3
2632,22056591,0,-0.51,0,-1.37,355.19,355.21,0,0.01,3
2672,22066694,0,-0.51,0,-1.37,355.19,355.21,0,0.01,3
2713,22077041,0,-0.51,0,-1.37,355.19,355.21,0,0.01,3
2755,22086563,0,-0.51,0,-1.37,355.2,355.21,0,0.01,3
2792,22097342,0,-0.51,0,-1.37,355.2,355.21,0,0.01,3
2833,22107251,0,-0.51,0,-1.37,355.2,355.21,0,0.01,3
2873,22116808,0,-0.51,0,-1.38,355.2,355.21,0,0.01,3
2915,22127086,0,-0.51,0,-1.38,355.2,355.22,0,0.01,3
2955,22137309,0,-0.51,0,-1.38,355.2,355.22,0,0.01,3
3000,22147314,0,-0.51,0,-1.38,355.2,355.22,0,0.01,3
3040,22157243,0,-0.5,0,-1.37,355.2,355.22,0,0.01,3
3084,22166836,0,-0.5,0,-1.37,355.2,355.22,0,0.01,3
3125,22176867,0,-0.5,0,-1.37,355.2,355.21,0,0.01,3
3165,22189851,0,-0.51,0,-1.37,355.2,355.21,0,0.01,3
3206,22200260,0,-0.5,0,-1.37,355.2,355.21,0,0.01,3
3246,22210254,0,-0.51,0,-1.37,355.2,355.22,0,0.01,3
3287,22220637,0,-0.51,0,-1.37,355.2,355.22,0,0.01,3
3329,22231038,0,-0.51,0,-1.37,355.2,355.22,0,0.01,3
3370,22240638,0,-0.51,0,-1.38,355.21,355.22,0,0.01,3
3415,22251099,0,-0.51,0,-1.38,355.21,355.22,0,0.01,3
3455,22260650,0,-0.51,0,-1.38,355.21,355.23,0,0.01,3
3499,22270442,0,-0.51,0,-1.38,355.22,355.23,0,0.01,3
3542,22283270,0,-0.51,0,-1.37,355.22,355.24,0,0.01,3
3581,22293603,0,-0.51,0,-1.37,355.22,355.24,0,0.01,3
3623,22303396,0,-0.51,0,-1.37,355.22,355.24,0,0.01,3
3665,22313334,0,-0.5,0,-1.37,355.23,355.24,0,0.01,3
3705,22323848,0,-0.5,0,-1.37,355.23,355.24,0,0.01,3
3746,22334019,0,-0.5,0,-1.37,355.23,355.24,0,0.01,3
3787,22344031,0,-0.5,0,-1.38,355.23,355.25,0,0.01,3
3831,22353904,0,-0.5,0,-1.38,355.23,355.25,0,0,3
3872,22364274,0,-0.5,0,-1.38,355.23,355.25,0,0,3
3912,22374722,0,-0.5,0,-1.38,355.23,355.25,0,0,3
3953,22384500,0,-0.5,0,-1.38,355.23,355.25,0,0,3
3994,22394671,0,-0.5,0,-1.38,355.24,355.25,0,0,3
4038,22407226,0,-0.51,0,-1.38,355.24,355.26,0,0,3
4079,22417442,0,-0.51,0,-1.38,355.24,355.26,0,0,3
4119,22427049,0,-0.51,0,-1.37,355.24,355.26,0,0,3
4162,22437427,0,-0.51,0,-1.38,355.24,355.26,0,0,3
4203,22447256,0,-0.51,0,-1.38,355.25,355.26,0,0,3
4249,22457051,0,-0.51,0,-1.38,355.25,355.26,0,0.01,3
4290,22467579,0,-0.51,0,-1.38,355.25,355.27,0,0.01,3
4330,22477822,0,-0.51,0,-1.38,355.25,355.27,0,0.01,3
4371,22487488,0,-0.51,0,-1.38,355.25,355.27,0,0.01,3
4408,22498009,0,-0.51,0,-1.38,355.25,355.27,0,0.01,3
4451,22508483,0,-0.51,0,-1.38,355.25,355.27,0,0.01,3
4492,22519098,0,-0.5,0,-1.38,355.25,355.27,0,0.01,3
4532,22529209,0,-0.5,0,-1.38,355.25,355.27,0,0.01,3
4573,22539314,0,-0.5,0,-1.38,355.26,355.27,0,0.01,3
4614,22548902,0,-0.5,0,-1.37,355.26,355.28,0,0.01,3
4659,22559181,0,-0.5,0,-1.37,355.26,355.28,0,0,3
4701,22569561,0,-0.5,0,-1.38,355.27,355.28,0,0,3
4741,22580197,0,-0.5,0,-1.38,355.27,355.29,0,0,3
4782,22590233,0,-0.5,0,-1.38,355.28,355.29,0,0,3
4822,22600627,0,-0.5,0,-1.38,355.28,355.29,0,0,3
4863,22610567,0,-0.5,0,-1.38,355.28,355.29,0,0,3
4904,22621063,0,-0.5,0,-1.38,355.28,355.29,0,0,3
4944,22630843,0,-0.5,0,-1.38,355.28,355.29,0,0,3
4986,22640689,0,-0.5,0,-1.38,355.28,355.29,0,0,3
5027,22650422,0,-0.5,0,-1.38,355.28,355.29,0,0,3
5074,22660590,0,-0.5,0,-1.38,355.28,355.29,0,0,3
5114,22671124,0,-0.5,0,-1.38,355.28,355.3,0,0,3
5155,22681045,0,-0.51,0,-1.38,355.28,355.3,0,0,3
5199,22693868,0,-0.51,0,-1.38,355.29,355.3,0,0,3
5239,22704249,0,-0.5,0,-1.38,355.29,355.3,0,0,3
5280,22714858,0,-0.51,0,-1.38,355.29,355.31,0,0,3
5320,22724970,0,-0.51,0,-1.38,355.29,355.31,0,0,3
5362,22734789,0,-0.51,0,-1.38,355.29,355.31,0,0,3
5402,22745218,0,-0.51,0,-1.39,355.29,355.31,0,0,3
5447,22755447,0,-0.51,0,-1.38,355.29,355.31,0,0,3
5487,22765064,0,-0.51,0,-1.38,355.29,355.31,0,0.01,3
5528,22775605,0,-0.51,0,-1.38,355.29,355.31,0,0.01,3
5573,22788057,0,-0.5,0,-1.38,355.29,355.31,0,0.01,3
5613,22798610,0,-0.51,0,-1.38,355.29,355.31,0,0.01,3
5655,22809298,0,-0.51,0,-1.38,355.29,355.31,0,0.01,3
5695,22819913,0,-0.51,0,-1.38,355.29,355.31,0,0.01,3
5736,22830413,0,-0.5,0,-1.38,355.29,355.3,0,0.01,3
5777,22839914,0,-0.5,0,-1.38,355.28,355.3,0,0.01,3
5818,22850517,0,-0.5,0,-1.38,355.28,355.3,0,0.01,3
5863,22860921,0,-0.5,0,-1.38,355.28,355.3,0,0,3
5903,22871361,0,-0.5,0,-1.38,355.29,355.3,0,0,3
5945,22881556,0,-0.5,0,-1.38,355.29,355.3,0,0,3
5989,22891996,0,-0.5,0,-1.38,355.29,355.3,0,0,3
6029,22902033,0,-0.5,0,-1.38,355.29,355.3,0,0,3
6070,22912118,0,-0.5,0,-1.38,355.28,355.3,0,0,3
6110,22922051,0,-0.5,0,-1.38,355.28,355.3,0,0,3
6151,22932198,0,-0.5,0,-1.38,355.28,355.3,0,0,3
6191,22942220,0,-0.5,0,-1.38,355.28,355.3,0,0,3
6232,22952209,0,-0.5,0,-1.38,355.28,355.3,0,0,3
6278,22961755,0,-0.5,0,-1.38,355.28,355.3,0,0,3
6318,22972654,0,-0.5,0,-1.38,355.28,355.29,0,0,3
6361,22983175,0,-0.51,0,-1.38,355.28,355.29,0,0,3
6402,22993611,0,-0.51,0,-1.38,355.28,355.3,0,0,3
6447,23006803,0,-0.51,0,-1.38,355.28,355.3,0,0,3
6488,23016624,0,-0.51,0,-1.38,355.28,355.3,0,0,3
6528,23027315,0,-0.51,0,-1.37,355.29,355.3,0,0,3
6569,23037516,0,-0.51,0,-1.37,355.29,355.3,0,0,3
6609,23047394,0,-0.51,0,-1.37,355.29,355.31,0,0,3
6651,23057661,0,-0.51,0,-1.37,355.29,355.31,0,0,3
6695,23067832,0,-0.5,0,-1.37,355.29,355.31,0,0,3
6736,23078481,0,-0.5,0,-1.38,355.3,355.31,0,0,3
6777,23088431,0,-0.5,0,-1.38,355.3,355.31,0,0,3
6820,23098403,0,-0.5,0,-1.38,355.3,355.31,0,0,3
6862,23111022,0,-0.5,0,-1.37,355.3,355.31,0,0,3
6902,23121674,0,-0.5,0,-1.37,355.29,355.31,0,0,3
6943,23131498,0,-0.5,0,-1.37,355.29,355.31,0,0,3
6984,23141488,0,-0.5,0,-1.37,355.29,355.31,0,0,3
7026,23152016,0,-0.5,0,-1.37,355.3,355.31,0,0,3
7068,23162297,0,-0.5,0,-1.37,355.3,355.31,0,0,3
7112,23172385,0,-0.5,0,-1.37,355.3,355.32,0,0,3
7153,23182836,0,-0.5,0,-1.37,355.3,355.32,0,0,3
7194,23193042,0,-0.5,0,-1.38,355.3,355.32,0,0,3
7235,23202836,0,-0.5,0,-1.38,355.31,355.32,0,0,3
7272,23213517,0,-0.5,0,-1.37,355.31,355.33,0,0,3
7314,23223682,0,-0.5,0,-1.37,355.31,355.33,0,0,3
7354,23233663,0,-0.5,0,-1.37,355.31,355.33,0,0,3
7394,23244065,0,-0.5,0,-1.37,355.31,355.32,0,0,3
7435,23254082,0,-0.5,0,-1.37,355.31,355.32,0,0,3
7476,23264207,0,-0.5,0,-1.37,355.3,355.32,0,0,3
7521,23274223,0,-0.5,0,-1.37,355.3,355.32,0,0.01,3
7562,23284594,0,-0.5,0,-1.37,355.3,355.32,0,0.01,3
7605,23294682,0,-0.5,0,-1.37,355.3,355.31,0,0.01,3
7647,23304572,0,-0.5,0,-1.37,355.3,355.31,0,0.01,3
7684,23314697,0,-0.5,0,-1.37,355.3,355.31,0,0.01,3
7721,23324797,0,-0.5,0,-1.37,355.29,355.31,0,0.01,3
7762,23335220,0,-0.5,0,-1.37,355.29,355.31,0,0.01,3
7803,23345299,0,-0.5,0,-1.37,355.29,355.31,0,0.01,3
7844,23355633,0,-0.5,0,-1.37,355.29,355.31,0,0.01,3
7884,23365865,0,-0.5,0,-1.37,355.29,355.31,0,0.01,3
7929,23375711,0,-0.5,0,-1.37,355.29,355.3,0,0.01,3
7970,23385594,0,-0.5,0,-1.37,355.29,355.3,0,0.01,3
8012,23395870,0,-0.5,0,-1.37,355.28,355.3,0,0.01,3
8049,23405814,0,-0.5,0,-1.37,355.28,355.29,0,0.01,3
8087,23416073,0,-0.5,0,-1.37,355.27,355.29,0,0.01,3
8128,23425949,0,-0.49,0,-1.37,355.27,355.28,0,0.01,3
8169,23436301,0,-0.49,0,-1.37,355.26,355.28,0,0.01,3
8210,23446322,0,-0.49,0,-1.37,355.26,355.27,0,0.01,3
8250,23455874,0,-0.49,0,-1.37,355.25,355.27,0,0.01,3
8291,23466168,0,-0.49,0,-1.37,355.25,355.27,0,0.01,3
8338,23475855,0,-0.49,0,-1.37,355.25,355.26,0,0.01,3
8381,23486330,0,-0.49,0,-1.37,355.25,355.26,0,0.01,3
8423,23495701,0,-0.49,0,-1.37,355.25,355.26,0,0.01,3
8463,23505948,0,-0.5,0,-1.37,355.25,355.26,0,0.01,3
8497,23516487,0,-0.5,0,-1.37,355.25,355.26,0,0.01,3
8538,23526712,0,-0.5,0,-1.37,355.25,355.26,0,0.01,3
8579,23536410,0,-0.5,0,-1.38,355.24,355.26,0,0.01,3
8619,23546673,0,-0.5,0,-1.37,355.24,355.26,0,0.01,3
8660,23556660,0,-0.5,0,-1.37,355.24,355.25,0,0.01,3
8700,23566281,0,-0.5,0,-1.37,355.23,355.25,0,0.01,3
8745,23576422,0,-0.49,0,-1.37,355.23,355.25,0,0.01,3
8786,23586836,0,-0.49,0,-1.37,355.23,355.24,0,0.01,3
8826,23596695,0,-0.49,0,-1.37,355.23,355.24,0,0.01,3
8869,23606475,0,-0.49,0,-1.37,355.22,355.24,0,0.01,3
8906,23617218,0,-0.49,0,-1.37,355.22,355.24,0,0.01,3
8947,23627612,0,-0.49,0,-1.37,355.22,355.24,0,0.01,3
8984,23637831,0,-0.49,0,-1.37,355.22,355.24,0,0.01,3
9027,23647643,0,-0.49,0,-1.37,355.23,355.24,0,0.01,3
9069,23657445,0,-0.49,0,-1.37,355.23,355.24,0,0.01,3
9109,23667717,0,-0.5,0,-1.37,355.23,355.25,0,0.01,3
9154,23677565,0,-0.5,0,-1.37,355.23,355.25,0,0.01,3
9196,23687881,0,-0.5,0,-1.37,355.23,355.25,0,0.01,3
9237,23697611,0,-0.5,0,-1.37,355.23,355.25,0,0.01,3
9278,23707651,0,-0.5,0,-1.37,355.23,355.25,0,0.01,3
9315,23717738,0,-0.5,0,-1.37,355.23,355.25,0,0.01,3
9353,23728231,0,-0.5,0,-1.37,355.24,355.25,0,0.01,3
9394,23738483,0,-0.5,0,-1.37,355.24,355.25,0,0.01,3
9434,23748816,0,-0.5,0,-1.38,355.24,355.26,0,0.01,3
9475,23758702,0,-0.49,0,-1.38,355.24,355.26,0,0.01,3
9515,23769315,0,-0.49,0,-1.38,355.25,355.26,0,0.01,3
9560,23779312,0,-0.49,0,-1.38,355.25,355.26,0,0.01,3
9600,23789777,0,-0.49,0,-1.37,355.25,355.27,0,0.01,3
9641,23799920,0,-0.49,0,-1.37,355.26,355.27,0,0.01,3
9682,23810190,0,-0.5,0,-1.37,355.26,355.28,0,0.01,3
9704,23830348,0,-0.5,0,-1.37,355.26,355.28,0,0.01,3
9744,23839978,0,-0.5,0,-1.37,355.27,355.28,0,0.01,3
9785,23850475,0,-0.5,0,-1.37,355.27,355.28,0,0.01,3
9825,23860706,0,-0.5,0,-1.37,355.27,355.28,0,0.01,3
9867,23870410,0,-0.5,0,-1.37,355.27,355.28,0,0.01,3
9912,23880441,0,-0.5,0,-1.37,355.27,355.28,0,0.01,3
9954,23890690,0,-0.49,0,-1.37,355.27,355.28,0,0.01,3
9995,23900460,0,-0.49,0,-1.37,355.27,355.29,0,0.01,3
10039,23915251,0,-0.49,0,-1.37,355.27,355.29,0,0.01,3
10079,23926100,0,-0.49,0,-1.37,355.27,355.29,0,0.01,3
10120,23936251,0,-0.49,0,-1.37,355.27,355.29,0,0.01,3
10163,23946398,0,-0.49,0,-1.37,355.27,355.29,0,0.01,3
10203,23955802,0,-0.49,0,-1.37,355.27,355.29,0,0.01,3
10244,23966214,0,-0.49,0,-1.37,355.27,355.29,0,0.01,3
10289,23976315,0,-0.49,0,-1.37,355.27,355.29,0,0.01,3
10329,23986276,0,-0.49,0,-1.37,355.28,355.29,0,0.01,3
10371,23996308,0,-0.5,0,-1.37,355.28,355.29,0,0.01,3
10414,24008699,0,-0.5,0,-1.37,355.28,355.29,0,0.01,3
10452,24019261,0,-0.5,0,-1.37,355.28,355.29,0,0.01,3
10493,24029647,0,-0.5,0,-1.37,355.27,355.29,0,0.01,3
10536,24040067,0,-0.5,0,-1.37,355.27,355.29,0,0.01,3
10577,24050405,0,-0.5,0,-1.37,355.27,355.28,0,0.01,3
10617,24060320,0,-0.5,0,-1.37,355.26,355.28,0,0.01,3
10658,24070464,0,-0.5,0,-1.37,355.26,355.27,0,0.01,3
10702,24080371,0,-0.5,0,-1.37,355.26,355.27,0,0.01,3
10746,24090789,0,-0.5,0,-1.37,355.26,355.27,0,0.01,3
10787,24101193,0,-0.5,0,-1.37,355.26,355.27,0,0.01,3
10827,24110866,0,-0.5,0,-1.37,355.26,355.27,0,0.01,3
10865,24121657,0,-0.5,0,-1.37,355.26,355.27,0,0.01,3
10905,24132042,0,-0.5,0,-1.37,355.25,355.27,0,0.01,3
10949,24142218,0,-0.5,0,-1.37,355.25,355.27,0,0.01,3
10990,24152622,0,-0.5,0,-1.37,355.25,355.27,0,0.01,3
11031,24162863,0,-0.5,0,-1.37,355.25,355.26,0,0.01,3
11071,24172663,0,-0.5,0,-1.37,355.24,355.26,0,0.01,3
11115,24182461,0,-0.5,0,-1.37,355.24,355.26,0,0.01,3
11157,24193218,0,-0.5,0,-1.37,355.24,355.25,0,0.01,3
11197,24203409,0,-0.5,0,-1.37,355.23,355.25,0,0.01,3
11238,24216061,0,-0.5,0,-1.37,355.23,355.25,0,0.01,3
11276,24225668,0,-0.49,0,-1.37,355.23,355.25,0,0.01,3
11317,24236591,0,-0.49,0,-1.37,355.23,355.24,0,0.01,3
11358,24246847,0,-0.5,0,-1.37,355.23,355.24,0,0.01,3
11399,24256822,0,-0.49,0,-1.37,355.23,355.24,0,0.01,3
11440,24267090,0,-0.5,0,-1.37,355.23,355.24,0,0.01,3
11482,24276855,0,-0.5,0,-1.37,355.23,355.24,0,0.01,3
11526,24286796,0,-0.5,0,-1.37,355.23,355.25,0,0.01,3
11571,24297431,0,-0.5,0,-1.37,355.23,355.25,0,0.01,3
11611,24308021,0,-0.5,0,-1.37,355.23,355.25,0,0.01,3
11653,24318309,0,-0.5,0,-1.37,355.23,355.25,0,0.01,3
11696,24331577,0,-0.5,0,-1.37,355.23,355.24,0,0.01,3
11737,24342192,0,-0.5,0,-1.37,355.22,355.24,0,0.01,3
11779,24352441,0,-0.5,0,-1.37,355.22,355.24,0,0.01,3
11820,24362392,0,-0.5,0,-1.37,355.22,355.23,0,0.01,3
11861,24372486,0,-0.5,0,-1.37,355.21,355.23,0,0.01,3
11906,24383273,0,-0.5,0,-1.37,355.21,355.23,0,0.01,3
11947,24393719,0,-0.49,0,-1.37,355.21,355.23,0,0.01,3
11987,24403709,0,-0.49,0,-1.37,355.21,355.23,0,0.01,3
12028,24413687,0,-0.49,0,-1.37,355.21,355.23,0,0.01,3
12069,24423787,0,-0.49,0,-1.37,355.21,355.23,0,0.01,3
12109,24433826,0,-0.49,0,-1.37,355.21,355.23,0,0.01,3
12151,24444259,0,-0.49,0,-1.37,355.21,355.23,0,0.01,3
12191,24454328,0,-0.5,0,-1.37,355.21,355.23,0,0.01,3
12232,24464597,0,-0.5,0,-1.37,355.21,355.23,0,0.01,3
12273,24474611,0,-0.5,0,-1.37,355.21,355.22,0,0.01,3
12324,24487287,0,-0.5,0,-1.37,355.2,355.22,0,0,3
12365,24497308,0,-0.5,0,-1.38,355.2,355.22,0,0,3
12406,24507662,0,-0.5,0,-1.38,355.2,355.21,0,0,3
12447,24517356,0,-0.5,0,-1.38,355.2,355.21,0,0,3
12487,24529851,0,-0.49,0,-1.37,355.19,355.21,0,0,3
12525,24540617,0,-0.49,0,-1.37,355.19,355.21,0,0,3
12569,24550845,0,-0.49,0,-1.38,355.19,355.21,0,0,3
12609,24560845,0,-0.49,0,-1.38,355.19,355.21,0,0,3
12651,24571079,0,-0.49,0,-1.38,355.19,355.21,0,0,3
12691,24580570,0,-0.49,0,-1.38,355.19,355.21,0,0,3
12736,24590459,0,-0.5,0,-1.38,355.19,355.21,0,0.01,3
12778,24600733,0,-0.49,0,-1.38,355.19,355.21,0,0.01,3
12818,24610701,0,-0.5,0,-1.38,355.19,355.21,0,0.01,3
12859,24621103,0,-0.5,0,-1.38,355.19,355.21,0,0.01,3
12896,24633707,0,-0.5,0,-1.38,355.19,355.21,0,0.01,3
12939,24644176,0,-0.5,0,-1.38,355.19,355.21,0,0.01,3
12981,24654237,0,-0.5,0,-1.38,355.19,355.21,0,0.01,3
13021,24664076,0,-0.5,0,-1.38,355.19,355.2,0,0.01,3
13063,24674062,0,-0.49,0,-1.38,355.19,355.2,0,0.01,3
13103,24684581,0,-0.49,0,-1.38,355.19,355.2,0,0.01,3
13150,24694761,0,-0.49,0,-1.38,355.19,355.2,0,0.01,3
13190,24704445,0,-0.49,0,-1.38,355.19,355.21,0,0.01,3
13232,24714885,0,-0.49,0,-1.38,355.19,355.21,0,0.01,3
13272,24725307,0,-0.49,0,-1.38,355.19,355.21,0,0.01,3
13312,24735262,0,-0.49,0,-1.38,355.19,355.21,0,0.01,3
13349,24745183,0,-0.49,0,-1.38,355.2,355.21,0,0.01,3
13390,24755186,0,-0.49,0,-1.38,355.2,355.22,0,0.01,3
13431,24765594,0,-0.49,0,-1.38,355.2,355.22,0,0.01,3
13472,24775335,0,-0.49,0,-1.38,355.2,355.22,0,0.01,3
13513,24785267,0,-0.49,0,-1.38,355.21,355.22,0,0.01,3
13558,24795206,0,-0.49,0,-1.38,355.21,355.22,0,0.01,3
13599,24805590,0,-0.49,0,-1.38,355.21,355.22,0,0.01,3
13640,24815601,0,-0.49,0,-1.38,355.21,355.22,0,0.01,3
13680,24825254,0,-0.49,0,-1.38,355.21,355.23,0,0.01,3
13719,24835582,0,-0.49,0,-1.38,355.21,355.23,0,0.01,3
13761,24845795,0,-0.49,0,-1.38,355.21,355.22,0,0.01,3
13801,24855585,0,-0.49,0,-1.38,355.21,355.22,0,0.01,3
13842,24865709,0,-0.49,0,-1.38,355.21,355.22,0,0.01,3
13882,24875584,0,-0.49,0,-1.38,355.21,355.22,0,0.01,3
13924,24885439,0,-0.49,0,-1.38,355.21,355.23,0,0.01,3
13972,24895697,0,-0.49,0,-1.38,355.21,355.23,0,0.01,3
14012,24905837,0,-0.49,0,-1.38,355.21,355.23,0,0.01,3
14053,24916060,0,-0.49,0,-1.38,355.21,355.23,0,0.01,3
14093,24926084,0,-0.49,0,-1.38,355.21,355.23,0,0.01,3
14128,24936461,0,-0.49,0,-1.38,355.21,355.23,0,0.01,3
14170,24946465,0,-0.49,0,-1.38,355.21,355.23,0,0.01,3
14210,24956873,0,-0.49,0,-1.38,355.21,355.23,0,0.01,3
14251,24966835,0,-0.49,0,-1.38,355.21,355.23,0,0.01,3
14291,24976458,0,-0.49,0,-1.38,355.21,355.23,0,0.01,3
14334,24986565,0,-0.49,0,-1.38,355.21,355.23,0,0.01,3
14378,24996608,0,-0.49,0,-1.38,355.21,355.23,0,0.01,3
14419,25007076,0,-0.49,0,-1.38,355.21,355.23,0,0.01,3
14460,25017306,0,-0.49,0,-1.38,355.21,355.23,0,0.01,3
14502,25032793,0,-0.49,0,-1.38,355.21,355.23,0,0.01,3
14543,25043049,0,-0.49,0,-1.38,355.22,355.23,0,0.01,3
14584,25053584,0,-0.49,0,-1.38,355.22,355.23,0,0.01,3
14625,25063884,0,-0.48,0,-1.38,355.22,355.24,0,0.01,3
14665,25074042,0,-0.48,0,-1.38,355.22,355.24,0,0.01,3
14706,25084063,0,-0.49,0,-1.38,355.23,355.24,0,0.01,3
14751,25094040,0,-0.49,0,-1.38,355.23,355.24,0,0.01,3
14794,25104029,0,-0.49,0,-1.38,355.23,355.25,0,0.01,3
14836,25114633,0,-0.49,0,-1.38,355.23,355.25,0,0.01,3
14879,25127082,0,-0.49,0,-1.38,355.23,355.25,0,0.01,3
14922,25138096,0,-0.49,0,-1.38,355.23,355.25,0,0.01,3
14962,25148445,0,-0.49,0,-1.38,355.23,355.25,0,0.01,3
15003,25158827,0,-0.49,0,-1.38,355.23,355.25,0,0.01,3
15045,25169040,0,-0.49,0,-1.38,355.23,355.25,0,0.01,3
15085,25178989,0,-0.49,0,-1.38,355.24,355.25,0,0.01,3
15126,25189225,0,-0.49,0,-1.38,355.24,355.25,0,0.01,3
15171,25199473,0,-0.49,0,-1.38,355.24,355.26,0,0.01,3
15213,25209300,0,-0.49,0,-1.38,355.24,355.26,0,0.01,3
15253,25219460,0,-0.49,0,-1.38,355.25,355.26,0,0.01,3
15294,25229334,0,-0.48,0,-1.38,355.25,355.27,0,0.01,3
15332,25239448,0,-0.48,0,-1.38,355.25,355.27,0,0.01,3
15372,25249651,0,-0.48,0,-1.38,355.25,355.27,0,0.01,3
15413,25260067,0,-0.48,0,-1.38,355.25,355.27,0,0.01,3
15453,25270305,0,-0.48,0,-1.38,355.25,355.26,0,0.01,3
15500,25282246,0,-0.48,0,-1.38,355.25,355.26,0,0.01,3
15544,25292917,0,-0.49,0,-1.38,355.25,355.26,0,0.01,3
15592,25303017,0,-0.48,0,-1.38,355.24,355.26,0,0.01,3
15633,25312981,0,-0.48,0,-1.38,355.24,355.26,0,0.01,3
15673,25322867,0,-0.49,0,-1.38,355.24,355.26,0,0.01,3
15718,25335456,0,-0.49,0,-1.38,355.24,355.26,0,0.01,3
15758,25346090,0,-0.48,0,-1.38,355.24,355.26,0,0.01,3
15799,25355864,0,-0.48,0,-1.39,355.24,355.26,0,0.01,3
15840,25366217,0,-0.48,0,-1.39,355.24,355.26,0,0.01,3
15880,25375868,0,-0.48,0,-1.39,355.24,355.26,0,0.01,3
15922,25385872,0,-0.48,0,-1.38,355.24,355.26,0,0.01,3
15968,25396652,0,-0.48,0,-1.38,355.24,355.26,0,0.01,3
16008,25406867,0,-0.48,0,-1.38,355.24,355.26,0,0.01,3
16049,25416676,0,-0.48,0,-1.38,355.24,355.25,0,0.01,3
16090,25426841,0,-0.48,0,-1.38,355.24,355.25,0,0.01,3
16131,25436457,0,-0.48,0,-1.38,355.23,355.25,0,0.01,3
16171,25446665,0,-0.48,0,-1.38,355.23,355.25,0,0.01,3
16209,25456863,0,-0.49,0,-1.38,355.23,355.24,0,0.01,3
16249,25466852,0,-0.49,0,-1.38,355.23,355.24,0,0.01,3
16290,25476860,0,-0.49,0,-1.38,355.22,355.24,0,0.01,3
16331,25486624,0,-0.49,0,-1.38,355.22,355.24,0,0.01,3
16378,25497035,0,-0.49,0,-1.38,355.22,355.24,0,0.01,3
16421,25506715,0,-0.49,0,-1.38,355.22,355.24,0,0.01,3
16462,25516848,0,-0.49,0,-1.38,355.22,355.23,0,0.01,3
16503,25526595,0,-0.48,0,-1.38,355.22,355.23,0,0.01,3
16541,25539811,0,-0.48,0,-1.38,355.22,355.23,0,0.01,3
16582,25550253,0,-0.48,0,-1.38,355.22,355.23,0,0.01,3
16623,25560400,0,-0.48,0,-1.38,355.21,355.23,0,0.01,3
16663,25570287,0,-0.48,0,-1.38,355.21,355.23,0,0.01,3
16704,25580223,0,-0.48,0,-1.38,355.21,355.23,0,0.01,3
16745,25590630,0,-0.48,0,-1.38,355.21,355.23,0,0.01,3
16790,25600439,0,-0.48,0,-1.38,355.21,355.23,0,0.01,3
16832,25610294,0,-0.48,0,-1.39,355.21,355.23,0,0.01,3
16873,25620245,0,-0.48,0,-1.39,355.21,355.22,0,0.01,3
16916,25630293,0,-0.48,0,-1.39,355.21,355.22,0,0.01,3
16956,25642886,0,-0.48,0,-1.39,355.21,355.22,0,0.01,3
16997,25653166,0,-0.49,0,-1.39,355.2,355.22,0,0.01,3
17038,25663480,0,-0.49,0,-1.39,355.2,355.22,0,0.01,3
17078,25673840,0,-0.48,0,-1.39,355.2,355.22,0,0.01,3
17121,25684285,0,-0.48,0,-1.39,355.2,355.22,0,0.01,3
17162,25694374,0,-0.48,0,-1.39,355.2,355.21,0,0.01,3
17207,25704358,0,-0.48,0,-1.39,355.2,355.21,0,0.01,3
17248,25714688,0,-0.48,0,-1.39,355.19,355.21,0,0.01,3
17289,25724664,0,-0.48,0,-1.39,355.19,355.21,0,0.01,3
17333,25737625,0,-0.48,0,-1.39,355.19,355.21,0,0.01,3
17374,25748130,0,-0.48,0,-1.39,355.19,355.21,0,0.01,3
17415,25758808,0,-0.48,0,-1.39,355.19,355.2,0,0.01,3
17455,25768689,0,-0.48,0,-1.39,355.19,355.2,0,0.01,3
17496,25779039,0,-0.48,0,-1.38,355.19,355.2,0,0.01,3
17538,25788593,0,-0.48,0,-1.38,355.19,355.2,0,0.01,3
17578,25798664,0,-0.48,0,-1.38,355.19,355.21,0,0.01,3
17623,25809104,0,-0.48,0,-1.39,355.19,355.21,0,0.01,3
17663,25819242,0,-0.48,0,-1.38,355.19,355.21,0,0.01,3
17705,25829563,0,-0.48,0,-1.39,355.19,355.21,0,0.01,3
17748,25841923,0,-0.48,0,-1.39,355.19,355.21,0,0.01,3
17787,25852871,0,-0.48,0,-1.39,355.2,355.21,0,0.01,3
17828,25863263,0,-0.48,0,-1.39,355.2,355.21,0,0.01,3
17868,25873248,0,-0.48,0,-1.39,355.2,355.21,0,0.01,3
17909,25883318,0,-0.48,0,-1.39,355.19,355.21,0,0.01,3
17951,25893582,0,-0.48,0,-1.38,355.19,355.21,0,0.01,3
17997,25903474,0,-0.48,0,-1.38,355.19,355.21,0,0.01,3
18037,25913595,0,-0.48,0,-1.38,355.19,355.21,0,0.01,3
18077,25923417,0,-0.48,0,-1.38,355.19,355.21,0,0.01,3
18120,25933344,0,-0.48,0,-1.38,355.19,355.21,0,0.01,3
18163,25945676,0,-0.48,0,-1.38,355.19,355.21,0,0.01,3
18201,25956634,0,-0.48,0,-1.38,355.19,355.21,0,0.01,3
18242,25966564,0,-0.48,0,-1.38,355.19,355.21,0,0.01,3
18282,25976590,0,-0.48,0,-1.38,355.19,355.21,0,0.01,3
18324,25987178,0,-0.48,0,-1.38,355.19,355.21,0,0.01,3
18365,25996840,0,-0.48,0,-1.38,355.19,355.21,0,0.01,3
18410,26007249,0,-0.48,0,-1.38,355.19,355.21,0,0.01,3
18450,26016849,0,-0.48,0,-1.38,355.19,355.21,0,0.01,3
18491,26027594,0,-0.48,0,-1.38,355.19,355.21,0,0.01,3
18532,26037819,0,-0.48,0,-1.38,355.19,355.21,0,0.01,3
18574,26047455,0,-0.48,0,-1.38,355.19,355.21,0,0.01,3
18612,26058093,0,-0.48,0,-1.38,355.19,355.21,0,0.01,3
18653,26067842,0,-0.48,0,-1.39,355.19,355.2,0,0.01,3
18694,26078697,0,-0.48,0,-1.39,355.19,355.21,0,0.01,3
18735,26089190,0,-0.48,0,-1.39,355.19,355.21,0,0.01,3
18778,26099089,0,-0.48,0,-1.39,355.19,355.21,0,0.01,3
18823,26108947,0,-0.48,0,-1.39,355.19,355.21,0,0.01,3
18864,26119203,0,-0.48,0,-1.39,355.19,355.21,0,0.01,3
18907,26129610,0,-0.48,0,-1.38,355.19,355.21,0,0.01,3
18948,26140130,0,-0.48,0,-1.38,355.2,355.21,0,0.01,3
18988,26150228,0,-0.48,0,-1.38,355.2,355.21,0,0.01,3
19023,26160485,0,-0.48,0,-1.39,355.2,355.21,0,0.01,3
19064,26170400,0,-0.48,0,-1.39,355.2,355.22,0,0.01,3
19105,26180957,0,-0.48,0,-1.39,355.2,355.22,0,0.01,3
19147,26191173,0,-0.48,0,-1.39,355.2,355.22,0,0.01,3
19187,26201242,0,-0.48,0,-1.39,355.2,355.22,0,0.01,3
19232,26210855,0,-0.47,0,-1.39,355.2,355.22,0,0.01,3
19272,26220817,0,-0.47,0,-1.39,355.2,355.22,0,0.01,3
19313,26230842,0,-0.47,0,-1.39,355.2,355.22,0,0.01,3
19354,26241233,0,-0.48,0,-1.39,355.2,355.22,0,0.01,3
19396,26256730,0,-0.48,0,-1.39,355.2,355.22,0,0.01,3
19437,26266581,0,-0.48,0,-1.39,355.2,355.22,0,0.01,3
19477,26277209,0,-0.48,0,-1.39,355.2,355.22,0,0.01,3
19519,26287629,0,-0.48,0,-1.39,355.2,355.22,0,0.01,3
19560,26297818,0,-0.48,0,-1.39,355.2,355.22,0,0.01,3
19604,26307639,0,-0.48,0,-1.39,355.2,355.22,0,0.01,3
19648,26317474,0,-0.48,0,-1.39,355.2,355.22,0,0.01,3
19690,26327598,0,-0.48,0,-1.39,355.2,355.22,0,0.01,3
19730,26337722,0,-0.48,0,-1.39,355.2,355.22,0,0.01,3
19778,26353222,0,-0.48,0,-1.39,355.2,355.22,0,0.01,3
19821,26363293,0,-0.47,0,-1.39,355.2,355.22,0,0.01,3
19861,26373701,0,-0.48,0,-1.39,355.2,355.21,0,0.01,3
19902,26383871,0,-0.47,0,-1.39,355.2,355.21,0,0.01,3
19943,26393814,0,-0.47,0,-1.39,355.2,355.21,0,0.01,3
19983,26404081,0,-0.48,0,-1.39,355.19,355.21,0,0.01,3
20028,26414330,0,-0.48,0,-1.39,355.19,355.21,0,0.01,3
20068,26424184,0,-0.48,0,-1.39,355.19,355.21,0,0.01,3
20110,26434473,0,-0.48,0,-1.39,355.19,355.2,0,0.01,3
20153,26447088,0,-0.48,0,-1.39,355.19,355.2,0,0.01,3
20191,26457682,0,-0.48,0,-1.38,355.19,355.2,0,0.01,3
20232,26468250,0,-0.48,0,-1.38,355.19,355.2,0,0.01,3
20273,26478475,0,-0.48,0,-1.38,355.18,355.2,0,0.01,3
20315,26488289,0,-0.48,0,-1.39,355.18,355.19,0,0.01,3
20355,26498255,0,-0.48,0,-1.38,355.18,355.19,0,0.01,3
20398,26508665,0,-0.48,0,-1.38,355.17,355.19,0,0.01,3
20445,26518858,0,-0.48,0,-1.38,355.17,355.18,0,0.01,3
20486,26528677,0,-0.48,0,-1.39,355.16,355.18,0,0.01,3
20527,26539065,0,-0.48,0,-1.39,355.16,355.18,0,0.01,3
20567,26548925,0,-0.47,0,-1.39,355.16,355.18,0,0.01,3
20605,26559188,0,-0.48,0,-1.39,355.16,355.17,0,0.01,3
20645,26569417,0,-0.48,0,-1.39,355.16,355.17,0,0.01,3
20687,26579832,0,-0.48,0,-1.39,355.16,355.17,0,0.01,3
20728,26589587,0,-0.48,0,-1.39,355.16,355.17,0,0.01,3
20768,26599621,0,-0.48,0,-1.39,355.16,355.17,0,0.01,3
20810,26609871,0,-0.48,0,-1.39,355.16,355.17,0,0.01,3
20856,26620308,0,-0.48,0,-1.38,355.16,355.17,0,0.01,3
20897,26630275,0,-0.48,0,-1.38,355.16,355.17,0,0.01,3
20938,26640300,0,-0.48,0,-1.39,355.16,355.17,0,0.01,3
20979,26650402,0,-0.48,0,-1.39,355.16,355.18,0,0.01,3
21023,26662729,0,-0.48,0,-1.39,355.16,355.18,0,0.01,3
21063,26673293,0,-0.47,0,-1.39,355.16,355.17,0,0.01,3
21104,26683368,0,-0.47,0,-1.39,355.16,355.17,0,0.01,3
21147,26693825,0,-0.47,0,-1.39,355.16,355.17,0,0.01,3
21188,26703670,0,-0.47,0,-1.39,355.16,355.17,0,0.01,3
21230,26713957,0,-0.47,0,-1.38,355.16,355.17,0,0.01,3
21274,26723689,0,-0.47,0,-1.38,355.16,355.17,0,0.01,3
21315,26734196,0,-0.47,0,-1.38,355.16,355.17,0,0.01,3
21355,26744260,0,-0.47,0,-1.38,355.16,355.17,0,0.01,3
21396,26756841,0,-0.48,0,-1.38,355.16,355.17,0,0.01,3
21437,26766902,0,-0.48,0,-1.39,355.16,355.17,0,0.01,3
21475,26777629,0,-0.48,0,-1.39,355.16,355.17,0,0.01,3
21516,26788052,0,-0.48,0,-1.39,355.16,355.17,0,0.01,3
21556,26798206,0,-0.48,0,-1.39,355.16,355.18,0,0.01,3
21597,26808312,0,-0.48,0,-1.39,355.16,355.18,0,0.01,3
21642,26818267,0,-0.48,0,-1.39,355.16,355.18,0,0.01,3
21683,26828048,0,-0.48,0,-1.39,355.16,355.18,0,0.01,3
21725,26838322,0,-0.48,0,-1.39,355.17,355.18,0,0.01,3
21765,26848034,0,-0.48,0,-1.39,355.17,355.18,0,0.01,3
21806,26858611,0,-0.47,0,-1.39,355.17,355.19,0,0.01,3
21844,26868760,0,-0.47,0,-1.39,355.17,355.19,0,0.01,3
21884,26879253,0,-0.48,0,-1.39,355.17,355.19,0,0.01,3
21928,26889981,0,-0.47,0,-1.39,355.17,355.19,0,0.01,3
21968,26899649,0,-0.47,0,-1.39,355.17,355.19,0,0.01,3
22010,26910432,0,-0.47,0,-1.38,355.17,355.19,0,0.01,3
22058,26923025,0,-0.48,0,-1.38,355.17,355.19,0,0.01,3
22099,26933291,0,-0.48,0,-1.39,355.17,355.19,0,0.01,3
22140,26943262,0,-0.48,0,-1.38,355.17,355.19,0,0.01,3
22181,26953578,0,-0.48,0,-1.38,355.17,355.18,0,0.01,3
22219,26966375,0,-0.48,0,-1.38,355.17,355.18,0,0.01,3
22259,26976703,0,-0.48,0,-1.38,355.17,355.18,0,0.01,3
22300,26986597,0,-0.48,0,-1.39,355.17,355.18,0,0.01,3
22341,26996688,0,-0.48,0,-1.39,355.17,355.18,0,0.01,3
22381,27006822,0,-0.47,0,-1.38,355.17,355.18,0,0.01,3
22423,27016646,0,-0.47,0,-1.38,355.17,355.18,0,0.01,3
22468,27027068,0,-0.47,0,-1.39,355.17,355.18,0,0.01,3
22509,27037658,0,-0.47,0,-1.39,355.17,355.18,0,0.01,3
22549,27047986,0,-0.47,0,-1.39,355.17,355.18,0,0.01,3
22590,27057849,0,-0.47,0,-1.39,355.17,355.18,0,0.01,3
22627,27068239,0,-0.47,0,-1.39,355.16,355.18,0,0.01,3
22669,27077822,0,-0.47,0,-1.39,355.16,355.18,0,0.01,3
22710,27088434,0,-0.47,0,-1.39,355.16,355.18,0,0.01,3
22752,27098817,0,-0.47,0,-1.39,355.16,355.17,0,0.01,3
22793,27108893,0,-0.47,0,-1.38,355.16,355.17,0,0.01,3
22836,27118986,0,-0.47,0,-1.38,355.16,355.17,0,0.01,3
22882,27128892,0,-0.47,0,-1.38,355.15,355.17,0,0.01,3
22922,27139310,0,-0.47,0,-1.38,355.15,355.17,0,0.01,3
22964,27149857,0,-0.47,0,-1.38,355.15,355.17,0,0.01,3
23005,27159981,0,-0.47,0,-1.38,355.15,355.17,0,0.01,3
23042,27170380,0,-0.47,0,-1.38,355.15,355.17,0,0.01,3
23083,27180280,0,-0.47,0,-1.38,355.15,355.17,0,0.01,3
23123,27190279,0,-0.47,0,-1.38,355.15,355.16,0,0.01,3
23164,27200493,0,-0.47,0,-1.38,355.15,355.16,0,0.01,3
23204,27210242,0,-0.47,0,-1.38,355.15,355.16,0,0.01,3
23246,27220284,0,-0.47,0,-1.38,355.14,355.16,0,0.01,3
23291,27230271,0,-0.47,0,-1.38,355.14,355.16,0,0.01,3
23331,27240585,0,-0.46,0,-1.38,355.14,355.16,0,0.01,3
23373,27250760,0,-0.47,0,-1.38,355.14,355.15,0,0.01,3
23416,27263347,0,-0.47,0,-1.38,355.14,355.15,0,0.01,3
23462,27276275,0,-0.47,0,-1.38,355.14,355.15,0,0.01,3
23502,27286479,0,-0.47,0,-1.38,355.13,355.15,0,0.01,3
23546,27296596,0,-0.47,0,-1.38,355.13,355.15,0,0.01,3
23586,27306064,0,-0.47,0,-1.38,355.13,355.15,0,0.01,3
23627,27316458,0,-0.47,0,-1.38,355.13,355.14,0,0.01,3
23672,27326468,0,-0.47,0,-1.39,355.13,355.14,0,0.01,3
23714,27336443,0,-0.47,0,-1.39,355.13,355.14,0,0.01,3
23755,27345884,0,-0.47,0,-1.39,355.12,355.14,0,0.01,3
23795,27356182,0,-0.47,0,-1.39,355.12,355.14,0,0.01,3
23832,27366234,0,-0.47,0,-1.39,355.12,355.14,0,0.01,3
23874,27376867,0,-0.46,0,-1.39,355.12,355.14,0,0.01,3
23914,27386638,0,-0.47,0,-1.39,355.12,355.14,0,0.01,3
23955,27396837,0,-0.47,0,-1.39,355.12,355.13,0,0.01,3
23997,27406635,0,-0.47,0,-1.39,355.12,355.13,0,0.01,3
24037,27416566,0,-0.47,0,-1.39,355.12,355.13,0,0.01,3
24082,27427215,0,-0.47,0,-1.39,355.12,355.13,0,0.01,3
24122,27437332,0,-0.47,0,-1.39,355.12,355.13,0,0.01,3
24165,27447648,0,-0.47,0,-1.39,355.12,355.13,0,0.01,3
24208,27460791,0,-0.47,0,-1.39,355.12,355.13,0,0.01,3
24249,27471310,0,-0.47,0,-1.39,355.12,355.13,0,0.01,3
24292,27482095,0,-0.47,0,-1.39,355.12,355.13,0,0.01,3
24332,27492657,0,-0.47,0,-1.39,355.12,355.13,0,0.01,3
24373,27503072,0,-0.47,0,-1.39,355.11,355.13,0,0.01,3
24414,27513083,0,-0.47,0,-1.39,355.11,355.13,0,0.01,3
24455,27523179,0,-0.47,0,-1.39,355.11,355.13,0,0.01,3
24502,27532863,0,-0.47,0,-1.39,355.11,355.13,0,0.01,3
24542,27543686,0,-0.47,0,-1.39,355.11,355.12,0,0.01,3
24583,27554074,0,-0.47,0,-1.39,355.11,355.12,0,0.01,3
24624,27564175,0,-0.47,0,-1.39,355.1,355.12,0,0.01,3
24663,27574088,0,-0.47,0,-1.39,355.1,355.12,0,0.01,3
24701,27584186,0,-0.47,0,-1.39,355.1,355.12,0,0.01,3
24741,27594375,0,-0.47,0,-1.39,355.1,355.11,0,0.01,3
24782,27604258,0,-0.47,0,-1.39,355.1,355.11,0,0.01,3
24824,27614423,0,-0.47,0,-1.39,355.09,355.11,0,0.01,3
24865,27624800,0,-0.47,0,-1.39,355.09,355.11,0,0.01,3
24910,27634685,0,-0.47,0,-1.39,355.09,355.1,0,0.01,3
24951,27644678,0,-0.47,0,-1.39,355.09,355.1,0,0.01,3
24992,27654359,0,-0.47,0,-1.39,355.09,355.1,0,0.01,3
25033,27664686,0,-0.47,0,-1.38,355.08,355.1,0,0.01,3
25074,27674493,0,-0.47,0,-1.38,355.08,355.1,0,0.01,3
25116,27687686,0,-0.47,0,-1.39,355.08,355.1,0,0.01,3
25156,27697807,0,-0.47,0,-1.39,355.08,355.1,0,0.01,3
25196,27708218,0,-0.47,0,-1.39,355.08,355.09,0,0.01,3
25237,27718284,0,-0.47,0,-1.39,355.07,355.09,0,0.01,3
25279,27728253,0,-0.47,0,-1.38,355.07,355.09,0,0.01,3
25323,27738272,0,-0.47,0,-1.39,355.07,355.08,0,0.01,3
25364,27748900,0,-0.47,0,-1.38,355.07,355.08,0,0.01,3
25404,27759016,0,-0.47,0,-1.38,355.06,355.08,0,0.01,3
25446,27774330,0,-0.47,0,-1.39,355.06,355.08,0,0.01,3
25487,27784212,0,-0.47,0,-1.39,355.06,355.07,0,0.01,3
25527,27794805,0,-0.47,0,-1.39,355.06,355.07,0,0.01,3
25569,27805202,0,-0.47,0,-1.39,355.05,355.07,0,0.01,3
25609,27814794,0,-0.47,0,-1.39,355.05,355.07,0,0.01,3
25650,27824787,0,-0.47,0,-1.39,355.05,355.06,0,0.01,3
25695,27835045,0,-0.47,0,-1.39,355.05,355.06,0,0.01,3
25736,27844682,0,-0.47,0,-1.39,355.04,355.06,0,0.01,3
25777,27855456,0,-0.47,0,-1.38,355.04,355.06,0,0.01,3
25818,27865691,0,-0.47,0,-1.38,355.04,355.05,0,0.01,3
25861,27881050,0,-0.47,0,-1.38,355.04,355.05,0,0.01,3
25903,27891592,0,-0.47,0,-1.38,355.03,355.05,0,0.01,3
25944,27901670,0,-0.47,0,-1.38,355.03,355.05,0,0.01,3
25985,27912183,0,-0.47,0,-1.39,355.03,355.05,0,0.01,3
26025,27922143,0,-0.47,0,-1.39,355.03,355.05,0,0.01,3
26066,27932353,0,-0.47,0,-1.39,355.03,355.05,0,0.01,3
26111,27942184,0,-0.47,0,-1.39,355.03,355.05,0,0.01,3
26151,27952341,0,-0.47,0,-1.38,355.03,355.05,0,0.01,3
26193,27963035,0,-0.47,0,-1.38,355.03,355.05,0,0.01,3
26233,27972828,0,-0.47,0,-1.38,355.03,355.05,0,0.01,3
26268,27983386,0,-0.47,0,-1.38,355.03,355.05,0,0.01,3
26310,27994104,0,-0.47,0,-1.38,355.04,355.05,0,0.01,3
26350,28004204,0,-0.47,0,-1.38,355.03,355.05,0,0.01,3
26392,28014216,0,-0.47,0,-1.38,355.03,355.05,0,0.01,3
26433,28024195,0,-0.47,0,-1.38,355.04,355.05,0,0.01,3
26473,28034095,0,-0.47,0,-1.38,355.04,355.05,0,0.01,3
26518,28044238,0,-0.47,0,-1.38,355.04,355.05,0,0.01,3
26558,28054240,0,-0.47,0,-1.38,355.04,355.05,0,0.01,3
26600,28064371,0,-0.47,0,-1.38,355.04,355.05,0,0.01,3
26640,28074281,0,-0.47,0,-1.38,355.04,355.06,0,0.01,3
26682,28084223,0,-0.47,0,-1.38,355.04,355.06,0,0.01,3
26722,28094698,0,-0.46,0,-1.38,355.04,355.06,0,0.01,3
26764,28104612,0,-0.47,0,-1.38,355.04,355.06,0,0.01,3
26805,28115094,0,-0.46,0,-1.38,355.04,355.06,0,0.01,3
26845,28124998,0,-0.46,0,-1.38,355.04,355.06,0,0.01,3
26886,28135582,0,-0.46,0,-1.38,355.04,355.06,0,0.01,3
26930,28145868,0,-0.46,0,-1.38,355.05,355.06,0,0.01,3
26972,28155415,0,-0.46,0,-1.38,355.05,355.06,0,0.01,3
27012,28165554,0,-0.46,0,-1.38,355.05,355.07,0,0.01,3
27057,28178019,0,-0.46,0,-1.38,355.05,355.07,0,0.01,3
27096,28189207,0,-0.47,0,-1.38,355.05,355.07,0,0.01,3
27136,28199435,0,-0.47,0,-1.38,355.05,355.07,0,0.01,3
27178,28208956,0,-0.47,0,-1.38,355.05,355.07,0,0.01,3
27219,28219489,0,-0.47,0,-1.38,355.05,355.07,0,0.01,3
27259,28230099,0,-0.47,0,-1.38,355.05,355.07,0,0.01,3
27300,28240029,0,-0.47,0,-1.38,355.05,355.06,0,0.01,3
27345,28250255,0,-0.47,0,-1.38,355.05,355.06,0,0.01,3
27386,28260018,0,-0.46,0,-1.38,355.05,355.06,0,0.01,3
27426,28270239,0,-0.47,0,-1.38,355.05,355.06,0,0.01,3
27470,28282713,0,-0.46,0,-1.38,355.05,355.06,0,0.01,3
27510,28293287,0,-0.46,0,-1.38,355.05,355.06,0,0.01,3
27553,28304181,0,-0.47,0,-1.38,355.05,355.06,0,0.01,3
27594,28314322,0,-0.47,0,-1.38,355.05,355.06,0,0.01,3
27634,28324258,0,-0.47,0,-1.38,355.05,355.06,0,0.01,3
27676,28334206,0,-0.47,0,-1.38,355.05,355.06,0,0.01,3
27720,28345012,0,-0.47,0,-1.38,355.05,355.06,0,0.01,3
27762,28355286,0,-0.47,0,-1.38,355.05,355.06,0,0.01,3
27803,28365282,0,-0.47,0,-1.38,355.05,355.06,0,0.01,3
27843,28375346,0,-0.47,0,-1.38,355.05,355.06,0,0.01,3
27883,28385863,0,-0.47,0,-1.38,355.04,355.06,0,0.01,3
27924,28395628,0,-0.47,0,-1.38,355.04,355.06,0,0.01,3
27964,28405302,0,-0.47,0,-1.38,355.04,355.06,0,0.01,3
28004,28415696,0,-0.47,0,-1.38,355.04,355.05,0,0.01,3
28045,28426052,0,-0.47,0,-1.38,355.04,355.05,0,0.01,3
28086,28435974,0,-0.47,0,-1.37,355.04,355.05,0,0.01,3
28130,28446201,0,-0.47,0,-1.37,355.04,355.05,0,0.01,3
28171,28456088,0,-0.47,0,-1.37,355.03,355.05,0,0.01,3
28212,28466289,0,-0.47,0,-1.37,355.03,355.05,0,0.01,3
28253,28476234,0,-0.47,0,-1.37,355.03,355.05,0,0.01,3
28293,28486182,0,-0.47,0,-1.37,355.03,355.05,0,0.01,3
28331,28496269,0,-0.47,0,-1.37,355.03,355.05,0,0.01,3
28374,28506471,0,-0.47,0,-1.37,355.03,355.05,0,0.01,3
28414,28516346,0,-0.47,0,-1.38,355.03,355.04,0,0.01,3
28455,28526876,0,-0.47,0,-1.38,355.03,355.04,0,0.01,3
28497,28536989,0,-0.47,0,-1.38,355.03,355.04,0,0.01,3
28544,28547483,0,-0.47,0,-1.38,355.02,355.04,0,0.01,3
28584,28557709,0,-0.46,0,-1.4,355.02,355.04,0,0.01,3
28625,28567674,0,-0.44,0,-1.41,355.03,355.04,0,0.01,3
28666,28578243,0,-0.45,0,-1.47,355.01,355.03,0,0.01,3
28707,28588210,0,-0.42,0,-1.53,355,355.02,0,0.01,3
28746,28598348,0,-0.43,0,-1.64,354.98,354.99,0,0.01,3
28784,28608866,0,-0.45,0,-1.73,354.95,354.96,0,0.01,3
28825,28619463,0,-0.49,0,-1.81,354.92,354.93,0,0.01,3
28866,28630171,0,-0.52,0,-1.85,354.89,354.9,0,0.01,3
28908,28640035,0,-0.55,0,-1.87,354.86,354.88,0,0.01,3
28953,28650327,0,-0.58,0,-1.85,354.84,354.86,0,0.01,3
28993,28660077,0,-0.6,0,-1.82,354.84,354.85,0,0.02,3
29034,28670393,0,-0.61,0,-1.77,354.84,354.85,0,0.02,3
29074,28680408,0,-0.62,0,-1.74,354.85,354.87,0,0.02,3
29118,28690084,0,-0.62,0,-1.72,354.86,354.88,0,0.02,3
29155,28700447,0,-0.62,0,-1.72,354.89,354.91,0,0.02,3
29196,28710594,0,-0.6,0,-1.74,354.92,354.94,0,0.02,3
29237,28720854,0,-0.59,0,-1.75,354.95,354.97,0,0.02,3
29277,28731269,0,-0.57,0,-1.75,354.98,354.99,0,0.02,3
29319,28741400,0,-0.55,0,-1.75,355,355.01,0,0.02,3
29363,28751659,0,-0.52,0,-1.73,355.01,355.03,0,0.02,3
29405,28761939,0,-0.47,0,-1.71,355.01,355.03,0,0.03,3
29445,28772072,0,-0.43,0,-1.69,355.01,355.02,0,0.03,3
29486,28782296,0,-0.39,0,-1.67,354.99,355.01,0,0.03,3
29527,28791801,0,-0.35,0,-1.66,354.97,354.98,0,0.03,3
29561,28803043,0,-0.32,0,-1.64,354.95,354.96,0,0.03,3
29602,28813040,0,-0.3,0,-1.63,354.93,354.94,0,0.03,3
29643,28823575,0,-0.29,0,-1.63,354.92,354.93,0,0.03,3
29684,28833628,0,-0.29,0,-1.62,354.91,354.92,0,0.03,3
29725,28843705,0,-0.31,0,-1.61,354.92,354.93,0,0.03,3
29769,28854100,0,-0.33,0,-1.6,354.93,354.95,0,0.03,3
29810,28864331,0,-0.35,0,-1.59,354.96,354.97,0,0.04,3
29851,28874301,0,-0.37,0,-1.57,354.99,355.01,0,0.04,3
29892,28884572,0,-0.39,0,-1.56,355.03,355.05,0,0.04,3
29934,28894246,0,-0.4,0,-1.56,355.08,355.09,0,0.04,3
29974,28905312,0,-0.4,0,-1.56,355.12,355.13,0,0.04,3
30015,28915563,0,-0.39,0,-1.58,355.15,355.17,0,0.04,3
30056,28925609,0,-0.38,0,-1.6,355.17,355.19,0,0.04,3
30097,28935214,0,-0.36,0,-1.62,355.18,355.19,0,0.04,3
30139,28945356,0,-0.35,0,-1.64,355.18,355.19,0,0.04,3
30183,28956098,0,-0.34,0,-1.66,355.16,355.17,0,0.04,3
30224,28966013,0,-0.33,0,-1.67,355.13,355.14,0,0.03,3
30265,28976229,0,-0.34,0,-1.67,355.1,355.11,0,0.03,3
30306,28985814,0,-0.34,0,-1.67,355.07,355.08,0,0.03,3
30348,28996187,0,-0.35,0,-1.66,355.04,355.06,0,0.03,3
30389,29006195,0,-0.36,0,-1.66,355.03,355.04,0,0.03,3
30426,29016432,0,-0.37,0,-1.65,355.03,355.04,0,0.03,3
30467,29026570,0,-0.37,0,-1.65,355.04,355.05,0,0.03,3
30508,29036850,0,-0.37,0,-1.65,355.06,355.08,0,0.03,3
30550,29046621,0,-0.37,0,-1.64,355.1,355.11,0,0.03,3
30594,29057097,0,-0.36,0,-1.63,355.13,355.15,0,0.03,3
30635,29067006,0,-0.36,0,-1.62,355.17,355.19,0,0.03,3
30675,29076854,0,-0.35,0,-1.62,355.2,355.22,0,0.03,3
30716,29087044,0,-0.35,0,-1.61,355.23,355.24,0,0.03,3
30759,29099685,0,-0.34,0,-1.6,355.24,355.26,0,0.03,3
30799,29110479,0,-0.33,0,-1.6,355.24,355.26,0,0.03,3
30840,29120314,0,-0.32,0,-1.61,355.23,355.25,0,0.03,3
30880,29130214,0,-0.32,0,-1.61,355.22,355.23,0,0.03,3
30923,29139825,0,-0.31,0,-1.62,355.2,355.21,0,0.03,3
30964,29150081,0,-0.3,0,-1.62,355.18,355.19,0,0.03,3
31008,29160447,0,-0.3,0,-1.63,355.16,355.18,0,0.03,3
31049,29170183,0,-0.3,0,-1.63,355.15,355.16,0,0.03,3
31090,29180599,0,-0.3,0,-1.63,355.14,355.16,0,0.03,3
31131,29190410,0,-0.3,0,-1.63,355.15,355.16,0,0.03,3
31168,29200285,0,-0.31,0,-1.64,355.15,355.17,0,0.03,3
31210,29210852,0,-0.32,0,-1.64,355.16,355.18,0,0.03,3
31251,29220987,0,-0.33,0,-1.65,355.18,355.19,0,0.03,3
31292,29230633,0,-0.33,0,-1.65,355.19,355.21,0,0.03,3
31333,29240692,0,-0.33,0,-1.65,355.2,355.22,0,0.03,3
31374,29250945,0,-0.33,0,-1.65,355.21,355.23,0,0.03,3
31419,29261255,0,-0.33,0,-1.65,355.21,355.23,0,0.03,3
31459,29271396,0,-0.33,0,-1.64,355.21,355.23,0,0.03,3
31500,29281352,0,-0.33,0,-1.64,355.21,355.22,0,0.03,3
31541,29291698,0,-0.33,0,-1.63,355.2,355.21,0,0.03,3
31585,29304704,0,-0.33,0,-1.63,355.18,355.19,0,0.03,3
31626,29315104,0,-0.33,0,-1.63,355.16,355.17,0,0.03,3
31663,29325868,0,-0.33,0,-1.63,355.15,355.16,0,0.03,3
31705,29336028,0,-0.33,0,-1.63,355.14,355.16,0,0.03,3
31747,29345698,0,-0.33,0,-1.63,355.14,355.15,0,0.03,3
31787,29356244,0,-0.33,0,-1.63,355.14,355.15,0,0.03,3
31832,29365650,0,-0.33,0,-1.63,355.14,355.16,0,0.03,3
31873,29376207,0,-0.32,0,-1.63,355.15,355.16,0,0.03,3
31914,29385630,0,-0.33,0,-1.63,355.15,355.16,0,0.03,3
31955,29395762,0,-0.33,0,-1.62,355.15,355.17,0,0.03,3
31992,29406053,0,-0.34,0,-1.62,355.15,355.17,0,0.03,3
32033,29415691,0,-0.34,0,-1.62,355.14,355.16,0,0.03,3
32071,29426206,0,-0.35,0,-1.62,355.13,355.15,0,0.03,3
32112,29436248,0,-0.35,0,-1.62,355.12,355.14,0,0.03,3
32153,29446203,0,-0.36,0,-1.62,355.11,355.12,0,0.03,3
32193,29456460,0,-0.36,0,-1.62,355.1,355.11,0,0.03,3
32239,29466200,0,-0.35,0,-1.62,355.09,355.1,0,0.03,3
32279,29476709,0,-0.35,0,-1.63,355.08,355.09,0,0.03,3
32322,29487048,0,-0.33,0,-1.63,355.08,355.09,0,0.03,3
32363,29496714,0,-0.32,0,-1.63,355.08,355.09,0,0.03,3
32397,29506621,0,-0.3,0,-1.64,355.08,355.1,0,0.03,3
32438,29516996,0,-0.29,0,-1.64,355.09,355.1,0,0.03,3
32479,29526671,0,-0.28,0,-1.64,355.09,355.11,0,0.03,3
32519,29537262,0,-0.28,0,-1.65,355.09,355.11,0,0.03,3
32561,29547616,0,-0.29,0,-1.65,355.09,355.11,0,0.03,3
32601,29557783,0,-0.3,0,-1.65,355.09,355.1,0,0.03,3
32649,29568065,0,-0.32,0,-1.66,355.08,355.09,0,0.02,3
32690,29578449,0,-0.34,0,-1.66,355.07,355.08,0,0.02,3
32733,29588438,0,-0.36,0,-1.66,355.05,355.07,0,0.02,3
32774,29600418,0,-0.38,0,-1.66,355.04,355.05,0,0.02,3
32814,29611467,0,-0.38,0,-1.67,355.03,355.04,0,0.02,3
32852,29621724,0,-0.38,0,-1.67,355.02,355.03,0,0.02,3
32893,29632204,0,-0.37,0,-1.67,355.02,355.03,0,0.02,3
32934,29642411,0,-0.36,0,-1.68,355.01,355.03,0,0.02,3
32974,29652448,0,-0.35,0,-1.68,355.02,355.03,0,0.02,3
33014,29662869,0,-0.33,0,-1.68,355.02,355.04,0,0.02,3
33059,29672669,0,-0.32,0,-1.68,355.03,355.04,0,0.02,3
33099,29683070,0,-0.32,0,-1.68,355.04,355.05,0,0.02,3
33141,29693194,0,-0.32,0,-1.68,355.04,355.05,0,0.02,3
33181,29703289,0,-0.32,0,-1.67,355.04,355.06,0,0.02,3
33219,29713220,0,-0.33,0,-1.67,355.04,355.05,0,0.02,3
33259,29723395,0,-0.34,0,-1.67,355.03,355.05,0,0.02,3
33299,29733473,0,-0.35,0,-1.66,355.03,355.04,0,0.02,3
33339,29743038,0,-0.35,0,-1.66,355.02,355.04,0,0.02,3
33379,29753065,0,-0.35,0,-1.65,355.02,355.03,0,0.02,3
33420,29763003,0,-0.35,0,-1.65,355.01,355.03,0,0.02,3
33464,29773641,0,-0.35,0,-1.64,355.01,355.02,0,0.03,3
33505,29783972,0,-0.34,0,-1.63,355.01,355.02,0,0.03,3
33545,29793676,0,-0.34,0,-1.62,355,355.02,0,0.03,3
33586,29803574,0,-0.35,0,-1.61,355,355.02,0,0.03,3
33620,29814206,0,-0.35,0,-1.6,355,355.02,0,0.03,3
33660,29824184,0,-0.36,0,-1.59,355,355.02,0,0.03,3
33700,29834565,0,-0.36,0,-1.58,355,355.02,0,0.03,3
33740,29844366,0,-0.36,0,-1.57,355.01,355.02,0,0.03,3
33780,29854608,0,-0.36,0,-1.56,355.01,355.03,0,0.03,3
33820,29864785,0,-0.36,0,-1.55,355.02,355.03,0,0.03,3
33864,29874494,0,-0.35,0,-1.55,355.02,355.03,0,0.03,3
33906,29884869,0,-0.35,0,-1.54,355.02,355.03,0,0.03,3
33948,29894720,0,-0.34,0,-1.54,355.02,355.04,0,0.03,3
33988,29904650,0,-0.33,0,-1.53,355.02,355.03,0,0.03,3
34026,29917361,0,-0.32,0,-1.52,355.01,355.02,0,0.03,3
34067,29927783,0,-0.31,0,-1.52,355,355.02,0,0.03,3
34107,29937397,0,-0.31,0,-1.51,355,355.01,0,0.03,3
34147,29947654,0,-0.3,0,-1.51,354.99,355,0,0.03,3
34187,29957290,0,-0.31,0,-1.5,354.98,354.99,0,0.03,3
34232,29967685,0,-0.31,0,-1.5,354.98,354.99,0,0.03,3
34273,29977719,0,-0.31,0,-1.49,354.97,354.99,0,0.03,3
34313,29987378,0,-0.32,0,-1.49,354.97,354.99,0,0.03,3
34353,29997796,0,-0.32,0,-1.49,354.97,354.98,0,0.03,3
34393,30008327,0,-0.32,0,-1.49,354.97,354.98,0,0.03,3
34430,30018456,0,-0.33,0,-1.48,354.97,354.98,0,0.03,3
34468,30028272,0,-0.33,0,-1.48,354.96,354.98,0,0.03,3
34508,30038610,0,-0.33,0,-1.47,354.96,354.97,0,0.03,3
34548,30048643,0,-0.33,0,-1.47,354.96,354.97,0,0.03,3
34588,30058637,0,-0.32,0,-1.47,354.95,354.97,0,0.03,3
34632,30068823,0,-0.32,0,-1.46,354.95,354.96,0,0.03,3
34673,30078659,0,-0.32,0,-1.46,354.94,354.96,0,0.03,3
34716,30088614,0,-0.32,0,-1.47,354.94,354.95,0,0.03,3
34758,30099276,0,-0.31,0,-1.47,354.94,354.95,0,0.03,3
34795,30109681,0,-0.31,0,-1.47,354.93,354.95,0,0.03,3
34832,30119868,0,-0.3,0,-1.48,354.93,354.94,0,0.03,3
34873,30129705,0,-0.3,0,-1.49,354.92,354.93,0,0.03,3
34913,30139628,0,-0.3,0,-1.5,354.91,354.92,0,0.03,3
34953,30150094,0,-0.3,0,-1.51,354.9,354.92,0,0.03,3
34994,30160309,0,-0.3,0,-1.51,354.9,354.91,0,0.03,3
35038,30170609,0,-0.3,0,-1.51,354.89,354.91,0,0.03,3
35078,30180806,0,-0.3,0,-1.51,354.89,354.9,0,0.04,3
35119,30190324,0,-0.3,0,-1.51,354.88,354.9,0,0.04,3
35160,30200463,0,-0.29,0,-1.51,354.88,354.89,0,0.04,3
35203,30213198,0,-0.29,0,-1.52,354.87,354.88,0,0.04,3
35244,30223205,0,-0.29,0,-1.53,354.86,354.88,0,0.04,3
35284,30233436,0,-0.29,0,-1.54,354.86,354.87,0,0.04,3
35324,30243696,0,-0.29,0,-1.55,354.85,354.86,0,0.04,3
35364,30254104,0,-0.3,0,-1.56,354.84,354.85,0,0.04,3
35405,30264203,0,-0.3,0,-1.57,354.83,354.84,0,0.04,3
35449,30274475,0,-0.31,0,-1.57,354.82,354.83,0,0.04,3
35491,30284455,0,-0.32,0,-1.57,354.81,354.82,0,0.04,3
35533,30295040,0,-0.32,0,-1.57,354.8,354.82,0,0.04,3
35578,30304809,0,-0.33,0,-1.57,354.79,354.81,0,0.04,3
35618,30315083,0,-0.33,0,-1.58,354.79,354.8,0,0.04,3
35655,30325222,0,-0.33,0,-1.59,354.78,354.79,0,0.04,3
35695,30335291,0,-0.33,0,-1.6,354.77,354.79,0,0.04,3
35737,30345440,0,-0.33,0,-1.61,354.76,354.78,0,0.04,3
35777,30355076,0,-0.33,0,-1.62,354.75,354.77,0,0.04,3
35817,30365456,0,-0.33,0,-1.62,354.74,354.76,0,0.04,3
35861,30375284,0,-0.33,0,-1.62,354.74,354.75,0,0.04,3
35902,30385305,0,-0.34,0,-1.62,354.73,354.74,0,0.04,3
35943,30395648,0,-0.34,0,-1.62,354.72,354.74,0,0.04,3
35986,30407591,0,-0.34,0,-1.62,354.71,354.73,0,0.04,3
36026,30418630,0,-0.34,0,-1.62,354.71,354.72,0,0.04,3
36066,30429221,0,-0.35,0,-1.62,354.7,354.72,0,0.04,3
36106,30439264,0,-0.35,0,-1.62,354.69,354.71,0,0.04,3
36147,30449445,0,-0.35,0,-1.63,354.69,354.7,0,0.04,3
36187,30459181,0,-0.35,0,-1.63,354.68,354.7,0,0.04,3
36227,30469455,0,-0.35,0,-1.63,354.67,354.69,0,0.04,3
36272,30480170,0,-0.35,0,-1.63,354.67,354.68,0,0.04,3
36314,30490008,0,-0.35,0,-1.63,354.66,354.68,0,0.04,3
36355,30499692,0,-0.35,0,-1.63,354.66,354.67,0,0.04,3
36395,30509991,0,-0.35,0,-1.62,354.65,354.66,0,0.04,3
36436,30522676,0,-0.35,0,-1.62,354.64,354.66,0,0.04,3
36476,30533340,0,-0.34,0,-1.62,354.64,354.65,0,0.04,3
36516,30543342,0,-0.34,0,-1.63,354.63,354.64,0,0.04,3
36556,30553778,0,-0.34,0,-1.64,354.62,354.64,0,0.04,3
36597,30563649,0,-0.34,0,-1.64,354.62,354.63,0,0.04,3
36637,30573702,0,-0.34,0,-1.65,354.61,354.63,0,0.04,3
36686,30584229,0,-0.33,0,-1.66,354.61,354.62,0,0.03,3
36728,30594284,0,-0.33,0,-1.66,354.61,354.62,0,0.03,3
36769,30604607,0,-0.33,0,-1.66,354.6,354.62,0,0.03,3
36809,30617035,0,-0.33,0,-1.66,354.6,354.61,0,0.03,3
36849,30627707,0,-0.33,0,-1.66,354.6,354.61,0,0.03,3
36889,30637493,0,-0.34,0,-1.66,354.59,354.61,0,0.03,3
36930,30647579,0,-0.34,0,-1.66,354.59,354.6,0,0.03,3
36970,30657800,0,-0.34,0,-1.66,354.58,354.6,0,0.03,3
37010,30667636,0,-0.35,0,-1.66,354.58,354.59,0,0.03,3
37055,30678317,0,-0.35,0,-1.66,354.58,354.59,0,0.03,3
37097,30688724,0,-0.36,0,-1.66,354.57,354.59,0,0.03,3
37137,30699224,0,-0.36,0,-1.66,354.57,354.59,0,0.03,3
37178,30709256,0,-0.36,0,-1.65,354.57,354.58,0,0.03,3
37218,30719288,0,-0.36,0,-1.65,354.57,354.58,0,0.03,3
37258,30730262,0,-0.36,0,-1.65,354.56,354.58,0,0.03,3
37299,30740263,0,-0.36,0,-1.65,354.56,354.57,0,0.03,3
37339,30750251,0,-0.36,0,-1.65,354.55,354.57,0,0.03,3
37379,30760441,0,-0.36,0,-1.64,354.55,354.56,0,0.03,3
37420,30770409,0,-0.36,0,-1.64,354.55,354.56,0,0.03,3
37464,30780687,0,-0.36,0,-1.64,354.54,354.56,0,0.03,3
37504,30791190,0,-0.36,0,-1.64,354.54,354.56,0,0.03,3
37544,30800637,0,-0.36,0,-1.64,354.54,354.55,0,0.03,3
37584,30810697,0,-0.36,0,-1.63,354.54,354.55,0,0.03,3
37625,30823262,0,-0.36,0,-1.63,354.54,354.55,0,0.03,3
37666,30833847,0,-0.36,0,-1.63,354.54,354.55,0,0.03,3
37707,30844057,0,-0.37,0,-1.62,354.53,354.55,0,0.03,3
37747,30854082,0,-0.37,0,-1.62,354.53,354.55,0,0.03,3
37787,30863835,0,-0.38,0,-1.62,354.53,354.54,0,0.03,3
37828,30873821,0,-0.39,0,-1.62,354.52,354.54,0,0.03,3
37872,30883860,0,-0.39,0,-1.62,354.52,354.53,0,0.03,3
37912,30894096,0,-0.4,0,-1.62,354.52,354.53,0,0.03,3
37952,30903851,0,-0.4,0,-1.62,354.51,354.53,0,0.03,3
37995,30914259,0,-0.4,0,-1.62,354.51,354.53,0,0.03,3
38035,30924424,0,-0.4,0,-1.62,354.51,354.52,0,0.03,3
38076,30936777,0,-0.39,0,-1.62,354.51,354.52,0,0.03,3
38116,30947654,0,-0.38,0,-1.61,354.51,354.52,0,0.03,3
38157,30957848,0,-0.37,0,-1.61,354.51,354.52,0,0.03,3
38197,30967662,0,-0.36,0,-1.61,354.5,354.52,0,0.03,3
38237,30977806,0,-0.36,0,-1.61,354.5,354.52,0,0.03,3
38281,30987692,0,-0.36,0,-1.6,354.5,354.52,0,0.02,3
38321,30997576,0,-0.37,0,-1.59,354.5,354.51,0,0.02,3
38361,31007470,0,-0.38,0,-1.58,354.5,354.51,0,0.02,3
38405,31019793,0,-0.4,0,-1.56,354.49,354.51,0,0.02,3
38443,31030816,0,-0.44,0,-1.53,354.49,354.5,0,0.02,3
38483,31040643,0,-0.47,0,-1.51,354.48,354.5,0,0.02,3
38523,31050674,0,-0.49,0,-1.49,354.48,354.49,0,0.02,3
38564,31060702,0,-0.51,0,-1.48,354.48,354.49,0,0.02,3
38604,31070621,0,-0.53,0,-1.47,354.48,354.49,0,0.02,3
38646,31080914,0,-0.53,0,-1.46,354.48,354.5,0,0.02,3
38690,31090651,0,-0.53,0,-1.43,354.49,354.5,0,0.03,3
38733,31100815,0,-0.52,0,-1.41,354.5,354.51,0,0.03,3
38773,31111272,0,-0.49,0,-1.36,354.51,354.53,0,0.03,3
38813,31121592,0,-0.46,0,-1.35,354.53,354.54,0,0.03,3
38854,31131279,0,-0.43,0,-1.34,354.54,354.55,0,0.03,3
38891,31141286,0,-0.4,0,-1.36,354.53,354.55,0,0.03,3
38932,31151428,0,-0.39,0,-1.38,354.52,354.54,0,0.03,3
38972,31161657,0,-0.42,0,-1.4,354.5,354.52,0,0.03,3
39012,31171799,0,-0.44,0,-1.4,354.49,354.5,0,0.03,3
39053,31181655,0,-0.45,0,-1.38,354.47,354.49,0,0.03,3
39097,31191891,0,-0.45,0,-1.36,354.45,354.47,0,0.02,3
39137,31201627,0,-0.47,0,-1.35,354.44,354.46,0,0.02,3
39177,31211865,0,-0.5,0,-1.35,354.43,354.44,0,0.02,3
39220,31224197,0,-0.52,0,-1.34,354.42,354.44,0,0.02,3
39260,31235006,0,-0.53,0,-1.34,354.43,354.44,0,0.02,3
39302,31244681,0,-0.53,0,-1.35,354.44,354.46,0,0.02,3
39342,31255226,0,-0.51,0,-1.36,354.45,354.47,0,0.02,3
39383,31265036,0,-0.49,0,-1.39,354.47,354.48,0,0.02,3
39423,31274727,0,-0.48,0,-1.43,354.48,354.49,0,0.02,3
39468,31285562,0,-0.47,0,-1.46,354.48,354.5,0,0.02,3
39508,31295848,0,-0.46,0,-1.47,354.48,354.5,0,0.02,3
39550,31305799,0,-0.44,0,-1.46,354.48,354.5,0,0.02,3
39591,31315427,0,-0.42,0,-1.43,354.47,354.49,0,0.02,3
39631,31325486,0,-0.42,0,-1.41,354.46,354.48,0,0.02,3
39669,31335632,0,-0.42,0,-1.4,354.45,354.46,0,0.02,3
39710,31345791,0,-0.44,0,-1.39,354.43,354.45,0,0.02,3
39751,31355717,0,-0.46,0,-1.38,354.42,354.44,0,0.02,3
39791,31365278,0,-0.49,0,-1.37,354.42,354.43,0,0.02,3
39831,31375293,0,-0.5,0,-1.37,354.42,354.44,0,0.02,3
39876,31385698,0,-0.51,0,-1.37,354.43,354.44,0,0.02,3
39916,31395876,0,-0.52,0,-1.38,354.44,354.45,0,0.02,3
39956,31405420,0,-0.53,0,-1.39,354.44,354.46,0,0.02,3
39997,31416051,0,-0.53,0,-1.4,354.46,354.47,0,0.02,3
40037,31425859,0,-0.52,0,-1.38,354.47,354.48,0,0.02,3
40074,31435933,0,-0.5,0,-1.36,354.48,354.49,0,0.02,3
40115,31446247,0,-0.47,0,-1.34,354.49,354.5,0,0.02,3
40155,31456311,0,-0.45,0,-1.33,354.49,354.5,0,0.02,3
40196,31465834,0,-0.44,0,-1.33,354.49,354.5,0,0.02,3
40236,31476263,0,-0.43,0,-1.34,354.48,354.5,0,0.02,3
40280,31486566,0,-0.43,0,-1.35,354.48,354.49,0,0.02,3
40320,31496806,0,-0.43,0,-1.37,354.47,354.49,0,0.01,3
40363,31506673,0,-0.44,0,-1.39,354.47,354.48,0,0.01,3
40403,31516413,0,-0.45,0,-1.4,354.46,354.48,0,0.01,3
40443,31526777,0,-0.47,0,-1.42,354.46,354.47,0,0.01,3
40480,31536266,0,-0.49,0,-1.43,354.46,354.47,0,0.01,3
40518,31546775,0,-0.51,0,-1.43,354.46,354.47,0,0.01,3
40559,31557036,0,-0.52,0,-1.41,354.46,354.48,0,0.01,3
40599,31567193,0,-0.52,0,-1.39,354.47,354.49,0,0.01,3
40641,31576944,0,-0.51,0,-1.38,354.48,354.5,0,0.01,3
40687,31587291,0,-0.51,0,-1.37,354.49,354.5,0,0.01,3
40727,31597619,0,-0.5,0,-1.37,354.49,354.51,0,0.02,3
40767,31607853,0,-0.49,0,-1.38,354.5,354.51,0,0.02,3
40807,31617484,0,-0.48,0,-1.38,354.5,354.52,0,0.02,3
40842,31627653,0,-0.46,0,-1.38,354.51,354.52,0,0.02,3
40882,31637837,0,-0.44,0,-1.38,354.5,354.52,0,0.02,3
40922,31647335,0,-0.43,0,-1.38,354.5,354.51,0,0.02,3
40963,31657379,0,-0.43,0,-1.38,354.49,354.5,0,0.02,3
41003,31667844,0,-0.44,0,-1.38,354.48,354.49,0,0.02,3
41044,31677467,0,-0.45,0,-1.37,354.47,354.49,0,0.02,3
41091,31690243,0,-0.46,0,-1.35,354.47,354.49,0,0.01,3
41131,31700383,0,-0.48,0,-1.34,354.47,354.49,0,0.01,3
41173,31710302,0,-0.5,0,-1.33,354.51,354.53,0,0.01,3
41214,31719899,0,-0.51,0,-1.33,354.54,354.56,0,0.01,3
41254,31732678,0,-0.52,0,-1.33,354.58,354.59,0,0.01,3
41294,31743045,0,-0.52,0,-1.33,354.61,354.63,0,0.01,3
41335,31752995,0,-0.52,0,-1.33,354.64,354.65,0,0.01,3
41375,31763052,0,-0.51,0,-1.33,354.66,354.68,0,0.01,3
41415,31773441,0,-0.5,0,-1.35,354.68,354.7,0,0.01,3
41456,31783448,0,-0.51,0,-1.38,354.69,354.71,0,0.01,3
41500,31793971,0,-0.57,0,-1.45,354.71,354.73,0,0.01,3
41540,31804064,0,-0.65,0,-1.52,354.69,354.71,0,0.01,3
41581,31814264,0,-0.74,0,-1.62,354.68,354.7,0,0.01,3
41621,31824401,0,-0.87,0,-1.75,354.64,354.66,0,0.01,3
41658,31836709,0,-1.12,0,-1.96,354.59,354.61,0,0.01,3
41698,31847278,0,-1.35,0,-2.16,354.54,354.57,0,0.01,3
41738,31857249,0,-1.61,0,-2.41,354.5,354.52,0,0.01,3
41780,31867177,0,-1.89,0,-2.67,354.46,354.49,0,0.01,3
41820,31877467,0,-2.17,0,-2.92,354.43,354.47,0,0.01,3
41860,31887620,0,-2.42,0,-3.16,354.44,354.48,0,0.01,3
41906,31897883,0,-2.7,0,-3.46,354.44,354.48,0.01,0.02,3
41946,31907422,0,-2.96,0,-3.76,354.45,354.5,0.01,0.02,3
41987,31917462,0,-3.21,0,-4.09,354.47,354.52,0.01,0.02,3
42027,31927458,0,-3.47,0,-4.48,354.47,354.53,0.01,0.02,3
42067,31940138,0,-3.79,0,-5.09,354.48,354.53,0.01,0.02,3
42108,31950321,0,-3.98,0,-5.55,354.47,354.53,0.01,0.02,3
42148,31960670,0,-4.2,0,-6.13,354.44,354.5,0.01,0.02,3
42188,31970824,0,-4.44,0,-6.83,354.41,354.47,0.01,0.02,3
42229,31980478,0,-4.65,0,-7.52,354.38,354.45,0.01,0.02,3
42273,31991266,0,-4.84,0,-8.220000000000001,354.36,354.43,0.01,0.02,3
42314,32001384,0,-5.02,0,-8.93,354.35,354.42,0.01,0.03,3
42355,32011256,0,-5.19,0,-9.66,354.38,354.45,0.01,0.03,3
42395,32021190,0,-5.36,0,-10.43,354.45,354.53,0.01,0.03,3
42432,32034088,0,-5.56,0,-11.45,354.61,354.68,0.01,0.03,3
42472,32044365,0,-5.7,0,-12.28,354.77,354.85,0.01,0.03,3
42512,32054285,0,-5.82,0,-13.13,354.97,355.05,0.01,0.03,3
42553,32064097,0,-5.89,0,-13.99,355.19,355.27,0.01,0.03,3
42595,32074245,0,-5.91,0,-14.86,355.45,355.53,0.01,0.03,3
42636,32084047,0,-5.87,0,-15.72,355.74,355.82,0.01,0.03,3
42683,32094418,0,-5.78,0,-16.59,356.07,356.15,0.01,0.04,3
42723,32104178,0,-5.65,0,-17.46,356.44,356.52,0.02,0.04,3
42763,32114106,0,-5.52,0,-18.35,356.84,356.92,0.02,0.04,3
42803,32124214,0,-5.34,0,-19.23,357.26,357.34,0.02,0.04,3
42844,32134305,0,-5.14,0,-20.14,357.71,357.79,0.02,0.04,3
42881,32144627,0,-4.88,0,-21.27,358.27,358.34,0.02,0.04,3
42921,32154451,0,-4.68,0,-22.29,358.75,358.83,0.02,0.04,3
42961,32164676,0,-4.54,0,-23.38,359.25,359.32,0.02,0.04,3
43001,32174588,0,-4.49,0,-24.49,359.76,359.83,0.02,0.04,3
43042,32184709,0,-4.42,0,-25.55,0.26,0.32,0.02,0.04,3
43086,32194570,0,-4.33,0,-26.59,0.77,0.83,0.02,0.04,3
43127,32204284,0,-4.15,0,-27.46,1.24,1.3,0.02,0.04,3
43167,32214575,0,-4.02,0,-28.24,1.74,1.79,0.02,0.04,3
43207,32224710,0,-4,0,-28.93,2.31,2.36,0.02,0.04,3
43248,32234605,0,-3.95,0,-29.48,2.85,2.91,0.02,0.04,3
43288,32244777,0,-3.78,0,-29.95,3.37,3.42,0.02,0.04,3
43328,32255203,0,-3.54,0,-30.3,3.85,3.9,0.02,0.04,3
43368,32265429,0,-3.35,0,-30.58,4.34,4.38,0.02,0.04,3
43409,32275106,0,-3.22,0,-30.81,4.82,4.86,0.02,0.04,3
43449,32285422,0,-3.07,0,-30.96,5.27,5.31,0.02,0.04,3
43496,32295328,0,-2.89,0,-31.03,5.7,5.74,0.02,0.04,3
43536,32305466,0,-2.74,0,-31.02,6.12,6.15,0.06,0.04,3
43579,32315236,0,-2.65,0,-30.93,6.54,6.58,0.06,0.04,3
43619,32325180,0,-2.56,0,-30.76,6.96,6.99,0.06,0.04,3
43659,32337673,0,-2.41,0,-30.43,7.49,7.53,0.06,0.04,3
43699,32347846,0,-2.34,0,-30.12,7.9,7.93,0.06,0.04,3
43739,32357621,0,-2.35,0,-29.81,8.32,8.35,0.06,0.04,3
43780,32368245,0,-2.4,0,-29.47,8.74,8.77,0.06,0.04,3
43821,32378284,0,-2.44,0,-29.11,9.18,9.210000000000001,0.06,0.04,3
43861,32388209,0,-2.5,0,-28.77,9.58,9.609999999999999,0.06,0.04,3
43906,32398785,0,-2.6,0,-28.48,9.93,9.970000000000001,0.06,0.04,3
43946,32409083,0,-2.79,0,-28.14,10.37,10.41,0.06,0.04,3
43987,32419305,0,-2.98,0,-27.83,10.75,10.79,0.06,0.04,3
44027,32431456,0,-3.26,0,-27.45,11.23,11.27,0.06,0.04,3
44064,32442198,0,-3.51,0,-27.17,11.58,11.63,0.06,0.04,3
44104,32452351,0,-3.78,0,-26.92,11.92,11.97,0.06,0.04,3
44144,32462262,0,-4.04,0,-26.7,12.24,12.3,0.06,0.04,3
44185,32472296,0,-4.31,0,-26.51,12.54,12.6,0.06,0.04,3
44225,32482841,0,-4.61,0,-26.35,12.82,12.88,0.06,0.04,3
44265,32493016,0,-4.99,0,-26.22,13.12,13.19,0.06,0.04,3
44312,32503566,0,-5.35,0,-26.13,13.38,13.45,0.07000000000000001,0.04,3
44353,32513584,0,-5.76,0,-26.08,13.65,13.73,0.07000000000000001,0.04,3
44393,32523584,0,-6.17,0,-26.05,13.89,13.97,0.07000000000000001,0.04,3
44430,32533289,0,-6.61,0,-26.05,14.13,14.22,0.07000000000000001,0.04,3
44470,32544106,0,-7.07,0,-26.07,14.37,14.46,0.07000000000000001,0.04,3
44507,32554070,0,-7.56,0,-26.1,14.61,14.71,0.07000000000000001,0.04,3
44548,32564053,0,-8.07,0,-26.14,14.85,14.95,0.07000000000000001,0.04,3
44590,32574202,0,-8.59,0,-26.19,15.08,15.2,0.07000000000000001,0.04,3
44630,32584575,0,-9.130000000000001,0,-26.24,15.32,15.44,0.07000000000000001,0.04,3
44671,32595170,0,-9.74,0,-26.29,15.57,15.71,0.07000000000000001,0.04,3
44717,32604980,0,-10.3,0,-26.33,15.8,15.94,0.07000000000000001,0.04,3
44758,32614924,0,-10.88,0,-26.35,16.01,16.16,0.07000000000000001,0.04,3
44798,32624837,0,-11.47,0,-26.35,16.22,16.38,0.07000000000000001,0.04,3
44838,32635243,0,-12.07,0,-26.32,16.42,16.58,0.07000000000000001,0.04,3
44879,32650306,0,-13.02,0,-26.23,16.72,16.9,0.07000000000000001,0.04,3
44919,32660463,0,-13.56,0,-26.14,16.89,17.07,0.07000000000000001,0.04,3
44959,32670843,0,-14.22,0,-26,17.07,17.26,0.07000000000000001,0.04,3
44999,32680277,0,-14.83,0,-25.84,17.23,17.42,0.07000000000000001,0.04,3
45040,32690439,0,-15.45,0,-25.65,17.37,17.57,0.07000000000000001,0.04,3
45084,32700614,0,-16.05,0,-25.43,17.49,17.7,0.07000000000000001,0.05,3
45126,32710414,0,-16.65,0,-25.17,17.59,17.81,0.08,0.05,3
45167,32720619,0,-17.22,0,-24.86,17.68,17.9,0.08,0.05,3
45207,32730402,0,-17.77,0,-24.51,17.73,17.96,0.08,0.05,3
45244,32740664,0,-18.31,0,-24.12,17.76,18,0.08,0.05,3
45284,32750790,0,-18.82,0,-23.68,17.77,18.01,0.08,0.05,3
45325,32761216,0,-19.31,0,-23.22,17.75,17.99,0.08,0.05,3
45365,32770639,0,-19.81,0,-22.66,17.69,17.94,0.08,0.05,3
45405,32781085,0,-20.23,0,-22.13,17.62,17.87,0.08,0.05,3
45445,32790570,0,-20.62,0,-21.59,17.52,17.78,0.08,0.05,3
45489,32800638,0,-20.99,0,-21.02,17.39,17.66,0.08,0.05,3
45530,32811065,0,-21.33,0,-20.45,17.25,17.52,0.08,0.05,3
45570,32820742,0,-21.64,0,-19.86,17.09,17.36,0.08,0.05,3
45611,32831075,0,-21.92,0,-19.29,16.91,17.18,0.08,0.05,3
45651,32840813,0,-22.17,0,-18.71,16.71,16.98,0.08,0.05,3
45689,32850643,0,-22.39,0,-18.14,16.49,16.77,0.08,0.05,3
45729,32861060,0,-22.58,0,-17.58,16.26,16.54,0.08,0.05,3
45769,32870706,0,-22.74,0,-17.03,16.02,16.3,0.08,0.05,3
45809,32881191,0,-22.86,0,-16.49,15.76,16.04,0.08,0.05,3
45852,32890688,0,-22.95,0,-15.95,15.48,15.76,0.1,0.05,3
45896,32900646,0,-23,0,-15.43,15.18,15.46,0.1,0.04,3
45936,32910730,0,-22.99,0,-14.93,14.86,15.14,0.1,0.04,3
45976,32920637,0,-22.94,0,-14.44,14.51,14.79,0.1,0.04,3
46018,32931207,0,-22.86,0,-13.97,14.14,14.41,0.1,0.04,3
46058,32940459,0,-22.72,0,-13.52,13.74,14.01,0.1,0.04,3
46096,32951314,0,-22.55,0,-13.09,13.32,13.59,0.1,0.04,3
46136,32961202,0,-22.3,0,-12.65,12.83,13.1,0.1,0.04,3
46176,32971181,0,-22.03,0,-12.27,12.36,12.63,0.1,0.04,3
46217,32981681,0,-21.71,0,-11.92,11.86,12.13,0.1,0.04,3
46257,32991652,0,-21.36,0,-11.58,11.34,11.6,0.1,0.04,3
46302,33001839,0,-20.97,0,-11.27,10.8,11.05,0.1,0.05,3
46342,33011826,0,-20.55,0,-10.98,10.24,10.49,0.1,0.05,3
46382,33022140,0,-20.11,0,-10.7,9.67,9.91,0.1,0.05,3
46423,33031878,0,-19.66,0,-10.45,9.09,9.32,0.1,0.05,3
46460,33044875,0,-19.07,0,-10.16,8.33,8.56,0.1,0.05,3
46501,33054852,0,-18.62,0,-9.98,7.75,7.97,0.1,0.05,3
46543,33065022,0,-18.18,0,-9.83,7.17,7.39,0.1,0.05,3
46583,33075034,0,-17.75,0,-9.710000000000001,6.6,6.82,0.1,0.05,3
46623,33084837,0,-17.33,0,-9.630000000000001,6.04,6.25,0.1,0.05,3
46666,33094870,0,-16.93,0,-9.57,5.48,5.68,0.1,0.05,3
46710,33105303,0,-16.52,0,-9.52,4.92,5.12,0.1,0.08,3
46750,33115310,0,-16.12,0,-9.49,4.37,4.56,0.1,0.08,3
46790,33125097,0,-15.74,0,-9.460000000000001,3.81,4,0.1,0.08,3
46831,33135049,0,-15.35,0,-9.43,3.25,3.44,0.1,0.08,3
46868,33145280,0,-14.93,0,-9.390000000000001,2.64,2.82,0.1,0.08,3
46909,33155660,0,-14.54,0,-9.35,2.08,2.25,0.1,0.08,3
46949,33165573,0,-14.16,0,-9.31,1.51,1.68,0.1,0.08,3
46989,33175810,0,-13.77,0,-9.27,0.93,1.1,0.1,0.08,3
47029,33185346,0,-13.37,0,-9.23,0.34,0.5,0.1,0.08,3
47070,33195421,0,-12.98,0,-9.18,359.74,359.91,0.1,0.08,3
47114,33206055,0,-12.59,0,-9.140000000000001,359.14,359.3,0.1,0.1,3
47154,33215836,0,-12.21,0,-9.109999999999999,358.52,358.67,0.1,0.1,3
