LineNo,TimeUS,DesRoll,Roll,DesPitch,Pitch,DesYaw,Yaw,ErrRP,ErrYaw,AEKF
185,2.1377e+07,0,-0.51,0,-1.37,355.19,355.21,0,0.01,3
408,2.1442e+07,0,-0.51,0,-1.37,355.2,355.22,0,0.01,3
980,2.1559e+07,0,-0.51,0,-1.37,355.21,355.23,0,0.01,3
1517,2.1781e+07,0,-0.51,0,-1.37,355.23,355.24,0,0.01,3
1557,2.1791e+07,0,-0.51,0,-1.37,355.23,355.25,0,0.01,3
1599,2.1801e+07,0,-0.51,0,-1.37,355.23,355.25,0,0.01,3
1636,2.1812e+07,0,-0.51,0,-1.37,355.23,355.25,0,0.01,3
1677,2.1821e+07,0,-0.51,0,-1.37,355.23,355.25,0,0.01,3
1718,2.1832e+07,0,-0.51,0,-1.37,355.23,355.24,0,0.01,3
1764,2.1842e+07,0,-0.51,0,-1.37,355.23,355.24,0,0.01,3
1804,2.1853e+07,0,-0.51,0,-1.37,355.22,355.24,0,0.01,3
1845,2.1863e+07,0,-0.51,0,-1.37,355.22,355.24,0,0.01,3
1886,2.1873e+07,0,-0.51,0,-1.38,355.22,355.23,0,0.01,3
1926,2.1883e+07,0,-0.51,0,-1.38,355.21,355.23,0,0.01,3
1969,2.1893e+07,0,-0.51,0,-1.38,355.21,355.22,0,0.01,3
2011,2.1904e+07,0,-0.51,0,-1.38,355.21,355.22,0,0.01,3
2052,2.1915e+07,0,-0.51,0,-1.37,355.2,355.22,0,0.01,3
2092,2.1925e+07,0,-0.51,0,-1.37,355.2,355.22,0,0.01,3
2133,2.1935e+07,0,-0.51,0,-1.37,355.2,355.22,0,0.01,3
2182,2.1946e+07,0,-0.51,0,-1.37,355.2,355.22,0,0.01,3
2222,2.1956e+07,0,-0.51,0,-1.36,355.2,355.22,0,0.01,3
2263,2.1965e+07,0,-0.51,0,-1.37,355.2,355.22,0,0.01,3
2303,2.1976e+07,0,-0.51,0,-1.37,355.2,355.22,0,0.01,3
2344,2.1986e+07,0,-0.51,0,-1.37,355.2,355.22,0,0.01,3
2381,2.1996e+07,0,-0.51,0,-1.37,355.2,355.22,0,0.01,3
2422,2.2006e+07,0,-0.51,0,-1.37,355.2,355.22,0,0.01,3
2464,2.2017e+07,0,-0.51,0,-1.37,355.2,355.22,0,0.01,3
2505,2.2026e+07,0,-0.5,0,-1.38,355.2,355.21,0,0.01,3
2546,2.2036e+07,0,-0.5,0,-1.37,355.2,355.21,0,0.01,3
2590,2.2047e+07,0,-0.51,0,-1.37,355.19,355.21,0,0.01,3
2632,2.2057e+07,0,-0.51,0,-1.37,355.19,355.21,0,0.01,3
2672,2.2067e+07,0,-0.51,0,-1.37,355.19,355.21,0,0.01,3
2713,2.2077e+07,0,-0.51,0,-1.37,355.19,355.21,0,0.01,3
2755,2.2087e+07,0,-0.51,0,-1.37,355.2,355.21,0,0.01,3
2792,2.2097e+07,0,-0.51,0,-1.37,355.2,355.21,0,0.01,3
2833,2.2107e+07,0,-0.51,0,-1.37,355.2,355.21,0,0.01,3
2873,2.2117e+07,0,-0.51,0,-1.38,355.2,355.21,0,0.01,3
2915,2.2127e+07,0,-0.51,0,-1.38,355.2,355.22,0,0.01,3
2955,2.2137e+07,0,-0.51,0,-1.38,355.2,355.22,0,0.01,3
3000,2.2147e+07,0,-0.51,0,-1.38,355.2,355.22,0,0.01,3
3040,2.2157e+07,0,-0.5,0,-1.37,355.2,355.22,0,0.01,3
3084,2.2167e+07,0,-0.5,0,-1.37,355.2,355.22,0,0.01,3
3125,2.2177e+07,0,-0.5,0,-1.37,355.2,355.21,0,0.01,3
3165,2.219e+07,0,-0.51,0,-1.37,355.2,355.21,0,0.01,3
3206,2.22e+07,0,-0.5,0,-1.37,355.2,355.21,0,0.01,3
3246,2.221e+07,0,-0.51,0,-1.37,355.2,355.22,0,0.01,3
3287,2.2221e+07,0,-0.51,0,-1.37,355.2,355.22,0,0.01,3
3329,2.2231e+07,0,-0.51,0,-1.37,355.2,355.22,0,0.01,3
3370,2.2241e+07,0,-0.51,0,-1.38,355.21,355.22,0,0.01,3
3415,2.2251e+07,0,-0.51,0,-1.38,355.21,355.22,0,0.01,3
3455,2.2261e+07,0,-0.51,0,-1.38,355.21,355.23,0,0.01,3
3499,2.227e+07,0,-0.51,0,-1.38,355.22,355.23,0,0.01,3
3542,2.2283e+07,0,-0.51,0,-1.37,355.22,355.24,0,0.01,3
3581,2.2294e+07,0,-0.51,0,-1.37,355.22,355.24,0,0.01,3
3623,2.2303e+07,0,-0.51,0,-1.37,355.22,355.24,0,0.01,3
3665,2.2313e+07,0,-0.5,0,-1.37,355.23,355.24,0,0.01,3
3705,2.2324e+07,0,-0.5,0,-1.37,355.23,355.24,0,0.01,3
3746,2.2334e+07,0,-0.5,0,-1.37,355.23,355.24,0,0.01,3
3787,2.2344e+07,0,-0.5,0,-1.38,355.23,355.25,0,0.01,3
3831,2.2354e+07,0,-0.5,0,-1.38,355.23,355.25,0,0,3
3872,2.2364e+07,0,-0.5,0,-1.38,355.23,355.25,0,0,3
3912,2.2375e+07,0,-0.5,0,-1.38,355.23,355.25,0,0,3
3953,2.2384e+07,0,-0.5,0,-1.38,355.23,355.25,0,0,3
3994,2.2395e+07,0,-0.5,0,-1.38,355.24,355.25,0,0,3
4038,2.2407e+07,0,-0.51,0,-1.38,355.24,355.26,0,0,3
4079,2.2417e+07,0,-0.51,0,-1.38,355.24,355.26,0,0,3
4119,2.2427e+07,0,-0.51,0,-1.37,355.24,355.26,0,0,3
4162,2.2437e+07,0,-0.51,0,-1.38,355.24,355.26,0,0,3
4203,2.2447e+07,0,-0.51,0,-1.38,355.25,355.26,0,0,3
4249,2.2457e+07,0,-0.51,0,-1.38,355.25,355.26,0,0.01,3
4290,2.2468e+07,0,-0.51,0,-1.38,355.25,355.27,0,0.01,3
4330,2.2478e+07,0,-0.51,0,-1.38,355.25,355.27,0,0.01,3
4371,2.2487e+07,0,-0.51,0,-1.38,355.25,355.27,0,0.01,3
4408,2.2498e+07,0,-0.51,0,-1.38,355.25,355.27,0,0.01,3
4451,2.2508e+07,0,-0.51,0,-1.38,355.25,355.27,0,0.01,3
4492,2.2519e+07,0,-0.5,0,-1.38,355.25,355.27,0,0.01,3
4532,2.2529e+07,0,-0.5,0,-1.38,355.25,355.27,0,0.01,3
4573,2.2539e+07,0,-0.5,0,-1.38,355.26,355.27,0,0.01,3
4614,2.2549e+07,0,-0.5,0,-1.37,355.26,355.28,0,0.01,3
4659,2.2559e+07,0,-0.5,0,-1.37,355.26,355.28,0,0,3
4701,2.257e+07,0,-0.5,0,-1.38,355.27,355.28,0,0,3
4741,2.258e+07,0,-0.5,0,-1.38,355.27,355.29,0,0,3
4782,2.259e+07,0,-0.5,0,-1.38,355.28,355.29,0,0,3
4822,2.2601e+07,0,-0.5,0,-1.38,355.28,355.29,0,0,3
4863,2.2611e+07,0,-0.5,0,-1.38,355.28,355.29,0,0,3
4904,2.2621e+07,0,-0.5,0,-1.38,355.28,355.29,0,0,3
4944,2.2631e+07,0,-0.5,0,-1.38,355.28,355.29,0,0,3
4986,2.2641e+07,0,-0.5,0,-1.38,355.28,355.29,0,0,3
5027,2.265e+07,0,-0.5,0,-1.38,355.28,355.29,0,0,3
5074,2.2661e+07,0,-0.5,0,-1.38,355.28,355.29,0,0,3
5114,2.2671e+07,0,-0.5,0,-1.38,355.28,355.3,0,0,3
5155,2.2681e+07,0,-0.51,0,-1.38,355.28,355.3,0,0,3
5199,2.2694e+07,0,-0.51,0,-1.38,355.29,355.3,0,0,3
5239,2.2704e+07,0,-0.5,0,-1.38,355.29,355.3,0,0,3
5280,2.2715e+07,0,-0.51,0,-1.38,355.29,355.31,0,0,3
5320,2.2725e+07,0,-0.51,0,-1.38,355.29,355.31,0,0,3
5362,2.2735e+07,0,-0.51,0,-1.38,355.29,355.31,0,0,3
5402,2.2745e+07,0,-0.51,0,-1.39,355.29,355.31,0,0,3
5447,2.2755e+07,0,-0.51,0,-1.38,355.29,355.31,0,0,3
5487,2.2765e+07,0,-0.51,0,-1.38,355.29,355.31,0,0.01,3
5528,2.2776e+07,0,-0.51,0,-1.38,355.29,355.31,0,0.01,3
5573,2.2788e+07,0,-0.5,0,-1.38,355.29,355.31,0,0.01,3
5613,2.2799e+07,0,-0.51,0,-1.38,355.29,355.31,0,0.01,3
5655,2.2809e+07,0,-0.51,0,-1.38,355.29,355.31,0,0.01,3
5695,2.282e+07,0,-0.51,0,-1.38,355.29,355.31,0,0.01,3
5736,2.283e+07,0,-0.5,0,-1.38,355.29,355.3,0,0.01,3
5777,2.284e+07,0,-0.5,0,-1.38,355.28,355.3,0,0.01,3
5818,2.2851e+07,0,-0.5,0,-1.38,355.28,355.3,0,0.01,3
5863,2.2861e+07,0,-0.5,0,-1.38,355.28,355.3,0,0,3
5903,2.2871e+07,0,-0.5,0,-1.38,355.29,355.3,0,0,3
5945,2.2882e+07,0,-0.5,0,-1.38,355.29,355.3,0,0,3
5989,2.2892e+07,0,-0.5,0,-1.38,355.29,355.3,0,0,3
6029,2.2902e+07,0,-0.5,0,-1.38,355.29,355.3,0,0,3
6070,2.2912e+07,0,-0.5,0,-1.38,355.28,355.3,0,0,3
6110,2.2922e+07,0,-0.5,0,-1.38,355.28,355.3,0,0,3
6151,2.2932e+07,0,-0.5,0,-1.38,355.28,355.3,0,0,3
6191,2.2942e+07,0,-0.5,0,-1.38,355.28,355.3,0,0,3
6232,2.2952e+07,0,-0.5,0,-1.38,355.28,355.3,0,0,3
6278,2.2962e+07,0,-0.5,0,-1.38,355.28,355.3,0,0,3
6318,2.2973e+07,0,-0.5,0,-1.38,355.28,355.29,0,0,3
6361,2.2983e+07,0,-0.51,0,-1.38,355.28,355.29,0,0,3
6402,2.2994e+07,0,-0.51,0,-1.38,355.28,355.3,0,0,3
6447,2.3007e+07,0,-0.51,0,-1.38,355.28,355.3,0,0,3
6488,2.3017e+07,0,-0.51,0,-1.38,355.28,355.3,0,0,3
6528,2.3027e+07,0,-0.51,0,-1.37,355.29,355.3,0,0,3
6569,2.3038e+07,0,-0.51,0,-1.37,355.29,355.3,0,0,3
6609,2.3047e+07,0,-0.51,0,-1.37,355.29,355.31,0,0,3
6651,2.3058e+07,0,-0.51,0,-1.37,355.29,355.31,0,0,3
6695,2.3068e+07,0,-0.5,0,-1.37,355.29,355.31,0,0,3
6736,2.3078e+07,0,-0.5,0,-1.38,355.3,355.31,0,0,3
6777,2.3088e+07,0,-0.5,0,-1.38,355.3,355.31,0,0,3
6820,2.3098e+07,0,-0.5,0,-1.38,355.3,355.31,0,0,3
6862,2.3111e+07,0,-0.5,0,-1.37,355.3,355.31,0,0,3
6902,2.3122e+07,0,-0.5,0,-1.37,355.29,355.31,0,0,3
6943,2.3131e+07,0,-0.5,0,-1.37,355.29,355.31,0,0,3
6984,2.3141e+07,0,-0.5,0,-1.37,355.29,355.31,0,0,3
7026,2.3152e+07,0,-0.5,0,-1.37,355.3,355.31,0,0,3
7068,2.3162e+07,0,-0.5,0,-1.37,355.3,355.31,0,0,3
7112,2.3172e+07,0,-0.5,0,-1.37,355.3,355.32,0,0,3
7153,2.3183e+07,0,-0.5,0,-1.37,355.3,355.32,0,0,3
7194,2.3193e+07,0,-0.5,0,-1.38,355.3,355.32,0,0,3
7235,2.3203e+07,0,-0.5,0,-1.38,355.31,355.32,0,0,3
7272,2.3214e+07,0,-0.5,0,-1.37,355.31,355.33,0,0,3
7314,2.3224e+07,0,-0.5,0,-1.37,355.31,355.33,0,0,3
7354,2.3234e+07,0,-0.5,0,-1.37,355.31,355.33,0,0,3
7394,2.3244e+07,0,-0.5,0,-1.37,355.31,355.32,0,0,3
7435,2.3254e+07,0,-0.5,0,-1.37,355.31,355.32,0,0,3
7476,2.3264e+07,0,-0.5,0,-1.37,355.3,355.32,0,0,3
7521,2.3274e+07,0,-0.5,0,-1.37,355.3,355.32,0,0.01,3
7562,2.3285e+07,0,-0.5,0,-1.37,355.3,355.32,0,0.01,3
7605,2.3295e+07,0,-0.5,0,-1.37,355.3,355.31,0,0.01,3
7647,2.3305e+07,0,-0.5,0,-1.37,355.3,355.31,0,0.01,3
7684,2.3315e+07,0,-0.5,0,-1.37,355.3,355.31,0,0.01,3
7721,2.3325e+07,0,-0.5,0,-1.37,355.29,355.31,0,0.01,3
7762,2.3335e+07,0,-0.5,0,-1.37,355.29,355.31,0,0.01,3
7803,2.3345e+07,0,-0.5,0,-1.37,355.29,355.31,0,0.01,3
7844,2.3356e+07,0,-0.5,0,-1.37,355.29,355.31,0,0.01,3
7884,2.3366e+07,0,-0.5,0,-1.37,355.29,355.31,0,0.01,3
7929,2.3376e+07,0,-0.5,0,-1.37,355.29,355.3,0,0.01,3
7970,2.3386e+07,0,-0.5,0,-1.37,355.29,355.3,0,0.01,3
8012,2.3396e+07,0,-0.5,0,-1.37,355.28,355.3,0,0.01,3
8049,2.3406e+07,0,-0.5,0,-1.37,355.28,355.29,0,0.01,3
8087,2.3416e+07,0,-0.5,0,-1.37,355.27,355.29,0,0.01,3
8128,2.3426e+07,0,-0.49,0,-1.37,355.27,355.28,0,0.01,3
8169,2.3436e+07,0,-0.49,0,-1.37,355.26,355.28,0,0.01,3
8210,2.3446e+07,0,-0.49,0,-1.37,355.26,355.27,0,0.01,3
8250,2.3456e+07,0,-0.49,0,-1.37,355.25,355.27,0,0.01,3
8291,2.3466e+07,0,-0.49,0,-1.37,355.25,355.27,0,0.01,3
8338,2.3476e+07,0,-0.49,0,-1.37,355.25,355.26,0,0.01,3
8381,2.3486e+07,0,-0.49,0,-1.37,355.25,355.26,0,0.01,3
8423,2.3496e+07,0,-0.49,0,-1.37,355.25,355.26,0,0.01,3
8463,2.3506e+07,0,-0.5,0,-1.37,355.25,355.26,0,0.01,3
8497,2.3516e+07,0,-0.5,0,-1.37,355.25,355.26,0,0.01,3
8538,2.3527e+07,0,-0.5,0,-1.37,355.25,355.26,0,0.01,3
8579,2.3536e+07,0,-0.5,0,-1.38,355.24,355.26,0,0.01,3
8619,2.3547e+07,0,-0.5,0,-1.37,355.24,355.26,0,0.01,3
8660,2.3557e+07,0,-0.5,0,-1.37,355.24,355.25,0,0.01,3
8700,2.3566e+07,0,-0.5,0,-1.37,355.23,355.25,0,0.01,3
8745,2.3576e+07,0,-0.49,0,-1.37,355.23,355.25,0,0.01,3
8786,2.3587e+07,0,-0.49,0,-1.37,355.23,355.24,0,0.01,3
8826,2.3597e+07,0,-0.49,0,-1.37,355.23,355.24,0,0.01,3
8869,2.3606e+07,0,-0.49,0,-1.37,355.22,355.24,0,0.01,3
8906,2.3617e+07,0,-0.49,0,-1.37,355.22,355.24,0,0.01,3
8947,2.3628e+07,0,-0.49,0,-1.37,355.22,355.24,0,0.01,3
8984,2.3638e+07,0,-0.49,0,-1.37,355.22,355.24,0,0.01,3
9027,2.3648e+07,0,-0.49,0,-1.37,355.23,355.24,0,0.01,3
9069,2.3657e+07,0,-0.49,0,-1.37,355.23,355.24,0,0.01,3
9109,2.3668e+07,0,-0.5,0,-1.37,355.23,355.25,0,0.01,3
9154,2.3678e+07,0,-0.5,0,-1.37,355.23,355.25,0,0.01,3
9196,2.3688e+07,0,-0.5,0,-1.37,355.23,355.25,0,0.01,3
9237,2.3698e+07,0,-0.5,0,-1.37,355.23,355.25,0,0.01,3
9278,2.3708e+07,0,-0.5,0,-1.37,355.23,355.25,0,0.01,3
9315,2.3718e+07,0,-0.5,0,-1.37,355.23,355.25,0,0.01,3
9353,2.3728e+07,0,-0.5,0,-1.37,355.24,355.25,0,0.01,3
9394,2.3738e+07,0,-0.5,0,-1.37,355.24,355.25,0,0.01,3
9434,2.3749e+07,0,-0.5,0,-1.38,355.24,355.26,0,0.01,3
9475,2.3759e+07,0,-0.49,0,-1.38,355.24,355.26,0,0.01,3
9515,2.3769e+07,0,-0.49,0,-1.38,355.25,355.26,0,0.01,3
9560,2.3779e+07,0,-0.49,0,-1.38,355.25,355.26,0,0.01,3
9600,2.379e+07,0,-0.49,0,-1.37,355.25,355.27,0,0.01,3
9641,2.38e+07,0,-0.49,0,-1.37,355.26,355.27,0,0.01,3
9682,2.381e+07,0,-0.5,0,-1.37,355.26,355.28,0,0.01,3
9704,2.383e+07,0,-0.5,0,-1.37,355.26,355.28,0,0.01,3
9744,2.384e+07,0,-0.5,0,-1.37,355.27,355.28,0,0.01,3
9785,2.385e+07,0,-0.5,0,-1.37,355.27,355.28,0,0.01,3
9825,2.3861e+07,0,-0.5,0,-1.37,355.27,355.28,0,0.01,3
9867,2.387e+07,0,-0.5,0,-1.37,355.27,355.28,0,0.01,3
9912,2.388e+07,0,-0.5,0,-1.37,355.27,355.28,0,0.01,3
9954,2.3891e+07,0,-0.49,0,-1.37,355.27,355.28,0,0.01,3
9995,2.39e+07,0,-0.49,0,-1.37,355.27,355.29,0,0.01,3
10039,2.3915e+07,0,-0.49,0,-1.37,355.27,355.29,0,0.01,3
10079,2.3926e+07,0,-0.49,0,-1.37,355.27,355.29,0,0.01,3
10120,2.3936e+07,0,-0.49,0,-1.37,355.27,355.29,0,0.01,3
10163,2.3946e+07,0,-0.49,0,-1.37,355.27,355.29,0,0.01,3
10203,2.3956e+07,0,-0.49,0,-1.37,355.27,355.29,0,0.01,3
10244,2.3966e+07,0,-0.49,0,-1.37,355.27,355.29,0,0.01,3
10289,2.3976e+07,0,-0.49,0,-1.37,355.27,355.29,0,0.01,3
10329,2.3986e+07,0,-0.49,0,-1.37,355.28,355.29,0,0.01,3
10371,2.3996e+07,0,-0.5,0,-1.37,355.28,355.29,0,0.01,3
10414,2.4009e+07,0,-0.5,0,-1.37,355.28,355.29,0,0.01,3
10452,2.4019e+07,0,-0.5,0,-1.37,355.28,355.29,0,0.01,3
10493,2.403e+07,0,-0.5,0,-1.37,355.27,355.29,0,0.01,3
10536,2.404e+07,0,-0.5,0,-1.37,355.27,355.29,0,0.01,3
10577,2.405e+07,0,-0.5,0,-1.37,355.27,355.28,0,0.01,3
10617,2.406e+07,0,-0.5,0,-1.37,355.26,355.28,0,0.01,3
10658,2.407e+07,0,-0.5,0,-1.37,355.26,355.27,0,0.01,3
10702,2.408e+07,0,-0.5,0,-1.37,355.26,355.27,0,0.01,3
10746,2.4091e+07,0,-0.5,0,-1.37,355.26,355.27,0,0.01,3
10787,2.4101e+07,0,-0.5,0,-1.37,355.26,355.27,0,0.01,3
10827,2.4111e+07,0,-0.5,0,-1.37,355.26,355.27,0,0.01,3
10865,2.4122e+07,0,-0.5,0,-1.37,355.26,355.27,0,0.01,3
10905,2.4132e+07,0,-0.5,0,-1.37,355.25,355.27,0,0.01,3
10949,2.4142e+07,0,-0.5,0,-1.37,355.25,355.27,0,0.01,3
10990,2.4153e+07,0,-0.5,0,-1.37,355.25,355.27,0,0.01,3
11031,2.4163e+07,0,-0.5,0,-1.37,355.25,355.26,0,0.01,3
11071,2.4173e+07,0,-0.5,0,-1.37,355.24,355.26,0,0.01,3
11115,2.4182e+07,0,-0.5,0,-1.37,355.24,355.26,0,0.01,3
11157,2.4193e+07,0,-0.5,0,-1.37,355.24,355.25,0,0.01,3
11197,2.4203e+07,0,-0.5,0,-1.37,355.23,355.25,0,0.01,3
11238,2.4216e+07,0,-0.5,0,-1.37,355.23,355.25,0,0.01,3
11276,2.4226e+07,0,-0.49,0,-1.37,355.23,355.25,0,0.01,3
11317,2.4237e+07,0,-0.49,0,-1.37,355.23,355.24,0,0.01,3
11358,2.4247e+07,0,-0.5,0,-1.37,355.23,355.24,0,0.01,3
11399,2.4257e+07,0,-0.49,0,-1.37,355.23,355.24,0,0.01,3
11440,2.4267e+07,0,-0.5,0,-1.37,355.23,355.24,0,0.01,3
11482,2.4277e+07,0,-0.5,0,-1.37,355.23,355.24,0,0.01,3
11526,2.4287e+07,0,-0.5,0,-1.37,355.23,355.25,0,0.01,3
11571,2.4297e+07,0,-0.5,0,-1.37,355.23,355.25,0,0.01,3
11611,2.4308e+07,0,-0.5,0,-1.37,355.23,355.25,0,0.01,3
11653,2.4318e+07,0,-0.5,0,-1.37,355.23,355.25,0,0.01,3
11696,2.4332e+07,0,-0.5,0,-1.37,355.23,355.24,0,0.01,3
11737,2.4342e+07,0,-0.5,0,-1.37,355.22,355.24,0,0.01,3
11779,2.4352e+07,0,-0.5,0,-1.37,355.22,355.24,0,0.01,3
11820,2.4362e+07,0,-0.5,0,-1.37,355.22,355.23,0,0.01,3
11861,2.4372e+07,0,-0.5,0,-1.37,355.21,355.23,0,0.01,3
11906,2.4383e+07,0,-0.5,0,-1.37,355.21,355.23,0,0.01,3
11947,2.4394e+07,0,-0.49,0,-1.37,355.21,355.23,0,0.01,3
11987,2.4404e+07,0,-0.49,0,-1.37,355.21,355.23,0,0.01,3
12028,2.4414e+07,0,-0.49,0,-1.37,355.21,355.23,0,0.01,3
12069,2.4424e+07,0,-0.49,0,-1.37,355.21,355.23,0,0.01,3
12109,2.4434e+07,0,-0.49,0,-1.37,355.21,355.23,0,0.01,3
12151,2.4444e+07,0,-0.49,0,-1.37,355.21,355.23,0,0.01,3
12191,2.4454e+07,0,-0.5,0,-1.37,355.21,355.23,0,0.01,3
12232,2.4465e+07,0,-0.5,0,-1.37,355.21,355.23,0,0.01,3
12273,2.4475e+07,0,-0.5,0,-1.37,355.21,355.22,0,0.01,3
12324,2.4487e+07,0,-0.5,0,-1.37,355.2,355.22,0,0,3
12365,2.4497e+07,0,-0.5,0,-1.38,355.2,355.22,0,0,3
12406,2.4508e+07,0,-0.5,0,-1.38,355.2,355.21,0,0,3
12447,2.4517e+07,0,-0.5,0,-1.38,355.2,355.21,0,0,3
12487,2.453e+07,0,-0.49,0,-1.37,355.19,355.21,0,0,3
12525,2.4541e+07,0,-0.49,0,-1.37,355.19,355.21,0,0,3
12569,2.4551e+07,0,-0.49,0,-1.38,355.19,355.21,0,0,3
12609,2.4561e+07,0,-0.49,0,-1.38,355.19,355.21,0,0,3
12651,2.4571e+07,0,-0.49,0,-1.38,355.19,355.21,0,0,3
12691,2.4581e+07,0,-0.49,0,-1.38,355.19,355.21,0,0,3
12736,2.459e+07,0,-0.5,0,-1.38,355.19,355.21,0,0.01,3
12778,2.4601e+07,0,-0.49,0,-1.38,355.19,355.21,0,0.01,3
12818,2.4611e+07,0,-0.5,0,-1.38,355.19,355.21,0,0.01,3
12859,2.4621e+07,0,-0.5,0,-1.38,355.19,355.21,0,0.01,3
12896,2.4634e+07,0,-0.5,0,-1.38,355.19,355.21,0,0.01,3
12939,2.4644e+07,0,-0.5,0,-1.38,355.19,355.21,0,0.01,3
12981,2.4654e+07,0,-0.5,0,-1.38,355.19,355.21,0,0.01,3
13021,2.4664e+07,0,-0.5,0,-1.38,355.19,355.2,0,0.01,3
13063,2.4674e+07,0,-0.49,0,-1.38,355.19,355.2,0,0.01,3
13103,2.4685e+07,0,-0.49,0,-1.38,355.19,355.2,0,0.01,3
13150,2.4695e+07,0,-0.49,0,-1.38,355.19,355.2,0,0.01,3
13190,2.4704e+07,0,-0.49,0,-1.38,355.19,355.21,0,0.01,3
13232,2.4715e+07,0,-0.49,0,-1.38,355.19,355.21,0,0.01,3
13272,2.4725e+07,0,-0.49,0,-1.38,355.19,355.21,0,0.01,3
13312,2.4735e+07,0,-0.49,0,-1.38,355.19,355.21,0,0.01,3
13349,2.4745e+07,0,-0.49,0,-1.38,355.2,355.21,0,0.01,3
13390,2.4755e+07,0,-0.49,0,-1.38,355.2,355.22,0,0.01,3
13431,2.4766e+07,0,-0.49,0,-1.38,355.2,355.22,0,0.01,3
13472,2.4775e+07,0,-0.49,0,-1.38,355.2,355.22,0,0.01,3
13513,2.4785e+07,0,-0.49,0,-1.38,355.21,355.22,0,0.01,3
13558,2.4795e+07,0,-0.49,0,-1.38,355.21,355.22,0,0.01,3
13599,2.4806e+07,0,-0.49,0,-1.38,355.21,355.22,0,0.01,3
13640,2.4816e+07,0,-0.49,0,-1.38,355.21,355.22,0,0.01,3
13680,2.4825e+07,0,-0.49,0,-1.38,355.21,355.23,0,0.01,3
13719,2.4836e+07,0,-0.49,0,-1.38,355.21,355.23,0,0.01,3
13761,2.4846e+07,0,-0.49,0,-1.38,355.21,355.22,0,0.01,3
13801,2.4856e+07,0,-0.49,0,-1.38,355.21,355.22,0,0.01,3
13842,2.4866e+07,0,-0.49,0,-1.38,355.21,355.22,0,0.01,3
13882,2.4876e+07,0,-0.49,0,-1.38,355.21,355.22,0,0.01,3
13924,2.4885e+07,0,-0.49,0,-1.38,355.21,355.23,0,0.01,3
13972,2.4896e+07,0,-0.49,0,-1.38,355.21,355.23,0,0.01,3
14012,2.4906e+07,0,-0.49,0,-1.38,355.21,355.23,0,0.01,3
14053,2.4916e+07,0,-0.49,0,-1.38,355.21,355.23,0,0.01,3
14093,2.4926e+07,0,-0.49,0,-1.38,355.21,355.23,0,0.01,3
14128,2.4936e+07,0,-0.49,0,-1.38,355.21,355.23,0,0.01,3
14170,2.4946e+07,0,-0.49,0,-1.38,355.21,355.23,0,0.01,3
14210,2.4957e+07,0,-0.49,0,-1.38,355.21,355.23,0,0.01,3
14251,2.4967e+07,0,-0.49,0,-1.38,355.21,355.23,0,0.01,3
14291,2.4976e+07,0,-0.49,0,-1.38,355.21,355.23,0,0.01,3
14334,2.4987e+07,0,-0.49,0,-1.38,355.21,355.23,0,0.01,3
14378,2.4997e+07,0,-0.49,0,-1.38,355.21,355.23,0,0.01,3
14419,2.5007e+07,0,-0.49,0,-1.38,355.21,355.23,0,0.01,3
14460,2.5017e+07,0,-0.49,0,-1.38,355.21,355.23,0,0.01,3
14502,2.5033e+07,0,-0.49,0,-1.38,355.21,355.23,0,0.01,3
14543,2.5043e+07,0,-0.49,0,-1.38,355.22,355.23,0,0.01,3
14584,2.5054e+07,0,-0.49,0,-1.38,355.22,355.23,0,0.01,3
14625,2.5064e+07,0,-0.48,0,-1.38,355.22,355.24,0,0.01,3
14665,2.5074e+07,0,-0.48,0,-1.38,355.22,355.24,0,0.01,3
14706,2.5084e+07,0,-0.49,0,-1.38,355.23,355.24,0,0.01,3
14751,2.5094e+07,0,-0.49,0,-1.38,355.23,355.24,0,0.01,3
14794,2.5104e+07,0,-0.49,0,-1.38,355.23,355.25,0,0.01,3
14836,2.5115e+07,0,-0.49,0,-1.38,355.23,355.25,0,0.01,3
14879,2.5127e+07,0,-0.49,0,-1.38,355.23,355.25,0,0.01,3
14922,2.5138e+07,0,-0.49,0,-1.38,355.23,355.25,0,0.01,3
14962,2.5148e+07,0,-0.49,0,-1.38,355.23,355.25,0,0.01,3
15003,2.5159e+07,0,-0.49,0,-1.38,355.23,355.25,0,0.01,3
15045,2.5169e+07,0,-0.49,0,-1.38,355.23,355.25,0,0.01,3
15085,2.5179e+07,0,-0.49,0,-1.38,355.24,355.25,0,0.01,3
15126,2.5189e+07,0,-0.49,0,-1.38,355.24,355.25,0,0.01,3
15171,2.5199e+07,0,-0.49,0,-1.38,355.24,355.26,0,0.01,3
15213,2.5209e+07,0,-0.49,0,-1.38,355.24,355.26,0,0.01,3
15253,2.5219e+07,0,-0.49,0,-1.38,355.25,355.26,0,0.01,3
15294,2.5229e+07,0,-0.48,0,-1.38,355.25,355.27,0,0.01,3
15332,2.5239e+07,0,-0.48,0,-1.38,355.25,355.27,0,0.01,3
15372,2.525e+07,0,-0.48,0,-1.38,355.25,355.27,0,0.01,3
15413,2.526e+07,0,-0.48,0,-1.38,355.25,355.27,0,0.01,3
15453,2.527e+07,0,-0.48,0,-1.38,355.25,355.26,0,0.01,3
15500,2.5282e+07,0,-0.48,0,-1.38,355.25,355.26,0,0.01,3
15544,2.5293e+07,0,-0.49,0,-1.38,355.25,355.26,0,0.01,3
15592,2.5303e+07,0,-0.48,0,-1.38,355.24,355.26,0,0.01,3
15633,2.5313e+07,0,-0.48,0,-1.38,355.24,355.26,0,0.01,3
15673,2.5323e+07,0,-0.49,0,-1.38,355.24,355.26,0,0.01,3
15718,2.5335e+07,0,-0.49,0,-1.38,355.24,355.26,0,0.01,3
15758,2.5346e+07,0,-0.48,0,-1.38,355.24,355.26,0,0.01,3
15799,2.5356e+07,0,-0.48,0,-1.39,355.24,355.26,0,0.01,3
15840,2.5366e+07,0,-0.48,0,-1.39,355.24,355.26,0,0.01,3
15880,2.5376e+07,0,-0.48,0,-1.39,355.24,355.26,0,0.01,3
15922,2.5386e+07,0,-0.48,0,-1.38,355.24,355.26,0,0.01,3
15968,2.5397e+07,0,-0.48,0,-1.38,355.24,355.26,0,0.01,3
16008,2.5407e+07,0,-0.48,0,-1.38,355.24,355.26,0,0.01,3
16049,2.5417e+07,0,-0.48,0,-1.38,355.24,355.25,0,0.01,3
16090,2.5427e+07,0,-0.48,0,-1.38,355.24,355.25,0,0.01,3
16131,2.5436e+07,0,-0.48,0,-1.38,355.23,355.25,0,0.01,3
16171,2.5447e+07,0,-0.48,0,-1.38,355.23,355.25,0,0.01,3
16209,2.5457e+07,0,-0.49,0,-1.38,355.23,355.24,0,0.01,3
16249,2.5467e+07,0,-0.49,0,-1.38,355.23,355.24,0,0.01,3
16290,2.5477e+07,0,-0.49,0,-1.38,355.22,355.24,0,0.01,3
16331,2.5487e+07,0,-0.49,0,-1.38,355.22,355.24,0,0.01,3
16378,2.5497e+07,0,-0.49,0,-1.38,355.22,355.24,0,0.01,3
16421,2.5507e+07,0,-0.49,0,-1.38,355.22,355.24,0,0.01,3
16462,2.5517e+07,0,-0.49,0,-1.38,355.22,355.23,0,0.01,3
16503,2.5527e+07,0,-0.48,0,-1.38,355.22,355.23,0,0.01,3
16541,2.554e+07,0,-0.48,0,-1.38,355.22,355.23,0,0.01,3
16582,2.555e+07,0,-0.48,0,-1.38,355.22,355.23,0,0.01,3
16623,2.556e+07,0,-0.48,0,-1.38,355.21,355.23,0,0.01,3
16663,2.557e+07,0,-0.48,0,-1.38,355.21,355.23,0,0.01,3
16704,2.558e+07,0,-0.48,0,-1.38,355.21,355.23,0,0.01,3
16745,2.5591e+07,0,-0.48,0,-1.38,355.21,355.23,0,0.01,3
16790,2.56e+07,0,-0.48,0,-1.38,355.21,355.23,0,0.01,3
16832,2.561e+07,0,-0.48,0,-1.39,355.21,355.23,0,0.01,3
16873,2.562e+07,0,-0.48,0,-1.39,355.21,355.22,0,0.01,3
16916,2.563e+07,0,-0.48,0,-1.39,355.21,355.22,0,0.01,3
16956,2.5643e+07,0,-0.48,0,-1.39,355.21,355.22,0,0.01,3
16997,2.5653e+07,0,-0.49,0,-1.39,355.2,355.22,0,0.01,3
17038,2.5663e+07,0,-0.49,0,-1.39,355.2,355.22,0,0.01,3
17078,2.5674e+07,0,-0.48,0,-1.39,355.2,355.22,0,0.01,3
17121,2.5684e+07,0,-0.48,0,-1.39,355.2,355.22,0,0.01,3
17162,2.5694e+07,0,-0.48,0,-1.39,355.2,355.21,0,0.01,3
17207,2.5704e+07,0,-0.48,0,-1.39,355.2,355.21,0,0.01,3
17248,2.5715e+07,0,-0.48,0,-1.39,355.19,355.21,0,0.01,3
17289,2.5725e+07,0,-0.48,0,-1.39,355.19,355.21,0,0.01,3
17333,2.5738e+07,0,-0.48,0,-1.39,355.19,355.21,0,0.01,3
17374,2.5748e+07,0,-0.48,0,-1.39,355.19,355.21,0,0.01,3
17415,2.5759e+07,0,-0.48,0,-1.39,355.19,355.2,0,0.01,3
17455,2.5769e+07,0,-0.48,0,-1.39,355.19,355.2,0,0.01,3
17496,2.5779e+07,0,-0.48,0,-1.38,355.19,355.2,0,0.01,3
17538,2.5789e+07,0,-0.48,0,-1.38,355.19,355.2,0,0.01,3
17578,2.5799e+07,0,-0.48,0,-1.38,355.19,355.21,0,0.01,3
17623,2.5809e+07,0,-0.48,0,-1.39,355.19,355.21,0,0.01,3
17663,2.5819e+07,0,-0.48,0,-1.38,355.19,355.21,0,0.01,3
17705,2.583e+07,0,-0.48,0,-1.39,355.19,355.21,0,0.01,3
17748,2.5842e+07,0,-0.48,0,-1.39,355.19,355.21,0,0.01,3
17787,2.5853e+07,0,-0.48,0,-1.39,355.2,355.21,0,0.01,3
17828,2.5863e+07,0,-0.48,0,-1.39,355.2,355.21,0,0.01,3
17868,2.5873e+07,0,-0.48,0,-1.39,355.2,355.21,0,0.01,3
17909,2.5883e+07,0,-0.48,0,-1.39,355.19,355.21,0,0.01,3
17951,2.5894e+07,0,-0.48,0,-1.38,355.19,355.21,0,0.01,3
17997,2.5903e+07,0,-0.48,0,-1.38,355.19,355.21,0,0.01,3
18037,2.5914e+07,0,-0.48,0,-1.38,355.19,355.21,0,0.01,3
18077,2.5923e+07,0,-0.48,0,-1.38,355.19,355.21,0,0.01,3
18120,2.5933e+07,0,-0.48,0,-1.38,355.19,355.21,0,0.01,3
18163,2.5946e+07,0,-0.48,0,-1.38,355.19,355.21,0,0.01,3
18201,2.5957e+07,0,-0.48,0,-1.38,355.19,355.21,0,0.01,3
18242,2.5967e+07,0,-0.48,0,-1.38,355.19,355.21,0,0.01,3
18282,2.5977e+07,0,-0.48,0,-1.38,355.19,355.21,0,0.01,3
18324,2.5987e+07,0,-0.48,0,-1.38,355.19,355.21,0,0.01,3
18365,2.5997e+07,0,-0.48,0,-1.38,355.19,355.21,0,0.01,3
18410,2.6007e+07,0,-0.48,0,-1.38,355.19,355.21,0,0.01,3
18450,2.6017e+07,0,-0.48,0,-1.38,355.19,355.21,0,0.01,3
18491,2.6028e+07,0,-0.48,0,-1.38,355.19,355.21,0,0.01,3
18532,2.6038e+07,0,-0.48,0,-1.38,355.19,355.21,0,0.01,3
18574,2.6047e+07,0,-0.48,0,-1.38,355.19,355.21,0,0.01,3
18612,2.6058e+07,0,-0.48,0,-1.38,355.19,355.21,0,0.01,3
18653,2.6068e+07,0,-0.48,0,-1.39,355.19,355.2,0,0.01,3
18694,2.6079e+07,0,-0.48,0,-1.39,355.19,355.21,0,0.01,3
18735,2.6089e+07,0,-0.48,0,-1.39,355.19,355.21,0,0.01,3
18778,2.6099e+07,0,-0.48,0,-1.39,355.19,355.21,0,0.01,3
18823,2.6109e+07,0,-0.48,0,-1.39,355.19,355.21,0,0.01,3
18864,2.6119e+07,0,-0.48,0,-1.39,355.19,355.21,0,0.01,3
18907,2.613e+07,0,-0.48,0,-1.38,355.19,355.21,0,0.01,3
18948,2.614e+07,0,-0.48,0,-1.38,355.2,355.21,0,0.01,3
18988,2.615e+07,0,-0.48,0,-1.38,355.2,355.21,0,0.01,3
19023,2.616e+07,0,-0.48,0,-1.39,355.2,355.21,0,0.01,3
19064,2.617e+07,0,-0.48,0,-1.39,355.2,355.22,0,0.01,3
19105,2.6181e+07,0,-0.48,0,-1.39,355.2,355.22,0,0.01,3
19147,2.6191e+07,0,-0.48,0,-1.39,355.2,355.22,0,0.01,3
19187,2.6201e+07,0,-0.48,0,-1.39,355.2,355.22,0,0.01,3
19232,2.6211e+07,0,-0.47,0,-1.39,355.2,355.22,0,0.01,3
19272,2.6221e+07,0,-0.47,0,-1.39,355.2,355.22,0,0.01,3
19313,2.6231e+07,0,-0.47,0,-1.39,355.2,355.22,0,0.01,3
19354,2.6241e+07,0,-0.48,0,-1.39,355.2,355.22,0,0.01,3
19396,2.6257e+07,0,-0.48,0,-1.39,355.2,355.22,0,0.01,3
19437,2.6267e+07,0,-0.48,0,-1.39,355.2,355.22,0,0.01,3
19477,2.6277e+07,0,-0.48,0,-1.39,355.2,355.22,0,0.01,3
19519,2.6288e+07,0,-0.48,0,-1.39,355.2,355.22,0,0.01,3
19560,2.6298e+07,0,-0.48,0,-1.39,355.2,355.22,0,0.01,3
19604,2.6308e+07,0,-0.48,0,-1.39,355.2,355.22,0,0.01,3
19648,2.6317e+07,0,-0.48,0,-1.39,355.2,355.22,0,0.01,3
19690,2.6328e+07,0,-0.48,0,-1.39,355.2,355.22,0,0.01,3
19730,2.6338e+07,0,-0.48,0,-1.39,355.2,355.22,0,0.01,3
19778,2.6353e+07,0,-0.48,0,-1.39,355.2,355.22,0,0.01,3
19821,2.6363e+07,0,-0.47,0,-1.39,355.2,355.22,0,0.01,3
19861,2.6374e+07,0,-0.48,0,-1.39,355.2,355.21,0,0.01,3
19902,2.6384e+07,0,-0.47,0,-1.39,355.2,355.21,0,0.01,3
19943,2.6394e+07,0,-0.47,0,-1.39,355.2,355.21,0,0.01,3
19983,2.6404e+07,0,-0.48,0,-1.39,355.19,355.21,0,0.01,3
20028,2.6414e+07,0,-0.48,0,-1.39,355.19,355.21,0,0.01,3
20068,2.6424e+07,0,-0.48,0,-1.39,355.19,355.21,0,0.01,3
20110,2.6434e+07,0,-0.48,0,-1.39,355.19,355.2,0,0.01,3
20153,2.6447e+07,0,-0.48,0,-1.39,355.19,355.2,0,0.01,3
20191,2.6458e+07,0,-0.48,0,-1.38,355.19,355.2,0,0.01,3
20232,2.6468e+07,0,-0.48,0,-1.38,355.19,355.2,0,0.01,3
20273,2.6478e+07,0,-0.48,0,-1.38,355.18,355.2,0,0.01,3
20315,2.6488e+07,0,-0.48,0,-1.39,355.18,355.19,0,0.01,3
20355,2.6498e+07,0,-0.48,0,-1.38,355.18,355.19,0,0.01,3
20398,2.6509e+07,0,-0.48,0,-1.38,355.17,355.19,0,0.01,3
20445,2.6519e+07,0,-0.48,0,-1.38,355.17,355.18,0,0.01,3
20486,2.6529e+07,0,-0.48,0,-1.39,355.16,355.18,0,0.01,3
20527,2.6539e+07,0,-0.48,0,-1.39,355.16,355.18,0,0.01,3
20567,2.6549e+07,0,-0.47,0,-1.39,355.16,355.18,0,0.01,3
20605,2.6559e+07,0,-0.48,0,-1.39,355.16,355.17,0,0.01,3
20645,2.6569e+07,0,-0.48,0,-1.39,355.16,355.17,0,0.01,3
20687,2.658e+07,0,-0.48,0,-1.39,355.16,355.17,0,0.01,3
20728,2.659e+07,0,-0.48,0,-1.39,355.16,355.17,0,0.01,3
20768,2.66e+07,0,-0.48,0,-1.39,355.16,355.17,0,0.01,3
20810,2.661e+07,0,-0.48,0,-1.39,355.16,355.17,0,0.01,3
20856,2.662e+07,0,-0.48,0,-1.38,355.16,355.17,0,0.01,3
20897,2.663e+07,0,-0.48,0,-1.38,355.16,355.17,0,0.01,3
20938,2.664e+07,0,-0.48,0,-1.39,355.16,355.17,0,0.01,3
20979,2.665e+07,0,-0.48,0,-1.39,355.16,355.18,0,0.01,3
21023,2.6663e+07,0,-0.48,0,-1.39,355.16,355.18,0,0.01,3
21063,2.6673e+07,0,-0.47,0,-1.39,355.16,355.17,0,0.01,3
21104,2.6683e+07,0,-0.47,0,-1.39,355.16,355.17,0,0.01,3
21147,2.6694e+07,0,-0.47,0,-1.39,355.16,355.17,0,0.01,3
21188,2.6704e+07,0,-0.47,0,-1.39,355.16,355.17,0,0.01,3
21230,2.6714e+07,0,-0.47,0,-1.38,355.16,355.17,0,0.01,3
21274,2.6724e+07,0,-0.47,0,-1.38,355.16,355.17,0,0.01,3
21315,2.6734e+07,0,-0.47,0,-1.38,355.16,355.17,0,0.01,3
21355,2.6744e+07,0,-0.47,0,-1.38,355.16,355.17,0,0.01,3
21396,2.6757e+07,0,-0.48,0,-1.38,355.16,355.17,0,0.01,3
21437,2.6767e+07,0,-0.48,0,-1.39,355.16,355.17,0,0.01,3
21475,2.6778e+07,0,-0.48,0,-1.39,355.16,355.17,0,0.01,3
21516,2.6788e+07,0,-0.48,0,-1.39,355.16,355.17,0,0.01,3
21556,2.6798e+07,0,-0.48,0,-1.39,355.16,355.18,0,0.01,3
21597,2.6808e+07,0,-0.48,0,-1.39,355.16,355.18,0,0.01,3
21642,2.6818e+07,0,-0.48,0,-1.39,355.16,355.18,0,0.01,3
21683,2.6828e+07,0,-0.48,0,-1.39,355.16,355.18,0,0.01,3
21725,2.6838e+07,0,-0.48,0,-1.39,355.17,355.18,0,0.01,3
21765,2.6848e+07,0,-0.48,0,-1.39,355.17,355.18,0,0.01,3
21806,2.6859e+07,0,-0.47,0,-1.39,355.17,355.19,0,0.01,3
21844,2.6869e+07,0,-0.47,0,-1.39,355.17,355.19,0,0.01,3
21884,2.6879e+07,0,-0.48,0,-1.39,355.17,355.19,0,0.01,3
21928,2.689e+07,0,-0.47,0,-1.39,355.17,355.19,0,0.01,3
21968,2.69e+07,0,-0.47,0,-1.39,355.17,355.19,0,0.01,3
22010,2.691e+07,0,-0.47,0,-1.38,355.17,355.19,0,0.01,3
22058,2.6923e+07,0,-0.48,0,-1.38,355.17,355.19,0,0.01,3
22099,2.6933e+07,0,-0.48,0,-1.39,355.17,355.19,0,0.01,3
22140,2.6943e+07,0,-0.48,0,-1.38,355.17,355.19,0,0.01,3
22181,2.6954e+07,0,-0.48,0,-1.38,355.17,355.18,0,0.01,3
22219,2.6966e+07,0,-0.48,0,-1.38,355.17,355.18,0,0.01,3
22259,2.6977e+07,0,-0.48,0,-1.38,355.17,355.18,0,0.01,3
22300,2.6987e+07,0,-0.48,0,-1.39,355.17,355.18,0,0.01,3
22341,2.6997e+07,0,-0.48,0,-1.39,355.17,355.18,0,0.01,3
22381,2.7007e+07,0,-0.47,0,-1.38,355.17,355.18,0,0.01,3
22423,2.7017e+07,0,-0.47,0,-1.38,355.17,355.18,0,0.01,3
22468,2.7027e+07,0,-0.47,0,-1.39,355.17,355.18,0,0.01,3
22509,2.7038e+07,0,-0.47,0,-1.39,355.17,355.18,0,0.01,3
22549,2.7048e+07,0,-0.47,0,-1.39,355.17,355.18,0,0.01,3
22590,2.7058e+07,0,-0.47,0,-1.39,355.17,355.18,0,0.01,3
22627,2.7068e+07,0,-0.47,0,-1.39,355.16,355.18,0,0.01,3
22669,2.7078e+07,0,-0.47,0,-1.39,355.16,355.18,0,0.01,3
22710,2.7088e+07,0,-0.47,0,-1.39,355.16,355.18,0,0.01,3
22752,2.7099e+07,0,-0.47,0,-1.39,355.16,355.17,0,0.01,3
22793,2.7109e+07,0,-0.47,0,-1.38,355.16,355.17,0,0.01,3
22836,2.7119e+07,0,-0.47,0,-1.38,355.16,355.17,0,0.01,3
22882,2.7129e+07,0,-0.47,0,-1.38,355.15,355.17,0,0.01,3
22922,2.7139e+07,0,-0.47,0,-1.38,355.15,355.17,0,0.01,3
22964,2.715e+07,0,-0.47,0,-1.38,355.15,355.17,0,0.01,3
23005,2.716e+07,0,-0.47,0,-1.38,355.15,355.17,0,0.01,3
23042,2.717e+07,0,-0.47,0,-1.38,355.15,355.17,0,0.01,3
23083,2.718e+07,0,-0.47,0,-1.38,355.15,355.17,0,0.01,3
23123,2.719e+07,0,-0.47,0,-1.38,355.15,355.16,0,0.01,3
23164,2.72e+07,0,-0.47,0,-1.38,355.15,355.16,0,0.01,3
23204,2.721e+07,0,-0.47,0,-1.38,355.15,355.16,0,0.01,3
23246,2.722e+07,0,-0.47,0,-1.38,355.14,355.16,0,0.01,3
23291,2.723e+07,0,-0.47,0,-1.38,355.14,355.16,0,0.01,3
23331,2.7241e+07,0,-0.46,0,-1.38,355.14,355.16,0,0.01,3
23373,2.7251e+07,0,-0.47,0,-1.38,355.14,355.15,0,0.01,3
23416,2.7263e+07,0,-0.47,0,-1.38,355.14,355.15,0,0.01,3
23462,2.7276e+07,0,-0.47,0,-1.38,355.14,355.15,0,0.01,3
23502,2.7286e+07,0,-0.47,0,-1.38,355.13,355.15,0,0.01,3
23546,2.7297e+07,0,-0.47,0,-1.38,355.13,355.15,0,0.01,3
23586,2.7306e+07,0,-0.47,0,-1.38,355.13,355.15,0,0.01,3
23627,2.7316e+07,0,-0.47,0,-1.38,355.13,355.14,0,0.01,3
23672,2.7326e+07,0,-0.47,0,-1.39,355.13,355.14,0,0.01,3
23714,2.7336e+07,0,-0.47,0,-1.39,355.13,355.14,0,0.01,3
23755,2.7346e+07,0,-0.47,0,-1.39,355.12,355.14,0,0.01,3
23795,2.7356e+07,0,-0.47,0,-1.39,355.12,355.14,0,0.01,3
23832,2.7366e+07,0,-0.47,0,-1.39,355.12,355.14,0,0.01,3
23874,2.7377e+07,0,-0.46,0,-1.39,355.12,355.14,0,0.01,3
23914,2.7387e+07,0,-0.47,0,-1.39,355.12,355.14,0,0.01,3
23955,2.7397e+07,0,-0.47,0,-1.39,355.12,355.13,0,0.01,3
23997,2.7407e+07,0,-0.47,0,-1.39,355.12,355.13,0,0.01,3
24037,2.7417e+07,0,-0.47,0,-1.39,355.12,355.13,0,0.01,3
24082,2.7427e+07,0,-0.47,0,-1.39,355.12,355.13,0,0.01,3
24122,2.7437e+07,0,-0.47,0,-1.39,355.12,355.13,0,0.01,3
24165,2.7448e+07,0,-0.47,0,-1.39,355.12,355.13,0,0.01,3
24208,2.7461e+07,0,-0.47,0,-1.39,355.12,355.13,0,0.01,3
24249,2.7471e+07,0,-0.47,0,-1.39,355.12,355.13,0,0.01,3
24292,2.7482e+07,0,-0.47,0,-1.39,355.12,355.13,0,0.01,3
24332,2.7493e+07,0,-0.47,0,-1.39,355.12,355.13,0,0.01,3
24373,2.7503e+07,0,-0.47,0,-1.39,355.11,355.13,0,0.01,3
24414,2.7513e+07,0,-0.47,0,-1.39,355.11,355.13,0,0.01,3
24455,2.7523e+07,0,-0.47,0,-1.39,355.11,355.13,0,0.01,3
24502,2.7533e+07,0,-0.47,0,-1.39,355.11,355.13,0,0.01,3
24542,2.7544e+07,0,-0.47,0,-1.39,355.11,355.12,0,0.01,3
24583,2.7554e+07,0,-0.47,0,-1.39,355.11,355.12,0,0.01,3
24624,2.7564e+07,0,-0.47,0,-1.39,355.1,355.12,0,0.01,3
24663,2.7574e+07,0,-0.47,0,-1.39,355.1,355.12,0,0.01,3
24701,2.7584e+07,0,-0.47,0,-1.39,355.1,355.12,0,0.01,3
24741,2.7594e+07,0,-0.47,0,-1.39,355.1,355.11,0,0.01,3
24782,2.7604e+07,0,-0.47,0,-1.39,355.1,355.11,0,0.01,3
24824,2.7614e+07,0,-0.47,0,-1.39,355.09,355.11,0,0.01,3
24865,2.7625e+07,0,-0.47,0,-1.39,355.09,355.11,0,0.01,3
24910,2.7635e+07,0,-0.47,0,-1.39,355.09,355.1,0,0.01,3
24951,2.7645e+07,0,-0.47,0,-1.39,355.09,355.1,0,0.01,3
24992,2.7654e+07,0,-0.47,0,-1.39,355.09,355.1,0,0.01,3
25033,2.7665e+07,0,-0.47,0,-1.38,355.08,355.1,0,0.01,3
25074,2.7674e+07,0,-0.47,0,-1.38,355.08,355.1,0,0.01,3
25116,2.7688e+07,0,-0.47,0,-1.39,355.08,355.1,0,0.01,3
25156,2.7698e+07,0,-0.47,0,-1.39,355.08,355.1,0,0.01,3
25196,2.7708e+07,0,-0.47,0,-1.39,355.08,355.09,0,0.01,3
25237,2.7718e+07,0,-0.47,0,-1.39,355.07,355.09,0,0.01,3
25279,2.7728e+07,0,-0.47,0,-1.38,355.07,355.09,0,0.01,3
25323,2.7738e+07,0,-0.47,0,-1.39,355.07,355.08,0,0.01,3
25364,2.7749e+07,0,-0.47,0,-1.38,355.07,355.08,0,0.01,3
25404,2.7759e+07,0,-0.47,0,-1.38,355.06,355.08,0,0.01,3
25446,2.7774e+07,0,-0.47,0,-1.39,355.06,355.08,0,0.01,3
25487,2.7784e+07,0,-0.47,0,-1.39,355.06,355.07,0,0.01,3
25527,2.7795e+07,0,-0.47,0,-1.39,355.06,355.07,0,0.01,3
25569,2.7805e+07,0,-0.47,0,-1.39,355.05,355.07,0,0.01,3
25609,2.7815e+07,0,-0.47,0,-1.39,355.05,355.07,0,0.01,3
25650,2.7825e+07,0,-0.47,0,-1.39,355.05,355.06,0,0.01,3
25695,2.7835e+07,0,-0.47,0,-1.39,355.05,355.06,0,0.01,3
25736,2.7845e+07,0,-0.47,0,-1.39,355.04,355.06,0,0.01,3
25777,2.7855e+07,0,-0.47,0,-1.38,355.04,355.06,0,0.01,3
25818,2.7866e+07,0,-0.47,0,-1.38,355.04,355.05,0,0.01,3
25861,2.7881e+07,0,-0.47,0,-1.38,355.04,355.05,0,0.01,3
25903,2.7892e+07,0,-0.47,0,-1.38,355.03,355.05,0,0.01,3
25944,2.7902e+07,0,-0.47,0,-1.38,355.03,355.05,0,0.01,3
25985,2.7912e+07,0,-0.47,0,-1.39,355.03,355.05,0,0.01,3
26025,2.7922e+07,0,-0.47,0,-1.39,355.03,355.05,0,0.01,3
26066,2.7932e+07,0,-0.47,0,-1.39,355.03,355.05,0,0.01,3
26111,2.7942e+07,0,-0.47,0,-1.39,355.03,355.05,0,0.01,3
26151,2.7952e+07,0,-0.47,0,-1.38,355.03,355.05,0,0.01,3
26193,2.7963e+07,0,-0.47,0,-1.38,355.03,355.05,0,0.01,3
26233,2.7973e+07,0,-0.47,0,-1.38,355.03,355.05,0,0.01,3
26268,2.7983e+07,0,-0.47,0,-1.38,355.03,355.05,0,0.01,3
26310,2.7994e+07,0,-0.47,0,-1.38,355.04,355.05,0,0.01,3
26350,2.8004e+07,0,-0.47,0,-1.38,355.03,355.05,0,0.01,3
26392,2.8014e+07,0,-0.47,0,-1.38,355.03,355.05,0,0.01,3
26433,2.8024e+07,0,-0.47,0,-1.38,355.04,355.05,0,0.01,3
26473,2.8034e+07,0,-0.47,0,-1.38,355.04,355.05,0,0.01,3
26518,2.8044e+07,0,-0.47,0,-1.38,355.04,355.05,0,0.01,3
26558,2.8054e+07,0,-0.47,0,-1.38,355.04,355.05,0,0.01,3
26600,2.8064e+07,0,-0.47,0,-1.38,355.04,355.05,0,0.01,3
26640,2.8074e+07,0,-0.47,0,-1.38,355.04,355.06,0,0.01,3
26682,2.8084e+07,0,-0.47,0,-1.38,355.04,355.06,0,0.01,3
26722,2.8095e+07,0,-0.46,0,-1.38,355.04,355.06,0,0.01,3
26764,2.8105e+07,0,-0.47,0,-1.38,355.04,355.06,0,0.01,3
26805,2.8115e+07,0,-0.46,0,-1.38,355.04,355.06,0,0.01,3
26845,2.8125e+07,0,-0.46,0,-1.38,355.04,355.06,0,0.01,3
26886,2.8136e+07,0,-0.46,0,-1.38,355.04,355.06,0,0.01,3
26930,2.8146e+07,0,-0.46,0,-1.38,355.05,355.06,0,0.01,3
26972,2.8155e+07,0,-0.46,0,-1.38,355.05,355.06,0,0.01,3
27012,2.8166e+07,0,-0.46,0,-1.38,355.05,355.07,0,0.01,3
27057,2.8178e+07,0,-0.46,0,-1.38,355.05,355.07,0,0.01,3
27096,2.8189e+07,0,-0.47,0,-1.38,355.05,355.07,0,0.01,3
27136,2.8199e+07,0,-0.47,0,-1.38,355.05,355.07,0,0.01,3
27178,2.8209e+07,0,-0.47,0,-1.38,355.05,355.07,0,0.01,3
27219,2.8219e+07,0,-0.47,0,-1.38,355.05,355.07,0,0.01,3
27259,2.823e+07,0,-0.47,0,-1.38,355.05,355.07,0,0.01,3
27300,2.824e+07,0,-0.47,0,-1.38,355.05,355.06,0,0.01,3
27345,2.825e+07,0,-0.47,0,-1.38,355.05,355.06,0,0.01,3
27386,2.826e+07,0,-0.46,0,-1.38,355.05,355.06,0,0.01,3
27426,2.827e+07,0,-0.47,0,-1.38,355.05,355.06,0,0.01,3
27470,2.8283e+07,0,-0.46,0,-1.38,355.05,355.06,0,0.01,3
27510,2.8293e+07,0,-0.46,0,-1.38,355.05,355.06,0,0.01,3
27553,2.8304e+07,0,-0.47,0,-1.38,355.05,355.06,0,0.01,3
27594,2.8314e+07,0,-0.47,0,-1.38,355.05,355.06,0,0.01,3
27634,2.8324e+07,0,-0.47,0,-1.38,355.05,355.06,0,0.01,3
27676,2.8334e+07,0,-0.47,0,-1.38,355.05,355.06,0,0.01,3
27720,2.8345e+07,0,-0.47,0,-1.38,355.05,355.06,0,0.01,3
27762,2.8355e+07,0,-0.47,0,-1.38,355.05,355.06,0,0.01,3
27803,2.8365e+07,0,-0.47,0,-1.38,355.05,355.06,0,0.01,3
27843,2.8375e+07,0,-0.47,0,-1.38,355.05,355.06,0,0.01,3
27883,2.8386e+07,0,-0.47,0,-1.38,355.04,355.06,0,0.01,3
27924,2.8396e+07,0,-0.47,0,-1.38,355.04,355.06,0,0.01,3
27964,2.8405e+07,0,-0.47,0,-1.38,355.04,355.06,0,0.01,3
28004,2.8416e+07,0,-0.47,0,-1.38,355.04,355.05,0,0.01,3
28045,2.8426e+07,0,-0.47,0,-1.38,355.04,355.05,0,0.01,3
28086,2.8436e+07,0,-0.47,0,-1.37,355.04,355.05,0,0.01,3
28130,2.8446e+07,0,-0.47,0,-1.37,355.04,355.05,0,0.01,3
28171,2.8456e+07,0,-0.47,0,-1.37,355.03,355.05,0,0.01,3
28212,2.8466e+07,0,-0.47,0,-1.37,355.03,355.05,0,0.01,3
28253,2.8476e+07,0,-0.47,0,-1.37,355.03,355.05,0,0.01,3
28293,2.8486e+07,0,-0.47,0,-1.37,355.03,355.05,0,0.01,3
28331,2.8496e+07,0,-0.47,0,-1.37,355.03,355.05,0,0.01,3
28374,2.8506e+07,0,-0.47,0,-1.37,355.03,355.05,0,0.01,3
28414,2.8516e+07,0,-0.47,0,-1.38,355.03,355.04,0,0.01,3
28455,2.8527e+07,0,-0.47,0,-1.38,355.03,355.04,0,0.01,3
28497,2.8537e+07,0,-0.47,0,-1.38,355.03,355.04,0,0.01,3
28544,2.8547e+07,0,-0.47,0,-1.38,355.02,355.04,0,0.01,3
28584,2.8558e+07,0,-0.46,0,-1.4,355.02,355.04,0,0.01,3
28625,2.8568e+07,0,-0.44,0,-1.41,355.03,355.04,0,0.01,3
28666,2.8578e+07,0,-0.45,0,-1.47,355.01,355.03,0,0.01,3
28707,2.8588e+07,0,-0.42,0,-1.53,355,355.02,0,0.01,3
28746,2.8598e+07,0,-0.43,0,-1.64,354.98,354.99,0,0.01,3
28784,2.8609e+07,0,-0.45,0,-1.73,354.95,354.96,0,0.01,3
28825,2.8619e+07,0,-0.49,0,-1.81,354.92,354.93,0,0.01,3
28866,2.863e+07,0,-0.52,0,-1.85,354.89,354.9,0,0.01,3
28908,2.864e+07,0,-0.55,0,-1.87,354.86,354.88,0,0.01,3
28953,2.865e+07,0,-0.58,0,-1.85,354.84,354.86,0,0.01,3
28993,2.866e+07,0,-0.6,0,-1.82,354.84,354.85,0,0.02,3
29034,2.867e+07,0,-0.61,0,-1.77,354.84,354.85,0,0.02,3
29074,2.868e+07,0,-0.62,0,-1.74,354.85,354.87,0,0.02,3
29118,2.869e+07,0,-0.62,0,-1.72,354.86,354.88,0,0.02,3
29155,2.87e+07,0,-0.62,0,-1.72,354.89,354.91,0,0.02,3
29196,2.8711e+07,0,-0.6,0,-1.74,354.92,354.94,0,0.02,3
29237,2.8721e+07,0,-0.59,0,-1.75,354.95,354.97,0,0.02,3
29277,2.8731e+07,0,-0.57,0,-1.75,354.98,354.99,0,0.02,3
29319,2.8741e+07,0,-0.55,0,-1.75,355,355.01,0,0.02,3
29363,2.8752e+07,0,-0.52,0,-1.73,355.01,355.03,0,0.02,3
29405,2.8762e+07,0,-0.47,0,-1.71,355.01,355.03,0,0.03,3
29445,2.8772e+07,0,-0.43,0,-1.69,355.01,355.02,0,0.03,3
29486,2.8782e+07,0,-0.39,0,-1.67,354.99,355.01,0,0.03,3
29527,2.8792e+07,0,-0.35,0,-1.66,354.97,354.98,0,0.03,3
29561,2.8803e+07,0,-0.32,0,-1.64,354.95,354.96,0,0.03,3
29602,2.8813e+07,0,-0.3,0,-1.63,354.93,354.94,0,0.03,3
29643,2.8824e+07,0,-0.29,0,-1.63,354.92,354.93,0,0.03,3
29684,2.8834e+07,0,-0.29,0,-1.62,354.91,354.92,0,0.03,3
29725,2.8844e+07,0,-0.31,0,-1.61,354.92,354.93,0,0.03,3
29769,2.8854e+07,0,-0.33,0,-1.6,354.93,354.95,0,0.03,3
29810,2.8864e+07,0,-0.35,0,-1.59,354.96,354.97,0,0.04,3
29851,2.8874e+07,0,-0.37,0,-1.57,354.99,355.01,0,0.04,3
29892,2.8885e+07,0,-0.39,0,-1.56,355.03,355.05,0,0.04,3
29934,2.8894e+07,0,-0.4,0,-1.56,355.08,355.09,0,0.04,3
29974,2.8905e+07,0,-0.4,0,-1.56,355.12,355.13,0,0.04,3
30015,2.8916e+07,0,-0.39,0,-1.58,355.15,355.17,0,0.04,3
30056,2.8926e+07,0,-0.38,0,-1.6,355.17,355.19,0,0.04,3
30097,2.8935e+07,0,-0.36,0,-1.62,355.18,355.19,0,0.04,3
30139,2.8945e+07,0,-0.35,0,-1.64,355.18,355.19,0,0.04,3
30183,2.8956e+07,0,-0.34,0,-1.66,355.16,355.17,0,0.04,3
30224,2.8966e+07,0,-0.33,0,-1.67,355.13,355.14,0,0.03,3
30265,2.8976e+07,0,-0.34,0,-1.67,355.1,355.11,0,0.03,3
30306,2.8986e+07,0,-0.34,0,-1.67,355.07,355.08,0,0.03,3
30348,2.8996e+07,0,-0.35,0,-1.66,355.04,355.06,0,0.03,3
30389,2.9006e+07,0,-0.36,0,-1.66,355.03,355.04,0,0.03,3
30426,2.9016e+07,0,-0.37,0,-1.65,355.03,355.04,0,0.03,3
30467,2.9027e+07,0,-0.37,0,-1.65,355.04,355.05,0,0.03,3
30508,2.9037e+07,0,-0.37,0,-1.65,355.06,355.08,0,0.03,3
30550,2.9047e+07,0,-0.37,0,-1.64,355.1,355.11,0,0.03,3
30594,2.9057e+07,0,-0.36,0,-1.63,355.13,355.15,0,0.03,3
30635,2.9067e+07,0,-0.36,0,-1.62,355.17,355.19,0,0.03,3
30675,2.9077e+07,0,-0.35,0,-1.62,355.2,355.22,0,0.03,3
30716,2.9087e+07,0,-0.35,0,-1.61,355.23,355.24,0,0.03,3
30759,2.91e+07,0,-0.34,0,-1.6,355.24,355.26,0,0.03,3
30799,2.911e+07,0,-0.33,0,-1.6,355.24,355.26,0,0.03,3
30840,2.912e+07,0,-0.32,0,-1.61,355.23,355.25,0,0.03,3
30880,2.913e+07,0,-0.32,0,-1.61,355.22,355.23,0,0.03,3
30923,2.914e+07,0,-0.31,0,-1.62,355.2,355.21,0,0.03,3
30964,2.915e+07,0,-0.3,0,-1.62,355.18,355.19,0,0.03,3
31008,2.916e+07,0,-0.3,0,-1.63,355.16,355.18,0,0.03,3
31049,2.917e+07,0,-0.3,0,-1.63,355.15,355.16,0,0.03,3
31090,2.9181e+07,0,-0.3,0,-1.63,355.14,355.16,0,0.03,3
31131,2.919e+07,0,-0.3,0,-1.63,355.15,355.16,0,0.03,3
31168,2.92e+07,0,-0.31,0,-1.64,355.15,355.17,0,0.03,3
31210,2.9211e+07,0,-0.32,0,-1.64,355.16,355.18,0,0.03,3
31251,2.9221e+07,0,-0.33,0,-1.65,355.18,355.19,0,0.03,3
31292,2.9231e+07,0,-0.33,0,-1.65,355.19,355.21,0,0.03,3
31333,2.9241e+07,0,-0.33,0,-1.65,355.2,355.22,0,0.03,3
31374,2.9251e+07,0,-0.33,0,-1.65,355.21,355.23,0,0.03,3
31419,2.9261e+07,0,-0.33,0,-1.65,355.21,355.23,0,0.03,3
31459,2.9271e+07,0,-0.33,0,-1.64,355.21,355.23,0,0.03,3
31500,2.9281e+07,0,-0.33,0,-1.64,355.21,355.22,0,0.03,3
31541,2.9292e+07,0,-0.33,0,-1.63,355.2,355.21,0,0.03,3
31585,2.9305e+07,0,-0.33,0,-1.63,355.18,355.19,0,0.03,3
31626,2.9315e+07,0,-0.33,0,-1.63,355.16,355.17,0,0.03,3
31663,2.9326e+07,0,-0.33,0,-1.63,355.15,355.16,0,0.03,3
31705,2.9336e+07,0,-0.33,0,-1.63,355.14,355.16,0,0.03,3
31747,2.9346e+07,0,-0.33,0,-1.63,355.14,355.15,0,0.03,3
31787,2.9356e+07,0,-0.33,0,-1.63,355.14,355.15,0,0.03,3
31832,2.9366e+07,0,-0.33,0,-1.63,355.14,355.16,0,0.03,3
31873,2.9376e+07,0,-0.32,0,-1.63,355.15,355.16,0,0.03,3
31914,2.9386e+07,0,-0.33,0,-1.63,355.15,355.16,0,0.03,3
31955,2.9396e+07,0,-0.33,0,-1.62,355.15,355.17,0,0.03,3
31992,2.9406e+07,0,-0.34,0,-1.62,355.15,355.17,0,0.03,3
32033,2.9416e+07,0,-0.34,0,-1.62,355.14,355.16,0,0.03,3
32071,2.9426e+07,0,-0.35,0,-1.62,355.13,355.15,0,0.03,3
32112,2.9436e+07,0,-0.35,0,-1.62,355.12,355.14,0,0.03,3
32153,2.9446e+07,0,-0.36,0,-1.62,355.11,355.12,0,0.03,3
32193,2.9456e+07,0,-0.36,0,-1.62,355.1,355.11,0,0.03,3
32239,2.9466e+07,0,-0.35,0,-1.62,355.09,355.1,0,0.03,3
32279,2.9477e+07,0,-0.35,0,-1.63,355.08,355.09,0,0.03,3
32322,2.9487e+07,0,-0.33,0,-1.63,355.08,355.09,0,0.03,3
32363,2.9497e+07,0,-0.32,0,-1.63,355.08,355.09,0,0.03,3
32397,2.9507e+07,0,-0.3,0,-1.64,355.08,355.1,0,0.03,3
32438,2.9517e+07,0,-0.29,0,-1.64,355.09,355.1,0,0.03,3
32479,2.9527e+07,0,-0.28,0,-1.64,355.09,355.11,0,0.03,3
32519,2.9537e+07,0,-0.28,0,-1.65,355.09,355.11,0,0.03,3
32561,2.9548e+07,0,-0.29,0,-1.65,355.09,355.11,0,0.03,3
32601,2.9558e+07,0,-0.3,0,-1.65,355.09,355.1,0,0.03,3
32649,2.9568e+07,0,-0.32,0,-1.66,355.08,355.09,0,0.02,3
32690,2.9578e+07,0,-0.34,0,-1.66,355.07,355.08,0,0.02,3
32733,2.9588e+07,0,-0.36,0,-1.66,355.05,355.07,0,0.02,3
32774,2.96e+07,0,-0.38,0,-1.66,355.04,355.05,0,0.02,3
32814,2.9611e+07,0,-0.38,0,-1.67,355.03,355.04,0,0.02,3
32852,2.9622e+07,0,-0.38,0,-1.67,355.02,355.03,0,0.02,3
32893,2.9632e+07,0,-0.37,0,-1.67,355.02,355.03,0,0.02,3
32934,2.9642e+07,0,-0.36,0,-1.68,355.01,355.03,0,0.02,3
32974,2.9652e+07,0,-0.35,0,-1.68,355.02,355.03,0,0.02,3
33014,2.9663e+07,0,-0.33,0,-1.68,355.02,355.04,0,0.02,3
33059,2.9673e+07,0,-0.32,0,-1.68,355.03,355.04,0,0.02,3
33099,2.9683e+07,0,-0.32,0,-1.68,355.04,355.05,0,0.02,3
33141,2.9693e+07,0,-0.32,0,-1.68,355.04,355.05,0,0.02,3
33181,2.9703e+07,0,-0.32,0,-1.67,355.04,355.06,0,0.02,3
33219,2.9713e+07,0,-0.33,0,-1.67,355.04,355.05,0,0.02,3
33259,2.9723e+07,0,-0.34,0,-1.67,355.03,355.05,0,0.02,3
33299,2.9733e+07,0,-0.35,0,-1.66,355.03,355.04,0,0.02,3
33339,2.9743e+07,0,-0.35,0,-1.66,355.02,355.04,0,0.02,3
33379,2.9753e+07,0,-0.35,0,-1.65,355.02,355.03,0,0.02,3
33420,2.9763e+07,0,-0.35,0,-1.65,355.01,355.03,0,0.02,3
33464,2.9774e+07,0,-0.35,0,-1.64,355.01,355.02,0,0.03,3
33505,2.9784e+07,0,-0.34,0,-1.63,355.01,355.02,0,0.03,3
33545,2.9794e+07,0,-0.34,0,-1.62,355,355.02,0,0.03,3
33586,2.9804e+07,0,-0.35,0,-1.61,355,355.02,0,0.03,3
33620,2.9814e+07,0,-0.35,0,-1.6,355,355.02,0,0.03,3
33660,2.9824e+07,0,-0.36,0,-1.59,355,355.02,0,0.03,3
33700,2.9835e+07,0,-0.36,0,-1.58,355,355.02,0,0.03,3
33740,2.9844e+07,0,-0.36,0,-1.57,355.01,355.02,0,0.03,3
33780,2.9855e+07,0,-0.36,0,-1.56,355.01,355.03,0,0.03,3
33820,2.9865e+07,0,-0.36,0,-1.55,355.02,355.03,0,0.03,3
33864,2.9874e+07,0,-0.35,0,-1.55,355.02,355.03,0,0.03,3
33906,2.9885e+07,0,-0.35,0,-1.54,355.02,355.03,0,0.03,3
33948,2.9895e+07,0,-0.34,0,-1.54,355.02,355.04,0,0.03,3
33988,2.9905e+07,0,-0.33,0,-1.53,355.02,355.03,0,0.03,3
34026,2.9917e+07,0,-0.32,0,-1.52,355.01,355.02,0,0.03,3
34067,2.9928e+07,0,-0.31,0,-1.52,355,355.02,0,0.03,3
34107,2.9937e+07,0,-0.31,0,-1.51,355,355.01,0,0.03,3
34147,2.9948e+07,0,-0.3,0,-1.51,354.99,355,0,0.03,3
34187,2.9957e+07,0,-0.31,0,-1.5,354.98,354.99,0,0.03,3
34232,2.9968e+07,0,-0.31,0,-1.5,354.98,354.99,0,0.03,3
34273,2.9978e+07,0,-0.31,0,-1.49,354.97,354.99,0,0.03,3
34313,2.9987e+07,0,-0.32,0,-1.49,354.97,354.99,0,0.03,3
34353,2.9998e+07,0,-0.32,0,-1.49,354.97,354.98,0,0.03,3
34393,3.0008e+07,0,-0.32,0,-1.49,354.97,354.98,0,0.03,3
34430,3.0018e+07,0,-0.33,0,-1.48,354.97,354.98,0,0.03,3
34468,3.0028e+07,0,-0.33,0,-1.48,354.96,354.98,0,0.03,3
34508,3.0039e+07,0,-0.33,0,-1.47,354.96,354.97,0,0.03,3
34548,3.0049e+07,0,-0.33,0,-1.47,354.96,354.97,0,0.03,3
34588,3.0059e+07,0,-0.32,0,-1.47,354.95,354.97,0,0.03,3
34632,3.0069e+07,0,-0.32,0,-1.46,354.95,354.96,0,0.03,3
34673,3.0079e+07,0,-0.32,0,-1.46,354.94,354.96,0,0.03,3
34716,3.0089e+07,0,-0.32,0,-1.47,354.94,354.95,0,0.03,3
34758,3.0099e+07,0,-0.31,0,-1.47,354.94,354.95,0,0.03,3
34795,3.011e+07,0,-0.31,0,-1.47,354.93,354.95,0,0.03,3
34832,3.012e+07,0,-0.3,0,-1.48,354.93,354.94,0,0.03,3
34873,3.013e+07,0,-0.3,0,-1.49,354.92,354.93,0,0.03,3
34913,3.014e+07,0,-0.3,0,-1.5,354.91,354.92,0,0.03,3
34953,3.015e+07,0,-0.3,0,-1.51,354.9,354.92,0,0.03,3
34994,3.016e+07,0,-0.3,0,-1.51,354.9,354.91,0,0.03,3
35038,3.0171e+07,0,-0.3,0,-1.51,354.89,354.91,0,0.03,3
35078,3.0181e+07,0,-0.3,0,-1.51,354.89,354.9,0,0.04,3
35119,3.019e+07,0,-0.3,0,-1.51,354.88,354.9,0,0.04,3
35160,3.02e+07,0,-0.29,0,-1.51,354.88,354.89,0,0.04,3
35203,3.0213e+07,0,-0.29,0,-1.52,354.87,354.88,0,0.04,3
35244,3.0223e+07,0,-0.29,0,-1.53,354.86,354.88,0,0.04,3
35284,3.0233e+07,0,-0.29,0,-1.54,354.86,354.87,0,0.04,3
35324,3.0244e+07,0,-0.29,0,-1.55,354.85,354.86,0,0.04,3
35364,3.0254e+07,0,-0.3,0,-1.56,354.84,354.85,0,0.04,3
35405,3.0264e+07,0,-0.3,0,-1.57,354.83,354.84,0,0.04,3
35449,3.0274e+07,0,-0.31,0,-1.57,354.82,354.83,0,0.04,3
35491,3.0284e+07,0,-0.32,0,-1.57,354.81,354.82,0,0.04,3
35533,3.0295e+07,0,-0.32,0,-1.57,354.8,354.82,0,0.04,3
35578,3.0305e+07,0,-0.33,0,-1.57,354.79,354.81,0,0.04,3
35618,3.0315e+07,0,-0.33,0,-1.58,354.79,354.8,0,0.04,3
35655,3.0325e+07,0,-0.33,0,-1.59,354.78,354.79,0,0.04,3
35695,3.0335e+07,0,-0.33,0,-1.6,354.77,354.79,0,0.04,3
35737,3.0345e+07,0,-0.33,0,-1.61,354.76,354.78,0,0.04,3
35777,3.0355e+07,0,-0.33,0,-1.62,354.75,354.77,0,0.04,3
35817,3.0365e+07,0,-0.33,0,-1.62,354.74,354.76,0,0.04,3
35861,3.0375e+07,0,-0.33,0,-1.62,354.74,354.75,0,0.04,3
35902,3.0385e+07,0,-0.34,0,-1.62,354.73,354.74,0,0.04,3
35943,3.0396e+07,0,-0.34,0,-1.62,354.72,354.74,0,0.04,3
35986,3.0408e+07,0,-0.34,0,-1.62,354.71,354.73,0,0.04,3
36026,3.0419e+07,0,-0.34,0,-1.62,354.71,354.72,0,0.04,3
36066,3.0429e+07,0,-0.35,0,-1.62,354.7,354.72,0,0.04,3
36106,3.0439e+07,0,-0.35,0,-1.62,354.69,354.71,0,0.04,3
36147,3.0449e+07,0,-0.35,0,-1.63,354.69,354.7,0,0.04,3
36187,3.0459e+07,0,-0.35,0,-1.63,354.68,354.7,0,0.04,3
36227,3.0469e+07,0,-0.35,0,-1.63,354.67,354.69,0,0.04,3
36272,3.048e+07,0,-0.35,0,-1.63,354.67,354.68,0,0.04,3
36314,3.049e+07,0,-0.35,0,-1.63,354.66,354.68,0,0.04,3
36355,3.05e+07,0,-0.35,0,-1.63,354.66,354.67,0,0.04,3
36395,3.051e+07,0,-0.35,0,-1.62,354.65,354.66,0,0.04,3
36436,3.0523e+07,0,-0.35,0,-1.62,354.64,354.66,0,0.04,3
36476,3.0533e+07,0,-0.34,0,-1.62,354.64,354.65,0,0.04,3
36516,3.0543e+07,0,-0.34,0,-1.63,354.63,354.64,0,0.04,3
36556,3.0554e+07,0,-0.34,0,-1.64,354.62,354.64,0,0.04,3
36597,3.0564e+07,0,-0.34,0,-1.64,354.62,354.63,0,0.04,3
36637,3.0574e+07,0,-0.34,0,-1.65,354.61,354.63,0,0.04,3
36686,3.0584e+07,0,-0.33,0,-1.66,354.61,354.62,0,0.03,3
36728,3.0594e+07,0,-0.33,0,-1.66,354.61,354.62,0,0.03,3
36769,3.0605e+07,0,-0.33,0,-1.66,354.6,354.62,0,0.03,3
36809,3.0617e+07,0,-0.33,0,-1.66,354.6,354.61,0,0.03,3
36849,3.0628e+07,0,-0.33,0,-1.66,354.6,354.61,0,0.03,3
36889,3.0637e+07,0,-0.34,0,-1.66,354.59,354.61,0,0.03,3
36930,3.0648e+07,0,-0.34,0,-1.66,354.59,354.6,0,0.03,3
36970,3.0658e+07,0,-0.34,0,-1.66,354.58,354.6,0,0.03,3
37010,3.0668e+07,0,-0.35,0,-1.66,354.58,354.59,0,0.03,3
37055,3.0678e+07,0,-0.35,0,-1.66,354.58,354.59,0,0.03,3
37097,3.0689e+07,0,-0.36,0,-1.66,354.57,354.59,0,0.03,3
37137,3.0699e+07,0,-0.36,0,-1.66,354.57,354.59,0,0.03,3
37178,3.0709e+07,0,-0.36,0,-1.65,354.57,354.58,0,0.03,3
37218,3.0719e+07,0,-0.36,0,-1.65,354.57,354.58,0,0.03,3
37258,3.073e+07,0,-0.36,0,-1.65,354.56,354.58,0,0.03,3
37299,3.074e+07,0,-0.36,0,-1.65,354.56,354.57,0,0.03,3
37339,3.075e+07,0,-0.36,0,-1.65,354.55,354.57,0,0.03,3
37379,3.076e+07,0,-0.36,0,-1.64,354.55,354.56,0,0.03,3
37420,3.077e+07,0,-0.36,0,-1.64,354.55,354.56,0,0.03,3
37464,3.0781e+07,0,-0.36,0,-1.64,354.54,354.56,0,0.03,3
37504,3.0791e+07,0,-0.36,0,-1.64,354.54,354.56,0,0.03,3
37544,3.0801e+07,0,-0.36,0,-1.64,354.54,354.55,0,0.03,3
37584,3.0811e+07,0,-0.36,0,-1.63,354.54,354.55,0,0.03,3
37625,3.0823e+07,0,-0.36,0,-1.63,354.54,354.55,0,0.03,3
37666,3.0834e+07,0,-0.36,0,-1.63,354.54,354.55,0,0.03,3
37707,3.0844e+07,0,-0.37,0,-1.62,354.53,354.55,0,0.03,3
37747,3.0854e+07,0,-0.37,0,-1.62,354.53,354.55,0,0.03,3
37787,3.0864e+07,0,-0.38,0,-1.62,354.53,354.54,0,0.03,3
37828,3.0874e+07,0,-0.39,0,-1.62,354.52,354.54,0,0.03,3
37872,3.0884e+07,0,-0.39,0,-1.62,354.52,354.53,0,0.03,3
37912,3.0894e+07,0,-0.4,0,-1.62,354.52,354.53,0,0.03,3
37952,3.0904e+07,0,-0.4,0,-1.62,354.51,354.53,0,0.03,3
37995,3.0914e+07,0,-0.4,0,-1.62,354.51,354.53,0,0.03,3
38035,3.0924e+07,0,-0.4,0,-1.62,354.51,354.52,0,0.03,3
38076,3.0937e+07,0,-0.39,0,-1.62,354.51,354.52,0,0.03,3
38116,3.0948e+07,0,-0.38,0,-1.61,354.51,354.52,0,0.03,3
38157,3.0958e+07,0,-0.37,0,-1.61,354.51,354.52,0,0.03,3
38197,3.0968e+07,0,-0.36,0,-1.61,354.5,354.52,0,0.03,3
38237,3.0978e+07,0,-0.36,0,-1.61,354.5,354.52,0,0.03,3
38281,3.0988e+07,0,-0.36,0,-1.6,354.5,354.52,0,0.02,3
38321,3.0998e+07,0,-0.37,0,-1.59,354.5,354.51,0,0.02,3
38361,3.1007e+07,0,-0.38,0,-1.58,354.5,354.51,0,0.02,3
38405,3.102e+07,0,-0.4,0,-1.56,354.49,354.51,0,0.02,3
38443,3.1031e+07,0,-0.44,0,-1.53,354.49,354.5,0,0.02,3
38483,3.1041e+07,0,-0.47,0,-1.51,354.48,354.5,0,0.02,3
38523,3.1051e+07,0,-0.49,0,-1.49,354.48,354.49,0,0.02,3
38564,3.1061e+07,0,-0.51,0,-1.48,354.48,354.49,0,0.02,3
38604,3.1071e+07,0,-0.53,0,-1.47,354.48,354.49,0,0.02,3
38646,3.1081e+07,0,-0.53,0,-1.46,354.48,354.5,0,0.02,3
38690,3.1091e+07,0,-0.53,0,-1.43,354.49,354.5,0,0.03,3
38733,3.1101e+07,0,-0.52,0,-1.41,354.5,354.51,0,0.03,3
38773,3.1111e+07,0,-0.49,0,-1.36,354.51,354.53,0,0.03,3
38813,3.1122e+07,0,-0.46,0,-1.35,354.53,354.54,0,0.03,3
38854,3.1131e+07,0,-0.43,0,-1.34,354.54,354.55,0,0.03,3
38891,3.1141e+07,0,-0.4,0,-1.36,354.53,354.55,0,0.03,3
38932,3.1151e+07,0,-0.39,0,-1.38,354.52,354.54,0,0.03,3
38972,3.1162e+07,0,-0.42,0,-1.4,354.5,354.52,0,0.03,3
39012,3.1172e+07,0,-0.44,0,-1.4,354.49,354.5,0,0.03,3
39053,3.1182e+07,0,-0.45,0,-1.38,354.47,354.49,0,0.03,3
39097,3.1192e+07,0,-0.45,0,-1.36,354.45,354.47,0,0.02,3
39137,3.1202e+07,0,-0.47,0,-1.35,354.44,354.46,0,0.02,3
39177,3.1212e+07,0,-0.5,0,-1.35,354.43,354.44,0,0.02,3
39220,3.1224e+07,0,-0.52,0,-1.34,354.42,354.44,0,0.02,3
39260,3.1235e+07,0,-0.53,0,-1.34,354.43,354.44,0,0.02,3
39302,3.1245e+07,0,-0.53,0,-1.35,354.44,354.46,0,0.02,3
39342,3.1255e+07,0,-0.51,0,-1.36,354.45,354.47,0,0.02,3
39383,3.1265e+07,0,-0.49,0,-1.39,354.47,354.48,0,0.02,3
39423,3.1275e+07,0,-0.48,0,-1.43,354.48,354.49,0,0.02,3
39468,3.1286e+07,0,-0.47,0,-1.46,354.48,354.5,0,0.02,3
39508,3.1296e+07,0,-0.46,0,-1.47,354.48,354.5,0,0.02,3
39550,3.1306e+07,0,-0.44,0,-1.46,354.48,354.5,0,0.02,3
39591,3.1315e+07,0,-0.42,0,-1.43,354.47,354.49,0,0.02,3
39631,3.1325e+07,0,-0.42,0,-1.41,354.46,354.48,0,0.02,3
39669,3.1336e+07,0,-0.42,0,-1.4,354.45,354.46,0,0.02,3
39710,3.1346e+07,0,-0.44,0,-1.39,354.43,354.45,0,0.02,3
39751,3.1356e+07,0,-0.46,0,-1.38,354.42,354.44,0,0.02,3
39791,3.1365e+07,0,-0.49,0,-1.37,354.42,354.43,0,0.02,3
39831,3.1375e+07,0,-0.5,0,-1.37,354.42,354.44,0,0.02,3
39876,3.1386e+07,0,-0.51,0,-1.37,354.43,354.44,0,0.02,3
39916,3.1396e+07,0,-0.52,0,-1.38,354.44,354.45,0,0.02,3
39956,3.1405e+07,0,-0.53,0,-1.39,354.44,354.46,0,0.02,3
39997,3.1416e+07,0,-0.53,0,-1.4,354.46,354.47,0,0.02,3
40037,3.1426e+07,0,-0.52,0,-1.38,354.47,354.48,0,0.02,3
40074,3.1436e+07,0,-0.5,0,-1.36,354.48,354.49,0,0.02,3
40115,3.1446e+07,0,-0.47,0,-1.34,354.49,354.5,0,0.02,3
40155,3.1456e+07,0,-0.45,0,-1.33,354.49,354.5,0,0.02,3
40196,3.1466e+07,0,-0.44,0,-1.33,354.49,354.5,0,0.02,3
40236,3.1476e+07,0,-0.43,0,-1.34,354.48,354.5,0,0.02,3
40280,3.1487e+07,0,-0.43,0,-1.35,354.48,354.49,0,0.02,3
40320,3.1497e+07,0,-0.43,0,-1.37,354.47,354.49,0,0.01,3
40363,3.1507e+07,0,-0.44,0,-1.39,354.47,354.48,0,0.01,3
40403,3.1516e+07,0,-0.45,0,-1.4,354.46,354.48,0,0.01,3
40443,3.1527e+07,0,-0.47,0,-1.42,354.46,354.47,0,0.01,3
40480,3.1536e+07,0,-0.49,0,-1.43,354.46,354.47,0,0.01,3
40518,3.1547e+07,0,-0.51,0,-1.43,354.46,354.47,0,0.01,3
40559,3.1557e+07,0,-0.52,0,-1.41,354.46,354.48,0,0.01,3
40599,3.1567e+07,0,-0.52,0,-1.39,354.47,354.49,0,0.01,3
40641,3.1577e+07,0,-0.51,0,-1.38,354.48,354.5,0,0.01,3
40687,3.1587e+07,0,-0.51,0,-1.37,354.49,354.5,0,0.01,3
40727,3.1598e+07,0,-0.5,0,-1.37,354.49,354.51,0,0.02,3
40767,3.1608e+07,0,-0.49,0,-1.38,354.5,354.51,0,0.02,3
40807,3.1617e+07,0,-0.48,0,-1.38,354.5,354.52,0,0.02,3
40842,3.1628e+07,0,-0.46,0,-1.38,354.51,354.52,0,0.02,3
40882,3.1638e+07,0,-0.44,0,-1.38,354.5,354.52,0,0.02,3
40922,3.1647e+07,0,-0.43,0,-1.38,354.5,354.51,0,0.02,3
40963,3.1657e+07,0,-0.43,0,-1.38,354.49,354.5,0,0.02,3
41003,3.1668e+07,0,-0.44,0,-1.38,354.48,354.49,0,0.02,3
41044,3.1677e+07,0,-0.45,0,-1.37,354.47,354.49,0,0.02,3
41091,3.169e+07,0,-0.46,0,-1.35,354.47,354.49,0,0.01,3
41131,3.17e+07,0,-0.48,0,-1.34,354.47,354.49,0,0.01,3
41173,3.171e+07,0,-0.5,0,-1.33,354.51,354.53,0,0.01,3
41214,3.172e+07,0,-0.51,0,-1.33,354.54,354.56,0,0.01,3
41254,3.1733e+07,0,-0.52,0,-1.33,354.58,354.59,0,0.01,3
41294,3.1743e+07,0,-0.52,0,-1.33,354.61,354.63,0,0.01,3
41335,3.1753e+07,0,-0.52,0,-1.33,354.64,354.65,0,0.01,3
41375,3.1763e+07,0,-0.51,0,-1.33,354.66,354.68,0,0.01,3
41415,3.1773e+07,0,-0.5,0,-1.35,354.68,354.7,0,0.01,3
41456,3.1783e+07,0,-0.51,0,-1.38,354.69,354.71,0,0.01,3
41500,3.1794e+07,0,-0.57,0,-1.45,354.71,354.73,0,0.01,3
41540,3.1804e+07,0,-0.65,0,-1.52,354.69,354.71,0,0.01,3
41581,3.1814e+07,0,-0.74,0,-1.62,354.68,354.7,0,0.01,3
41621,3.1824e+07,0,-0.87,0,-1.75,354.64,354.66,0,0.01,3
41658,3.1837e+07,0,-1.12,0,-1.96,354.59,354.61,0,0.01,3
41698,3.1847e+07,0,-1.35,0,-2.16,354.54,354.57,0,0.01,3
41738,3.1857e+07,0,-1.61,0,-2.41,354.5,354.52,0,0.01,3
41780,3.1867e+07,0,-1.89,0,-2.67,354.46,354.49,0,0.01,3
41820,3.1877e+07,0,-2.17,0,-2.92,354.43,354.47,0,0.01,3
41860,3.1888e+07,0,-2.42,0,-3.16,354.44,354.48,0,0.01,3
41906,3.1898e+07,0,-2.7,0,-3.46,354.44,354.48,0.01,0.02,3
41946,3.1907e+07,0,-2.96,0,-3.76,354.45,354.5,0.01,0.02,3
41987,3.1917e+07,0,-3.21,0,-4.09,354.47,354.52,0.01,0.02,3
42027,3.1927e+07,0,-3.47,0,-4.48,354.47,354.53,0.01,0.02,3
42067,3.194e+07,0,-3.79,0,-5.09,354.48,354.53,0.01,0.02,3
42108,3.195e+07,0,-3.98,0,-5.55,354.47,354.53,0.01,0.02,3
42148,3.1961e+07,0,-4.2,0,-6.13,354.44,354.5,0.01,0.02,3
42188,3.1971e+07,0,-4.44,0,-6.83,354.41,354.47,0.01,0.02,3
42229,3.198e+07,0,-4.65,0,-7.52,354.38,354.45,0.01,0.02,3
42273,3.1991e+07,0,-4.84,0,-8.22,354.36,354.43,0.01,0.02,3
42314,3.2001e+07,0,-5.02,0,-8.93,354.35,354.42,0.01,0.03,3
42355,3.2011e+07,0,-5.19,0,-9.66,354.38,354.45,0.01,0.03,3
42395,3.2021e+07,0,-5.36,0,-10.43,354.45,354.53,0.01,0.03,3
42432,3.2034e+07,0,-5.56,0,-11.45,354.61,354.68,0.01,0.03,3
42472,3.2044e+07,0,-5.7,0,-12.28,354.77,354.85,0.01,0.03,3
42512,3.2054e+07,0,-5.82,0,-13.13,354.97,355.05,0.01,0.03,3
42553,3.2064e+07,0,-5.89,0,-13.99,355.19,355.27,0.01,0.03,3
42595,3.2074e+07,0,-5.91,0,-14.86,355.45,355.53,0.01,0.03,3
42636,3.2084e+07,0,-5.87,0,-15.72,355.74,355.82,0.01,0.03,3
42683,3.2094e+07,0,-5.78,0,-16.59,356.07,356.15,0.01,0.04,3
42723,3.2104e+07,0,-5.65,0,-17.46,356.44,356.52,0.02,0.04,3
42763,3.2114e+07,0,-5.52,0,-18.35,356.84,356.92,0.02,0.04,3
42803,3.2124e+07,0,-5.34,0,-19.23,357.26,357.34,0.02,0.04,3
42844,3.2134e+07,0,-5.14,0,-20.14,357.71,357.79,0.02,0.04,3
42881,3.2145e+07,0,-4.88,0,-21.27,358.27,358.34,0.02,0.04,3
42921,3.2154e+07,0,-4.68,0,-22.29,358.75,358.83,0.02,0.04,3
42961,3.2165e+07,0,-4.54,0,-23.38,359.25,359.32,0.02,0.04,3
43001,3.2175e+07,0,-4.49,0,-24.49,359.76,359.83,0.02,0.04,3
43042,3.2185e+07,0,-4.42,0,-25.55,0.26,0.32,0.02,0.04,3
43086,3.2195e+07,0,-4.33,0,-26.59,0.77,0.83,0.02,0.04,3
43127,3.2204e+07,0,-4.15,0,-27.46,1.24,1.3,0.02,0.04,3
43167,3.2215e+07,0,-4.02,0,-28.24,1.74,1.79,0.02,0.04,3
43207,3.2225e+07,0,-4,0,-28.93,2.31,2.36,0.02,0.04,3
43248,3.2235e+07,0,-3.95,0,-29.48,2.85,2.91,0.02,0.04,3
43288,3.2245e+07,0,-3.78,0,-29.95,3.37,3.42,0.02,0.04,3
43328,3.2255e+07,0,-3.54,0,-30.3,3.85,3.9,0.02,0.04,3
43368,3.2265e+07,0,-3.35,0,-30.58,4.34,4.38,0.02,0.04,3
43409,3.2275e+07,0,-3.22,0,-30.81,4.82,4.86,0.02,0.04,3
43449,3.2285e+07,0,-3.07,0,-30.96,5.27,5.31,0.02,0.04,3
43496,3.2295e+07,0,-2.89,0,-31.03,5.7,5.74,0.02,0.04,3
43536,3.2305e+07,0,-2.74,0,-31.02,6.12,6.15,0.06,0.04,3
43579,3.2315e+07,0,-2.65,0,-30.93,6.54,6.58,0.06,0.04,3
43619,3.2325e+07,0,-2.56,0,-30.76,6.96,6.99,0.06,0.04,3
43659,3.2338e+07,0,-2.41,0,-30.43,7.49,7.53,0.06,0.04,3
43699,3.2348e+07,0,-2.34,0,-30.12,7.9,7.93,0.06,0.04,3
43739,3.2358e+07,0,-2.35,0,-29.81,8.32,8.35,0.06,0.04,3
43780,3.2368e+07,0,-2.4,0,-29.47,8.74,8.77,0.06,0.04,3
43821,3.2378e+07,0,-2.44,0,-29.11,9.18,9.21,0.06,0.04,3
43861,3.2388e+07,0,-2.5,0,-28.77,9.58,9.61,0.06,0.04,3
43906,3.2399e+07,0,-2.6,0,-28.48,9.93,9.97,0.06,0.04,3
43946,3.2409e+07,0,-2.79,0,-28.14,10.37,10.41,0.06,0.04,3
43987,3.2419e+07,0,-2.98,0,-27.83,10.75,10.79,0.06,0.04,3
44027,3.2431e+07,0,-3.26,0,-27.45,11.23,11.27,0.06,0.04,3
44064,3.2442e+07,0,-3.51,0,-27.17,11.58,11.63,0.06,0.04,3
44104,3.2452e+07,0,-3.78,0,-26.92,11.92,11.97,0.06,0.04,3
44144,3.2462e+07,0,-4.04,0,-26.7,12.24,12.3,0.06,0.04,3
44185,3.2472e+07,0,-4.31,0,-26.51,12.54,12.6,0.06,0.04,3
44225,3.2483e+07,0,-4.61,0,-26.35,12.82,12.88,0.06,0.04,3
44265,3.2493e+07,0,-4.99,0,-26.22,13.12,13.19,0.06,0.04,3
44312,3.2504e+07,0,-5.35,0,-26.13,13.38,13.45,0.07,0.04,3
44353,3.2514e+07,0,-5.76,0,-26.08,13.65,13.73,0.07,0.04,3
44393,3.2524e+07,0,-6.17,0,-26.05,13.89,13.97,0.07,0.04,3
44430,3.2533e+07,0,-6.61,0,-26.05,14.13,14.22,0.07,0.04,3
44470,3.2544e+07,0,-7.07,0,-26.07,14.37,14.46,0.07,0.04,3
44507,3.2554e+07,0,-7.56,0,-26.1,14.61,14.71,0.07,0.04,3
44548,3.2564e+07,0,-8.07,0,-26.14,14.85,14.95,0.07,0.04,3
44590,3.2574e+07,0,-8.59,0,-26.19,15.08,15.2,0.07,0.04,3
44630,3.2585e+07,0,-9.13,0,-26.24,15.32,15.44,0.07,0.04,3
44671,3.2595e+07,0,-9.74,0,-26.29,15.57,15.71,0.07,0.04,3
44717,3.2605e+07,0,-10.3,0,-26.33,15.8,15.94,0.07,0.04,3
44758,3.2615e+07,0,-10.88,0,-26.35,16.01,16.16,0.07,0.04,3
44798,3.2625e+07,0,-11.47,0,-26.35,16.22,16.38,0.07,0.04,3
44838,3.2635e+07,0,-12.07,0,-26.32,16.42,16.58,0.07,0.04,3
44879,3.265e+07,0,-13.02,0,-26.23,16.72,16.9,0.07,0.04,3
44919,3.266e+07,0,-13.56,0,-26.14,16.89,17.07,0.07,0.04,3
44959,3.2671e+07,0,-14.22,0,-26,17.07,17.26,0.07,0.04,3
44999,3.268e+07,0,-14.83,0,-25.84,17.23,17.42,0.07,0.04,3
45040,3.269e+07,0,-15.45,0,-25.65,17.37,17.57,0.07,0.04,3
45084,3.2701e+07,0,-16.05,0,-25.43,17.49,17.7,0.07,0.05,3
45126,3.271e+07,0,-16.65,0,-25.17,17.59,17.81,0.08,0.05,3
45167,3.2721e+07,0,-17.22,0,-24.86,17.68,17.9,0.08,0.05,3
45207,3.273e+07,0,-17.77,0,-24.51,17.73,17.96,0.08,0.05,3
45244,3.2741e+07,0,-18.31,0,-24.12,17.76,18,0.08,0.05,3
45284,3.2751e+07,0,-18.82,0,-23.68,17.77,18.01,0.08,0.05,3
45325,3.2761e+07,0,-19.31,0,-23.22,17.75,17.99,0.08,0.05,3
45365,3.2771e+07,0,-19.81,0,-22.66,17.69,17.94,0.08,0.05,3
45405,3.2781e+07,0,-20.23,0,-22.13,17.62,17.87,0.08,0.05,3
45445,3.2791e+07,0,-20.62,0,-21.59,17.52,17.78,0.08,0.05,3
45489,3.2801e+07,0,-20.99,0,-21.02,17.39,17.66,0.08,0.05,3
45530,3.2811e+07,0,-21.33,0,-20.45,17.25,17.52,0.08,0.05,3
45570,3.2821e+07,0,-21.64,0,-19.86,17.09,17.36,0.08,0.05,3
45611,3.2831e+07,0,-21.92,0,-19.29,16.91,17.18,0.08,0.05,3
45651,3.2841e+07,0,-22.17,0,-18.71,16.71,16.98,0.08,0.05,3
45689,3.2851e+07,0,-22.39,0,-18.14,16.49,16.77,0.08,0.05,3
45729,3.2861e+07,0,-22.58,0,-17.58,16.26,16.54,0.08,0.05,3
45769,3.2871e+07,0,-22.74,0,-17.03,16.02,16.3,0.08,0.05,3
45809,3.2881e+07,0,-22.86,0,-16.49,15.76,16.04,0.08,0.05,3
45852,3.2891e+07,0,-22.95,0,-15.95,15.48,15.76,0.1,0.05,3
45896,3.2901e+07,0,-23,0,-15.43,15.18,15.46,0.1,0.04,3
45936,3.2911e+07,0,-22.99,0,-14.93,14.86,15.14,0.1,0.04,3
