LineNo,TimeUS,ThI,ABst,ThO,ThH,DAlt,Alt,BAlt,DSAlt,SAlt,TAlt,DCRt,CRt
1760,21842198,0,0,0,0.2511378,0,1.174934,0.95,NaN,0,0.08142619,0,52
2178,21945298,0,0,0,0.2511378,0,1.214522,0.86,NaN,0,0.1226169,0,52
2586,22046620,0,0,0,0.2511378,0,1.252105,0.79,NaN,0,0.1601997,0,52
2996,22147084,0,0,0,0.2511378,0,1.286053,0.87,NaN,0,0.1963685,0,51
3408,22247799,0,0,0,0.2511378,0,1.31786,0.76,NaN,0,0.2281756,0,51
3821,22349414,0,0,0,0.2511378,0,1.342837,1.07,NaN,0,0.2531521,0,50
4234,22450079,0,0,0,0.2511378,0,1.371505,0.76,NaN,0,0.2818199,0,49
4645,22551720,0,0,0,0.2511378,0,1.397352,0.79,NaN,0,0.3091009,0,49
5060,22653094,0,0,0,0.2511378,0,1.420078,0.97,NaN,0,0.3318275,0,48
5443,22755203,0,0,0,0.2511378,0,1.439257,0.9,NaN,0,0.3510063,0,47
5856,22858011,0,0,0,0.2511378,0,1.458405,0.98,NaN,0,0.3701544,0,47
6271,22960032,0,0,0,0.2511378,0,1.479883,0.93,NaN,0,0.3924257,0,46
6685,23063402,0,0,0,0.2511378,0,1.50017,1.12,NaN,0,0.4127125,0,45
7099,23164683,0,0,0,0.2511378,0,1.521531,1.02,NaN,0,0.4356834,0,45
7507,23266720,0,0,0,0.2511378,0,1.54236,0.97,NaN,0,0.4565127,0,44
7915,23368282,0,0,0,0.2511378,0,1.557792,0.83,NaN,0,0.4703348,0,44
8322,23468477,0,0,0,0.2511378,0,1.571676,1.07,NaN,0,0.4842189,0,43
8731,23569207,0,0,0,0.2511378,0,1.585518,1.07,NaN,0,0.4980611,0,42
9140,23670322,0,0,0,0.2511378,0,1.599427,1.02,NaN,0,0.5119693,0,41
9546,23771577,0,0,0,0.2511378,0,1.612514,0.98,NaN,0,0.5242637999999999,0,41
9898,23873434,0,0,0,0.2511378,0,1.619588,1.18,NaN,0,0.5313374,0,40
10282,23973710,0,0,0,0.2511378,0,1.631263,0.96,NaN,0,0.5406094,0,39
10692,24075361,0,0,0,0.2511378,0,1.641112,1.18,NaN,0,0.5504583,0,39
11105,24177602,0,0,0,0.2511378,0,1.650287,1.22,NaN,0,0.557215,0,38
11513,24279779,0,0,0,0.2511378,0,1.663069,0.95,NaN,0,0.5699963,0,37
11902,24383086,0,0,0,0.2511378,0,1.671032,0.9399999999999999,NaN,0,0.5755484,0,36
12314,24484711,0,0,0,0.2511378,0,1.676807,1.13,NaN,0,0.5813236000000001,0,36
12726,24585861,0,0,0,0.2511378,0,1.68318,1.04,NaN,0,0.5852932,0,35
13136,24687242,0,0,0,0.2511378,0,1.687759,1.01,NaN,0,0.5898722,0,34
13544,24787567,0,0,0,0.2511378,0,1.694169,1.15,NaN,0,0.5938787,0,33
13955,24888072,0,0,0,0.2511378,0,1.69444,1.04,NaN,0,0.5941502,0,32
14365,24989239,0,0,0,0.2511378,0,1.694629,1.12,NaN,0,0.5929202,0,32
14744,25091315,0,0,0,0.2511378,0,1.691661,1.11,NaN,0,0.5899522,0,31
15161,25194323,0,0,0,0.2511378,0,1.692277,1.23,NaN,0,0.5863799,0,30
15575,25295887,0,0,0,0.2511378,0,1.69188,1.16,NaN,0,0.5851663,0,29
15964,25396437,0,0,0,0.2511378,0,1.694363,1.24,NaN,0,0.5876493,0,28
16372,25496601,0,0,0,0.2511378,0,1.697433,1.02,NaN,0,0.5907195,0,28
16783,25597701,0,0,0,0.2511378,0,1.698036,0.99,NaN,0,0.5889189,0,27
17197,25699770,0,0,0,0.2511378,0,1.693285,1,NaN,0,0.5833742,0,26
17609,25800842,0,0,0,0.2511378,0,1.689293,0.87,NaN,0,0.5793827,0,25
17993,25903234,0,0,0,0.2511378,0,1.683214,0.9399999999999999,NaN,0,0.5716941,0,24
18403,26004715,0,0,0,0.2511378,0,1.673393,1.13,NaN,0,0.5618733,0,23
18815,26106616,0,0,0,0.2511378,0,1.663886,1.09,NaN,0,0.5523656,0,22
19224,26208626,0,0,0,0.2511378,0,1.655182,1.14,NaN,0,0.5436614,0,22
19635,26310469,0,0,0,0.2511378,0,1.644045,1.18,NaN,0,0.5317309,0,21
20021,26411592,0,0,0,0.2511378,0,1.638014,1.01,NaN,0,0.5257003,0,20
20433,26514199,0,0,0,0.2511378,0,1.627776,1.12,NaN,0,0.5139359,0,19
20846,26615131,0,0,0,0.2511378,0,1.624096,0.97,NaN,0,0.5102559,0,18
21261,26716661,0,0,0,0.2511378,0,1.612059,1.09,NaN,0,0.4974255,0,17
21638,26817823,0,0,0,0.2511378,0,1.602687,1.19,NaN,0,0.488054,0,17
22051,26920838,0,0,0,0.2511378,0,1.594879,1.07,NaN,0,0.4786432,0,16
22457,27021972,0,0,0,0.2511378,0,1.587316,0.97,NaN,0,0.4710806,0,15
22871,27124066,0,0,0,0.2511378,0,1.574704,1.2,NaN,0,0.4584687,0,14
23281,27225617,0,0,0,0.2511378,0,1.565485,1.2,NaN,0,0.4492493,0,14
23668,27326265,0,0,0,0.2511378,0,1.557498,1.2,NaN,0,0.4404613,0,13
24078,27427038,0,0,0,0.2511378,0,1.550999,1.11,NaN,0,0.4339626,0,12
24493,27531085,0,0,0,0.2511378,0,1.541336,1.18,NaN,0,0.4242999,0,11
24903,27632368,0,0,0,0.2511378,0,1.534314,1.08,NaN,0,0.4172775,0,11
25313,27733857,0,0,0,0.2511378,0,1.526863,1.15,NaN,0,0.4087434,0,10
25691,27834696,0,0,0,0.2511378,0,1.517997,1.17,NaN,0,0.3998777,0,9
26101,27937481,0,0,0,0.2511378,0,1.510088,1.12,NaN,0,0.3926011,0,9
26507,28039179,0,0,0,0.2511378,0,1.501649,1.07,NaN,0,0.3841628,0,8
26920,28140634,0,0,0,0.2511378,0,1.491469,0.85,NaN,0,0.3729832,0,7
27331,28242847,0,0,0,0.2511378,0,1.475367,1.09,NaN,0,0.3568814,0,7
27716,28344667,0,0,0,0.2511378,0,1.460904,0.93,NaN,0,0.3406402,0,6
28126,28445864,0,0,0,0.2511378,0,1.445247,0.84,NaN,0,0.3249838,0,5
28538,28547087,0,0,0,0.2511378,0,1.427796,1.06,NaN,0,0.3075327,0,5
28949,28650088,0,0,0,0.2511378,0,1.409571,0.91,NaN,0,0.2893077,0,6
29359,28751443,0,0,0,0.2511378,0,1.391473,0.86,NaN,0,0.2708431,0,2
29765,28853812,0,0,0,0.2511378,0,1.368668,0.99,NaN,0,0.2480382,0,3
30179,28955697,0,0,0,0.2511378,0,1.349123,0.86,NaN,0,0.2260899,0,1
30590,29056849,0,0,0,0.2511378,0,1.328986,0.8,NaN,0,0.2059533,0,1
31001,29157826,0,0,0,0.2511378,0,1.308035,0.77,NaN,0,0.1827744,0,0
31412,29258306,0,0,0,0.2511378,0,1.285011,0.75,NaN,0,0.1597498,0,0
31821,29360825,0,0,0,0.2511378,0,1.260211,0.9,NaN,0,0.1333477,0,-1
32227,29461275,0,0,0,0.2511378,0,1.235796,1.12,NaN,0,0.1089328,0,-2
32637,29562463,0,0,0,0.2511378,0,1.213456,0.93,NaN,0,0.08418219,0,-2
33045,29665208,0,0,0,0.2511378,0,1.195011,0.85,NaN,0,0.06573693,0,-3
33451,29765480,0,0,0,0.2511378,0,1.176723,0.97,NaN,0,0.04567187,0,-3
33851,29867047,0,0,0,0.2511378,0,1.158902,0.82,NaN,0,0.02785056,0,-4
34228,29967467,0,0,0,0.2511378,0,1.140327,0.85,NaN,0,0.008466888000000001,0,-5
34628,30068581,0,0,0,0.2511378,0,1.120852,0.9399999999999999,NaN,0,-0.01100798,0,-5
35034,30170332,0,0,0,0.2511378,0,1.100737,0.84,NaN,0,-0.03352697,0,-6
35442,30271636,0,0,0,0.2511378,0,1.082034,1.02,NaN,0,-0.05222995,0,-7
35854,30372860,0,0,0,0.2511378,0,1.065261,0.9,NaN,0,-0.07159705,0,-7
36261,30474405,0,0,0,0.2511378,0,1.048906,0.85,NaN,0,-0.08795197,0,-7
36670,30575871,0,0,0,0.2511378,0,1.032559,1.02,NaN,0,-0.1052829,0,-8
37051,30678038,0,0,0,0.2511378,0,1.016952,0.89,NaN,0,-0.12089,0,-8
37460,30780456,0,0,0,0.2511378,0,1.002352,1.17,NaN,0,-0.1372748,0,-8
37865,30881689,0,0,0,0.2511378,0,0.9912485,1.18,NaN,0,-0.1483785,0,-9
38271,30982612,0,0,0,0.2511378,0,0.9831595,1.19,NaN,0,-0.1574517,0,-9
38677,31083318,0,0,0,0.2511378,0,0.9788784,1.14,NaN,0,-0.1617327,0,-9
39084,31184657,0,0,0,0.2511378,0,0.9747841,1.17,NaN,0,-0.1685126,0,-9
39464,31285332,0,0,0,0.2511378,0,0.9720041,1.19,NaN,0,-0.1712926,0,-9
39872,31385480,0,0,0,0.2511378,0,0.9702712999999999,0.99,NaN,0,-0.1778244,0,-10
40276,31486335,0,0,0,0.2511378,0,0.966907,1.2,NaN,0,-0.1811887,0,-10
40681,31586813,0,0,0,0.2511378,0,0.9637895,1.02,NaN,0,-0.1828032,0,-10
41084,31688296,0,0,0,0.2511378,0,0.960039,1.03,NaN,0,-0.1865537,0,-10
41490,31788403,0,0,0,0.2511378,0,0.9553158,1.02,NaN,0,-0.1911776,0,-9
41893,31890652,0,0,0,0.2511378,0,0.9538715,1.03,NaN,0,-0.192622,0,-4
42269,31991069,0,0,0,0.2511378,0,0.9590243000000001,1.22,NaN,0,-0.1888044,0,5
42673,32091815,0,0,0,0.2511378,0,0.9709671,1.09,NaN,0,-0.1768615,0,2
43079,32191972,0,0,0,0.2511378,0,0.9838659,1.19,NaN,0,-0.160499,0,8
43487,32292911,0,0,0,0.2511378,0,1.012958,1.26,NaN,0,-0.1314072,0,37
43896,32393682,0,0,0,0.2511378,0,1.06937,1.21,NaN,0,-0.06697638,0,52
44296,32495244,0,0,0,0.2511378,0,1.133334,1.42,NaN,0,-0.00301249,0,48
44702,32597682,0,0,0,0.2511378,0,1.190282,1.42,NaN,0,0.05305795,0,41
45077,32697866,0,0,0,0.2511378,0,1.243735,1.21,NaN,0,0.1065115,0,42
45482,32798794,0,0,0,0.2511378,0,1.297819,1.5,NaN,0,0.1451,0,44
45889,32898089,0,0,0,0.2511378,0,1.350999,1.5,NaN,0,0.1820601,0,44
46294,32999238,0,0,0,0.2511378,0,1.404399,1.37,NaN,0,0.2354596,0,42
46700,33100087,0,0,0,0.2511378,0,1.448649,0.82,NaN,0,0.2608501,0,30
47104,33200731,0,0,0,0.2511378,0,1.469448,0.92,NaN,0,0.2816488,0,12
47510,33301403,0,0,0,0.2511378,0,1.461593,0.82,NaN,0,0.2547202,0,-9
47917,33402322,0,0,0,0.2511378,0,1.425047,0.91,NaN,0,0.2181743,0,-27
48323,33503306,0,0,0,0.2511378,0,1.369387,0.91,NaN,0,0.1383446,0,-42
48698,33603597,0,0,0,0.2511378,0,1.302101,0.85,NaN,0,0.07105903,0,-50
49104,33704970,0,0,0,0.2511378,0,1.232326,0.92,NaN,0,-0.02817388,0,-44
49508,33805266,0,0,0,0.2511378,0,1.179196,0.83,NaN,0,-0.08130403,0,-21
49912,33906599,0,0,0,0.2511378,0,1.150322,0.82,NaN,0,-0.1533982,0,0
50316,34006865,0,0,0,0.2511378,0,1.138157,1.07,NaN,0,-0.1655627,0,7
50724,34107243,0,0,0,0.2511378,0,1.136111,1.15,NaN,0,0.8994679,0,7
51129,34208899,0,0,0,0.2511378,0,1.136111,1.52,NaN,0,1.271317,0,1
51534,34310099,0,0,0,0.2511378,0,1.136111,1.52,NaN,0,1.226498,0,-1
51940,34409574,0,0,0,0.2511378,0,1.136111,2.04,NaN,0,1.743259,0,9
52344,34510480,0,0,0,0.2511378,0,1.136111,1.79,NaN,0,1.457809,0,2
52750,34610857,0,0,0,0.2511378,0,1.136111,1.93,NaN,0,1.602721,0,-22
53158,34712092,0,0,0,0.2511378,0,1.136111,1.8,NaN,0,1.451631,0,-46
53539,34812842,0,0,0,0.2511378,0,1.136111,1.91,NaN,0,1.558264,0,-56
53941,34914251,0,0,0,0.2511378,0,1.136111,1.99,NaN,0,1.617925,0,-46
54343,35015480,0,0,0,0.2511378,0,1.136111,2.01,NaN,0,1.639799,0,-17
54748,35116200,0,0,0,0.2511378,0,1.136111,1.76,NaN,0,1.367891,0,3
55149,35218005,0,0,0,0.2511378,0,1.136111,1.91,NaN,0,1.515537,0,0
55535,35320023,0,0,0,0.2511378,0,1.136111,1.91,NaN,0,1.488246,0,-14
55943,35420625,0,0,0,0.2511378,0,1.136111,1.93,NaN,0,1.512854,0,-18
56346,35521602,0,0,0,0.2511378,0,1.136111,1.93,NaN,0,1.485759,0,0
56752,35623314,0,0,0,0.2511378,0,1.136111,2.04,NaN,0,1.595127,0,2
57157,35724157,0,0,0,0.2511378,0,1.363903,2.03,NaN,0,-0.2050603,0,-2
57561,35826004,0,0,0,0.2511378,0,1.386425,2.11,NaN,0,-0.1825388,0,-24
57686,120384093,0,0,0,0.2511378,0,2.485222,2.44,NaN,0,0.005222157,0,0
58096,120484478,0,0,0,0.2511378,0,2.480778,2.59,NaN,0,0.000587061,0,0
58500,120585556,0,0,0,0.2511378,0,2.479378,2.55,NaN,0,-0.0008129328,0,0
58946,120689578,0,0,0,0.2511378,0,2.478736,2.36,NaN,0,-0.001629755,0,0
59395,120790988,0,0,0,0.2511378,0,2.477982,2.34,NaN,0,-0.00238435,0,0
59842,120893167,0,0,0,0.2511378,0,2.477245,2.31,NaN,0,-0.003312275,0,0
60286,120995869,0,0,0,0.2511378,0,2.477788,2.3,NaN,0,-0.002768442,0,0
60733,121098357,0,0,0,0.2511378,0,2.477837,2.34,NaN,0,-0.00290291,0,0
61179,121200102,0,0,0,0.2511378,0,2.477336,2.32,NaN,0,-0.003404066,0,0
61626,121307258,0,0,0,0.2511378,0,2.476798,2.27,NaN,0,-0.0039417,0,0
62037,121408253,0,0,0,0.2511378,0,2.477103,2.61,NaN,0,-0.00381963,0,0
62483,121513581,0,0,0,0.2511378,0,2.477674,2.63,NaN,0,-0.003249571,0,0
62931,121615303,0,0,0,0.2511378,0,2.479298,2.35,NaN,0,-0.001815483,0,0
63372,121718096,0,0,0,0.2511378,0,2.479988,2.59,NaN,0,-0.0004929751,0,0
63821,121818841,0,0,0,0.2511378,0,2.47954,2.52,NaN,0,-0.0009404868,0,0
64266,121921414,0,0,0,0.2511378,0,2.478973,2.39,NaN,0,-0.001789734,0,0
64714,122022407,0,0,0,0.2511378,0,2.47774,2.48,NaN,0,-0.003022596,0,0
65157,122124673,0,0,0,0.2511378,0,2.475652,2.32,NaN,0,-0.00520198,0,0
65572,122225418,0,0,0,0.2511378,0,2.47237,2.42,NaN,0,-0.008484050999999999,0,0
66016,122326282,0,0,0,0.2511378,0,2.469486,2.3,NaN,0,-0.009766504000000001,0,0
66465,122427244,0,0,0,0.2511378,0,2.46658,2.6,NaN,0,-0.01267259,0,0
66909,122529875,0,0,0,0.2511378,0,2.464353,2.55,NaN,0,-0.01507442,0,0
67325,122630481,0,0,0,0.2511378,0,2.462967,2.67,NaN,0,-0.01646082,0,-1
67768,122732817,0,0,0,0.2511378,0,2.461728,2.19,NaN,0,-0.01789062,0,-1
68216,122834577,0,0,0,0.2511378,0,2.459042,2.42,NaN,0,-0.01976793,0,-1
68661,122935843,0,0,0,0.2511378,0,2.456973,2.5,NaN,0,-0.02183716,0,-1
69106,123037222,0,0,0,0.2511378,0,2.456835,2.29,NaN,0,-0.02224986,0,-1
69424,123140242,0,0,0,0.2511378,0,2.454418,2.35,NaN,0,-0.0230488,0,-1
69873,123242277,0,0,0,0.2511378,0,2.45106,2.3,NaN,0,-0.02659027,0,-1
70315,123344672,0,0,0,0.2511378,0,2.447677,2.31,NaN,0,-0.02935521,0,-1
70764,123445793,0,0,0,0.2511378,0,2.444241,2.44,NaN,0,-0.0327913,0,-1
71173,123547309,0,0,0,0.2511378,0,2.44232,2.43,NaN,0,-0.03489487,0,0
71619,123648483,0,0,0,0.2511378,0,2.441594,2.26,NaN,0,-0.03400366,0,0
72062,123750057,0,0,0,0.2511378,0,2.439242,2.46,NaN,0,-0.03653876,0,0
72513,123852205,0,0,0,0.2511378,0,2.436394,2.5,NaN,0,-0.03938667,0,0
72923,123955084,0,0,0,0.2511378,0,2.434126,2.44,NaN,0,-0.04184549,0,0
73371,124055195,0,0,0,0.2511378,0,2.432461,2.66,NaN,0,-0.04351036,0,0
73814,124156561,0,0,0,0.2511378,0,2.430332,2.58,NaN,0,-0.04582302,0,0
74262,124259019,0,0,0,0.2511378,0,2.429077,2.45,NaN,0,-0.04707758,0,0
74708,124362196,0,0,0,0.2511378,0,2.427392,2.57,NaN,0,-0.04876272,0,0
75155,124463219,0,0,0,0.2511378,0,2.426357,2.56,NaN,0,-0.04979818,0,0
75586,124563586,0,0,0,0.2511378,0,2.425264,2.48,NaN,0,-0.05089109,0,0
76014,124664712,0,0,0,0.2511378,0,2.424502,2.47,NaN,0,-0.05102722,0,0
76449,124766838,0,0,0,0.2511378,0,2.425778,2.58,NaN,0,-0.04975145,0,0
76901,124867645,0,0,0,0.2511378,0,2.427702,2.44,NaN,0,-0.04782669,0,0
77345,124969756,0,0,0,0.2511378,0,2.430854,2.47,NaN,0,-0.04387443,0,0
77760,125071201,0,0,0,0.2511378,0,2.434096,2.57,NaN,0,-0.0406317,0,0
78202,125175248,0,0,0,0.2511378,0,2.435214,2.44,NaN,0,-0.03789632,0,0
78650,125276305,0,0,0,0.2511378,0,2.435922,2.28,NaN,0,-0.03736393,0,0
79097,125379242,0,0,0,0.2511378,0,2.437421,2.22,NaN,0,-0.03506391,0,0
79547,125481078,0,0,0,0.2511378,0,2.438246,2.15,NaN,0,-0.03423898,0,0
79990,125583302,0,0,0,0.2511378,0,2.43724,2.31,NaN,0,-0.03381841,0,1
80435,125685258,0,0,0,0.2511378,0,2.436231,2.15,NaN,0,-0.03482716,0,1
80846,125786444,0,0,0,0.2511378,0,2.432485,2.39,NaN,0,-0.03775685,0,1
81298,125889222,0,0,0,0.2511378,0,2.42991,2.6,NaN,0,-0.03872196,0,1
81740,125991012,0,0,0,0.2511378,0,2.427856,2.57,NaN,0,-0.04105107,0,1
82187,126091875,0,0,0,0.2511378,0,2.427314,2.61,NaN,0,-0.04088323,0,1
82630,126193619,0,0,0,0.2511378,0,2.424091,2.7,NaN,0,-0.04410665,0,1
83077,126298232,0,0,0,0.2511378,0,2.422883,2.71,NaN,0,-0.04450552,0,1
83528,126400600,0,0,0,0.2511378,0,2.422749,2.63,NaN,0,-0.04481523,0,1
83971,126501886,0,0,0,0.2511378,0,2.423943,2.87,NaN,0,-0.04362075,0,1
84420,126603606,0,0,0,0.2511378,0,2.425361,2.82,NaN,0,-0.04059331,0,1
84867,126704572,0,0,0,0.2511378,0,2.429197,2.72,NaN,0,-0.03694813,0,1
85310,126805265,0,0,0,0.2511378,0,2.433329,2.73,NaN,0,-0.03281562,0,1
85762,126911813,0,0,0,0.2511378,0,2.438382,2.82,NaN,0,-0.02694671,0,1
86211,127013690,0,0,0,0.2511378,0,2.441484,2.7,NaN,0,-0.02384441,0,1
86654,127115869,0,0,0,0.2511378,0,2.446206,2.78,NaN,0,-0.01912229,0,1
87100,127217306,0,0,0,0.2511378,0,2.451849,2.65,NaN,0,-0.01347916,0,1
87542,127319098,0,0,0,0.2511378,0,2.457407,2.79,NaN,0,-0.006303713,0,2
87992,127419278,0,0,0,0.2511378,0,2.460993,2.87,NaN,0,-0.002901718,0,2
88436,127520677,0,0,0,0.2511378,0,2.466022,2.82,NaN,0,0.002127483,0,2
88852,127621254,0,0,0,0.2511378,0,2.47048,2.72,NaN,0,0.006585911,0,2
89296,127723984,0,0,0,0.2511378,0,2.475309,2.65,NaN,0,0.01141436,0,2
89707,127824391,0,0,0,0.2511378,0,2.477736,2.75,NaN,0,0.01384218,0,2
90155,127926679,0,0,0,0.2511378,0,2.479717,2.69,NaN,0,0.01582249,0,2
90602,128027717,0,0,0,0.2511378,0,2.480155,2.58,NaN,0,0.01607044,0,2
91038,128129389,0,0,0,0.2511378,0,2.480718,2.65,NaN,0,0.01663311,0,2
91464,128230653,0,0,0,0.2511378,0,2.481133,2.71,NaN,0,0.01785667,0,2
91864,128332027,0,0,0,0.2511378,0,2.481877,2.62,NaN,0,0.01831873,0,2
92311,128432221,0,0,0,0.2511378,0,2.48203,2.65,NaN,0,0.01847179,0,2
92755,128533637,0,0,0,0.2511378,0,2.481747,2.71,NaN,0,0.01737984,0,2
93202,128634242,0,0,0,0.2511378,0,2.480505,2.52,NaN,0,0.01596172,0,2
93645,128737040,0,0,0,0.2511378,0,2.479185,2.5,NaN,0,0.01464231,0,1
94093,128836430,0,0,0,0.2511378,0,2.478114,2.51,NaN,0,0.0135711,0,1
94505,128938091,0,0,0,0.2511378,0,2.476053,2.35,NaN,0,0.01141103,0,1
94949,129039641,0,0,0,0.2511378,0,2.471764,2.51,NaN,0,0.007122114,0,1
95393,129142809,0.195354,4.285574e-05,0.1953969,0.2511378,0,2.468194,2.26,NaN,0,0.003369406,0,1
95842,129243823,0.2110695,4.647672e-05,0.211116,0.2511378,0,2.464532,2.48,NaN,0,-0.0002927035,0,1
96287,129345647,0.2110695,4.647672e-05,0.211116,0.2511378,0,2.461461,2.48,NaN,0,-0.00363867,0,1
96702,129446599,0.1052905,2.320856e-05,0.1053137,0.2511378,0,2.460149,2.56,NaN,0,-0.004950926,0,1
97147,129550035,0,0,0,0.2511378,0,2.459363,2.43,NaN,0,-0.00592725,0,1
97592,129651438,0,0,0,0.2511378,0,2.459024,2.62,NaN,0,-0.006266758,0,1
98033,129753701,0,0,0,0.2511378,0,2.460787,2.51,NaN,0,-0.00468652,0,1
98480,129854070,0,0,0,0.2511378,0,2.463784,2.57,NaN,0,-0.001689836,0,1
98893,129955563,0,0,0,0.2511378,0,2.466728,2.55,NaN,0,0.001254633,0,1
99337,130056357,0,0,0,0.2511378,0,2.469694,2.64,NaN,0,0.004845694,0,2
99748,130156776,0,0,0,0.2511378,0,2.47292,2.44,NaN,0,0.008072451,0,2
100196,130256928,0,0,0,0.2511378,0,2.476112,2.5,NaN,0,0.01126368,0,2
100640,130359098,0,0,0,0.2511378,0,2.476732,2.45,NaN,0,0.01169379,0,2
101090,130460810,0,0,0,0.2511378,0,2.477205,2.74,NaN,0,0.0121661,0,2
101535,130563859,0,0,0,0.2511378,0,2.477918,2.65,NaN,0,0.01269586,0,2
101986,130664202,0,0,0,0.2511378,0,2.480005,2.74,NaN,0,0.01478346,0,2
102428,130766225,0,0,0,0.2511378,0,2.482309,2.85,NaN,0,0.01690371,0,2
102846,130867483,0,0,0,0.2511378,0,2.486232,2.77,NaN,0,0.02082737,0,2
103248,130969359,0,0,0,0.2511378,0,2.488879,2.79,NaN,0,0.02328308,0,2
103675,131069853,0,0,0,0.2511378,0,2.492465,2.68,NaN,0,0.02686985,0,2
104113,131171692,0,0,0,0.2511378,2.494276,2.494276,2.7,NaN,0,0.02849729,2,2
104560,131274309,0,0,0,0.2511378,2.496429,2.496429,2.72,NaN,0,0.02984913,2,2
105006,131378410,0,0,0,0.2511378,2.497231,2.497231,2.71,NaN,0,0.03065141,2,2
105453,131481302,0,0,0,0.2511378,2.499336,2.499336,2.69,NaN,0,0.03256495,2,2
105863,131585820,0,0,0,0.2511378,2.500433,2.500433,2.79,NaN,0,0.03366239,2,2
106312,131689286,0,0,0,0.2511378,2.503336,2.503336,2.68,NaN,0,0.03629096,2,2
106723,131790682,0,0,0,0.2511378,2.506011,2.506011,2.66,NaN,0,0.03896554,2,2
107173,131891586,0,0,0,0.2511378,2.509409,2.509409,2.87,NaN,0,0.04218109,2,2
107617,131994437,0,0,0,0.2511378,2.512144,2.512144,2.79,NaN,0,0.04491599,2,2
108025,132095392,0,0,0,0.2511378,2.515734,2.515734,2.83,NaN,0,0.04840668,2,2
108466,132198244,0,0,0,0.2511378,2.517214,2.517214,2.81,NaN,0,0.04988678,2,2
108912,132298331,0,0,0,0.2511378,2.520334,2.520334,2.64,NaN,0,0.05300672,2,2
109326,132400203,0,0,0,0.2511378,2.5234,2.5234,2.76,NaN,0,0.05427201,2,2
109765,132503670,0,0,0,0.2511378,2.527696,2.527696,2.96,NaN,0,0.05829294,2,2
110213,132605192,0,0,0,0.2511378,2.534003,2.534003,2.72,NaN,0,0.0646003,2,2
110626,132707695,0,0,0,0.2511378,2.540506,2.540506,2.73,NaN,0,0.07092054,2,2
111075,132811389,0,0,0,0.2511378,2.547448,2.547448,2.67,NaN,0,0.07786258,2,2
111515,132915861,0,0,0,0.2511378,2.553409,2.553409,2.78,NaN,0,0.08363231,2,2
111963,133019445,0,0,0,0.2511378,2.557738,2.557738,2.55,NaN,0,0.08796103,2,2
112406,133121625,0,0,0,0.2511378,2.56181,2.56181,2.59,NaN,0,0.09203417999999999,2,2
112822,133224313,0,0,0,0.2511378,2.565807,2.565807,2.36,NaN,0,0.09584744000000001,2,2
113262,133325782,0,0,0,0.2511378,2.566853,2.566853,2.59,NaN,0,0.09607728,2,2
113689,133427198,0,0,0,0.2511378,2.565943,2.565943,2.47,NaN,0,0.09498389,2,2
114113,133529455,0,0,0,0.2511378,2.565235,2.565235,2.4,NaN,0,0.09427555,2,2
114530,133631381,0,0,0,0.2511378,2.563818,2.563818,2.41,NaN,0,0.09285863,2,2
114971,133732260,0,0,0,0.2511378,2.560463,2.560463,2.4,NaN,0,0.08931310000000001,2,2
115388,133834475,0,0,0,0.2511378,2.555957,2.555957,2.43,NaN,0,0.08480675999999999,2,2
115827,133937644,0,0,0,0.2511378,2.55133,2.55133,2.5,NaN,0,0.07999713999999999,2,2
116274,134040701,0,0,0,0.2511378,2.547725,2.547725,2.46,NaN,0,0.07478268,2,2
116714,134144296,0,0,0,0.2511378,2.546056,2.546056,2.5,NaN,0,0.0729297,2,2
117159,134247177,0,0,0,0.2511378,2.545524,2.545524,2.27,NaN,0,0.0723985,2,2
117572,134351281,0,0,0,0.2511378,2.5436,2.5436,2.54,NaN,0,0.07029112,2,2
118015,134453240,0,0,0,0.2511378,2.542466,2.542466,2.63,NaN,0,0.07075961,2,2
118459,134556182,0,0,0,0.2511378,2.541535,2.541535,2.66,NaN,0,0.06982811,2,2
118905,134657594,0,0,0,0.2511378,2.542126,2.542126,2.57,NaN,0,0.07041891,2,2
119317,134761838,0,0,0,0.2511378,2.544681,2.544681,2.54,NaN,0,0.07297452,2,2
119766,134864025,0,0,0,0.2511378,2.547924,2.547924,2.4,NaN,0,0.07621677,3,3
120206,134966788,0,0,0,0.2511378,2.549193,2.549193,2.41,NaN,0,0.07748611,3,3
120625,135070287,0,0,0,0.2511378,2.550188,2.550188,2.52,NaN,0,0.07848151,3,3
121067,135172047,0,0,0,0.2511378,2.551709,2.551709,2.65,NaN,0,0.08000214,3,3
121483,135274318,0,0,0,0.2511378,2.554346,2.554346,2.44,NaN,0,0.08121974999999999,3,3
121930,135377491,0,0,0,0.2511378,2.558161,2.558161,2.72,NaN,0,0.08485181999999999,3,3
122378,135479189,0,0,0,0.2511378,2.562749,2.562749,2.62,NaN,0,0.08834894,3,3
122822,135580457,0,0,0,0.2511378,2.569168,2.569168,2.63,NaN,0,0.09476788,4,4
123237,135683575,0,0,0,0.2511378,2.576044,2.576044,2.46,NaN,0,0.1008349,4,4
123665,135788102,0,0,0,0.2511378,2.581411,2.581411,2.65,NaN,0,0.1062022,4,4
124093,135888888,0,0,0,0.2511378,2.586608,2.586608,2.75,NaN,0,0.1112166,4,4
124502,135993475,0,0,0,0.2511378,2.592276,2.592276,2.52,NaN,0,0.1168841,4,4
124947,136096622,0,0,0,0.2511378,2.598005,2.598005,2.79,NaN,0,0.1226133,4,4
125393,136199390,0,0,0,0.2511378,2.605168,2.605168,2.75,NaN,0,0.1297763,5,5
125839,136302825,0,0,0,0.2511378,2.612596,2.612596,2.75,NaN,0,0.137204,5,5
126286,136407003,0,0,0,0.2511378,2.618708,2.618708,2.64,NaN,0,0.1433168,5,5
126731,136510180,0,0,0,0.2511378,2.624573,2.624573,2.7,NaN,0,0.149181,5,5
127176,136614268,0,0,0,0.2511378,2.627662,2.627662,2.78,NaN,0,0.1522702,5,5
127587,136717052,0,0,0,0.2511378,2.63202,2.63202,2.68,NaN,0,0.1566287,5,5
128038,136819182,0,0,0,0.2511378,2.635404,2.635404,2.7,NaN,0,0.1600126,5,5
128448,136923190,0,0,0,0.2511378,2.638243,2.638243,2.62,NaN,0,0.1628509,5,5
128896,137024469,0,0,0,0.2511378,2.639854,2.639854,2.87,NaN,0,0.1644626,5,5
129340,137127221,0,0,0,0.2511378,2.641464,2.641464,2.81,NaN,0,0.1658891,5,5
129788,137230454,0,0,0,0.2511378,2.641644,2.641644,2.74,NaN,0,0.1660689,5,5
130233,137333037,0,0,0,0.2511378,2.643398,2.643398,2.57,NaN,0,0.1676327,5,5
130679,137435184,0,0,0,0.2511378,2.644891,2.644891,2.63,NaN,0,0.1691259,5,5
131122,137537671,0,0,0,0.2511378,2.647568,2.647568,2.64,NaN,0,0.1716195,5,5
131570,137639679,0,0,0,0.2511378,2.651,2.651,2.38,NaN,0,0.1750515,5,5
132012,137744311,0,0,0,0.2511378,2.652243,2.652243,2.63,NaN,0,0.1744862,5,5
132463,137847032,0,0,0,0.2511378,2.653137,2.653137,2.59,NaN,0,0.1753801,5,5
132867,137948884,0,0,0,0.2511378,2.651757,2.651757,2.54,NaN,0,0.1731985,5,5
133293,138050389,0,0,0,0.2511378,2.648222,2.648222,2.53,NaN,0,0.1696642,5,5
133727,138153591,0,0,0,0.2511378,2.644369,2.644369,2.61,NaN,0,0.1656204,5,5
134139,138254604,0,0,0,0.2511378,2.641304,2.641304,2.43,NaN,0,0.1609379,5,5
134584,138357643,0,0,0,0.2511378,2.635899,2.635899,2.61,NaN,0,0.1555331,5,5
135031,138460829,0,0,0,0.2511378,2.633019,2.633019,2.4,NaN,0,0.1526526,4,4
135443,138564484,0,0,0,0.2511378,2.625664,2.625664,2.61,NaN,0,0.1452976,4,4
135890,138665638,0,0,0,0.2511378,2.618697,2.618697,2.57,NaN,0,0.1380561,4,4
136335,138769343,0,0,0,0.2511378,2.612384,2.612384,2.51,NaN,0,0.1317433,4,4
136752,138871171,0,0,0,0.2511378,2.605827,2.605827,2.51,NaN,0,0.1243847,4,4
137192,138973828,0,0,0,0.2511378,2.601262,2.601262,2.51,NaN,0,0.1198204,3,3
137639,139075795,0,0,0,0.2511378,2.598633,2.598633,2.57,NaN,0,0.1171909,4,4
138083,139180081,0,0,0,0.2511378,2.593266,2.593266,2.55,NaN,0,0.1117249,3,3
138532,139282083,0,0,0,0.2511378,2.59102,2.59102,2.49,NaN,0,0.1094785,3,3
138975,139383712,0,0,0,0.2511378,2.587201,2.587201,2.52,NaN,0,0.10566,3,3
139420,139484857,0,0,0,0.2511378,2.585007,2.585007,2.67,NaN,0,0.1034656,3,3
139833,139589634,0,0,0,0.2511378,2.584187,2.584187,2.71,NaN,0,0.1026462,3,3
140278,139691826,0,0,0,0.2511378,2.586131,2.586131,2.54,NaN,0,0.1045898,3,3
140693,139794300,0,0,0,0.2511378,2.585835,2.585835,2.49,NaN,0,0.1041182,3,3
141139,139898432,0,0,0,0.2511378,2.586422,2.586422,2.53,NaN,0,0.1047054,3,3
141567,140000898,0,0,0,0.2511378,2.583835,2.583835,2.5,NaN,0,0.102119,3,3
141990,140104625,0,0,0,0.2511378,2.582152,2.582152,2.51,NaN,0,0.1004353,3,3
142439,140207484,0,0,0,0.2511378,2.580033,2.580033,2.63,NaN,0,0.09831674,3,3
142887,140312276,0,0,0,0.2511378,2.579512,2.579512,2.49,NaN,0,0.0977958,3,3
143336,140414579,0,0,0,0.2511378,2.579336,2.579336,2.71,NaN,0,0.09761913,4,4
143780,140517255,0,0,0,0.2511378,2.58107,2.58107,2.78,NaN,0,0.0993541,4,4
144194,140618965,0,0,0,0.2511378,2.587636,2.587636,2.53,NaN,0,0.1059199,4,4
144597,140721089,0,0,0,0.2511378,2.593324,2.593324,2.65,NaN,0,0.1116079,4,4
145006,140823103,0,0,0,0.2511378,2.597892,2.597892,2.51,NaN,0,0.1159843,4,4
145382,140926826,0,0,0,0.2511378,2.601295,2.601295,2.6,NaN,0,0.1193875,4,4
145790,141028017,0,0,0,0.2511378,2.60396,2.60396,2.63,NaN,0,0.1222437,4,4
146193,141130617,0,0,0,0.2511378,2.607144,2.607144,2.5,NaN,0,0.1254276,4,4
146605,141233337,0,0,0,0.2511378,2.608595,2.608595,2.47,NaN,0,0.1268786,4,4
147005,141335663,0,0,0,0.2511378,2.607854,2.607854,2.59,NaN,0,0.1261376,4,4
147384,141438304,0,0,0,0.2511378,2.607067,2.607067,2.42,NaN,0,0.1253503,4,4
147783,141540401,0,0,0,0.2511378,2.605536,2.605536,2.17,NaN,0,0.1238197,4,4
148164,141641035,0,0,0,0.2511378,2.600205,2.600205,2.27,NaN,0,0.1184886,4,4
148569,141743239,0,0,0,0.2511378,2.591981,2.591981,2.57,NaN,0,0.1102651,4,4
148974,141844318,0,0,0,0.2511378,2.585499,2.585499,2.34,NaN,0,0.1044005,4,4
149376,141947251,0,0,0,0.2511378,2.578678,2.578678,2.54,NaN,0,0.09757932,4,4
149785,142050276,0,0,0,0.2511378,2.571629,2.571629,2.46,NaN,0,0.09053071,4,4
150159,142153886,0,0,0,0.2511378,2.567403,2.567403,2.48,NaN,0,0.08763941,4,4
150571,142257278,0,0,0,0.2511378,2.563508,2.563508,2.42,NaN,0,0.0837446,4,4
150974,142362318,0,0,0,0.2511378,2.561123,2.561123,2.59,NaN,0,0.08135969999999999,4,4
151381,142465223,0,0,0,0.2511378,2.56043,2.56043,2.57,NaN,0,0.08066661999999999,4,4
151785,142567675,0,0,0,0.2511378,2.5614,2.5614,2.67,NaN,0,0.08163674,4,4
152192,142670443,0,0,0,0.2511378,2.564755,2.564755,2.33,NaN,0,0.08499201000000001,4,4
152598,142775639,0,0,0,0.2511378,2.56525,2.56525,2.58,NaN,0,0.0854872,4,4
153004,142878649,0,0,0,0.2511378,2.565888,2.565888,2.54,NaN,0,0.08612425999999999,4,4
153408,142981668,0,0,0,0.2511378,2.568749,2.568749,2.55,NaN,0,0.08926804000000001,4,4
153816,143084104,0,0,0,0.2511378,2.572065,2.572065,2.68,NaN,0,0.09258397,4,4
154219,143186794,0,0,0,0.2511378,2.57572,2.57572,2.69,NaN,0,0.09723026999999999,4,4
154630,143288443,0,0,0,0.2511378,2.581325,2.581325,2.24,NaN,0,0.1028355,5,5
155033,143390437,0,0,0,0.2511378,2.583556,2.583556,2.27,NaN,0,0.1050673,5,5
155412,143490640,0,0,0,0.2511378,2.582951,2.582951,2.03,NaN,0,0.1046448,5,5
155814,143593869,0,0,0,0.2511378,2.574736,2.574736,2.37,NaN,0,0.0964299,4,4
156215,143695653,0,0,0,0.2511378,2.568132,2.568132,2.24,NaN,0,0.09153493,4,4
156623,143799061,0,0,0,0.2511378,2.561097,2.561097,2.32,NaN,0,0.08450015,4,4
157027,143900716,0,0,0,0.2511378,2.555593,2.555593,2.26,NaN,0,0.0789953,4,4
157429,144003809,0,0,0,0.2511378,2.54994,2.54994,2.24,NaN,0,0.07424314,4,4
157809,144111992,0,0,0,0.2511378,2.543134,2.543134,2.41,NaN,0,0.06825383,4,4
158216,144215804,0,0,0,0.2511378,2.535802,2.535802,2.22,NaN,0,0.06092174,4,4
158620,144320073,0,0,0,0.2511378,2.528345,2.528345,2.39,NaN,0,0.05346401,4,4
159025,144423258,0,0,0,0.2511378,2.522471,2.522471,2.15,NaN,0,0.04777367,4,4
159398,144525794,0,0,0,0.2511378,2.515174,2.515174,2.47,NaN,0,0.04065998,4,4
159804,144628239,0,0,0,0.2511378,2.510027,2.510027,2.4,NaN,0,0.0371228,4,4
160207,144731824,0,0,0,0.2511378,2.505999,2.505999,1.93,NaN,0,0.03328522,3,3
160614,144834555,0,0,0,0.2511378,2.49723,2.49723,1.84,NaN,0,0.02532513,3,3
161015,144937425,0,0,0,0.2511378,2.484951,2.484951,2.17,NaN,0,0.01332052,3,3
161420,145040079,0,0,0,0.2511378,2.471582,2.471582,1.93,NaN,0,0.001569107,3,3
161822,145143862,0,0,0,0.2511378,2.456326,2.456326,2.06,NaN,0,-0.01287834,3,3
162230,145246435,0,0,0,0.2511378,2.443791,2.443791,2.28,NaN,0,-0.02523033,3,3
162636,145350416,0,0,0,0.2511378,2.431537,2.431537,2.11,NaN,0,-0.03585951,3,3
163043,145452312,0,0,0,0.2511378,2.421849,2.421849,2.42,NaN,0,-0.04546301,3,3
163444,145555862,0,0,0,0.2511378,2.413126,2.413126,2.45,NaN,0,-0.05337779,3,3
163850,145658446,0,0,0,0.2511378,2.408627,2.408627,2.24,NaN,0,-0.05787699,3,3
164226,145760671,0,0,0,0.2511378,2.405296,2.405296,2.3,NaN,0,-0.06039874,3,3
164631,145863326,0,0,0,0.2511378,2.402138,2.402138,2.39,NaN,0,-0.06174867,2,2
165032,145966842,0,0,0,0.2511378,2.400209,2.400209,2.47,NaN,0,-0.06367724,2,2
165438,146068648,0,0,0,0.2511378,2.399806,2.399806,2.41,NaN,0,-0.06327215999999999,2,2
165840,146173860,0,0,0,0.2511378,2.401044,2.401044,2.37,NaN,0,-0.06203429,2,2
166248,146276464,0,0,0,0.2511378,2.402512,2.402512,2.56,NaN,0,-0.0589482,2,2
166651,146378669,0,0,0,0.2511378,2.405347,2.405347,2.55,NaN,0,-0.05583851,3,3
167056,146479822,0,0,0,0.2511378,2.409966,2.409966,2.46,NaN,0,-0.05041115,3,3
167458,146582721,0,0,0,0.2511378,2.414405,2.414405,2.43,NaN,0,-0.0441715,3,3
167863,146685214,0,0,0,0.2511378,2.418895,2.418895,2.55,NaN,0,-0.03849904,3,3
168239,146786436,0,0,0,0.2511378,2.424134,2.424134,2.74,NaN,0,-0.03307645,3,3
168644,146888699,0,0,0,0.2511378,2.432138,2.432138,2.54,NaN,0,-0.02408092,3,3
169046,146991814,0,0,0,0.2511378,2.438478,2.438478,2.39,NaN,0,-0.01755802,3,3
169451,147093298,0,0,0,0.2511378,2.44463,2.44463,2.61,NaN,0,-0.009597704,3,3
169855,147195479,0,0,0,0.2511378,2.450821,2.450821,2.63,NaN,0,-0.000805065,3,3
170256,147297824,0,0,0,0.2511378,2.45767,2.45767,2.59,NaN,0,0.007126883,3,3
170663,147399395,0,0,0,0.2511378,2.463413,2.463413,2.77,NaN,0,0.01467855,3,3
171036,147501594,0,0,0,0.2511378,2.470935,2.470935,2.57,NaN,0,0.02310045,4,4
171442,147603081,0,0,0,0.2511378,2.47562,2.47562,2.53,NaN,0,0.02878459,3,3
171845,147705031,0,0,0,0.2511378,2.480693,2.480693,2.62,NaN,0,0.0354677,4,4
172251,147807599,0,0,0,0.2511378,2.485373,2.485373,2.65,NaN,0,0.04123075,3,3
172653,147911569,0,0,0,0.2511378,2.491402,2.491402,2.62,NaN,0,0.04745133,4,4
173058,148012234,0,0,0,0.2511378,2.497088,2.497088,2.57,NaN,0,0.05556305,4,4
173459,148114623,0,0,0,0.2511378,2.503671,2.503671,2.57,NaN,0,0.06313784,4,4
173866,148217642,0,0,0,0.2511378,2.510046,2.510046,2.54,NaN,0,0.06969555,4,4
174269,148319326,0,0,0,0.2511378,2.515926,2.515926,2.67,NaN,0,0.07719333,4,4
174676,148421331,0,0,0,0.2511378,2.521013,2.521013,2.56,NaN,0,0.08247145,4,4
175077,148525851,0,0,0,0.2511378,2.526869,2.526869,2.72,NaN,0,0.08931119999999999,4,4
175455,148627247,0,0,0,0.2511378,2.53363,2.53363,2.73,NaN,0,0.09788068,4,4
175858,148730271,0,0,0,0.2511378,2.541749,2.541749,2.82,NaN,0,0.1068004,4,4
176264,148831559,0,0,0,0.2511378,2.550899,2.550899,2.81,NaN,0,0.1163243,4,4
176634,148934323,0,0,0,0.2511378,2.561618,2.561618,2.61,NaN,0,0.1288443,5,5
177040,149035079,0,0,0,0.2511378,2.570493,2.570493,2.77,NaN,0,0.1380008,5,5
177440,149137722,0,0,0,0.2511378,2.579337,2.579337,2.64,NaN,0,0.1484557,5,5
177847,149240279,0,0,0,0.2511378,2.58792,2.58792,2.63,NaN,0,0.1572212,5,5
178250,149343615,0,0,0,0.2511378,2.594389,2.594389,2.58,NaN,0,0.1653994,5,5
178657,149444422,0,0,0,0.2511378,2.599676,2.599676,2.38,NaN,0,0.171495,5,5
179055,149547656,0,0,0,0.2511378,2.602386,2.602386,2.32,NaN,0,0.1768146,5,5
179461,149649337,0,0,0,0.2511378,2.602838,2.602838,2.62,NaN,0,0.1791578,5,5
179864,149752592,0,0,0,0.2511378,2.605216,2.605216,2.46,NaN,0,0.1833294,5,5
180270,149853872,0,0,0,0.2511378,2.608543,2.608543,2.59,NaN,0,0.1882809,5,5
180644,149957086,0,0,0,0.2511378,2.614091,2.614091,2.51,NaN,0,0.194821,5,5
181049,150060359,0,0,0,0.2511378,2.620636,2.620636,2.23,NaN,0,0.2015498,5,5
181452,150163650,0,0,0,0.2511378,2.622985,2.622985,2.5,NaN,0,0.2055157,5,5
181858,150263630,0,0,0,0.2511378,2.623989,2.623989,2.49,NaN,0,0.2071453,6,6
182262,150366687,0,0,0,0.2511378,2.626541,2.626541,2.32,NaN,0,0.2098802,6,6
182671,150470192,0,0,0,0.2511378,2.627632,2.627632,2.64,NaN,0,0.2129551,6,6
183045,150572072,0,0,0,0.2511378,2.63007,2.63007,2.49,NaN,0,0.2155765,6,6
183452,150674659,0,0,0,0.2511378,2.632977,2.632977,2.52,NaN,0,0.2194753,6,6
183853,150776417,0,0,0,0.2511378,2.637146,2.637146,2.38,NaN,0,0.2246431,6,6
184259,150877614,0,0,0,0.2511378,2.640153,2.640153,2.46,NaN,0,0.2279249,6,6
184661,150980425,0,0,0,0.2511378,2.642244,2.642244,2.31,NaN,0,0.2318166,6,6
185066,151081817,0,0,0,0.2511378,2.642512,2.642512,2.39,NaN,0,0.2321838,6,6
185465,151184694,0,0,0,0.2511378,2.642424,2.642424,2.72,NaN,0,0.2320953,6,6
185871,151286594,0,0,0,0.2511378,2.644152,2.644152,2.4,NaN,0,0.234808,6,6
186273,151388905,0,0,0,0.2511378,2.642351,2.642351,2.31,NaN,0,0.2330068,6,6
186681,151489722,0,0,0,0.2511378,2.640328,2.640328,2.57,NaN,0,0.2312582,6,6
187056,151592857,0,0,0,0.2511378,2.634416,2.634416,2.47,NaN,0,0.2269712,6,6
187463,151693488,0,0,0,0.2511378,2.631666,2.631666,2.58,NaN,0,0.224397,6,6
187865,151795031,0,0,0,0.2511378,2.631189,2.631189,2.24,NaN,0,0.2247291,6,6
188270,151896608,0,0,0,0.2511378,2.630089,2.630089,2.33,NaN,0,0.2238193,6,6
188672,151999824,0,0,0,0.2511378,2.627905,2.627905,2.24,NaN,0,0.2216357,6,6
189073,152103398,0,0,0,0.2511378,2.625743,2.625743,2.41,NaN,0,0.2212745,6,6
189480,152205028,0,0,0,0.2511378,2.623386,2.623386,2.52,NaN,0,0.2189177,6,6
189882,152307691,0,0,0,0.2511378,2.623676,2.623676,2.35,NaN,0,0.2192071,6,6
190288,152408847,0,0,0,0.2511378,2.624273,2.624273,2.58,NaN,0,0.2199798,6,6
190663,152512011,0,0,0,0.2511378,2.626009,2.626009,2.56,NaN,0,0.222524,6,6
191069,152614486,0,0,0,0.2511378,2.629403,2.629403,2.33,NaN,0,0.2261015,6,6
191473,152717460,0,0,0,0.2511378,2.631969,2.631969,2.43,NaN,0,0.2286673,6,6
191879,152819354,0,0,0,0.2511378,2.633588,2.633588,2.54,NaN,0,0.2304695,6,6
192280,152922368,0,0,0,0.2511378,2.635209,2.635209,2.44,NaN,0,0.2320903,6,6
192491,153023939,0,0,0,0.2511378,2.637258,2.637258,2.64,NaN,0,0.2341393,6,6
192866,153126131,0,0,0,0.2511378,2.640397,2.640397,2.69,NaN,0,0.2382704,6,6
193277,153228323,0,0,0,0.2511378,2.644292,2.644292,2.56,NaN,0,0.2421654,6,6
193655,153331582,0,0,0,0.2511378,2.647541,2.647541,2.81,NaN,0,0.2454139,7,7
194060,153434248,0,0,0,0.2511378,2.652464,2.652464,2.81,NaN,0,0.2503377,8,8
194464,153536635,0,0,0,0.2511378,2.657848,2.657848,2.65,NaN,0,0.2559047,6,6
194872,153637878,0,0,0,0.2511378,2.660273,2.660273,2.61,NaN,0,0.2583297,6,6
195273,153741195,0,0,0,0.2511378,2.658827,2.658827,2.66,NaN,0,0.2571653,6,6
195680,153841922,0,0,0,0.2511378,2.656687,2.656687,2.59,NaN,0,0.2568188,6,6
196059,153944718,0,0,0,0.2511378,2.654036,2.654036,2.68,NaN,0,0.2541679,5,5
196469,154047723,0,0,0,0.2511378,2.651042,2.651042,2.64,NaN,0,0.2509983,5,5
196877,154152284,0,0,0,0.2511378,2.650365,2.650365,2.65,NaN,0,0.2500387,5,5
197289,154255275,0,0,0,0.2511378,2.64986,2.64986,2.6,NaN,0,0.249168,5,5
197693,154357560,0,0,0,0.2511378,2.651366,2.651366,2.55,NaN,0,0.2506738,5,5
198102,154459856,0,0,0,0.2511378,2.653306,2.653306,2.66,NaN,0,0.2534226,5,5
198481,154562945,0,0,0,0.2511378,2.655605,2.655605,2.61,NaN,0,0.2573314,5,5
198895,154665793,0,0,0,0.2511378,2.657808,2.657808,2.38,NaN,0,0.2605336,5,5
199273,154769563,0,0,0,0.2511378,2.657723,2.657723,2.48,NaN,0,0.2604488,5,5
199685,154872015,0,0,0,0.2511378,2.6566,2.6566,2.69,NaN,0,0.2609435,5,5
200092,154975032,0,0,0,0.2511378,2.657538,2.657538,2.54,NaN,0,0.2626894,5,5
200476,155078562,0,0,0,0.2511378,2.658858,2.658858,2.79,NaN,0,0.2641855,5,5
200883,155183213,0,0,0,0.2511378,2.661283,2.661283,2.68,NaN,0,0.267701,5,5
201294,155284687,0,0,0,0.2511378,2.66542,2.66542,2.72,NaN,0,0.271838,5,5
201673,155388310,0,0,0,0.2511378,2.667751,2.667751,2.7,NaN,0,0.2741688,5,5
202085,155491070,0,0,0,0.2511378,2.671864,2.671864,2.49,NaN,0,0.278282,5,5
202208,156396591,0,0,0,0.2511378,2.67978,2.67978,2.63,NaN,0,0.009780066,5,5
202622,156496784,0,0,0,0.2511378,2.684543,2.684543,2.95,NaN,0,0.01454343,5,5
203042,156601365,0,0,0,0.2511378,2.688015,2.688015,2.89,NaN,0,0.01829018,5,5
203458,156703856,0,0,0,0.2511378,2.69243,2.69243,2.85,NaN,0,0.02270426,5,5
203910,156807205,0,0,0,0.2511378,2.695683,2.695683,2.57,NaN,0,0.02614154,5,5
204325,156908872,0,0,0,0.2511378,2.699524,2.699524,2.78,NaN,0,0.02998199,5,5
204774,157014026,0,0,0,0.2511378,2.703245,2.703245,2.83,NaN,0,0.03550352,5,5
205191,157116716,0,0,0,0.2511378,2.707852,2.707852,2.7,NaN,0,0.04011072,5,5
205642,157218614,0,0,0,0.2511378,2.709215,2.709215,2.54,NaN,0,0.04147305,5,5
206090,157321273,0,0,0,0.2511378,2.71125,2.71125,2.47,NaN,0,0.04350795,5,5
206511,157424306,0,0,0,0.2511378,2.711425,2.711425,2.58,NaN,0,0.04368319,5,5
206955,157528623,0,0,0,0.2511378,2.712229,2.712229,2.49,NaN,0,0.04467072,5,5
207393,157630691,0,0,0,0.2511378,2.71384,2.71384,2.64,NaN,0,0.04628147,5,5
207827,157734419,0,0,0,0.2511378,2.715692,2.715692,2.4,NaN,0,0.04813327,5,5
208279,157836868,0,0,0,0.2511378,2.716828,2.716828,2.39,NaN,0,0.05026163,5,5
208696,157940245,0,0,0,0.2511378,2.717436,2.717436,2.2,NaN,0,0.05086912,5,5
209148,158041706,0,0,0,0.2511378,2.71669,2.71669,2.37,NaN,0,0.05030622,5,5
209592,158146476,0,0,0,0.2511378,2.715124,2.715124,2.22,NaN,0,0.04874004,5,5
210043,158248652,0,0,0,0.2511378,2.714061,2.714061,2.44,NaN,0,0.04767765,5,5
210456,158351205,0,0,0,0.2511378,2.713411,2.713411,2.13,NaN,0,0.04722585,5,5
210911,158453603,0,0,0,0.2511378,2.713753,2.713753,2.09,NaN,0,0.04756822,5,5
211360,158557947,0,0,0,0.2511378,2.712266,2.712266,2.08,NaN,0,0.04608144,5,5
211785,158661357,0,0,0,0.2511378,2.708544,2.708544,2.27,NaN,0,0.04335083,5,5
212219,158764864,0,0,0,0.2511378,2.706496,2.706496,2.32,NaN,0,0.04130329,5,5
212651,158868621,0,0,0,0.2511378,2.705312,2.705312,2.55,NaN,0,0.04011835,5,5
213095,158972454,0,0,0,0.2511378,2.703421,2.703421,2.75,NaN,0,0.03841104,5,5
213548,159075820,0,0,0,0.2511378,2.702356,2.702356,2.64,NaN,0,0.03734578,5,5
213963,159181208,0,0,0,0.2511378,2.701775,2.701775,2.52,NaN,0,0.03694762,4,4
214416,159284010,0,0,0,0.2511378,2.70265,2.70265,2.71,NaN,0,0.03782238,5,5
214863,159388276,0,0,0,0.2511378,2.702983,2.702983,2.55,NaN,0,0.03975834,5,5
215315,159490214,0,0,0,0.2511378,2.704448,2.704448,2.94,NaN,0,0.04122342,4,4
215734,159594559,0,0,0,0.2511378,2.706345,2.706345,2.56,NaN,0,0.04312004,5,5
216185,159698267,0,0,0,0.2511378,2.70927,2.70927,2.59,NaN,0,0.04604568,5,5
216634,159801280,0,0,0,0.2511378,2.711868,2.711868,3.04,NaN,0,0.04891743,4,4
217080,159903674,0,0,0,0.2511378,2.716478,2.716478,2.79,NaN,0,0.05352773,5,5
217272,160005595,0,0,0,0.2511378,2.720226,2.720226,2.73,NaN,0,0.05727591,5,5
217704,160108488,0,0,0,0.2511378,2.724734,2.724734,2.9,NaN,0,0.06178392,4,4
218156,160210864,0,0,0,0.2511378,2.728041,2.728041,2.77,NaN,0,0.06509031,5,5
218576,160316692,0,0,0,0.2511378,2.732084,2.732084,2.86,NaN,0,0.06913365,5,5
219031,160419862,0,0,0,0.2511378,2.73323,2.73323,2.74,NaN,0,0.07046284,4,4
219480,160523213,0,0,0,0.2511378,2.734806,2.734806,2.93,NaN,0,0.07203878,5,5
219935,160625681,0,0,0,0.2511378,2.734674,2.734674,2.95,NaN,0,0.07190646000000001,5,5
220354,160729622,0,0,0,0.2511378,2.736797,2.736797,2.9,NaN,0,0.07485427,4,4
220807,160833334,0,0,0,0.2511378,2.739049,2.739049,2.73,NaN,0,0.07710589,5,5
221224,160937721,0,0,0,0.2511378,2.740614,2.740614,2.84,NaN,0,0.0786704,4,4
221679,161040087,0,0,0,0.2511378,2.741744,2.741744,2.57,NaN,0,0.07980122000000001,5,5
222116,161144391,0,0,0,0.2511378,2.742288,2.742288,2.78,NaN,0,0.08043589,4,4
222549,161246841,0,0,0,0.2511378,2.743832,2.743832,2.71,NaN,0,0.08198012,4,4
222957,161350431,0,0,0,0.2511378,2.744846,2.744846,2.89,NaN,0,0.08299412,5,5
223408,161453255,0,0,0,0.2511378,2.746658,2.746658,2.67,NaN,0,0.08480586,4,4
223858,161557099,0,0,0,0.2511378,2.748411,2.748411,2.54,NaN,0,0.08655895,4,4
224311,161659373,0,0,0,0.2511378,2.749389,2.749389,2.7,NaN,0,0.08753766,5,5
224727,161762168,0,0,0,0.2511378,2.749967,2.749967,2.82,NaN,0,0.08829845,4,4
225181,161865787,0,0,0,0.2511378,2.751823,2.751823,2.68,NaN,0,0.09175695,4,4
225631,161969494,0,0,0,0.2511378,2.753496,2.753496,2.78,NaN,0,0.09342994,4,4
226086,162072371,0,0,0,0.2511378,2.755461,2.755461,2.92,NaN,0,0.09539427,4,4
226534,162175791,0,0,0,0.2511378,2.756634,2.756634,2.87,NaN,0,0.096568,4,4
226988,162278699,0,0,0,0.2511378,2.75871,2.75871,2.78,NaN,0,0.09864368,4,4
227422,162381089,0,0,0,0.2511378,2.759114,2.759114,2.85,NaN,0,0.09987177,4,4
227855,162482304,0,0,0,0.2511378,2.7603,2.7603,2.78,NaN,0,0.1013318,4,4
228298,162585441,0,0,0,0.2511378,2.762244,2.762244,2.92,NaN,0,0.1032764,4,4
228751,162688075,0,0,0,0.2511378,2.765352,2.765352,2.75,NaN,0,0.1063842,4,4
229170,162791264,0,0,0,0.2511378,2.770377,2.770377,2.96,NaN,0,0.1131948,5,5
229625,162893883,0,0,0,0.2511378,2.7763,2.7763,3,NaN,0,0.1191174,4,4
230073,162996794,0,0,0,0.2511378,2.780356,2.780356,2.89,NaN,0,0.1231738,4,4
230527,163099612,0,0,0,0.2511378,2.785452,2.785452,2.89,NaN,0,0.1292769,5,5
230971,163205963,0.04124956,1.089275e-05,0.01500199,0.2511378,2.78435,2.78435,2.79,NaN,0,0.1281742,4,4
231420,163310849,0.08999912,1.998991e-05,0.05440404,0.2511378,2.785912,2.785912,2.69,NaN,0,0.1297363,5,5
231872,163416460,0.1399989,3.534555e-05,0.1005603,0.2511378,2.787041,2.787041,2.59,NaN,0,0.1308652,4,4
232289,163524565,0.1899988,4.938245e-05,0.1506147,0.2511378,2.788602,2.788602,2.96,NaN,0,0.1324269,6,6
232726,163628665,0.2399988,6.714463e-05,0.1994838,0.2511378,2.78931,2.78931,3.21,NaN,0,0.1333183,6,6
233157,163735033,0.2874987,9.489059e-05,0.2484505,0.2511378,2.793836,2.793836,2.87,NaN,0,0.1386367,7,7
233606,163839174,0.3374987,0.0001881421,0.2971343,0.2511378,2.802923,2.802923,2.96,NaN,0,0.1469306,14,14
234024,163944467,0.257361,0.0001579821,0.2898157,0.2511378,2.824352,2.828828,3.11,NaN,0,0.1730191,27,38
234478,164050001,0.2697732,5.990267e-05,0.2649009,0.2511378,2.857368,2.878365,3.4,NaN,0,0.2229215,36,55
234927,164157517,0.2557144,2.205372e-06,0.2593087,0.2511378,2.899498,2.942341,2.86,NaN,0,0.2864403,43,65
235378,164263821,0.2557247,0.0001588166,0.2602239,0.2511378,2.951087,3.013637,3.15,NaN,0,0.3558747,49,70
235794,164370044,0.2663875,0.000867635,0.2603017,0.2511378,3.007996,3.087465,2.84,NaN,0,0.428558,53,73
236246,164476395,0.2604743,0.001671314,0.2604139,0.2511378,3.071853,3.161993,2.99,NaN,0,0.5012091,57,72
236683,164583065,0.2565991,0.0021604,0.2619303,0.2511378,3.138549,3.232671,3.02,NaN,0,0.5714449,60,74
237116,164688876,0.258436,0.002276033,0.260743,0.2511378,3.210675,3.304036,3.01,NaN,0,0.6421848999999999,64,74
237560,164796294,0.2646742,0.001941383,0.2646967,0.2511378,3.285847,3.369525,3.05,NaN,0,0.7052628,68,74
238008,164901634,0.2664227,0.001342416,0.26807,0.2511378,3.361632,3.432034,3.17,NaN,0,0.7659713,71,75
238464,165007238,0.2641433,0.0009935199999999999,0.264708,0.2511378,3.441342,3.48933,3.32,NaN,0,0.8230842,75,76
238883,165115493,0.2634628,0.0008362532,0.2632455,0.2511378,3.522491,3.555897,3.31,NaN,0,0.8892843,78,78
239334,165220005,0.2434447,0.0008370727,0.2579767,0.2511378,3.604562,3.624301,3.19,NaN,0,0.956056,79,80
239785,165326453,0.2418911,0.000998348,0.2470245,0.2511378,3.682583,3.691953,3.18,NaN,0,1.023341,77,79
240236,165432352,0.2413307,0.001293138,0.2415491,0.2511378,3.757588,3.755185,3.54,NaN,0,1.086116,72,76
240688,165539195,0.2303495,0.001465112,0.2431395,0.2511378,3.825382,3.815702,3.68,NaN,0,1.146359,67,71
241142,165644991,0.2347895,0.001583591,0.2370581,0.2511378,3.888376,3.878625,3.48,NaN,0,1.209007,60,65
241557,165750873,0.2332782,0.001720935,0.23403,0.2511378,3.941959,3.933439,3.96,NaN,0,1.261654,54,59
242009,165856702,0.2423352,0.001697674,0.2398908,0.2511378,3.992175,3.98284,4.09,NaN,0,1.30988,48,51
242453,165962792,0.2499219,0.001613334,0.2451683,0.2511378,4.036126,4.032842,4.11,NaN,0,1.357715,43,45
242885,166067638,0.2419372,0.00140059,0.2450826,0.2511378,4.076981,4.080853,4.6,NaN,0,1.405177,38,41
243325,166172794,0.2444672,0.00141567,0.2445975,0.2511378,4.113434,4.128841,4.51,NaN,0,1.452509,34,37
243779,166278695,0.2506664,0.001376063,0.2484498,0.2511378,4.14802,4.176377,4.59,NaN,0,1.499312,30,31
244194,166387261,0.2419418,0.00109008,0.2480166,0.2511378,4.179472,4.223834,4.75,NaN,0,1.547822,26,29
244647,166490733,0.234499,0.0007921457,0.2396315,0.2511378,4.209887,4.270677,4.74,NaN,0,1.594741,23,28
245094,166596266,0.2395112,0.0006602705,0.2414126,0.2511378,4.237287,4.314641,4.63,NaN,0,1.640491,20,24
245545,166701222,0.2425201,0.0004974008,0.2414554,0.2511378,4.264833,4.353306,4.55,NaN,0,1.68085,18,22
245990,166807907,0.2444108,0.0004861653,0.2445908,0.2511378,4.290714,4.387099,4.4,NaN,0,1.714902,16,18
246435,166912875,0.2447799,0.0004582107,0.2480562,0.2511378,4.31515,4.414109,4.5,NaN,0,1.743773,15,16
246863,167019082,0.2431046,0.0004069358,0.2435519,0.2511378,4.340179,4.438126,4.39,NaN,0,1.769393,14,16
247309,167124085,0.2447099,0.0004489571,0.2445795,0.2511378,4.363925,4.45842,4.36,NaN,0,1.791548,14,14
247759,167228831,0.2467853,0.000546962,0.2485387,0.2511378,4.387784,4.473828,4.6,NaN,0,1.808818,15,13
248202,167334446,0.2491211,0.0005847215999999999,0.2516121,0.2511378,4.410619,4.488547,4.69,NaN,0,1.823903,15,12
248603,167436212,0.2437027,0.0006289034999999999,0.2500068,0.2511378,4.433637,4.503707,4.47,NaN,0,1.84094,15,13
249039,167542091,0.2474911,0.0006815493,0.2510312,0.2511378,4.455824,4.519643,4.5,NaN,0,1.858921,16,13
249491,167646388,0.257612,0.000675112,0.2548043,0.2511378,4.478364,4.53379,4.52,NaN,0,1.875127,16,12
249938,167751782,0.2555612,0.0004748702,0.2532414,0.2511378,4.500187,4.547482,4.69,NaN,0,1.890254,17,14
250358,167855620,0.2515722,0.0002773404,0.2512464,0.2511378,4.522435,4.563506,4.51,NaN,0,1.910138,18,15
250808,167961391,0.2455574,0.0002326667,0.2464988,0.2511378,4.54349,4.581073,4.48,NaN,0,1.929948,18,17
251265,168066056,0.2420739,0.0002646446,0.2450786,0.2511378,4.565553,4.598678,4.42,NaN,0,1.948972,18,18
251680,168173689,0.2510192,0.0002655089,0.2465714,0.2511378,4.586968,4.615697,4.5,NaN,0,1.967425,19,19
252133,168276799,0.2421498,0.0002697855,0.2458786,0.2511378,4.608934,4.63153,4.57,NaN,0,1.98541,19,19
252580,168382257,0.2502255,0.0002766848,0.2454211,0.2511378,4.630294,4.648529,4.92,NaN,0,2.004652,20,20
253033,168486236,0.2467468,0.0002716482,0.2448759,0.2511378,4.652299,4.669053,4.71,NaN,0,2.025985,20,21
253449,168590864,0.2424257,0.0002779812,0.2446356,0.2511378,4.673729,4.690605,4.57,NaN,0,2.049963,20,21
253901,168696073,0.2373329,0.0002081394,0.2407611,0.2511378,4.695718,4.712396,4.64,NaN,0,2.07418,20,22
254328,168800661,0.2376059,0.0001728982,0.2390365,0.2511378,4.717093,4.731382,4.51,NaN,0,2.096584,20,22
254760,168903983,0.246403,0.0001244545,0.241846,0.2511378,4.738894,4.749578,4.59,NaN,0,2.117207,20,21
255176,169009713,0.2473844,0.0001717806,0.2467114,0.2511378,4.760154,4.765283,4.65,NaN,0,2.13642,21,20
255595,169114358,0.2495208,0.0001604408,0.2491889,0.2511378,4.780875,4.780568,4.72,NaN,0,2.154132,21,19
256042,169217685,0.2506599,0.0001324713,0.2469832,0.2511378,4.802755,4.795424,4.6,NaN,0,2.17178,22,21
256487,169323445,0.2532986,0.0001176298,0.2515078,0.2511378,4.824141,4.808912,4.55,NaN,0,2.187878,23,19
256939,169428040,0.2477522,0.0001180768,0.2495831,0.2511378,4.846045,4.823264,4.54,NaN,0,2.204213,24,21
257389,169534699,0.2459141,0.000111863,0.2488193,0.2511378,4.867357,4.836451,4.62,NaN,0,2.220192,24,22
257808,169639586,0.256276,0.0001593828,0.2503915,0.2511378,4.88917,4.848885,4.78,NaN,0,2.235419,25,22
258255,169745639,0.24692,0.0001832694,0.2493251,0.2511378,4.910038,4.865386,4.59,NaN,0,2.254621,26,24
258705,169851024,0.2438845,0.0002267659,0.2467829,0.2511378,4.932113,4.883885,4.88,NaN,0,2.274188,26,25
259146,169957273,0.244484,0.0003143847,0.244478,0.2511378,4.953712,4.902573,4.55,NaN,0,2.295485,27,26
259580,170061604,0.2453927,0.00032489,0.2464527,0.2511378,4.975993,4.920762,4.62,NaN,0,2.315566,27,27
259993,170166808,0.2440364,0.0003820807,0.2446381,0.2511378,4.997717,4.937797,4.86,NaN,0,2.335394,28,27
260445,170274644,0.252842,0.0005217791,0.2476562,0.2511378,5.020004,4.957786,4.83,NaN,0,2.355565,28,27
260892,170382377,0.2367667,0.0006066114,0.2454997,0.2511378,5.041146,4.978367,4.95,NaN,0,2.377139,28,28
261349,170490491,0.249642,0.0007435828,0.2461157,0.2511378,5.063369,5.002361,4.67,NaN,0,2.401315,28,27
261796,170596852,0.2491632,0.0006787032,0.247703,0.2511378,5.085138,5.023796,4.66,NaN,0,2.422751,28,28
262249,170707275,0.244931,0.0005572736,0.2451724,0.2511378,5.108039,5.045072,4.87,NaN,0,2.443401,28,28
262699,170813571,0.2437841,0.0003997087,0.245699,0.2511378,5.1304,5.063634,4.79,NaN,0,2.460346,28,28
263148,170920065,0.2531374,0.0003884733,0.2493857,0.2511378,5.152728,5.084944,4.79,NaN,0,2.481839,29,27
263601,171025488,0.2484894,0.0005932152,0.2496016,0.2511378,5.175123,5.105083,4.72,NaN,0,2.501168,29,27
264051,171134659,0.2514074,0.0008504689,0.2510092,0.2511378,5.197558,5.12466,4.72,NaN,0,2.519312,29,28
264504,171240232,0.2537401,0.0004779994,0.2510262,0.2511378,5.219985,5.142888,4.94,NaN,0,2.535388,30,28
264946,171347274,0.2591131,0.004233122,0.2602112,0.2511378,5.242362,5.158753,5.06,NaN,0,2.551436,30,26
265381,171451714,0.2519683,0.01092583,0.260781,0.2511378,5.264647,5.176166,4.92,NaN,0,2.570558,31,28
265822,171559660,0.2516023,0.01478791,0.2659474,0.2511378,5.286426,5.19276,5.08,NaN,0,2.591028,31,28
266243,171664951,0.2480721,0.01074088,0.2607497,0.2511378,5.308828,5.213033,5.05,NaN,0,2.620013,32,30
266687,171772294,0.2434128,0.00295727,0.2499403,0.2511378,5.331194,5.233952,5.12,NaN,0,2.653079,32,31
267142,171876587,0.2480594,0.0002518296,0.2536763,0.2511378,5.353586,5.257562,4.96,NaN,0,2.690528,31,30
267557,171984275,0.2460581,0.001650706,0.2503929,0.2511378,5.375377,5.284001,4.85,NaN,0,2.729007,31,31
268006,172090429,0.245381,0.002002865,0.2489827,0.2511378,5.397233,5.312143,5.04,NaN,0,2.768471,30,32
268450,172198017,0.2525439,0.001174778,0.2508258,0.2511378,5.41855,5.334615,4.99,NaN,0,2.80019,30,30
268867,172305264,0.2466307,0.0004488081,0.2502656,0.2511378,5.440417,5.357126,5.38,NaN,0,2.832756,30,31
269317,172410603,0.2513604,0.0001847148,0.248799,0.2511378,5.462289,5.379656,5.43,NaN,0,2.864441,30,30
269766,172516626,0.2508699,0.0001012087,0.2474071,0.2511378,5.484118,5.405039,5.24,NaN,0,2.899697,30,30
270210,172623424,0.2493882,0.0001024753,0.2484605,0.2511378,5.505459,5.428518,5.33,NaN,0,2.932422,30,30
270619,172730466,0.2398525,9.040534e-05,0.2447876,0.2511378,5.526789,5.453056,5.41,NaN,0,2.966208,29,30
271050,172836398,0.2458844,0.0001844019,0.2443348,0.2511378,5.548708,5.478611,5.26,NaN,0,3.000476,29,31
271477,172943286,0.2398533,0.0006242394,0.2435947,0.2511378,5.570124,5.504238,5.21,NaN,0,3.0339,29,31
271892,173049684,0.249988,0.001337215,0.243968,0.2511378,5.591507,5.527492,5.43,NaN,0,3.065164,28,30
272334,173158197,0.2544749,0.001747787,0.2499746,0.2511378,5.612934,5.551641,5.42,NaN,0,3.095493,28,28
272780,173265421,0.2488332,0.001406983,0.2521743,0.2511378,5.634232,5.574682,5.52,NaN,0,3.123203,28,27
273224,173374165,0.2525645,0.0009948312999999999,0.252566,0.2511378,5.655479,5.593801,5.56,NaN,0,3.1469,28,26
273669,173480276,0.2492399,0.0006948411,0.2535993,0.2511378,5.676711,5.613661,5.51,NaN,0,3.169553,28,26
274111,173589818,0.2482945,0.0003861189,0.2503599,0.2511378,5.697843,5.635178,5.6,NaN,0,3.194655,28,27
274526,173696211,0.257388,0.0002589226,0.2526437,0.2511378,5.718936,5.658836,5.59,NaN,0,3.219671,28,26
274967,173805403,0.2457538,0.0002439767,0.2515719,0.2511378,5.739479,5.683095,5.63,NaN,0,3.247608,27,27
275409,173915812,0.2407426,0.0002981275,0.2451963,0.2511378,5.760578,5.710947,5.53,NaN,0,3.278343,27,28
275840,174022407,0.2456878,0.0003422648,0.2448069,0.2511378,5.781747,5.735853,5.72,NaN,0,3.306286,26,29
276236,174129208,0.2375327,0.0004694313,0.2422274,0.2511378,5.802443,5.762413,5.4,NaN,0,3.335897,26,29
276681,174237008,0.2307158,0.0005657226,0.2379884,0.2511378,5.823692,5.786646,5.59,NaN,0,3.363014,26,28
277131,174346051,0.233948,0.0004907846,0.2394417,0.2511378,5.844958,5.810281,5.59,NaN,0,3.387901,25,28
277550,174452854,0.2339777,0.0004332513,0.2373306,0.2511378,5.866232,5.833135,5.65,NaN,0,3.413532,25,29
277991,174561805,0.238281,0.0004349351,0.2386869,0.2511378,5.886392,5.855409,5.65,NaN,0,3.43779,25,27
278438,174668058,0.2499903,0.0005714446,0.2440605,0.2511378,5.907658,5.875941,5.39,NaN,0,3.458688,25,26
278880,174777087,0.2458398,0.0006770343,0.2459268,0.2511378,5.928935,5.892406,5.38,NaN,0,3.476313,26,24
279295,174884655,0.2441261,0.0007503331,0.2474783,0.2511378,5.950198,5.907022,5.67,NaN,0,3.492103,26,24
279741,174993888,0.2411627,0.0007299334,0.2460018,0.2511378,5.97088,5.920301,5.56,NaN,0,3.505734,27,25
280187,175101261,0.2495077,0.0006831884,0.2466905,0.2511378,5.992184,5.935244,5.73,NaN,0,3.522553,28,25
280581,175206987,0.243674,0.0006542802,0.2465791,0.2511378,6.012901,5.949366,6.03,NaN,0,3.536874,28,26
281010,175318442,0.2431329,0.000775978,0.2447193,0.2511378,6.034836,5.971968,5.78,NaN,0,3.559644,28,27
281457,175423650,0.2454032,0.00086312,0.2481401,0.2511378,6.056255,5.992365,5.99,NaN,0,3.580957,29,26
281872,175531689,0.2394539,0.001024365,0.2471673,0.2511378,6.077723,6.014265,6.05,NaN,0,3.602764,28,27
282319,175638460,0.2490013,0.000949204,0.2521025,0.2511378,6.099307,6.035785,5.99,NaN,0,3.625886,29,27
282729,175746732,0.2488705,0.0006181598,0.2538897,0.2511378,6.120811,6.058389,5.99,NaN,0,3.646522,28,27
283174,175855216,0.2500589,0.0003943443,0.2519898,0.2511378,6.142263,6.080691,5.84,NaN,0,3.668824,28,26
283622,175965064,0.2470967,0.00027439,0.2521522,0.2511378,6.163677,6.101693,5.75,NaN,0,3.688743,28,27
284036,176070811,0.2499796,0.0002572834,0.2475781,0.2511378,6.185032,6.121042,5.99,NaN,0,3.706124,28,28
284478,176179229,0.24304,0.0003893673,0.2464742,0.2511378,6.206401,6.140921,5.85,NaN,0,3.725011,29,28
284892,176286810,0.2615486,0.0006722808,0.2499507,0.2511378,6.227725,6.162176,5.7,NaN,0,3.745273,29,27
285319,176395639,0.2482184,0.0007220805,0.2526883,0.2511378,6.249611,6.17877,5.84,NaN,0,3.759091,29,27
285747,176504088,0.2397639,0.0006143749,0.2464116,0.2511378,6.270887,6.196331,5.91,NaN,0,3.774668,29,28
286157,176611221,0.2488165,0.0006854683000000001,0.245004,0.2511378,6.292171,6.214724,5.77,NaN,0,3.792069,30,29
286602,176719320,0.2468149,0.0006920546,0.247604,0.2511378,6.312924,6.233081,5.76,NaN,0,3.808459,30,29
287048,176828097,0.2553833,0.00072065,0.2524811,0.2511378,6.334287,6.250867,5.55,NaN,0,3.825252,30,28
287494,176935821,0.2503686,0.0007018447,0.2514262,0.2511378,6.355727,6.265639,5.71,NaN,0,3.839856,31,29
287942,177043734,0.2586679,0.0006899238,0.2536521,0.2511378,6.377127,6.279309,5.51,NaN,0,3.853526,32,29
288387,177152919,0.246623,0.0006837249,0.2537197,0.2511378,6.399122,6.291791,5.82,NaN,0,3.866009,33,30
288801,177261420,0.2429147,0.0006356537,0.2492027,0.2511378,6.420618,6.306436,5.68,NaN,0,3.881462,34,32
289244,177369425,0.2473224,0.0006207675,0.2499446,0.2511378,6.442072,6.323637,5.57,NaN,0,3.898389,34,32
289693,177475461,0.2401851,0.0005610734,0.2400919,0.2511378,6.463579,6.337852,5.62,NaN,0,3.914479,35,35
290102,177581309,0.230641,0.0006089211,0.2383559,0.2511378,6.484487,6.355886,5.7,NaN,0,3.933506,35,37
290551,177688355,0.2406474,0.0007175654,0.2317547,0.2511378,6.505893,6.373049,5.69,NaN,0,3.953446,35,38
290991,177796054,0.2315721,0.0008621514,0.2366886,0.2511378,6.527231,6.391005,5.85,NaN,0,3.974195,36,37
291442,177908472,0.2254586,0.0009260327,0.2321023,0.2511378,6.54912,6.411657,5.65,NaN,0,3.997624,36,38
291870,178014465,0.2341061,0.001020968,0.228562,0.2511378,6.570425,6.433189,5.49,NaN,0,4.020147,36,38
292299,178127246,0.2289658,0.00110741,0.2293569,0.2511378,6.592839,6.453799,5.64,NaN,0,4.043534,36,38
292745,178234249,0.2257937,0.001237527,0.2289128,0.2511378,6.614143,6.471403,5.6,NaN,0,4.062939,36,38
293192,178342439,0.2368019,0.001491591,0.2342676,0.2511378,6.635398,6.48971,6.11,NaN,0,4.082406,36,36
293608,178448594,0.2343138,0.001619384,0.237571,0.2511378,6.656579,6.504967,5.77,NaN,0,4.098731,37,37
294051,178555856,0.2429158,0.001909167,0.2414485,0.2511378,6.677717,6.521274,5.8,NaN,0,4.115404,37,36
294498,178665565,0.2456129,0.002055556,0.2444142,0.2511378,6.698855,6.537851,5.85,NaN,0,4.132072,38,35
294940,178775025,0.2539367,0.002254426,0.2501457,0.2511378,6.720072,6.552633,5.99,NaN,0,4.148746,39,33
295389,178880829,0.2456677,0.00203827,0.2503125,0.2511378,6.741374,6.567951,6.09,NaN,0,4.16263,39,35
295799,178987870,0.2454267,0.001815632,0.2482913,0.2511378,6.762689,6.586922,6.03,NaN,0,4.181602,40,35
296247,179096267,0.2618123,0.002094895,0.2528183,0.2511378,6.78407,6.608349,6.27,NaN,0,4.203028,40,35
296687,179205190,0.26088,0.002158523,0.2612166,0.2511378,6.805445,6.629142,6.2,NaN,0,4.22283,40,34
297131,179312214,0.2593089,0.001839727,0.2622794,0.2511378,6.826869,6.652397,6.36,NaN,0,4.246084,39,34
297559,179417295,0.2513866,0.001480967,0.2559936,0.2511378,6.848265,6.67431,5.99,NaN,0,4.267723,39,36
297955,179524268,0.2582401,0.001369774,0.2564373,0.2511378,6.8696,6.696072,5.92,NaN,0,4.289225,39,37
298401,179630635,0.2581376,0.001387566,0.2561559,0.2511378,6.890852,6.716843,6.02,NaN,0,4.308745,39,36
298847,179738617,0.2531211,0.001449734,0.2563351,0.2511378,6.912005,6.736189,6.08,NaN,0,4.327909,39,37
299294,179844575,0.250176,0.001532525,0.2527043,0.2511378,6.933107,6.753889,6.15,NaN,0,4.343624,40,39
299738,179953801,0.2578521,0.001716942,0.255321,0.2511378,6.954233,6.774219,6.23,NaN,0,4.36377,40,37
300153,180060457,0.28801,0.002029657,0.2692095,0.2511378,6.97529,6.794853,6,NaN,0,4.384405,40,35
300598,180171816,0.2806415,0.002061576,0.279272,0.2511378,6.996461,6.810693,6.39,NaN,0,4.399894,40,33
301041,180279288,0.2659526,0.001655847,0.2747427,0.2511378,7.017639,6.828468,6.33,NaN,0,4.416495,41,35
301487,180388273,0.2640236,0.001288652,0.2692238,0.2511378,7.038812,6.84832,6.35,NaN,0,4.435996,41,36
301936,180494865,0.266669,0.001060188,0.2672679,0.2511378,7.060131,6.874268,6.54,NaN,0,4.46176,41,38
302362,180604453,0.2575651,0.0008921325,0.2667365,0.2511378,7.081471,6.899035,6.68,NaN,0,4.486161,40,39
302787,180711053,0.2626197,0.0009254515,0.2635931,0.2511378,7.102845,6.928354,6.54,NaN,0,4.515205,39,39
303196,180816716,0.2569447,0.0008299351,0.2607615,0.2511378,7.124227,6.957169,6.72,NaN,0,4.543852,39,40
303642,180924421,0.2591527,0.0009419024,0.2589448,0.2511378,7.145116,6.98678,6.59,NaN,0,4.573188,38,40
304087,181030128,0.2863564,0.00143218,0.2766729,0.2511378,7.166602,7.012587,6.61,NaN,0,4.598995,37,35
304529,181138720,0.2758501,0.001410812,0.2827432,0.2511378,7.188021,7.035942,6.73,NaN,0,4.622076,37,33
304974,181244680,0.2603255,0.001061052,0.2749631,0.2511378,7.209434,7.061639,6.59,NaN,0,4.647422,37,35
305384,181353857,0.2542318,0.0007311106,0.2621464,0.2511378,7.230731,7.088271,6.73,NaN,0,4.673871,36,38
305832,181460817,0.2460784,0.000681892,0.2504122,0.2511378,7.251989,7.116998,6.96,NaN,0,4.703223,35,41
306242,181568971,0.2597711,0.0008004904,0.2535482,0.2511378,7.273201,7.147871,7.04,NaN,0,4.735715,34,39
306690,181676168,0.2527944,0.0007143915,0.2532078,0.2511378,7.294363,7.179516,6.83,NaN,0,4.767084,33,38
307132,181784427,0.2454541,0.0007031261999999999,0.2490315,0.2511378,7.315585,7.212948,7.12,NaN,0,4.80131,32,38
307580,181892092,0.2577068,0.0008744001,0.2539581,0.2511378,7.336756,7.245556,7.07,NaN,0,4.835001,31,35
308022,181999667,0.26315,0.0009234846,0.2588775,0.2511378,7.357362,7.275723,6.97,NaN,0,4.866511,30,32
308469,182105674,0.2565461,0.0008682907,0.2599216,0.2511378,7.378517,7.302605,7.15,NaN,0,4.893393,29,30
308910,182213014,0.2679511,0.0009694099000000001,0.2618704,0.2511378,7.39965,7.326841,7.23,NaN,0,4.918697,29,30
309321,182321374,0.2647259,0.0009426773,0.2652097,0.2511378,7.420962,7.350778,7.49,NaN,0,4.944252,29,28
309770,182427313,0.2587124,0.0009630919,0.2618119,0.2511378,7.442239,7.376485,7.71,NaN,0,4.969959,28,28
310211,182534857,0.2633799,0.001004666,0.2604178,0.2511378,7.463481,7.406652,7.68,NaN,0,5.000126,27,28
310656,182640631,0.2528553,0.001017123,0.2551555,0.2511378,7.48464,7.440121,7.28,NaN,0,5.034586,26,30
311100,182749311,0.2659407,0.001238316,0.2596824,0.2511378,7.505771,7.472234,7.61,NaN,0,5.0667,25,27
311546,182855229,0.2487711,0.001163602,0.2602127,0.2511378,7.526856,7.500683,7.33,NaN,0,5.095332,24,26
311982,182964315,0.254126,0.001153678,0.2582746,0.2511378,7.547959,7.527018,6.98,NaN,0,5.121666,24,25
312411,183072399,0.2573128,0.001211882,0.2605234,0.2511378,7.569127,7.546634,7.02,NaN,0,5.141466,24,25
312816,183181261,0.2561427,0.00118348,0.2593201,0.2511378,7.590343,7.559652,7.19,NaN,0,5.154484,25,25
313262,183287659,0.2424572,0.00108254,0.2538753,0.2511378,7.611521,7.573206,7.15,NaN,0,5.168221,26,25
