LineNo,TimeUS,Instance,RPM,RawRPM,Volt,Curr,Temp,CTot,MotTemp,Err
1964,2.1891e+07,4,0,0,16.13,0.04,24,0,0,0
2418,2.2004e+07,4,0,0,16.13,0.04,24,0,0,0
3280,2.2215e+07,4,0,0,16.13,0.04,24,0,0,0
4150,2.243e+07,4,0,0,16.13,0.04,24,0,0,0
4566,2.2534e+07,4,0,0,16.13,0.04,24,0,0,0
4978,2.2636e+07,4,0,0,16.13,0.04,24,0,0,0
5433,2.2747e+07,4,0,0,16.13,0.04,24,0,0,0
5852,2.2856e+07,4,0,0,16.13,0.04,24,0,0,0
6267,2.2957e+07,4,0,0,16.13,0.05,24,0,0,0
6726,2.3071e+07,4,0,0,16.13,0.04,24,0,0,0
7143,2.3175e+07,4,0,0,16.12,0.04,24,0,0,0
7594,2.3287e+07,4,0,0,16.13,0.04,24,0,0,0
8004,2.3391e+07,4,0,0,16.13,0.04,24,0,0,0
8415,2.3491e+07,4,0,0,16.12,0.04,24,0,0,0
8857,2.36e+07,4,0,0,16.13,0.04,24,0,0,0
9271,2.3703e+07,4,0,0,16.13,0.04,24,0,0,0
9678,2.3807e+07,4,0,0,16.13,0.04,24,0,0,0
10110,2.3929e+07,4,0,0,16.13,0.04,24,0,0,0
10480,2.402e+07,4,0,0,16.13,0.04,24,0,0,0
10941,2.4137e+07,4,0,0,16.13,0.04,24,0,0,0
11351,2.4242e+07,4,0,0,16.13,0.04,24,0,0,0
11768,2.4345e+07,4,0,0,16.12,0.04,24,0,0,0
12222,2.4457e+07,4,0,0,16.12,0.04,24,0,0,0
12640,2.4564e+07,4,0,0,16.13,0.04,24,0,0,0
13052,2.4666e+07,4,0,0,16.13,0.04,24,0,0,0
13465,2.477e+07,4,0,0,16.13,0.04,24,0,0,0
13917,2.4881e+07,4,0,0,16.13,0.04,24,0,0,0
14328,2.4984e+07,4,0,0,16.13,0.04,24,0,0,0
14784,2.5097e+07,4,0,0,16.12,0.04,25,0,0,0
15202,2.5202e+07,4,0,0,16.13,0.04,24,0,0,0
15623,2.5306e+07,4,0,0,16.13,0.04,24,0,0,0
16039,2.541e+07,4,0,0,16.13,0.04,25,0,0,0
16493,2.5519e+07,4,0,0,16.13,0.04,25,0,0,0
16906,2.5623e+07,4,0,0,16.12,0.04,24,0,0,0
17320,2.5728e+07,4,0,0,16.12,0.04,24,0,0,0
17776,2.5843e+07,4,0,0,16.13,0.04,24,0,0,0
18191,2.5947e+07,4,0,0,16.13,0.04,24,0,0,0
18608,2.6056e+07,4,0,0,16.12,0.04,25,0,0,0
19019,2.6158e+07,4,0,0,16.12,0.04,25,0,0,0
19427,2.6259e+07,4,0,0,16.12,0.04,24,0,0,0
19892,2.6376e+07,4,0,0,16.13,0.04,24,0,0,0
20304,2.6481e+07,4,0,0,16.13,0.04,24,0,0,0
20718,2.6583e+07,4,0,0,16.13,0.04,25,0,0,0
21178,2.6696e+07,4,0,0,16.13,0.04,24,0,0,0
21587,2.6801e+07,4,0,0,16.13,0.04,25,0,0,0
22002,2.6905e+07,4,0,0,16.13,0.05,24,0,0,0
22412,2.7009e+07,4,0,0,16.13,0.04,24,0,0,0
22867,2.7122e+07,4,0,0,16.13,0.04,25,0,0,0
23277,2.7223e+07,4,0,0,16.13,0.04,25,0,0,0
23710,2.7334e+07,4,0,0,16.12,0.04,25,0,0,0
24153,2.744e+07,4,0,0,16.13,0.05,25,0,0,0
24573,2.7546e+07,4,0,0,16.13,0.04,24,0,0,0
24985,2.765e+07,4,0,0,16.12,0.04,25,0,0,0
25435,2.7762e+07,4,0,0,16.13,0.05,25,0,0,0
25849,2.7868e+07,4,0,0,16.13,0.04,24,0,0,0
26264,2.7981e+07,4,0,0,16.13,0.05,25,0,0,0
26678,2.8081e+07,4,0,0,16.12,0.04,25,0,0,0
27091,2.8186e+07,4,0,0,16.13,0.05,25,0,0,0
27544,2.8299e+07,4,0,0,16.13,0.05,25,0,0,0
27955,2.8401e+07,4,0,0,16.12,0.05,25,0,0,0
28367,2.8502e+07,4,0,0,16.13,0.05,25,0,0,0
28818,2.8614e+07,4,0,0,16.12,0.05,25,0,0,0
29233,2.8718e+07,4,0,0,16.13,0.05,25,0,0,0
30129,2.8938e+07,4,0,0,16.13,0.04,25,0,0,0
30543,2.9041e+07,4,0,0,16.13,0.04,25,0,0,0
30954,2.9143e+07,4,0,0,16.12,0.04,25,0,0,0
31408,2.9256e+07,4,0,0,16.13,0.04,25,0,0,0
31825,2.9361e+07,4,0,0,16.13,0.04,25,0,0,0
32234,2.9464e+07,4,0,0,16.12,0.05,25,0,0,0
32680,2.9571e+07,4,0,0,16.12,0.05,25,0,0,0
1.9311e+05,1.5318e+08,4,0,0,0,0,0,0,0,0
1.9356e+05,1.533e+08,4,0,0,0,0.05,0,0,0,0
1.9605e+05,1.5394e+08,4,0,0,0,0.05,0,0,0,0
1.965e+05,1.5405e+08,4,0,0,16.1,0.01,26,0,0,0
1.9688e+05,1.5415e+08,4,0,0,16.11,0.04,26,0,0,0
1.9733e+05,1.5427e+08,4,0,0,16.11,0.04,26,0,0,0
1.9774e+05,1.5437e+08,4,0,0,16.11,0.05,26,0,0,0
1.9815e+05,1.5447e+08,4,0,0,16.11,0.05,26,0,0,0
1.986e+05,1.5459e+08,4,0,0,16.11,0.05,26,0,0,0
1.9902e+05,1.5469e+08,4,0,0,16.11,0.05,26,0,0,0
1.9943e+05,1.548e+08,4,0,0,16.11,0.05,26,0,0,0
1.9984e+05,1.5491e+08,4,0,0,16.11,0.05,26,0,0,0
2.0026e+05,1.5502e+08,4,0,0,16.11,0.04,26,0,0,0
2.0112e+05,1.5524e+08,4,0,0,16.11,0.05,26,0,0,0
2.0151e+05,1.5534e+08,4,0,0,16.1,0.05,26,0,0,0
2.0192e+05,1.5545e+08,4,0,0,16.11,0.04,26,0,0,0
2.0225e+05,1.564e+08,4,0,0,16.11,0.05,26,0,0,0
2.0267e+05,1.5651e+08,4,0,0,16.11,0.05,26,0,0,0
2.0313e+05,1.5662e+08,4,0,0,16.1,0.05,26,0,0,0
2.0354e+05,1.5672e+08,4,0,0,16.11,0.05,26,0,0,0
2.0405e+05,1.5684e+08,4,0,0,16.11,0.05,26,0,0,0
2.0446e+05,1.5694e+08,4,0,0,16.11,0.05,26,0,0,0
2.0491e+05,1.5704e+08,4,0,0,16.11,0.05,26,0,0,0
2.0536e+05,1.5715e+08,4,0,0,16.11,0.05,26,0,0,0
2.0586e+05,1.5727e+08,4,0,0,16.11,0.05,26,0,0,0
2.0632e+05,1.5737e+08,4,0,0,16.11,0.05,26,0,0,0
2.0677e+05,1.5748e+08,4,0,0,16.11,0.05,26,0,0,0
2.0721e+05,1.5758e+08,4,0,0,16.11,0.05,26,0,0,0
2.0765e+05,1.5769e+08,4,0,0,16.11,0.05,26,0,0,0
2.081e+05,1.578e+08,4,0,0,16.11,0.05,26,0,0,0
2.086e+05,1.5792e+08,4,0,0,16.11,0.05,26,0,0,0
2.0905e+05,1.5802e+08,4,0,0,16.11,0.04,26,0,0,0
2.095e+05,1.5812e+08,4,0,0,16.11,0.04,26,0,0,0
2.1e+05,1.5824e+08,4,0,0,16.11,0.04,26,0,0,0
2.1044e+05,1.5834e+08,4,0,0,16.11,0.05,26,0,0,0
2.109e+05,1.5845e+08,4,0,0,16.11,0.04,26,0,0,0
2.1136e+05,1.5856e+08,4,9,142,16.08,0.06,26,0,0,0
2.1187e+05,1.5868e+08,4,140,128,16.05,0.37,26,0,0,0
2.123e+05,1.5878e+08,4,214,1085,16.09,0.19,26,0,0,0
2.1273e+05,1.5888e+08,4,1092,1214,16.09,0.13,26,0,0,0
2.1318e+05,1.5899e+08,4,1217,1271,16.1,0.12,26,0,0,0
2.1368e+05,1.591e+08,4,1272,1285,16.1,0.12,26,0,0,0
2.1409e+05,1.5921e+08,4,1285,1300,16.1,0.11,26,0,0,0
2.1455e+05,1.5932e+08,4,1300,1314,16.1,0.11,26,0,0,0
2.1505e+05,1.5943e+08,4,1314,1314,16.09,0.11,26,0,0,0
2.155e+05,1.5953e+08,4,1314,1314,16.09,0.11,26,0,0,0
2.1595e+05,1.5964e+08,4,1314,1328,16.1,0.11,26,0,0,0
2.169e+05,1.5986e+08,4,1327,1314,16.09,0.11,26,0,0,0
2.1757e+05,1.6008e+08,4,1326,1314,16.08,0.11,26,0,0,0
2.1802e+05,1.6018e+08,4,1314,1314,16.08,0.11,26,0,0,0
2.1848e+05,1.6029e+08,4,1314,1314,16.1,0.11,26,0,0,0
2.1893e+05,1.6039e+08,4,1314,1314,16.09,0.11,26,0,0,0
2.1988e+05,1.6061e+08,4,1314,1328,16.09,0.11,26,0,0,0
2.203e+05,1.6072e+08,4,1328,1328,16.1,0.11,26,0,0,0
2.208e+05,1.6083e+08,4,1328,1328,16.09,0.11,26,0,0,0
2.2126e+05,1.6094e+08,4,1328,1328,16.09,0.11,26,0,0,0
2.2169e+05,1.6104e+08,4,1328,1328,16.09,0.11,26,0,0,0
2.2212e+05,1.6115e+08,4,1328,1328,16.1,0.11,26,0,0,0
2.226e+05,1.6126e+08,4,1328,1328,16.1,0.11,26,0,0,0
2.2304e+05,1.6137e+08,4,1328,1328,16.08,0.11,26,0,0,0
2.2354e+05,1.6148e+08,4,1328,1328,16.1,0.11,26,0,0,0
2.24e+05,1.6159e+08,4,1328,1328,16.1,0.11,26,0,0,0
2.2445e+05,1.6169e+08,4,1328,1328,16.09,0.11,26,0,0,0
2.249e+05,1.618e+08,4,1328,1328,16.1,0.11,26,0,0,0
2.254e+05,1.6191e+08,4,1328,1328,16.09,0.11,26,0,0,0
2.2586e+05,1.6202e+08,4,1328,1328,16.08,0.11,26,0,0,0
2.263e+05,1.6212e+08,4,1328,1328,16.08,0.11,26,0,0,0
2.268e+05,1.6224e+08,4,1328,1328,16.09,0.11,26,0,0,0
2.2725e+05,1.6234e+08,4,1328,1328,16.09,0.11,26,0,0,0
2.2772e+05,1.6245e+08,4,1328,1328,16.08,0.11,26,0,0,0
2.2817e+05,1.6256e+08,4,1328,1328,16.08,0.11,26,0,0,0
2.2862e+05,1.6266e+08,4,1328,1385,16.07,0.16,26,0,0,0
2.2912e+05,1.6278e+08,4,1417,1757,15.9,0.44,26,0,0,0
2.2957e+05,1.6288e+08,4,1799,2357,16.02,0.64,27,0,0,0
2.3007e+05,1.6299e+08,4,2365,2457,16.05,0.48,26,0,0,0
2.3052e+05,1.6309e+08,4,2459,2500,16.06,0.47,26,0,0,0
2.3098e+05,1.6321e+08,4,2502,2528,16.08,0.54,27,0,0,0
2.3147e+05,1.6332e+08,4,2553,2828,15.96,0.95,26,0,0,0
2.3192e+05,1.6343e+08,4,2873,3500,15.84,1.4,26,0,0,0
2.3237e+05,1.6354e+08,4,3560,4228,15.75,1.9,26,0,0,0
2.328e+05,1.6364e+08,4,4257,4700,15.64,2.41,26,0,0,0
2.3325e+05,1.6375e+08,4,4741,5328,15.63,2.98,26,0,0,0
2.337e+05,1.6386e+08,4,5334,5685,15.42,3.92,26,0,0,0
2.3415e+05,1.6397e+08,4,5693,5857,15.59,3.02,27,0,0,0
2.3465e+05,1.6408e+08,4,5830,5557,15.63,2.44,26,1,0,0
2.3506e+05,1.6419e+08,4,5553,5514,15.66,2.49,26,1,0,0
2.3552e+05,1.6429e+08,4,5497,5171,15.61,2.27,26,1,0,0
2.3597e+05,1.6441e+08,4,5158,4985,15.6,1.75,27,1,0,0
2.3642e+05,1.6451e+08,4,4990,5057,15.57,2.12,27,1,0,0
2.3685e+05,1.6462e+08,4,5055,5042,15.55,2.02,27,1,0,0
2.3728e+05,1.6473e+08,4,5042,5085,15.57,2.14,27,1,0,0
2.3778e+05,1.6485e+08,4,5077,5000,15.58,2.02,27,1,0,0
2.3819e+05,1.6494e+08,4,5008,5185,15.51,2.15,27,1,0,0
2.3869e+05,1.6506e+08,4,5170,5014,15.55,2.18,26,1,0,0
2.391e+05,1.6516e+08,4,5014,5028,15.54,2.04,27,1,0,0
2.396e+05,1.6528e+08,4,5014,4871,15.55,1.91,27,1,0,0
2.4005e+05,1.6538e+08,4,4860,4728,15.63,1.66,27,1,0,0
2.405e+05,1.6549e+08,4,4722,4600,15.63,1.45,27,1,0,0
2.4096e+05,1.656e+08,4,4601,4642,15.6,1.68,27,1,0,0
2.4142e+05,1.6571e+08,4,4644,4685,15.63,1.66,27,1,0,0
2.4187e+05,1.6582e+08,4,4689,4800,15.61,1.94,27,2,0,0
2.4232e+05,1.6593e+08,4,4806,5071,15.58,2.37,27,2,0,0
2.428e+05,1.6605e+08,4,5073,5100,15.63,2.2,27,2,0,0
2.4324e+05,1.6615e+08,4,5114,5314,15.64,2.49,27,2,0,0
2.4369e+05,1.6626e+08,4,5318,5428,15.58,2.29,27,2,0,0
2.4414e+05,1.6637e+08,4,5429,5457,15.58,2.61,27,2,0,0
2.4464e+05,1.6649e+08,4,5452,5385,15.61,2.16,27,2,0,0
2.4509e+05,1.6659e+08,4,5370,5185,15.5,2.18,27,2,0,0
2.4559e+05,1.6671e+08,4,5175,5085,15.58,2.07,27,2,0,0
2.4599e+05,1.6681e+08,4,5088,5171,15.58,1.94,27,2,0,0
2.4644e+05,1.6692e+08,4,5169,5071,15.55,2.01,27,2,0,0
2.4695e+05,1.6703e+08,4,5068,5042,15.6,1.82,27,2,0,0
2.4872e+05,1.6746e+08,4,5042,5057,15.61,2.03,27,2,0,0
2.4917e+05,1.6757e+08,4,5054,5014,15.49,1.86,27,3,0,0
2.4967e+05,1.6769e+08,4,5029,5185,15.55,2.11,27,3,0,0
2.5008e+05,1.6779e+08,4,5176,4971,15.58,1.92,27,3,0,0
2.5058e+05,1.679e+08,4,4950,4742,15.57,1.79,27,3,0,0
2.5103e+05,1.6801e+08,4,4743,4771,15.54,1.78,27,3,0,0
2.5149e+05,1.6812e+08,4,4789,4971,15.57,1.9,27,3,0,0
2.5194e+05,1.6823e+08,4,4966,4871,15.51,1.92,27,3,0,0
2.5239e+05,1.6834e+08,4,4871,4871,15.55,1.88,27,3,0,0
2.5285e+05,1.6844e+08,4,4871,4942,15.48,2.11,27,3,0,0
2.5327e+05,1.6855e+08,4,4945,5128,15.57,2.23,27,3,0,0
2.5376e+05,1.6866e+08,4,5133,5257,15.57,2.07,27,3,0,0
2.5424e+05,1.6878e+08,4,5268,5385,15.5,2.67,27,3,0,0
2.5467e+05,1.6888e+08,4,5396,5642,15.62,3.31,27,3,0,0
2.5512e+05,1.6899e+08,4,5667,5914,15.54,3.4,27,3,0,0
2.5554e+05,1.691e+08,4,5891,5657,15.56,2.42,27,3,0,0
2.5599e+05,1.692e+08,4,5641,5428,15.57,2.13,27,4,0,0
2.5693e+05,1.6942e+08,4,5415,5142,15.52,2.07,27,4,0,0
2.5739e+05,1.6954e+08,4,5135,5071,15.51,2.03,27,4,0,0
2.5785e+05,1.6964e+08,4,5071,5071,15.48,2.09,27,4,0,0
2.583e+05,1.6975e+08,4,5074,5114,15.52,2.5,27,4,0,0
2.5875e+05,1.6986e+08,4,5134,5357,15.54,2.42,27,4,0,0
2.5916e+05,1.6996e+08,4,5352,5085,15.55,2.26,27,4,0,0
2.5963e+05,1.7008e+08,4,5108,5357,15.55,2.74,27,4,0,0
2.6008e+05,1.7018e+08,4,5349,5242,15.52,2.45,27,4,0,0
2.6057e+05,1.703e+08,4,5256,5414,15.45,2.57,27,4,0,0
2.6098e+05,1.704e+08,4,5406,5314,15.57,2.67,27,4,0,0
2.6143e+05,1.705e+08,4,5317,5385,15.55,2.68,27,4,0,0
2.6193e+05,1.7062e+08,4,5392,5471,15.47,2.58,27,4,0,0
2.6233e+05,1.7072e+08,4,5471,5485,15.54,2.75,27,5,0,0
2.6283e+05,1.7084e+08,4,5479,5400,15.52,2.72,27,5,0,0
2.6373e+05,1.7105e+08,4,5400,5400,15.51,2.52,27,5,0,0
2.6418e+05,1.7116e+08,4,5390,5300,15.48,1.85,27,5,0,0
2.6464e+05,1.7127e+08,4,5289,5100,15.48,3.58,27,5,0,0
2.6508e+05,1.7138e+08,4,5128,5814,15.46,3.35,27,5,0,0
2.6556e+05,1.7149e+08,4,5806,5700,15.47,3.11,27,5,0,0
2.6601e+05,1.716e+08,4,5714,5857,15.5,3.24,27,5,0,0
2.6646e+05,1.7172e+08,4,5851,5785,15.44,3.84,27,5,0,0
2.6691e+05,1.7182e+08,4,5715,5042,15.52,1.2,27,5,0,0
2.6736e+05,1.7193e+08,4,5034,4942,15.49,2.07,27,5,0,0
2.6778e+05,1.7203e+08,4,4942,4985,15.5,1.86,27,6,0,0
2.6822e+05,1.7214e+08,4,5003,5171,15.47,2.4,27,6,0,0
2.6868e+05,1.7225e+08,4,5173,5228,15.46,2.57,27,6,0,0
2.6913e+05,1.7236e+08,4,5229,5242,15.5,2.59,28,6,0,0
2.6958e+05,1.7247e+08,4,5244,5271,15.42,2.62,27,6,0,0
2.7002e+05,1.7257e+08,4,5274,5314,15.51,2.45,28,6,0,0
2.7048e+05,1.7269e+08,4,5303,5200,15.5,2.22,27,6,0,0
2.7087e+05,1.7279e+08,4,5203,5342,15.42,2.27,27,6,0,0
2.717e+05,1.73e+08,4,5334,5042,15.51,2,28,6,0,0
2.7215e+05,1.7311e+08,4,5041,5028,15.47,2.27,28,6,0,0
2.726e+05,1.7322e+08,4,5028,5028,15.49,2.19,28,6,0,0
2.7304e+05,1.7333e+08,4,5032,5228,15.44,2.19,28,6,0,0
2.7353e+05,1.7345e+08,4,5219,5128,15.45,2.34,27,6,0,0
2.7438e+05,1.7366e+08,4,5129,5285,15.4,2.66,28,7,0,0
2.7487e+05,1.7378e+08,4,5289,5357,15.45,2.69,28,7,0,0
2.7532e+05,1.7389e+08,4,5362,5414,15.41,2.74,28,7,0,0
2.7571e+05,1.7399e+08,4,5410,5342,15.48,2.54,28,7,0,0
2.7619e+05,1.7412e+08,4,5354,5428,15.45,2.6,28,7,0,0
2.7659e+05,1.7422e+08,4,5424,5371,15.41,2.64,28,7,0,0
2.77e+05,1.7432e+08,4,5383,5657,15.45,2.83,28,7,0,0
2.7745e+05,1.7443e+08,4,5655,5557,15.49,2.71,28,7,0,0
2.779e+05,1.7454e+08,4,5551,5442,15.47,2.64,28,7,0,0
2.7835e+05,1.7465e+08,4,5443,5457,15.39,2.6,28,7,0,0
2.7879e+05,1.7476e+08,4,5463,5542,15.51,2.83,28,7,0,0
2.7924e+05,1.7487e+08,4,5539,5514,15.44,2.85,28,7,0,0
2.7969e+05,1.7498e+08,4,5512,5500,15.43,2.79,28,8,0,0
2.8014e+05,1.7509e+08,4,5496,5442,15.44,2.52,28,8,0,0
2.8057e+05,1.752e+08,4,5439,5414,15.49,2.64,28,8,0,0
2.8096e+05,1.753e+08,4,5404,5285,15.48,2.31,28,8,0,0
2.8141e+05,1.7541e+08,4,5301,5457,15.45,2.73,28,8,0,0
2.8186e+05,1.7552e+08,4,5449,5342,15.47,2.53,28,8,0,0
2.8231e+05,1.7563e+08,4,5340,5328,15.39,2.47,28,8,0,0
2.8267e+05,1.7573e+08,4,5329,5385,15.48,2.57,28,8,0,0
2.8357e+05,1.7595e+08,4,5384,5371,15.4,2.45,28,8,0,0
2.8403e+05,1.7606e+08,4,5360,5242,15.47,2.27,28,8,0,0
2.8443e+05,1.7617e+08,4,5238,5200,15.51,2.28,28,8,0,0
2.8488e+05,1.7628e+08,4,5197,5171,15.48,2.41,28,8,0,0
2.8526e+05,1.7638e+08,4,5171,5171,15.41,2.42,28,9,0,0
2.857e+05,1.7649e+08,4,5176,5228,15.48,2.3,28,9,0,0
2.861e+05,1.7659e+08,4,5228,5242,15.38,2.49,28,9,0,0
2.8655e+05,1.767e+08,4,5239,5128,15.45,2.4,28,9,0,0
2.8699e+05,1.7681e+08,4,5133,5328,15.39,2.72,28,9,0,0
2.8741e+05,1.7692e+08,4,5328,5371,15.36,2.79,28,9,0,0
2.8786e+05,1.7703e+08,4,5371,5385,15.41,2.46,28,9,0,0
2.883e+05,1.7714e+08,4,5386,5485,15.39,2.75,28,9,0,0
2.8879e+05,1.7725e+08,4,5484,5471,15.44,2.63,28,9,0,0
2.8923e+05,1.7736e+08,4,5465,5400,15.37,2.81,28,9,0,0
2.8969e+05,1.7747e+08,4,5409,5514,15.5,2.65,28,9,0,0
2.9009e+05,1.7757e+08,4,5512,5485,15.47,2.69,28,9,0,0
2.9054e+05,1.7768e+08,4,5486,5514,15.48,2.57,28,9,0,0
2.91e+05,1.778e+08,4,5482,5171,15.43,2.42,28,10,0,0
2.9148e+05,1.7791e+08,4,5178,5228,15.5,2.28,28,10,0,0
2.9186e+05,1.7801e+08,4,5224,5185,15.51,2.36,28,10,0,0
2.9226e+05,1.7811e+08,4,5185,5200,15.46,2.39,28,10,0,0
2.9269e+05,1.7822e+08,4,5202,5314,15.43,2.37,28,10,0,0
2.9314e+05,1.7833e+08,4,5308,5185,15.42,2.48,28,10,0,0
2.9359e+05,1.7844e+08,4,5196,5428,15.47,2.66,28,10,0,0
2.9404e+05,1.7855e+08,4,5414,5271,15.38,2.34,28,10,0,0
2.9445e+05,1.7865e+08,4,5268,5114,15.42,2.2,28,10,0,0
2.949e+05,1.7876e+08,4,5130,5285,15.33,2.3,28,10,0,0
2.9534e+05,1.7887e+08,4,5294,5385,15.44,2.47,28,10,0,0
2.9579e+05,1.7898e+08,4,5395,5500,15.47,2.49,28,10,0,0
2.962e+05,1.7908e+08,4,5493,5328,15.41,2.31,28,10,0,0
2.9664e+05,1.7919e+08,4,5326,5314,15.37,2.54,28,10,0,0
2.9709e+05,1.793e+08,4,5314,5314,15.36,2.51,28,11,0,0
2.9748e+05,1.794e+08,4,5314,5328,15.37,2.47,28,11,0,0
2.9794e+05,1.7952e+08,4,5322,5257,15.44,2.45,28,11,0,0
2.9844e+05,1.7963e+08,4,5275,5471,15.36,2.6,28,11,0,0
2.993e+05,1.7984e+08,4,5467,5371,15.43,2.61,28,11,0,0
2.9974e+05,1.7995e+08,4,5366,5285,15.38,2.46,28,11,0,0
3.0019e+05,1.8006e+08,4,5299,5500,15.36,2.56,28,11,0,0
3.0064e+05,1.8018e+08,4,5498,5485,15.26,2.81,28,11,0,0
3.0104e+05,1.8028e+08,4,5487,5542,15.33,2.97,28,11,0,0
3.0149e+05,1.8039e+08,4,5547,5671,15.3,2.82,28,11,0,0
3.0198e+05,1.805e+08,4,5667,5614,15.36,2.43,28,11,0,0
3.0237e+05,1.806e+08,4,5609,5400,15.37,2.68,28,11,0,0
3.0283e+05,1.8072e+08,4,5401,5414,15.37,2.3,28,12,0,0
3.0418e+05,1.8105e+08,4,5409,5271,15.31,2.4,28,12,0,0
3.0457e+05,1.8115e+08,4,5272,5314,15.3,2.51,28,12,0,0
3.0507e+05,1.8127e+08,4,5332,5514,15.31,2.86,28,12,0,0
3.0548e+05,1.8137e+08,4,5505,5400,15.36,2.45,28,12,0,0
3.0593e+05,1.8148e+08,4,5383,5228,15.41,2.4,28,12,0,0
3.0637e+05,1.8159e+08,4,5209,5028,15.36,1.97,28,12,0,0
3.0682e+05,1.8171e+08,4,5060,5285,15.38,2.45,28,12,0,0
3.0727e+05,1.8181e+08,4,5274,5157,15.41,2.15,28,12,0,0
3.0771e+05,1.8193e+08,4,5180,5342,15.38,2.7,28,12,0,0
3.0812e+05,1.8202e+08,4,5342,5342,15.41,2.29,28,12,0,0
3.086e+05,1.8214e+08,4,5339,5314,15.36,2.21,28,12,0,0
3.0905e+05,1.8224e+08,4,5307,5228,15.36,2.39,28,13,0,0
3.095e+05,1.8236e+08,4,5240,5428,15.32,2.63,28,13,0,0
3.0998e+05,1.8247e+08,4,5411,5328,15.37,2.2,28,13,0,0
3.1039e+05,1.8257e+08,4,5333,5442,15.36,2.59,28,13,0,0
3.1084e+05,1.8268e+08,4,5430,5271,15.44,2.21,28,13,0,0
3.1173e+05,1.829e+08,4,5275,5357,15.39,2.57,28,13,0,0
3.1212e+05,1.83e+08,4,5355,5271,15.38,2.35,28,13,0,0
3.1255e+05,1.8311e+08,4,5277,5400,15.25,2.57,28,13,0,0
3.1299e+05,1.8322e+08,4,5400,5414,15.41,2.54,28,13,0,0
3.1344e+05,1.8333e+08,4,5411,5314,15.37,2.4,28,13,0,0
3.1392e+05,1.8345e+08,4,5328,5471,15.37,2.35,28,13,0,0
3.1434e+05,1.8354e+08,4,5467,5400,15.4,2.58,28,13,0,0
3.1479e+05,1.8365e+08,4,5399,5385,15.37,2.54,28,14,0,0
3.1523e+05,1.8377e+08,4,5383,5357,15.33,2.63,28,14,0,0
3.161e+05,1.8399e+08,4,5358,5442,15.35,2.55,28,14,0,0
3.1654e+05,1.8409e+08,4,5442,5471,15.36,2.55,28,14,0,0
3.1701e+05,1.842e+08,4,5459,5328,15.27,2.5,28,14,0,0
3.1746e+05,1.8431e+08,4,5343,5471,15.36,2.5,28,14,0,0
3.1786e+05,1.8442e+08,4,5472,5585,15.29,2.73,28,14,0,0
3.1835e+05,1.8454e+08,4,5570,5485,15.34,2.73,28,14,0,0
3.1876e+05,1.8463e+08,4,5486,5542,15.32,2.6,28,14,0,0
3.192e+05,1.8474e+08,4,5538,5485,15.32,2.43,28,14,0,0
3.1965e+05,1.8486e+08,4,5489,5528,15.32,2.79,28,14,0,0
3.2009e+05,1.8497e+08,4,5519,5428,15.31,2.58,28,14,0,0
3.2048e+05,1.8507e+08,4,5429,5442,15.24,2.58,28,15,0,0
3.2092e+05,1.8518e+08,4,5432,5285,15.33,2.3,28,15,0,0
3.2137e+05,1.8529e+08,4,5275,5200,15.34,2.34,28,15,0,0
3.2178e+05,1.8539e+08,4,5200,5214,15.38,2.42,28,15,0,0
3.2219e+05,1.8549e+08,4,5214,5228,15.38,2.41,28,15,0,0
3.2263e+05,1.856e+08,4,5224,5114,15.34,2.29,28,15,0,0
3.2308e+05,1.8571e+08,4,5118,5171,15.37,2.41,28,15,0,0
3.2353e+05,1.8582e+08,4,5181,5285,15.37,2.21,28,15,0,0
3.2393e+05,1.8593e+08,4,5285,5300,15.36,2.31,28,15,0,0
3.2438e+05,1.8604e+08,4,5300,5300,15.3,2.67,28,15,0,0
3.2478e+05,1.8614e+08,4,5299,5242,15.33,2.56,28,15,0,0
3.2528e+05,1.8626e+08,4,5273,5528,15.29,2.77,28,15,0,0
3.2569e+05,1.8636e+08,4,5517,5357,15.35,2.6,28,15,0,0
3.2613e+05,1.8647e+08,4,5355,5342,15.38,2.24,28,16,0,0
3.2658e+05,1.8658e+08,4,5338,5300,15.35,2.69,28,16,0,0
3.2703e+05,1.8669e+08,4,5298,5285,15.33,2.59,28,16,0,0
3.2746e+05,1.868e+08,4,5290,5357,15.3,2.57,28,16,0,0
3.2834e+05,1.8702e+08,4,5359,5471,15.38,2.69,28,16,0,0
3.2874e+05,1.8713e+08,4,5468,5400,15.35,2.49,28,16,0,0
3.2923e+05,1.8724e+08,4,5401,5414,15.35,2.43,28,16,0,0
3.2968e+05,1.8735e+08,4,5408,5357,15.32,2.59,28,16,0,0
3.3008e+05,1.8745e+08,4,5351,5228,15.36,2.38,28,16,0,0
3.3054e+05,1.8756e+08,4,5238,5342,15.34,2.62,28,16,0,0
3.3098e+05,1.8767e+08,4,5344,5371,15.3,2.52,28,16,0,0
3.3138e+05,1.8778e+08,4,5371,5385,15.3,2.59,29,16,0,0
3.3181e+05,1.8789e+08,4,5386,5400,15.26,2.66,29,17,0,0
3.3225e+05,1.88e+08,4,5408,5500,15.2,2.56,29,17,0,0
3.3266e+05,1.881e+08,4,5494,5385,15.32,2.46,28,17,0,0
3.331e+05,1.8821e+08,4,5379,5257,15.32,2.26,29,17,0,0
3.3355e+05,1.8832e+08,4,5253,5200,15.31,2.36,29,17,0,0
3.34e+05,1.8843e+08,4,5200,5214,15.35,2.21,28,17,0,0
3.3445e+05,1.8854e+08,4,5206,5128,15.36,2.25,28,17,0,0
3.3486e+05,1.8864e+08,4,5126,5042,15.23,2.04,29,17,0,0
3.353e+05,1.8875e+08,4,5042,5085,15.29,2.18,29,17,0,0
3.3575e+05,1.8886e+08,4,5085,5142,15.32,2.2,29,17,0,0
3.3624e+05,1.8898e+08,4,5156,5300,15.32,2.26,29,17,0,0
3.3664e+05,1.8908e+08,4,5294,5185,15.3,2.17,28,17,0,0
3.3709e+05,1.892e+08,4,5182,5142,15.31,2.21,29,17,0,0
3.3755e+05,1.893e+08,4,5139,5100,15.35,2.32,29,17,0,0
3.3795e+05,1.8941e+08,4,5100,5114,15.33,2.32,28,17,0,0
3.384e+05,1.8952e+08,4,5119,5200,15.31,2.17,29,18,0,0
3.3883e+05,1.8963e+08,4,5198,5128,15.29,2.3,28,18,0,0
3.3926e+05,1.8974e+08,4,5130,5171,15.27,2.31,29,18,0,0
3.3968e+05,1.8984e+08,4,5174,5257,15.35,2.44,29,18,0,0
3.4012e+05,1.8996e+08,4,5257,5257,15.33,2.01,29,18,0,0
3.4058e+05,1.9007e+08,4,5253,5214,15.26,2.25,29,18,0,0
3.4101e+05,1.9017e+08,4,5213,5200,15.36,2.26,29,18,0,0
3.4146e+05,1.9028e+08,4,5202,5257,15.27,2.27,29,18,0,0
3.4192e+05,1.9039e+08,4,5251,5185,15.31,2.47,29,18,0,0
3.4275e+05,1.9061e+08,4,5186,5242,15.35,2.35,29,18,0,0
3.4318e+05,1.9071e+08,4,5237,5114,15.33,2.19,29,18,0,0
3.4363e+05,1.9082e+08,4,5120,5257,15.35,2.49,29,18,0,0
3.4408e+05,1.9093e+08,4,5258,5285,15.31,2.26,29,18,0,0
3.4452e+05,1.9104e+08,4,5284,5271,15.3,2.26,29,19,0,0
3.4501e+05,1.9116e+08,4,5269,5257,15.3,2.67,28,19,0,0
3.4542e+05,1.9126e+08,4,5262,5385,15.32,2.46,29,19,0,0
3.4582e+05,1.9136e+08,4,5383,5342,15.33,2.52,29,19,0,0
3.4632e+05,1.9148e+08,4,5325,5157,15.3,2.36,29,19,0,0
3.4675e+05,1.9159e+08,4,5169,5300,15.36,2.43,29,19,0,0
3.4719e+05,1.917e+08,4,5293,5228,15.37,2.26,29,19,0,0
3.4763e+05,1.9181e+08,4,5220,5100,15.33,2.33,29,19,0,0
3.4804e+05,1.9191e+08,4,5101,5242,15.37,2.57,29,19,0,0
3.4852e+05,1.9203e+08,4,5232,5185,15.32,2.11,29,19,0,0
3.4893e+05,1.9213e+08,4,5184,5128,15.3,2.37,29,19,0,0
3.4937e+05,1.9224e+08,4,5134,5271,15.36,2.46,29,19,0,0
3.4986e+05,1.9235e+08,4,5273,5300,15.33,2.39,29,19,0,0
3.503e+05,1.9246e+08,4,5293,5228,15.32,2.5,29,20,0,0
3.507e+05,1.9256e+08,4,5227,5214,15.3,2.26,29,20,0,0
3.5113e+05,1.9267e+08,4,5211,5042,15.42,1.89,29,20,0,0
3.5158e+05,1.9278e+08,4,5043,5057,15.4,2.37,29,20,0,0
3.5202e+05,1.9289e+08,4,5053,4971,15.35,2.37,29,20,0,0
3.5384e+05,1.9334e+08,4,4978,5314,15.36,2.68,29,20,0,0
3.5467e+05,1.9354e+08,4,5315,5457,15.35,2.53,29,20,0,0
3.5511e+05,1.9365e+08,4,5454,5428,15.38,2.63,29,20,0,0
3.5555e+05,1.9376e+08,4,5426,5400,15.29,2.68,29,20,0,0
3.5603e+05,1.9388e+08,4,5423,5600,15.33,2.74,29,20,0,0
3.5644e+05,1.9398e+08,4,5595,5557,15.26,2.82,29,21,0,0
3.5689e+05,1.9409e+08,4,5550,5500,15.37,2.48,29,21,0,0
3.573e+05,1.942e+08,4,5494,5442,15.32,2.67,29,21,0,0
3.5775e+05,1.943e+08,4,5443,5457,15.35,2.46,29,21,0,0
3.5815e+05,1.944e+08,4,5457,5457,15.36,2.38,29,21,0,0
3.586e+05,1.9451e+08,4,5452,5271,15.35,2.52,29,21,0,0
3.599e+05,1.9484e+08,4,5272,5357,15.32,2.7,29,21,0,0
3.6038e+05,1.9495e+08,4,5362,5471,15.32,2.9,29,21,0,0
3.6082e+05,1.9506e+08,4,5476,5542,15.35,2.87,29,21,0,0
3.6172e+05,1.9528e+08,4,5536,5385,15.37,2.61,29,22,0,0
3.6212e+05,1.9538e+08,4,5385,5428,15.33,2.63,29,22,0,0
3.6262e+05,1.955e+08,4,5428,5428,15.31,2.69,29,22,0,0
3.63e+05,1.956e+08,4,5429,5528,15.34,3.02,29,22,0,0
3.6343e+05,1.9571e+08,4,5525,5400,15.25,2.71,29,22,0,0
3.6387e+05,1.9581e+08,4,5402,5528,15.3,2.61,29,22,0,0
3.6431e+05,1.9592e+08,4,5529,5585,15.24,2.91,29,22,0,0
3.648e+05,1.9603e+08,4,5595,5828,15.2,3.42,29,22,0,0
3.6569e+05,1.9625e+08,4,5818,5557,15.3,2.6,29,22,0,0
3.6609e+05,1.9635e+08,4,5557,5585,15.3,3.06,29,22,0,0
3.6654e+05,1.9646e+08,4,5583,5542,15.23,2.7,29,22,0,0
3.6701e+05,1.9658e+08,4,5545,5585,15.2,2.51,29,23,0,0
3.6744e+05,1.9668e+08,4,5589,5657,15.27,3.09,29,23,0,0
3.6788e+05,1.9679e+08,4,5646,5542,15.23,2.65,29,23,0,0
3.6836e+05,1.9691e+08,4,5540,5528,15.21,2.82,29,23,0,0
3.6877e+05,1.9701e+08,4,5525,5485,15.2,2.77,29,23,0,0
3.6918e+05,1.9711e+08,4,5489,5542,15.22,2.6,29,23,0,0
3.6962e+05,1.9722e+08,4,5528,5357,15.23,2.18,29,23,0,0
3.7048e+05,1.9744e+08,4,5351,5057,15.29,2.49,29,23,0,0
3.7095e+05,1.9755e+08,4,5065,5185,15.27,2.32,29,23,0,0
3.7138e+05,1.9765e+08,4,5193,5300,15.24,2.53,29,23,0,0
3.7182e+05,1.9777e+08,4,5300,5300,15.27,2.33,29,23,0,0
3.7226e+05,1.9787e+08,4,5293,5142,15.33,2.28,29,23,0,0
3.7274e+05,1.9799e+08,4,5148,5214,15.25,2.34,29,24,0,0
3.7315e+05,1.9809e+08,4,5211,5157,15.3,2.27,29,24,0,0
3.736e+05,1.982e+08,4,5169,5414,15.27,2.64,29,24,0,0
3.7401e+05,1.983e+08,4,5410,5257,15.32,2.08,29,24,0,0
3.7446e+05,1.9841e+08,4,5253,5185,15.32,2.19,29,24,0,0
3.7491e+05,1.9852e+08,4,5182,5128,15.27,2.37,29,24,0,0
3.753e+05,1.9862e+08,4,5131,5271,15.3,2.57,29,24,0,0
3.7576e+05,1.9874e+08,4,5279,5400,15.27,2.4,29,24,0,0
3.7621e+05,1.9884e+08,4,5396,5357,15.26,2.64,29,24,0,0
3.7666e+05,1.9896e+08,4,5349,5271,15.29,2.36,29,24,0,0
3.7751e+05,1.9917e+08,4,5269,5200,15.31,2.33,29,24,0,0
3.78e+05,1.9928e+08,4,5203,5242,15.3,2.54,29,24,0,0
3.784e+05,1.9939e+08,4,5247,5300,15.25,2.56,29,24,0,0
3.7889e+05,1.995e+08,4,5308,5400,15.2,2.6,29,25,0,0
3.7929e+05,1.996e+08,4,5409,5528,15.29,2.85,29,25,0,0
3.7974e+05,1.9971e+08,4,5526,5500,15.3,2.4,29,25,0,0
3.8014e+05,1.9981e+08,4,5497,5371,15.27,2.63,29,25,0,0
3.8062e+05,1.9993e+08,4,5378,5457,15.34,2.3,29,25,0,0
3.8103e+05,2.0003e+08,4,5428,5071,15.33,2.04,29,25,0,0
3.8147e+05,2.0014e+08,4,5068,5014,15.29,1.98,29,25,0,0
3.8192e+05,2.0025e+08,4,5012,4957,15.22,2.2,29,25,0,0
3.8236e+05,2.0036e+08,4,4969,5128,15.27,2.64,29,25,0,0
3.8279e+05,2.0047e+08,4,5131,5171,15.26,2.36,29,25,0,0
3.8319e+05,2.0057e+08,4,5179,5285,15.3,2.68,29,25,0,0
3.8365e+05,2.0068e+08,4,5298,5442,15.2,2.57,29,25,0,0
3.8409e+05,2.0079e+08,4,5439,5414,15.27,2.64,29,25,0,0
3.845e+05,2.0089e+08,4,5413,5357,15.3,2.59,29,25,0,0
3.8498e+05,2.0101e+08,4,5359,5400,15.25,2.67,29,26,0,0
3.8538e+05,2.0111e+08,4,5401,5500,15.28,2.45,29,26,0,0
3.8583e+05,2.0122e+08,4,5500,5542,15.22,2.62,29,26,0,0
3.8628e+05,2.0133e+08,4,5539,5414,15.26,2.57,29,26,0,0
3.8674e+05,2.0145e+08,4,5397,5228,15.23,2.4,29,26,0,0
3.8718e+05,2.0156e+08,4,5247,5457,15.21,3.05,29,26,0,0
3.8762e+05,2.0167e+08,4,5451,5414,15.3,2.24,29,26,0,0
3.8803e+05,2.0177e+08,4,5395,5114,15.32,2.11,29,26,0,0
3.8848e+05,2.0187e+08,4,5120,5257,15.29,2.31,29,26,0,0
3.8873e+05,2.0199e+08,4,5255,5128,15.26,2.28,29,26,0,0
3.8918e+05,2.021e+08,4,5136,5314,15.27,2.67,29,26,0,0
3.8962e+05,2.022e+08,4,5313,5300,15.22,2.53,29,26,0,0
3.9007e+05,2.0231e+08,4,5298,5200,15.28,2.37,29,26,0,0
3.9056e+05,2.0243e+08,4,5192,5128,15.3,2.38,29,26,0,0
3.9139e+05,2.0263e+08,4,5139,5414,15.29,2.47,29,27,0,0
3.9182e+05,2.0275e+08,4,5408,5342,15.25,2.59,29,27,0,0
3.9228e+05,2.0286e+08,4,5340,5314,15.2,2.69,29,27,0,0
3.9272e+05,2.0297e+08,4,5326,5500,15.25,2.99,29,27,0,0
3.9317e+05,2.0308e+08,4,5497,5457,15.18,2.98,29,27,0,0
3.9361e+05,2.0319e+08,4,5461,5528,15.21,2.73,29,27,0,0
3.9402e+05,2.0329e+08,4,5528,5571,15.2,2.65,29,27,0,0
3.9448e+05,2.034e+08,4,5551,5357,15.27,2.38,29,27,0,0
3.9496e+05,2.0352e+08,4,5349,5285,15.22,2.63,29,27,0,0
3.9535e+05,2.0362e+08,4,5279,5200,15.26,2.33,29,27,0,0
3.9618e+05,2.0382e+08,4,5200,5200,15.26,2.57,29,27,0,0
3.9663e+05,2.0394e+08,4,5200,5257,15.29,2.19,29,28,0,0
3.9708e+05,2.0405e+08,4,5258,5328,15.22,2.62,29,28,0,0
3.9752e+05,2.0416e+08,4,5325,5214,15.26,2.23,29,28,0,0
3.9801e+05,2.0427e+08,4,5211,5157,15.18,2.24,29,28,0,0
3.9845e+05,2.0438e+08,4,5159,5200,15.29,2.63,29,28,0,0
3.989e+05,2.0449e+08,4,5206,5357,15.26,2.52,29,28,0,0
3.9937e+05,2.046e+08,4,5349,5271,15.26,2.69,29,28,0,0
3.9981e+05,2.0472e+08,4,5295,5485,15.26,3.02,29,28,0,0
4.0024e+05,2.0482e+08,4,5486,5500,15.26,2.85,29,28,0,0
4.0069e+05,2.0493e+08,4,5506,5657,15.25,3.03,29,28,0,0
4.0113e+05,2.0504e+08,4,5656,5628,15.27,3.1,29,28,0,0
4.0158e+05,2.0515e+08,4,5632,5700,15.26,2.93,29,29,0,0
4.0202e+05,2.0526e+08,4,5696,5614,15.3,2.35,29,29,0,0
4.0248e+05,2.0537e+08,4,5597,5371,15.26,2.52,29,29,0,0
4.0292e+05,2.0548e+08,4,5367,5314,15.23,2.57,29,29,0,0
4.0337e+05,2.0559e+08,4,5314,5328,15.24,2.5,29,29,0,0
4.0382e+05,2.057e+08,4,5328,5328,15.25,2.36,29,29,0,0
4.0427e+05,2.0581e+08,4,5321,5257,15.25,2.35,29,29,0,0
4.0468e+05,2.0592e+08,4,5257,5257,15.26,2.34,29,29,0,0
4.0512e+05,2.0603e+08,4,5245,5128,15.25,2.24,29,29,0,0
4.0556e+05,2.0614e+08,4,5134,5228,15.25,2.35,29,29,0,0
4.0599e+05,2.0625e+08,4,5219,5085,15.24,1.97,29,29,0,0
4.0638e+05,2.0635e+08,4,5083,4971,15.2,1.82,29,29,0,0
4.0727e+05,2.0657e+08,4,4962,3985,15.25,0.85,29,29,0,0
4.0776e+05,2.0669e+08,4,3962,3757,15.26,1.03,29,29,0,0
4.0816e+05,2.0678e+08,4,3762,4157,15.19,1.71,29,29,0,0
4.0865e+05,2.069e+08,4,4230,4900,15.2,2.72,29,29,0,0
4.0909e+05,2.0701e+08,4,4924,5228,15.17,2.62,29,30,0,0
4.0958e+05,2.0714e+08,4,5240,5385,15.24,2.77,30,30,0,0
4.0996e+05,2.0723e+08,4,5404,5557,15.26,2.63,29,30,0,0
4.1088e+05,2.0745e+08,4,5557,5571,15.2,2.56,29,30,0,0
4.1131e+05,2.0756e+08,4,5563,5500,15.22,2.46,29,30,0,0
4.122e+05,2.0777e+08,4,5496,5357,15.26,2.34,29,30,0,0
4.1265e+05,2.0788e+08,4,5359,5385,15.17,2.3,30,30,0,0
4.1306e+05,2.0799e+08,4,5381,5328,15.23,2.09,29,30,0,0
4.1393e+05,2.0821e+08,4,5319,5142,15.23,2.04,30,30,0,0
4.1436e+05,2.0831e+08,4,5131,5028,15.35,1.93,29,30,0,0
4.1481e+05,2.0842e+08,4,5024,4985,15.26,2.02,29,30,0,0
4.1566e+05,2.0864e+08,4,4987,5042,15.23,1.98,29,31,0,0
4.1611e+05,2.0875e+08,4,5036,4985,15.32,1.81,29,31,0,0
4.1652e+05,2.0885e+08,4,4984,4971,15.16,2.19,29,31,0,0
4.1696e+05,2.0896e+08,4,4991,5257,15.29,2.7,30,31,0,0
4.1744e+05,2.0907e+08,4,5245,5100,15.26,2.08,29,31,0,0
4.1784e+05,2.0917e+08,4,5102,5185,15.29,2.43,30,31,0,0
4.1826e+05,2.0928e+08,4,5187,5285,15.26,2.45,29,31,0,0
4.1871e+05,2.0939e+08,4,5285,5300,15.27,2.66,30,31,0,0
4.1964e+05,2.0962e+08,4,5306,5485,15.14,2.64,29,31,0,0
4.2004e+05,2.0972e+08,4,5483,5400,15.2,2.51,29,31,0,0
4.2049e+05,2.0983e+08,4,5399,5385,15.17,2.91,29,31,0,0
4.2142e+05,2.1005e+08,4,5379,5242,15.12,2.2,29,32,0,0
4.2186e+05,2.1017e+08,4,5238,5200,15.13,2.21,29,32,0,0
4.2228e+05,2.1027e+08,4,5195,5128,15.22,2.17,29,32,0,0
4.2268e+05,2.1037e+08,4,5129,5228,15.16,2.42,29,32,0,0
4.2313e+05,2.1048e+08,4,5226,5171,15.2,2.25,29,32,0,0
4.2361e+05,2.106e+08,4,5165,5085,15.25,2.06,29,32,0,0
4.2406e+05,2.107e+08,4,5086,5128,15.24,2.66,30,32,0,0
4.2451e+05,2.1081e+08,4,5143,5300,15.22,2.51,29,32,0,0
4.2491e+05,2.1092e+08,4,5299,5257,15.2,2.64,29,32,0,0
4.2584e+05,2.1114e+08,4,5262,5385,15.26,2.56,29,32,0,0
4.2626e+05,2.1125e+08,4,5399,5542,15.25,2.53,29,32,0,0
4.267e+05,2.1136e+08,4,5519,5171,15.23,2.15,29,32,0,0
4.2714e+05,2.1147e+08,4,5184,5357,15.22,2.53,30,33,0,0
4.2759e+05,2.1158e+08,4,5361,5428,15.18,2.43,29,33,0,0
4.2804e+05,2.1168e+08,4,5424,5214,15.17,2.53,29,33,0,0
4.2848e+05,2.1179e+08,4,5223,5357,15.23,2.52,29,33,0,0
4.2893e+05,2.119e+08,4,5362,5471,15.16,2.93,29,33,0,0
4.2938e+05,2.1201e+08,4,5469,5442,15.22,2.54,29,33,0,0
4.2981e+05,2.1212e+08,4,5437,5357,15.16,2.76,30,33,0,0
4.3024e+05,2.1223e+08,4,5356,5342,15.22,2.57,29,33,0,0
4.3063e+05,2.1233e+08,4,5344,5428,15.16,2.85,29,33,0,0
4.3108e+05,2.1244e+08,4,5432,5528,15.17,2.77,30,33,0,0
4.3153e+05,2.1255e+08,4,5520,5414,15.25,2.41,29,33,0,0
4.3198e+05,2.1266e+08,4,5415,5442,15.23,2.34,30,33,0,0
4.3242e+05,2.1277e+08,4,5433,5314,15.22,2.43,29,33,0,0
4.3287e+05,2.1288e+08,4,5297,5085,15.2,2.16,29,33,0,0
4.3331e+05,2.1299e+08,4,5083,5057,15.23,2.21,29,34,0,0
4.3376e+05,2.1309e+08,4,5063,5200,15.25,2.31,29,34,0,0
4.3421e+05,2.1321e+08,4,5198,5185,15.18,2.4,29,34,0,0
4.3462e+05,2.1331e+08,4,5184,5157,15.19,2.35,29,34,0,0
4.3505e+05,2.1342e+08,4,5156,5142,15.2,2.57,30,34,0,0
4.3553e+05,2.1353e+08,4,5150,5242,15.26,2.63,29,34,0,0
4.3594e+05,2.1363e+08,4,5244,5271,15.17,2.59,29,34,0,0
4.365e+05,2.1385e+08,4,5271,5271,15.25,2.53,29,34,0,0
4.3694e+05,2.1396e+08,4,5277,5342,15.19,2.63,30,34,0,0
4.378e+05,2.1417e+08,4,5342,5357,15.21,2.58,30,34,0,0
4.3824e+05,2.1428e+08,4,5364,5457,15.18,2.88,29,34,0,0
4.3867e+05,2.1439e+08,4,5460,5500,15.2,3.07,30,35,0,0
4.3913e+05,2.145e+08,4,5505,5571,15.22,3.07,30,35,0,0
4.3958e+05,2.1462e+08,4,5571,5571,15.19,3.06,29,35,0,0
4.4046e+05,2.1483e+08,4,5575,5657,15.15,2.94,29,35,0,0
4.4091e+05,2.1494e+08,4,5634,5400,15.25,2.63,29,35,0,0
4.4176e+05,2.1516e+08,4,5400,5442,15.19,2.46,29,35,0,0
4.4221e+05,2.1526e+08,4,5440,5371,15.21,2.32,29,35,0,0
4.4264e+05,2.1537e+08,4,5366,5185,15.2,2.04,29,35,0,0
4.4311e+05,2.1549e+08,4,5182,5157,15.22,2.24,30,35,0,0
4.4351e+05,2.1559e+08,4,5154,5128,15.15,2.09,29,35,0,0
4.4392e+05,2.1569e+08,4,5126,5028,15.2,2.2,30,35,0,0
4.4437e+05,2.1581e+08,4,5029,5042,15.22,2.15,29,36,0,0
4.4482e+05,2.1592e+08,4,5049,5114,15.19,2.44,29,36,0,0
4.4527e+05,2.1603e+08,4,5115,5128,15.21,2.25,30,36,0,0
4.4567e+05,2.1613e+08,4,5128,5157,15.14,2.46,30,36,0,0
4.4612e+05,2.1624e+08,4,5154,5128,15.19,2.45,30,36,0,0
4.4652e+05,2.1635e+08,4,5129,5285,15.19,2.43,29,36,0,0
4.4701e+05,2.1646e+08,4,5286,5314,15.14,2.55,29,36,0,0
4.4746e+05,2.1657e+08,4,5311,5271,15.17,2.48,30,36,0,0
4.483e+05,2.1678e+08,4,5268,5128,15.22,2.18,29,36,0,0
4.4873e+05,2.169e+08,4,5126,5100,15.15,2.28,30,36,0,0
4.4918e+05,2.1701e+08,4,5100,5114,15.25,2.33,29,36,0,0
4.4966e+05,2.1712e+08,4,5121,5200,15.22,2.26,30,36,0,0
4.5011e+05,2.1723e+08,4,5197,5157,15.23,2.36,30,37,0,0
4.5055e+05,2.1734e+08,4,5157,5157,15.26,2.61,30,37,0,0
4.51e+05,2.1745e+08,4,5177,5385,15.25,2.82,30,37,0,0
4.514e+05,2.1755e+08,4,5387,5542,15.21,2.94,29,37,0,0
4.5185e+05,2.1766e+08,4,5543,5585,15.23,2.67,30,37,0,0
4.5229e+05,2.1777e+08,4,5571,5428,15.22,2.46,30,37,0,0
4.5271e+05,2.1788e+08,4,5421,5328,15.24,2.57,29,37,0,0
4.5315e+05,2.1799e+08,4,5334,5428,15.2,2.58,30,37,0,0
4.5359e+05,2.1809e+08,4,5429,5471,15.17,2.57,30,37,0,0
4.5404e+05,2.182e+08,4,5470,5457,15.19,3.04,30,37,0,0
4.5494e+05,2.1842e+08,4,5457,5457,15.16,2.39,30,37,0,0
4.5579e+05,2.1863e+08,4,5455,5385,15.2,2.67,30,38,0,0
4.5623e+05,2.1875e+08,4,5378,5314,15.14,2.57,30,38,0,0
4.5666e+05,2.1886e+08,4,5311,5271,15.17,2.29,30,38,0,0
4.5709e+05,2.1897e+08,4,5274,5314,15.25,2.44,30,38,0,0
4.5754e+05,2.1908e+08,4,5317,5371,15.11,2.8,30,38,0,0
4.5799e+05,2.1919e+08,4,5368,5342,15.16,2.52,30,38,0,0
4.5844e+05,2.1931e+08,4,5336,5285,15.23,2.32,30,38,0,0
4.5885e+05,2.1941e+08,4,5277,5171,15.15,2.41,30,38,0,0
4.5975e+05,2.1963e+08,4,5175,5300,15.2,2.28,30,38,0,0
4.6058e+05,2.1984e+08,4,5299,5214,15.22,2.31,30,38,0,0
4.6101e+05,2.1995e+08,4,5209,5071,15.22,2.2,30,38,0,0
4.6146e+05,2.2006e+08,4,5069,5028,15.17,2.24,30,39,0,0
4.6236e+05,2.2028e+08,4,5031,5100,15.19,2.56,30,39,0,0
4.6276e+05,2.2038e+08,4,5104,5300,15.19,2.92,30,39,0,0
4.6328e+05,2.2051e+08,4,5311,5414,15.16,2.79,30,39,0,0
4.6373e+05,2.2062e+08,4,5409,5371,15.2,2.73,30,39,0,0
4.6459e+05,2.2084e+08,4,5380,5557,15.14,2.91,30,39,0,0
4.6499e+05,2.2094e+08,4,5557,5585,15.22,2.94,30,39,0,0
4.6543e+05,2.2105e+08,4,5583,5542,15.16,2.85,30,39,0,0
4.6588e+05,2.2116e+08,4,5542,5542,15.17,2.85,30,39,0,0
4.6633e+05,2.2127e+08,4,5542,5542,15.16,2.9,30,39,0,0
4.6677e+05,2.2138e+08,4,5545,5571,15.15,2.69,30,40,0,0
4.6722e+05,2.2149e+08,4,5571,5571,15.16,3.03,30,40,0,0
4.6763e+05,2.2159e+08,4,5571,5571,15.16,2.72,30,40,0,0
4.6807e+05,2.2169e+08,4,5570,5557,15.2,2.7,30,40,0,0
4.6855e+05,2.2182e+08,4,5549,5471,15.23,2.83,30,40,0,0
4.6893e+05,2.2192e+08,4,5458,5342,15.15,2.37,30,40,0,0
4.6938e+05,2.2203e+08,4,5357,5585,15.15,3.07,30,40,0,0
4.6982e+05,2.2214e+08,4,5583,5571,15.26,3.16,30,40,0,0
4.7027e+05,2.2225e+08,4,5571,5571,15.23,2.97,30,40,0,0
4.7068e+05,2.2235e+08,4,5562,5457,15.22,2.44,30,40,0,0
4.7113e+05,2.2246e+08,4,5458,5471,15.22,2.74,30,40,0,0
4.7161e+05,2.2258e+08,4,5472,5500,15.15,2.89,30,40,0,0
4.7244e+05,2.2279e+08,4,5498,5457,15.23,2.85,30,41,0,0
4.7287e+05,2.2289e+08,4,5456,5414,15.17,2.31,30,41,0,0
4.7331e+05,2.23e+08,4,5412,5300,15.22,2.34,30,41,0,0
4.7375e+05,2.2311e+08,4,5294,5228,15.14,2.32,30,41,0,0
4.742e+05,2.2322e+08,4,5231,5257,15.2,2.49,30,41,0,0
4.746e+05,2.2332e+08,4,5260,5300,15.18,2.47,30,41,0,0
4.7506e+05,2.2343e+08,4,5299,5285,15.23,2.36,30,41,0,0
4.7546e+05,2.2354e+08,4,5275,5085,15.22,2.04,30,41,0,0
4.7592e+05,2.2365e+08,4,5093,5185,15.22,2.57,30,41,0,0
4.7635e+05,2.2375e+08,4,5186,5214,15.19,2.49,30,41,0,0
4.7678e+05,2.2387e+08,4,5215,5242,15.18,2.33,30,41,0,0
4.7722e+05,2.2398e+08,4,5250,5357,15.25,2.37,30,41,0,0
4.7763e+05,2.2408e+08,4,5354,5285,15.19,2.42,30,41,0,0
4.7811e+05,2.2419e+08,4,5285,5285,15.15,2.57,30,42,0,0
4.7851e+05,2.2429e+08,4,5281,5214,15.18,2.18,30,42,0,0
4.7896e+05,2.244e+08,4,5216,5257,15.23,2.34,30,42,0,0
4.7941e+05,2.2451e+08,4,5264,5314,15.2,2.32,30,42,0,0
4.7985e+05,2.2462e+08,4,5302,5185,15.2,2.25,30,42,0,0
4.8026e+05,2.2472e+08,4,5184,5157,15.17,2.18,30,42,0,0
4.8072e+05,2.2484e+08,4,5159,5185,15.19,2.24,30,42,0,0
4.8115e+05,2.2495e+08,4,5193,5271,15.2,2.44,30,42,0,0
4.8156e+05,2.2504e+08,4,5274,5314,15.23,2.3,30,42,0,0
4.8196e+05,2.2514e+08,4,5312,5228,15.19,2.29,30,42,0,0
4.8244e+05,2.2526e+08,4,5230,5285,15.16,2.54,30,42,0,0
4.829e+05,2.2537e+08,4,5276,5200,15.1,2.6,30,42,0,0
4.8331e+05,2.2547e+08,4,5205,5342,15.14,2.4,30,42,0,0
4.8376e+05,2.2559e+08,4,5347,5400,15.12,2.34,30,42,0,0
4.8417e+05,2.2569e+08,4,5398,5285,15.16,2.4,30,43,0,0
4.846e+05,2.258e+08,4,5285,5300,15.2,2.51,30,43,0,0
4.8503e+05,2.2591e+08,4,5300,5300,15.19,2.33,30,43,0,0
4.8548e+05,2.2602e+08,4,5295,5257,15.19,2.3,30,43,0,0
4.8636e+05,2.2624e+08,4,5256,5242,15.2,2.41,30,43,0,0
4.8726e+05,2.2646e+08,4,5243,5328,15.24,2.31,30,43,0,0
4.8771e+05,2.2657e+08,4,5324,5242,15.2,2.5,30,43,0,0
4.8819e+05,2.2668e+08,4,5238,5185,15.2,2.24,30,43,0,0
4.89e+05,2.2689e+08,4,5186,5400,15.27,2.44,30,43,0,0
4.8944e+05,2.27e+08,4,5386,5114,15.17,2.19,30,43,0,0
4.8989e+05,2.2711e+08,4,5121,5271,15.13,2.29,30,44,0,0
4.9034e+05,2.2722e+08,4,5272,5300,15.14,2.14,30,44,0,0
4.9078e+05,2.2733e+08,4,5303,5357,15.13,2.53,30,44,0,0
4.9123e+05,2.2744e+08,4,5361,5457,15.2,2.62,30,44,0,0
4.9167e+05,2.2755e+08,4,5453,5400,15.16,2.15,30,44,0,0
4.9214e+05,2.2767e+08,4,5388,5271,15.19,2.31,30,44,0,0
4.9254e+05,2.2776e+08,4,5275,5328,15.17,2.47,30,44,0,0
4.9298e+05,2.2787e+08,4,5332,5400,15.12,2.58,30,44,0,0
4.9343e+05,2.2798e+08,4,5391,5214,15.22,2.38,30,44,0,0
4.9388e+05,2.281e+08,4,5245,5528,15.18,2.85,30,44,0,0
4.9432e+05,2.282e+08,4,5500,5228,15.29,1.97,30,44,0,0
4.9476e+05,2.2831e+08,4,5224,5185,15.3,2.21,30,44,0,0
4.9521e+05,2.2843e+08,4,5170,5071,15.27,1.92,30,44,0,0
4.9565e+05,2.2853e+08,4,5084,5228,15.22,2.16,30,44,0,0
4.9611e+05,2.2864e+08,4,5215,5100,15.23,2.07,30,45,0,0
4.965e+05,2.2875e+08,4,5121,5342,15.22,2.64,30,45,0,0
4.9693e+05,2.2886e+08,4,5347,5400,15.22,2.45,30,45,0,0
4.9734e+05,2.2896e+08,4,5403,5442,15.2,2.43,30,45,0,0
4.9779e+05,2.2907e+08,4,5438,5385,15.25,2.33,30,45,0,0
4.9823e+05,2.2918e+08,4,5382,5342,15.22,2.32,30,45,0,0
4.9867e+05,2.2929e+08,4,5353,5471,15.16,2.67,30,45,0,0
4.9912e+05,2.294e+08,4,5476,5557,15.21,2.61,30,45,0,0
4.9957e+05,2.2951e+08,4,5547,5428,15.22,2.43,30,45,0,0
4.9996e+05,2.2961e+08,4,5426,5400,15.23,2.44,30,45,0,0
5.0043e+05,2.2973e+08,4,5401,5414,15.22,2.32,30,45,0,0
5.0083e+05,2.2983e+08,4,5405,5300,15.25,2.29,30,45,0,0
5.0124e+05,2.2993e+08,4,5303,5371,15.25,2.28,30,45,0,0
5.0173e+05,2.3005e+08,4,5365,5314,15.24,2.31,30,45,0,0
5.0217e+05,2.3016e+08,4,5305,5242,15.25,2.13,30,46,0,0
5.0262e+05,2.3026e+08,4,5250,5328,15.2,2.2,30,46,0,0
5.0302e+05,2.3037e+08,4,5329,5342,15.16,2.21,30,46,0,0
5.0347e+05,2.3048e+08,4,5350,5442,15.17,2.27,30,46,0,0
5.0387e+05,2.3059e+08,4,5439,5414,15.2,2.36,30,46,0,0
5.043e+05,2.3069e+08,4,5414,5414,15.17,2.45,30,46,0,0
5.0515e+05,2.309e+08,4,5414,5457,15.2,2.61,30,46,0,0
5.056e+05,2.3102e+08,4,5448,5357,15.12,2.42,30,46,0,0
5.06e+05,2.3112e+08,4,5364,5514,15.17,2.62,30,46,0,0
5.0646e+05,2.3124e+08,4,5504,5428,15.06,2.7,30,46,0,0
5.069e+05,2.3134e+08,4,5431,5471,15.16,2.67,30,46,0,0
5.0734e+05,2.3145e+08,4,5473,5500,15.11,2.35,30,46,0,0
5.0778e+05,2.3156e+08,4,5489,5257,15.17,2,30,46,0,0
5.0824e+05,2.3167e+08,4,5250,5157,15.15,2.17,30,47,0,0
5.0868e+05,2.3178e+08,4,5155,5128,15.2,2.25,30,47,0,0
5.0912e+05,2.3189e+08,4,5129,5214,15.16,2.44,30,47,0,0
5.0957e+05,2.32e+08,4,5213,5171,15.19,2.31,30,47,0,0
5.1006e+05,2.3212e+08,4,5173,5200,15.16,2.19,30,47,0,0
5.1045e+05,2.3221e+08,4,5198,5157,15.21,2.13,30,47,0,0
5.1086e+05,2.3232e+08,4,5158,5271,15.22,2.49,30,47,0,0
5.1135e+05,2.3243e+08,4,5278,5357,15.21,2.45,30,47,0,0
5.1179e+05,2.3255e+08,4,5353,5314,15.17,2.23,30,47,0,0
5.1222e+05,2.3265e+08,4,5312,5300,15.15,2.45,30,47,0,0
5.1265e+05,2.3276e+08,4,5304,5357,15.21,2.47,30,47,0,0
5.131e+05,2.3287e+08,4,5360,5400,15.17,2.45,30,47,0,0
5.135e+05,2.3297e+08,4,5394,5314,15.16,2.18,30,47,0,0
5.1395e+05,2.3307e+08,4,5310,5100,15.18,2.38,30,47,0,0
5.144e+05,2.3318e+08,4,5110,5257,15.19,2.59,30,48,0,0
5.1484e+05,2.3329e+08,4,5259,5285,15.2,2.32,30,48,0,0
5.1529e+05,2.334e+08,4,5275,5157,15.11,2.1,30,48,0,0
5.1574e+05,2.3352e+08,4,5144,5042,15.16,1.59,30,48,0,0
5.1614e+05,2.3362e+08,4,5039,4928,15.19,2.07,30,48,0,0
5.1658e+05,2.3373e+08,4,4929,5057,15.23,2.2,30,48,0,0
5.1704e+05,2.3384e+08,4,5049,4742,15.19,1.78,30,48,0,0
5.1748e+05,2.3395e+08,4,4754,4885,15.18,2.23,30,48,0,0
5.1793e+05,2.3406e+08,4,4889,4957,15.17,2.55,30,48,0,0
5.1837e+05,2.3417e+08,4,4967,5114,15.19,2.32,30,48,0,0
5.1971e+05,2.345e+08,4,5115,5200,15.14,2.21,30,48,0,0
5.2015e+05,2.346e+08,4,5199,5171,15.11,2.23,30,48,0,0
5.2064e+05,2.3473e+08,4,5173,5200,15.19,2.16,30,48,0,0
5.2105e+05,2.3483e+08,4,5181,5000,15.2,1.95,30,49,0,0
5.2145e+05,2.3493e+08,4,4994,4928,15.17,1.85,30,49,0,0
5.2188e+05,2.3504e+08,4,4922,4828,15.14,1.8,30,49,0,0
5.2232e+05,2.3515e+08,4,4826,4800,15.19,1.81,30,49,0,0
5.2272e+05,2.3525e+08,4,4798,4700,15.18,1.55,30,49,0,0
5.2317e+05,2.3536e+08,4,4701,4757,15.15,1.7,30,49,0,0
5.2411e+05,2.3559e+08,4,4758,4814,15.13,1.75,30,49,0,0
5.2455e+05,2.357e+08,4,4814,4814,15.14,1.8,30,49,0,0
5.2503e+05,2.3582e+08,4,4817,4842,15.05,2.12,30,49,0,0
5.2547e+05,2.3593e+08,4,4865,5071,15.14,2.02,30,49,0,0
5.2592e+05,2.3603e+08,4,5081,5171,15.11,2.34,30,49,0,0
5.2633e+05,2.3614e+08,4,5168,5142,15.17,2.24,30,49,0,0
5.2677e+05,2.3624e+08,4,5144,5214,15.11,2.28,30,49,0,0
5.2722e+05,2.3635e+08,4,5214,5271,15.17,2.56,30,49,0,0
5.2815e+05,2.3658e+08,4,5275,5414,15.19,2.43,30,50,0,0
5.2859e+05,2.3669e+08,4,5411,5385,15.19,2.54,30,50,0,0
5.2899e+05,2.3679e+08,4,5385,5400,15.16,2.2,30,50,0,0
5.2945e+05,2.3691e+08,4,5397,5371,15.16,2.41,30,50,0,0
5.2986e+05,2.3701e+08,4,5369,5271,15.19,1.93,30,50,0,0
5.303e+05,2.3712e+08,4,5272,5285,15.19,2.27,30,50,0,0
5.3074e+05,2.3722e+08,4,5283,5228,15.2,2.14,30,50,0,0
5.3122e+05,2.3734e+08,4,5213,5071,15.2,1.81,30,50,0,0
5.3207e+05,2.3755e+08,4,5069,4828,15.23,1.77,30,50,0,0
5.3252e+05,2.3766e+08,4,4830,4885,15.22,1.94,30,50,0,0
5.3299e+05,2.3777e+08,4,4889,4971,15.23,2.15,30,50,0,0
5.3342e+05,2.3788e+08,4,4987,5142,15.15,2.22,30,50,0,0
5.3387e+05,2.3799e+08,4,5140,5128,15.19,2.33,30,50,0,0
5.3431e+05,2.381e+08,4,5143,5342,15.18,2.54,30,50,0,0
5.3476e+05,2.3821e+08,4,5348,5442,15.19,2.67,30,51,0,0
5.3516e+05,2.3831e+08,4,5440,5342,15.11,2.42,30,51,0,0
5.3565e+05,2.3843e+08,4,5343,5414,15.17,2.58,30,51,0,0
5.3612e+05,2.3854e+08,4,5408,5300,15.17,2.19,30,51,0,0
5.3655e+05,2.3865e+08,4,5306,5400,15.19,2.28,30,51,0,0
5.3699e+05,2.3876e+08,4,5388,5271,15.14,2.39,30,51,0,0
5.3744e+05,2.3887e+08,4,5273,5314,15.17,2.57,30,51,0,0
5.3784e+05,2.3897e+08,4,5315,5357,15.14,2.47,30,51,0,0
5.3829e+05,2.3907e+08,4,5366,5557,15.17,2.61,30,51,0,0
5.3874e+05,2.3919e+08,4,5548,5428,15.15,2.62,30,51,0,0
5.3919e+05,2.393e+08,4,5435,5514,15.16,2.46,30,51,0,0
5.4044e+05,2.3961e+08,4,5509,5257,15.08,2.66,30,52,0,0
5.4089e+05,2.3973e+08,4,5266,5400,15.09,2.63,30,52,0,0
5.4174e+05,2.3994e+08,4,5399,5314,15.15,2.52,30,52,0,0
5.422e+05,2.4005e+08,4,5313,5300,15.08,2.47,30,52,0,0
5.4309e+05,2.4027e+08,4,5297,5214,15.16,2.32,30,52,0,0
5.4354e+05,2.4038e+08,4,5215,5242,15.18,2.27,30,52,0,0
5.4394e+05,2.4048e+08,4,5242,5271,15.14,2.39,30,52,0,0
5.4443e+05,2.406e+08,4,5271,5271,15.2,2.47,30,52,0,0
5.4488e+05,2.4071e+08,4,5274,5314,15.19,2.38,30,52,0,0
5.4532e+05,2.4082e+08,4,5311,5285,15.13,2.38,30,52,0,0
5.4576e+05,2.4093e+08,4,5289,5357,15.17,2.55,30,52,0,0
5.462e+05,2.4104e+08,4,5365,5457,15.18,2.42,30,52,0,0
5.4663e+05,2.4115e+08,4,5455,5442,15.1,2.39,30,53,0,0
5.4708e+05,2.4126e+08,4,5444,5471,15.19,2.76,30,53,0,0
5.4797e+05,2.4148e+08,4,5467,5371,15.14,2.46,30,53,0,0
5.4882e+05,2.4169e+08,4,5372,5414,15.14,2.57,30,53,0,0
5.4926e+05,2.418e+08,4,5404,5200,15.17,2.16,30,53,0,0
5.4972e+05,2.4192e+08,4,5207,5257,15.15,2.5,30,53,0,0
5.501e+05,2.4201e+08,4,5257,5257,15.13,2.45,30,53,0,0
5.5056e+05,2.4212e+08,4,5260,5328,15.12,2.31,30,53,0,0
5.5102e+05,2.4224e+08,4,5316,5200,15.14,2.32,30,53,0,0
5.5146e+05,2.4235e+08,4,5211,5371,15.09,2.71,30,53,0,0
5.5187e+05,2.4245e+08,4,5375,5428,15.1,2.51,30,53,0,0
5.5228e+05,2.4255e+08,4,5429,5514,15.16,2.67,30,53,0,0
5.5272e+05,2.4266e+08,4,5508,5442,15.14,2.59,30,54,0,0
5.5316e+05,2.4277e+08,4,5442,5442,15.12,2.62,30,54,0,0
5.5358e+05,2.4288e+08,4,5442,5442,15.19,2.46,30,54,0,0
5.5403e+05,2.4299e+08,4,5432,5300,15.17,2.4,30,54,0,0
5.5448e+05,2.4309e+08,4,5309,5442,15.16,2.46,30,54,0,0
5.5488e+05,2.432e+08,4,5441,5385,15.18,2.58,30,54,0,0
5.5537e+05,2.4331e+08,4,5382,5357,15.14,2.57,30,54,0,0
5.5582e+05,2.4342e+08,4,5365,5485,15.2,2.23,30,54,0,0
5.5626e+05,2.4353e+08,4,5480,5371,15.09,2.61,30,54,0,0
5.5671e+05,2.4364e+08,4,5362,5257,15.16,2.46,30,54,0,0
5.5714e+05,2.4375e+08,4,5261,5300,15.14,2.52,30,54,0,0
5.5757e+05,2.4386e+08,4,5310,5385,15.19,2.58,30,54,0,0
5.58e+05,2.4397e+08,4,5387,5414,15.12,2.65,30,54,0,0
5.5845e+05,2.4407e+08,4,5414,5414,15.18,2.38,30,55,0,0
5.589e+05,2.4418e+08,4,5396,5228,15.26,2.31,30,55,0,0
5.5934e+05,2.4429e+08,4,5213,5085,15.24,1.87,30,55,0,0
5.5975e+05,2.444e+08,4,5070,4914,15.23,1.88,30,55,0,0
5.602e+05,2.4451e+08,4,4918,4957,15.23,1.93,30,55,0,0
5.6062e+05,2.4462e+08,4,4955,4942,15.25,2.05,30,55,0,0
5.61e+05,2.4471e+08,4,4930,4114,15.8,0.69,30,55,0,0
5.6149e+05,2.4483e+08,4,4107,3600,15.38,1.48,30,55,0,0
5.6194e+05,2.4494e+08,4,3508,2628,15.6,0.15,30,55,0,0
5.6238e+05,2.4504e+08,4,2601,2242,15.57,0.06,30,55,0,0
5.6284e+05,2.4516e+08,4,2247,2285,15.56,0.45,30,55,0,0
5.6324e+05,2.4526e+08,4,2285,2285,15.59,0.21,30,55,0,0
5.6372e+05,2.4538e+08,4,2272,2142,15.58,0.23,30,55,0,0
5.6414e+05,2.4548e+08,4,2147,2200,15.58,0.27,30,55,0,0
5.6454e+05,2.4559e+08,4,2198,2157,15.6,0.21,30,55,0,0
5.6547e+05,2.4581e+08,4,2154,2114,15.6,0.23,30,55,0,0
5.6588e+05,2.4591e+08,4,2114,2142,15.58,0.26,30,55,0,0
5.6633e+05,2.4602e+08,4,2139,2114,15.58,0.23,30,55,0,0
5.6673e+05,2.4612e+08,4,2114,2128,15.6,0.26,30,55,0,0
5.6722e+05,2.4624e+08,4,2128,2128,15.6,0.25,30,55,0,0
5.6762e+05,2.4634e+08,4,2127,2085,15.58,0.23,30,55,0,0
5.6811e+05,2.4645e+08,4,2082,2042,15.59,0.21,30,55,0,0
5.6852e+05,2.4656e+08,4,2039,2000,15.58,0.23,30,55,0,0
5.6897e+05,2.4666e+08,4,2001,2028,15.6,0.23,30,55,0,0
5.6946e+05,2.4678e+08,4,2023,1957,15.69,0.13,30,55,0,0
5.6991e+05,2.4689e+08,4,1932,1671,15.67,0.01,29,55,0,0
5.7035e+05,2.47e+08,4,1645,1371,15.66,0.04,29,55,0,0
5.708e+05,2.471e+08,4,1366,1300,15.66,0.1,29,55,0,0
5.7123e+05,2.4721e+08,4,1300,1300,15.66,0.1,29,55,0,0
5.7165e+05,2.4732e+08,4,1300,1300,15.66,0.11,29,55,0,0
5.7206e+05,2.4742e+08,4,1299,1285,15.66,0.11,29,55,0,0
5.7256e+05,2.4754e+08,4,1286,1300,15.66,0.11,29,55,0,0
5.7296e+05,2.4764e+08,4,1299,1285,15.66,0.11,29,55,0,0
5.7341e+05,2.4775e+08,4,1285,1285,15.66,0.11,29,55,0,0
5.7386e+05,2.4785e+08,4,1285,1285,15.66,0.11,29,55,0,0
5.7431e+05,2.4797e+08,4,1285,1285,15.67,0.11,29,55,0,0
5.7476e+05,2.4808e+08,4,1285,1300,15.67,0.11,29,55,0,0
5.7519e+05,2.4819e+08,4,1300,1300,15.67,0.11,29,55,0,0
5.7562e+05,2.4829e+08,4,1300,1300,15.67,0.1,29,55,0,0
5.7607e+05,2.484e+08,4,1300,1300,15.67,0.11,29,55,0,0
5.7652e+05,2.4851e+08,4,1299,1285,15.67,0.11,29,55,0,0
5.7697e+05,2.4862e+08,4,1285,1300,15.68,0.11,29,55,0,0
5.7741e+05,2.4873e+08,4,1298,1285,15.68,0.1,29,55,0,0
5.7787e+05,2.4884e+08,4,1285,1300,15.68,0.11,29,55,0,0
5.7826e+05,2.4894e+08,4,1298,1285,15.68,0.11,29,55,0,0
5.7873e+05,2.4905e+08,4,1285,1285,15.69,0.11,29,55,0,0
5.7912e+05,2.4915e+08,4,1285,1285,15.69,0.11,29,55,0,0
5.7956e+05,2.4926e+08,4,1285,1285,15.69,0.11,29,55,0,0
5.8001e+05,2.4937e+08,4,1285,1285,15.69,0.1,29,55,0,0
5.8046e+05,2.4948e+08,4,1285,1285,15.69,0.11,29,55,0,0
5.8091e+05,2.4959e+08,4,1285,1300,15.69,0.11,29,55,0,0
5.8139e+05,2.497e+08,4,1300,1300,15.69,0.11,29,55,0,0
5.8178e+05,2.498e+08,4,1300,1300,15.69,0.1,29,55,0,0
5.8222e+05,2.4991e+08,4,1300,1300,15.7,0.11,29,55,0,0
5.8266e+05,2.5002e+08,4,1300,1300,15.69,0.11,29,55,0,0
5.8312e+05,2.5013e+08,4,1300,1300,15.69,0.11,29,55,0,0
5.8356e+05,2.5024e+08,4,1300,1300,15.7,0.11,29,55,0,0
5.8397e+05,2.5034e+08,4,1300,1300,15.7,0.11,29,55,0,0
5.8446e+05,2.5045e+08,4,1300,1300,15.7,0.11,29,55,0,0
5.8486e+05,2.5056e+08,4,1300,1300,15.7,0.11,29,55,0,0
5.8529e+05,2.5066e+08,4,1300,1300,15.7,0.11,29,55,0,0
5.8573e+05,2.5077e+08,4,1299,1285,15.71,0.11,29,55,0,0
5.8622e+05,2.5088e+08,4,1286,1300,15.7,0.11,29,55,0,0
5.8707e+05,2.5109e+08,4,1299,1285,15.71,0.11,29,55,0,0
5.8755e+05,2.5121e+08,4,1285,1300,15.71,0.11,29,55,0,0
5.8801e+05,2.5131e+08,4,1243,500,15.73,0.01,29,55,0,0
5.8844e+05,2.5142e+08,4,480,200,15.72,0.03,29,55,0,0
5.8888e+05,2.5153e+08,4,190,0,15.73,0.04,29,55,0,0
5.8937e+05,2.5164e+08,4,0,0,15.73,0.04,29,55,0,0
5.8982e+05,2.5175e+08,4,0,0,15.72,0.04,29,55,0,0
5.9028e+05,2.5186e+08,4,0,0,15.73,0.04,29,55,0,0
5.9078e+05,2.5197e+08,4,0,0,15.73,0.04,29,55,0,0
5.9123e+05,2.5208e+08,4,0,0,15.73,0.04,29,55,0,0
5.9166e+05,2.5218e+08,4,0,0,15.73,0.04,29,55,0,0
5.9214e+05,2.5229e+08,4,0,0,15.73,0.04,29,55,0,0
5.9258e+05,2.524e+08,4,0,0,15.73,0.04,29,55,0,0
5.9304e+05,2.5251e+08,4,0,0,15.73,0.04,29,55,0,0
5.9349e+05,2.5262e+08,4,0,0,15.74,0.04,29,55,0,0
5.9394e+05,2.5272e+08,4,0,0,15.74,0.04,29,55,0,0
5.9439e+05,2.5283e+08,4,0,0,15.74,0.04,29,55,0,0
5.9489e+05,2.5295e+08,4,0,0,15.74,0.04,29,55,0,0
5.9534e+05,2.5305e+08,4,0,0,15.74,0.04,29,55,0,0
5.9578e+05,2.5316e+08,4,0,0,15.74,0.04,29,55,0,0
5.9626e+05,2.5327e+08,4,0,0,15.75,0.04,29,55,0,0
5.9666e+05,2.5337e+08,4,0,0,15.75,0.04,29,55,0,0
5.9716e+05,2.5349e+08,4,0,0,15.75,0.04,29,55,0,0
5.9761e+05,2.536e+08,4,0,0,15.75,0.04,29,55,0,0
5.981e+05,2.5371e+08,4,0,0,15.75,0.04,29,55,0,0
5.9851e+05,2.538e+08,4,0,0,15.75,0.04,29,55,0,0
5.9897e+05,2.5391e+08,4,0,0,15.75,0.05,29,55,0,0
5.9939e+05,2.5401e+08,4,0,0,15.75,0.05,29,55,0,0
5.9983e+05,2.5412e+08,4,0,0,15.75,0.05,29,55,0,0
6.0028e+05,2.5423e+08,4,0,0,15.75,0.05,29,55,0,0
6.0077e+05,2.5434e+08,4,0,0,15.75,0.05,29,55,0,0
6.0114e+05,2.5446e+08,4,0,0,15.75,0.05,29,55,0,0
6.0158e+05,2.5456e+08,4,0,0,15.75,0.05,29,55,0,0
6.0204e+05,2.5467e+08,4,0,0,15.76,0.04,29,55,0,0
6.0249e+05,2.5478e+08,4,0,0,15.76,0.04,29,55,0,0
6.0294e+05,2.5488e+08,4,0,0,15.76,0.04,29,55,0,0
6.0338e+05,2.5499e+08,4,0,0,15.76,0.04,29,55,0,0
6.038e+05,2.551e+08,4,0,0,15.76,0.04,29,55,0,0
