LineNo,TimeUS,Instance,RPM,RawRPM,Volt,Curr,Temp,CTot,MotTemp,Err
1841,2.186e+07,2,0,0,16.16,0.06,24,0,0,0
2259,2.1963e+07,2,0,0,16.17,0.06,24,0,0,0
2709,2.2075e+07,2,0,0,16.16,0.06,24,0,0,0
3121,2.2175e+07,2,0,0,16.16,0.06,24,0,0,0
3574,2.2286e+07,2,0,0,16.16,0.06,24,0,0,0
3984,2.2388e+07,2,0,0,16.16,0.06,24,0,0,0
4444,2.2503e+07,2,0,0,16.16,0.06,24,0,0,0
4856,2.2606e+07,2,0,0,16.16,0.05,24,0,0,0
5270,2.2707e+07,2,0,0,16.16,0.06,24,0,0,0
5729,2.2825e+07,2,0,0,16.16,0.05,24,0,0,0
6144,2.2927e+07,2,0,0,16.17,0.06,24,0,0,0
6559,2.303e+07,2,0,0,16.16,0.06,24,0,0,0
6974,2.3135e+07,2,0,0,16.16,0.06,24,0,0,0
7425,2.3246e+07,2,0,0,16.16,0.06,24,0,0,0
7837,2.335e+07,2,0,0,16.16,0.05,24,0,0,0
8284,2.3461e+07,2,0,0,16.16,0.05,24,0,0,0
8735,2.3569e+07,2,0,0,16.16,0.05,24,0,0,0
9147,2.3673e+07,2,0,0,16.16,0.05,24,0,0,0
9556,2.3777e+07,2,0,0,16.16,0.06,24,0,0,0
9908,2.3878e+07,2,0,0,16.16,0.05,24,0,0,0
10360,2.3989e+07,2,0,0,16.16,0.05,24,0,0,0
10777,2.4093e+07,2,0,0,16.16,0.05,24,0,0,0
11231,2.4208e+07,2,0,0,16.16,0.05,24,0,0,0
11645,2.4314e+07,2,0,0,16.16,0.06,24,0,0,0
12059,2.4416e+07,2,0,0,16.16,0.06,24,0,0,0
12515,2.4531e+07,2,0,0,16.16,0.05,24,0,0,0
12929,2.4637e+07,2,0,0,16.16,0.06,24,0,0,0
13753,2.4841e+07,2,0,0,16.16,0.05,24,0,0,0
14165,2.4945e+07,2,0,0,16.16,0.06,24,0,0,0
14615,2.5056e+07,2,0,0,16.16,0.06,24,0,0,0
15034,2.5161e+07,2,0,0,16.16,0.05,24,0,0,0
15484,2.5273e+07,2,0,0,16.16,0.06,24,0,0,0
15911,2.5379e+07,2,0,0,16.16,0.06,24,0,0,0
16321,2.548e+07,2,0,0,16.16,0.06,24,0,0,0
16776,2.5593e+07,2,0,0,16.16,0.06,24,0,0,0
17193,2.5697e+07,2,0,0,16.16,0.06,24,0,0,0
17613,2.5801e+07,2,0,0,16.16,0.06,24,0,0,0
18481,2.602e+07,2,0,0,16.16,0.06,24,0,0,0
18860,2.6117e+07,2,0,0,16.16,0.06,24,0,0,0
19309,2.6229e+07,2,0,0,16.16,0.06,24,0,0,0
19762,2.6341e+07,2,0,0,16.16,0.06,24,0,0,0
20181,2.6448e+07,2,0,0,16.16,0.06,24,0,0,0
20598,2.6552e+07,2,0,0,16.16,0.06,24,0,0,0
21010,2.6653e+07,2,0,0,16.16,0.06,24,0,0,0
21465,2.6768e+07,2,0,0,16.16,0.06,24,0,0,0
21837,2.6864e+07,2,0,0,16.16,0.06,24,0,0,0
22290,2.6979e+07,2,0,0,16.16,0.06,24,0,0,0
22700,2.708e+07,2,0,0,16.16,0.06,24,0,0,0
23154,2.7193e+07,2,0,0,16.16,0.06,24,0,0,0
23540,2.7294e+07,2,0,0,16.16,0.06,24,0,0,0
23986,2.7399e+07,2,0,0,16.16,0.06,24,0,0,0
24445,2.7516e+07,2,0,0,16.16,0.06,24,0,0,0
24858,2.762e+07,2,0,0,16.16,0.05,24,0,0,0
25268,2.7721e+07,2,0,0,16.16,0.05,24,0,0,0
25681,2.7828e+07,2,0,0,16.16,0.05,24,0,0,0
26097,2.7935e+07,2,0,0,16.16,0.05,24,0,0,0
26514,2.8042e+07,2,0,0,16.16,0.05,24,0,0,0
26967,2.8153e+07,2,0,0,16.16,0.05,24,0,0,0
27382,2.8257e+07,2,0,0,16.16,0.06,24,0,0,0
27796,2.8361e+07,2,0,0,16.16,0.05,24,0,0,0
28246,2.8471e+07,2,0,0,16.16,0.05,24,0,0,0
28659,2.8573e+07,2,0,0,16.17,0.05,24,0,0,0
29110,2.8686e+07,2,0,0,16.16,0.05,24,0,0,0
29523,2.879e+07,2,0,0,16.16,0.05,24,0,0,0
30005,2.8908e+07,2,0,0,16.16,0.05,24,0,0,0
30382,2.9001e+07,2,0,0,16.16,0.05,24,0,0,0
30830,2.9113e+07,2,0,0,16.16,0.05,24,0,0,0
31244,2.9216e+07,2,0,0,16.16,0.05,24,0,0,0
31697,2.9331e+07,2,0,0,16.16,0.05,24,0,0,0
32108,2.9434e+07,2,0,0,16.17,0.05,24,0,0,0
32550,2.954e+07,2,0,0,16.16,0.05,24,0,0,0
1.9298e+05,1.5315e+08,2,0,0,0,0,0,0,0,0
1.934e+05,1.5326e+08,2,0,0,0,0.03,0,0,0,0
1.9593e+05,1.5391e+08,2,0,0,0,0.04,0,0,0,0
1.9634e+05,1.5401e+08,2,0,0,0,0.04,0,0,0,0
1.9717e+05,1.5422e+08,2,0,0,16.14,0.03,25,0,0,0
1.9802e+05,1.5444e+08,2,0,0,16.14,0.03,25,0,0,0
1.9843e+05,1.5455e+08,2,0,0,16.15,0.03,25,0,0,0
1.9889e+05,1.5466e+08,2,0,0,16.14,0.03,25,0,0,0
1.9931e+05,1.5477e+08,2,0,0,16.14,0.03,25,0,0,0
1.9972e+05,1.5488e+08,2,0,0,16.14,0.03,25,0,0,0
2.0014e+05,1.5498e+08,2,0,0,16.14,0.03,25,0,0,0
2.0056e+05,1.5509e+08,2,0,0,16.14,0.03,25,0,0,0
2.0096e+05,1.552e+08,2,0,0,16.14,0.03,25,0,0,0
2.018e+05,1.5542e+08,2,0,0,16.14,0.03,25,0,0,0
2.0225e+05,1.564e+08,2,0,0,16.14,0.03,25,0,0,0
2.025e+05,1.5647e+08,2,0,0,16.14,0.03,25,0,0,0
2.0294e+05,1.5658e+08,2,0,0,16.14,0.04,25,0,0,0
2.034e+05,1.5668e+08,2,0,0,16.14,0.04,25,0,0,0
2.0386e+05,1.5679e+08,2,0,0,16.14,0.04,25,0,0,0
2.0432e+05,1.569e+08,2,0,0,16.14,0.04,25,0,0,0
2.0477e+05,1.5701e+08,2,0,0,16.14,0.03,25,0,0,0
2.0523e+05,1.5712e+08,2,0,0,16.14,0.03,25,0,0,0
2.0568e+05,1.5722e+08,2,0,0,16.14,0.03,25,0,0,0
2.0614e+05,1.5733e+08,2,0,0,16.14,0.03,25,0,0,0
2.0708e+05,1.5755e+08,2,0,0,16.14,0.03,25,0,0,0
2.0752e+05,1.5766e+08,2,0,0,16.14,0.03,25,0,0,0
2.0797e+05,1.5777e+08,2,0,0,16.14,0.03,25,0,0,0
2.0842e+05,1.5787e+08,2,0,0,16.14,0.03,25,0,0,0
2.0888e+05,1.5798e+08,2,0,0,16.14,0.03,25,0,0,0
2.0937e+05,1.5809e+08,2,0,0,16.14,0.03,25,0,0,0
2.0986e+05,1.5821e+08,2,0,0,16.14,0.03,25,0,0,0
2.1031e+05,1.5831e+08,2,0,0,16.14,0.03,25,0,0,0
2.1076e+05,1.5841e+08,2,0,0,16.14,0.03,25,0,0,0
2.1122e+05,1.5853e+08,2,8,128,16.14,0.03,25,0,0,0
2.1168e+05,1.5863e+08,2,157,571,16.12,0.08,25,0,0,0
2.1212e+05,1.5874e+08,2,598,971,16.11,0.14,25,0,0,0
2.126e+05,1.5885e+08,2,990,1200,16.13,0.12,25,0,0,0
2.1304e+05,1.5896e+08,2,1204,1257,16.13,0.11,25,0,0,0
2.135e+05,1.5906e+08,2,1258,1285,16.13,0.11,25,0,0,0
2.1395e+05,1.5917e+08,2,1285,1285,16.13,0.11,25,0,0,0
2.1441e+05,1.5928e+08,2,1285,1300,16.14,0.1,25,0,0,0
2.1487e+05,1.5939e+08,2,1300,1314,16.13,0.1,25,0,0,0
2.1532e+05,1.5949e+08,2,1314,1314,16.13,0.1,25,0,0,0
2.1582e+05,1.5961e+08,2,1314,1314,16.13,0.1,25,0,0,0
2.1628e+05,1.5972e+08,2,1314,1314,16.13,0.1,25,0,0,0
2.1672e+05,1.5982e+08,2,1314,1314,16.13,0.1,25,0,0,0
2.174e+05,1.6003e+08,2,1315,1328,16.13,0.1,25,0,0,0
2.1784e+05,1.6014e+08,2,1328,1328,16.13,0.1,25,0,0,0
2.1834e+05,1.6026e+08,2,1326,1314,16.13,0.1,25,0,0,0
2.188e+05,1.6036e+08,2,1315,1328,16.13,0.1,25,0,0,0
2.1925e+05,1.6046e+08,2,1326,1314,16.13,0.1,25,0,0,0
2.197e+05,1.6057e+08,2,1314,1314,16.13,0.1,25,0,0,0
2.2017e+05,1.6069e+08,2,1314,1328,16.13,0.1,25,0,0,0
2.2062e+05,1.6079e+08,2,1328,1328,16.13,0.1,25,0,0,0
2.2108e+05,1.609e+08,2,1328,1328,16.13,0.1,26,0,0,0
2.215e+05,1.61e+08,2,1327,1314,16.11,0.1,25,0,0,0
2.2199e+05,1.6112e+08,2,1314,1314,16.12,0.1,25,0,0,0
2.2242e+05,1.6122e+08,2,1314,1314,16.12,0.11,26,0,0,0
2.2286e+05,1.6132e+08,2,1314,1328,16.13,0.1,25,0,0,0
2.2336e+05,1.6144e+08,2,1327,1314,16.13,0.11,25,0,0,0
2.2381e+05,1.6155e+08,2,1314,1314,16.13,0.1,26,0,0,0
2.2432e+05,1.6166e+08,2,1314,1314,16.13,0.11,25,0,0,0
2.2477e+05,1.6177e+08,2,1314,1328,16.13,0.1,26,0,0,0
2.2522e+05,1.6187e+08,2,1328,1328,16.13,0.1,25,0,0,0
2.2568e+05,1.6198e+08,2,1327,1314,16.13,0.11,25,0,0,0
2.2662e+05,1.622e+08,2,1314,1328,16.12,0.1,25,0,0,0
2.2712e+05,1.6231e+08,2,1328,1328,16.11,0.1,26,0,0,0
2.2755e+05,1.6241e+08,2,1327,1314,16.13,0.1,25,0,0,0
2.2798e+05,1.6252e+08,2,1314,1314,16.13,0.1,25,0,0,0
2.2848e+05,1.6263e+08,2,1315,1328,16.11,0.11,26,0,0,0
2.2898e+05,1.6274e+08,2,1356,1542,16.09,0.24,26,0,0,0
2.2939e+05,1.6284e+08,2,1556,2171,16.03,0.56,26,0,0,0
2.2989e+05,1.6295e+08,2,2183,2357,16.07,0.46,26,0,0,0
2.3038e+05,1.6306e+08,2,2364,2442,16.03,0.45,25,0,0,0
2.3084e+05,1.6317e+08,2,2448,2514,16.12,0.51,25,0,0,0
2.3129e+05,1.6328e+08,2,2519,2600,15.99,0.52,25,0,0,0
2.3178e+05,1.634e+08,2,2653,3228,15.93,1.36,25,0,0,0
2.3224e+05,1.635e+08,2,3279,3828,15.83,1.69,26,0,0,0
2.3267e+05,1.6361e+08,2,3886,4485,15.78,2.2,26,0,0,0
2.3311e+05,1.6372e+08,2,4515,4828,15.67,2.56,26,0,0,0
2.3356e+05,1.6383e+08,2,4864,5257,15.56,3.06,26,0,0,0
2.3401e+05,1.6393e+08,2,5272,5600,15.57,3.33,26,0,0,0
2.3447e+05,1.6404e+08,2,5600,5600,15.72,2.85,26,1,0,0
2.3492e+05,1.6416e+08,2,5619,5885,15.63,3.29,26,1,0,0
2.3578e+05,1.6436e+08,2,5883,5800,15.58,3.33,26,1,0,0
2.3628e+05,1.6448e+08,2,5810,5914,15.61,3.44,26,1,0,0
2.3672e+05,1.6459e+08,2,5924,6042,15.6,3.76,26,1,0,0
2.3716e+05,1.6469e+08,2,6042,6057,15.64,3.75,26,1,0,0
2.376e+05,1.648e+08,2,6056,6042,15.59,3.65,26,1,0,0
2.3806e+05,1.6491e+08,2,6049,6114,15.52,3.73,26,1,0,0
2.3851e+05,1.6502e+08,2,6114,6128,15.59,3.64,26,2,0,0
2.3897e+05,1.6513e+08,2,6122,6042,15.6,3.45,26,2,0,0
2.3942e+05,1.6523e+08,2,6044,6100,15.61,3.45,26,2,0,0
2.3991e+05,1.6535e+08,2,6083,5914,15.67,3.1,26,2,0,0
2.4037e+05,1.6546e+08,2,5911,5842,15.61,3.2,26,2,0,0
2.4082e+05,1.6557e+08,2,5832,5742,15.64,2.8,26,2,0,0
2.4128e+05,1.6567e+08,2,5744,5785,15.67,2.76,26,2,0,0
2.4173e+05,1.6579e+08,2,5766,5500,15.63,2.49,26,2,0,0
2.4219e+05,1.659e+08,2,5499,5442,15.61,2.71,26,2,0,0
2.4263e+05,1.66e+08,2,5440,5414,15.66,2.37,26,2,0,0
2.4306e+05,1.6611e+08,2,5406,5242,15.64,2.34,26,2,0,0
2.4355e+05,1.6623e+08,2,5247,5314,15.66,2.34,26,2,0,0
2.4401e+05,1.6634e+08,2,5299,5142,15.64,2.13,26,3,0,0
2.4446e+05,1.6644e+08,2,5139,5100,15.69,1.86,26,3,0,0
2.4495e+05,1.6656e+08,2,5093,5028,15.64,2,26,3,0,0
2.454e+05,1.6667e+08,2,5026,5000,15.59,1.88,26,3,0,0
2.4586e+05,1.6678e+08,2,5008,5228,15.66,2.26,26,3,0,0
2.4635e+05,1.6689e+08,2,5223,5171,15.64,2.13,26,3,0,0
2.4676e+05,1.6699e+08,2,5170,5114,15.58,2.28,26,3,0,0
2.4726e+05,1.671e+08,2,5145,5457,15.61,2.45,26,3,0,0
2.4767e+05,1.6721e+08,2,5456,5442,15.63,2.52,26,3,0,0
2.4816e+05,1.6732e+08,2,5442,5442,15.55,2.49,26,3,0,0
2.4859e+05,1.6743e+08,2,5451,5557,15.58,2.71,26,3,0,0
2.4904e+05,1.6754e+08,2,5555,5542,15.55,2.71,26,3,0,0
2.495e+05,1.6765e+08,2,5547,5614,15.51,2.97,26,3,0,0
2.4995e+05,1.6776e+08,2,5616,5642,15.51,2.62,26,3,0,0
2.504e+05,1.6786e+08,2,5641,5614,15.55,2.5,26,4,0,0
2.509e+05,1.6798e+08,2,5598,5442,15.54,2.52,26,4,0,0
2.5135e+05,1.6808e+08,2,5447,5528,15.64,2.79,26,4,0,0
2.5181e+05,1.682e+08,2,5534,5600,15.55,2.6,26,4,0,0
2.5226e+05,1.683e+08,2,5598,5557,15.63,2.73,26,4,0,0
2.5271e+05,1.6841e+08,2,5557,5557,15.62,2.72,26,4,0,0
2.5316e+05,1.6852e+08,2,5558,5600,15.66,2.74,26,4,0,0
2.5358e+05,1.6862e+08,2,5600,5600,15.58,2.54,26,4,0,0
2.5407e+05,1.6874e+08,2,5598,5571,15.62,2.37,26,4,0,0
2.5454e+05,1.6885e+08,2,5559,5271,15.57,1.51,26,4,0,0
2.5494e+05,1.6895e+08,2,5249,4900,15.63,1.51,26,4,0,0
2.5536e+05,1.6906e+08,2,4908,5071,15.55,2.22,26,4,0,0
2.5586e+05,1.6917e+08,2,5095,5500,15.61,3.05,26,4,0,0
2.563e+05,1.6928e+08,2,5524,5842,15.53,3.51,27,4,0,0
2.5675e+05,1.6938e+08,2,5844,6014,15.53,3.58,27,5,0,0
2.5725e+05,1.695e+08,2,6033,6228,15.55,3.56,26,5,0,0
2.5766e+05,1.696e+08,2,6222,6100,15.57,3.65,26,5,0,0
2.5812e+05,1.6971e+08,2,6097,6071,15.58,3.58,27,5,0,0
2.5857e+05,1.6982e+08,2,6074,6142,15.54,3.52,27,5,0,0
2.5902e+05,1.6993e+08,2,6138,6100,15.57,3.26,27,5,0,0
2.5946e+05,1.7004e+08,2,6098,6042,15.55,3.4,27,5,0,0
2.5993e+05,1.7015e+08,2,6039,5985,15.54,3.25,27,5,0,0
2.6039e+05,1.7026e+08,2,5976,5900,15.58,3.32,27,5,0,0
2.6129e+05,1.7047e+08,2,5897,5828,15.53,2.89,27,6,0,0
2.6174e+05,1.7058e+08,2,5823,5728,15.55,3.33,27,6,0,0
2.622e+05,1.7069e+08,2,5736,5928,15.59,3.21,27,6,0,0
2.6264e+05,1.7079e+08,2,5928,5928,15.52,3.32,27,6,0,0
2.6359e+05,1.7102e+08,2,5928,5957,15.49,3.23,27,6,0,0
2.64e+05,1.7112e+08,2,5949,5771,15.56,3.07,27,6,0,0
2.645e+05,1.7124e+08,2,5719,5171,15.48,1.83,27,6,0,0
2.6495e+05,1.7135e+08,2,5244,5971,15.51,4.04,27,6,0,0
2.6538e+05,1.7145e+08,2,5983,6257,15.51,3.78,27,7,0,0
2.6583e+05,1.7156e+08,2,6253,6171,15.52,4.44,27,7,0,0
2.6673e+05,1.7178e+08,2,6167,6028,15.54,2.47,27,7,0,0
2.6764e+05,1.72e+08,2,6024,5914,15.44,2.98,27,7,0,0
2.6809e+05,1.7211e+08,2,5911,5885,15.5,3.29,27,7,0,0
2.6854e+05,1.7222e+08,2,5882,5857,15.47,3.18,27,7,0,0
2.6895e+05,1.7232e+08,2,5868,6142,15.51,3.17,27,7,0,0
2.694e+05,1.7242e+08,2,6134,5971,15.51,3.01,27,7,0,0
2.6985e+05,1.7253e+08,2,5971,5971,15.52,2.82,27,8,0,0
2.7034e+05,1.7265e+08,2,5966,5900,15.49,2.97,27,8,0,0
2.7074e+05,1.7275e+08,2,5901,5928,15.52,3.21,27,8,0,0
2.7118e+05,1.7286e+08,2,5930,5985,15.51,3.42,27,8,0,0
2.7161e+05,1.7297e+08,2,5990,6057,15.5,3.1,27,8,0,0
2.7202e+05,1.7308e+08,2,6053,5871,15.52,3.16,27,8,0,0
2.7246e+05,1.7318e+08,2,5872,5942,15.5,3.05,27,8,0,0
2.7296e+05,1.733e+08,2,5939,5914,15.44,3.33,27,8,0,0
2.7381e+05,1.7352e+08,2,5922,6085,15.52,3.45,27,8,0,0
2.7426e+05,1.7363e+08,2,6087,6114,15.55,3.67,27,9,0,0
2.7473e+05,1.7374e+08,2,6121,6214,15.44,3.58,27,9,0,0
2.7519e+05,1.7385e+08,2,6199,6100,15.49,3.58,27,9,0,0
2.7559e+05,1.7396e+08,2,6096,6014,15.51,3.19,27,9,0,0
2.7605e+05,1.7408e+08,2,6004,5928,15.5,2.99,27,9,0,0
2.7646e+05,1.7418e+08,2,5913,5785,15.54,2.82,27,9,0,0
2.7687e+05,1.7429e+08,2,5778,5642,15.49,2.82,27,9,0,0
2.7732e+05,1.744e+08,2,5642,5657,15.56,2.75,27,9,0,0
2.7781e+05,1.7452e+08,2,5653,5628,15.52,2.52,27,9,0,0
2.7822e+05,1.7461e+08,2,5626,5600,15.51,2.58,27,9,0,0
2.787e+05,1.7474e+08,2,5613,5742,15.5,2.83,27,9,0,0
2.7911e+05,1.7484e+08,2,5736,5700,15.49,3.06,27,10,0,0
2.7956e+05,1.7495e+08,2,5713,5814,15.55,3,27,10,0,0
2.8e+05,1.7506e+08,2,5815,5828,15.51,3.22,27,10,0,0
2.804e+05,1.7516e+08,2,5831,5971,15.45,3.13,27,10,0,0
2.8083e+05,1.7527e+08,2,5941,5714,15.5,3.13,27,10,0,0
2.8128e+05,1.7538e+08,2,5726,5857,15.51,3.27,27,10,0,0
2.8173e+05,1.7549e+08,2,5862,5914,15.49,3.15,27,10,0,0
2.8213e+05,1.7559e+08,2,5914,5942,15.52,2.74,27,10,0,0
2.8258e+05,1.7571e+08,2,5931,5842,15.54,2.8,27,10,0,0
2.8299e+05,1.7581e+08,2,5837,5757,15.45,2.57,27,10,0,0
2.8344e+05,1.7592e+08,2,5764,5828,15.49,2.87,27,10,0,0
2.8389e+05,1.7603e+08,2,5828,5828,15.48,2.76,27,11,0,0
2.843e+05,1.7614e+08,2,5829,5842,15.48,2.89,27,11,0,0
2.8471e+05,1.7624e+08,2,5843,5857,15.48,2.99,27,11,0,0
2.8514e+05,1.7635e+08,2,5859,5914,15.44,3.16,27,11,0,0
2.8553e+05,1.7645e+08,2,5913,5871,15.52,2.9,27,11,0,0
2.8597e+05,1.7656e+08,2,5879,6014,15.54,3.09,27,11,0,0
2.8686e+05,1.7678e+08,2,6008,5800,15.51,3.08,27,11,0,0
2.8731e+05,1.7689e+08,2,5805,5857,15.45,2.94,27,11,0,0
2.8772e+05,1.7699e+08,2,5863,5942,15.47,2.81,27,11,0,0
2.8817e+05,1.7711e+08,2,5928,5771,15.48,2.92,27,11,0,0
2.8866e+05,1.7722e+08,2,5771,5771,15.46,2.9,27,12,0,0
2.891e+05,1.7733e+08,2,5769,5742,15.46,2.96,27,12,0,0
2.8955e+05,1.7744e+08,2,5762,5957,15.5,2.72,27,12,0,0
2.9041e+05,1.7765e+08,2,5955,5914,15.52,2.81,27,12,0,0
2.913e+05,1.7787e+08,2,5905,5714,15.47,2.76,27,12,0,0
2.9173e+05,1.7798e+08,2,5712,5685,15.5,2.54,28,12,0,0
2.9213e+05,1.7808e+08,2,5678,5585,15.47,2.23,27,12,0,0
2.9256e+05,1.7818e+08,2,5591,5685,15.47,2.7,27,12,0,0
2.9301e+05,1.7829e+08,2,5681,5600,15.44,2.62,27,12,0,0
2.9346e+05,1.784e+08,2,5601,5614,15.48,2.97,28,12,0,0
2.9391e+05,1.7852e+08,2,5614,5642,15.45,2.36,28,13,0,0
2.9431e+05,1.7862e+08,2,5634,5557,15.48,2.62,27,13,0,0
2.9472e+05,1.7872e+08,2,5557,5614,15.47,2.73,27,13,0,0
2.9517e+05,1.7883e+08,2,5620,5785,15.45,3.13,27,13,0,0
2.9565e+05,1.7895e+08,2,5791,5857,15.51,2.93,27,13,0,0
2.9606e+05,1.7905e+08,2,5854,5828,15.42,2.76,27,13,0,0
2.9651e+05,1.7916e+08,2,5820,5742,15.42,3.09,27,13,0,0
2.9695e+05,1.7927e+08,2,5753,5914,15.33,3.24,27,13,0,0
2.9735e+05,1.7937e+08,2,5910,5814,15.39,3.08,27,13,0,0
2.9782e+05,1.7949e+08,2,5822,5900,15.39,3.13,27,13,0,0
2.9826e+05,1.7959e+08,2,5896,5814,15.37,3.19,28,13,0,0
2.9871e+05,1.797e+08,2,5817,5871,15.45,2.97,28,13,0,0
2.9916e+05,1.7981e+08,2,5865,5814,15.38,3.08,28,14,0,0
2.996e+05,1.7992e+08,2,5809,5757,15.44,2.71,28,14,0,0
3.0001e+05,1.8002e+08,2,5755,5628,15.41,2.97,27,14,0,0
3.0045e+05,1.8013e+08,2,5630,5671,15.37,3.08,28,14,0,0
3.0131e+05,1.8035e+08,2,5671,5728,15.35,3.03,28,14,0,0
3.0179e+05,1.8046e+08,2,5728,5757,15.4,3.06,28,14,0,0
3.0223e+05,1.8057e+08,2,5755,5742,15.35,3.36,28,14,0,0
3.027e+05,1.8068e+08,2,5747,5800,15.42,3.08,28,14,0,0
3.0355e+05,1.809e+08,2,5804,5971,15.39,3.35,28,15,0,0
3.0399e+05,1.8101e+08,2,5974,6071,15.31,3.92,28,15,0,0
3.0448e+05,1.8113e+08,2,6066,6028,15.32,3.69,28,15,0,0
3.0488e+05,1.8122e+08,2,6025,5971,15.36,3.62,28,15,0,0
3.0529e+05,1.8133e+08,2,5973,6057,15.39,3.45,28,15,0,0
3.0574e+05,1.8144e+08,2,6053,5871,15.36,3.57,28,15,0,0
3.0619e+05,1.8155e+08,2,5876,5985,15.41,3.15,28,15,0,0
3.0664e+05,1.8166e+08,2,5975,5771,15.38,3,28,15,0,0
3.0708e+05,1.8177e+08,2,5777,5871,15.44,2.89,28,15,0,0
3.0757e+05,1.8189e+08,2,5864,5800,15.39,3.14,28,15,0,0
3.0798e+05,1.8199e+08,2,5805,5928,15.38,3.2,28,16,0,0
3.0842e+05,1.821e+08,2,5924,5742,15.4,2.91,28,16,0,0
3.0891e+05,1.8221e+08,2,5736,5657,15.37,3.01,28,16,0,0
3.0936e+05,1.8232e+08,2,5666,5800,15.39,3.07,28,16,0,0
3.0977e+05,1.8242e+08,2,5796,5757,15.39,2.93,28,16,0,0
3.1029e+05,1.8255e+08,2,5754,5714,15.38,3.08,28,16,0,0
3.107e+05,1.8265e+08,2,5714,5714,15.41,2.95,28,16,0,0
3.1114e+05,1.8276e+08,2,5709,5671,15.4,2.82,28,16,0,0
3.1159e+05,1.8286e+08,2,5672,5714,15.39,3.1,28,16,0,0
3.1199e+05,1.8297e+08,2,5712,5700,15.4,3.11,28,16,0,0
3.1242e+05,1.8307e+08,2,5707,5842,15.39,3.08,28,16,0,0
3.1286e+05,1.8319e+08,2,5837,5800,15.44,2.99,28,17,0,0
3.133e+05,1.8329e+08,2,5798,5757,15.4,3.05,28,17,0,0
3.1375e+05,1.834e+08,2,5752,5657,15.4,2.79,28,17,0,0
3.142e+05,1.8351e+08,2,5658,5700,15.41,2.99,28,17,0,0
3.1465e+05,1.8362e+08,2,5701,5728,15.39,2.54,28,17,0,0
3.151e+05,1.8373e+08,2,5720,5642,15.45,2.57,28,17,0,0
3.1555e+05,1.8384e+08,2,5640,5614,15.45,2.68,28,17,0,0
3.1598e+05,1.8395e+08,2,5611,5585,15.39,2.6,28,17,0,0
3.1728e+05,1.8427e+08,2,5587,5728,15.39,2.88,28,17,0,0
3.1777e+05,1.8439e+08,2,5713,5557,15.41,2.83,28,17,0,0
3.1814e+05,1.8448e+08,2,5559,5700,15.35,2.77,28,18,0,0
3.1862e+05,1.846e+08,2,5703,5785,15.34,2.98,28,18,0,0
3.1907e+05,1.8471e+08,2,5788,5814,15.36,3.18,28,18,0,0
3.1952e+05,1.8482e+08,2,5807,5742,15.3,3.32,28,18,0,0
3.1992e+05,1.8492e+08,2,5740,5700,15.39,3.35,28,18,0,0
3.2075e+05,1.8514e+08,2,5712,5985,15.41,3.17,28,18,0,0
3.2164e+05,1.8535e+08,2,5983,5942,15.42,3.48,28,18,0,0
3.2205e+05,1.8546e+08,2,5942,5942,15.36,3.22,28,18,0,0
3.225e+05,1.8557e+08,2,5934,5871,15.37,3.21,28,19,0,0
3.2295e+05,1.8568e+08,2,5872,5900,15.39,3.15,28,19,0,0
3.234e+05,1.8579e+08,2,5887,5757,15.4,3.1,28,19,0,0
3.2385e+05,1.859e+08,2,5763,5828,15.39,2.99,28,19,0,0
3.247e+05,1.8612e+08,2,5830,5871,15.37,3.02,28,19,0,0
3.251e+05,1.8621e+08,2,5869,5800,15.35,3.17,28,19,0,0
3.2556e+05,1.8633e+08,2,5804,5871,15.44,2.96,28,19,0,0
3.26e+05,1.8644e+08,2,5868,5842,15.38,2.93,28,19,0,0
3.2645e+05,1.8655e+08,2,5830,5714,15.36,2.92,28,19,0,0
3.2685e+05,1.8665e+08,2,5721,5900,15.33,3.24,28,19,0,0
3.2729e+05,1.8676e+08,2,5885,5614,15.35,2.92,28,20,0,0
3.2776e+05,1.8688e+08,2,5626,5757,15.38,3.04,28,20,0,0
3.2817e+05,1.8698e+08,2,5758,5814,15.33,3.19,28,20,0,0
3.2865e+05,1.8709e+08,2,5817,5857,15.33,3.21,28,20,0,0
3.2906e+05,1.872e+08,2,5857,5857,15.41,3.07,28,20,0,0
3.2954e+05,1.8731e+08,2,5851,5800,15.35,2.99,28,20,0,0
3.2995e+05,1.8742e+08,2,5791,5685,15.42,2.94,28,20,0,0
3.3032e+05,1.8752e+08,2,5685,5728,15.35,2.79,28,20,0,0
3.3081e+05,1.8763e+08,2,5729,5757,15.39,3.18,28,20,0,0
3.3125e+05,1.8774e+08,2,5764,5871,15.32,3.25,28,20,0,0
3.3168e+05,1.8785e+08,2,5878,5971,15.27,3.43,28,21,0,0
3.3208e+05,1.8795e+08,2,5968,5800,15.3,3.28,28,21,0,0
3.3252e+05,1.8806e+08,2,5800,5828,15.26,3.46,28,21,0,0
3.3297e+05,1.8818e+08,2,5828,5857,15.36,3.47,28,21,0,0
3.3346e+05,1.883e+08,2,5859,5871,15.35,3.4,28,21,0,0
3.3387e+05,1.884e+08,2,5899,6100,15.32,3.37,28,21,0,0
3.3432e+05,1.8851e+08,2,6091,6028,15.38,3.45,28,21,0,0
3.3477e+05,1.8862e+08,2,6035,6114,15.37,3.25,28,21,0,0
3.3517e+05,1.8872e+08,2,6114,6157,15.36,3.61,28,21,0,0
3.3562e+05,1.8883e+08,2,6150,5985,15.29,3.36,28,21,0,0
3.3606e+05,1.8894e+08,2,5985,5985,15.34,3.52,28,22,0,0
3.3651e+05,1.8905e+08,2,5978,5914,15.35,3.31,28,22,0,0
3.3696e+05,1.8916e+08,2,5915,5928,15.36,3.26,28,22,0,0
3.374e+05,1.8927e+08,2,5935,6042,15.36,3.3,28,22,0,0
3.3781e+05,1.8938e+08,2,6039,6000,15.35,3.21,28,22,0,0
3.3827e+05,1.8949e+08,2,6008,6128,15.32,3.16,28,22,0,0
3.387e+05,1.896e+08,2,6117,6000,15.3,3.2,28,22,0,0
3.3912e+05,1.897e+08,2,5998,5971,15.36,3.21,28,22,0,0
3.395e+05,1.898e+08,2,5970,5957,15.35,3.2,28,22,0,0
3.3999e+05,1.8992e+08,2,5952,5914,15.33,2.9,28,22,0,0
3.404e+05,1.9003e+08,2,5916,5985,15.33,3.17,28,23,0,0
3.4087e+05,1.9014e+08,2,5981,5942,15.33,3.34,29,23,0,0
3.4132e+05,1.9025e+08,2,5944,5971,15.39,3.16,28,23,0,0
3.4173e+05,1.9035e+08,2,5974,6042,15.33,3.27,28,23,0,0
3.4218e+05,1.9046e+08,2,6042,6057,15.32,3.53,28,23,0,0
3.4305e+05,1.9068e+08,2,6057,6057,15.38,3.28,28,23,0,0
3.4349e+05,1.9079e+08,2,6052,6000,15.31,3.35,28,23,0,0
3.4394e+05,1.909e+08,2,6003,6042,15.32,3.3,28,23,0,0
3.4438e+05,1.9101e+08,2,6030,5914,15.31,3.33,28,23,0,0
3.4487e+05,1.9113e+08,2,5923,6028,15.33,3.34,28,24,0,0
3.4528e+05,1.9123e+08,2,6023,5971,15.38,3.21,28,24,0,0
3.4614e+05,1.9144e+08,2,5972,6014,15.39,3.32,28,24,0,0
3.4658e+05,1.9155e+08,2,6003,5857,15.33,3.22,29,24,0,0
3.4701e+05,1.9166e+08,2,5865,5971,15.33,3.07,29,24,0,0
3.4745e+05,1.9177e+08,2,5958,5785,15.33,2.91,28,24,0,0
3.479e+05,1.9188e+08,2,5784,5771,15.33,3.19,28,24,0,0
3.4834e+05,1.9198e+08,2,5779,5957,15.32,2.89,28,24,0,0
3.488e+05,1.9209e+08,2,5950,5800,15.39,2.96,29,24,0,0
3.4924e+05,1.922e+08,2,5795,5742,15.33,3.13,28,25,0,0
3.4969e+05,1.9232e+08,2,5749,5900,15.34,3.21,29,25,0,0
3.5058e+05,1.9253e+08,2,5900,5914,15.38,3.15,28,25,0,0
3.51e+05,1.9264e+08,2,5907,5814,15.42,2.61,28,25,0,0
3.5144e+05,1.9275e+08,2,5803,5700,15.41,2.59,29,25,0,0
3.5189e+05,1.9286e+08,2,5703,5742,15.35,3.04,29,25,0,0
3.5278e+05,1.9308e+08,2,5742,5771,15.36,2.63,29,25,0,0
3.5322e+05,1.9319e+08,2,5755,5600,15.41,2.6,28,25,0,0
3.5366e+05,1.9329e+08,2,5603,5714,15.35,2.78,29,25,0,0
3.5411e+05,1.934e+08,2,5711,5657,15.41,2.76,29,25,0,0
3.5456e+05,1.9351e+08,2,5666,5771,15.31,2.81,29,26,0,0
3.5498e+05,1.9361e+08,2,5767,5714,15.35,2.81,29,26,0,0
3.5586e+05,1.9384e+08,2,5719,5842,15.3,2.85,29,26,0,0
3.563e+05,1.9394e+08,2,5842,5857,15.3,3.03,29,26,0,0
3.5675e+05,1.9405e+08,2,5860,5900,15.38,3.16,29,26,0,0
3.5716e+05,1.9416e+08,2,5910,6057,15.38,3.18,29,26,0,0
3.5757e+05,1.9426e+08,2,6054,5914,15.35,3.07,29,26,0,0
3.5802e+05,1.9437e+08,2,5920,6057,15.36,3.01,29,26,0,0
3.5851e+05,1.9449e+08,2,6041,5871,15.32,2.99,29,26,0,0
3.589e+05,1.9459e+08,2,5868,5814,15.32,2.92,29,26,0,0
3.5933e+05,1.947e+08,2,5821,5957,15.37,2.71,29,27,0,0
3.5977e+05,1.9481e+08,2,5951,5885,15.38,2.79,29,27,0,0
3.6025e+05,1.9492e+08,2,5874,5742,15.36,2.56,29,27,0,0
3.6114e+05,1.9514e+08,2,5746,5828,15.37,3.01,29,27,0,0
3.6159e+05,1.9524e+08,2,5820,5728,15.42,2.65,29,27,0,0
3.6204e+05,1.9536e+08,2,5747,5857,15.39,2.93,28,27,0,0
3.6247e+05,1.9546e+08,2,5854,5828,15.34,2.59,29,27,0,0
3.633e+05,1.9567e+08,2,5827,5814,15.33,2.37,29,27,0,0
3.6378e+05,1.9579e+08,2,5778,5585,15.32,2.48,28,27,0,0
3.6422e+05,1.959e+08,2,5599,5742,15.29,2.81,29,27,0,0
3.6466e+05,1.96e+08,2,5765,6128,15.26,3.28,29,27,0,0
3.6555e+05,1.9622e+08,2,6128,6142,15.3,3.31,29,28,0,0
3.6595e+05,1.9632e+08,2,6140,6085,15.3,3.58,29,28,0,0
3.6645e+05,1.9644e+08,2,6085,6085,15.28,3.37,29,28,0,0
3.6684e+05,1.9653e+08,2,6086,6114,15.29,3.57,29,28,0,0
3.6731e+05,1.9665e+08,2,6120,6185,15.22,3.91,29,28,0,0
3.677e+05,1.9675e+08,2,6184,6142,15.27,4.07,29,28,0,0
3.6822e+05,1.9687e+08,2,6140,6128,15.24,3.83,29,28,0,0
3.6859e+05,1.9697e+08,2,6131,6257,15.26,4.2,29,28,0,0
3.6904e+05,1.9708e+08,2,6252,6200,15.2,4.14,29,29,0,0
3.6944e+05,1.9718e+08,2,6204,6300,15.28,4,29,29,0,0
3.6989e+05,1.9729e+08,2,6289,5857,15.33,2.94,29,29,0,0
3.703e+05,1.9739e+08,2,5856,5842,15.3,3.41,29,29,0,0
3.7082e+05,1.9752e+08,2,5844,5900,15.26,3.44,29,29,0,0
3.7125e+05,1.9762e+08,2,5898,5885,15.32,3.43,29,29,0,0
3.7163e+05,1.9773e+08,2,5885,5885,15.3,3.16,29,29,0,0
3.7212e+05,1.9784e+08,2,5889,5942,15.35,3.15,29,29,0,0
3.7256e+05,1.9794e+08,2,5940,5914,15.26,3.13,29,29,0,0
3.7301e+05,1.9805e+08,2,5911,5857,15.29,3.26,29,30,0,0
3.7341e+05,1.9816e+08,2,5857,5857,15.32,3.11,29,30,0,0
3.7387e+05,1.9827e+08,2,5845,5671,15.3,2.83,29,30,0,0
3.7432e+05,1.9838e+08,2,5692,5942,15.36,3.07,29,30,0,0
3.7477e+05,1.9849e+08,2,5936,5857,15.29,3.25,29,30,0,0
3.7516e+05,1.9859e+08,2,5857,5857,15.25,3.14,29,30,0,0
3.7603e+05,1.988e+08,2,5857,5914,15.29,3.1,29,30,0,0
3.7652e+05,1.9892e+08,2,5923,6142,15.33,2.93,29,30,0,0
3.7692e+05,1.9902e+08,2,6123,5871,15.35,3.01,29,30,0,0
3.7736e+05,1.9913e+08,2,5874,5942,15.33,2.58,29,30,0,0
3.7822e+05,1.9935e+08,2,5939,5671,15.28,2.75,29,31,0,0
3.7915e+05,1.9957e+08,2,5672,5714,15.3,3.04,29,31,0,0
3.7955e+05,1.9967e+08,2,5723,5842,15.35,2.94,29,31,0,0
3.8e+05,1.9978e+08,2,5848,5914,15.32,3.21,29,31,0,0
3.8044e+05,1.9989e+08,2,5915,5985,15.32,3.4,29,31,0,0
3.8178e+05,2.0021e+08,2,5987,6085,15.32,3.41,29,31,0,0
3.8262e+05,2.0043e+08,2,6080,5971,15.27,3.12,29,32,0,0
3.8301e+05,2.0053e+08,2,5964,5842,15.29,3.24,29,32,0,0
3.8347e+05,2.0064e+08,2,5849,6042,15.33,3.08,29,32,0,0
3.8391e+05,2.0075e+08,2,6022,5771,15.27,3.24,29,32,0,0
3.8436e+05,2.0086e+08,2,5789,5971,15.33,3.1,29,32,0,0
3.8479e+05,2.0096e+08,2,5968,5885,15.31,3.15,29,32,0,0
3.8529e+05,2.0108e+08,2,5892,5971,15.31,3.14,29,32,0,0
3.8569e+05,2.0119e+08,2,5975,6014,15.26,3.26,29,32,0,0
3.8615e+05,2.013e+08,2,6005,5885,15.31,3.44,29,32,0,0
3.8657e+05,2.014e+08,2,5885,5914,15.32,3.29,29,33,0,0
3.8704e+05,2.0153e+08,2,5938,6171,15.22,3.48,29,33,0,0
3.8744e+05,2.0162e+08,2,6161,5985,15.29,3.53,29,33,0,0
3.879e+05,2.0174e+08,2,5995,6100,15.35,3.22,29,33,0,0
3.8834e+05,2.0184e+08,2,6114,6257,15.29,3.51,29,33,0,0
3.886e+05,2.0195e+08,2,6246,6142,15.26,3.46,29,33,0,0
3.8905e+05,2.0206e+08,2,6138,6085,15.3,3.77,29,33,0,0
3.8949e+05,2.0217e+08,2,6091,6185,15.32,3.52,29,33,0,0
3.8994e+05,2.0227e+08,2,6171,6000,15.32,3.3,29,33,0,0
3.9038e+05,2.0238e+08,2,6006,6100,15.27,3.38,29,33,0,0
3.9083e+05,2.0249e+08,2,6087,5900,15.33,3.23,29,34,0,0
3.9126e+05,2.026e+08,2,5915,6100,15.27,3.44,29,34,0,0
3.917e+05,2.0271e+08,2,6088,5971,15.32,3.15,29,34,0,0
3.9214e+05,2.0282e+08,2,5964,5900,15.31,3.22,29,34,0,0
3.9259e+05,2.0293e+08,2,5906,5971,15.26,3.46,29,34,0,0
3.9304e+05,2.0304e+08,2,5967,5928,15.19,3.61,29,34,0,0
3.9348e+05,2.0315e+08,2,5923,5885,15.29,3.49,29,34,0,0
3.9389e+05,2.0326e+08,2,5896,6128,15.3,3.6,29,34,0,0
3.9434e+05,2.0337e+08,2,6094,5842,15.23,3.4,29,34,0,0
3.9482e+05,2.0348e+08,2,5854,5914,15.3,3.46,29,34,0,0
3.9522e+05,2.0359e+08,2,5925,6014,15.25,3.77,29,35,0,0
3.9565e+05,2.0369e+08,2,6027,6157,15.29,3.84,29,35,0,0
3.9605e+05,2.0379e+08,2,6155,6128,15.23,3.89,29,35,0,0
3.965e+05,2.039e+08,2,6128,6128,15.23,3.81,29,35,0,0
3.9695e+05,2.0401e+08,2,6127,6114,15.24,3.91,29,35,0,0
3.9787e+05,2.0424e+08,2,6111,6028,15.3,3.59,29,35,0,0
3.9831e+05,2.0434e+08,2,6030,6057,15.26,3.75,29,35,0,0
3.9877e+05,2.0445e+08,2,6059,6085,15.25,3.46,29,35,0,0
3.9924e+05,2.0457e+08,2,6070,5900,15.33,3.05,29,36,0,0
3.9962e+05,2.0467e+08,2,5900,5900,15.25,3.17,29,36,0,0
4.0011e+05,2.0479e+08,2,5892,5814,15.29,3.17,29,36,0,0
4.0055e+05,2.049e+08,2,5819,5871,15.25,2.94,29,36,0,0
4.0144e+05,2.0512e+08,2,5868,5828,15.25,2.88,29,36,0,0
4.0189e+05,2.0522e+08,2,5820,5742,15.33,2.69,29,36,0,0
4.0229e+05,2.0533e+08,2,5742,5742,15.29,3.09,29,36,0,0
4.0323e+05,2.0556e+08,2,5745,5828,15.33,3.08,29,36,0,0
4.0368e+05,2.0567e+08,2,5834,5900,15.31,3.02,29,37,0,0
4.0408e+05,2.0577e+08,2,5895,5842,15.27,3.09,29,37,0,0
4.0454e+05,2.0588e+08,2,5847,5928,15.33,3.16,29,37,0,0
4.0494e+05,2.0599e+08,2,5928,5928,15.28,3.09,29,37,0,0
4.0539e+05,2.0609e+08,2,5926,5885,15.27,3.38,29,37,0,0
4.0582e+05,2.062e+08,2,5887,5942,15.3,3.25,29,37,0,0
4.0625e+05,2.0632e+08,2,5947,6057,15.22,3.62,29,37,0,0
4.0673e+05,2.0643e+08,2,6084,6371,15.24,4.51,29,37,0,0
4.0713e+05,2.0654e+08,2,6400,6671,15.23,5.2,29,37,0,0
4.0758e+05,2.0664e+08,2,6672,6785,15.21,5.1,29,38,0,0
4.0803e+05,2.0675e+08,2,6776,6571,15.23,4.11,29,38,0,0
4.0847e+05,2.0686e+08,2,6566,6242,15.23,3.06,29,38,0,0
4.0891e+05,2.0697e+08,2,6236,5885,15.23,2.54,29,38,0,0
4.0941e+05,2.0709e+08,2,5859,5514,15.26,2.24,29,38,0,0
4.098e+05,2.0719e+08,2,5512,5428,15.31,2.01,29,38,0,0
4.107e+05,2.0741e+08,2,5420,5028,15.26,1.89,29,38,0,0
4.1114e+05,2.0752e+08,2,5029,5128,15.25,2.02,29,38,0,0
4.1163e+05,2.0763e+08,2,5130,5157,15.27,2.2,29,38,0,0
4.1204e+05,2.0774e+08,2,5159,5214,15.3,2.35,29,38,0,0
4.1252e+05,2.0785e+08,2,5222,5314,15.32,2.56,29,38,0,0
4.1293e+05,2.0795e+08,2,5322,5485,15.28,2.9,29,38,0,0
4.1338e+05,2.0806e+08,2,5494,5628,15.33,2.86,29,39,0,0
4.1381e+05,2.0817e+08,2,5626,5600,15.26,2.57,29,39,0,0
4.1424e+05,2.0828e+08,2,5600,5600,15.3,2.58,29,39,0,0
4.1463e+05,2.0838e+08,2,5598,5528,15.24,2.79,29,39,0,0
4.1512e+05,2.085e+08,2,5549,5742,15.24,2.73,29,39,0,0
4.1553e+05,2.086e+08,2,5744,5771,15.26,3.13,29,39,0,0
4.1594e+05,2.087e+08,2,5770,5728,15.28,2.71,29,39,0,0
4.1643e+05,2.0883e+08,2,5728,5728,15.3,2.53,29,39,0,0
4.1728e+05,2.0903e+08,2,5725,5685,15.26,2.5,29,39,0,0
4.1771e+05,2.0914e+08,2,5686,5714,15.3,2.71,29,39,0,0
4.1814e+05,2.0925e+08,2,5713,5700,15.31,2.69,29,39,0,0
4.1857e+05,2.0936e+08,2,5709,5885,15.25,3.12,29,40,0,0
4.1903e+05,2.0947e+08,2,5882,5857,15.27,2.84,29,40,0,0
4.1943e+05,2.0957e+08,2,5858,5914,15.22,3.21,29,40,0,0
4.1991e+05,2.0969e+08,2,5913,5871,15.19,3.17,29,40,0,0
4.2036e+05,2.0979e+08,2,5871,5885,15.17,3.29,29,40,0,0
4.2081e+05,2.099e+08,2,5888,5957,15.2,3.62,29,40,0,0
4.2124e+05,2.1001e+08,2,5965,6142,15.26,3.46,29,40,0,0
4.2254e+05,2.1034e+08,2,6138,5842,15.27,3.48,29,40,0,0
4.2299e+05,2.1045e+08,2,5842,5842,15.23,3.33,29,41,0,0
4.2347e+05,2.1056e+08,2,5840,5828,15.3,3.03,29,41,0,0
4.2392e+05,2.1067e+08,2,5832,5885,15.26,3.29,29,41,0,0
4.2482e+05,2.1089e+08,2,5881,5814,15.27,2.99,29,41,0,0
4.2522e+05,2.1099e+08,2,5806,5671,15.26,2.87,29,41,0,0
4.2566e+05,2.111e+08,2,5671,5728,15.3,2.95,29,41,0,0
4.2609e+05,2.1121e+08,2,5730,5871,15.23,3.34,29,41,0,0
4.2651e+05,2.1132e+08,2,5871,5871,15.31,2.98,29,41,0,0
4.27e+05,2.1144e+08,2,5867,5828,15.26,3.07,29,41,0,0
4.2744e+05,2.1154e+08,2,5836,5942,15.24,3.21,29,42,0,0
4.279e+05,2.1165e+08,2,5934,5814,15.24,3,29,42,0,0
4.2834e+05,2.1176e+08,2,5812,5800,15.25,2.96,29,42,0,0
4.2879e+05,2.1187e+08,2,5807,5914,15.25,3.42,29,42,0,0
4.2924e+05,2.1198e+08,2,5910,5871,15.25,3.16,29,42,0,0
4.2964e+05,2.1208e+08,2,5870,5842,15.22,2.96,29,42,0,0
4.3011e+05,2.122e+08,2,5836,5757,15.22,3.06,29,42,0,0
4.3054e+05,2.1231e+08,2,5753,5714,15.19,3.15,29,42,0,0
4.3094e+05,2.1241e+08,2,5719,5800,15.27,3.36,29,42,0,0
4.3135e+05,2.1251e+08,2,5801,5828,15.18,3.29,29,42,0,0
4.3179e+05,2.1262e+08,2,5839,6100,15.3,3.9,29,42,0,0
4.3224e+05,2.1273e+08,2,6096,6028,15.2,3.83,29,43,0,0
4.3268e+05,2.1284e+08,2,6029,6085,15.2,3.76,29,43,0,0
4.3317e+05,2.1296e+08,2,6086,6114,15.19,3.5,29,43,0,0
4.3362e+05,2.1306e+08,2,6112,6100,15.27,3.39,29,43,0,0
4.3403e+05,2.1317e+08,2,6103,6171,15.19,3.42,29,43,0,0
4.3448e+05,2.1328e+08,2,6156,5814,15.21,3.31,29,43,0,0
4.3492e+05,2.1339e+08,2,5817,5857,15.26,3.25,29,43,0,0
4.3532e+05,2.1348e+08,2,5858,5957,15.2,3.44,29,43,0,0
4.358e+05,2.136e+08,2,5958,5985,15.27,3.28,29,43,0,0
4.3621e+05,2.137e+08,2,5984,5928,15.24,3.4,29,44,0,0
4.3632e+05,2.1381e+08,2,5935,6100,15.23,3.55,29,44,0,0
4.3675e+05,2.1392e+08,2,6098,6042,15.22,3.56,29,44,0,0
4.3721e+05,2.1403e+08,2,6033,5857,15.23,3.31,29,44,0,0
4.3766e+05,2.1414e+08,2,5860,5900,15.22,3.29,29,44,0,0
4.3811e+05,2.1425e+08,2,5901,5914,15.22,3.39,29,44,0,0
4.385e+05,2.1435e+08,2,5909,5642,15.25,3.19,29,44,0,0
4.3893e+05,2.1446e+08,2,5644,5814,15.29,3.09,29,44,0,0
4.3939e+05,2.1457e+08,2,5811,5714,15.23,3.1,29,44,0,0
4.3985e+05,2.1468e+08,2,5710,5642,15.25,3.32,29,44,0,0
4.4033e+05,2.148e+08,2,5648,5785,15.23,3.45,29,45,0,0
4.4078e+05,2.1491e+08,2,5773,5685,15.22,3.24,29,45,0,0
4.4122e+05,2.1502e+08,2,5685,5685,15.22,3.1,29,45,0,0
4.4163e+05,2.1512e+08,2,5690,5814,15.2,3.56,29,45,0,0
4.4208e+05,2.1523e+08,2,5822,5928,15.26,3.58,29,45,0,0
4.4251e+05,2.1533e+08,2,5931,6014,15.23,3.68,30,45,0,0
4.4294e+05,2.1544e+08,2,6024,6171,15.19,3.57,29,45,0,0
4.4334e+05,2.1555e+08,2,6165,5928,15.25,3.57,29,45,0,0
4.4383e+05,2.1567e+08,2,5940,6071,15.24,3.91,30,45,0,0
4.442e+05,2.1577e+08,2,6071,6071,15.25,3.86,30,45,0,0
4.4465e+05,2.1587e+08,2,6078,6185,15.22,3.9,29,46,0,0
4.4509e+05,2.1598e+08,2,6194,6328,15.2,3.9,30,46,0,0
4.4554e+05,2.1609e+08,2,6328,6328,15.22,3.92,29,46,0,0
4.4599e+05,2.1621e+08,2,6315,6128,15.26,3.83,29,46,0,0
4.464e+05,2.1631e+08,2,6126,6100,15.22,3.65,29,46,0,0
4.4684e+05,2.1642e+08,2,6098,6014,15.22,3.49,30,46,0,0
4.4732e+05,2.1653e+08,2,6004,5928,15.19,3.58,29,46,0,0
4.4777e+05,2.1664e+08,2,5936,6057,15.19,3.61,29,46,0,0
4.4821e+05,2.1676e+08,2,6061,6100,15.23,3.8,30,46,0,0
4.486e+05,2.1686e+08,2,6103,6242,15.22,3.42,29,47,0,0
4.4904e+05,2.1698e+08,2,6216,6014,15.23,3.11,30,47,0,0
4.4949e+05,2.1709e+08,2,6007,5914,15.25,3.06,30,47,0,0
4.4993e+05,2.1719e+08,2,5915,5957,15.25,3.13,30,47,0,0
4.5038e+05,2.173e+08,2,5958,5985,15.2,3.04,30,47,0,0
4.5087e+05,2.1742e+08,2,5973,5814,15.22,3.09,29,47,0,0
4.5127e+05,2.1752e+08,2,5816,6000,15.3,2.92,29,47,0,0
4.5172e+05,2.1763e+08,2,5974,5742,15.3,2.79,29,47,0,0
4.5258e+05,2.1784e+08,2,5750,5942,15.2,3.07,30,47,0,0
4.5302e+05,2.1795e+08,2,5930,5700,15.25,2.94,30,48,0,0
4.5346e+05,2.1806e+08,2,5708,5842,15.26,3.24,30,48,0,0
4.5432e+05,2.1827e+08,2,5846,5942,15.23,3.5,30,48,0,0
4.5476e+05,2.1838e+08,2,5939,5871,15.19,3.55,30,48,0,0
4.5525e+05,2.185e+08,2,5877,5942,15.17,3.4,30,48,0,0
4.561e+05,2.1872e+08,2,5949,6100,15.22,3.46,30,48,0,0
4.5691e+05,2.1893e+08,2,6097,6014,15.22,3.92,30,48,0,0
4.5736e+05,2.1904e+08,2,6020,6142,15.22,4.08,30,49,0,0
4.5781e+05,2.1915e+08,2,6142,6142,15.23,3.55,29,49,0,0
4.5826e+05,2.1926e+08,2,6136,6028,15.23,3.4,30,49,0,0
4.5871e+05,2.1937e+08,2,6021,5957,15.22,3.33,30,49,0,0
4.5912e+05,2.1948e+08,2,5952,5857,15.25,3.38,30,49,0,0
4.5956e+05,2.1959e+08,2,5864,6014,15.25,3.36,30,49,0,0
4.6001e+05,2.197e+08,2,6022,6185,15.17,3.9,30,49,0,0
4.6044e+05,2.1981e+08,2,6191,6257,15.26,3.75,30,49,0,0
4.6087e+05,2.1992e+08,2,6245,6128,15.27,3.78,30,49,0,0
4.6132e+05,2.2003e+08,2,6138,6242,15.25,3.58,30,50,0,0
4.6173e+05,2.2013e+08,2,6241,6228,15.22,3.55,30,50,0,0
4.6218e+05,2.2024e+08,2,6220,6114,15.25,3.3,30,50,0,0
4.6262e+05,2.2035e+08,2,6117,6200,15.27,3.5,30,50,0,0
4.6311e+05,2.2047e+08,2,6194,6142,15.25,3.62,30,50,0,0
4.6356e+05,2.2058e+08,2,6147,6228,15.27,3.5,30,50,0,0
4.6443e+05,2.208e+08,2,6219,5957,15.19,3.28,30,50,0,0
4.6486e+05,2.209e+08,2,5959,6014,15.23,3.47,30,50,0,0
4.653e+05,2.2102e+08,2,6019,6100,15.25,3.4,30,51,0,0
4.6571e+05,2.2112e+08,2,6098,6071,15.22,3.53,30,51,0,0
4.6664e+05,2.2134e+08,2,6072,6100,15.28,3.45,30,51,0,0
4.6705e+05,2.2144e+08,2,6102,6157,15.25,3.63,30,51,0,0
4.6749e+05,2.2155e+08,2,6150,6057,15.21,3.55,30,51,0,0
4.6795e+05,2.2166e+08,2,6054,5985,15.19,3.63,30,51,0,0
4.6881e+05,2.2188e+08,2,5983,5942,15.29,3.16,30,51,0,0
4.6925e+05,2.2199e+08,2,5942,5942,15.26,3.36,30,52,0,0
4.6966e+05,2.221e+08,2,5950,6128,15.29,3.57,30,52,0,0
4.7014e+05,2.2221e+08,2,6121,6057,15.3,3.39,30,52,0,0
4.7054e+05,2.2231e+08,2,6055,5957,15.25,3.18,30,52,0,0
4.7099e+05,2.2243e+08,2,5935,5742,15.22,3.11,30,52,0,0
4.714e+05,2.2253e+08,2,5744,5857,15.19,3.24,30,52,0,0
4.7188e+05,2.2264e+08,2,5855,5814,15.26,2.96,30,52,0,0
4.7232e+05,2.2275e+08,2,5822,5900,15.25,3.23,30,52,0,0
4.7274e+05,2.2286e+08,2,5910,6014,15.27,3.42,30,52,0,0
4.7318e+05,2.2297e+08,2,6014,6014,15.24,3.56,30,52,0,0
4.7362e+05,2.2308e+08,2,6017,6042,15.19,3.57,30,53,0,0
4.7406e+05,2.2319e+08,2,6066,6257,15.2,3.92,30,53,0,0
4.7452e+05,2.2329e+08,2,6253,6228,15.25,3.78,30,53,0,0
4.7492e+05,2.234e+08,2,6216,6128,15.2,3.5,30,53,0,0
4.7538e+05,2.2351e+08,2,6137,6242,15.22,3.36,30,53,0,0
4.7574e+05,2.2361e+08,2,6239,6057,15.19,3.4,30,53,0,0
4.7623e+05,2.2372e+08,2,6062,6100,15.22,3.37,30,53,0,0
4.7666e+05,2.2383e+08,2,6097,6071,15.25,3.27,30,53,0,0
4.7708e+05,2.2394e+08,2,6052,5885,15.23,3.16,30,53,0,0
4.775e+05,2.2404e+08,2,5889,5928,15.29,3.14,30,53,0,0
4.7794e+05,2.2415e+08,2,5926,5914,15.23,3.26,30,54,0,0
4.7842e+05,2.2427e+08,2,5932,6142,15.25,3.07,30,54,0,0
4.7882e+05,2.2437e+08,2,6129,6014,15.27,3.35,30,54,0,0
4.7923e+05,2.2447e+08,2,6012,5942,15.18,3.21,30,54,0,0
4.7968e+05,2.2458e+08,2,5944,6071,15.2,3.38,30,54,0,0
4.8013e+05,2.2469e+08,2,6068,5914,15.24,3.16,30,54,0,0
4.8055e+05,2.2479e+08,2,5918,6014,15.25,3.23,30,54,0,0
4.8102e+05,2.2491e+08,2,5999,5914,15.16,3.19,30,54,0,0
4.8142e+05,2.2501e+08,2,5918,5985,15.19,3.13,30,54,0,0
4.8187e+05,2.2512e+08,2,5971,5828,15.19,2.85,30,54,0,0
4.8231e+05,2.2522e+08,2,5820,5728,15.21,3.25,30,55,0,0
4.8272e+05,2.2533e+08,2,5733,5971,15.17,3.23,30,55,0,0
4.8317e+05,2.2544e+08,2,5976,6042,15.18,3.38,30,55,0,0
4.8358e+05,2.2554e+08,2,6038,5928,15.18,3.17,30,55,0,0
4.8403e+05,2.2566e+08,2,5924,5885,15.14,3.15,30,55,0,0
4.8447e+05,2.2577e+08,2,5885,5885,15.26,3.3,30,55,0,0
4.849e+05,2.2588e+08,2,5885,5885,15.16,3.2,30,55,0,0
4.853e+05,2.2598e+08,2,5881,5800,15.16,3.43,30,55,0,0
4.8579e+05,2.261e+08,2,5800,5800,15.24,3.09,30,55,0,0
4.8627e+05,2.2621e+08,2,5808,5885,15.22,3.05,30,55,0,0
4.8667e+05,2.2631e+08,2,5874,5714,15.26,2.8,30,55,0,0
4.8712e+05,2.2643e+08,2,5735,5957,15.24,2.98,30,56,0,0
4.8757e+05,2.2654e+08,2,5938,5742,15.23,2.91,30,56,0,0
4.8805e+05,2.2665e+08,2,5738,5700,15.25,2.81,30,56,0,0
4.8887e+05,2.2686e+08,2,5699,5671,15.3,2.82,30,56,0,0
4.893e+05,2.2697e+08,2,5652,5471,15.27,2.47,30,56,0,0
4.8976e+05,2.2708e+08,2,5485,5671,15.2,2.71,30,56,0,0
4.9016e+05,2.2718e+08,2,5670,5614,15.18,2.59,30,56,0,0
4.906e+05,2.2729e+08,2,5613,5585,15.23,2.7,30,56,0,0
4.9109e+05,2.2741e+08,2,5585,5585,15.2,2.79,30,56,0,0
4.9154e+05,2.2751e+08,2,5586,5614,15.22,2.62,30,56,0,0
4.9196e+05,2.2762e+08,2,5613,5600,15.25,2.44,30,56,0,0
4.924e+05,2.2773e+08,2,5571,5300,15.16,2.52,30,57,0,0
4.9285e+05,2.2784e+08,2,5306,5371,15.2,2.37,30,57,0,0
4.9329e+05,2.2795e+08,2,5362,5271,15.19,2.42,30,57,0,0
4.9375e+05,2.2806e+08,2,5290,5485,15.26,2.6,30,57,0,0
4.9414e+05,2.2816e+08,2,5481,5328,15.29,2.41,30,57,0,0
4.9463e+05,2.2828e+08,2,5329,5357,15.28,2.01,30,57,0,0
4.9503e+05,2.2838e+08,2,5353,5214,15.29,2.17,30,57,0,0
4.9548e+05,2.2849e+08,2,5214,5257,15.28,2.1,30,57,0,0
4.9597e+05,2.2861e+08,2,5266,5371,15.2,2.51,30,57,0,0
4.9638e+05,2.2871e+08,2,5371,5385,15.16,2.23,30,57,0,0
4.9681e+05,2.2882e+08,2,5387,5414,15.23,2.43,30,57,0,0
4.972e+05,2.2893e+08,2,5417,5457,15.25,2.27,30,57,0,0
4.9766e+05,2.2904e+08,2,5435,5214,15.24,2.03,30,57,0,0
4.9805e+05,2.2914e+08,2,5212,5157,15.25,2.14,30,57,0,0
4.9854e+05,2.2925e+08,2,5180,5428,15.2,2.51,30,58,0,0
4.9895e+05,2.2936e+08,2,5430,5557,15.24,2.73,30,58,0,0
4.994e+05,2.2946e+08,2,5553,5514,15.17,2.85,30,58,0,0
4.9983e+05,2.2958e+08,2,5516,5557,15.25,2.55,30,58,0,0
5.0026e+05,2.2968e+08,2,5538,5357,15.22,2.52,30,58,0,0
5.007e+05,2.2979e+08,2,5365,5485,15.23,2.3,30,58,0,0
5.0115e+05,2.2991e+08,2,5477,5371,15.24,2.21,30,58,0,0
5.0155e+05,2.3e+08,2,5368,5314,15.24,2.33,30,58,0,0
5.0199e+05,2.3011e+08,2,5319,5385,15.23,2.39,30,58,0,0
5.0244e+05,2.3022e+08,2,5387,5414,15.23,2.52,30,58,0,0
5.0285e+05,2.3032e+08,2,5412,5357,15.23,2.28,30,58,0,0
5.0334e+05,2.3044e+08,2,5357,5357,15.24,2.56,30,58,0,0
5.0374e+05,2.3055e+08,2,5377,5657,15.2,2.75,30,58,0,0
5.0418e+05,2.3066e+08,2,5652,5585,15.29,2.53,30,58,0,0
5.0458e+05,2.3076e+08,2,5583,5571,15.22,2.58,30,59,0,0
5.0506e+05,2.3088e+08,2,5602,5771,15.18,2.83,30,59,0,0
5.0546e+05,2.3098e+08,2,5776,5828,15.18,2.86,30,59,0,0
5.0587e+05,2.3108e+08,2,5830,5871,15.2,2.94,30,59,0,0
5.0632e+05,2.312e+08,2,5887,6057,15.11,3.33,30,59,0,0
5.0673e+05,2.313e+08,2,6056,6042,15.11,3.31,30,59,0,0
5.0721e+05,2.3142e+08,2,6049,6128,15.17,3.41,30,59,0,0
5.0766e+05,2.3153e+08,2,6126,6114,15.22,3.33,30,59,0,0
5.0811e+05,2.3164e+08,2,6096,5971,15.15,3.17,30,59,0,0
5.085e+05,2.3174e+08,2,5969,5814,15.23,3.02,30,59,0,0
5.0939e+05,2.3196e+08,2,5814,5842,15.17,3.04,30,60,0,0
5.1032e+05,2.3218e+08,2,5836,5728,15.2,2.73,30,60,0,0
5.1077e+05,2.3229e+08,2,5729,5742,15.23,3.29,30,60,0,0
5.1117e+05,2.3239e+08,2,5747,5814,15.2,2.99,30,60,0,0
5.1162e+05,2.325e+08,2,5818,5885,15.19,3.29,30,60,0,0
5.1205e+05,2.3261e+08,2,5884,5871,15.27,2.83,30,60,0,0
5.1252e+05,2.3273e+08,2,5864,5800,15.23,2.59,30,60,0,0
5.1292e+05,2.3283e+08,2,5781,5542,15.2,2.75,30,60,0,0
5.1337e+05,2.3294e+08,2,5560,5800,15.2,2.76,30,60,0,0
5.1426e+05,2.3315e+08,2,5803,5871,15.18,3.15,30,61,0,0
5.1471e+05,2.3326e+08,2,5874,5914,15.2,3.23,30,61,0,0
5.1515e+05,2.3337e+08,2,5914,5914,15.15,3.18,30,61,0,0
5.16e+05,2.3358e+08,2,5914,5914,15.23,3.66,30,61,0,0
5.1645e+05,2.3369e+08,2,5913,5885,15.18,3.57,30,61,0,0
5.1691e+05,2.338e+08,2,5891,5971,15.19,3.68,30,61,0,0
5.1734e+05,2.3392e+08,2,5974,6014,15.17,3.79,30,61,0,0
5.1774e+05,2.3402e+08,2,6016,6114,15.17,3.49,30,61,0,0
5.1819e+05,2.3413e+08,2,6108,5900,15.22,3.29,30,61,0,0
5.1864e+05,2.3424e+08,2,5901,5928,15.24,3.08,30,62,0,0
5.1908e+05,2.3434e+08,2,5923,5828,15.2,2.98,30,62,0,0
5.1953e+05,2.3445e+08,2,5826,5728,15.14,2.84,30,62,0,0
5.2002e+05,2.3457e+08,2,5720,5642,15.17,2.74,30,62,0,0
5.2046e+05,2.3468e+08,2,5646,5714,15.2,3.01,30,62,0,0
5.2087e+05,2.3479e+08,2,5712,5685,15.22,3.11,30,62,0,0
5.2132e+05,2.349e+08,2,5692,5757,15.25,2.97,30,62,0,0
5.2174e+05,2.3501e+08,2,5766,5957,15.22,3.21,30,62,0,0
5.2213e+05,2.3511e+08,2,5954,5871,15.22,3.29,30,62,0,0
5.2258e+05,2.3522e+08,2,5871,5914,15.24,3.27,30,62,0,0
5.2303e+05,2.3533e+08,2,5919,6042,15.19,3.48,30,63,0,0
5.2348e+05,2.3544e+08,2,6038,5828,15.17,3.26,30,63,0,0
5.2392e+05,2.3555e+08,2,5827,5785,15.14,3.27,30,63,0,0
5.2442e+05,2.3567e+08,2,5787,5814,15.11,3.17,30,63,0,0
5.2485e+05,2.3577e+08,2,5812,5785,15.22,3.16,30,63,0,0
5.253e+05,2.3588e+08,2,5780,5671,15.19,2.84,30,63,0,0
5.2575e+05,2.3599e+08,2,5670,5657,15.2,2.93,30,63,0,0
5.2619e+05,2.361e+08,2,5647,5514,15.21,2.6,30,63,0,0
5.2664e+05,2.3621e+08,2,5510,5471,15.16,2.53,30,63,0,0
5.2708e+05,2.3632e+08,2,5478,5557,15.17,2.7,30,63,0,0
5.2753e+05,2.3643e+08,2,5554,5528,15.21,2.45,30,63,0,0
5.2842e+05,2.3664e+08,2,5525,5400,15.17,2.59,30,64,0,0
5.2886e+05,2.3675e+08,2,5415,5628,15.17,2.7,30,64,0,0
5.2973e+05,2.3697e+08,2,5630,5714,15.2,3.02,30,64,0,0
5.3018e+05,2.3708e+08,2,5720,5785,15.22,3,30,64,0,0
5.3058e+05,2.3718e+08,2,5786,5842,15.22,2.99,30,64,0,0
5.3106e+05,2.3729e+08,2,5841,5828,15.26,2.85,30,64,0,0
5.315e+05,2.374e+08,2,5813,5600,15.2,2.42,30,64,0,0
5.3199e+05,2.3752e+08,2,5603,5628,15.25,2.37,30,64,0,0
5.3239e+05,2.3762e+08,2,5620,5514,15.25,2.55,30,64,0,0
5.3284e+05,2.3773e+08,2,5512,5385,15.24,2.44,30,64,0,0
5.333e+05,2.3785e+08,2,5393,5514,15.2,2.61,30,65,0,0
5.3373e+05,2.3795e+08,2,5505,5400,15.19,2.55,30,65,0,0
5.3418e+05,2.3806e+08,2,5413,5542,15.22,2.7,30,65,0,0
5.3463e+05,2.3817e+08,2,5548,5614,15.22,2.68,29,65,0,0
5.3508e+05,2.3829e+08,2,5630,5742,15.24,2.6,30,65,0,0
5.3548e+05,2.3838e+08,2,5739,5614,15.19,2.83,30,65,0,0
5.36e+05,2.3851e+08,2,5620,5685,15.25,2.5,30,65,0,0
5.3642e+05,2.3862e+08,2,5690,5742,15.25,2.5,30,65,0,0
5.3685e+05,2.3873e+08,2,5764,5942,15.15,2.92,30,65,0,0
5.3726e+05,2.3883e+08,2,5937,5742,15.16,2.71,30,65,0,0
5.3771e+05,2.3894e+08,2,5742,5757,15.21,2.86,30,65,0,0
5.3816e+05,2.3904e+08,2,5758,5785,15.2,2.77,30,65,0,0
5.3865e+05,2.3916e+08,2,5797,5914,15.23,2.76,30,65,0,0
5.3905e+05,2.3926e+08,2,5914,5914,15.17,2.79,30,66,0,0
5.3987e+05,2.3948e+08,2,5908,5800,15.16,2.95,30,66,0,0
5.4031e+05,2.3958e+08,2,5795,5742,15.13,2.75,29,66,0,0
5.4076e+05,2.3969e+08,2,5750,5914,15.17,3.26,30,66,0,0
5.4116e+05,2.398e+08,2,5914,5942,15.13,3.38,30,66,0,0
5.4161e+05,2.399e+08,2,5939,5857,15.17,3.31,30,66,0,0
5.4206e+05,2.4002e+08,2,5872,6014,15.12,3.31,30,66,0,0
5.4251e+05,2.4013e+08,2,6014,6014,15.17,3.36,30,66,0,0
5.4295e+05,2.4024e+08,2,6000,5842,15.23,2.84,30,66,0,0
5.4336e+05,2.4034e+08,2,5848,5971,15.17,2.77,30,66,0,0
5.4385e+05,2.4046e+08,2,5954,5714,15.23,2.98,30,67,0,0
5.4425e+05,2.4056e+08,2,5713,5685,15.19,2.72,30,67,0,0
5.4514e+05,2.4077e+08,2,5685,5728,15.23,2.84,30,67,0,0
5.4564e+05,2.4089e+08,2,5728,5728,15.23,2.73,30,67,0,0
5.4606e+05,2.41e+08,2,5738,5828,15.23,2.79,30,67,0,0
5.469e+05,2.4121e+08,2,5830,5885,15.18,3.13,30,67,0,0
5.4734e+05,2.4133e+08,2,5873,5757,15.22,2.94,30,67,0,0
5.4779e+05,2.4143e+08,2,5762,5885,15.2,3.02,30,67,0,0
5.4823e+05,2.4155e+08,2,5893,6014,15.22,2.98,30,67,0,0
5.4868e+05,2.4166e+08,2,6010,5971,15.23,3.14,30,68,0,0
5.4912e+05,2.4177e+08,2,5981,6114,15.16,2.96,30,68,0,0
5.4953e+05,2.4187e+08,2,6107,5785,15.16,2.92,30,68,0,0
5.4997e+05,2.4198e+08,2,5784,5771,15.22,2.93,30,68,0,0
5.5043e+05,2.4209e+08,2,5773,5828,15.22,2.75,30,68,0,0
5.5084e+05,2.4219e+08,2,5817,5685,15.17,2.83,29,68,0,0
5.5128e+05,2.4231e+08,2,5690,5757,15.18,2.85,30,68,0,0
5.5169e+05,2.4241e+08,2,5758,5828,15.13,2.79,30,68,0,0
5.5214e+05,2.4252e+08,2,5823,5714,15.2,2.85,29,68,0,0
5.5259e+05,2.4263e+08,2,5716,5742,15.17,2.88,30,68,0,0
5.5298e+05,2.4273e+08,2,5743,5828,15.21,2.74,30,68,0,0
5.5345e+05,2.4284e+08,2,5820,5742,15.13,2.71,30,68,0,0
5.5389e+05,2.4295e+08,2,5742,5742,15.19,2.61,30,69,0,0
5.5434e+05,2.4306e+08,2,5739,5714,15.19,2.68,30,69,0,0
5.5474e+05,2.4317e+08,2,5713,5700,15.1,2.59,29,69,0,0
5.5519e+05,2.4327e+08,2,5705,5942,15.2,2.83,30,69,0,0
5.5568e+05,2.4339e+08,2,5917,5671,15.17,2.86,30,69,0,0
5.5608e+05,2.4349e+08,2,5673,5814,15.17,2.81,30,69,0,0
5.5657e+05,2.4361e+08,2,5834,6042,15.18,2.88,30,69,0,0
5.5696e+05,2.4371e+08,2,6041,6014,15.22,2.58,30,69,0,0
5.574e+05,2.4382e+08,2,6009,5728,15.17,2.7,29,69,0,0
5.5782e+05,2.4393e+08,2,5729,5757,15.17,2.86,30,69,0,0
5.5827e+05,2.4403e+08,2,5754,5657,15.19,2.6,29,69,0,0
5.5872e+05,2.4414e+08,2,5658,5771,15.25,2.6,30,69,0,0
5.5957e+05,2.4435e+08,2,5764,5500,15.23,2.28,29,70,0,0
5.6002e+05,2.4446e+08,2,5500,5514,15.26,2.37,29,70,0,0
5.6045e+05,2.4457e+08,2,5510,5442,15.32,2.37,30,70,0,0
5.6088e+05,2.4468e+08,2,5435,5028,15.64,0.91,30,70,0,0
5.6132e+05,2.4478e+08,2,4996,3128,15.38,0.51,30,70,0,0
5.6225e+05,2.4501e+08,2,3113,2700,15.58,0.64,30,70,0,0
5.627e+05,2.4512e+08,2,2689,2585,15.6,0.24,29,70,0,0
5.6311e+05,2.4522e+08,2,2579,2457,15.58,0.25,29,70,0,0
5.6355e+05,2.4533e+08,2,2462,2600,15.59,0.38,30,70,0,0
5.6398e+05,2.4544e+08,2,2597,2542,15.61,0.26,30,70,0,0
5.6441e+05,2.4555e+08,2,2541,2528,15.6,0.31,29,70,0,0
5.6486e+05,2.4566e+08,2,2528,2542,15.61,0.31,30,70,0,0
5.653e+05,2.4577e+08,2,2536,2485,15.6,0.28,29,70,0,0
5.6579e+05,2.4588e+08,2,2488,2528,15.61,0.3,29,70,0,0
5.662e+05,2.4598e+08,2,2527,2514,15.62,0.28,29,70,0,0
5.6665e+05,2.461e+08,2,2514,2514,15.62,0.31,29,70,0,0
5.6705e+05,2.4619e+08,2,2514,2514,15.63,0.3,30,70,0,0
5.6754e+05,2.4631e+08,2,2517,2542,15.61,0.37,29,70,0,0
5.6794e+05,2.4641e+08,2,2543,2628,15.6,0.4,29,70,0,0
5.6838e+05,2.4652e+08,2,2631,2700,15.63,0.44,29,70,0,0
5.6884e+05,2.4663e+08,2,2701,2714,15.63,0.38,30,70,0,0
5.6928e+05,2.4674e+08,2,2717,2771,15.63,0.42,29,70,0,0
5.6973e+05,2.4685e+08,2,2710,2000,15.7,0.01,29,70,0,0
5.7018e+05,2.4696e+08,2,1964,1500,15.69,0,29,70,0,0
5.7067e+05,2.4707e+08,2,1490,1328,15.67,0.06,29,70,0,0
5.7106e+05,2.4717e+08,2,1327,1300,15.68,0.08,29,70,0,0
5.7193e+05,2.4738e+08,2,1300,1300,15.69,0.09,29,70,0,0
5.7243e+05,2.475e+08,2,1298,1285,15.68,0.09,29,70,0,0
5.7283e+05,2.4761e+08,2,1285,1285,15.68,0.09,29,70,0,0
5.7327e+05,2.4771e+08,2,1285,1285,15.69,0.09,29,70,0,0
5.7372e+05,2.4782e+08,2,1285,1285,15.69,0.09,29,70,0,0
5.7413e+05,2.4793e+08,2,1285,1285,15.69,0.09,29,70,0,0
5.7458e+05,2.4803e+08,2,1285,1300,15.69,0.09,29,70,0,0
5.7502e+05,2.4814e+08,2,1299,1285,15.69,0.09,29,70,0,0
5.7549e+05,2.4826e+08,2,1286,1300,15.7,0.09,29,70,0,0
5.7589e+05,2.4836e+08,2,1300,1300,15.69,0.09,29,70,0,0
5.7633e+05,2.4847e+08,2,1300,1300,15.7,0.09,29,70,0,0
5.7678e+05,2.4858e+08,2,1300,1300,15.7,0.09,29,70,0,0
5.7724e+05,2.4869e+08,2,1300,1300,15.7,0.09,29,70,0,0
5.7768e+05,2.488e+08,2,1300,1300,15.7,0.09,29,70,0,0
5.7814e+05,2.4891e+08,2,1300,1300,15.7,0.09,29,70,0,0
5.7856e+05,2.4901e+08,2,1300,1300,15.7,0.09,29,70,0,0
5.7898e+05,2.4912e+08,2,1300,1300,15.71,0.09,29,70,0,0
5.7943e+05,2.4923e+08,2,1300,1300,15.72,0.09,29,70,0,0
5.7988e+05,2.4934e+08,2,1300,1300,15.72,0.09,29,70,0,0
5.8033e+05,2.4945e+08,2,1300,1300,15.7,0.09,29,70,0,0
5.8073e+05,2.4954e+08,2,1299,1285,15.72,0.09,29,70,0,0
5.8122e+05,2.4966e+08,2,1285,1285,15.72,0.09,29,70,0,0
5.8165e+05,2.4977e+08,2,1285,1285,15.72,0.09,29,70,0,0
5.8205e+05,2.4987e+08,2,1285,1300,15.72,0.09,29,70,0,0
5.8249e+05,2.4998e+08,2,1300,1300,15.72,0.09,29,70,0,0
5.8294e+05,2.5009e+08,2,1300,1300,15.72,0.09,29,70,0,0
5.8339e+05,2.502e+08,2,1300,1300,15.73,0.09,29,70,0,0
5.8384e+05,2.503e+08,2,1300,1300,15.73,0.09,29,70,0,0
5.8428e+05,2.5041e+08,2,1299,1285,15.73,0.09,29,70,0,0
5.8474e+05,2.5052e+08,2,1285,1300,15.73,0.09,29,70,0,0
5.8517e+05,2.5063e+08,2,1299,1285,15.73,0.09,29,70,0,0
5.856e+05,2.5074e+08,2,1285,1300,15.73,0.09,29,70,0,0
5.8605e+05,2.5084e+08,2,1300,1300,15.73,0.09,29,70,0,0
5.8649e+05,2.5095e+08,2,1300,1300,15.73,0.09,29,70,0,0
5.8694e+05,2.5106e+08,2,1300,1300,15.73,0.09,29,70,0,0
5.8787e+05,2.5128e+08,2,1280,842,15.76,0.03,29,70,0,0
5.8831e+05,2.5139e+08,2,790,257,15.75,0,29,70,0,0
5.8875e+05,2.515e+08,2,253,0,15.75,0.02,29,70,0,0
5.892e+05,2.516e+08,2,0,0,15.75,0.02,29,70,0,0
5.8969e+05,2.5172e+08,2,0,0,15.76,0.03,29,70,0,0
5.9014e+05,2.5183e+08,2,0,0,15.76,0.03,28,70,0,0
5.9059e+05,2.5193e+08,2,0,0,15.75,0.03,29,70,0,0
5.9105e+05,2.5204e+08,2,0,0,15.76,0.02,29,70,0,0
5.9153e+05,2.5215e+08,2,0,0,15.75,0.02,29,70,0,0
5.9196e+05,2.5225e+08,2,0,0,15.76,0.02,29,70,0,0
5.9244e+05,2.5237e+08,2,0,0,15.76,0.02,29,70,0,0
5.929e+05,2.5247e+08,2,0,0,15.77,0.03,29,70,0,0
5.9331e+05,2.5257e+08,2,0,0,15.76,0.03,28,70,0,0
5.938e+05,2.5269e+08,2,0,0,15.76,0.02,29,70,0,0
5.9426e+05,2.528e+08,2,0,0,15.77,0.02,28,70,0,0
5.9471e+05,2.529e+08,2,0,0,15.76,0.02,28,70,0,0
5.9516e+05,2.5301e+08,2,0,0,15.77,0.02,28,70,0,0
5.9566e+05,2.5313e+08,2,0,0,15.77,0.02,29,70,0,0
5.9609e+05,2.5323e+08,2,0,0,15.77,0.02,28,70,0,0
5.9653e+05,2.5334e+08,2,0,0,15.77,0.02,28,70,0,0
5.9698e+05,2.5345e+08,2,0,0,15.77,0.02,28,70,0,0
5.9743e+05,2.5355e+08,2,0,0,15.77,0.02,28,70,0,0
5.9788e+05,2.5366e+08,2,0,0,15.77,0.03,29,70,0,0
5.9837e+05,2.5377e+08,2,0,0,15.77,0.03,28,70,0,0
5.9883e+05,2.5387e+08,2,0,0,15.77,0.03,28,70,0,0
5.9926e+05,2.5398e+08,2,0,0,15.77,0.02,28,70,0,0
5.997e+05,2.5409e+08,2,0,0,15.77,0.03,28,70,0,0
6.0015e+05,2.542e+08,2,0,0,15.78,0.03,28,70,0,0
6.006e+05,2.543e+08,2,0,0,15.77,0.02,28,70,0,0
6.0096e+05,2.5441e+08,2,0,0,15.78,0.02,28,70,0,0
6.0141e+05,2.5452e+08,2,0,0,15.78,0.03,28,70,0,0
6.0231e+05,2.5474e+08,2,0,0,15.79,0.03,28,70,0,0
6.0276e+05,2.5484e+08,2,0,0,15.78,0.02,28,70,0,0
6.032e+05,2.5495e+08,2,0,0,15.79,0.02,28,70,0,0
6.0368e+05,2.5507e+08,2,0,0,15.78,0.02,28,70,0,0
