LineNo,TimeUS,Instance,RPM,RawRPM,Volt,Curr,Temp,CTot,MotTemp,Err
1513,2.1778e+07,3,0,0,16.24,0.04,24,0,0,0
1882,2.187e+07,3,0,0,16.24,0.04,24,0,0,0
2340,2.1985e+07,3,0,0,16.24,0.04,23,0,0,0
3199,2.2195e+07,3,0,0,16.24,0.04,24,0,0,0
3654,2.2306e+07,3,0,0,16.24,0.04,23,0,0,0
4066,2.2408e+07,3,0,0,16.24,0.05,24,0,0,0
4485,2.2514e+07,3,0,0,16.24,0.05,24,0,0,0
4897,2.2616e+07,3,0,0,16.24,0.04,24,0,0,0
5351,2.2728e+07,3,0,0,16.25,0.04,24,0,0,0
5770,2.2835e+07,3,0,0,16.25,0.04,24,0,0,0
6225,2.2948e+07,3,0,0,16.25,0.04,24,0,0,0
6640,2.305e+07,3,0,0,16.24,0.04,24,0,0,0
7057,2.3154e+07,3,0,0,16.24,0.04,24,0,0,0
7511,2.3267e+07,3,0,0,16.24,0.04,24,0,0,0
7922,2.3371e+07,3,0,0,16.24,0.05,24,0,0,0
8331,2.3471e+07,3,0,0,16.25,0.04,24,0,0,0
8776,2.358e+07,3,0,0,16.24,0.04,24,0,0,0
9230,2.3693e+07,3,0,0,16.24,0.04,24,0,0,0
9637,2.3797e+07,3,0,0,16.24,0.04,24,0,0,0
9991,2.3898e+07,3,0,0,16.24,0.05,24,0,0,0
10442,2.401e+07,3,0,0,16.24,0.04,24,0,0,0
10858,2.4116e+07,3,0,0,16.23,0.04,24,0,0,0
11269,2.4221e+07,3,0,0,16.24,0.04,24,0,0,0
11727,2.4334e+07,3,0,0,16.24,0.04,24,0,0,0
12140,2.4437e+07,3,0,0,16.24,0.04,24,0,0,0
12553,2.4542e+07,3,0,0,16.24,0.04,24,0,0,0
12970,2.4647e+07,3,0,0,16.24,0.04,24,0,0,0
13383,2.4751e+07,3,0,0,16.24,0.04,24,0,0,0
13835,2.4861e+07,3,0,0,16.25,0.04,24,0,0,0
14247,2.4964e+07,3,0,0,16.25,0.04,24,0,0,0
14696,2.5077e+07,3,0,0,16.24,0.05,24,0,0,0
15116,2.5181e+07,3,0,0,16.24,0.04,24,0,0,0
15579,2.5296e+07,3,0,0,16.24,0.04,24,0,0,0
15953,2.5389e+07,3,0,0,16.24,0.05,24,0,0,0
16409,2.55e+07,3,0,0,16.24,0.05,24,0,0,0
16821,2.5603e+07,3,0,0,16.24,0.05,24,0,0,0
17279,2.5718e+07,3,0,0,16.25,0.04,24,0,0,0
17694,2.5822e+07,3,0,0,16.23,0.04,24,0,0,0
18108,2.5926e+07,3,0,0,16.23,0.04,24,0,0,0
18522,2.6031e+07,3,0,0,16.24,0.04,24,0,0,0
18944,2.6137e+07,3,0,0,16.24,0.04,24,0,0,0
19391,2.6249e+07,3,0,0,16.24,0.04,24,0,0,0
19806,2.6354e+07,3,0,0,16.24,0.05,24,0,0,0
20222,2.646e+07,3,0,0,16.24,0.05,24,0,0,0
20676,2.6572e+07,3,0,0,16.24,0.05,24,0,0,0
21094,2.6676e+07,3,0,0,16.24,0.05,24,0,0,0
21506,2.678e+07,3,0,0,16.24,0.05,24,0,0,0
21918,2.6884e+07,3,0,0,16.24,0.05,24,0,0,0
22331,2.699e+07,3,0,0,16.24,0.05,24,0,0,0
22783,2.7102e+07,3,0,0,16.25,0.05,24,0,0,0
23235,2.7213e+07,3,0,0,16.24,0.05,24,0,0,0
23623,2.7314e+07,3,0,0,16.24,0.05,24,0,0,0
24068,2.7419e+07,3,0,0,16.24,0.05,24,0,0,0
24486,2.7526e+07,3,0,0,16.23,0.05,24,0,0,0
24944,2.764e+07,3,0,0,16.24,0.04,24,0,0,0
25354,2.7741e+07,3,0,0,16.24,0.05,24,0,0,0
25767,2.7847e+07,3,0,0,16.24,0.04,24,0,0,0
26182,2.7955e+07,3,0,0,16.25,0.05,24,0,0,0
26596,2.8061e+07,3,0,0,16.24,0.05,24,0,0,0
27050,2.8173e+07,3,0,0,16.23,0.05,24,0,0,0
27463,2.8278e+07,3,0,0,16.25,0.05,24,0,0,0
27917,2.8391e+07,3,0,0,16.25,0.05,24,0,0,0
28324,2.8492e+07,3,0,0,16.24,0.04,24,0,0,0
28780,2.8604e+07,3,0,0,16.24,0.04,24,0,0,0
29192,2.8709e+07,3,0,0,16.24,0.04,24,0,0,0
29598,2.8811e+07,3,0,0,16.24,0.04,24,0,0,0
30046,2.8918e+07,3,0,0,16.24,0.04,24,0,0,0
30460,2.9022e+07,3,0,0,16.24,0.04,24,0,0,0
30911,2.9133e+07,3,0,0,16.23,0.04,24,0,0,0
31326,2.9236e+07,3,0,0,16.25,0.04,24,0,0,0
31739,2.9341e+07,3,0,0,16.24,0.04,24,0,0,0
32149,2.9444e+07,3,0,0,16.24,0.04,24,0,0,0
32632,2.9561e+07,3,0,0,16.23,0.04,24,0,0,0
1.9307e+05,1.5317e+08,3,0,0,0,0,0,0,0,0
1.9348e+05,1.5328e+08,3,0,0,0,0.04,0,0,0,0
1.9597e+05,1.5392e+08,3,0,0,0,0.05,0,0,0,0
1.9642e+05,1.5403e+08,3,0,0,0,0.05,0,0,0,0
1.968e+05,1.5413e+08,3,0,0,16.23,0.04,25,0,0,0
1.9725e+05,1.5425e+08,3,0,0,16.22,0.04,25,0,0,0
1.9766e+05,1.5435e+08,3,0,0,16.22,0.04,25,0,0,0
1.9811e+05,1.5446e+08,3,0,0,16.23,0.04,25,0,0,0
1.9852e+05,1.5457e+08,3,0,0,16.23,0.04,26,0,0,0
1.9894e+05,1.5467e+08,3,0,0,16.22,0.04,25,0,0,0
1.9935e+05,1.5478e+08,3,0,0,16.22,0.04,26,0,0,0
1.998e+05,1.549e+08,3,0,0,16.22,0.04,26,0,0,0
2.0022e+05,1.5501e+08,3,0,0,16.22,0.04,25,0,0,0
2.0059e+05,1.5511e+08,3,0,0,16.22,0.04,26,0,0,0
2.0104e+05,1.5522e+08,3,0,0,16.22,0.04,26,0,0,0
2.0184e+05,1.5543e+08,3,0,0,16.22,0.04,25,0,0,0
2.0225e+05,1.564e+08,3,0,0,16.23,0.04,26,0,0,0
2.0255e+05,1.5648e+08,3,0,0,16.22,0.04,26,0,0,0
2.0304e+05,1.566e+08,3,0,0,16.22,0.04,25,0,0,0
2.035e+05,1.5671e+08,3,0,0,16.22,0.04,25,0,0,0
2.0395e+05,1.5681e+08,3,0,0,16.22,0.04,26,0,0,0
2.0441e+05,1.5692e+08,3,0,0,16.22,0.04,25,0,0,0
2.0486e+05,1.5703e+08,3,0,0,16.23,0.04,26,0,0,0
2.0532e+05,1.5714e+08,3,0,0,16.23,0.04,25,0,0,0
2.0577e+05,1.5724e+08,3,0,0,16.22,0.04,26,0,0,0
2.0623e+05,1.5735e+08,3,0,0,16.22,0.05,26,0,0,0
2.0668e+05,1.5746e+08,3,0,0,16.22,0.05,25,0,0,0
2.0716e+05,1.5757e+08,3,0,0,16.22,0.04,26,0,0,0
2.076e+05,1.5768e+08,3,0,0,16.22,0.04,26,0,0,0
2.0801e+05,1.5778e+08,3,0,0,16.22,0.05,26,0,0,0
2.0856e+05,1.579e+08,3,0,0,16.22,0.05,25,0,0,0
2.0896e+05,1.58e+08,3,0,0,16.22,0.05,25,0,0,0
2.0945e+05,1.5811e+08,3,0,0,16.22,0.05,25,0,0,0
2.099e+05,1.5822e+08,3,0,0,16.23,0.05,25,0,0,0
2.1035e+05,1.5832e+08,3,0,0,16.22,0.05,26,0,0,0
2.1085e+05,1.5844e+08,3,0,0,16.22,0.04,26,0,0,0
2.1127e+05,1.5854e+08,3,8,185,16.22,0.05,26,0,0,0
2.1177e+05,1.5865e+08,3,223,642,16.19,0.11,25,0,0,0
2.1221e+05,1.5876e+08,3,673,1014,16.2,0.17,25,0,0,0
2.1264e+05,1.5886e+08,3,1021,1214,16.21,0.13,26,0,0,0
2.1309e+05,1.5897e+08,3,1216,1271,16.2,0.12,26,0,0,0
2.1405e+05,1.5919e+08,3,1272,1314,16.2,0.11,26,0,0,0
2.145e+05,1.593e+08,3,1314,1314,16.21,0.11,26,0,0,0
2.1496e+05,1.5941e+08,3,1315,1328,16.2,0.11,26,0,0,0
2.154e+05,1.5951e+08,3,1328,1328,16.2,0.11,26,0,0,0
2.1586e+05,1.5962e+08,3,1327,1314,16.2,0.11,26,0,0,0
2.1681e+05,1.5984e+08,3,1314,1314,16.2,0.11,26,0,0,0
2.1749e+05,1.6006e+08,3,1314,1314,16.21,0.11,26,0,0,0
2.1793e+05,1.6016e+08,3,1314,1314,16.21,0.11,26,0,0,0
2.1839e+05,1.6027e+08,3,1314,1328,16.21,0.11,26,0,0,0
2.1888e+05,1.6038e+08,3,1326,1314,16.21,0.11,26,0,0,0
2.1934e+05,1.6049e+08,3,1315,1328,16.2,0.11,26,0,0,0
2.1979e+05,1.6059e+08,3,1327,1314,16.2,0.11,26,0,0,0
2.2022e+05,1.607e+08,3,1314,1314,16.21,0.11,26,0,0,0
2.2071e+05,1.6081e+08,3,1314,1314,16.2,0.11,26,0,0,0
2.2117e+05,1.6092e+08,3,1314,1314,16.2,0.11,26,0,0,0
2.2159e+05,1.6102e+08,3,1314,1314,16.2,0.11,26,0,0,0
2.2208e+05,1.6114e+08,3,1314,1314,16.2,0.11,26,0,0,0
2.2251e+05,1.6124e+08,3,1314,1314,16.2,0.11,26,0,0,0
2.2295e+05,1.6134e+08,3,1314,1328,16.2,0.11,26,0,0,0
2.2345e+05,1.6146e+08,3,1327,1314,16.21,0.11,26,0,0,0
2.2391e+05,1.6157e+08,3,1314,1314,16.2,0.11,26,0,0,0
2.2436e+05,1.6167e+08,3,1314,1314,16.2,0.11,26,0,0,0
2.2486e+05,1.6179e+08,3,1314,1314,16.21,0.11,26,0,0,0
2.2531e+05,1.6189e+08,3,1314,1314,16.2,0.11,26,0,0,0
2.2577e+05,1.62e+08,3,1314,1314,16.2,0.11,26,0,0,0
2.2622e+05,1.621e+08,3,1314,1314,16.2,0.11,26,0,0,0
2.2671e+05,1.6222e+08,3,1314,1314,16.21,0.11,26,0,0,0
2.272e+05,1.6233e+08,3,1314,1314,16.2,0.11,26,0,0,0
2.2764e+05,1.6243e+08,3,1314,1314,16.2,0.11,26,0,0,0
2.2808e+05,1.6254e+08,3,1314,1314,16.2,0.11,26,0,0,0
2.2853e+05,1.6264e+08,3,1314,1342,16.19,0.14,26,0,0,0
2.2903e+05,1.6276e+08,3,1361,1628,16.17,0.27,26,0,0,0
2.2953e+05,1.6287e+08,3,1675,2228,16.12,0.52,26,0,0,0
2.2998e+05,1.6297e+08,3,2233,2314,16.13,0.41,26,0,0,0
2.3043e+05,1.6307e+08,3,2315,2414,16.1,0.45,26,0,0,0
2.3088e+05,1.6318e+08,3,2416,2471,16.14,0.45,26,0,0,0
2.3138e+05,1.633e+08,3,2480,2585,16,0.68,26,0,0,0
2.3183e+05,1.6341e+08,3,2631,3271,15.93,1.24,26,0,0,0
2.3233e+05,1.6353e+08,3,3360,4042,15.89,1.97,26,0,0,0
2.3272e+05,1.6362e+08,3,4069,4714,15.76,2.36,26,0,0,0
2.332e+05,1.6374e+08,3,4763,5271,15.69,2.98,26,0,0,0
2.3365e+05,1.6385e+08,3,5313,5728,15.56,3.83,26,0,0,0
2.3411e+05,1.6396e+08,3,5754,6014,15.63,3.53,26,0,0,0
2.3456e+05,1.6406e+08,3,5994,5700,15.68,2.55,26,1,0,0
2.3497e+05,1.6417e+08,3,5699,5685,15.71,2.63,26,1,0,0
2.3547e+05,1.6428e+08,3,5658,5371,15.62,2.21,26,1,0,0
2.3588e+05,1.6438e+08,3,5372,5400,15.66,2.52,26,1,0,0
2.3633e+05,1.6449e+08,3,5399,5342,15.68,2.46,26,1,0,0
2.3677e+05,1.646e+08,3,5337,5242,15.63,2.22,26,1,0,0
2.3724e+05,1.6472e+08,3,5218,5028,15.64,2.08,26,1,0,0
2.386e+05,1.6504e+08,3,5035,5357,15.57,2.45,26,1,0,0
2.3901e+05,1.6514e+08,3,5356,5314,15.61,2.35,26,1,0,0
2.3951e+05,1.6526e+08,3,5309,5257,15.67,2.3,26,1,0,0
2.3996e+05,1.6536e+08,3,5258,5285,15.66,2.18,26,1,0,0
2.4046e+05,1.6548e+08,3,5267,5085,15.65,2.11,26,1,0,0
2.4091e+05,1.6559e+08,3,5109,5342,15.69,2.46,26,2,0,0
2.4137e+05,1.657e+08,3,5327,5200,15.63,2.35,26,2,0,0
2.4182e+05,1.6581e+08,3,5211,5371,15.62,2.67,26,2,0,0
2.4228e+05,1.6592e+08,3,5378,5442,15.68,2.64,26,2,0,0
2.4271e+05,1.6603e+08,3,5448,5542,15.67,3.17,26,2,0,0
2.4315e+05,1.6613e+08,3,5551,5671,15.65,3.05,26,2,0,0
2.4364e+05,1.6625e+08,3,5664,5600,15.61,3.29,26,2,0,0
2.4405e+05,1.6635e+08,3,5605,5714,15.63,3.31,26,2,0,0
2.4455e+05,1.6647e+08,3,5731,5914,15.65,3.29,26,2,0,0
2.45e+05,1.6657e+08,3,5914,5914,15.64,3.21,26,2,0,0
2.4549e+05,1.6669e+08,3,5899,5771,15.61,3.33,26,2,0,0
2.459e+05,1.6679e+08,3,5771,5785,15.62,3.2,26,3,0,0
2.4639e+05,1.6691e+08,3,5783,5771,15.67,3.29,26,3,0,0
2.4685e+05,1.6701e+08,3,5767,5728,15.66,3.07,26,3,0,0
2.473e+05,1.6712e+08,3,5729,5742,15.63,2.83,26,3,0,0
2.4776e+05,1.6723e+08,3,5738,5657,15.59,2.79,26,3,0,0
2.4821e+05,1.6733e+08,3,5655,5585,15.56,2.92,26,3,0,0
2.4868e+05,1.6745e+08,3,5595,5700,15.64,2.68,26,3,0,0
2.4913e+05,1.6756e+08,3,5679,5471,15.62,2.71,26,3,0,0
2.4958e+05,1.6767e+08,3,5469,5442,15.53,2.8,26,3,0,0
2.4999e+05,1.6777e+08,3,5444,5600,15.55,2.89,26,3,0,0
2.5049e+05,1.6788e+08,3,5595,5528,15.57,2.79,27,3,0,0
2.5094e+05,1.6799e+08,3,5528,5542,15.58,2.74,27,3,0,0
2.5144e+05,1.6811e+08,3,5521,5328,15.61,2.61,27,4,0,0
2.5185e+05,1.6821e+08,3,5335,5485,15.59,2.67,26,4,0,0
2.5235e+05,1.6832e+08,3,5485,5485,15.63,2.59,27,4,0,0
2.528e+05,1.6843e+08,3,5485,5485,15.59,2.61,27,4,0,0
2.5322e+05,1.6854e+08,3,5469,5328,15.58,2.7,27,4,0,0
2.5367e+05,1.6864e+08,3,5328,5342,15.64,2.81,27,4,0,0
2.5416e+05,1.6876e+08,3,5352,5457,15.54,2.8,27,4,0,0
2.5459e+05,1.6886e+08,3,5466,5671,15.59,3.53,27,4,0,0
2.5503e+05,1.6897e+08,3,5687,5914,15.61,3.76,27,4,0,0
2.5546e+05,1.6907e+08,3,5912,5800,15.59,3.21,27,4,0,0
2.564e+05,1.693e+08,3,5754,5157,15.58,2.01,27,5,0,0
2.5684e+05,1.694e+08,3,5149,5057,15.58,1.86,27,5,0,0
2.573e+05,1.6951e+08,3,5049,4971,15.6,1.88,27,5,0,0
2.5775e+05,1.6962e+08,3,4964,4871,15.57,1.89,27,5,0,0
2.5821e+05,1.6973e+08,3,4869,4842,15.57,1.96,27,5,0,0
2.5866e+05,1.6984e+08,3,4846,4914,15.58,1.89,27,5,0,0
2.5906e+05,1.6994e+08,3,4914,4914,15.57,2.1,27,5,0,0
2.5954e+05,1.7006e+08,3,4914,4914,15.6,2.05,27,5,0,0
2.5998e+05,1.7016e+08,3,4915,4985,15.58,2.19,27,5,0,0
2.6044e+05,1.7027e+08,3,4986,5142,15.6,2.02,27,5,0,0
2.6093e+05,1.7039e+08,3,5144,5171,15.61,2.38,27,5,0,0
2.6139e+05,1.7049e+08,3,5185,5328,15.56,2.32,27,5,0,0
2.6184e+05,1.706e+08,3,5322,5242,15.61,2.14,27,5,0,0
2.6274e+05,1.7082e+08,3,5234,5042,15.6,2.18,27,5,0,0
2.6319e+05,1.7093e+08,3,5043,5142,15.59,2.2,27,5,0,0
2.6369e+05,1.7104e+08,3,5142,5142,15.57,2.3,27,6,0,0
2.641e+05,1.7114e+08,3,5143,5214,15.54,2.64,27,6,0,0
2.6459e+05,1.7126e+08,3,5257,5700,15.56,2.47,27,6,0,0
2.6499e+05,1.7136e+08,3,5669,5028,15.54,1.97,27,6,0,0
2.6547e+05,1.7147e+08,3,5033,5114,15.54,1.99,27,6,0,0
2.6592e+05,1.7158e+08,3,5102,4942,15.5,1.59,27,6,0,0
2.6637e+05,1.7169e+08,3,4938,4900,15.58,1.32,27,6,0,0
2.6682e+05,1.718e+08,3,4920,5128,15.51,3.2,27,6,0,0
2.6728e+05,1.7191e+08,3,5125,5100,15.52,2.29,27,6,0,0
2.6773e+05,1.7202e+08,3,5109,5214,15.49,2.5,27,6,0,0
2.6818e+05,1.7213e+08,3,5191,5028,15.57,2.14,27,6,0,0
2.6859e+05,1.7223e+08,3,5029,5085,15.51,2.24,27,6,0,0
2.6904e+05,1.7234e+08,3,5092,5157,15.54,2.26,27,6,0,0
2.6949e+05,1.7244e+08,3,5157,5157,15.54,2.35,27,6,0,0
2.6998e+05,1.7256e+08,3,5155,5142,15.6,2.39,27,7,0,0
2.7039e+05,1.7266e+08,3,5138,5071,15.58,2.38,27,7,0,0
2.7083e+05,1.7278e+08,3,5071,5071,15.55,1.94,27,7,0,0
2.7166e+05,1.7299e+08,3,5065,4928,15.55,2.25,27,7,0,0
2.7211e+05,1.731e+08,3,4929,5000,15.52,2.02,27,7,0,0
2.7255e+05,1.7321e+08,3,5013,5171,15.54,2.48,27,7,0,0
2.7344e+05,1.7343e+08,3,5166,5071,15.5,2.22,27,7,0,0
2.7389e+05,1.7354e+08,3,5067,5028,15.58,2.16,27,7,0,0
2.7434e+05,1.7365e+08,3,5026,5014,15.56,1.98,27,7,0,0
2.7478e+05,1.7375e+08,3,5014,5042,15.52,2.12,27,7,0,0
2.7523e+05,1.7387e+08,3,5042,5042,15.58,2.16,27,7,0,0
2.7562e+05,1.7397e+08,3,5042,5085,15.51,2.11,27,7,0,0
2.761e+05,1.7409e+08,3,5092,5200,15.55,2.39,27,7,0,0
2.765e+05,1.742e+08,3,5204,5300,15.53,2.34,27,8,0,0
2.7696e+05,1.7431e+08,3,5290,5214,15.59,2.33,27,8,0,0
2.7741e+05,1.7442e+08,3,5221,5328,15.59,2.33,27,8,0,0
2.7785e+05,1.7453e+08,3,5325,5300,15.55,2.41,27,8,0,0
2.783e+05,1.7464e+08,3,5309,5400,15.52,2.55,27,8,0,0
2.787e+05,1.7474e+08,3,5397,5257,15.51,2.43,27,8,0,0
2.7915e+05,1.7485e+08,3,5257,5285,15.5,2.23,27,8,0,0
2.796e+05,1.7496e+08,3,5286,5300,15.54,2.31,27,8,0,0
2.8005e+05,1.7507e+08,3,5286,5085,15.52,2.23,27,8,0,0
2.8049e+05,1.7518e+08,3,5093,5228,15.5,2.21,27,8,0,0
2.8088e+05,1.7528e+08,3,5220,5057,15.5,2.12,27,8,0,0
2.8177e+05,1.755e+08,3,5056,5042,15.52,2.35,27,8,0,0
2.8222e+05,1.7561e+08,3,5049,5185,15.5,2.66,27,8,0,0
2.8263e+05,1.7572e+08,3,5197,5357,15.51,2.77,27,9,0,0
2.8304e+05,1.7582e+08,3,5359,5442,15.54,2.57,27,9,0,0
2.8348e+05,1.7593e+08,3,5441,5428,15.47,2.57,27,9,0,0
2.8394e+05,1.7604e+08,3,5428,5428,15.51,2.45,27,9,0,0
2.8439e+05,1.7616e+08,3,5416,5300,15.5,2.36,27,9,0,0
2.848e+05,1.7626e+08,3,5288,5128,15.47,2.07,27,9,0,0
2.8522e+05,1.7637e+08,3,5135,5228,15.47,2.5,27,9,0,0
2.8562e+05,1.7647e+08,3,5228,5228,15.51,2.48,27,9,0,0
2.8605e+05,1.7658e+08,3,5220,5071,15.56,2.05,27,9,0,0
2.8651e+05,1.7669e+08,3,5086,5242,15.54,2.4,27,9,0,0
2.8695e+05,1.768e+08,3,5239,5214,15.54,2.28,27,9,0,0
2.8736e+05,1.7691e+08,3,5214,5214,15.51,2.36,27,9,0,0
2.8777e+05,1.77e+08,3,5214,5228,15.53,2.49,27,9,0,0
2.8822e+05,1.7712e+08,3,5228,5300,15.46,2.6,27,9,0,0
2.887e+05,1.7723e+08,3,5305,5385,15.43,2.52,27,10,0,0
2.8914e+05,1.7734e+08,3,5381,5300,15.51,2.3,27,10,0,0
2.896e+05,1.7745e+08,3,5296,5228,15.52,2.36,27,10,0,0
2.9005e+05,1.7756e+08,3,5225,5200,15.55,2.06,27,10,0,0
2.9046e+05,1.7766e+08,3,5187,4942,15.57,1.82,27,10,0,0
2.909e+05,1.7778e+08,3,4945,5000,15.5,1.98,27,10,0,0
2.9135e+05,1.7788e+08,3,5006,5085,15.47,2.34,27,10,0,0
2.9178e+05,1.7799e+08,3,5081,5014,15.54,2.12,27,10,0,0
2.9217e+05,1.7809e+08,3,5016,5128,15.5,2.43,27,10,0,0
2.9265e+05,1.7821e+08,3,5121,5042,15.55,1.87,27,10,0,0
2.931e+05,1.7832e+08,3,5063,5200,15.55,2.34,27,10,0,0
2.9355e+05,1.7843e+08,3,5192,5085,15.5,2.06,27,10,0,0
2.9395e+05,1.7853e+08,3,5097,5257,15.54,2.48,27,10,0,0
2.944e+05,1.7864e+08,3,5264,5328,15.49,2.67,27,10,0,0
2.9481e+05,1.7874e+08,3,5328,5342,15.52,2.55,27,10,0,0
2.9525e+05,1.7885e+08,3,5342,5342,15.43,2.46,27,11,0,0
2.957e+05,1.7896e+08,3,5332,5242,15.53,2.44,27,11,0,0
2.9611e+05,1.7906e+08,3,5243,5285,15.51,2.45,27,11,0,0
2.9659e+05,1.7918e+08,3,5279,5228,15.45,2.58,27,11,0,0
2.97e+05,1.7928e+08,3,5236,5400,15.45,2.64,27,11,0,0
2.9744e+05,1.7939e+08,3,5408,5500,15.45,2.57,27,11,0,0
2.979e+05,1.795e+08,3,5476,5285,15.45,2.39,27,11,0,0
2.9834e+05,1.7961e+08,3,5299,5442,15.51,2.48,27,11,0,0
2.988e+05,1.7973e+08,3,5425,5285,15.47,2.51,27,11,0,0
2.992e+05,1.7982e+08,3,5285,5285,15.52,2.48,27,11,0,0
2.9969e+05,1.7994e+08,3,5296,5414,15.45,2.93,27,11,0,0
3.001e+05,1.8004e+08,3,5426,5585,15.44,2.93,27,11,0,0
3.0054e+05,1.8015e+08,3,5592,5742,15.38,3.53,27,12,0,0
3.014e+05,1.8037e+08,3,5742,5785,15.43,3.04,27,12,0,0
3.0188e+05,1.8048e+08,3,5778,5642,15.42,2.98,27,12,0,0
3.0228e+05,1.8058e+08,3,5641,5600,15.42,2.7,27,12,0,0
3.0274e+05,1.8069e+08,3,5596,5528,15.47,2.63,27,12,0,0
3.0318e+05,1.8081e+08,3,5528,5528,15.39,2.71,27,12,0,0
3.0364e+05,1.8092e+08,3,5505,5257,15.46,2.4,27,12,0,0
3.0408e+05,1.8103e+08,3,5259,5285,15.41,2.44,27,12,0,0
3.0452e+05,1.8114e+08,3,5295,5542,15.33,2.99,27,12,0,0
3.0497e+05,1.8124e+08,3,5544,5571,15.37,2.8,27,12,0,0
3.0538e+05,1.8135e+08,3,5564,5428,15.48,2.46,27,12,0,0
3.0584e+05,1.8146e+08,3,5415,5128,15.47,2.09,27,13,0,0
3.0628e+05,1.8157e+08,3,5132,5200,15.38,2.54,27,13,0,0
3.0673e+05,1.8168e+08,3,5220,5485,15.38,2.68,27,13,0,0
3.0718e+05,1.8179e+08,3,5464,5271,15.45,2.48,27,13,0,0
3.0762e+05,1.819e+08,3,5271,5271,15.42,2.24,27,13,0,0
3.0807e+05,1.8201e+08,3,5278,5357,15.45,2.73,27,13,0,0
3.0852e+05,1.8212e+08,3,5368,5514,15.44,2.8,27,13,0,0
3.0896e+05,1.8222e+08,3,5519,5642,15.43,2.71,27,13,0,0
3.094e+05,1.8233e+08,3,5636,5528,15.42,3.02,27,13,0,0
3.0986e+05,1.8245e+08,3,5531,5585,15.41,3.01,27,13,0,0
3.1075e+05,1.8266e+08,3,5583,5385,15.44,2.65,27,13,0,0
3.1168e+05,1.8289e+08,3,5392,5542,15.4,2.72,27,14,0,0
3.1207e+05,1.8299e+08,3,5537,5500,15.45,2.62,27,14,0,0
3.125e+05,1.8309e+08,3,5500,5514,15.48,2.63,27,14,0,0
3.1295e+05,1.8321e+08,3,5511,5485,15.39,2.72,27,14,0,0
3.1339e+05,1.8332e+08,3,5471,5357,15.45,2.59,27,14,0,0
3.1384e+05,1.8342e+08,3,5361,5442,15.44,2.9,27,14,0,0
3.1429e+05,1.8353e+08,3,5438,5400,15.4,2.73,27,14,0,0
3.1469e+05,1.8363e+08,3,5403,5585,15.4,2.93,27,14,0,0
3.1514e+05,1.8374e+08,3,5584,5571,15.43,2.78,27,14,0,0
3.1559e+05,1.8385e+08,3,5568,5457,15.39,2.79,27,14,0,0
3.1602e+05,1.8396e+08,3,5459,5657,15.36,2.98,27,14,0,0
3.1645e+05,1.8407e+08,3,5657,5714,15.42,2.92,27,15,0,0
3.1692e+05,1.8418e+08,3,5706,5600,15.39,3.21,27,15,0,0
3.1737e+05,1.8429e+08,3,5617,5857,15.39,3.21,28,15,0,0
3.1782e+05,1.844e+08,3,5847,5714,15.4,3.01,27,15,0,0
3.1823e+05,1.845e+08,3,5714,5742,15.34,3.01,27,15,0,0
3.1871e+05,1.8462e+08,3,5737,5671,15.4,2.99,27,15,0,0
3.1916e+05,1.8473e+08,3,5659,5557,15.37,2.84,27,15,0,0
3.1956e+05,1.8483e+08,3,5557,5571,15.38,2.8,27,15,0,0
3.2001e+05,1.8494e+08,3,5560,5414,15.44,2.62,27,15,0,0
3.2044e+05,1.8505e+08,3,5426,5557,15.42,2.77,27,15,0,0
3.2084e+05,1.8516e+08,3,5555,5542,15.39,2.63,27,15,0,0
3.2128e+05,1.8526e+08,3,5534,5457,15.43,2.46,27,15,0,0
3.2214e+05,1.8548e+08,3,5452,5228,15.42,2.35,28,16,0,0
3.2259e+05,1.8559e+08,3,5235,5300,15.45,2.52,27,16,0,0
3.2304e+05,1.857e+08,3,5314,5414,15.32,2.69,27,16,0,0
3.2344e+05,1.858e+08,3,5410,5314,15.42,2.79,27,16,0,0
3.2389e+05,1.8591e+08,3,5320,5428,15.44,2.53,27,16,0,0
3.2434e+05,1.8603e+08,3,5420,5357,15.39,2.78,28,16,0,0
3.2474e+05,1.8613e+08,3,5372,5514,15.38,2.81,27,16,0,0
3.2519e+05,1.8624e+08,3,5504,5385,15.35,2.9,27,16,0,0
3.256e+05,1.8634e+08,3,5386,5500,15.34,2.73,27,16,0,0
3.2609e+05,1.8646e+08,3,5488,5385,15.38,2.52,27,16,0,0
3.2649e+05,1.8656e+08,3,5389,5442,15.41,2.7,27,16,0,0
3.2694e+05,1.8667e+08,3,5440,5414,15.35,2.49,28,17,0,0
3.2737e+05,1.8678e+08,3,5422,5614,15.39,3.04,27,17,0,0
3.2829e+05,1.8701e+08,3,5610,5457,15.41,2.49,27,17,0,0
3.2914e+05,1.8722e+08,3,5452,5271,15.42,2.69,27,17,0,0
3.2963e+05,1.8734e+08,3,5277,5342,15.36,2.67,27,17,0,0
3.3004e+05,1.8744e+08,3,5350,5414,15.45,2.59,28,17,0,0
3.3045e+05,1.8754e+08,3,5415,5428,15.44,2.59,28,17,0,0
3.3133e+05,1.8777e+08,3,5428,5442,15.32,2.81,27,17,0,0
3.3176e+05,1.8788e+08,3,5444,5471,15.32,3.01,28,17,0,0
3.3216e+05,1.8798e+08,3,5495,5700,15.37,2.99,28,17,0,0
3.3261e+05,1.8809e+08,3,5694,5628,15.28,2.8,28,18,0,0
3.3306e+05,1.882e+08,3,5606,5300,15.36,2.32,28,18,0,0
3.3347e+05,1.883e+08,3,5304,5414,15.42,2.35,28,18,0,0
3.3392e+05,1.8841e+08,3,5407,5271,15.42,2.12,28,18,0,0
3.344e+05,1.8853e+08,3,5255,5085,15.36,2.1,28,18,0,0
3.3477e+05,1.8862e+08,3,5083,4985,15.46,2.08,28,18,0,0
3.3525e+05,1.8874e+08,3,4983,4971,15.38,2.03,27,18,0,0
3.357e+05,1.8885e+08,3,4981,5171,15.33,2.61,28,18,0,0
3.3615e+05,1.8896e+08,3,5175,5228,15.39,2.56,28,18,0,0
3.37e+05,1.8917e+08,3,5227,5214,15.4,2.49,28,18,0,0
3.3745e+05,1.8928e+08,3,5210,5085,15.44,2.37,28,18,0,0
3.3791e+05,1.894e+08,3,5081,5042,15.41,2.09,28,18,0,0
3.3832e+05,1.895e+08,3,5043,5157,15.35,2.39,28,19,0,0
3.3874e+05,1.8961e+08,3,5158,5228,15.41,2.43,28,19,0,0
3.3921e+05,1.8973e+08,3,5216,5100,15.44,2.52,28,19,0,0
3.3958e+05,1.8982e+08,3,5105,5242,15.36,2.31,28,19,0,0
3.4003e+05,1.8994e+08,3,5236,5157,15.39,2.4,28,19,0,0
3.4048e+05,1.9005e+08,3,5158,5200,15.37,2.34,28,19,0,0
3.4092e+05,1.9015e+08,3,5196,5085,15.41,2.13,28,19,0,0
3.4137e+05,1.9026e+08,3,5082,5028,15.41,2.02,28,19,0,0
3.4182e+05,1.9037e+08,3,5037,5185,15.41,2.26,28,19,0,0
3.4228e+05,1.9048e+08,3,5177,5100,15.37,2.29,28,19,0,0
3.4266e+05,1.9058e+08,3,5100,5114,15.32,2.44,28,19,0,0
3.4309e+05,1.9069e+08,3,5117,5200,15.32,2.23,27,19,0,0
3.4358e+05,1.9081e+08,3,5196,5157,15.39,2.29,28,19,0,0
3.4398e+05,1.9091e+08,3,5159,5200,15.36,2.44,27,19,0,0
3.4443e+05,1.9102e+08,3,5200,5200,15.38,2.55,28,20,0,0
3.4492e+05,1.9114e+08,3,5207,5314,15.28,2.38,28,20,0,0
3.4537e+05,1.9125e+08,3,5315,5342,15.29,2.63,28,20,0,0
3.4578e+05,1.9135e+08,3,5337,5285,15.35,2.5,28,20,0,0
3.4623e+05,1.9146e+08,3,5273,5157,15.35,2.23,28,20,0,0
3.4667e+05,1.9157e+08,3,5161,5200,15.34,2.44,28,20,0,0
3.471e+05,1.9168e+08,3,5207,5314,15.38,2.25,28,20,0,0
3.4754e+05,1.9179e+08,3,5302,5128,15.39,2.38,27,20,0,0
3.4799e+05,1.919e+08,3,5135,5214,15.39,2.31,28,20,0,0
3.4843e+05,1.92e+08,3,5218,5271,15.38,2.61,28,20,0,0
3.4888e+05,1.9211e+08,3,5273,5300,15.36,2.61,28,20,0,0
3.4933e+05,1.9222e+08,3,5293,5228,15.38,2.51,28,20,0,0
3.4973e+05,1.9232e+08,3,5228,5242,15.39,2.09,28,20,0,0
3.5022e+05,1.9244e+08,3,5237,5128,15.38,2.07,28,20,0,0
3.5062e+05,1.9254e+08,3,5126,5028,15.48,1.95,28,21,0,0
3.5109e+05,1.9266e+08,3,5020,4942,15.47,1.85,28,21,0,0
3.5149e+05,1.9276e+08,3,4939,4828,15.49,1.8,28,21,0,0
3.5198e+05,1.9288e+08,3,4824,4785,15.36,2.01,28,21,0,0
3.5238e+05,1.9298e+08,3,4788,4885,15.45,2.19,28,21,0,0
3.5287e+05,1.931e+08,3,4904,5042,15.47,2.37,28,21,0,0
3.5327e+05,1.932e+08,3,5043,5128,15.41,2.2,28,21,0,0
3.5375e+05,1.9331e+08,3,5128,5157,15.41,2.38,28,21,0,0
3.542e+05,1.9342e+08,3,5159,5200,15.45,2.2,28,21,0,0
3.546e+05,1.9352e+08,3,5198,5085,15.42,2.15,28,21,0,0
3.5507e+05,1.9364e+08,3,5092,5157,15.39,2.41,28,21,0,0
3.555e+05,1.9375e+08,3,5155,5142,15.39,2.27,28,21,0,0
3.5639e+05,1.9397e+08,3,5149,5257,15.37,2.29,28,21,0,0
3.5684e+05,1.9408e+08,3,5229,5028,15.43,1.99,28,21,0,0
3.5725e+05,1.9418e+08,3,5020,4971,15.41,2.09,28,22,0,0
3.5766e+05,1.9428e+08,3,4972,5000,15.36,2.01,28,22,0,0
3.5811e+05,1.9439e+08,3,4997,4942,15.47,1.91,28,22,0,0
3.5855e+05,1.945e+08,3,4937,4900,15.44,1.94,28,22,0,0
3.5898e+05,1.9461e+08,3,4910,5000,15.36,2.32,28,22,0,0
3.5941e+05,1.9473e+08,3,5014,5142,15.42,2.47,28,22,0,0
3.5986e+05,1.9483e+08,3,5136,5085,15.39,2.23,28,22,0,0
3.6029e+05,1.9493e+08,3,5089,5271,15.4,2.73,28,22,0,0
3.6074e+05,1.9504e+08,3,5278,5471,15.32,2.58,28,22,0,0
3.6118e+05,1.9515e+08,3,5466,5142,15.45,1.87,28,22,0,0
3.6167e+05,1.9527e+08,3,5139,5114,15.37,2.17,28,22,0,0
3.6208e+05,1.9537e+08,3,5110,5071,15.36,2.07,28,22,0,0
3.6256e+05,1.9548e+08,3,5088,5242,15.4,2.48,28,22,0,0
3.6296e+05,1.9559e+08,3,5237,5171,15.32,2.38,28,22,0,0
3.6338e+05,1.9569e+08,3,5185,5414,15.37,2.99,28,22,0,0
3.6427e+05,1.9591e+08,3,5414,5442,15.36,2.72,28,23,0,0
3.6475e+05,1.9602e+08,3,5438,5414,15.32,2.9,28,23,0,0
3.6515e+05,1.9612e+08,3,5416,5557,15.3,2.67,28,23,0,0
3.6559e+05,1.9623e+08,3,5548,5385,15.37,2.5,28,23,0,0
3.6604e+05,1.9634e+08,3,5385,5385,15.35,2.31,28,23,0,0
3.6692e+05,1.9655e+08,3,5382,5314,15.31,2.51,28,23,0,0
3.6735e+05,1.9666e+08,3,5314,5314,15.34,2.41,28,23,0,0
3.6778e+05,1.9677e+08,3,5309,5200,15.26,2.3,28,23,0,0
3.6827e+05,1.9688e+08,3,5198,5171,15.28,2.41,27,23,0,0
3.6868e+05,1.9699e+08,3,5175,5285,15.28,2.16,28,23,0,0
3.6913e+05,1.971e+08,3,5275,5200,15.25,2.2,28,23,0,0
3.6953e+05,1.972e+08,3,5200,5214,15.29,2.56,28,24,0,0
3.6998e+05,1.9731e+08,3,5220,5342,15.29,2.87,28,24,0,0
3.7039e+05,1.9741e+08,3,5340,5242,15.35,2.31,27,24,0,0
3.7086e+05,1.9753e+08,3,5243,5271,15.36,2.4,28,24,0,0
3.7129e+05,1.9763e+08,3,5272,5314,15.26,2.6,28,24,0,0
3.7172e+05,1.9775e+08,3,5313,5300,15.4,2.59,28,24,0,0
3.7217e+05,1.9785e+08,3,5300,5328,15.3,2.5,28,24,0,0
3.7265e+05,1.9797e+08,3,5323,5271,15.37,2.57,28,24,0,0
3.731e+05,1.9807e+08,3,5267,5228,15.3,2.5,28,24,0,0
3.735e+05,1.9818e+08,3,5224,5157,15.33,2.21,28,24,0,0
3.7396e+05,1.9829e+08,3,5155,5142,15.37,2.35,28,24,0,0
3.7436e+05,1.9839e+08,3,5140,5100,15.37,2.18,28,24,0,0
3.7486e+05,1.9851e+08,3,5101,5114,15.32,2.49,28,24,0,0
3.7525e+05,1.9861e+08,3,5121,5200,15.36,2.31,28,24,0,0
3.7567e+05,1.9872e+08,3,5199,5142,15.36,2.29,28,25,0,0
3.7612e+05,1.9882e+08,3,5139,5100,15.35,2.16,28,25,0,0
3.7656e+05,1.9894e+08,3,5100,5100,15.35,2.13,28,25,0,0
3.7702e+05,1.9904e+08,3,5096,5057,15.33,2.06,28,25,0,0
3.7746e+05,1.9915e+08,3,5065,5157,15.37,2.71,28,25,0,0
3.7791e+05,1.9926e+08,3,5163,5242,15.4,2.41,28,25,0,0
3.7831e+05,1.9937e+08,3,5243,5271,15.35,2.68,28,25,0,0
3.788e+05,1.9948e+08,3,5284,5414,15.36,2.81,28,25,0,0
3.7919e+05,1.9958e+08,3,5416,5471,15.29,2.75,28,25,0,0
3.7965e+05,1.9969e+08,3,5464,5371,15.31,2.56,28,25,0,0
3.8009e+05,1.998e+08,3,5350,5142,15.42,1.87,28,25,0,0
3.8054e+05,1.9991e+08,3,5127,4914,15.39,1.65,28,25,0,0
3.8094e+05,2.0001e+08,3,4910,4728,15.35,1.85,28,25,0,0
3.8188e+05,2.0024e+08,3,4741,5014,15.32,2.27,28,25,0,0
3.8271e+05,2.0045e+08,3,5017,5100,15.33,2.53,28,26,0,0
3.831e+05,2.0055e+08,3,5102,5157,15.32,2.33,28,26,0,0
3.8356e+05,2.0066e+08,3,5159,5200,15.36,2.7,28,26,0,0
3.84e+05,2.0077e+08,3,5206,5285,15.3,2.52,28,26,0,0
3.8445e+05,2.0088e+08,3,5292,5357,15.39,2.56,28,26,0,0
3.8489e+05,2.0099e+08,3,5344,5171,15.32,2.32,28,26,0,0
3.8534e+05,2.011e+08,3,5181,5314,15.36,2.49,28,26,0,0
3.8578e+05,2.0121e+08,3,5317,5357,15.27,2.64,28,26,0,0
3.8623e+05,2.0132e+08,3,5360,5400,15.29,2.54,28,26,0,0
3.8666e+05,2.0143e+08,3,5399,5371,15.33,2.64,28,26,0,0
3.8709e+05,2.0154e+08,3,5372,5400,15.31,2.49,28,26,0,0
3.8754e+05,2.0164e+08,3,5378,5057,15.36,1.72,28,27,0,0
3.8794e+05,2.0175e+08,3,5052,4828,15.41,1.59,28,27,0,0
3.8843e+05,2.0186e+08,3,4824,4771,15.38,1.69,28,27,0,0
3.8869e+05,2.0197e+08,3,4778,4857,15.36,1.87,28,27,0,0
3.8914e+05,2.0208e+08,3,4850,4757,15.36,1.72,28,27,0,0
3.8958e+05,2.0219e+08,3,4769,4900,15.35,1.99,28,27,0,0
3.9003e+05,2.023e+08,3,4901,4914,15.39,1.91,28,27,0,0
3.9047e+05,2.024e+08,3,4916,4957,15.4,1.96,28,27,0,0
3.9092e+05,2.0252e+08,3,4964,5014,15.32,2.28,28,27,0,0
3.9131e+05,2.0261e+08,3,5015,5085,15.35,2.1,28,27,0,0
3.9174e+05,2.0272e+08,3,5086,5157,15.33,2.29,28,27,0,0
3.9219e+05,2.0283e+08,3,5153,5085,15.3,2.29,28,27,0,0
3.9268e+05,2.0296e+08,3,5098,5228,15.32,2.52,28,27,0,0
3.9352e+05,2.0316e+08,3,5233,5385,15.27,2.53,28,27,0,0
3.9398e+05,2.0328e+08,3,5387,5442,15.32,2.49,28,27,0,0
3.9439e+05,2.0338e+08,3,5440,5371,15.3,2.47,28,28,0,0
3.9487e+05,2.0349e+08,3,5367,5314,15.31,2.27,28,28,0,0
3.9526e+05,2.036e+08,3,5298,5000,15.33,2.04,28,28,0,0
3.9614e+05,2.0381e+08,3,4997,4914,15.33,1.94,28,28,0,0
3.9658e+05,2.0393e+08,3,4912,4900,15.35,2.08,28,28,0,0
3.9703e+05,2.0404e+08,3,4909,5014,15.35,1.97,28,28,0,0
3.9743e+05,2.0413e+08,3,5010,4871,15.26,1.84,28,28,0,0
3.9792e+05,2.0425e+08,3,4871,4885,15.3,2.05,28,28,0,0
3.9841e+05,2.0437e+08,3,4887,4914,15.28,1.85,28,28,0,0
3.9886e+05,2.0447e+08,3,4921,5000,15.3,2.32,28,28,0,0
3.9928e+05,2.0458e+08,3,5009,5157,15.31,2.36,28,28,0,0
3.9971e+05,2.0469e+08,3,5161,5228,15.34,2.32,28,28,0,0
4.0015e+05,2.048e+08,3,5227,5214,15.26,2.66,28,28,0,0
4.0064e+05,2.0492e+08,3,5245,5585,15.36,2.77,28,29,0,0
4.0104e+05,2.0502e+08,3,5584,5528,15.33,2.78,28,29,0,0
4.0148e+05,2.0513e+08,3,5526,5485,15.33,2.64,28,29,0,0
4.0198e+05,2.0525e+08,3,5478,5414,15.35,2.47,28,29,0,0
4.0238e+05,2.0535e+08,3,5403,5257,15.36,2.13,28,29,0,0
4.0283e+05,2.0546e+08,3,5257,5271,15.32,2.4,28,29,0,0
4.0418e+05,2.0579e+08,3,5267,5142,15.36,2.29,28,29,0,0
4.0463e+05,2.059e+08,3,5144,5171,15.3,2.28,28,29,0,0
4.0504e+05,2.0601e+08,3,5172,5200,15.37,2.27,28,29,0,0
4.0548e+05,2.0612e+08,3,5200,5200,15.31,2.31,28,29,0,0
4.059e+05,2.0623e+08,3,5196,5142,15.27,2.64,28,29,0,0
4.063e+05,2.0633e+08,3,5143,5200,15.27,2.08,28,29,0,0
4.0678e+05,2.0644e+08,3,5194,4742,15.32,1.15,28,30,0,0
4.0718e+05,2.0655e+08,3,4731,4128,15.25,0.8,28,30,0,0
4.0767e+05,2.0666e+08,3,4110,3871,15.26,0.93,28,30,0,0
4.0812e+05,2.0677e+08,3,3905,4271,15.28,2.23,28,30,0,0
4.0856e+05,2.0688e+08,3,4313,4914,15.32,2.81,28,30,0,0
4.09e+05,2.0699e+08,3,4923,5457,15.26,3.32,28,30,0,0
4.0946e+05,2.071e+08,3,5468,5728,15.35,3.38,28,30,0,0
4.0988e+05,2.0721e+08,3,5733,5871,15.29,3.63,28,30,0,0
4.1035e+05,2.0732e+08,3,5876,5942,15.3,3.86,28,30,0,0
4.1168e+05,2.0764e+08,3,5943,6028,15.36,3.44,28,30,0,0
4.1216e+05,2.0776e+08,3,5995,5800,15.33,3.31,28,31,0,0
4.1257e+05,2.0786e+08,3,5801,5828,15.26,3.29,28,31,0,0
4.1297e+05,2.0797e+08,3,5825,5657,15.34,2.82,28,31,0,0
4.1346e+05,2.0808e+08,3,5648,5557,15.3,2.97,28,31,0,0
4.1385e+05,2.0818e+08,3,5563,5700,15.25,2.9,28,31,0,0
4.1428e+05,2.0829e+08,3,5689,5428,15.4,2.48,28,31,0,0
4.1476e+05,2.0841e+08,3,5413,5271,15.33,2.51,28,31,0,0
4.1517e+05,2.0851e+08,3,5271,5271,15.34,2.55,28,31,0,0
4.1562e+05,2.0863e+08,3,5278,5371,15.27,2.6,28,31,0,0
4.1643e+05,2.0883e+08,3,5369,5114,15.34,2.27,28,31,0,0
4.1692e+05,2.0895e+08,3,5133,5271,15.39,2.68,28,31,0,0
4.1736e+05,2.0905e+08,3,5272,5285,15.29,2.8,28,31,0,0
4.1779e+05,2.0916e+08,3,5293,5485,15.27,2.59,28,32,0,0
4.1822e+05,2.0927e+08,3,5475,5385,15.33,2.89,28,32,0,0
4.1866e+05,2.0938e+08,3,5389,5457,15.25,2.7,28,32,0,0
4.1907e+05,2.0948e+08,3,5453,5371,15.35,2.64,28,32,0,0
4.1955e+05,2.0959e+08,3,5376,5485,15.25,2.88,28,32,0,0
4.2045e+05,2.0982e+08,3,5500,5828,15.27,3.25,28,32,0,0
4.2089e+05,2.0993e+08,3,5817,5671,15.27,2.76,28,32,0,0
4.2133e+05,2.1003e+08,3,5667,5600,15.25,2.85,28,32,0,0
4.222e+05,2.1025e+08,3,5594,5428,15.25,2.6,28,32,0,0
4.2264e+05,2.1036e+08,3,5421,5357,15.35,2.46,28,32,0,0
4.2308e+05,2.1047e+08,3,5359,5385,15.28,2.46,28,33,0,0
4.2352e+05,2.1057e+08,3,5384,5371,15.29,2.71,28,33,0,0
4.2401e+05,2.1069e+08,3,5364,5271,15.28,2.23,28,33,0,0
4.2442e+05,2.1079e+08,3,5272,5300,15.31,2.74,28,33,0,0
4.2487e+05,2.109e+08,3,5308,5428,15.35,2.78,28,33,0,0
4.2531e+05,2.1101e+08,3,5426,5385,15.25,2.72,28,33,0,0
4.2575e+05,2.1112e+08,3,5390,5442,15.27,2.8,28,33,0,0
4.266e+05,2.1134e+08,3,5442,5442,15.23,2.67,28,33,0,0
4.2705e+05,2.1145e+08,3,5440,5414,15.29,2.72,28,33,0,0
4.2754e+05,2.1156e+08,3,5420,5514,15.27,2.74,28,33,0,0
4.2799e+05,2.1167e+08,3,5509,5457,15.23,2.62,28,34,0,0
4.2844e+05,2.1178e+08,3,5471,5614,15.26,2.61,28,34,0,0
4.2888e+05,2.1189e+08,3,5576,5200,15.3,2.39,28,34,0,0
4.2929e+05,2.1199e+08,3,5211,5471,15.23,2.94,28,34,0,0
4.2973e+05,2.121e+08,3,5474,5542,15.22,3.02,28,34,0,0
4.3016e+05,2.1221e+08,3,5541,5528,15.28,2.92,28,34,0,0
4.3058e+05,2.1232e+08,3,5542,5700,15.28,3.01,28,34,0,0
4.3104e+05,2.1243e+08,3,5679,5485,15.29,2.51,28,34,0,0
4.3144e+05,2.1253e+08,3,5476,5314,15.27,2.35,28,34,0,0
4.3189e+05,2.1264e+08,3,5289,4985,15.32,1.76,28,34,0,0
4.3233e+05,2.1275e+08,3,4978,4857,15.25,1.92,28,34,0,0
4.3278e+05,2.1286e+08,3,4859,4900,15.33,1.95,28,34,0,0
4.3322e+05,2.1297e+08,3,4903,5057,15.3,2.36,28,34,0,0
4.3367e+05,2.1307e+08,3,5058,5100,15.26,2.36,28,34,0,0
4.3412e+05,2.1319e+08,3,5103,5157,15.29,2.28,28,35,0,0
4.3457e+05,2.133e+08,3,5159,5185,15.27,2.32,28,35,0,0
4.3496e+05,2.134e+08,3,5185,5214,15.31,2.3,28,35,0,0
4.359e+05,2.1362e+08,3,5207,5057,15.25,2.24,28,35,0,0
4.3641e+05,2.1383e+08,3,5108,5028,15.28,2.15,28,35,0,0
4.3685e+05,2.1394e+08,3,5030,5085,15.3,2.25,28,35,0,0
4.373e+05,2.1405e+08,3,5086,5114,15.26,2.26,28,35,0,0
4.3771e+05,2.1415e+08,3,5113,5085,15.25,2.44,28,35,0,0
4.3815e+05,2.1426e+08,3,5092,5257,15.22,2.5,28,35,0,0
4.3859e+05,2.1437e+08,3,5264,5457,15.28,2.84,28,35,0,0
4.3902e+05,2.1448e+08,3,5457,5514,15.23,2.81,28,35,0,0
4.3949e+05,2.1459e+08,3,5521,5614,15.3,2.68,28,35,0,0
4.3994e+05,2.147e+08,3,5592,5385,15.28,2.38,28,36,0,0
4.4037e+05,2.1481e+08,3,5384,5342,15.33,2.41,28,36,0,0
4.4082e+05,2.1492e+08,3,5349,5457,15.3,2.5,28,36,0,0
4.4127e+05,2.1503e+08,3,5452,5400,15.26,2.9,28,36,0,0
4.4172e+05,2.1515e+08,3,5413,5500,15.26,2.26,28,36,0,0
4.4217e+05,2.1525e+08,3,5476,5257,15.21,2.24,28,36,0,0
4.4259e+05,2.1536e+08,3,5238,5057,15.27,2.15,28,36,0,0
4.4303e+05,2.1547e+08,3,5048,4957,15.3,2.32,28,36,0,0
4.4343e+05,2.1557e+08,3,4958,4985,15.29,2.01,28,36,0,0
4.4387e+05,2.1568e+08,3,4978,4914,15.24,1.94,28,36,0,0
4.4428e+05,2.1579e+08,3,4904,4814,15.2,1.93,28,36,0,0
4.4518e+05,2.1601e+08,3,4816,4857,15.33,2.08,28,36,0,0
4.4562e+05,2.1612e+08,3,4855,4842,15.25,2.1,28,36,0,0
4.4607e+05,2.1623e+08,3,4865,5071,15.25,2.21,28,36,0,0
4.4648e+05,2.1633e+08,3,5078,5185,15.25,2.39,28,37,0,0
4.4692e+05,2.1644e+08,3,5184,5171,15.25,2.48,28,37,0,0
4.4736e+05,2.1654e+08,3,5172,5257,15.28,2.37,28,37,0,0
4.4786e+05,2.1667e+08,3,5239,5100,15.29,2.22,28,37,0,0
4.4826e+05,2.1677e+08,3,5080,4885,15.28,1.85,28,37,0,0
4.4869e+05,2.1689e+08,3,4885,4885,15.21,2.11,28,37,0,0
4.4913e+05,2.17e+08,3,4888,4928,15.3,2.29,28,37,0,0
4.4958e+05,2.171e+08,3,4937,5100,15.26,2.45,28,37,0,0
4.5002e+05,2.1721e+08,3,5102,5128,15.31,2.39,28,37,0,0
4.505e+05,2.1733e+08,3,5130,5157,15.32,2.51,28,37,0,0
4.5132e+05,2.1753e+08,3,5157,5157,15.35,2.07,28,37,0,0
4.5176e+05,2.1764e+08,3,5156,5128,15.32,2.19,28,37,0,0
4.522e+05,2.1775e+08,3,5126,5100,15.23,2.48,28,37,0,0
4.5263e+05,2.1786e+08,3,5102,5214,15.26,2.45,28,38,0,0
4.5306e+05,2.1797e+08,3,5216,5342,15.29,2.64,28,38,0,0
4.5354e+05,2.1808e+08,3,5347,5400,15.29,2.51,28,38,0,0
4.5395e+05,2.1818e+08,3,5404,5471,15.22,2.5,28,38,0,0
4.5436e+05,2.1828e+08,3,5466,5242,15.27,2.35,28,38,0,0
4.5485e+05,2.184e+08,3,5250,5385,15.25,2.61,28,38,0,0
4.553e+05,2.1851e+08,3,5388,5442,15.25,2.75,28,38,0,0
4.5574e+05,2.1862e+08,3,5437,5385,15.19,2.63,28,38,0,0
4.5614e+05,2.1873e+08,3,5387,5414,15.27,2.5,28,38,0,0
4.5657e+05,2.1883e+08,3,5407,5271,15.22,2.3,28,38,0,0
4.57e+05,2.1895e+08,3,5255,5042,15.19,2.01,28,38,0,0
4.5745e+05,2.1906e+08,3,5038,4985,15.3,1.81,28,38,0,0
4.579e+05,2.1917e+08,3,4981,4928,15.33,1.96,28,38,0,0
4.5835e+05,2.1928e+08,3,4930,4985,15.22,2.12,28,38,0,0
4.5876e+05,2.1938e+08,3,4986,5028,15.29,2.15,28,39,0,0
4.5921e+05,2.195e+08,3,5023,4928,15.26,2.05,28,39,0,0
4.5966e+05,2.1961e+08,3,4927,4914,15.24,1.9,28,39,0,0
4.6053e+05,2.1983e+08,3,4905,4714,15.3,1.64,28,39,0,0
4.6092e+05,2.1993e+08,3,4712,4628,15.31,1.59,28,39,0,0
4.6137e+05,2.2004e+08,3,4635,4814,15.28,1.83,28,39,0,0
4.6182e+05,2.2015e+08,3,4814,4814,15.29,1.95,28,39,0,0
4.6227e+05,2.2026e+08,3,4817,4857,15.26,2,28,39,0,0
4.6271e+05,2.2037e+08,3,4862,4928,15.32,1.79,28,39,0,0
4.632e+05,2.2049e+08,3,4923,4871,15.31,1.64,28,39,0,0
4.6409e+05,2.2071e+08,3,4876,4971,15.33,2.01,28,39,0,0
4.6452e+05,2.2082e+08,3,4978,5085,15.26,2.23,28,39,0,0
4.6494e+05,2.2093e+08,3,5090,5171,15.31,2.17,28,39,0,0
4.6539e+05,2.2104e+08,3,5169,5157,15.25,2.15,28,39,0,0
4.658e+05,2.2114e+08,3,5148,5000,15.29,1.98,28,39,0,0
4.6624e+05,2.2125e+08,3,5005,5114,15.27,1.95,28,40,0,0
4.6669e+05,2.2136e+08,3,5105,5000,15.32,2.1,28,40,0,0
4.6713e+05,2.2147e+08,3,5001,5014,15.3,1.76,28,40,0,0
4.6758e+05,2.2158e+08,3,5009,4971,15.3,1.81,28,40,0,0
4.6803e+05,2.2168e+08,3,4964,4914,15.32,1.83,28,40,0,0
4.6889e+05,2.219e+08,3,4914,4928,15.31,2.05,28,40,0,0
4.6933e+05,2.2202e+08,3,4934,5000,15.23,1.75,28,40,0,0
4.6978e+05,2.2213e+08,3,4991,4900,15.35,1.69,28,40,0,0
4.7018e+05,2.2222e+08,3,4899,4857,15.32,1.77,28,40,0,0
4.7063e+05,2.2234e+08,3,4871,4971,15.33,2.12,28,40,0,0
4.7104e+05,2.2244e+08,3,4984,5257,15.26,2.43,28,40,0,0
4.7152e+05,2.2255e+08,3,5273,5442,15.22,2.61,28,40,0,0
4.7193e+05,2.2266e+08,3,5441,5400,15.27,2.56,28,40,0,0
4.7236e+05,2.2277e+08,3,5394,5128,15.32,1.92,28,40,0,0
4.7283e+05,2.2288e+08,3,5116,5014,15.31,1.91,28,40,0,0
4.7367e+05,2.2309e+08,3,5011,4928,15.27,2.04,28,41,0,0
4.7411e+05,2.232e+08,3,4926,4900,15.19,1.78,28,41,0,0
4.7496e+05,2.2341e+08,3,4899,4871,15.29,2.01,28,41,0,0
4.7542e+05,2.2353e+08,3,4875,4914,15.29,2.19,28,41,0,0
4.7583e+05,2.2363e+08,3,4914,4928,15.25,2.04,28,41,0,0
4.7627e+05,2.2373e+08,3,4929,4957,15.22,2.15,28,41,0,0
4.767e+05,2.2385e+08,3,4962,5042,15.29,2.23,28,41,0,0
4.7713e+05,2.2395e+08,3,5043,5085,15.25,2.25,28,41,0,0
4.7759e+05,2.2407e+08,3,5085,5085,15.31,2.25,28,41,0,0
4.7803e+05,2.2417e+08,3,5077,5000,15.26,1.94,28,41,0,0
4.7842e+05,2.2427e+08,3,5000,5014,15.29,2.11,28,41,0,0
4.7891e+05,2.2439e+08,3,5014,5014,15.29,2.01,28,41,0,0
4.7976e+05,2.246e+08,3,5013,5000,15.29,2,28,41,0,0
4.8021e+05,2.2471e+08,3,5003,5071,15.29,2.23,27,42,0,0
4.8064e+05,2.2482e+08,3,5065,5014,15.27,2.07,28,42,0,0
4.8106e+05,2.2492e+08,3,5030,5185,15.25,2.38,28,42,0,0
4.8151e+05,2.2503e+08,3,5188,5228,15.29,2.54,28,42,0,0
4.8191e+05,2.2513e+08,3,5229,5271,15.23,2.79,27,42,0,0
4.8236e+05,2.2524e+08,3,5278,5400,15.26,2.42,28,42,0,0
4.8281e+05,2.2535e+08,3,5394,5342,15.19,2.49,28,42,0,0
4.8326e+05,2.2546e+08,3,5349,5442,15.22,2.69,28,42,0,0
4.8367e+05,2.2557e+08,3,5438,5385,15.27,2.76,28,42,0,0
4.8412e+05,2.2568e+08,3,5397,5514,15.25,2.72,28,42,0,0
4.8451e+05,2.2578e+08,3,5512,5428,15.24,2.5,28,42,0,0
4.8498e+05,2.259e+08,3,5420,5342,15.22,2.47,28,42,0,0
4.8539e+05,2.26e+08,3,5340,5314,15.25,2.53,28,42,0,0
4.8587e+05,2.2612e+08,3,5318,5371,15.25,2.62,27,42,0,0
4.8632e+05,2.2623e+08,3,5377,5442,15.3,2.3,28,43,0,0
4.8676e+05,2.2634e+08,3,5432,5328,15.28,2.46,28,43,0,0
4.8721e+05,2.2645e+08,3,5317,5214,15.27,2.44,28,43,0,0
4.8762e+05,2.2655e+08,3,5217,5300,15.27,2.55,28,43,0,0
4.881e+05,2.2666e+08,3,5301,5328,15.27,2.42,28,43,0,0
4.8896e+05,2.2688e+08,3,5321,5200,15.28,2.14,28,43,0,0
4.8939e+05,2.2699e+08,3,5211,5328,15.24,2.85,28,43,0,0
4.9025e+05,2.272e+08,3,5333,5614,15.17,3.18,28,43,0,0
4.9069e+05,2.2731e+08,3,5615,5757,15.2,3.16,28,43,0,0
4.9113e+05,2.2742e+08,3,5755,5714,15.22,2.82,28,43,0,0
4.9158e+05,2.2753e+08,3,5706,5542,15.27,3.22,28,44,0,0
4.9205e+05,2.2764e+08,3,5552,5700,15.27,3.15,28,44,0,0
4.9244e+05,2.2774e+08,3,5697,5642,15.25,3.03,28,44,0,0
4.9294e+05,2.2786e+08,3,5639,5614,15.27,3.09,28,44,0,0
4.9334e+05,2.2796e+08,3,5618,5714,15.26,2.93,28,44,0,0
4.9379e+05,2.2807e+08,3,5709,5614,15.25,2.82,28,44,0,0
4.9423e+05,2.2818e+08,3,5599,5400,15.39,2.31,28,44,0,0
4.9468e+05,2.2829e+08,3,5397,5342,15.35,1.98,28,44,0,0
4.9512e+05,2.284e+08,3,5334,5142,15.38,2.28,28,44,0,0
4.9561e+05,2.2852e+08,3,5150,5271,15.33,2.58,28,44,0,0
4.9602e+05,2.2862e+08,3,5277,5414,15.28,2.9,28,44,0,0
4.9646e+05,2.2873e+08,3,5440,5785,15.24,3.63,28,44,0,0
4.9685e+05,2.2883e+08,3,5779,5657,15.24,3.21,28,45,0,0
4.9725e+05,2.2894e+08,3,5661,5771,15.23,3.15,28,45,0,0
4.977e+05,2.2905e+08,3,5769,5728,15.3,2.98,28,45,0,0
4.9814e+05,2.2916e+08,3,5728,5728,15.28,2.74,28,45,0,0
4.9859e+05,2.2926e+08,3,5725,5671,15.23,3.03,28,45,0,0
4.9904e+05,2.2938e+08,3,5673,5714,15.21,2.97,28,45,0,0
4.9948e+05,2.2949e+08,3,5706,5614,15.27,2.91,28,45,0,0
4.9991e+05,2.296e+08,3,5619,5657,15.2,3.19,28,45,0,0
5.0035e+05,2.2971e+08,3,5665,5728,15.27,2.89,28,45,0,0
5.0074e+05,2.298e+08,3,5723,5614,15.29,3.21,28,45,0,0
5.0119e+05,2.2992e+08,3,5612,5600,15.25,2.97,28,45,0,0
5.0164e+05,2.3003e+08,3,5601,5614,15.25,3.18,28,46,0,0
5.0208e+05,2.3013e+08,3,5608,5557,15.25,2.81,28,46,0,0
5.0253e+05,2.3024e+08,3,5548,5442,15.36,2.68,28,46,0,0
5.0293e+05,2.3035e+08,3,5442,5442,15.27,2.82,28,46,0,0
5.0338e+05,2.3046e+08,3,5444,5571,15.32,3.04,28,46,0,0
5.0383e+05,2.3057e+08,3,5566,5500,15.27,2.8,28,46,0,0
5.0422e+05,2.3067e+08,3,5495,5414,15.15,2.9,28,46,0,0
5.0466e+05,2.3079e+08,3,5433,5585,15.17,2.88,28,46,0,0
5.051e+05,2.3089e+08,3,5592,5685,15.25,3.11,28,46,0,0
5.0551e+05,2.3099e+08,3,5674,5542,15.17,2.84,28,46,0,0
5.0596e+05,2.3111e+08,3,5545,5571,15.25,2.82,28,46,0,0
5.0636e+05,2.3121e+08,3,5570,5542,15.19,3.05,28,47,0,0
5.0685e+05,2.3133e+08,3,5538,5500,15.22,2.78,28,47,0,0
5.0726e+05,2.3143e+08,3,5498,5385,15.2,2.45,28,47,0,0
5.077e+05,2.3154e+08,3,5377,5200,15.25,2.49,28,47,0,0
5.0815e+05,2.3165e+08,3,5203,5342,15.27,2.69,28,47,0,0
5.0859e+05,2.3176e+08,3,5345,5385,15.26,2.56,28,47,0,0
5.0948e+05,2.3198e+08,3,5384,5371,15.2,2.65,28,47,0,0
5.0992e+05,2.3208e+08,3,5368,5242,15.26,2.08,28,47,0,0
5.1036e+05,2.3219e+08,3,5234,5100,15.29,2.35,28,47,0,0
5.1082e+05,2.323e+08,3,5098,5071,15.23,2.08,28,47,0,0
5.1126e+05,2.3241e+08,3,5071,5085,15.23,2.56,28,47,0,0
5.117e+05,2.3252e+08,3,5080,5042,15.28,2.25,28,47,0,0
5.1214e+05,2.3263e+08,3,5056,5214,15.26,2.54,28,47,0,0
5.1301e+05,2.3285e+08,3,5220,5400,15.22,2.58,28,48,0,0
5.1475e+05,2.3327e+08,3,5399,5257,15.26,2.3,28,48,0,0
5.1519e+05,2.3338e+08,3,5255,5214,15.23,2.34,28,48,0,0
5.1564e+05,2.3349e+08,3,5213,5200,15.2,2.33,28,48,0,0
5.1605e+05,2.336e+08,3,5197,5014,15.19,1.85,28,48,0,0
5.1649e+05,2.3371e+08,3,5012,4885,15.25,1.91,28,48,0,0
5.1739e+05,2.3393e+08,3,4881,4757,15.25,2.06,28,48,0,0
5.1783e+05,2.3404e+08,3,4762,4871,15.23,2.13,28,48,0,0
5.1828e+05,2.3415e+08,3,4877,5000,15.25,2.6,28,49,0,0
5.1873e+05,2.3426e+08,3,5022,5314,15.23,2.67,28,49,0,0
5.1917e+05,2.3437e+08,3,5315,5357,15.17,2.82,28,49,0,0
5.1962e+05,2.3447e+08,3,5361,5428,15.26,2.76,28,49,0,0
5.2011e+05,2.3459e+08,3,5437,5542,15.25,2.94,28,49,0,0
5.2056e+05,2.347e+08,3,5537,5471,15.26,2.55,28,49,0,0
5.2096e+05,2.3481e+08,3,5462,5342,15.26,2.33,28,49,0,0
5.2136e+05,2.3491e+08,3,5341,5285,15.24,2.33,28,49,0,0
5.2183e+05,2.3503e+08,3,5280,5228,15.22,2.32,28,49,0,0
5.2223e+05,2.3513e+08,3,5223,5114,15.24,2.18,28,49,0,0
5.2268e+05,2.3524e+08,3,5112,5100,15.21,2.44,28,49,0,0
5.2312e+05,2.3535e+08,3,5100,5100,15.2,2.36,28,49,0,0
5.2357e+05,2.3546e+08,3,5100,5114,15.23,2.4,28,49,0,0
5.2402e+05,2.3557e+08,3,5114,5142,15.1,2.54,28,49,0,0
5.2446e+05,2.3568e+08,3,5144,5328,15.19,2.74,28,50,0,0
5.2494e+05,2.3579e+08,3,5333,5400,15.14,2.81,28,50,0,0
5.2539e+05,2.359e+08,3,5419,5614,15.13,3.21,28,50,0,0
5.2584e+05,2.3601e+08,3,5609,5571,15.17,3.01,28,50,0,0
5.2624e+05,2.3611e+08,3,5571,5585,15.25,3.3,28,50,0,0
5.2673e+05,2.3623e+08,3,5594,5685,15.15,3.29,28,50,0,0
5.2713e+05,2.3633e+08,3,5685,5700,15.14,3.11,28,50,0,0
5.2762e+05,2.3645e+08,3,5700,5700,15.22,3.19,28,50,0,0
5.2806e+05,2.3655e+08,3,5698,5685,15.27,3.32,28,50,0,0
5.2851e+05,2.3666e+08,3,5685,5685,15.21,2.9,28,50,0,0
5.2894e+05,2.3678e+08,3,5672,5585,15.2,2.98,28,51,0,0
5.2937e+05,2.3688e+08,3,5585,5585,15.17,3,28,51,0,0
5.2982e+05,2.3699e+08,3,5573,5400,15.25,2.67,28,51,0,0
5.3026e+05,2.3711e+08,3,5387,5271,15.25,2.39,28,51,0,0
5.307e+05,2.3721e+08,3,5267,5228,15.26,2.26,28,51,0,0
5.3114e+05,2.3732e+08,3,5216,5071,15.29,2.34,28,51,0,0
5.3159e+05,2.3743e+08,3,5086,5171,15.3,2.33,28,51,0,0
5.3203e+05,2.3753e+08,3,5163,5071,15.26,2.1,28,51,0,0
5.3248e+05,2.3765e+08,3,5074,5100,15.23,2.52,28,51,0,0
5.3295e+05,2.3776e+08,3,5110,5357,15.26,2.58,28,51,0,0
5.3334e+05,2.3786e+08,3,5355,5271,15.29,2.62,28,51,0,0
5.3382e+05,2.3798e+08,3,5279,5371,15.3,2.65,28,51,0,0
5.3422e+05,2.3807e+08,3,5368,5314,15.26,2.58,28,51,0,0
5.3467e+05,2.3819e+08,3,5315,5442,15.23,2.59,28,51,0,0
5.3556e+05,2.384e+08,3,5441,5400,15.27,2.47,28,52,0,0
5.3604e+05,2.3852e+08,3,5403,5471,15.2,2.77,28,52,0,0
5.369e+05,2.3874e+08,3,5469,5414,15.15,2.82,28,52,0,0
5.3735e+05,2.3885e+08,3,5420,5542,15.19,2.8,28,52,0,0
5.378e+05,2.3896e+08,3,5534,5457,15.29,2.5,28,52,0,0
5.3824e+05,2.3906e+08,3,5443,5328,15.26,2.64,28,52,0,0
5.387e+05,2.3917e+08,3,5326,5314,15.26,2.71,28,52,0,0
5.391e+05,2.3928e+08,3,5313,5300,15.23,2.51,28,52,0,0
5.3949e+05,2.3938e+08,3,5301,5414,15.23,2.71,28,52,0,0
5.404e+05,2.396e+08,3,5420,5600,15.25,3.17,28,53,0,0
5.408e+05,2.3971e+08,3,5597,5557,15.2,3.01,28,53,0,0
5.4125e+05,2.3982e+08,3,5554,5514,15.23,2.58,28,53,0,0
5.417e+05,2.3993e+08,3,5499,5328,15.19,2.47,28,53,0,0
5.4215e+05,2.4004e+08,3,5337,5428,15.19,2.61,28,53,0,0
5.426e+05,2.4015e+08,3,5431,5471,15.11,2.56,28,53,0,0
5.43e+05,2.4025e+08,3,5468,5328,15.23,2.59,28,53,0,0
5.4345e+05,2.4036e+08,3,5321,5200,15.23,2.31,28,53,0,0
5.439e+05,2.4047e+08,3,5202,5242,15.28,2.51,28,53,0,0
5.4434e+05,2.4058e+08,3,5244,5300,15.27,2.59,28,53,0,0
5.4479e+05,2.4069e+08,3,5294,5228,15.23,2.56,28,53,0,0
5.4523e+05,2.408e+08,3,5229,5257,15.18,2.53,28,53,0,0
5.4568e+05,2.4091e+08,3,5258,5342,15.26,2.71,28,54,0,0
5.4611e+05,2.4102e+08,3,5343,5357,15.16,2.81,28,54,0,0
5.4654e+05,2.4113e+08,3,5355,5342,15.24,2.76,28,54,0,0
5.4699e+05,2.4124e+08,3,5340,5328,15.26,2.57,28,54,0,0
5.4739e+05,2.4134e+08,3,5329,5471,15.25,2.55,28,54,0,0
5.4788e+05,2.4145e+08,3,5464,5400,15.2,2.72,28,54,0,0
5.4832e+05,2.4157e+08,3,5406,5485,15.24,2.56,28,54,0,0
5.4917e+05,2.4178e+08,3,5480,5114,15.19,2.42,28,54,0,0
5.4963e+05,2.4189e+08,3,5125,5271,15.2,2.68,28,54,0,0
5.5006e+05,2.42e+08,3,5280,5371,15.19,2.74,28,54,0,0
5.5052e+05,2.4211e+08,3,5371,5371,15.26,2.77,28,54,0,0
5.5093e+05,2.4221e+08,3,5371,5371,15.23,2.8,28,55,0,0
5.5137e+05,2.4233e+08,3,5369,5342,15.21,2.69,28,55,0,0
5.5178e+05,2.4243e+08,3,5344,5471,15.24,2.79,28,55,0,0
5.5218e+05,2.4253e+08,3,5471,5485,15.14,2.82,28,55,0,0
5.5264e+05,2.4264e+08,3,5486,5585,15.26,2.91,28,55,0,0
5.5307e+05,2.4275e+08,3,5585,5628,15.22,2.88,28,55,0,0
5.5354e+05,2.4286e+08,3,5618,5528,15.18,2.83,28,55,0,0
5.5394e+05,2.4296e+08,3,5529,5571,15.2,2.92,28,55,0,0
5.5439e+05,2.4307e+08,3,5570,5557,15.26,2.63,28,55,0,0
5.5484e+05,2.4319e+08,3,5560,5600,15.16,2.74,28,55,0,0
5.5528e+05,2.4329e+08,3,5588,5414,15.19,2.59,28,55,0,0
5.5572e+05,2.434e+08,3,5402,5142,15.2,2.38,28,55,0,0
5.5618e+05,2.4351e+08,3,5143,5171,15.28,2.29,28,55,0,0
5.5662e+05,2.4362e+08,3,5168,5100,15.17,2.58,28,56,0,0
5.5748e+05,2.4384e+08,3,5112,5528,15.23,2.74,28,56,0,0
5.5791e+05,2.4395e+08,3,5529,5557,15.19,2.77,28,56,0,0
5.5836e+05,2.4405e+08,3,5555,5500,15.2,2.88,28,56,0,0
5.5881e+05,2.4416e+08,3,5494,5414,15.32,2.36,28,56,0,0
5.5966e+05,2.4437e+08,3,5397,4957,15.33,1.96,28,56,0,0
5.6011e+05,2.4448e+08,3,4959,4985,15.32,2.21,28,56,0,0
5.6054e+05,2.4459e+08,3,4990,5071,15.36,1.96,28,56,0,0
5.6096e+05,2.447e+08,3,5068,5042,16.11,1.29,28,56,0,0
5.614e+05,2.448e+08,3,5021,3728,15.48,1.59,28,56,0,0
5.6189e+05,2.4492e+08,3,3665,3000,15.72,0.24,28,56,0,0
5.623e+05,2.4502e+08,3,2983,2300,15.68,0.1,28,56,0,0
5.6274e+05,2.4514e+08,3,2306,2385,15.69,0.41,28,56,0,0
5.6319e+05,2.4525e+08,3,2389,2428,15.67,0.26,28,56,0,0
5.6363e+05,2.4536e+08,3,2416,2314,15.69,0.25,28,56,0,0
5.6406e+05,2.4546e+08,3,2316,2371,15.69,0.36,28,56,0,0
5.645e+05,2.4557e+08,3,2372,2385,15.7,0.27,28,56,0,0
5.6495e+05,2.4568e+08,3,2382,2357,15.69,0.33,28,56,0,0
5.6535e+05,2.4578e+08,3,2359,2414,15.69,0.3,28,56,0,0
5.6584e+05,2.4589e+08,3,2410,2385,15.69,0.31,28,56,0,0
5.6624e+05,2.46e+08,3,2385,2400,15.7,0.31,28,56,0,0
5.6668e+05,2.4611e+08,3,2400,2400,15.69,0.3,28,56,0,0
5.6712e+05,2.4621e+08,3,2400,2400,15.7,0.32,28,56,0,0
5.6762e+05,2.4634e+08,3,2395,2342,15.71,0.22,28,56,0,0
5.6802e+05,2.4643e+08,3,2340,2228,15.72,0.2,28,56,0,0
5.6843e+05,2.4653e+08,3,2225,2142,15.71,0.19,28,56,0,0
5.6892e+05,2.4665e+08,3,2139,2114,15.72,0.22,28,56,0,0
5.6937e+05,2.4676e+08,3,2111,2071,15.8,0.16,28,56,0,0
5.6982e+05,2.4687e+08,3,2037,1700,15.77,0.01,28,56,0,0
5.7026e+05,2.4698e+08,3,1671,1400,15.77,0.03,28,56,0,0
5.7071e+05,2.4708e+08,3,1393,1300,15.77,0.09,28,56,0,0
5.7114e+05,2.4719e+08,3,1299,1285,15.77,0.1,28,56,0,0
5.7161e+05,2.4731e+08,3,1285,1285,15.76,0.11,28,56,0,0
5.7202e+05,2.4741e+08,3,1285,1285,15.77,0.1,28,56,0,0
5.7292e+05,2.4763e+08,3,1285,1285,15.77,0.11,28,56,0,0
5.7336e+05,2.4774e+08,3,1285,1285,15.77,0.11,28,56,0,0
5.7422e+05,2.4795e+08,3,1285,1285,15.78,0.1,28,56,0,0
5.7467e+05,2.4806e+08,3,1285,1285,15.78,0.11,28,57,0,0
5.7515e+05,2.4818e+08,3,1285,1285,15.79,0.11,28,57,0,0
5.7553e+05,2.4827e+08,3,1285,1285,15.79,0.1,28,57,0,0
5.7598e+05,2.4838e+08,3,1285,1285,15.78,0.11,28,57,0,0
5.7643e+05,2.4849e+08,3,1285,1285,15.79,0.11,28,57,0,0
5.7688e+05,2.486e+08,3,1285,1285,15.79,0.11,28,57,0,0
5.7733e+05,2.4871e+08,3,1285,1285,15.79,0.11,28,57,0,0
5.7777e+05,2.4882e+08,3,1285,1285,15.79,0.11,28,57,0,0
5.7818e+05,2.4892e+08,3,1285,1285,15.79,0.11,28,57,0,0
5.7864e+05,2.4903e+08,3,1285,1285,15.79,0.11,28,57,0,0
5.7907e+05,2.4914e+08,3,1285,1285,15.8,0.11,28,57,0,0
5.7952e+05,2.4925e+08,3,1285,1285,15.79,0.11,28,57,0,0
5.7992e+05,2.4935e+08,3,1285,1285,15.8,0.1,28,57,0,0
5.8037e+05,2.4946e+08,3,1285,1285,15.8,0.11,28,57,0,0
5.8082e+05,2.4957e+08,3,1285,1285,15.8,0.1,28,57,0,0
5.8131e+05,2.4968e+08,3,1285,1285,15.8,0.1,28,57,0,0
5.8174e+05,2.4979e+08,3,1285,1285,15.8,0.11,28,57,0,0
5.8213e+05,2.4989e+08,3,1285,1285,15.8,0.11,28,57,0,0
5.8258e+05,2.5e+08,3,1285,1285,15.79,0.11,28,57,0,0
5.8303e+05,2.5011e+08,3,1284,1271,15.8,0.11,28,57,0,0
5.8348e+05,2.5022e+08,3,1271,1271,15.81,0.11,28,57,0,0
5.8392e+05,2.5033e+08,3,1272,1285,15.81,0.11,28,57,0,0
5.8437e+05,2.5043e+08,3,1285,1285,15.81,0.1,28,57,0,0
5.8482e+05,2.5055e+08,3,1285,1285,15.81,0.1,28,57,0,0
5.8524e+05,2.5065e+08,3,1285,1285,15.8,0.11,28,57,0,0
5.8568e+05,2.5076e+08,3,1285,1285,15.81,0.11,28,57,0,0
5.8613e+05,2.5086e+08,3,1285,1285,15.81,0.11,28,57,0,0
5.8654e+05,2.5096e+08,3,1285,1285,15.82,0.11,28,57,0,0
5.8698e+05,2.5107e+08,3,1285,1285,15.82,0.11,27,57,0,0
5.8746e+05,2.5119e+08,3,1285,1285,15.82,0.11,28,57,0,0
5.8792e+05,2.5129e+08,3,1256,671,15.83,0.02,28,57,0,0
5.8836e+05,2.514e+08,3,663,228,15.83,0.02,28,57,0,0
5.8883e+05,2.5152e+08,3,206,0,15.83,0.03,27,57,0,0
5.8928e+05,2.5162e+08,3,0,0,15.83,0.04,27,57,0,0
5.8974e+05,2.5173e+08,3,0,0,15.84,0.04,27,57,0,0
5.9019e+05,2.5184e+08,3,0,0,15.84,0.04,27,57,0,0
5.9114e+05,2.5206e+08,3,0,0,15.84,0.04,27,57,0,0
5.9157e+05,2.5216e+08,3,0,0,15.84,0.04,27,57,0,0
5.9204e+05,2.5227e+08,3,0,0,15.84,0.04,27,57,0,0
5.9249e+05,2.5238e+08,3,0,0,15.85,0.04,27,57,0,0
5.9294e+05,2.5249e+08,3,0,0,15.85,0.04,27,57,0,0
5.934e+05,2.526e+08,3,0,0,15.85,0.04,27,57,0,0
5.9385e+05,2.527e+08,3,0,0,15.85,0.04,27,57,0,0
5.9435e+05,2.5282e+08,3,0,0,15.85,0.04,28,57,0,0
5.948e+05,2.5292e+08,3,0,0,15.85,0.04,27,57,0,0
5.9525e+05,2.5303e+08,3,0,0,15.86,0.04,27,57,0,0
5.957e+05,2.5314e+08,3,0,0,15.85,0.04,27,57,0,0
5.9617e+05,2.5325e+08,3,0,0,15.85,0.04,27,57,0,0
5.9662e+05,2.5336e+08,3,0,0,15.85,0.04,27,57,0,0
5.9707e+05,2.5347e+08,3,0,0,15.85,0.04,27,57,0,0
5.9752e+05,2.5357e+08,3,0,0,15.85,0.04,27,57,0,0
5.9797e+05,2.5368e+08,3,0,0,15.86,0.04,27,57,0,0
5.9846e+05,2.5379e+08,3,0,0,15.85,0.04,27,57,0,0
5.9892e+05,2.539e+08,3,0,0,15.86,0.04,27,57,0,0
5.9935e+05,2.54e+08,3,0,0,15.86,0.04,27,57,0,0
5.9978e+05,2.5411e+08,3,0,0,15.86,0.04,27,57,0,0
6.0024e+05,2.5422e+08,3,0,0,15.86,0.04,27,57,0,0
6.0073e+05,2.5433e+08,3,0,0,15.86,0.04,27,57,0,0
6.0104e+05,2.5443e+08,3,0,0,15.86,0.04,27,57,0,0
6.0149e+05,2.5454e+08,3,0,0,15.86,0.04,27,57,0,0
6.0195e+05,2.5465e+08,3,0,0,15.86,0.04,27,57,0,0
6.024e+05,2.5476e+08,3,0,0,15.87,0.04,27,57,0,0
6.0329e+05,2.5497e+08,3,0,0,15.87,0.04,27,57,0,0
