LineNo,TimeUS,Instance,RPM,RawRPM,Volt,Curr,Temp,CTot,MotTemp,Err
1841,21860459,2,0,0,16.16,0.06,24,0,0,0
2259,21963440,2,0,0,16.17,0.06,24,0,0,0
2709,22074695,2,0,0,16.16,0.06,24,0,0,0
3121,22175000,2,0,0,16.16,0.06,24,0,0,0
3574,22285863,2,0,0,16.16,0.06,24,0,0,0
3984,22388306,2,0,0,16.16,0.06,24,0,0,0
4444,22503355,2,0,0,16.16,0.06,24,0,0,0
4856,22606048,2,0,0,16.16,0.05,24,0,0,0
5270,22707089,2,0,0,16.16,0.06,24,0,0,0
5729,22825074,2,0,0,16.16,0.05,24,0,0,0
6144,22927446,2,0,0,16.17,0.06,24,0,0,0
6559,23029712,2,0,0,16.16,0.06,24,0,0,0
6974,23134566,2,0,0,16.16,0.06,24,0,0,0
7425,23246495,2,0,0,16.16,0.06,24,0,0,0
7837,23350437,2,0,0,16.16,0.05,24,0,0,0
8284,23461490,2,0,0,16.16,0.05,24,0,0,0
8735,23569432,2,0,0,16.16,0.05,24,0,0,0
9147,23672667,2,0,0,16.16,0.05,24,0,0,0
9556,23777089,2,0,0,16.16,0.06,24,0,0,0
9908,23878425,2,0,0,16.16,0.05,24,0,0,0
10360,23989297,2,0,0,16.16,0.05,24,0,0,0
10777,24093419,2,0,0,16.16,0.05,24,0,0,0
11231,24208358,2,0,0,16.16,0.05,24,0,0,0
11645,24313616,2,0,0,16.16,0.06,24,0,0,0
12059,24416247,2,0,0,16.16,0.06,24,0,0,0
12515,24530975,2,0,0,16.16,0.05,24,0,0,0
12929,24637013,2,0,0,16.16,0.06,24,0,0,0
13753,24841130,2,0,0,16.16,0.05,24,0,0,0
14165,24944611,2,0,0,16.16,0.06,24,0,0,0
14615,25055836,2,0,0,16.16,0.06,24,0,0,0
15034,25161149,2,0,0,16.16,0.05,24,0,0,0
15484,25273048,2,0,0,16.16,0.06,24,0,0,0
15911,25378805,2,0,0,16.16,0.06,24,0,0,0
16321,25479790,2,0,0,16.16,0.06,24,0,0,0
16776,25592914,2,0,0,16.16,0.06,24,0,0,0
17193,25696696,2,0,0,16.16,0.06,24,0,0,0
17613,25801296,2,0,0,16.16,0.06,24,0,0,0
18481,26019623,2,0,0,16.16,0.06,24,0,0,0
18860,26117234,2,0,0,16.16,0.06,24,0,0,0
19309,26228715,2,0,0,16.16,0.06,24,0,0,0
19762,26341321,2,0,0,16.16,0.06,24,0,0,0
20181,26448055,2,0,0,16.16,0.06,24,0,0,0
20598,26552430,2,0,0,16.16,0.06,24,0,0,0
21010,26652681,2,0,0,16.16,0.06,24,0,0,0
21465,26767874,2,0,0,16.16,0.06,24,0,0,0
21837,26864425,2,0,0,16.16,0.06,24,0,0,0
22290,26979268,2,0,0,16.16,0.06,24,0,0,0
22700,27080450,2,0,0,16.16,0.06,24,0,0,0
23154,27193178,2,0,0,16.16,0.06,24,0,0,0
23540,27293906,2,0,0,16.16,0.06,24,0,0,0
23986,27399242,2,0,0,16.16,0.06,24,0,0,0
24445,27515736,2,0,0,16.16,0.06,24,0,0,0
24858,27619706,2,0,0,16.16,0.05,24,0,0,0
25268,27720880,2,0,0,16.16,0.05,24,0,0,0
25681,27827587,2,0,0,16.16,0.05,24,0,0,0
26097,27934713,2,0,0,16.16,0.05,24,0,0,0
26514,28042069,2,0,0,16.16,0.05,24,0,0,0
26967,28153077,2,0,0,16.16,0.05,24,0,0,0
27382,28257466,2,0,0,16.16,0.06,24,0,0,0
27796,28360780,2,0,0,16.16,0.05,24,0,0,0
28246,28471183,2,0,0,16.16,0.05,24,0,0,0
28659,28573054,2,0,0,16.17,0.05,24,0,0,0
29110,28685673,2,0,0,16.16,0.05,24,0,0,0
29523,28789828,2,0,0,16.16,0.05,24,0,0,0
30005,28907680,2,0,0,16.16,0.05,24,0,0,0
30382,29001377,2,0,0,16.16,0.05,24,0,0,0
30830,29113039,2,0,0,16.16,0.05,24,0,0,0
31244,29215836,2,0,0,16.16,0.05,24,0,0,0
31697,29330831,2,0,0,16.16,0.05,24,0,0,0
32108,29433688,2,0,0,16.17,0.05,24,0,0,0
32550,29539684,2,0,0,16.16,0.05,24,0,0,0
192985,153151431,2,0,0,0,0,0,0,0,0
193400,153256673,2,0,0,0,0.03,0,0,0,0
195927,153906322,2,0,0,0,0.04,0,0,0,0
196338,154009394,2,0,0,0,0.04,0,0,0,0
197166,154224574,2,0,0,16.14,0.03,25,0,0,0
198024,154442478,2,0,0,16.14,0.03,25,0,0,0
198433,154547837,2,0,0,16.15,0.03,25,0,0,0
198891,154663621,2,0,0,16.14,0.03,25,0,0,0
199308,154773037,2,0,0,16.14,0.03,25,0,0,0
199723,154876613,2,0,0,16.14,0.03,25,0,0,0
200137,154984750,2,0,0,16.14,0.03,25,0,0,0
200555,155091314,2,0,0,16.14,0.03,25,0,0,0
200961,155198344,2,0,0,16.14,0.03,25,0,0,0
201795,155416319,2,0,0,16.14,0.03,25,0,0,0
202249,156402449,2,0,0,16.14,0.03,25,0,0,0
202505,156472425,2,0,0,16.14,0.03,25,0,0,0
202944,156576406,2,0,0,16.14,0.04,25,0,0,0
203401,156680576,2,0,0,16.14,0.04,25,0,0,0
203858,156791182,2,0,0,16.14,0.04,25,0,0,0
204315,156898864,2,0,0,16.14,0.04,25,0,0,0
204770,157011199,2,0,0,16.14,0.03,25,0,0,0
205230,157119876,2,0,0,16.14,0.03,25,0,0,0
205684,157223440,2,0,0,16.14,0.03,25,0,0,0
206139,157332039,2,0,0,16.14,0.03,25,0,0,0
207077,157552288,2,0,0,16.14,0.03,25,0,0,0
207518,157657186,2,0,0,16.14,0.03,25,0,0,0
207968,157768325,2,0,0,16.14,0.03,25,0,0,0
208421,157870240,2,0,0,16.14,0.03,25,0,0,0
208875,157978439,2,0,0,16.14,0.03,25,0,0,0
209369,158091130,2,0,0,16.14,0.03,25,0,0,0
209859,158205562,2,0,0,16.14,0.03,25,0,0,0
210309,158311596,2,0,0,16.14,0.03,25,0,0,0
210765,158414300,2,0,0,16.14,0.03,25,0,0,0
211219,158525567,2,8,128,16.14,0.03,25,0,0,0
211683,158633430,2,157,571,16.12,0.08,25,0,0,0
212122,158737690,2,598,971,16.11,0.14,25,0,0,0
212598,158851425,2,990,1200,16.13,0.12,25,0,0,0
213045,158959676,2,1204,1257,16.13,0.11,25,0,0,0
213500,159063446,2,1258,1285,16.13,0.11,25,0,0,0
213953,159173454,2,1285,1285,16.13,0.11,25,0,0,0
214406,159277286,2,1285,1300,16.14,0.09999999,25,0,0,0
214867,159388649,2,1300,1314,16.13,0.09999999,25,0,0,0
215319,159490602,2,1314,1314,16.13,0.09999999,25,0,0,0
215818,159607493,2,1314,1314,16.13,0.09999999,25,0,0,0
216275,159716223,2,1314,1314,16.13,0.09999999,25,0,0,0
216723,159818285,2,1314,1314,16.13,0.09999999,25,0,0,0
217400,160034262,2,1315,1328,16.13,0.09999999,25,0,0,0
217842,160140105,2,1328,1328,16.13,0.09999999,25,0,0,0
218342,160256191,2,1326,1314,16.13,0.09999999,25,0,0,0
218796,160361263,2,1315,1328,16.13,0.09999999,25,0,0,0
219251,160464251,2,1326,1314,16.13,0.09999999,25,0,0,0
219703,160570184,2,1314,1314,16.13,0.09999999,25,0,0,0
220174,160685079,2,1314,1328,16.13,0.09999999,25,0,0,0
220623,160790101,2,1328,1328,16.13,0.09999999,25,0,0,0
221076,160897307,2,1328,1328,16.13,0.09999999,26,0,0,0
221501,161002089,2,1327,1314,16.11,0.09999999,25,0,0,0
221990,161115452,2,1314,1314,16.12,0.09999999,25,0,0,0
222423,161218803,2,1314,1314,16.12,0.11,26,0,0,0
222860,161324353,2,1314,1328,16.13,0.09999999,25,0,0,0
223357,161438300,2,1327,1314,16.13,0.11,25,0,0,0
223813,161547603,2,1314,1314,16.13,0.09999999,26,0,0,0
224315,161659676,2,1314,1314,16.13,0.11,25,0,0,0
224766,161765339,2,1314,1328,16.13,0.09999999,26,0,0,0
225220,161868787,2,1328,1328,16.13,0.09999999,25,0,0,0
225677,161977282,2,1327,1314,16.13,0.11,25,0,0,0
226624,162195176,2,1314,1328,16.12,0.09999999,25,0,0,0
227124,162306261,2,1328,1328,16.11,0.09999999,26,0,0,0
227551,162408884,2,1327,1314,16.13,0.09999999,25,0,0,0
227985,162516981,2,1314,1314,16.13,0.09999999,25,0,0,0
228485,162628886,2,1315,1328,16.11,0.11,26,0,0,0
228982,162744808,2,1356,1542,16.09,0.24,26,0,0,0
229392,162838228,2,1556,2171,16.03,0.5600000000000001,26,0,0,0
229886,162951611,2,2183,2357,16.07,0.46,26,0,0,0
230385,163064032,2,2364,2442,16.03,0.45,25,0,0,0
230836,163174141,2,2448,2514,16.12,0.51,25,0,0,0
231289,163278444,2,2519,2600,15.99,0.52,25,0,0,0
231782,163395918,2,2653,3228,15.93,1.36,25,0,0,0
232236,163503613,2,3279,3828,15.83,1.69,26,0,0,0
232673,163611486,2,3886,4485,15.78,2.2,26,0,0,0
233106,163719645,2,4515,4828,15.67,2.56,26,0,0,0
233560,163828673,2,4864,5257,15.56,3.06,26,0,0,0
234011,163934622,2,5272,5600,15.57,3.33,26,0,0,0
234468,164042078,2,5600,5600,15.72,2.85,26,1,0,0
234923,164155296,2,5619,5885,15.63,3.29,26,1,0,0
235784,164362660,2,5883,5800,15.58,3.33,26,1,0,0
236285,164479472,2,5810,5914,15.61,3.44,26,1,0,0
236724,164588101,2,5924,6042,15.6,3.76,26,1,0,0
237156,164694589,2,6042,6057,15.64,3.75,26,1,0,0
237605,164804321,2,6056,6042,15.59,3.65,26,1,0,0
238057,164912812,2,6049,6114,15.52,3.73,26,1,0,0
238512,165017613,2,6114,6128,15.59,3.64,26,2,0,0
238966,165128624,2,6122,6042,15.6,3.45,26,2,0,0
239418,165233448,2,6044,6100,15.61,3.45,26,2,0,0
239913,165350596,2,6083,5914,15.67,3.1,26,2,0,0
240367,165456217,2,5911,5842,15.61,3.2,26,2,0,0
240823,165567704,2,5832,5742,15.64,2.8,26,2,0,0
241276,165674275,2,5744,5785,15.67,2.76,26,2,0,0
241732,165787606,2,5766,5500,15.63,2.49,26,2,0,0
242187,165895186,2,5499,5442,15.61,2.71,26,2,0,0
242629,166004069,2,5440,5414,15.66,2.37,26,2,0,0
243058,166110636,2,5406,5242,15.64,2.34,26,2,0,0
243554,166226422,2,5247,5314,15.66,2.34,26,2,0,0
244008,166338937,2,5299,5142,15.64,2.13,26,3,0,0
244460,166444395,2,5139,5100,15.69,1.86,26,3,0,0
244952,166560321,2,5093,5028,15.64,2,26,3,0,0
245405,166665019,2,5026,5000,15.59,1.88,26,3,0,0
245856,166776586,2,5008,5228,15.66,2.26,26,3,0,0
246346,166889488,2,5223,5171,15.64,2.13,26,3,0,0
246761,166990386,2,5170,5114,15.58,2.28,26,3,0,0
247258,167104579,2,5145,5457,15.61,2.45,26,3,0,0
247666,167205711,2,5456,5442,15.63,2.52,26,3,0,0
248159,167324246,2,5442,5442,15.55,2.49,26,3,0,0
248593,167428870,2,5451,5557,15.58,2.71,26,3,0,0
249035,167539128,2,5555,5542,15.55,2.71,26,3,0,0
249495,167646685,2,5547,5614,15.51,2.97,26,3,0,0
249948,167757241,2,5616,5642,15.51,2.62,26,3,0,0
250400,167861223,2,5641,5614,15.55,2.5,26,4,0,0
250899,167979211,2,5598,5442,15.54,2.52,26,4,0,0
251354,168084644,2,5447,5528,15.64,2.79,26,4,0,0
251809,168197330,2,5534,5600,15.55,2.6,26,4,0,0
252261,168299662,2,5598,5557,15.63,2.73,26,4,0,0
252712,168409213,2,5557,5557,15.62,2.72,26,4,0,0
253164,168516625,2,5558,5600,15.66,2.74,26,4,0,0
253585,168620089,2,5600,5600,15.58,2.54,26,4,0,0
254069,168735830,2,5598,5571,15.62,2.37,26,4,0,0
254542,168848860,2,5559,5271,15.57,1.51,26,4,0,0
254942,168949840,2,5249,4900,15.63,1.51,26,4,0,0
255363,169055306,2,4908,5071,15.55,2.22,26,4,0,0
255857,169170870,2,5095,5500,15.61,3.05,26,4,0,0
256305,169276329,2,5524,5842,15.53,3.51,27,4,0,0
256752,169380438,2,5844,6014,15.53,3.58,27,5,0,0
257251,169496676,2,6033,6228,15.55,3.56,26,5,0,0
257663,169600593,2,6222,6100,15.57,3.65,26,5,0,0
258118,169712401,2,6097,6071,15.58,3.58,27,5,0,0
258571,169820859,2,6074,6142,15.54,3.52,27,5,0,0
259020,169931590,2,6138,6100,15.57,3.26,27,5,0,0
259458,170035449,2,6098,6042,15.55,3.4,27,5,0,0
259934,170147067,2,6039,5985,15.54,3.25,27,5,0,0
260390,170255843,2,5976,5900,15.58,3.32,27,5,0,0
261294,170473173,2,5897,5828,15.53,2.89,27,6,0,0
261742,170579652,2,5823,5728,15.55,3.33,27,6,0,0
262198,170688486,2,5736,5928,15.59,3.21,27,6,0,0
262645,170794849,2,5928,5928,15.52,3.32,27,6,0,0
263594,171020286,2,5928,5957,15.49,3.23,27,6,0,0
264001,171120867,2,5949,5771,15.56,3.07,27,6,0,0
264500,171237373,2,5719,5171,15.48,1.83,27,6,0,0
264950,171347639,2,5244,5971,15.51,4.04,27,6,0,0
265385,171452086,2,5983,6257,15.51,3.78,27,7,0,0
265829,171561644,2,6253,6171,15.52,4.44,27,7,0,0
266732,171779710,2,6167,6028,15.54,2.47,27,7,0,0
267640,171998262,2,6024,5914,15.44,2.98,27,7,0,0
268091,172107299,2,5911,5885,15.5,3.29,27,7,0,0
268545,172219463,2,5882,5857,15.47,3.18,27,7,0,0
268951,172318483,2,5868,6142,15.51,3.17,27,7,0,0
269400,172424309,2,6134,5971,15.51,3.01,27,7,0,0
269846,172530728,2,5971,5971,15.52,2.82,27,8,0,0
270341,172650431,2,5966,5900,15.49,2.97,27,8,0,0
270742,172754848,2,5901,5928,15.52,3.21,27,8,0,0
271175,172862043,2,5930,5985,15.51,3.42,27,8,0,0
271611,172972229,2,5990,6057,15.5,3.1,27,8,0,0
272024,173076307,2,6053,5871,15.52,3.16,27,8,0,0
272465,173184692,2,5872,5942,15.5,3.05,27,8,0,0
272956,173303450,2,5939,5914,15.44,3.33,27,8,0,0
273808,173519443,2,5922,6085,15.52,3.45,27,8,0,0
274257,173626910,2,6087,6114,15.55,3.67,27,9,0,0
274734,173741439,2,6121,6214,15.44,3.58,27,9,0,0
275186,173854796,2,6199,6100,15.49,3.58,27,9,0,0
275588,173957849,2,6096,6014,15.51,3.19,27,9,0,0
276051,174076632,2,6004,5928,15.5,2.99,27,9,0,0
276457,174184325,2,5913,5785,15.54,2.82,27,9,0,0
276866,174285636,2,5778,5642,15.49,2.82,27,9,0,0
277315,174395403,2,5642,5657,15.56,2.75,27,9,0,0
277808,174517249,2,5653,5628,15.52,2.52,27,9,0,0
278217,174614281,2,5626,5600,15.51,2.58,27,9,0,0
278704,174737211,2,5613,5742,15.5,2.83,27,9,0,0
279109,174836892,2,5736,5700,15.49,3.06,27,10,0,0
279557,174949198,2,5713,5814,15.55,3,27,10,0,0
280004,175056708,2,5815,5828,15.51,3.22,27,10,0,0
280398,175156720,2,5831,5971,15.45,3.13,27,10,0,0
280833,175269490,2,5941,5714,15.5,3.13,27,10,0,0
281277,175383102,2,5726,5857,15.51,3.27,27,10,0,0
281728,175487846,2,5862,5914,15.49,3.15,27,10,0,0
282132,175588677,2,5914,5942,15.52,2.74,27,10,0,0
282584,175707914,2,5931,5842,15.54,2.8,27,10,0,0
282993,175807214,2,5837,5757,15.45,2.57,27,10,0,0
283439,175920951,2,5764,5828,15.49,2.87,27,10,0,0
283892,176032856,2,5828,5828,15.48,2.76,27,11,0,0
284296,176135720,2,5829,5842,15.48,2.89,27,11,0,0
284706,176240013,2,5843,5857,15.48,2.99,27,11,0,0
285140,176345040,2,5859,5914,15.44,3.16,27,11,0,0
285533,176447228,2,5913,5871,15.52,2.9,27,11,0,0
285968,176559058,2,5879,6014,15.54,3.09,27,11,0,0
286862,176777256,2,6008,5800,15.51,3.08,27,11,0,0
287313,176890303,2,5805,5857,15.45,2.94,27,11,0,0
287720,176993960,2,5863,5942,15.47,2.81,27,11,0,0
288170,177106598,2,5928,5771,15.48,2.92,27,11,0,0
288657,177221622,2,5771,5771,15.46,2.9,27,12,0,0
289100,177331722,2,5769,5742,15.46,2.96,27,12,0,0
289551,177439043,2,5762,5957,15.5,2.72,27,12,0,0
290407,177649730,2,5955,5914,15.52,2.81,27,12,0,0
291304,177871277,2,5905,5714,15.47,2.76,27,12,0,0
291731,177976420,2,5712,5685,15.5,2.54,28,12,0,0
292126,178079476,2,5678,5585,15.47,2.23,27,12,0,0
292560,178184707,2,5591,5685,15.47,2.7,27,12,0,0
293007,178294185,2,5681,5600,15.44,2.62,27,12,0,0
293459,178403686,2,5601,5614,15.48,2.97,28,12,0,0
293909,178520391,2,5614,5642,15.45,2.36,28,13,0,0
294311,178617271,2,5634,5557,15.48,2.62,27,13,0,0
294717,178722824,2,5557,5614,15.47,2.73,27,13,0,0
295166,178827893,2,5620,5785,15.45,3.13,27,13,0,0
295652,178946583,2,5791,5857,15.51,2.93,27,13,0,0
296063,179051646,2,5854,5828,15.42,2.76,27,13,0,0
296506,179159214,2,5820,5742,15.42,3.09,27,13,0,0
296953,179266246,2,5753,5914,15.33,3.24,27,13,0,0
297350,179371569,2,5910,5814,15.39,3.08,27,13,0,0
297820,179485607,2,5822,5900,15.39,3.13,27,13,0,0
298256,179590440,2,5896,5814,15.37,3.19,28,13,0,0
298709,179702881,2,5817,5871,15.45,2.97,28,13,0,0
299158,179813488,2,5865,5814,15.38,3.08,28,14,0,0
299602,179920862,2,5809,5757,15.44,2.71,28,14,0,0
300008,180021673,2,5755,5628,15.41,2.97,27,14,0,0
300453,180132435,2,5630,5671,15.37,3.08,28,14,0,0
301309,180345028,2,5671,5728,15.35,3.03,28,14,0,0
301791,180456664,2,5728,5757,15.4,3.06,28,14,0,0
302233,180573181,2,5755,5742,15.35,3.36,28,14,0,0
302695,180684279,2,5747,5800,15.42,3.08,28,14,0,0
303546,180895069,2,5804,5971,15.39,3.35,28,15,0,0
303994,181006649,2,5974,6071,15.31,3.92,28,15,0,0
304480,181126714,2,6066,6028,15.32,3.69,28,15,0,0
304881,181221609,2,6025,5971,15.36,3.62,28,15,0,0
305288,181328097,2,5973,6057,15.39,3.45,28,15,0,0
305742,181439700,2,6053,5871,15.36,3.57,28,15,0,0
306188,181551233,2,5876,5985,15.41,3.15,28,15,0,0
306636,181657798,2,5975,5771,15.38,3,28,15,0,0
307083,181771923,2,5777,5871,15.44,2.89,28,15,0,0
307573,181886441,2,5864,5800,15.39,3.14,28,15,0,0
307976,181989268,2,5805,5928,15.38,3.2,28,16,0,0
308424,182096203,2,5924,5742,15.4,2.91,28,16,0,0
308914,182213334,2,5736,5657,15.37,3.01,28,16,0,0
309360,182324278,2,5666,5800,15.39,3.07,28,16,0,0
309766,182424819,2,5796,5757,15.39,2.93,28,16,0,0
310294,182548839,2,5754,5714,15.38,3.08,28,16,0,0
310702,182648656,2,5714,5714,15.41,2.95,28,16,0,0
311145,182757693,2,5709,5671,15.4,2.82,28,16,0,0
311591,182863293,2,5672,5714,15.39,3.1,28,16,0,0
311989,182966837,2,5712,5700,15.4,3.11,28,16,0,0
312415,183073129,2,5707,5842,15.39,3.08,28,16,0,0
312858,183187264,2,5837,5800,15.44,2.99,28,17,0,0
313304,183293247,2,5798,5757,15.4,3.05,28,17,0,0
313749,183401227,2,5752,5657,15.4,2.79,28,17,0,0
314197,183511285,2,5658,5700,15.41,2.99,28,17,0,0
314649,183622298,2,5701,5728,15.39,2.54,28,17,0,0
315099,183734288,2,5720,5642,15.45,2.57,28,17,0,0
315546,183841874,2,5640,5614,15.45,2.68,28,17,0,0
315977,183950406,2,5611,5585,15.39,2.6,28,17,0,0
317283,184269710,2,5587,5728,15.39,2.88,28,17,0,0
317774,184391395,2,5713,5557,15.41,2.83,28,17,0,0
318137,184481569,2,5559,5700,15.35,2.77,28,18,0,0
318620,184597293,2,5703,5785,15.34,2.98,28,18,0,0
319073,184710423,2,5788,5814,15.36,3.18,28,18,0,0
319519,184818904,2,5807,5742,15.3,3.32,28,18,0,0
319921,184921365,2,5740,5700,15.39,3.35,28,18,0,0
320748,185135845,2,5712,5985,15.41,3.17,28,18,0,0
321644,185353650,2,5983,5942,15.42,3.48,28,18,0,0
322052,185456243,2,5942,5942,15.36,3.22,28,18,0,0
322499,185569265,2,5934,5871,15.37,3.21,28,19,0,0
322946,185675647,2,5872,5900,15.39,3.15,28,19,0,0
323395,185790250,2,5887,5757,15.4,3.1,28,19,0,0
323846,185899189,2,5763,5828,15.39,2.99,28,19,0,0
324701,186117832,2,5830,5871,15.37,3.02,28,19,0,0
325102,186214056,2,5869,5800,15.35,3.17,28,19,0,0
325556,186326576,2,5804,5871,15.44,2.96,28,19,0,0
326004,186436776,2,5868,5842,15.38,2.93,28,19,0,0
326449,186547820,2,5830,5714,15.36,2.92,28,19,0,0
326853,186647662,2,5721,5900,15.33,3.24,28,19,0,0
327291,186759085,2,5885,5614,15.35,2.92,28,20,0,0
327765,186876672,2,5626,5757,15.38,3.04,28,20,0,0
328171,186983315,2,5758,5814,15.33,3.19,28,20,0,0
328652,187093288,2,5817,5857,15.33,3.21,28,20,0,0
329059,187199265,2,5857,5857,15.41,3.07,28,20,0,0
329543,187314323,2,5851,5800,15.35,2.99,28,20,0,0
329953,187417045,2,5791,5685,15.42,2.94,28,20,0,0
330325,187515821,2,5685,5728,15.35,2.79,28,20,0,0
330812,187630033,2,5729,5757,15.39,3.18,28,20,0,0
331250,187742014,2,5764,5871,15.32,3.25,28,20,0,0
331679,187852087,2,5878,5971,15.27,3.43,28,21,0,0
332076,187954698,2,5968,5800,15.3,3.28,28,21,0,0
332524,188064065,2,5800,5828,15.26,3.46,28,21,0,0
332974,188176322,2,5828,5857,15.36,3.47,28,21,0,0
333465,188300778,2,5859,5871,15.35,3.4,28,21,0,0
333870,188401227,2,5899,6100,15.32,3.37,28,21,0,0
334321,188510246,2,6091,6028,15.38,3.45,28,21,0,0
334767,188622940,2,6035,6114,15.37,3.25,28,21,0,0
335170,188718464,2,6114,6157,15.36,3.61,28,21,0,0
335618,188830072,2,6150,5985,15.29,3.36,28,21,0,0
336060,188936778,2,5985,5985,15.34,3.52,28,22,0,0
336508,189050239,2,5978,5914,15.35,3.31,28,22,0,0
336956,189163028,2,5915,5928,15.36,3.26,28,22,0,0
337404,189270820,2,5935,6042,15.36,3.3,28,22,0,0
337814,189375780,2,6039,6000,15.35,3.21,28,22,0,0
338269,189486569,2,6008,6128,15.32,3.16,28,22,0,0
338699,189599266,2,6117,6000,15.3,3.2,28,22,0,0
339125,189704096,2,5998,5971,15.36,3.21,28,22,0,0
339496,189804065,2,5970,5957,15.35,3.2,28,22,0,0
339986,189924925,2,5952,5914,15.33,2.9,28,22,0,0
340395,190026023,2,5916,5985,15.33,3.17,28,23,0,0
340873,190138830,2,5981,5942,15.33,3.34,29,23,0,0
341325,190249457,2,5944,5971,15.39,3.16,28,23,0,0
341734,190351038,2,5974,6042,15.33,3.27,28,23,0,0
342183,190461182,2,6042,6057,15.32,3.53,28,23,0,0
343050,190681688,2,6057,6057,15.38,3.28,28,23,0,0
343488,190788635,2,6052,6000,15.31,3.35,28,23,0,0
343941,190899687,2,6003,6042,15.32,3.3,28,23,0,0
344384,191010832,2,6030,5914,15.31,3.33,28,23,0,0
344868,191125674,2,5923,6028,15.33,3.34,28,24,0,0
345278,191228302,2,6023,5971,15.38,3.21,28,24,0,0
346135,191440389,2,5972,6014,15.39,3.32,28,24,0,0
346577,191551182,2,6003,5857,15.33,3.22,29,24,0,0
347009,191658708,2,5865,5971,15.33,3.07,29,24,0,0
347446,191768022,2,5958,5785,15.33,2.91,28,24,0,0
347901,191876415,2,5784,5771,15.33,3.19,28,24,0,0
348343,191983087,2,5779,5957,15.32,2.89,28,24,0,0
348795,192093231,2,5950,5800,15.39,2.96,29,24,0,0
349239,192202633,2,5795,5742,15.33,3.13,28,25,0,0
349689,192315190,2,5749,5900,15.34,3.21,29,25,0,0
350577,192532459,2,5900,5914,15.38,3.15,28,25,0,0
351003,192639279,2,5907,5814,15.42,2.61,28,25,0,0
351441,192751247,2,5803,5700,15.41,2.59,29,25,0,0
351889,192858438,2,5703,5742,15.35,3.04,29,25,0,0
352776,193075003,2,5742,5771,15.36,2.63,29,25,0,0
353222,193186818,2,5755,5600,15.41,2.6,28,25,0,0
353663,193287466,2,5603,5714,15.35,2.78,29,25,0,0
354109,193397367,2,5711,5657,15.41,2.76,29,25,0,0
354557,193511637,2,5666,5771,15.31,2.81,29,26,0,0
354981,193614218,2,5767,5714,15.35,2.81,29,26,0,0
355865,193835986,2,5719,5842,15.3,2.85,29,26,0,0
356303,193941365,2,5842,5857,15.3,3.03,29,26,0,0
356754,194052821,2,5860,5900,15.38,3.16,29,26,0,0
357161,194158229,2,5910,6057,15.38,3.18,29,26,0,0
357572,194259466,2,6054,5914,15.35,3.07,29,26,0,0
358018,194371196,2,5920,6057,15.36,3.01,29,26,0,0
358512,194488194,2,6041,5871,15.32,2.99,29,26,0,0
358902,194589563,2,5868,5814,15.32,2.92,29,26,0,0
359327,194695411,2,5821,5957,15.37,2.71,29,27,0,0
359771,194807691,2,5951,5885,15.38,2.79,29,27,0,0
360246,194919330,2,5874,5742,15.36,2.56,29,27,0,0
361138,195138261,2,5746,5828,15.37,3.01,29,27,0,0
361586,195243211,2,5820,5728,15.42,2.65,29,27,0,0
362035,195361177,2,5747,5857,15.39,2.93,28,27,0,0
362474,195458464,2,5854,5828,15.34,2.59,29,27,0,0
363302,195669257,2,5827,5814,15.33,2.37,29,27,0,0
363779,195792055,2,5778,5585,15.32,2.48,28,27,0,0
364225,195897735,2,5599,5742,15.29,2.81,29,27,0,0
364661,195996679,2,5765,6128,15.26,3.28,29,27,0,0
365547,196216883,2,6128,6142,15.3,3.31,29,28,0,0
365953,196318572,2,6140,6085,15.3,3.58,29,28,0,0
366452,196440848,2,6085,6085,15.28,3.37,29,28,0,0
366836,196530685,2,6086,6114,15.29,3.57,29,28,0,0
367306,196652417,2,6120,6185,15.22,3.91,29,28,0,0
367699,196749206,2,6184,6142,15.27,4.07,29,28,0,0
368221,196868707,2,6140,6128,15.24,3.83,29,28,0,0
368588,196965873,2,6131,6257,15.26,4.2,29,28,0,0
369042,197078922,2,6252,6200,15.2,4.14,29,29,0,0
369441,197181195,2,6204,6300,15.28,4,29,29,0,0
369893,197289562,2,6289,5857,15.33,2.94,29,29,0,0
370300,197394287,2,5856,5842,15.3,3.41,29,29,0,0
370820,197515268,2,5844,5900,15.26,3.44,29,29,0,0
371246,197619572,2,5898,5885,15.32,3.43,29,29,0,0
371634,197725201,2,5885,5885,15.3,3.16,29,29,0,0
372124,197842093,2,5889,5942,15.35,3.15,29,29,0,0
372556,197942939,2,5940,5914,15.26,3.13,29,29,0,0
373008,198052083,2,5911,5857,15.29,3.26,29,30,0,0
373413,198155675,2,5857,5857,15.32,3.11,29,30,0,0
373870,198268307,2,5845,5671,15.3,2.83,29,30,0,0
374318,198378224,2,5692,5942,15.36,3.07,29,30,0,0
374766,198485737,2,5936,5857,15.29,3.25,29,30,0,0
375163,198591636,2,5857,5857,15.25,3.14,29,30,0,0
376026,198801851,2,5857,5914,15.29,3.1,29,30,0,0
376515,198924229,2,5923,6142,15.33,2.93,29,30,0,0
376922,199023858,2,6123,5871,15.35,3.01,29,30,0,0
377364,199131029,2,5874,5942,15.33,2.58,29,30,0,0
378220,199345263,2,5939,5671,15.28,2.75,29,31,0,0
379146,199567188,2,5672,5714,15.3,3.04,29,31,0,0
379553,199670205,2,5723,5842,15.35,2.94,29,31,0,0
380000,199780383,2,5848,5914,15.32,3.21,29,31,0,0
380443,199886669,2,5915,5985,15.32,3.4,29,31,0,0
381783,200214480,2,5987,6085,15.32,3.41,29,31,0,0
382618,200427278,2,6080,5971,15.27,3.12,29,32,0,0
383012,200529856,2,5964,5842,15.29,3.24,29,32,0,0
383466,200642390,2,5849,6042,15.33,3.08,29,32,0,0
383909,200750209,2,6022,5771,15.27,3.24,29,32,0,0
384357,200858790,2,5789,5971,15.33,3.1,29,32,0,0
384792,200961859,2,5968,5885,15.31,3.15,29,32,0,0
385291,201084662,2,5892,5971,15.31,3.14,29,32,0,0
385693,201188660,2,5975,6014,15.26,3.26,29,32,0,0
386147,201297272,2,6005,5885,15.31,3.44,29,32,0,0
386570,201404723,2,5885,5914,15.32,3.29,29,33,0,0
387043,201526704,2,5938,6171,15.22,3.48,29,33,0,0
387445,201624217,2,6161,5985,15.29,3.53,29,33,0,0
387895,201736399,2,5995,6100,15.35,3.22,29,33,0,0
388340,201841702,2,6114,6257,15.29,3.51,29,33,0,0
388603,201952826,2,6246,6142,15.26,3.46,29,33,0,0
389048,202059684,2,6138,6085,15.3,3.77,29,33,0,0
389492,202169338,2,6091,6185,15.32,3.52,29,33,0,0
389940,202274856,2,6171,6000,15.32,3.3,29,33,0,0
390384,202381309,2,6006,6100,15.27,3.38,29,33,0,0
390832,202488832,2,6087,5900,15.33,3.23,29,34,0,0
391265,202600305,2,5915,6100,15.27,3.44,29,34,0,0
391697,202711078,2,6088,5971,15.32,3.15,29,34,0,0
392145,202820129,2,5964,5900,15.31,3.22,29,34,0,0
392593,202932205,2,5906,5971,15.26,3.46,29,34,0,0
393041,203042678,2,5967,5928,15.19,3.61,29,34,0,0
393480,203154672,2,5923,5885,15.29,3.49,29,34,0,0
393889,203258865,2,5896,6128,15.3,3.6,29,34,0,0
394340,203371174,2,6094,5842,15.23,3.4,29,34,0,0
394825,203482659,2,5854,5914,15.3,3.46,29,34,0,0
395218,203586290,2,5925,6014,15.25,3.77,29,35,0,0
395651,203692469,2,6027,6157,15.29,3.84,29,35,0,0
396051,203793218,2,6155,6128,15.23,3.89,29,35,0,0
396499,203900296,2,6128,6128,15.23,3.81,29,35,0,0
396947,204010461,2,6127,6114,15.24,3.91,29,35,0,0
397871,204236408,2,6111,6028,15.3,3.59,29,35,0,0
398313,204342242,2,6030,6057,15.26,3.75,29,35,0,0
398766,204453292,2,6059,6085,15.25,3.46,29,35,0,0
399241,204571906,2,6070,5900,15.33,3.05,29,36,0,0
399625,204667611,2,5900,5900,15.25,3.17,29,36,0,0
400107,204790212,2,5892,5814,15.29,3.17,29,36,0,0
400554,204896279,2,5819,5871,15.25,2.94,29,36,0,0
401442,205116044,2,5868,5828,15.25,2.88,29,36,0,0
401886,205223286,2,5820,5742,15.33,2.69,29,36,0,0
402294,205328614,2,5742,5742,15.29,3.09,29,36,0,0
403229,205556194,2,5745,5828,15.33,3.08,29,36,0,0
403677,205665662,2,5834,5900,15.31,3.02,29,37,0,0
404085,205770226,2,5895,5842,15.27,3.09,29,37,0,0
404537,205881808,2,5847,5928,15.33,3.16,29,37,0,0
404943,205985619,2,5928,5928,15.28,3.09,29,37,0,0
405390,206094406,2,5926,5885,15.27,3.38,29,37,0,0
405815,206204631,2,5887,5942,15.3,3.25,29,37,0,0
406248,206319457,2,5947,6057,15.22,3.62,29,37,0,0
406733,206432010,2,6084,6371,15.24,4.51,29,37,0,0
407134,206537283,2,6400,6671,15.23,5.2,29,37,0,0
407579,206642492,2,6672,6785,15.21,5.1,29,38,0,0
408028,206754325,2,6776,6571,15.23,4.11,29,38,0,0
408471,206859195,2,6566,6242,15.23,3.06,29,38,0,0
408914,206969665,2,6236,5885,15.23,2.54,29,38,0,0
409406,207086977,2,5859,5514,15.26,2.24,29,38,0,0
409798,207187478,2,5512,5428,15.31,2.01,29,38,0,0
410704,207410432,2,5420,5028,15.26,1.89,29,38,0,0
411143,207518346,2,5029,5128,15.25,2.02,29,38,0,0
411631,207634014,2,5130,5157,15.27,2.2,29,38,0,0
412039,207735178,2,5159,5214,15.3,2.35,29,38,0,0
412522,207848384,2,5222,5314,15.32,2.56,29,38,0,0
412926,207950577,2,5322,5485,15.28,2.9,29,38,0,0
413377,208060442,2,5494,5628,15.33,2.86,29,39,0,0
413808,208168679,2,5626,5600,15.26,2.57,29,39,0,0
414236,208278262,2,5600,5600,15.3,2.58,29,39,0,0
414632,208377402,2,5598,5528,15.24,2.79,29,39,0,0
415121,208497268,2,5549,5742,15.24,2.73,29,39,0,0
415529,208601194,2,5744,5771,15.26,3.13,29,39,0,0
415938,208704598,2,5770,5728,15.28,2.71,29,39,0,0
416427,208828581,2,5728,5728,15.3,2.53,29,39,0,0
417278,209032172,2,5725,5685,15.26,2.5,29,39,0,0
417713,209138058,2,5686,5714,15.3,2.71,29,39,0,0
418140,209248375,2,5713,5700,15.31,2.69,29,39,0,0
418571,209360212,2,5709,5885,15.25,3.12,29,40,0,0
419026,209470235,2,5882,5857,15.27,2.84,29,40,0,0
419427,209569688,2,5858,5914,15.22,3.21,29,40,0,0
419913,209686625,2,5913,5871,15.19,3.17,29,40,0,0
420356,209794212,2,5871,5885,15.17,3.29,29,40,0,0
420806,209902264,2,5888,5957,15.2,3.62,29,40,0,0
421244,210010431,2,5965,6142,15.26,3.46,29,40,0,0
422545,210343099,2,6138,5842,15.27,3.48,29,40,0,0
422991,210448590,2,5842,5842,15.23,3.33,29,41,0,0
423472,210560577,2,5840,5828,15.3,3.03,29,41,0,0
423921,210669192,2,5832,5885,15.26,3.29,29,41,0,0
424819,210890614,2,5881,5814,15.27,2.99,29,41,0,0
425220,210990300,2,5806,5671,15.26,2.87,29,41,0,0
425664,211103491,2,5671,5728,15.3,2.95,29,41,0,0
426091,211209696,2,5730,5871,15.23,3.34,29,41,0,0
426514,211318872,2,5871,5871,15.31,2.98,29,41,0,0
427004,211435434,2,5867,5828,15.26,3.07,29,41,0,0
427445,211542472,2,5836,5942,15.24,3.21,29,42,0,0
427898,211651051,2,5934,5814,15.24,3,29,42,0,0
428343,211760419,2,5812,5800,15.25,2.96,29,42,0,0
428789,211866874,2,5807,5914,15.25,3.42,29,42,0,0
429239,211980439,2,5910,5871,15.25,3.16,29,42,0,0
429640,212077192,2,5870,5842,15.22,2.96,29,42,0,0
430107,212195265,2,5836,5757,15.22,3.06,29,42,0,0
430541,212306604,2,5753,5714,15.19,3.15,29,42,0,0
430943,212409129,2,5719,5800,15.27,3.36,29,42,0,0
431346,212511318,2,5801,5828,15.18,3.29,29,42,0,0
431794,212618295,2,5839,6100,15.3,3.9,29,42,0,0
432238,212730001,2,6096,6028,15.2,3.83,29,43,0,0
432683,212836605,2,6029,6085,15.2,3.76,29,43,0,0
433171,212955226,2,6086,6114,15.19,3.5,29,43,0,0
433622,213062081,2,6112,6100,15.27,3.39,29,43,0,0
434030,213166834,2,6103,6171,15.19,3.42,29,43,0,0
434479,213276698,2,6156,5814,15.21,3.31,29,43,0,0
434919,213385983,2,5817,5857,15.26,3.25,29,43,0,0
435320,213483704,2,5858,5957,15.2,3.44,29,43,0,0
435805,213597703,2,5958,5985,15.27,3.28,29,43,0,0
436212,213699616,2,5984,5928,15.24,3.4,29,44,0,0
436316,213811447,2,5935,6100,15.23,3.55,29,44,0,0
436753,213916787,2,6098,6042,15.22,3.56,29,44,0,0
437208,214028682,2,6033,5857,15.23,3.31,29,44,0,0
437661,214144293,2,5860,5900,15.22,3.29,29,44,0,0
438106,214249329,2,5901,5914,15.22,3.39,29,44,0,0
438502,214351264,2,5909,5642,15.25,3.19,29,44,0,0
438930,214459182,2,5644,5814,15.29,3.09,29,44,0,0
439394,214569816,2,5811,5714,15.23,3.1,29,44,0,0
439849,214683880,2,5710,5642,15.25,3.32,29,44,0,0
440328,214797088,2,5648,5785,15.23,3.45,29,45,0,0
440776,214909291,2,5773,5685,15.22,3.24,29,45,0,0
441225,215017833,2,5685,5685,15.22,3.1,29,45,0,0
441629,215119841,2,5690,5814,15.2,3.56,29,45,0,0
442079,215229518,2,5822,5928,15.26,3.58,29,45,0,0
442511,215333857,2,5931,6014,15.23,3.68,30,45,0,0
442944,215444035,2,6024,6171,15.19,3.57,29,45,0,0
443340,215548703,2,6165,5928,15.25,3.57,29,45,0,0
443831,215665666,2,5940,6071,15.24,3.91,30,45,0,0
444205,215768616,2,6071,6071,15.25,3.86,30,45,0,0
444647,215874173,2,6078,6185,15.22,3.9,29,46,0,0
445090,215983656,2,6194,6328,15.2,3.9,30,46,0,0
445541,216092869,2,6328,6328,15.22,3.92,29,46,0,0
445989,216205690,2,6315,6128,15.26,3.83,29,46,0,0
446397,216311669,2,6126,6100,15.22,3.65,29,46,0,0
446844,216418261,2,6098,6014,15.22,3.49,30,46,0,0
447321,216532024,2,6004,5928,15.19,3.58,29,46,0,0
447774,216639477,2,5936,6057,15.19,3.61,29,46,0,0
448214,216763489,2,6061,6100,15.23,3.8,30,46,0,0
448597,216861476,2,6103,6242,15.22,3.42,29,47,0,0
449043,216976618,2,6216,6014,15.23,3.11,30,47,0,0
449491,217086199,2,6007,5914,15.25,3.06,30,47,0,0
449932,217187714,2,5915,5957,15.25,3.13,30,47,0,0
450385,217302385,2,5958,5985,15.2,3.04,30,47,0,0
450866,217416589,2,5973,5814,15.22,3.09,29,47,0,0
451271,217520634,2,5816,6000,15.3,2.92,29,47,0,0
451721,217627070,2,5974,5742,15.3,2.79,29,47,0,0
452583,217844964,2,5750,5942,15.2,3.07,30,47,0,0
453021,217954675,2,5930,5700,15.25,2.94,30,48,0,0
453456,218057026,2,5708,5842,15.26,3.24,30,48,0,0
454315,218273715,2,5846,5942,15.23,3.5,30,48,0,0
454759,218382480,2,5939,5871,15.19,3.55,30,48,0,0
455251,218500579,2,5877,5942,15.17,3.4,30,48,0,0
456099,218717634,2,5949,6100,15.22,3.46,30,48,0,0
456909,218925487,2,6097,6014,15.22,3.92,30,48,0,0
457360,219039290,2,6020,6142,15.22,4.08,30,49,0,0
457806,219150826,2,6142,6142,15.23,3.55,29,49,0,0
458258,219261129,2,6136,6028,15.23,3.4,30,49,0,0
458707,219374851,2,6021,5957,15.22,3.33,30,49,0,0
459119,219476298,2,5952,5857,15.25,3.38,30,49,0,0
459562,219586309,2,5864,6014,15.25,3.36,30,49,0,0
460012,219697209,2,6022,6185,15.17,3.9,30,49,0,0
460443,219811722,2,6191,6257,15.26,3.75,30,49,0,0
460870,219920652,2,6245,6128,15.27,3.78,30,49,0,0
461322,220029422,2,6138,6242,15.25,3.58,30,50,0,0
461727,220133260,2,6241,6228,15.22,3.55,30,50,0,0
462176,220242404,2,6220,6114,15.25,3.3,30,50,0,0
462622,220353609,2,6117,6200,15.27,3.5,30,50,0,0
463111,220467613,2,6194,6142,15.25,3.62,30,50,0,0
463556,220576032,2,6147,6228,15.27,3.5,30,50,0,0
464429,220795234,2,6219,5957,15.19,3.28,30,50,0,0
464860,220903457,2,5959,6014,15.23,3.47,30,50,0,0
465304,221015326,2,6019,6100,15.25,3.4,30,51,0,0
465708,221117926,2,6098,6071,15.22,3.53,30,51,0,0
466642,221343217,2,6072,6100,15.28,3.45,30,51,0,0
467048,221441071,2,6102,6157,15.25,3.63,30,51,0,0
467494,221552717,2,6150,6057,15.21,3.55,30,51,0,0
467946,221660054,2,6054,5985,15.19,3.63,30,51,0,0
468808,221879709,2,5983,5942,15.29,3.16,30,51,0,0
469248,221990880,2,5942,5942,15.26,3.36,30,52,0,0
469659,222099091,2,5950,6128,15.29,3.57,30,52,0,0
470142,222210674,2,6121,6057,15.3,3.39,30,52,0,0
470544,222312494,2,6055,5957,15.25,3.18,30,52,0,0
470994,222429250,2,5935,5742,15.22,3.11,30,52,0,0
471396,222527087,2,5744,5857,15.19,3.24,30,52,0,0
471882,222638308,2,5855,5814,15.26,2.96,30,52,0,0
472317,222754216,2,5822,5900,15.25,3.23,30,52,0,0
472745,222859443,2,5910,6014,15.27,3.42,30,52,0,0
473178,222968902,2,6014,6014,15.24,3.56,30,52,0,0
473621,223077090,2,6017,6042,15.19,3.57,30,53,0,0
474064,223187026,2,6066,6257,15.2,3.92,30,53,0,0
474518,223294676,2,6253,6228,15.25,3.78,30,53,0,0
474918,223398880,2,6216,6128,15.2,3.5,30,53,0,0
475376,223511224,2,6137,6242,15.22,3.36,30,53,0,0
475741,223607452,2,6239,6057,15.19,3.4,30,53,0,0
476227,223723327,2,6062,6100,15.22,3.37,30,53,0,0
476656,223834776,2,6097,6071,15.25,3.27,30,53,0,0
477085,223944231,2,6052,5885,15.23,3.16,30,53,0,0
477495,224044194,2,5889,5928,15.29,3.14,30,53,0,0
477938,224152255,2,5926,5914,15.23,3.26,30,54,0,0
478424,224268458,2,5932,6142,15.25,3.07,30,54,0,0
478821,224367045,2,6129,6014,15.27,3.35,30,54,0,0
479230,224467623,2,6012,5942,15.18,3.21,30,54,0,0
479677,224577600,2,5944,6071,15.2,3.38,30,54,0,0
480126,224686254,2,6068,5914,15.24,3.16,30,54,0,0
480553,224794659,2,5918,6014,15.25,3.23,30,54,0,0
481016,224911396,2,5999,5914,15.16,3.19,30,54,0,0
481420,225010659,2,5918,5985,15.19,3.13,30,54,0,0
481868,225123825,2,5971,5828,15.19,2.85,30,54,0,0
482307,225224703,2,5820,5728,15.21,3.25,30,55,0,0
482721,225328427,2,5733,5971,15.17,3.23,30,55,0,0
483171,225443395,2,5976,6042,15.18,3.38,30,55,0,0
483579,225544224,2,6038,5928,15.18,3.17,30,55,0,0
484033,225659129,2,5924,5885,15.14,3.15,30,55,0,0
484468,225772462,2,5885,5885,15.26,3.3,30,55,0,0
484895,225876975,2,5885,5885,15.16,3.2,30,55,0,0
485296,225981555,2,5881,5800,15.16,3.43,30,55,0,0
485787,226097259,2,5800,5800,15.24,3.09,30,55,0,0
486271,226214616,2,5808,5885,15.22,3.05,30,55,0,0
486671,226312864,2,5874,5714,15.26,2.8,30,55,0,0
487119,226426214,2,5735,5957,15.24,2.98,30,56,0,0
487569,226538327,2,5938,5742,15.23,2.91,30,56,0,0
488053,226650405,2,5738,5700,15.25,2.81,30,56,0,0
488869,226858494,2,5699,5671,15.3,2.82,30,56,0,0
489305,226966572,2,5652,5471,15.27,2.47,30,56,0,0
489755,227075210,2,5485,5671,15.2,2.71,30,56,0,0
490157,227176684,2,5670,5614,15.18,2.59,30,56,0,0
490604,227286022,2,5613,5585,15.23,2.7,30,56,0,0
491088,227405389,2,5585,5585,15.2,2.79,30,56,0,0
491535,227514700,2,5586,5614,15.22,2.62,30,56,0,0
491964,227622222,2,5613,5600,15.25,2.44,30,56,0,0
492395,227733480,2,5571,5300,15.16,2.52,30,57,0,0
492847,227841702,2,5306,5371,15.2,2.37,30,57,0,0
493291,227951698,2,5362,5271,15.19,2.42,30,57,0,0
493746,228063288,2,5290,5485,15.26,2.6,30,57,0,0
494138,228161561,2,5481,5328,15.29,2.41,30,57,0,0
494633,228279247,2,5329,5357,15.28,2.01,30,57,0,0
495031,228378058,2,5353,5214,15.29,2.17,30,57,0,0
495484,228489862,2,5214,5257,15.28,2.1,30,57,0,0
495972,228607283,2,5266,5371,15.2,2.51,30,57,0,0
496381,228708712,2,5371,5385,15.16,2.23,30,57,0,0
496809,228824426,2,5387,5414,15.23,2.43,30,57,0,0
497205,228930561,2,5417,5457,15.25,2.27,30,57,0,0
497655,229040235,2,5435,5214,15.24,2.03,30,57,0,0
498054,229137222,2,5212,5157,15.25,2.14,30,57,0,0
498545,229254580,2,5180,5428,15.2,2.51,30,58,0,0
498947,229355463,2,5430,5557,15.24,2.73,30,58,0,0
499395,229464050,2,5553,5514,15.17,2.85,30,58,0,0
499829,229575791,2,5516,5557,15.25,2.55,30,58,0,0
500257,229683269,2,5538,5357,15.22,2.52,30,58,0,0
500700,229792843,2,5365,5485,15.23,2.3,30,58,0,0
501148,229905960,2,5477,5371,15.24,2.21,30,58,0,0
501552,230003079,2,5368,5314,15.24,2.33,30,58,0,0
501994,230111203,2,5319,5385,15.23,2.39,30,58,0,0
502445,230220570,2,5387,5414,15.23,2.52,30,58,0,0
502847,230323443,2,5412,5357,15.23,2.28,30,58,0,0
503342,230443227,2,5357,5357,15.24,2.56,30,58,0,0
503744,230548631,2,5377,5657,15.2,2.75,30,58,0,0
504176,230660396,2,5652,5585,15.29,2.53,30,58,0,0
504575,230763201,2,5583,5571,15.22,2.58,30,59,0,0
505058,230881062,2,5602,5771,15.18,2.83,30,59,0,0
505465,230984246,2,5776,5828,15.18,2.86,30,59,0,0
505871,231083218,2,5830,5871,15.2,2.94,30,59,0,0
506322,231198772,2,5887,6057,15.11,3.33,30,59,0,0
506729,231297657,2,6056,6042,15.11,3.31,30,59,0,0
507213,231415831,2,6049,6128,15.17,3.41,30,59,0,0
507655,231529246,2,6126,6114,15.22,3.33,30,59,0,0
508112,231637224,2,6096,5971,15.15,3.17,30,59,0,0
508501,231741650,2,5969,5814,15.23,3.02,30,59,0,0
509393,231955025,2,5814,5842,15.17,3.04,30,60,0,0
510320,232182827,2,5836,5728,15.2,2.73,30,60,0,0
510767,232287387,2,5729,5742,15.23,3.29,30,60,0,0
511173,232392265,2,5747,5814,15.2,2.99,30,60,0,0
511622,232499170,2,5818,5885,15.19,3.29,30,60,0,0
512054,232609696,2,5884,5871,15.27,2.83,30,60,0,0
512515,232725678,2,5864,5800,15.23,2.59,30,60,0,0
512922,232825041,2,5781,5542,15.2,2.75,30,60,0,0
513370,232936833,2,5560,5800,15.2,2.76,30,60,0,0
514260,233153691,2,5803,5871,15.18,3.15,30,61,0,0
514707,233261436,2,5874,5914,15.2,3.23,30,61,0,0
515147,233369687,2,5914,5914,15.15,3.18,30,61,0,0
516003,233584447,2,5914,5914,15.23,3.66,30,61,0,0
516448,233691570,2,5913,5885,15.18,3.57,30,61,0,0
516908,233804480,2,5891,5971,15.19,3.68,30,61,0,0
517342,233919402,2,5974,6014,15.17,3.79,30,61,0,0
517745,234015673,2,6016,6114,15.17,3.49,30,61,0,0
518189,234127094,2,6108,5900,15.22,3.29,30,61,0,0
518637,234235715,2,5901,5928,15.24,3.08,30,62,0,0
519077,234344611,2,5923,5828,15.2,2.98,30,62,0,0
519527,234453823,2,5826,5728,15.14,2.84,30,62,0,0
520015,234572831,2,5720,5642,15.17,2.74,30,62,0,0
520460,234681292,2,5646,5714,15.2,3.01,30,62,0,0
520867,234787054,2,5712,5685,15.22,3.11,30,62,0,0
521317,234901284,2,5692,5757,15.25,2.97,30,62,0,0
521743,235008298,2,5766,5957,15.22,3.21,30,62,0,0
522132,235110642,2,5954,5871,15.22,3.29,30,62,0,0
522583,235221411,2,5871,5914,15.24,3.27,30,62,0,0
523029,235332872,2,5919,6042,15.19,3.48,30,63,0,0
523476,235438401,2,6038,5828,15.17,3.26,30,63,0,0
523925,235550081,2,5827,5785,15.14,3.27,30,63,0,0
524417,235666406,2,5787,5814,15.11,3.17,30,63,0,0
524851,235770178,2,5812,5785,15.22,3.16,30,63,0,0
525303,235881301,2,5780,5671,15.19,2.84,30,63,0,0
525746,235990280,2,5670,5657,15.2,2.93,30,63,0,0
526194,236098583,2,5647,5514,15.21,2.6,30,63,0,0
526639,236209246,2,5510,5471,15.16,2.53,30,63,0,0
527082,236318483,2,5478,5557,15.17,2.7,30,63,0,0
527532,236426199,2,5554,5528,15.21,2.45,30,63,0,0
528420,236642066,2,5525,5400,15.17,2.59,30,64,0,0
528856,236752312,2,5415,5628,15.17,2.7,30,64,0,0
529726,236970308,2,5630,5714,15.2,3.02,30,64,0,0
530176,237080656,2,5720,5785,15.22,3,30,64,0,0
530575,237182372,2,5786,5842,15.22,2.99,30,64,0,0
531055,237292194,2,5841,5828,15.26,2.85,30,64,0,0
531499,237403715,2,5813,5600,15.2,2.42,30,64,0,0
531986,237523188,2,5603,5628,15.25,2.37,30,64,0,0
532391,237621776,2,5620,5514,15.25,2.55,30,64,0,0
532838,237733566,2,5512,5385,15.24,2.44,30,64,0,0
533300,237845655,2,5393,5514,15.2,2.61,30,65,0,0
533733,237953560,2,5505,5400,15.19,2.55,30,65,0,0
534183,238062253,2,5413,5542,15.22,2.7,30,65,0,0
534630,238173555,2,5548,5614,15.22,2.68,29,65,0,0
535076,238286788,2,5630,5742,15.24,2.6,30,65,0,0
535476,238382854,2,5739,5614,15.19,2.83,30,65,0,0
535997,238505177,2,5620,5685,15.25,2.5,30,65,0,0
536425,238615645,2,5690,5742,15.25,2.5,30,65,0,0
536854,238725081,2,5764,5942,15.15,2.92,30,65,0,0
537259,238825433,2,5937,5742,15.16,2.71,30,65,0,0
537711,238936256,2,5742,5757,15.21,2.86,30,65,0,0
538156,239042287,2,5758,5785,15.2,2.77,30,65,0,0
538647,239161600,2,5797,5914,15.23,2.76,30,65,0,0
539053,239262708,2,5914,5914,15.17,2.79,30,66,0,0
539874,239475101,2,5908,5800,15.16,2.95,30,66,0,0
540310,239582244,2,5795,5742,15.13,2.75,29,66,0,0
540760,239691634,2,5750,5914,15.17,3.26,30,66,0,0
541163,239797797,2,5914,5942,15.13,3.38,30,66,0,0
541613,239903139,2,5939,5857,15.17,3.31,30,66,0,0
542062,240020401,2,5872,6014,15.12,3.31,30,66,0,0
542512,240129459,2,6014,6014,15.17,3.36,30,66,0,0
542953,240237584,2,6000,5842,15.23,2.84,30,66,0,0
543358,240340785,2,5848,5971,15.17,2.77,30,66,0,0
543853,240460272,2,5954,5714,15.23,2.98,30,67,0,0
544251,240556921,2,5713,5685,15.19,2.72,30,67,0,0
545139,240774705,2,5685,5728,15.23,2.84,30,67,0,0
545637,240894698,2,5728,5728,15.23,2.73,30,67,0,0
546062,241004282,2,5738,5828,15.23,2.79,30,67,0,0
546898,241213900,2,5830,5885,15.18,3.13,30,67,0,0
547345,241329606,2,5873,5757,15.22,2.94,30,67,0,0
547788,241433470,2,5762,5885,15.2,3.02,30,67,0,0
548234,241546029,2,5893,6014,15.22,2.98,30,67,0,0
548681,241656182,2,6010,5971,15.23,3.14,30,68,0,0
549123,241765216,2,5981,6114,15.16,2.96,30,68,0,0
549534,241868264,2,6107,5785,15.16,2.92,30,68,0,0
549970,241978247,2,5784,5771,15.22,2.93,30,68,0,0
550428,242086571,2,5773,5828,15.22,2.75,30,68,0,0
550836,242194288,2,5817,5685,15.17,2.83,29,68,0,0
551282,242305391,2,5690,5757,15.18,2.85,30,68,0,0
551691,242405305,2,5758,5828,15.13,2.79,30,68,0,0
552140,242519652,2,5823,5714,15.2,2.85,29,68,0,0
552587,242627444,2,5716,5742,15.17,2.88,30,68,0,0
552984,242727864,2,5743,5828,15.21,2.74,30,68,0,0
553453,242844448,2,5820,5742,15.13,2.71,30,68,0,0
553890,242954387,2,5742,5742,15.19,2.61,30,69,0,0
554342,243063010,2,5739,5714,15.19,2.68,30,69,0,0
554744,243165792,2,5713,5700,15.1,2.59,29,69,0,0
555190,243272028,2,5705,5942,15.2,2.83,30,69,0,0
555680,243390231,2,5917,5671,15.17,2.86,30,69,0,0
556085,243490818,2,5673,5814,15.17,2.81,30,69,0,0
556571,243606788,2,5834,6042,15.18,2.88,30,69,0,0
556964,243707808,2,6041,6014,15.22,2.58,30,69,0,0
557395,243816055,2,6009,5728,15.17,2.7,29,69,0,0
557825,243925256,2,5729,5757,15.17,2.86,30,69,0,0
558274,244033621,2,5754,5657,15.19,2.6,29,69,0,0
558717,244139686,2,5658,5771,15.25,2.6,30,69,0,0
559569,244352953,2,5764,5500,15.23,2.28,29,70,0,0
560019,244462044,2,5500,5514,15.26,2.37,29,70,0,0
560450,244569896,2,5510,5442,15.32,2.37,30,70,0,0
560879,244676787,2,5435,5028,15.64,0.91,30,70,0,0
561316,244783222,2,4996,3128,15.38,0.51,30,70,0,0
562252,245011463,2,3113,2700,15.58,0.64,30,70,0,0
562699,245124302,2,2689,2585,15.6,0.24,29,70,0,0
563107,245224403,2,2579,2457,15.58,0.25,29,70,0,0
563546,245331292,2,2462,2600,15.59,0.38,30,70,0,0
563977,245439167,2,2597,2542,15.61,0.26,30,70,0,0
564411,245549852,2,2541,2528,15.6,0.31,29,70,0,0
564862,245657296,2,2528,2542,15.61,0.31,30,70,0,0
565302,245768251,2,2536,2485,15.6,0.28,29,70,0,0
565793,245878698,2,2488,2528,15.61,0.3,29,70,0,0
566195,245982304,2,2527,2514,15.62,0.28,29,70,0,0
566646,246095717,2,2514,2514,15.62,0.31,29,70,0,0
567046,246194843,2,2514,2514,15.63,0.3,30,70,0,0
567538,246313789,2,2517,2542,15.61,0.37,29,70,0,0
567939,246406718,2,2543,2628,15.6,0.4,29,70,0,0
568384,246517484,2,2631,2700,15.63,0.44,29,70,0,0
568836,246631236,2,2701,2714,15.63,0.38,30,70,0,0
569280,246740312,2,2717,2771,15.63,0.42,29,70,0,0
569733,246849296,2,2710,2000,15.7,0.01,29,70,0,0
570176,246955602,2,1964,1500,15.69,0,29,70,0,0
570669,247071793,2,1490,1328,15.67,0.06,29,70,0,0
571056,247170874,2,1327,1300,15.68,0.08,29,70,0,0
571927,247379748,2,1300,1300,15.69,0.09,29,70,0,0
572426,247503232,2,1298,1285,15.68,0.09,29,70,0,0
572827,247605685,2,1285,1285,15.68,0.09,29,70,0,0
573269,247713909,2,1285,1285,15.69,0.09,29,70,0,0
573721,247823848,2,1285,1285,15.69,0.09,29,70,0,0
574131,247929705,2,1285,1285,15.69,0.09,29,70,0,0
574577,248034858,2,1285,1300,15.69,0.09,29,70,0,0
575018,248144309,2,1299,1285,15.69,0.09,29,70,0,0
575489,248261288,2,1286,1300,15.7,0.09,29,70,0,0
575886,248363268,2,1300,1300,15.69,0.09,29,70,0,0
576333,248469606,2,1300,1300,15.7,0.09,29,70,0,0
576783,248579075,2,1300,1300,15.7,0.09,29,70,0,0
577235,248687646,2,1300,1300,15.7,0.09,29,70,0,0
577682,248799247,2,1300,1300,15.7,0.09,29,70,0,0
578136,248909239,2,1300,1300,15.7,0.09,29,70,0,0
578555,249011239,2,1300,1300,15.7,0.09,29,70,0,0
578982,249115798,2,1300,1300,15.71,0.09,29,70,0,0
579426,249225828,2,1300,1300,15.72,0.09,29,70,0,0
579878,249337403,2,1300,1300,15.72,0.09,29,70,0,0
580329,249445558,2,1300,1300,15.7,0.09,29,70,0,0
580727,249544876,2,1299,1285,15.72,0.09,29,70,0,0
581220,249660808,2,1285,1285,15.72,0.09,29,70,0,0
581653,249766860,2,1285,1285,15.72,0.09,29,70,0,0
582048,249868054,2,1285,1300,15.72,0.09,29,70,0,0
582486,249977056,2,1300,1300,15.72,0.09,29,70,0,0
582938,250086203,2,1300,1300,15.72,0.09,29,70,0,0
583388,250196650,2,1300,1300,15.73,0.09,29,70,0,0
583835,250302843,2,1300,1300,15.73,0.09,29,70,0,0
584284,250408037,2,1299,1285,15.73,0.09,29,70,0,0
584735,250521195,2,1285,1300,15.73,0.09,29,70,0,0
585169,250630661,2,1299,1285,15.73,0.09,29,70,0,0
585595,250735666,2,1285,1300,15.73,0.09,29,70,0,0
586046,250841490,2,1300,1300,15.73,0.09,29,70,0,0
586491,250949249,2,1300,1300,15.73,0.09,29,70,0,0
586941,251057651,2,1300,1300,15.73,0.09,29,70,0,0
587873,251280785,2,1280,842,15.76,0.03,29,70,0,0
588314,251390565,2,790,257,15.75,0,29,70,0,0
588749,251496416,2,253,0,15.75,0.02,29,70,0,0
589195,251604048,2,0,0,15.75,0.02,29,70,0,0
589691,251718991,2,0,0,15.76,0.03,29,70,0,0
590145,251827589,2,0,0,15.76,0.03,28,70,0,0
590593,251931296,2,0,0,15.75,0.03,29,70,0,0
591046,252036631,2,0,0,15.76,0.02,29,70,0,0
591529,252150068,2,0,0,15.75,0.02,29,70,0,0
591960,252252198,2,0,0,15.76,0.02,29,70,0,0
592442,252367865,2,0,0,15.76,0.02,29,70,0,0
592897,252474640,2,0,0,15.77,0.03,29,70,0,0
593308,252574772,2,0,0,15.76,0.03,28,70,0,0
593805,252688449,2,0,0,15.76,0.02,29,70,0,0
594257,252797026,2,0,0,15.77,0.02,28,70,0,0
594711,252900824,2,0,0,15.76,0.02,28,70,0,0
595160,253007821,2,0,0,15.77,0.02,28,70,0,0
595655,253125818,2,0,0,15.77,0.02,29,70,0,0
596086,253229896,2,0,0,15.77,0.02,28,70,0,0
596529,253339637,2,0,0,15.77,0.02,28,70,0,0
596980,253445566,2,0,0,15.77,0.02,28,70,0,0
597431,253552804,2,0,0,15.77,0.02,28,70,0,0
597885,253657432,2,0,0,15.77,0.03,29,70,0,0
598374,253770274,2,0,0,15.77,0.03,28,70,0,0
598828,253874819,2,0,0,15.77,0.03,28,70,0,0
599265,253983106,2,0,0,15.77,0.02,28,70,0,0
599696,254086588,2,0,0,15.77,0.03,28,70,0,0
600147,254197842,2,0,0,15.78,0.03,28,70,0,0
600600,254302484,2,0,0,15.77,0.02,28,70,0,0
600955,254414167,2,0,0,15.78,0.02,28,70,0,0
601409,254518875,2,0,0,15.78,0.03,28,70,0,0
602310,254736850,2,0,0,15.79,0.03,28,70,0,0
602764,254842713,2,0,0,15.78,0.02,28,70,0,0
603204,254951265,2,0,0,15.79,0.02,28,70,0,0
603677,255066205,2,0,0,15.78,0.02,28,70,0,0
