LineNo,TimeUS,Instance,RPM,RawRPM,Volt,Curr,Temp,CTot,MotTemp,Err
1595,2.1799e+07,5,0,0,16.36,0.04,20,0,0,0
2048,2.1912e+07,5,0,0,16.37,0.04,20,0,0,0
2460,2.2014e+07,5,0,0,16.37,0.05,20,0,0,0
2911,2.2125e+07,5,0,0,16.37,0.05,20,0,0,0
3363,2.2236e+07,5,0,0,16.36,0.05,20,0,0,0
3777,2.2337e+07,5,0,0,16.37,0.04,20,0,0,0
4193,2.244e+07,5,0,0,16.36,0.04,20,0,0,0
4652,2.2554e+07,5,0,0,16.37,0.04,20,0,0,0
5067,2.2656e+07,5,0,0,16.36,0.05,20,0,0,0
5518,2.2768e+07,5,0,0,16.36,0.04,20,0,0,0
5938,2.2877e+07,5,0,0,16.37,0.04,20,0,0,0
6352,2.2978e+07,5,0,0,16.37,0.04,20,0,0,0
6808,2.3091e+07,5,0,0,16.36,0.04,20,0,0,0
7225,2.3196e+07,5,0,0,16.36,0.04,20,0,0,0
8080,2.3412e+07,5,0,0,16.36,0.04,20,0,0,0
8528,2.3519e+07,5,0,0,16.36,0.04,20,0,0,0
8937,2.362e+07,5,0,0,16.36,0.04,20,0,0,0
9700,2.3827e+07,5,0,0,16.37,0.04,20,0,0,0
10151,2.3939e+07,5,0,0,16.37,0.04,20,0,0,0
10567,2.4042e+07,5,0,0,16.37,0.04,20,0,0,0
10983,2.4147e+07,5,0,0,16.38,0.04,20,0,0,0
11433,2.4262e+07,5,0,0,16.37,0.04,20,0,0,0
11851,2.4365e+07,5,0,0,16.37,0.04,20,0,0,0
12304,2.4477e+07,5,0,0,16.37,0.04,20,0,0,0
12722,2.4583e+07,5,0,0,16.36,0.04,20,0,0,0
13140,2.4688e+07,5,0,0,16.37,0.04,20,0,0,0
13551,2.4791e+07,5,0,0,16.36,0.04,20,0,0,0
13964,2.4891e+07,5,0,0,16.36,0.04,20,0,0,0
14415,2.5005e+07,5,0,0,16.37,0.04,21,0,0,0
14825,2.5107e+07,5,0,0,16.36,0.04,20,0,0,0
15284,2.5222e+07,5,0,0,16.36,0.04,20,0,0,0
15704,2.5326e+07,5,0,0,16.36,0.04,21,0,0,0
16121,2.5429e+07,5,0,0,16.37,0.04,20,0,0,0
16534,2.5532e+07,5,0,0,16.36,0.04,21,0,0,0
16987,2.5647e+07,5,0,0,16.36,0.04,21,0,0,0
17405,2.5752e+07,5,0,0,16.37,0.04,20,0,0,0
17818,2.5855e+07,5,0,0,16.37,0.04,20,0,0,0
18232,2.5959e+07,5,0,0,16.37,0.04,20,0,0,0
18649,2.6066e+07,5,0,0,16.36,0.04,21,0,0,0
19101,2.6178e+07,5,0,0,16.36,0.04,20,0,0,0
19508,2.628e+07,5,0,0,16.36,0.04,20,0,0,0
19933,2.6386e+07,5,0,0,16.37,0.04,20,0,0,0
20386,2.6501e+07,5,0,0,16.36,0.04,21,0,0,0
20799,2.6602e+07,5,0,0,16.37,0.05,20,0,0,0
21219,2.6707e+07,5,0,0,16.36,0.04,21,0,0,0
21673,2.6821e+07,5,0,0,16.37,0.04,20,0,0,0
22089,2.6925e+07,5,0,0,16.36,0.04,21,0,0,0
22499,2.703e+07,5,0,0,16.36,0.04,20,0,0,0
22953,2.7142e+07,5,0,0,16.37,0.04,21,0,0,0
23362,2.7243e+07,5,0,0,16.36,0.04,20,0,0,0
23751,2.7344e+07,5,0,0,16.36,0.04,20,0,0,0
24239,2.7463e+07,5,0,0,16.36,0.04,20,0,0,0
24655,2.757e+07,5,0,0,16.36,0.04,20,0,0,0
25477,2.7777e+07,5,0,0,16.36,0.04,21,0,0,0
25934,2.7894e+07,5,0,0,16.36,0.05,21,0,0,0
26306,2.7991e+07,5,0,0,16.37,0.05,21,0,0,0
26718,2.8093e+07,5,0,0,16.38,0.04,21,0,0,0
27174,2.8207e+07,5,0,0,16.36,0.04,21,0,0,0
27587,2.8309e+07,5,0,0,16.37,0.04,21,0,0,0
28038,2.8421e+07,5,0,0,16.36,0.04,21,0,0,0
28448,2.8522e+07,5,0,0,16.36,0.04,21,0,0,0
28901,2.8635e+07,5,0,0,16.36,0.04,21,0,0,0
29314,2.8739e+07,5,0,0,16.36,0.04,20,0,0,0
29721,2.8841e+07,5,0,0,16.37,0.04,21,0,0,0
30214,2.8959e+07,5,0,0,16.36,0.04,21,0,0,0
30628,2.9062e+07,5,0,0,16.36,0.04,21,0,0,0
31039,2.9163e+07,5,0,0,16.37,0.04,21,0,0,0
31493,2.9277e+07,5,0,0,16.37,0.04,21,0,0,0
31907,2.9381e+07,5,0,0,16.36,0.04,21,0,0,0
32318,2.9485e+07,5,0,0,16.36,0.04,21,0,0,0
32764,2.9591e+07,5,0,0,16.36,0.04,21,0,0,0
1.9131e+05,1.5267e+08,5,0,0,0,0,0,0,0,0
1.9319e+05,1.5321e+08,5,0,0,0,0.04,0,0,0,0
1.936e+05,1.5331e+08,5,0,0,0,0.04,0,0,0,0
1.9572e+05,1.5385e+08,5,0,0,0,0.04,0,0,0,0
1.9613e+05,1.5396e+08,5,0,0,0,0.04,0,0,0,0
1.9654e+05,1.5406e+08,5,0,0,16.35,0.01,22,0,0,0
1.9696e+05,1.5417e+08,5,0,0,16.35,0.03,22,0,0,0
1.9737e+05,1.5428e+08,5,0,0,16.35,0.04,22,0,0,0
1.9782e+05,1.5439e+08,5,0,0,16.35,0.04,22,0,0,0
1.9823e+05,1.5449e+08,5,0,0,16.35,0.04,22,0,0,0
1.9868e+05,1.5461e+08,5,0,0,16.36,0.03,22,0,0,0
1.991e+05,1.5472e+08,5,0,0,16.36,0.04,22,0,0,0
1.9951e+05,1.5482e+08,5,0,0,16.36,0.03,22,0,0,0
1.9993e+05,1.5493e+08,5,0,0,16.36,0.04,22,0,0,0
2.0034e+05,1.5504e+08,5,0,0,16.36,0.04,22,0,0,0
2.0116e+05,1.5525e+08,5,0,0,16.35,0.04,22,0,0,0
2.0155e+05,1.5535e+08,5,0,0,16.35,0.04,22,0,0,0
2.02e+05,1.5547e+08,5,0,0,16.36,0.04,22,0,0,0
2.0225e+05,1.564e+08,5,0,0,16.35,0.04,22,0,0,0
2.0233e+05,1.5642e+08,5,0,0,16.35,0.04,22,0,0,0
2.0276e+05,1.5653e+08,5,0,0,16.36,0.04,22,0,0,0
2.0317e+05,1.5663e+08,5,0,0,16.36,0.03,22,0,0,0
2.0363e+05,1.5674e+08,5,0,0,16.36,0.04,22,0,0,0
2.0409e+05,1.5685e+08,5,0,0,16.35,0.04,22,0,0,0
2.0454e+05,1.5696e+08,5,0,0,16.36,0.04,22,0,0,0
2.05e+05,1.5706e+08,5,0,0,16.36,0.04,22,0,0,0
2.0591e+05,1.5728e+08,5,0,0,16.35,0.04,22,0,0,0
2.0637e+05,1.5739e+08,5,0,0,16.35,0.04,22,0,0,0
2.0686e+05,1.575e+08,5,0,0,16.36,0.04,22,0,0,0
2.073e+05,1.5761e+08,5,0,0,16.35,0.04,22,0,0,0
2.0774e+05,1.5772e+08,5,0,0,16.35,0.03,22,0,0,0
2.0819e+05,1.5782e+08,5,0,0,16.35,0.03,22,0,0,0
2.0865e+05,1.5793e+08,5,0,0,16.35,0.03,22,0,0,0
2.0914e+05,1.5804e+08,5,0,0,16.36,0.03,22,0,0,0
2.0959e+05,1.5814e+08,5,0,0,16.36,0.03,22,0,0,0
2.1009e+05,1.5826e+08,5,0,0,16.35,0.03,22,0,0,0
2.1054e+05,1.5836e+08,5,0,0,16.35,0.03,22,0,0,0
2.1099e+05,1.5847e+08,5,0,0,16.35,0.02,22,0,0,0
2.1145e+05,1.5858e+08,5,17,271,16.33,0.06,22,0,0,0
2.1191e+05,1.5869e+08,5,300,714,16.32,0.11,22,0,0,0
2.1234e+05,1.5879e+08,5,733,1128,16.33,0.16,22,0,0,0
2.1282e+05,1.5891e+08,5,1137,1228,16.35,0.12,22,0,0,0
2.1327e+05,1.5901e+08,5,1231,1271,16.34,0.11,22,0,0,0
2.1373e+05,1.5912e+08,5,1273,1300,16.33,0.11,22,0,0,0
2.1418e+05,1.5923e+08,5,1300,1300,16.34,0.11,22,0,0,0
2.1464e+05,1.5934e+08,5,1300,1300,16.34,0.11,22,0,0,0
2.1509e+05,1.5944e+08,5,1300,1314,16.34,0.11,22,0,0,0
2.1559e+05,1.5956e+08,5,1314,1314,16.34,0.11,22,0,0,0
2.16e+05,1.5965e+08,5,1314,1314,16.34,0.11,22,0,0,0
2.1695e+05,1.5987e+08,5,1314,1314,16.34,0.11,22,0,0,0
2.1762e+05,1.6009e+08,5,1314,1314,16.34,0.1,22,0,0,0
2.1807e+05,1.6019e+08,5,1314,1314,16.33,0.11,22,0,0,0
2.1857e+05,1.6031e+08,5,1314,1314,16.33,0.11,22,0,0,0
2.1902e+05,1.6041e+08,5,1313,1300,16.33,0.11,22,0,0,0
2.1947e+05,1.6052e+08,5,1300,1314,16.33,0.11,22,0,0,0
2.1998e+05,1.6063e+08,5,1314,1314,16.33,0.11,22,0,0,0
2.204e+05,1.6074e+08,5,1312,1300,16.33,0.11,22,0,0,0
2.2085e+05,1.6084e+08,5,1300,1314,16.34,0.11,22,0,0,0
2.2131e+05,1.6095e+08,5,1314,1314,16.33,0.11,22,0,0,0
2.2221e+05,1.6117e+08,5,1314,1314,16.33,0.11,22,0,0,0
2.2264e+05,1.6127e+08,5,1314,1314,16.34,0.11,22,0,0,0
2.2313e+05,1.6139e+08,5,1314,1314,16.34,0.11,22,0,0,0
2.2358e+05,1.6149e+08,5,1314,1314,16.33,0.11,22,0,0,0
2.2404e+05,1.616e+08,5,1314,1314,16.33,0.11,22,0,0,0
2.2454e+05,1.6171e+08,5,1314,1314,16.33,0.11,22,0,0,0
2.2499e+05,1.6182e+08,5,1314,1314,16.33,0.11,22,0,0,0
2.2549e+05,1.6194e+08,5,1314,1314,16.32,0.11,22,0,0,0
2.259e+05,1.6203e+08,5,1314,1314,16.33,0.11,22,0,0,0
2.264e+05,1.6214e+08,5,1314,1314,16.33,0.11,22,0,0,0
2.2685e+05,1.6225e+08,5,1313,1300,16.35,0.11,22,0,0,0
2.2733e+05,1.6236e+08,5,1300,1314,16.34,0.11,22,0,0,0
2.2781e+05,1.6247e+08,5,1314,1314,16.34,0.11,22,0,0,0
2.2821e+05,1.6257e+08,5,1314,1314,16.33,0.11,22,0,0,0
2.2916e+05,1.6279e+08,5,1317,1757,16.17,0.55,22,0,0,0
2.2967e+05,1.629e+08,5,1797,2200,16.31,0.43,22,0,0,0
2.3012e+05,1.63e+08,5,2202,2371,16.31,0.47,22,0,0,0
2.3061e+05,1.6312e+08,5,2360,2271,16.28,0.39,22,0,0,0
2.3106e+05,1.6323e+08,5,2277,2371,16.3,0.4,22,0,0,0
2.3151e+05,1.6333e+08,5,2385,2700,16.14,0.81,22,0,0,0
2.3201e+05,1.6345e+08,5,2764,3400,16.05,1.47,22,0,0,0
2.3246e+05,1.6356e+08,5,3454,4014,15.98,1.83,22,0,0,0
2.3289e+05,1.6366e+08,5,4055,4614,15.88,2.62,22,0,0,0
2.3334e+05,1.6378e+08,5,4665,5328,15.82,3.28,22,0,0,0
2.3379e+05,1.6388e+08,5,5342,5671,15.64,3.81,22,0,0,0
2.347e+05,1.641e+08,5,5674,5771,15.82,3.59,22,1,0,0
2.3515e+05,1.6421e+08,5,5777,5857,15.76,3.56,22,1,0,0
2.356e+05,1.6432e+08,5,5871,6057,15.76,3.77,22,1,0,0
2.3606e+05,1.6443e+08,5,6065,6185,15.71,4.1,22,1,0,0
2.365e+05,1.6453e+08,5,6186,6200,15.76,4.17,22,1,0,0
2.3738e+05,1.6475e+08,5,6199,6185,15.78,3.79,22,1,0,0
2.3783e+05,1.6486e+08,5,6192,6357,15.72,4.17,23,1,0,0
2.3828e+05,1.6497e+08,5,6344,6228,15.72,4.24,22,2,0,0
2.3874e+05,1.6508e+08,5,6220,6157,15.75,4.04,22,2,0,0
2.3919e+05,1.6518e+08,5,6165,6285,15.73,4.18,23,2,0,0
2.3964e+05,1.6529e+08,5,6283,6200,15.8,4.09,23,2,0,0
2.4014e+05,1.654e+08,5,6197,6171,15.72,3.89,23,2,0,0
2.4059e+05,1.6552e+08,5,6181,6314,15.73,4.12,23,2,0,0
2.4105e+05,1.6562e+08,5,6313,6300,15.8,3.68,23,2,0,0
2.4151e+05,1.6574e+08,5,6281,6028,15.85,3.57,23,2,0,0
2.4196e+05,1.6584e+08,5,6023,5957,15.85,3.47,23,3,0,0
2.4241e+05,1.6595e+08,5,5949,5842,15.82,3.28,23,3,0,0
2.4333e+05,1.6617e+08,5,5832,5628,15.75,3.09,23,3,0,0
2.4378e+05,1.6628e+08,5,5635,5785,15.8,3.17,23,3,0,0
2.4424e+05,1.6639e+08,5,5754,5457,15.79,2.99,23,3,0,0
2.4518e+05,1.6661e+08,5,5463,5642,15.74,3.15,23,3,0,0
2.4563e+05,1.6672e+08,5,5642,5714,15.75,3.2,23,3,0,0
2.4608e+05,1.6683e+08,5,5716,5771,15.75,3.52,23,3,0,0
2.4653e+05,1.6694e+08,5,5777,5928,15.75,3.79,23,3,0,0
2.4794e+05,1.6727e+08,5,5935,6171,15.79,3.69,23,4,0,0
2.4838e+05,1.6737e+08,5,6156,6014,15.74,3.8,23,4,0,0
2.4881e+05,1.6748e+08,5,6016,6071,15.69,3.59,23,4,0,0
2.4926e+05,1.6759e+08,5,6069,6042,15.72,4.01,23,4,0,0
2.5017e+05,1.6781e+08,5,6043,6100,15.66,4.5,23,4,0,0
2.5067e+05,1.6793e+08,5,6116,6257,15.74,4.11,23,4,0,0
2.5113e+05,1.6803e+08,5,6244,6085,15.74,3.84,23,5,0,0
2.5154e+05,1.6813e+08,5,6087,6142,15.67,3.78,23,5,0,0
2.5294e+05,1.6846e+08,5,6138,5985,15.79,3.31,23,5,0,0
2.5336e+05,1.6857e+08,5,5982,5928,15.77,3.31,24,5,0,0
2.5385e+05,1.6868e+08,5,5918,5785,15.79,3.08,23,5,0,0
2.5476e+05,1.689e+08,5,5765,5185,15.73,1.86,23,5,0,0
2.5522e+05,1.6901e+08,5,5174,5071,15.75,2.21,24,6,0,0
2.5608e+05,1.6922e+08,5,5092,5657,15.77,3.18,24,6,0,0
2.5649e+05,1.6932e+08,5,5658,5714,15.68,3.57,24,6,0,0
2.5698e+05,1.6943e+08,5,5721,5857,15.75,3.51,24,6,0,0
2.5744e+05,1.6955e+08,5,5856,5842,15.71,3.65,23,6,0,0
2.5794e+05,1.6966e+08,5,5849,5928,15.69,3.51,24,6,0,0
2.5835e+05,1.6976e+08,5,5928,5928,15.7,3.37,24,6,0,0
2.588e+05,1.6987e+08,5,5921,5785,15.73,3.19,24,6,0,0
2.5924e+05,1.6998e+08,5,5780,5671,15.73,3.22,24,6,0,0
2.5968e+05,1.7009e+08,5,5671,5714,15.78,2.81,24,7,0,0
2.6016e+05,1.702e+08,5,5704,5571,15.74,3.17,24,7,0,0
2.6062e+05,1.7031e+08,5,5577,5742,15.75,3.11,24,7,0,0
2.6107e+05,1.7042e+08,5,5730,5585,15.76,2.87,24,7,0,0
2.6152e+05,1.7052e+08,5,5578,5485,15.69,2.91,24,7,0,0
2.6197e+05,1.7063e+08,5,5489,5585,15.71,2.87,24,7,0,0
2.6242e+05,1.7074e+08,5,5572,5400,15.75,2.59,24,7,0,0
2.6292e+05,1.7086e+08,5,5399,5385,15.69,2.89,24,7,0,0
2.6337e+05,1.7097e+08,5,5406,5600,15.72,3.08,24,7,0,0
2.6382e+05,1.7107e+08,5,5607,5714,15.74,3.09,24,7,0,0
2.6428e+05,1.7119e+08,5,5732,5900,15.63,4.55,24,7,0,0
2.6473e+05,1.7129e+08,5,5882,5714,15.64,1.89,24,8,0,0
2.6516e+05,1.714e+08,5,5701,5542,15.71,2.76,24,8,0,0
2.656e+05,1.7151e+08,5,5542,5542,15.69,2.82,24,8,0,0
2.661e+05,1.7163e+08,5,5536,5471,15.58,3.27,24,8,0,0
2.665e+05,1.7173e+08,5,5468,5428,15.69,2.16,24,8,0,0
2.67e+05,1.7184e+08,5,5491,6142,15.6,4.65,24,8,0,0
2.6741e+05,1.7195e+08,5,6137,6100,15.64,3.84,24,8,0,0
2.6786e+05,1.7205e+08,5,6090,5971,15.65,3.71,24,8,0,0
2.6831e+05,1.7216e+08,5,5957,5814,15.68,3.23,24,8,0,0
2.6872e+05,1.7226e+08,5,5811,5685,15.67,3.22,24,8,0,0
2.6917e+05,1.7237e+08,5,5687,5742,15.61,3.17,24,9,0,0
2.6962e+05,1.7248e+08,5,5739,5685,15.66,3.04,24,9,0,0
2.7057e+05,1.7271e+08,5,5698,5871,15.71,3.42,24,9,0,0
2.7095e+05,1.7281e+08,5,5863,5771,15.64,3.06,24,9,0,0
2.718e+05,1.7302e+08,5,5773,5842,15.69,3.59,24,9,0,0
2.7224e+05,1.7313e+08,5,5843,5871,15.55,3.69,24,9,0,0
2.7268e+05,1.7324e+08,5,5873,5928,15.67,3.72,24,9,0,0
2.7313e+05,1.7335e+08,5,5930,5971,15.63,3.58,24,9,0,0
2.7358e+05,1.7346e+08,5,5969,5928,15.67,3.49,24,10,0,0
2.7398e+05,1.7356e+08,5,5927,5885,15.63,3.26,24,10,0,0
2.7447e+05,1.7368e+08,5,5874,5714,15.69,3.04,24,10,0,0
2.7496e+05,1.738e+08,5,5704,5614,15.66,3.1,24,10,0,0
2.7536e+05,1.739e+08,5,5616,5671,15.71,2.88,24,10,0,0
2.758e+05,1.7401e+08,5,5661,5528,15.71,2.82,24,10,0,0
2.7619e+05,1.7412e+08,5,5525,5371,15.61,2.92,24,10,0,0
2.7668e+05,1.7424e+08,5,5373,5400,15.71,2.6,24,10,0,0
2.7709e+05,1.7434e+08,5,5397,5357,15.69,2.45,24,10,0,0
2.7754e+05,1.7445e+08,5,5355,5271,15.72,2.45,24,10,0,0
2.78e+05,1.7456e+08,5,5268,5242,15.63,2.6,24,10,0,0
2.7844e+05,1.7467e+08,5,5246,5314,15.69,2.89,24,11,0,0
2.7889e+05,1.7478e+08,5,5314,5328,15.69,2.64,24,11,0,0
2.7934e+05,1.7489e+08,5,5331,5371,15.6,2.83,24,11,0,0
2.7974e+05,1.7499e+08,5,5374,5557,15.7,2.74,24,11,0,0
2.8023e+05,1.7511e+08,5,5545,5371,15.65,2.96,24,11,0,0
2.8062e+05,1.7521e+08,5,5374,5428,15.71,2.98,24,11,0,0
2.8101e+05,1.7532e+08,5,5430,5585,15.64,3.28,24,11,0,0
2.815e+05,1.7543e+08,5,5579,5528,15.64,2.97,24,11,0,0
2.8191e+05,1.7554e+08,5,5531,5600,15.7,3.21,24,11,0,0
2.8236e+05,1.7564e+08,5,5602,5657,15.6,3.29,24,11,0,0
2.8277e+05,1.7575e+08,5,5663,5742,15.66,3.09,24,11,0,0
2.8322e+05,1.7586e+08,5,5744,5771,15.69,3.14,24,12,0,0
2.8367e+05,1.7597e+08,5,5776,5857,15.69,3.21,24,12,0,0
2.8412e+05,1.7608e+08,5,5849,5771,15.64,3.2,24,12,0,0
2.8453e+05,1.7619e+08,5,5770,5757,15.64,3.29,24,12,0,0
2.8494e+05,1.763e+08,5,5771,5885,15.63,3.26,24,12,0,0
2.8536e+05,1.764e+08,5,5887,5942,15.65,3.36,24,12,0,0
2.8579e+05,1.7651e+08,5,5929,5800,15.61,3.35,24,12,0,0
2.8619e+05,1.7661e+08,5,5795,5714,15.69,3.01,24,12,0,0
2.8668e+05,1.7673e+08,5,5716,5742,15.67,3.2,24,12,0,0
2.8709e+05,1.7683e+08,5,5723,5500,15.56,3.27,24,12,0,0
2.875e+05,1.7694e+08,5,5507,5671,15.61,2.89,24,13,0,0
2.8795e+05,1.7705e+08,5,5671,5714,15.61,3.37,24,13,0,0
2.884e+05,1.7716e+08,5,5715,5742,15.56,3.08,24,13,0,0
2.8888e+05,1.7727e+08,5,5727,5571,15.65,2.89,24,13,0,0
2.8933e+05,1.7738e+08,5,5567,5528,15.63,2.78,24,13,0,0
2.8978e+05,1.7749e+08,5,5518,5414,15.65,2.54,24,13,0,0
2.9018e+05,1.7759e+08,5,5419,5500,15.63,2.52,24,13,0,0
2.9064e+05,1.7771e+08,5,5492,5400,15.61,2.83,24,13,0,0
2.9104e+05,1.7781e+08,5,5400,5400,15.61,2.83,24,13,0,0
2.9152e+05,1.7792e+08,5,5409,5528,15.69,2.88,24,13,0,0
2.9195e+05,1.7803e+08,5,5520,5428,15.7,2.73,24,13,0,0
2.9238e+05,1.7814e+08,5,5432,5500,15.66,2.52,24,13,0,0
2.9278e+05,1.7824e+08,5,5498,5471,15.64,2.91,24,14,0,0
2.9324e+05,1.7835e+08,5,5471,5471,15.67,2.65,24,14,0,0
2.9369e+05,1.7846e+08,5,5471,5471,15.58,2.92,24,14,0,0
2.9409e+05,1.7856e+08,5,5475,5585,15.64,3.11,24,14,0,0
2.9494e+05,1.7878e+08,5,5586,5728,15.61,3.17,24,14,0,0
2.9539e+05,1.7888e+08,5,5730,5842,15.63,3.22,25,14,0,0
2.9584e+05,1.7899e+08,5,5827,5642,15.63,3.06,25,14,0,0
2.9624e+05,1.7909e+08,5,5645,5785,15.6,3.38,24,14,0,0
2.9673e+05,1.7921e+08,5,5779,5714,15.55,3.38,24,14,0,0
2.9718e+05,1.7932e+08,5,5724,5885,15.57,3.54,24,15,0,0
2.9757e+05,1.7942e+08,5,5885,5914,15.62,3.29,25,15,0,0
2.9804e+05,1.7954e+08,5,5910,5857,15.54,3.24,25,15,0,0
2.9849e+05,1.7964e+08,5,5855,5828,15.61,3.36,25,15,0,0
2.9894e+05,1.7976e+08,5,5825,5785,15.56,3.14,25,15,0,0
2.9939e+05,1.7987e+08,5,5784,5771,15.6,3.12,25,15,0,0
2.9983e+05,1.7997e+08,5,5769,5742,15.55,3.14,25,15,0,0
3.0028e+05,1.8008e+08,5,5758,5928,15.56,3.73,25,15,0,0
3.0068e+05,1.8019e+08,5,5925,5900,15.45,3.7,25,15,0,0
3.0113e+05,1.803e+08,5,5905,5957,15.55,3.33,25,15,0,0
3.0158e+05,1.8041e+08,5,5942,5800,15.5,3.33,25,15,0,0
3.0206e+05,1.8052e+08,5,5801,5814,15.47,3.79,25,16,0,0
3.0245e+05,1.8062e+08,5,5816,5971,15.57,3.59,25,16,0,0
3.0288e+05,1.8073e+08,5,5976,6042,15.52,3.81,25,16,0,0
3.0332e+05,1.8084e+08,5,6043,6114,15.53,3.8,25,16,0,0
3.0378e+05,1.8095e+08,5,6107,5942,15.51,4.01,25,16,0,0
3.0422e+05,1.8106e+08,5,5945,6114,15.44,4.31,25,16,0,0
3.0466e+05,1.8117e+08,5,6117,6285,15.47,4.23,25,16,0,0
3.0557e+05,1.8139e+08,5,6277,6100,15.5,3.31,25,16,0,0
3.0597e+05,1.8149e+08,5,6095,5814,15.62,3.2,25,17,0,0
3.0642e+05,1.816e+08,5,5824,6028,15.6,3.87,25,17,0,0
3.0734e+05,1.8183e+08,5,6021,5871,15.56,3.48,25,17,0,0
3.0821e+05,1.8204e+08,5,5871,5971,15.56,3.74,25,17,0,0
3.0865e+05,1.8215e+08,5,5972,6057,15.49,3.69,25,17,0,0
3.0914e+05,1.8227e+08,5,6057,6057,15.52,3.63,25,17,0,0
3.0954e+05,1.8237e+08,5,6057,6057,15.55,3.6,25,17,0,0
3.1002e+05,1.8248e+08,5,6057,6057,15.56,3.74,25,18,0,0
3.1043e+05,1.8259e+08,5,6053,5871,15.57,3.38,25,18,0,0
3.1088e+05,1.8269e+08,5,5872,5971,15.55,3.35,25,18,0,0
3.1136e+05,1.8281e+08,5,5973,6014,15.51,3.43,25,18,0,0
3.1177e+05,1.8291e+08,5,6005,5828,15.61,3.21,25,18,0,0
3.1224e+05,1.8303e+08,5,5828,5828,15.48,3.5,25,18,0,0
3.1263e+05,1.8313e+08,5,5830,5857,15.5,3.36,25,18,0,0
3.1397e+05,1.8346e+08,5,5855,5785,15.54,3.31,25,18,0,0
3.1438e+05,1.8356e+08,5,5785,5842,15.58,3.26,25,19,0,0
3.1487e+05,1.8368e+08,5,5837,5785,15.56,3.31,25,19,0,0
3.1532e+05,1.8379e+08,5,5781,5742,15.54,3.1,25,19,0,0
3.1619e+05,1.8401e+08,5,5743,5785,15.54,3.11,25,19,0,0
3.1665e+05,1.8412e+08,5,5787,5800,15.5,3.27,25,19,0,0
3.171e+05,1.8423e+08,5,5785,5628,15.5,3.34,25,19,0,0
3.1795e+05,1.8444e+08,5,5645,6014,15.47,3.55,25,19,0,0
3.1839e+05,1.8455e+08,5,6006,5914,15.46,3.3,25,19,0,0
3.1884e+05,1.8465e+08,5,5912,5857,15.57,3.54,25,20,0,0
3.1924e+05,1.8475e+08,5,5859,6071,15.48,3.8,25,20,0,0
3.197e+05,1.8487e+08,5,6059,5842,15.5,3.39,25,20,0,0
3.2013e+05,1.8498e+08,5,5848,5942,15.44,3.59,25,20,0,0
3.2057e+05,1.8509e+08,5,5934,5857,15.51,3.55,25,20,0,0
3.2097e+05,1.8519e+08,5,5864,5957,15.53,3.73,25,20,0,0
3.2142e+05,1.853e+08,5,5952,5900,15.53,3.54,25,20,0,0
3.2182e+05,1.854e+08,5,5905,6100,15.55,3.51,25,20,0,0
3.2227e+05,1.8551e+08,5,6089,5957,15.54,3.49,25,20,0,0
3.2272e+05,1.8562e+08,5,5959,5985,15.51,3.64,25,21,0,0
3.2316e+05,1.8574e+08,5,5986,6014,15.53,3.53,25,21,0,0
3.2402e+05,1.8595e+08,5,6008,5900,15.52,3.38,25,21,0,0
3.2447e+05,1.8606e+08,5,5905,5957,15.53,3.55,25,21,0,0
3.2487e+05,1.8616e+08,5,5944,5771,15.53,3.25,25,21,0,0
3.2532e+05,1.8627e+08,5,5769,5742,15.54,3.21,25,21,0,0
3.2622e+05,1.8649e+08,5,5742,5742,15.53,3.37,25,21,0,0
3.2663e+05,1.866e+08,5,5739,5700,15.57,3.14,25,21,0,0
3.2712e+05,1.8672e+08,5,5714,5900,15.51,3.47,25,22,0,0
3.275e+05,1.8681e+08,5,5897,5814,15.45,3.84,25,22,0,0
3.2794e+05,1.8693e+08,5,5821,6000,15.54,3.52,25,22,0,0
3.2842e+05,1.8704e+08,5,5983,5771,15.57,2.84,25,22,0,0
3.2883e+05,1.8715e+08,5,5769,5742,15.52,3.25,25,22,0,0
3.2928e+05,1.8725e+08,5,5743,5785,15.49,3.36,25,22,0,0
3.2972e+05,1.8736e+08,5,5786,5814,15.58,3.26,25,22,0,0
3.3017e+05,1.8747e+08,5,5819,5885,15.5,3.4,25,22,0,0
3.3058e+05,1.8758e+08,5,5882,5842,15.48,3.25,25,22,0,0
3.3103e+05,1.8768e+08,5,5842,5857,15.5,3.49,25,22,0,0
3.3142e+05,1.8779e+08,5,5858,5914,15.48,3.49,25,23,0,0
3.319e+05,1.8791e+08,5,5911,5885,15.42,3.97,25,23,0,0
3.323e+05,1.8801e+08,5,5899,6100,15.42,3.7,25,23,0,0
3.327e+05,1.8812e+08,5,6098,6000,15.47,3.71,25,23,0,0
3.3319e+05,1.8823e+08,5,5999,5985,15.5,3.56,25,23,0,0
3.3364e+05,1.8834e+08,5,5985,5985,15.49,3.55,25,23,0,0
3.3405e+05,1.8844e+08,5,5987,6100,15.51,3.65,25,23,0,0
3.345e+05,1.8855e+08,5,6090,5885,15.51,3.46,25,23,0,0
3.3495e+05,1.8866e+08,5,5885,5928,15.51,3.58,25,23,0,0
3.3539e+05,1.8878e+08,5,5939,6085,15.5,3.62,25,24,0,0
3.3584e+05,1.8888e+08,5,6083,6057,15.47,3.89,25,24,0,0
3.3629e+05,1.8899e+08,5,6052,5971,15.45,3.76,25,24,0,0
3.3674e+05,1.8911e+08,5,5971,5971,15.45,3.51,25,24,0,0
3.3719e+05,1.8922e+08,5,5965,5900,15.47,3.7,25,24,0,0
3.3763e+05,1.8933e+08,5,5900,5914,15.47,3.46,25,24,0,0
3.3804e+05,1.8943e+08,5,5921,6014,15.52,3.44,25,24,0,0
3.3849e+05,1.8954e+08,5,5998,5828,15.47,3.49,25,24,0,0
3.3892e+05,1.8965e+08,5,5835,5914,15.51,3.38,25,24,0,0
3.3935e+05,1.8976e+08,5,5914,5914,15.5,3.51,25,25,0,0
3.3977e+05,1.8987e+08,5,5911,5885,15.54,3.32,25,25,0,0
3.4021e+05,1.8998e+08,5,5890,5942,15.54,3.27,25,25,0,0
3.4062e+05,1.9008e+08,5,5937,5828,15.52,3.45,25,25,0,0
3.411e+05,1.9019e+08,5,5828,5828,15.52,3.32,25,25,0,0
3.4155e+05,1.903e+08,5,5836,5957,15.51,3.52,25,25,0,0
3.4196e+05,1.9041e+08,5,5955,5928,15.45,3.54,25,25,0,0
3.4241e+05,1.9052e+08,5,5934,5985,15.43,3.75,25,25,0,0
3.4284e+05,1.9063e+08,5,5991,6057,15.44,3.54,25,25,0,0
3.4327e+05,1.9074e+08,5,6041,5871,15.52,3.56,26,25,0,0
3.4372e+05,1.9084e+08,5,5877,5971,15.47,3.35,25,26,0,0
3.4412e+05,1.9094e+08,5,5970,5942,15.47,3.45,25,26,0,0
3.4461e+05,1.9107e+08,5,5933,5842,15.43,3.69,25,26,0,0
3.4509e+05,1.9118e+08,5,5852,5942,15.52,3.22,25,26,0,0
3.4551e+05,1.9128e+08,5,5937,5885,15.42,3.53,25,26,0,0
3.4591e+05,1.9138e+08,5,5881,5814,15.55,3.18,25,26,0,0
3.4636e+05,1.915e+08,5,5811,5785,15.52,3.63,25,26,0,0
3.4679e+05,1.9161e+08,5,5791,5942,15.57,3.47,25,26,0,0
3.4722e+05,1.9171e+08,5,5940,5828,15.54,3.28,25,26,0,0
3.4768e+05,1.9182e+08,5,5825,5757,15.51,3.07,25,27,0,0
3.4812e+05,1.9194e+08,5,5755,5742,15.52,2.72,25,27,0,0
3.4901e+05,1.9215e+08,5,5748,5871,15.51,3.34,25,27,0,0
3.4946e+05,1.9226e+08,5,5874,5914,15.49,3.13,25,27,0,0
3.499e+05,1.9236e+08,5,5904,5728,15.48,3.09,26,27,0,0
3.5035e+05,1.9247e+08,5,5730,5771,15.52,3.32,26,27,0,0
3.5078e+05,1.9259e+08,5,5766,5700,15.52,3.27,25,27,0,0
3.5121e+05,1.9269e+08,5,5690,5557,15.57,2.94,26,27,0,0
3.5166e+05,1.9281e+08,5,5546,5428,15.45,3.17,26,27,0,0
3.5206e+05,1.9291e+08,5,5431,5500,15.55,2.95,25,27,0,0
3.5295e+05,1.9312e+08,5,5500,5557,15.55,2.63,26,28,0,0
3.5343e+05,1.9324e+08,5,5559,5614,15.57,2.68,26,28,0,0
3.5388e+05,1.9335e+08,5,5602,5385,15.57,2.51,26,28,0,0
3.5476e+05,1.9356e+08,5,5387,5457,15.54,2.62,26,28,0,0
3.5564e+05,1.9378e+08,5,5457,5457,15.51,2.86,26,28,0,0
3.5608e+05,1.9389e+08,5,5459,5485,15.54,2.77,26,28,0,0
3.5648e+05,1.9399e+08,5,5492,5642,15.53,2.92,26,28,0,0
3.5694e+05,1.941e+08,5,5631,5485,15.53,3.1,25,28,0,0
3.5734e+05,1.9421e+08,5,5486,5628,15.55,2.84,26,29,0,0
3.5783e+05,1.9433e+08,5,5623,5557,15.54,2.92,26,29,0,0
3.5824e+05,1.9443e+08,5,5551,5442,15.56,2.79,26,29,0,0
3.5911e+05,1.9464e+08,5,5443,5500,15.46,2.91,25,29,0,0
3.595e+05,1.9475e+08,5,5497,5357,15.55,2.82,26,29,0,0
3.5999e+05,1.9486e+08,5,5350,5285,15.47,2.69,26,29,0,0
3.6047e+05,1.9497e+08,5,5300,5471,15.5,2.74,26,29,0,0
3.6092e+05,1.9508e+08,5,5464,5371,15.54,2.5,26,29,0,0
3.6136e+05,1.9519e+08,5,5369,5357,15.5,2.54,26,29,0,0
3.6181e+05,1.953e+08,5,5349,5271,15.62,2.63,26,29,0,0
3.6222e+05,1.954e+08,5,5278,5457,15.48,2.84,26,29,0,0
3.627e+05,1.9552e+08,5,5455,5442,15.42,2.77,26,30,0,0
3.6308e+05,1.9562e+08,5,5441,5414,15.51,2.65,26,30,0,0
3.6355e+05,1.9573e+08,5,5433,5628,15.47,3.12,26,30,0,0
3.6396e+05,1.9583e+08,5,5629,5671,15.51,2.99,26,30,0,0
3.644e+05,1.9594e+08,5,5671,5671,15.51,3.03,26,30,0,0
3.6488e+05,1.9605e+08,5,5674,5714,15.36,3.4,26,30,0,0
3.6578e+05,1.9627e+08,5,5722,5900,15.36,3.46,26,30,0,0
3.6618e+05,1.9637e+08,5,5896,5757,15.47,3.13,26,30,0,0
3.6664e+05,1.9648e+08,5,5769,5885,15.42,3.5,26,30,0,0
3.6705e+05,1.9659e+08,5,5885,5900,15.4,3.83,26,30,0,0
3.6792e+05,1.968e+08,5,5900,5985,15.36,3.62,26,31,0,0
3.6841e+05,1.9692e+08,5,5985,6028,15.37,3.82,26,31,0,0
3.6886e+05,1.9703e+08,5,6020,5942,15.37,3.8,26,31,0,0
3.6927e+05,1.9714e+08,5,5943,5957,15.38,3.83,26,31,0,0
3.6972e+05,1.9724e+08,5,5958,5971,15.35,4.44,26,31,0,0
3.7057e+05,1.9746e+08,5,5970,5957,15.47,3.59,26,31,0,0
3.71e+05,1.9756e+08,5,5957,5971,15.44,3.63,26,31,0,0
3.7147e+05,1.9767e+08,5,5971,5985,15.48,3.56,26,32,0,0
3.7186e+05,1.9778e+08,5,5984,5971,15.42,3.81,26,32,0,0
3.7235e+05,1.9789e+08,5,5974,6014,15.44,3.36,26,32,0,0
3.7279e+05,1.98e+08,5,6010,5942,15.45,3.56,26,32,0,0
3.7324e+05,1.9811e+08,5,5932,5871,15.48,3.32,26,32,0,0
3.7364e+05,1.9821e+08,5,5867,5714,15.44,2.97,26,32,0,0
3.7455e+05,1.9843e+08,5,5717,5871,15.47,3.4,26,32,0,0
3.7499e+05,1.9854e+08,5,5869,5857,15.43,3.61,26,32,0,0
3.7538e+05,1.9864e+08,5,5855,5771,15.43,3.12,26,32,0,0
3.7585e+05,1.9876e+08,5,5757,5614,15.48,3.07,26,33,0,0
3.763e+05,1.9887e+08,5,5613,5600,15.51,2.83,26,33,0,0
3.767e+05,1.9897e+08,5,5598,5571,15.52,3.13,26,33,0,0
3.7715e+05,1.9908e+08,5,5573,5714,15.52,3.03,26,33,0,0
3.776e+05,1.9919e+08,5,5714,5728,15.45,3.19,26,33,0,0
3.7805e+05,1.993e+08,5,5719,5642,15.49,3.19,26,33,0,0
3.7845e+05,1.994e+08,5,5642,5700,15.4,3.36,26,33,0,0
3.7893e+05,1.9951e+08,5,5703,5757,15.46,3.32,26,33,0,0
3.7937e+05,1.9962e+08,5,5758,5771,15.42,3.07,26,33,0,0
3.7982e+05,1.9973e+08,5,5769,5757,15.5,3.07,26,33,0,0
3.8023e+05,1.9983e+08,5,5742,5542,15.52,2.83,26,34,0,0
3.8067e+05,1.9994e+08,5,5539,5485,15.45,3.08,26,34,0,0
3.8112e+05,2.0005e+08,5,5501,5657,15.46,3.62,26,34,0,0
3.8156e+05,2.0016e+08,5,5678,5914,15.44,3.64,26,34,0,0
3.8201e+05,2.0027e+08,5,5910,5857,15.48,4.02,26,34,0,0
3.8241e+05,2.0037e+08,5,5857,5857,15.45,3.28,26,34,0,0
3.8284e+05,2.0048e+08,5,5858,5900,15.46,3.53,26,34,0,0
3.8324e+05,2.0058e+08,5,5898,5842,15.49,3.21,26,34,0,0
3.8373e+05,2.0071e+08,5,5839,5814,15.42,3.41,26,34,0,0
3.8418e+05,2.0082e+08,5,5808,5771,15.45,3.22,26,34,0,0
3.8458e+05,2.0092e+08,5,5771,5771,15.42,3.27,26,35,0,0
3.8506e+05,2.0103e+08,5,5767,5700,15.5,3.28,26,35,0,0
3.8547e+05,2.0114e+08,5,5709,5842,15.41,3.5,26,35,0,0
3.8592e+05,2.0124e+08,5,5839,5814,15.35,3.59,26,35,0,0
3.864e+05,2.0136e+08,5,5825,5914,15.41,3.58,26,35,0,0
3.8682e+05,2.0147e+08,5,5917,5957,15.36,3.76,26,35,0,0
3.8726e+05,2.0158e+08,5,5935,5742,15.49,2.95,26,35,0,0
3.8767e+05,2.0168e+08,5,5734,5657,15.53,3.37,26,35,0,0
3.8811e+05,2.0179e+08,5,5658,5671,15.36,3.4,26,35,0,0
3.8882e+05,2.0201e+08,5,5672,5714,15.51,3.52,26,36,0,0
3.8926e+05,2.0212e+08,5,5716,5742,15.47,3.29,26,36,0,0
3.8971e+05,2.0222e+08,5,5736,5657,15.48,3.13,26,36,0,0
3.9016e+05,2.0233e+08,5,5658,5685,15.45,3.13,26,36,0,0
3.906e+05,2.0244e+08,5,5680,5585,15.44,3.14,26,36,0,0
3.91e+05,2.0254e+08,5,5587,5771,15.43,3.28,26,36,0,0
3.9148e+05,2.0266e+08,5,5769,5757,15.44,3.41,26,36,0,0
3.9187e+05,2.0276e+08,5,5751,5642,15.41,3.06,26,36,0,0
3.9237e+05,2.0288e+08,5,5658,5828,15.41,3.61,26,36,0,0
3.9281e+05,2.0299e+08,5,5819,5728,15.4,3.17,26,37,0,0
3.9366e+05,2.032e+08,5,5729,5842,15.39,3.43,26,37,0,0
3.9416e+05,2.0332e+08,5,5847,5914,15.37,3.51,26,37,0,0
3.9452e+05,2.0341e+08,5,5914,5957,15.46,3.87,26,37,0,0
3.95e+05,2.0353e+08,5,5954,5900,15.44,3.62,26,37,0,0
3.9539e+05,2.0363e+08,5,5900,5900,15.44,3.84,26,37,0,0
3.9583e+05,2.0374e+08,5,5895,5842,15.44,3.58,26,37,0,0
3.9627e+05,2.0385e+08,5,5847,5928,15.35,3.52,26,37,0,0
3.9672e+05,2.0396e+08,5,5936,6014,15.38,3.79,26,37,0,0
3.9717e+05,2.0407e+08,5,6005,5885,15.47,3.1,26,37,0,0
3.9761e+05,2.0418e+08,5,5878,5785,15.48,3.34,26,38,0,0
3.981e+05,2.0429e+08,5,5793,5914,15.41,3.52,26,38,0,0
3.9854e+05,2.044e+08,5,5899,5714,15.48,2.95,26,38,0,0
3.9899e+05,2.0451e+08,5,5721,5828,15.38,3.61,26,38,0,0
3.9942e+05,2.0461e+08,5,5821,5671,15.48,2.89,26,38,0,0
4.0034e+05,2.0484e+08,5,5670,5657,15.38,3.11,26,38,0,0
4.0078e+05,2.0495e+08,5,5651,5528,15.43,3.08,26,38,0,0
4.0122e+05,2.0506e+08,5,5537,5657,15.44,2.89,26,38,0,0
4.0167e+05,2.0517e+08,5,5640,5471,15.45,2.93,26,38,0,0
4.0212e+05,2.0528e+08,5,5477,5571,15.41,3.07,26,39,0,0
4.0257e+05,2.0539e+08,5,5581,5700,15.37,3.34,26,39,0,0
4.0301e+05,2.055e+08,5,5698,5685,15.45,3.22,26,39,0,0
4.0346e+05,2.0561e+08,5,5678,5614,15.47,3.2,26,39,0,0
4.0391e+05,2.0573e+08,5,5651,5914,15.38,3.34,26,39,0,0
4.0431e+05,2.0582e+08,5,5908,5785,15.44,3.51,26,39,0,0
4.0476e+05,2.0594e+08,5,5787,5814,15.4,3.41,26,39,0,0
4.0517e+05,2.0604e+08,5,5814,5857,15.48,3.62,26,39,0,0
4.0564e+05,2.0616e+08,5,5873,6014,15.44,3.81,26,39,0,0
4.0607e+05,2.0627e+08,5,6032,6214,15.44,4.32,26,39,0,0
4.065e+05,2.0638e+08,5,6214,6228,15.41,4.65,26,40,0,0
4.0696e+05,2.0649e+08,5,6275,6628,15.35,5.36,26,40,0,0
4.0736e+05,2.0659e+08,5,6639,6885,15.34,5.76,26,40,0,0
4.0785e+05,2.0671e+08,5,6876,6828,15.41,5,26,40,0,0
4.0869e+05,2.0692e+08,5,6824,6128,15.45,3.44,26,40,0,0
4.0918e+05,2.0703e+08,5,6120,5942,15.45,3.43,26,40,0,0
4.0958e+05,2.0714e+08,5,5934,5771,15.42,2.99,26,41,0,0
4.1005e+05,2.0725e+08,5,5749,5542,15.49,3.14,26,41,0,0
4.1048e+05,2.0736e+08,5,5549,5628,15.41,3.1,26,41,0,0
4.1092e+05,2.0746e+08,5,5628,5685,15.38,2.94,26,41,0,0
4.1136e+05,2.0757e+08,5,5682,5628,15.49,3.27,26,41,0,0
4.1185e+05,2.0769e+08,5,5636,5714,15.43,3.7,26,41,0,0
4.1229e+05,2.078e+08,5,5722,5814,15.42,3.49,26,41,0,0
4.1274e+05,2.079e+08,5,5820,5885,15.41,3.56,26,41,0,0
4.1315e+05,2.0801e+08,5,5888,5928,15.44,3.74,26,41,0,0
4.1358e+05,2.0812e+08,5,5924,5885,15.38,3.78,26,42,0,0
4.1445e+05,2.0834e+08,5,5887,5942,15.5,3.43,26,42,0,0
4.1485e+05,2.0843e+08,5,5942,5957,15.4,3.57,26,42,0,0
4.153e+05,2.0855e+08,5,5967,6071,15.45,3.87,26,42,0,0
4.1571e+05,2.0865e+08,5,6071,6071,15.38,3.72,26,42,0,0
4.1615e+05,2.0876e+08,5,6063,5900,15.48,3.21,26,42,0,0
4.1661e+05,2.0887e+08,5,5901,5942,15.38,3.51,26,42,0,0
4.1705e+05,2.0898e+08,5,5926,5771,15.43,2.72,26,42,0,0
4.1749e+05,2.0908e+08,5,5777,5857,15.41,3.44,26,42,0,0
4.1792e+05,2.0919e+08,5,5853,5785,15.47,3.39,26,43,0,0
4.1835e+05,2.093e+08,5,5786,5857,15.44,3.11,26,43,0,0
4.188e+05,2.0941e+08,5,5857,5857,15.38,3.41,26,43,0,0
4.1968e+05,2.0963e+08,5,5857,5900,15.28,3.98,26,43,0,0
4.2014e+05,2.0974e+08,5,5929,6328,15.26,4.35,26,43,0,0
4.2059e+05,2.0985e+08,5,6325,6257,15.4,3.68,26,43,0,0
4.2147e+05,2.1006e+08,5,6256,6185,15.34,4.17,26,43,0,0
4.219e+05,2.1018e+08,5,6186,6228,15.35,4.36,26,44,0,0
4.2237e+05,2.1029e+08,5,6237,6342,15.33,3.9,26,44,0,0
4.2277e+05,2.1039e+08,5,6336,6057,15.35,3.86,26,44,0,0
4.2322e+05,2.105e+08,5,6056,6042,15.38,3.68,26,44,0,0
4.237e+05,2.1062e+08,5,6052,6157,15.43,3.93,26,44,0,0
4.2415e+05,2.1072e+08,5,6140,5914,15.41,3.07,26,44,0,0
4.2456e+05,2.1083e+08,5,5912,5842,15.35,3.43,26,44,0,0
4.25e+05,2.1094e+08,5,5841,5800,15.44,3.24,26,44,0,0
4.2549e+05,2.1105e+08,5,5801,5814,15.44,3.37,26,44,0,0
4.2588e+05,2.1116e+08,5,5813,5800,15.44,3.07,26,45,0,0
4.2635e+05,2.1127e+08,5,5802,5828,15.39,3.25,26,45,0,0
4.2723e+05,2.1149e+08,5,5828,5857,15.43,3.59,26,45,0,0
4.2768e+05,2.116e+08,5,5864,5928,15.35,3.72,27,45,0,0
4.2813e+05,2.117e+08,5,5924,5871,15.39,3.5,26,45,0,0
4.2857e+05,2.1181e+08,5,5866,5814,15.38,3.35,26,45,0,0
4.2901e+05,2.1192e+08,5,5815,5828,15.38,3.49,26,45,0,0
4.2946e+05,2.1203e+08,5,5836,5942,15.29,3.8,26,45,0,0
4.299e+05,2.1214e+08,5,5935,5857,15.38,3.42,26,45,0,0
4.3032e+05,2.1225e+08,5,5861,5914,15.33,3.52,26,46,0,0
4.3072e+05,2.1235e+08,5,5911,5871,15.37,3.51,26,46,0,0
4.3116e+05,2.1246e+08,5,5865,5814,15.34,3.48,27,46,0,0
4.3157e+05,2.1256e+08,5,5815,5900,15.41,3.43,26,46,0,0
4.3206e+05,2.1269e+08,5,5882,5657,15.38,3.41,26,46,0,0
4.3246e+05,2.1278e+08,5,5662,5857,15.4,3.84,26,46,0,0
4.3295e+05,2.129e+08,5,5855,5828,15.33,3.81,26,46,0,0
4.3339e+05,2.1301e+08,5,5848,6071,15.42,3.81,26,46,0,0
4.3384e+05,2.1312e+08,5,6059,5971,15.3,3.69,26,46,0,0
4.3514e+05,2.1344e+08,5,5969,5928,15.38,3.54,26,47,0,0
4.3558e+05,2.1355e+08,5,5905,5657,15.43,3.49,26,47,0,0
4.3603e+05,2.1366e+08,5,5677,5871,15.42,3.24,27,47,0,0
4.3659e+05,2.1388e+08,5,5710,5685,15.39,3.31,27,47,0,0
4.3743e+05,2.1409e+08,5,5687,5771,15.39,3.42,27,47,0,0
4.3788e+05,2.142e+08,5,5760,5657,15.36,3.22,26,47,0,0
4.3833e+05,2.1431e+08,5,5654,5628,15.36,3.21,27,48,0,0
4.3921e+05,2.1453e+08,5,5625,5585,15.41,3.07,27,48,0,0
4.401e+05,2.1474e+08,5,5583,5557,15.39,2.97,26,48,0,0
4.4055e+05,2.1486e+08,5,5559,5585,15.41,2.98,26,48,0,0
4.4095e+05,2.1496e+08,5,5586,5628,15.42,3.28,27,48,0,0
4.414e+05,2.1507e+08,5,5638,5800,15.34,3.43,27,48,0,0
4.4185e+05,2.1518e+08,5,5797,5771,15.38,3.74,27,48,0,0
4.423e+05,2.1529e+08,5,5780,5871,15.33,3.46,27,48,0,0
4.4272e+05,2.1539e+08,5,5871,5885,15.39,3.57,26,49,0,0
4.4315e+05,2.155e+08,5,5882,5842,15.35,3.73,27,49,0,0
4.4356e+05,2.156e+08,5,5850,6014,15.39,3.75,27,49,0,0
4.4398e+05,2.1572e+08,5,6016,6042,15.39,3.84,27,49,0,0
4.4442e+05,2.1582e+08,5,6046,6128,15.38,3.56,26,49,0,0
4.4486e+05,2.1593e+08,5,6122,6014,15.46,3.59,26,49,0,0
4.4531e+05,2.1604e+08,5,6011,5971,15.33,3.83,27,49,0,0
4.4576e+05,2.1615e+08,5,5973,6000,15.42,3.81,27,49,0,0
4.4621e+05,2.1626e+08,5,5990,5900,15.36,3.8,27,49,0,0
4.4662e+05,2.1637e+08,5,5901,6014,15.33,3.84,27,50,0,0
4.471e+05,2.1648e+08,5,6028,6214,15.35,3.62,27,50,0,0
4.4754e+05,2.1659e+08,5,6201,6014,15.36,3.63,27,50,0,0
4.4799e+05,2.167e+08,5,6011,5971,15.42,3.36,27,50,0,0
4.4839e+05,2.1681e+08,5,5969,5942,15.42,3.51,27,50,0,0
4.4882e+05,2.1692e+08,5,5930,5785,15.39,3.17,27,50,0,0
4.4927e+05,2.1703e+08,5,5790,5842,15.4,3.38,27,50,0,0
4.497e+05,2.1713e+08,5,5834,5700,15.39,3.57,27,50,0,0
4.5016e+05,2.1724e+08,5,5701,5728,15.32,3.44,27,50,0,0
4.506e+05,2.1735e+08,5,5729,5757,15.41,3.12,27,50,0,0
4.511e+05,2.1747e+08,5,5734,5500,15.45,2.62,27,51,0,0
4.515e+05,2.1757e+08,5,5483,5271,15.39,2.33,27,51,0,0
4.5194e+05,2.1768e+08,5,5268,5228,15.46,2.33,27,51,0,0
4.5233e+05,2.1778e+08,5,5230,5385,15.35,3.28,27,51,0,0
4.528e+05,2.179e+08,5,5413,5600,15.41,3.16,27,51,0,0
4.5325e+05,2.1801e+08,5,5606,5671,15.32,3.08,27,51,0,0
4.5369e+05,2.1812e+08,5,5690,5857,15.34,3.42,27,51,0,0
4.5414e+05,2.1822e+08,5,5828,5542,15.38,2.89,27,51,0,0
4.5458e+05,2.1833e+08,5,5550,5614,15.33,3.23,27,51,0,0
4.5498e+05,2.1843e+08,5,5624,5857,15.3,3.78,27,51,0,0
4.5543e+05,2.1855e+08,5,5854,5828,15.35,3.59,27,51,0,0
4.5588e+05,2.1865e+08,5,5834,5914,15.3,3.45,27,52,0,0
4.5628e+05,2.1876e+08,5,5914,5942,15.41,3.48,27,52,0,0
4.5674e+05,2.1888e+08,5,5946,6014,15.33,3.59,27,52,0,0
4.5714e+05,2.1898e+08,5,6010,5942,15.4,3.29,27,52,0,0
4.5764e+05,2.1911e+08,5,5922,5771,15.42,3.13,27,52,0,0
4.5803e+05,2.192e+08,5,5766,5685,15.41,3.09,27,52,0,0
4.5893e+05,2.1943e+08,5,5681,5628,15.4,3.24,27,52,0,0
4.5938e+05,2.1954e+08,5,5633,5685,15.37,3.11,27,52,0,0
4.5983e+05,2.1965e+08,5,5690,5742,15.43,2.89,27,53,0,0
4.6023e+05,2.1975e+08,5,5739,5628,15.37,3.46,26,53,0,0
4.6066e+05,2.1987e+08,5,5637,5714,15.33,3.33,27,53,0,0
4.6109e+05,2.1998e+08,5,5736,5914,15.4,3.23,27,53,0,0
4.6155e+05,2.2009e+08,5,5901,5814,15.33,3.55,27,53,0,0
4.624e+05,2.203e+08,5,5813,5714,15.42,3.09,27,53,0,0
4.6288e+05,2.2041e+08,5,5700,5571,15.42,2.57,27,53,0,0
4.6333e+05,2.2052e+08,5,5568,5542,15.42,2.74,27,53,0,0
4.6378e+05,2.2063e+08,5,5539,5485,15.35,2.87,27,53,0,0
4.6421e+05,2.2074e+08,5,5487,5514,15.33,3.07,27,53,0,0
4.6464e+05,2.2085e+08,5,5517,5642,15.39,3.05,27,54,0,0
4.6508e+05,2.2096e+08,5,5637,5585,15.33,2.85,27,54,0,0
4.6552e+05,2.2107e+08,5,5577,5485,15.33,2.86,27,54,0,0
4.6597e+05,2.2118e+08,5,5488,5528,15.41,2.89,26,54,0,0
4.6637e+05,2.2128e+08,5,5528,5585,15.31,3.07,27,54,0,0
4.6682e+05,2.2139e+08,5,5584,5571,15.38,3.08,27,54,0,0
4.6772e+05,2.2161e+08,5,5571,5571,15.38,2.82,27,54,0,0
4.6859e+05,2.2183e+08,5,5568,5514,15.45,2.64,27,54,0,0
4.6898e+05,2.2193e+08,5,5517,5628,15.41,2.82,27,54,0,0
4.6943e+05,2.2204e+08,5,5626,5500,15.42,2.61,27,55,0,0
4.6987e+05,2.2215e+08,5,5491,5300,15.44,2.35,27,55,0,0
4.7036e+05,2.2227e+08,5,5289,5185,15.45,2.45,27,55,0,0
4.7076e+05,2.2237e+08,5,5206,5428,15.45,3.16,27,55,0,0
4.7117e+05,2.2247e+08,5,5431,5600,15.32,3.17,27,55,0,0
4.7165e+05,2.2259e+08,5,5600,5614,15.35,3.23,27,55,0,0
4.7211e+05,2.227e+08,5,5615,5657,15.36,3.2,27,55,0,0
4.7249e+05,2.228e+08,5,5652,5371,15.39,2.51,27,55,0,0
4.7296e+05,2.2291e+08,5,5385,5600,15.3,3.39,27,55,0,0
4.734e+05,2.2302e+08,5,5615,5771,15.41,3.3,27,55,0,0
4.7425e+05,2.2323e+08,5,5772,5828,15.3,3.44,27,56,0,0
4.7515e+05,2.2345e+08,5,5829,5914,15.27,3.37,27,56,0,0
4.7556e+05,2.2356e+08,5,5911,5857,15.34,3.57,26,56,0,0
4.7601e+05,2.2367e+08,5,5839,5657,15.32,3.14,27,56,0,0
4.7644e+05,2.2378e+08,5,5662,5728,15.42,3.31,27,56,0,0
4.7687e+05,2.2389e+08,5,5724,5685,15.37,3.25,27,56,0,0
4.7727e+05,2.2399e+08,5,5683,5657,15.41,3.03,27,56,0,0
4.7776e+05,2.241e+08,5,5661,5714,15.39,3.22,27,56,0,0
4.7816e+05,2.242e+08,5,5706,5614,15.45,2.94,27,56,0,0
4.7861e+05,2.2431e+08,5,5620,5757,15.41,3.31,26,57,0,0
4.7945e+05,2.2452e+08,5,5757,5757,15.41,3.44,27,57,0,0
4.799e+05,2.2463e+08,5,5755,5728,15.42,3.31,26,57,0,0
4.8034e+05,2.2474e+08,5,5727,5714,15.3,3.46,26,57,0,0
4.8077e+05,2.2485e+08,5,5715,5742,15.39,3.7,27,57,0,0
4.812e+05,2.2496e+08,5,5747,5828,15.35,3.4,27,57,0,0
4.8165e+05,2.2506e+08,5,5835,5942,15.36,3.4,27,57,0,0
4.8205e+05,2.2516e+08,5,5943,5985,15.32,3.4,27,57,0,0
4.8254e+05,2.2528e+08,5,5979,5928,15.31,3.78,27,57,0,0
4.8295e+05,2.2538e+08,5,5926,5885,15.37,3.65,27,58,0,0
4.834e+05,2.2549e+08,5,5893,6014,15.36,3.6,27,58,0,0
4.8381e+05,2.256e+08,5,6011,5957,15.29,3.52,26,58,0,0
4.8468e+05,2.2582e+08,5,5960,6057,15.38,3.29,27,58,0,0
4.8511e+05,2.2593e+08,5,6047,5957,15.33,3.57,27,58,0,0
4.8552e+05,2.2603e+08,5,5956,5928,15.3,3.6,27,58,0,0
4.86e+05,2.2615e+08,5,5925,5885,15.38,3.45,27,58,0,0
4.8645e+05,2.2626e+08,5,5877,5785,15.38,3.32,27,58,0,0
4.869e+05,2.2637e+08,5,5785,5785,15.44,2.92,27,59,0,0
4.8735e+05,2.2648e+08,5,5783,5757,15.37,3.24,27,59,0,0
4.878e+05,2.2659e+08,5,5760,5800,15.39,3.17,26,59,0,0
4.8824e+05,2.267e+08,5,5800,5800,15.35,3.18,27,59,0,0
4.8866e+05,2.2681e+08,5,5798,5757,15.47,2.7,26,59,0,0
4.8909e+05,2.2691e+08,5,5753,5585,15.44,2.62,27,59,0,0
4.8954e+05,2.2702e+08,5,5592,5742,15.36,3.35,27,59,0,0
4.8998e+05,2.2713e+08,5,5753,5857,15.36,3.61,27,59,0,0
4.9038e+05,2.2723e+08,5,5860,6014,15.32,3.49,27,59,0,0
4.9087e+05,2.2735e+08,5,5997,5814,15.32,3.39,27,59,0,0
4.9132e+05,2.2746e+08,5,5812,5785,15.39,2.94,27,60,0,0
4.9176e+05,2.2757e+08,5,5786,5814,15.36,3.34,27,60,0,0
4.9218e+05,2.2768e+08,5,5819,5857,15.4,3.15,27,60,0,0
4.9262e+05,2.2779e+08,5,5853,5828,15.38,3.25,27,60,0,0
4.9307e+05,2.279e+08,5,5817,5742,15.39,2.96,27,60,0,0
4.9347e+05,2.28e+08,5,5741,5657,15.44,3.07,27,60,0,0
4.9392e+05,2.2811e+08,5,5652,5528,15.42,2.47,27,60,0,0
4.9436e+05,2.2821e+08,5,5527,5457,15.47,2.53,27,60,0,0
4.9526e+05,2.2844e+08,5,5456,5428,15.47,2.72,27,60,0,0
4.957e+05,2.2854e+08,5,5427,5414,15.45,2.92,27,60,0,0
4.962e+05,2.2867e+08,5,5446,5800,15.34,3.33,27,60,0,0
4.9698e+05,2.2887e+08,5,5797,5714,15.42,3.03,27,61,0,0
4.9738e+05,2.2897e+08,5,5711,5614,15.41,2.8,26,61,0,0
4.9783e+05,2.2908e+08,5,5608,5500,15.39,2.68,27,61,0,0
4.9827e+05,2.2919e+08,5,5501,5571,15.37,2.97,27,61,0,0
4.9872e+05,2.293e+08,5,5577,5714,15.41,3.16,27,61,0,0
4.9917e+05,2.2941e+08,5,5716,5771,15.32,3.08,27,61,0,0
5.0004e+05,2.2963e+08,5,5775,5871,15.42,3.19,27,61,0,0
5.0043e+05,2.2973e+08,5,5868,5700,15.44,3.1,27,61,0,0
5.0092e+05,2.2985e+08,5,5716,5885,15.36,2.94,27,61,0,0
5.0177e+05,2.3006e+08,5,5876,5657,15.35,3.07,27,62,0,0
5.0222e+05,2.3017e+08,5,5654,5628,15.45,2.96,27,62,0,0
5.0311e+05,2.3039e+08,5,5627,5614,15.36,3.05,26,62,0,0
5.0352e+05,2.3049e+08,5,5621,5785,15.37,3.3,27,62,0,0
5.0392e+05,2.306e+08,5,5785,5785,15.38,3.19,26,62,0,0
5.0434e+05,2.3071e+08,5,5783,5728,15.37,3.14,27,62,0,0
5.0524e+05,2.3093e+08,5,5733,5885,15.41,3.47,27,62,0,0
5.0564e+05,2.3103e+08,5,5882,5857,15.27,3.61,27,62,0,0
5.0609e+05,2.3115e+08,5,5855,5842,15.26,3.8,27,63,0,0
5.065e+05,2.3125e+08,5,5860,6114,15.3,3.8,27,63,0,0
5.0694e+05,2.3135e+08,5,6111,5914,15.3,3.74,27,63,0,0
5.0739e+05,2.3146e+08,5,5916,6114,15.33,3.73,27,63,0,0
5.0782e+05,2.3157e+08,5,6113,6071,15.33,3.92,26,63,0,0
5.0833e+05,2.3169e+08,5,6082,6200,15.33,4.03,26,63,0,0
5.0877e+05,2.318e+08,5,6186,6057,15.36,3.61,27,63,0,0
5.0922e+05,2.3191e+08,5,6048,5971,15.33,3.49,27,63,0,0
5.0966e+05,2.3202e+08,5,5973,6000,15.41,3.38,27,64,0,0
5.1006e+05,2.3212e+08,5,5996,5757,15.35,3.3,27,64,0,0
5.1055e+05,2.3223e+08,5,5755,5728,15.41,3.12,27,64,0,0
5.1096e+05,2.3234e+08,5,5725,5671,15.37,2.93,26,64,0,0
5.114e+05,2.3245e+08,5,5671,5685,15.44,3.03,27,64,0,0
5.1184e+05,2.3256e+08,5,5680,5614,15.35,3.25,27,64,0,0
5.1227e+05,2.3266e+08,5,5617,5700,15.39,3.09,27,64,0,0
5.127e+05,2.3277e+08,5,5698,5642,15.41,3.15,27,64,0,0
5.136e+05,2.3299e+08,5,5645,5757,15.38,3.57,27,64,0,0
5.1404e+05,2.331e+08,5,5756,5742,15.33,3.35,27,65,0,0
5.1449e+05,2.3321e+08,5,5744,5771,15.33,3.15,27,65,0,0
5.1489e+05,2.3331e+08,5,5773,5814,15.4,3.36,27,65,0,0
5.1578e+05,2.3353e+08,5,5820,6014,15.35,4.46,27,65,0,0
5.1623e+05,2.3364e+08,5,6010,5957,15.38,3.46,27,65,0,0
5.1667e+05,2.3375e+08,5,5953,5871,15.29,3.86,27,65,0,0
5.1712e+05,2.3386e+08,5,5878,6014,15.39,4.03,27,65,0,0
5.1753e+05,2.3396e+08,5,6013,5957,15.38,3.63,27,65,0,0
5.1802e+05,2.3408e+08,5,5948,5785,15.29,3.68,27,66,0,0
5.1842e+05,2.3418e+08,5,5794,5971,15.35,3.74,27,66,0,0
5.189e+05,2.343e+08,5,5954,5800,15.32,3.68,27,66,0,0
5.1935e+05,2.3441e+08,5,5797,5771,15.35,3.64,27,66,0,0
5.198e+05,2.3452e+08,5,5781,5871,15.37,3.8,27,66,0,0
5.2024e+05,2.3463e+08,5,5877,5957,15.29,3.88,27,66,0,0
5.2068e+05,2.3474e+08,5,5951,5885,15.36,3.75,27,66,0,0
5.211e+05,2.3484e+08,5,5885,5900,15.33,3.88,27,66,0,0
5.2153e+05,2.3496e+08,5,5905,5971,15.33,4.09,27,66,0,0
5.2196e+05,2.3507e+08,5,5982,6085,15.32,4.38,27,67,0,0
5.224e+05,2.3518e+08,5,6082,6057,15.35,4.1,27,67,0,0
5.2281e+05,2.3528e+08,5,6060,6142,15.3,4.28,27,67,0,0
5.2325e+05,2.3539e+08,5,6142,6157,15.31,4.43,27,67,0,0
5.2375e+05,2.3551e+08,5,6155,6142,15.26,4.25,27,67,0,0
5.2419e+05,2.3562e+08,5,6143,6157,15.33,4.18,27,67,0,0
5.2467e+05,2.3573e+08,5,6151,6114,15.26,4.47,27,67,0,0
5.2552e+05,2.3594e+08,5,6114,6285,15.3,4.23,27,68,0,0
5.2596e+05,2.3605e+08,5,6274,6071,15.29,3.9,27,68,0,0
5.2641e+05,2.3616e+08,5,6069,6057,15.3,4.15,27,68,0,0
5.2686e+05,2.3626e+08,5,6054,6014,15.35,3.66,27,68,0,0
5.273e+05,2.3637e+08,5,5996,5814,15.33,3.34,27,68,0,0
5.2775e+05,2.3648e+08,5,5820,5985,15.29,3.62,27,68,0,0
5.2819e+05,2.3659e+08,5,5981,5842,15.31,3.47,27,68,0,0
5.2864e+05,2.367e+08,5,5836,5714,15.33,2.95,27,68,0,0
5.2907e+05,2.3681e+08,5,5723,5857,15.25,3.72,27,68,0,0
5.2995e+05,2.3703e+08,5,5860,5971,15.27,3.65,27,69,0,0
5.3035e+05,2.3713e+08,5,5972,6000,15.31,3.28,27,69,0,0
5.3083e+05,2.3724e+08,5,5987,5828,15.4,3.28,27,69,0,0
5.3127e+05,2.3735e+08,5,5831,5885,15.38,3.26,27,69,0,0
5.3216e+05,2.3757e+08,5,5884,5871,15.46,3.13,27,69,0,0
5.3261e+05,2.3768e+08,5,5863,5757,15.36,3.28,27,69,0,0
5.3308e+05,2.3779e+08,5,5763,5828,15.37,2.98,27,69,0,0
5.3347e+05,2.3789e+08,5,5826,5728,15.38,3.16,27,69,0,0
5.3391e+05,2.38e+08,5,5730,5785,15.36,3.3,27,70,0,0
5.3436e+05,2.3811e+08,5,5781,5614,15.37,3.05,27,70,0,0
5.3485e+05,2.3823e+08,5,5620,5685,15.36,3.04,27,70,0,0
5.3525e+05,2.3833e+08,5,5685,5714,15.41,3.05,27,70,0,0
5.3574e+05,2.3845e+08,5,5709,5600,15.38,3.15,27,70,0,0
5.3617e+05,2.3855e+08,5,5601,5642,15.36,3.09,27,70,0,0
5.366e+05,2.3866e+08,5,5644,5728,15.3,3.32,27,70,0,0
5.3704e+05,2.3877e+08,5,5731,5800,15.33,3.67,27,70,0,0
5.3748e+05,2.3888e+08,5,5799,5785,15.32,3.14,27,70,0,0
5.3793e+05,2.3899e+08,5,5785,5785,15.3,3.21,27,70,0,0
5.3838e+05,2.3909e+08,5,5780,5714,15.36,3.17,27,70,0,0
5.3883e+05,2.3921e+08,5,5707,5642,15.33,2.94,27,71,0,0
5.3924e+05,2.3931e+08,5,5650,5714,15.35,3.36,27,71,0,0
5.4009e+05,2.3953e+08,5,5721,5914,15.31,3.87,27,71,0,0
5.4054e+05,2.3964e+08,5,5918,5971,15.29,3.72,27,71,0,0
5.4139e+05,2.3985e+08,5,5969,5914,15.3,3.61,27,71,0,0
5.4184e+05,2.3996e+08,5,5909,5814,15.32,3.52,27,71,0,0
5.4229e+05,2.4007e+08,5,5818,5885,15.3,3.59,27,71,0,0
5.4273e+05,2.4018e+08,5,5885,5900,15.33,3.51,27,72,0,0
5.4318e+05,2.4029e+08,5,5888,5728,15.3,3.25,27,72,0,0
5.4359e+05,2.404e+08,5,5725,5685,15.39,3.15,27,72,0,0
5.4404e+05,2.405e+08,5,5686,5742,15.35,3.43,27,72,0,0
5.4448e+05,2.4061e+08,5,5741,5728,15.34,3.2,27,72,0,0
5.4492e+05,2.4072e+08,5,5718,5528,15.33,3.1,27,72,0,0
5.4537e+05,2.4083e+08,5,5532,5700,15.34,3.3,27,72,0,0
5.4581e+05,2.4094e+08,5,5700,5714,15.33,3.16,27,72,0,0
5.4624e+05,2.4105e+08,5,5716,5771,15.35,3.18,27,72,0,0
5.4668e+05,2.4116e+08,5,5770,5757,15.25,3.67,27,72,0,0
5.4712e+05,2.4127e+08,5,5757,5771,15.35,3.26,27,73,0,0
5.4757e+05,2.4138e+08,5,5767,5728,15.23,3.59,27,73,0,0
5.489e+05,2.4171e+08,5,5730,5828,15.27,3.37,27,73,0,0
5.4935e+05,2.4182e+08,5,5828,5842,15.3,3.61,27,73,0,0
5.5019e+05,2.4203e+08,5,5842,5857,15.36,3.25,27,73,0,0
5.5065e+05,2.4215e+08,5,5857,5857,15.34,3.43,27,73,0,0
5.5151e+05,2.4236e+08,5,5851,5742,15.38,3.23,27,74,0,0
5.5196e+05,2.4247e+08,5,5753,5842,15.32,3.35,27,74,0,0
5.5282e+05,2.4268e+08,5,5836,5757,15.32,3.19,27,74,0,0
5.5324e+05,2.4279e+08,5,5748,5671,15.32,3.19,27,74,0,0
5.5367e+05,2.429e+08,5,5672,5714,15.26,3.26,27,74,0,0
5.5411e+05,2.4301e+08,5,5714,5714,15.34,3.25,27,74,0,0
5.5457e+05,2.4312e+08,5,5704,5657,15.3,3.19,27,74,0,0
5.5497e+05,2.4322e+08,5,5659,5714,15.28,2.88,27,74,0,0
5.5541e+05,2.4333e+08,5,5706,5542,15.38,3.3,27,74,0,0
5.559e+05,2.4344e+08,5,5544,5585,15.34,3.14,27,75,0,0
5.5634e+05,2.4355e+08,5,5590,5642,15.29,3.1,27,75,0,0
5.5718e+05,2.4376e+08,5,5642,5742,15.32,3.21,27,75,0,0
5.5761e+05,2.4387e+08,5,5742,5757,15.33,3.18,27,75,0,0
5.5809e+05,2.4399e+08,5,5753,5714,15.36,3.37,27,75,0,0
5.585e+05,2.4409e+08,5,5714,5757,15.38,3.12,27,75,0,0
5.5898e+05,2.442e+08,5,5745,5585,15.45,2.55,27,75,0,0
5.5938e+05,2.4431e+08,5,5567,5357,15.42,2.75,27,75,0,0
5.5984e+05,2.4442e+08,5,5371,5485,15.38,2.9,27,75,0,0
5.6028e+05,2.4453e+08,5,5479,5428,15.42,2.69,27,75,0,0
5.6066e+05,2.4463e+08,5,5424,5371,15.42,2.51,27,76,0,0
5.6109e+05,2.4473e+08,5,5342,3500,15.94,0.19,27,76,0,0
5.6158e+05,2.4485e+08,5,3492,3414,15.85,0.98,27,76,0,0
5.6198e+05,2.4495e+08,5,3397,2714,15.81,0.23,27,76,0,0
5.6247e+05,2.4507e+08,5,2720,2800,15.8,0.58,27,76,0,0
5.6333e+05,2.4528e+08,5,2796,2642,15.82,0.51,27,76,0,0
5.638e+05,2.454e+08,5,2646,2700,15.81,0.38,27,76,0,0
5.6419e+05,2.455e+08,5,2699,2671,15.81,0.34,27,76,0,0
5.6464e+05,2.4561e+08,5,2673,2728,15.8,0.47,27,76,0,0
5.6508e+05,2.4571e+08,5,2727,2714,15.82,0.41,27,76,0,0
5.6552e+05,2.4582e+08,5,2714,2728,15.8,0.43,27,76,0,0
5.6596e+05,2.4593e+08,5,2726,2714,15.82,0.37,27,76,0,0
5.6638e+05,2.4603e+08,5,2713,2700,15.82,0.4,27,76,0,0
5.6682e+05,2.4614e+08,5,2700,2700,15.81,0.37,27,76,0,0
5.6731e+05,2.4626e+08,5,2701,2714,15.8,0.43,27,76,0,0
5.6771e+05,2.4636e+08,5,2715,2757,15.81,0.46,27,76,0,0
5.682e+05,2.4647e+08,5,2760,2814,15.8,0.45,27,76,0,0
5.6861e+05,2.4658e+08,5,2814,2814,15.82,0.43,27,76,0,0
5.6906e+05,2.4668e+08,5,2812,2800,15.82,0.44,27,76,0,0
5.695e+05,2.4679e+08,5,2778,2328,15.92,0.08,27,76,0,0
5.6999e+05,2.4691e+08,5,2265,1714,15.9,0,27,76,0,0
5.704e+05,2.4701e+08,5,1699,1371,15.89,0.02,27,76,0,0
5.7084e+05,2.4711e+08,5,1370,1300,15.88,0.07,27,76,0,0
5.7131e+05,2.4723e+08,5,1298,1285,15.88,0.09,27,76,0,0
5.717e+05,2.4733e+08,5,1285,1285,15.88,0.09,27,76,0,0
5.7216e+05,2.4744e+08,5,1284,1271,15.88,0.09,27,76,0,0
5.7305e+05,2.4766e+08,5,1271,1271,15.88,0.09,27,76,0,0
5.735e+05,2.4777e+08,5,1271,1285,15.9,0.09,27,76,0,0
5.7395e+05,2.4788e+08,5,1285,1285,15.89,0.09,27,76,0,0
5.7436e+05,2.4798e+08,5,1285,1285,15.89,0.09,27,76,0,0
5.7485e+05,2.481e+08,5,1285,1285,15.9,0.09,27,76,0,0
5.7528e+05,2.4821e+08,5,1283,1271,15.89,0.09,27,76,0,0
5.7571e+05,2.4831e+08,5,1272,1285,15.89,0.09,27,76,0,0
5.7615e+05,2.4843e+08,5,1285,1285,15.91,0.09,27,76,0,0
5.766e+05,2.4854e+08,5,1285,1285,15.91,0.09,26,76,0,0
5.7705e+05,2.4865e+08,5,1285,1285,15.91,0.09,27,76,0,0
5.7745e+05,2.4875e+08,5,1285,1285,15.91,0.09,27,76,0,0
5.7791e+05,2.4885e+08,5,1284,1271,15.91,0.09,27,76,0,0
5.7838e+05,2.4897e+08,5,1272,1285,15.91,0.09,26,76,0,0
5.7881e+05,2.4908e+08,5,1283,1271,15.91,0.09,26,76,0,0
5.7969e+05,2.4929e+08,5,1271,1271,15.92,0.09,26,76,0,0
5.801e+05,2.4939e+08,5,1272,1285,15.92,0.09,26,76,0,0
5.8055e+05,2.495e+08,5,1285,1285,15.92,0.09,26,76,0,0
5.8099e+05,2.4961e+08,5,1285,1285,15.92,0.09,26,76,0,0
5.8144e+05,2.4971e+08,5,1284,1271,15.92,0.09,27,76,0,0
5.8187e+05,2.4982e+08,5,1271,1271,15.91,0.09,26,76,0,0
5.8226e+05,2.4993e+08,5,1271,1285,15.92,0.09,27,76,0,0
5.8271e+05,2.5003e+08,5,1285,1285,15.92,0.09,26,76,0,0
5.8316e+05,2.5015e+08,5,1285,1285,15.93,0.09,26,76,0,0
5.8361e+05,2.5025e+08,5,1283,1271,15.92,0.09,26,76,0,0
5.8406e+05,2.5036e+08,5,1271,1271,15.93,0.09,26,76,0,0
5.8451e+05,2.5047e+08,5,1271,1285,15.92,0.09,26,76,0,0
5.8495e+05,2.5058e+08,5,1283,1271,15.93,0.09,26,76,0,0
5.8537e+05,2.5068e+08,5,1271,1285,15.94,0.09,26,76,0,0
5.8582e+05,2.5079e+08,5,1285,1285,15.94,0.09,26,76,0,0
5.8626e+05,2.5089e+08,5,1285,1285,15.93,0.09,26,76,0,0
5.8667e+05,2.51e+08,5,1285,1285,15.94,0.09,26,76,0,0
5.8715e+05,2.5111e+08,5,1285,1285,15.94,0.09,26,76,0,0
5.8764e+05,2.5123e+08,5,1285,1285,15.94,0.09,26,76,0,0
5.8806e+05,2.5133e+08,5,1274,400,15.96,0,26,76,0,0
5.8853e+05,2.5144e+08,5,370,0,15.95,0,26,76,0,0
5.8897e+05,2.5155e+08,5,0,0,15.96,0.01,26,76,0,0
5.8942e+05,2.5166e+08,5,0,0,15.96,0.01,26,76,0,0
5.8987e+05,2.5176e+08,5,0,0,15.96,0.01,26,76,0,0
5.9037e+05,2.5188e+08,5,0,0,15.96,0.02,26,76,0,0
5.9082e+05,2.5199e+08,5,0,0,15.97,0.02,26,76,0,0
5.9132e+05,2.521e+08,5,0,0,15.96,0.02,26,76,0,0
5.9175e+05,2.522e+08,5,0,0,15.97,0.02,26,76,0,0
5.9267e+05,2.5242e+08,5,0,0,15.97,0.02,26,76,0,0
5.9308e+05,2.5252e+08,5,0,0,15.97,0.01,26,76,0,0
5.9358e+05,2.5264e+08,5,0,0,15.97,0.01,26,76,0,0
5.9403e+05,2.5274e+08,5,0,0,15.97,0.02,26,76,0,0
5.9448e+05,2.5285e+08,5,0,0,15.97,0.02,26,76,0,0
5.9493e+05,2.5296e+08,5,0,0,15.97,0.02,26,76,0,0
5.9539e+05,2.5306e+08,5,0,0,15.97,0.02,26,76,0,0
5.9587e+05,2.5318e+08,5,0,0,15.97,0.01,26,76,0,0
5.9634e+05,2.5329e+08,5,0,0,15.98,0.01,26,76,0,0
5.9675e+05,2.5339e+08,5,0,0,15.98,0.01,26,76,0,0
5.972e+05,2.535e+08,5,0,0,15.98,0.02,26,76,0,0
5.9766e+05,2.5361e+08,5,0,0,15.98,0.02,26,76,0,0
5.9815e+05,2.5372e+08,5,0,0,15.98,0.01,26,76,0,0
5.986e+05,2.5382e+08,5,0,0,15.98,0.02,26,76,0,0
5.9905e+05,2.5393e+08,5,0,0,15.98,0.02,26,76,0,0
5.9948e+05,2.5403e+08,5,0,0,15.98,0.02,26,76,0,0
5.9992e+05,2.5414e+08,5,0,0,15.98,0.02,26,76,0,0
6.0037e+05,2.5425e+08,5,0,0,15.98,0.02,26,76,0,0
6.0118e+05,2.5447e+08,5,0,0,16,0.02,26,76,0,0
6.0163e+05,2.5458e+08,5,0,0,15.99,0.02,26,76,0,0
6.0213e+05,2.5469e+08,5,0,0,15.99,0.02,26,76,0,0
6.0254e+05,2.5479e+08,5,0,0,16,0.02,25,76,0,0
6.0303e+05,2.5491e+08,5,0,0,15.99,0.01,26,76,0,0
6.0346e+05,2.5501e+08,5,0,0,15.99,0.01,26,76,0,0
6.0389e+05,2.5512e+08,5,0,0,15.99,0.02,26,76,0,0
