LineNo,TimeUS,Instance,RPM,RawRPM,Volt,Curr,Temp,CTot,MotTemp,Err
1513,21778277,3,0,0,16.24,0.04,24,0,0,0
1882,21870492,3,0,0,16.24,0.04,24,0,0,0
2340,21984574,3,0,0,16.24,0.04,23,0,0,0
3199,22195487,3,0,0,16.24,0.04,24,0,0,0
3654,22305828,3,0,0,16.24,0.04,23,0,0,0
4066,22408224,3,0,0,16.24,0.05,24,0,0,0
4485,22514383,3,0,0,16.24,0.05,24,0,0,0
4897,22615587,3,0,0,16.24,0.04,24,0,0,0
5351,22727674,3,0,0,16.25,0.04,24,0,0,0
5770,22835453,3,0,0,16.25,0.04,24,0,0,0
6225,22947609,3,0,0,16.25,0.04,24,0,0,0
6640,23050059,3,0,0,16.24,0.04,24,0,0,0
7057,23154479,3,0,0,16.24,0.04,24,0,0,0
7511,23267211,3,0,0,16.24,0.04,24,0,0,0
7922,23370851,3,0,0,16.24,0.05,24,0,0,0
8331,23471423,3,0,0,16.25,0.04,24,0,0,0
8776,23579859,3,0,0,16.24,0.04,24,0,0,0
9230,23693185,3,0,0,16.24,0.04,24,0,0,0
9637,23797230,3,0,0,16.24,0.04,24,0,0,0
9991,23898457,3,0,0,16.24,0.05,24,0,0,0
10442,24009718,3,0,0,16.24,0.04,24,0,0,0
10858,24116258,3,0,0,16.23,0.04,24,0,0,0
11269,24221262,3,0,0,16.24,0.04,24,0,0,0
11727,24333791,3,0,0,16.24,0.04,24,0,0,0
12140,24437375,3,0,0,16.24,0.04,24,0,0,0
12553,24541517,3,0,0,16.24,0.04,24,0,0,0
12970,24646865,3,0,0,16.24,0.04,24,0,0,0
13383,24750676,3,0,0,16.24,0.04,24,0,0,0
13835,24860525,3,0,0,16.25,0.04,24,0,0,0
14247,24964389,3,0,0,16.25,0.04,24,0,0,0
14696,25076856,3,0,0,16.24,0.05,24,0,0,0
15116,25181211,3,0,0,16.24,0.04,24,0,0,0
15579,25296216,3,0,0,16.24,0.04,24,0,0,0
15953,25388597,3,0,0,16.24,0.05,24,0,0,0
16409,25499804,3,0,0,16.24,0.05,24,0,0,0
16821,25603245,3,0,0,16.24,0.05,24,0,0,0
17279,25717516,3,0,0,16.25,0.04,24,0,0,0
17694,25822191,3,0,0,16.23,0.04,24,0,0,0
18108,25926451,3,0,0,16.23,0.04,24,0,0,0
18522,26030630,3,0,0,16.24,0.04,24,0,0,0
18944,26136996,3,0,0,16.24,0.04,24,0,0,0
19391,26248764,3,0,0,16.24,0.04,24,0,0,0
19806,26354196,3,0,0,16.24,0.05,24,0,0,0
20222,26460474,3,0,0,16.24,0.05,24,0,0,0
20676,26571880,3,0,0,16.24,0.05,24,0,0,0
21094,26675627,3,0,0,16.24,0.05,24,0,0,0
21506,26780297,3,0,0,16.24,0.05,24,0,0,0
21918,26884314,3,0,0,16.24,0.05,24,0,0,0
22331,26989715,3,0,0,16.24,0.05,24,0,0,0
22783,27101613,3,0,0,16.25,0.05,24,0,0,0
23235,27213053,3,0,0,16.24,0.05,24,0,0,0
23623,27314196,3,0,0,16.24,0.05,24,0,0,0
24068,27419033,3,0,0,16.24,0.05,24,0,0,0
24486,27525592,3,0,0,16.23,0.05,24,0,0,0
24944,27640020,3,0,0,16.24,0.04,24,0,0,0
25354,27740691,3,0,0,16.24,0.05,24,0,0,0
25767,27847277,3,0,0,16.24,0.04,24,0,0,0
26182,27955168,3,0,0,16.25,0.05,24,0,0,0
26596,28061419,3,0,0,16.24,0.05,24,0,0,0
27050,28173486,3,0,0,16.23,0.05,24,0,0,0
27463,28277735,3,0,0,16.25,0.05,24,0,0,0
27917,28390730,3,0,0,16.25,0.05,24,0,0,0
28324,28492329,3,0,0,16.24,0.04,24,0,0,0
28780,28604171,3,0,0,16.24,0.04,24,0,0,0
29192,28708566,3,0,0,16.24,0.04,24,0,0,0
29598,28810849,3,0,0,16.24,0.04,24,0,0,0
30046,28917819,3,0,0,16.24,0.04,24,0,0,0
30460,29021927,3,0,0,16.24,0.04,24,0,0,0
30911,29132881,3,0,0,16.23,0.04,24,0,0,0
31326,29236292,3,0,0,16.25,0.04,24,0,0,0
31739,29341261,3,0,0,16.24,0.04,24,0,0,0
32149,29443673,3,0,0,16.24,0.04,24,0,0,0
32632,29560629,3,0,0,16.23,0.04,24,0,0,0
193066,153172711,3,0,0,0,0,0,0,0,0
193481,153278016,3,0,0,0,0.04,0,0,0,0
195968,153917191,3,0,0,0,0.05,0,0,0,0
196419,154030858,3,0,0,0,0.05,0,0,0,0
196796,154131678,3,0,0,16.23,0.04,25,0,0,0
197247,154245217,3,0,0,16.22,0.04,25,0,0,0
197655,154350067,3,0,0,16.22,0.04,25,0,0,0
198109,154462849,3,0,0,16.23,0.04,25,0,0,0
198519,154568287,3,0,0,16.23,0.04,26,0,0,0
198936,154673263,3,0,0,16.22,0.04,25,0,0,0
199349,154783185,3,0,0,16.22,0.04,26,0,0,0
199804,154897613,3,0,0,16.22,0.04,26,0,0,0
200218,155006239,3,0,0,16.22,0.04,25,0,0,0
200593,155105399,3,0,0,16.22,0.04,26,0,0,0
201042,155219259,3,0,0,16.22,0.04,26,0,0,0
201836,155427263,3,0,0,16.22,0.04,25,0,0,0
202250,156402462,3,0,0,16.23,0.04,26,0,0,0
202547,156482271,3,0,0,16.22,0.04,26,0,0,0
203035,156596983,3,0,0,16.22,0.04,25,0,0,0
203497,156706631,3,0,0,16.22,0.04,25,0,0,0
203952,156812062,3,0,0,16.22,0.04,26,0,0,0
204408,156922243,3,0,0,16.22,0.04,25,0,0,0
204864,157031330,3,0,0,16.23,0.04,26,0,0,0
205319,157140193,3,0,0,16.23,0.04,25,0,0,0
205773,157244379,3,0,0,16.22,0.04,26,0,0,0
206229,157352038,3,0,0,16.22,0.05,26,0,0,0
206684,157457842,3,0,0,16.22,0.05,25,0,0,0
207164,157571713,3,0,0,16.22,0.04,26,0,0,0
207605,157677092,3,0,0,16.22,0.04,26,0,0,0
208013,157778709,3,0,0,16.22,0.05,26,0,0,0
208555,157901268,3,0,0,16.22,0.05,25,0,0,0
208965,157998693,3,0,0,16.22,0.05,25,0,0,0
209452,158111858,3,0,0,16.22,0.05,25,0,0,0
209904,158215785,3,0,0,16.23,0.05,25,0,0,0
210354,158321833,3,0,0,16.22,0.05,26,0,0,0
210854,158436032,3,0,0,16.22,0.04,26,0,0,0
211267,158538223,3,8,185,16.22,0.05,26,0,0,0
211772,158653697,3,223,642,16.19,0.11,25,0,0,0
212207,158757264,3,673,1014,16.2,0.17,25,0,0,0
212641,158860735,3,1021,1214,16.21,0.13,26,0,0,0
213091,158969867,3,1216,1271,16.2,0.12,26,0,0,0
214048,159194401,3,1272,1314,16.2,0.11,26,0,0,0
214503,159303655,3,1314,1314,16.21,0.11,26,0,0,0
214957,159408347,3,1315,1328,16.2,0.11,26,0,0,0
215405,159511384,3,1328,1328,16.2,0.11,26,0,0,0
215863,159617361,3,1327,1314,16.2,0.11,26,0,0,0
216814,159839719,3,1314,1314,16.2,0.11,26,0,0,0
217487,160055853,3,1314,1314,16.21,0.11,26,0,0,0
217934,160163050,3,1314,1314,16.21,0.11,26,0,0,0
218388,160266286,3,1314,1328,16.21,0.11,26,0,0,0
218885,160382267,3,1326,1314,16.21,0.11,26,0,0,0
219345,160487624,3,1315,1328,16.2,0.11,26,0,0,0
219792,160589431,3,1327,1314,16.2,0.11,26,0,0,0
220221,160695274,3,1314,1314,16.21,0.11,26,0,0,0
220713,160810284,3,1314,1314,16.2,0.11,26,0,0,0
221168,160920436,3,1314,1314,16.2,0.11,26,0,0,0
221590,161022673,3,1314,1314,16.2,0.11,26,0,0,0
222076,161136199,3,1314,1314,16.2,0.11,26,0,0,0
222509,161238836,3,1314,1314,16.2,0.11,26,0,0,0
222950,161344829,3,1314,1328,16.2,0.11,26,0,0,0
223450,161457820,3,1327,1314,16.21,0.11,26,0,0,0
223906,161567589,3,1314,1314,16.2,0.11,26,0,0,0
224361,161670314,3,1314,1314,16.2,0.11,26,0,0,0
224856,161785594,3,1314,1314,16.21,0.11,26,0,0,0
225310,161888458,3,1314,1314,16.2,0.11,26,0,0,0
225766,161997607,3,1314,1314,16.2,0.11,26,0,0,0
226222,162100693,3,1314,1314,16.2,0.11,26,0,0,0
226713,162215454,3,1314,1314,16.21,0.11,26,0,0,0
227204,162328587,3,1314,1314,16.2,0.11,26,0,0,0
227636,162429844,3,1314,1314,16.2,0.11,26,0,0,0
228077,162537572,3,1314,1314,16.2,0.11,26,0,0,0
228530,162639274,3,1314,1342,16.19,0.14,26,0,0,0
229027,162755674,3,1361,1628,16.17,0.27,26,0,0,0
229526,162867726,3,1675,2228,16.12,0.52,26,0,0,0
229976,162971829,3,2233,2314,16.13,0.41,26,0,0,0
230430,163074578,3,2315,2414,16.1,0.45,26,0,0,0
230881,163184556,3,2416,2471,16.14,0.45,26,0,0,0
231381,163299242,3,2480,2585,16,0.68,26,0,0,0
231827,163406870,3,2631,3271,15.93,1.24,26,0,0,0
232328,163527632,3,3360,4042,15.89,1.97,26,0,0,0
232716,163621020,3,4069,4714,15.76,2.36,26,0,0,0
233199,163741063,3,4763,5271,15.69,2.98,26,0,0,0
233654,163850061,3,5313,5728,15.56,3.83,26,0,0,0
234108,163958302,3,5754,6014,15.63,3.53,26,0,0,0
234561,164063052,3,5994,5700,15.68,2.55,26,1,0,0
234972,164165455,3,5699,5685,15.71,2.63,26,1,0,0
235468,164281826,3,5658,5371,15.62,2.21,26,1,0,0
235878,164383265,3,5372,5400,15.66,2.52,26,1,0,0
236330,164490485,3,5399,5342,15.68,2.46,26,1,0,0
236767,164598405,3,5337,5242,15.63,2.22,26,1,0,0
237239,164716866,3,5218,5028,15.64,2.08,26,1,0,0
238601,165038492,3,5035,5357,15.57,2.45,26,1,0,0
239011,165139827,3,5356,5314,15.61,2.35,26,1,0,0
239507,165255581,3,5309,5257,15.67,2.3,26,1,0,0
239958,165360411,3,5258,5285,15.66,2.18,26,1,0,0
240459,165480563,3,5267,5085,15.65,2.11,26,1,0,0
240912,165590260,3,5109,5342,15.69,2.46,26,2,0,0
241367,165701407,3,5327,5200,15.63,2.35,26,2,0,0
241821,165809826,3,5211,5371,15.62,2.67,26,2,0,0
242279,165917704,3,5378,5442,15.68,2.64,26,2,0,0
242714,166025317,3,5448,5542,15.67,3.17,26,2,0,0
243147,166131845,3,5551,5671,15.65,3.05,26,2,0,0
243643,166248283,3,5664,5600,15.61,3.29,26,2,0,0
244053,166350260,3,5605,5714,15.63,3.31,26,2,0,0
244549,166465572,3,5731,5914,15.65,3.29,26,2,0,0
244997,166569817,3,5914,5914,15.64,3.21,26,2,0,0
245494,166686030,3,5899,5771,15.61,3.33,26,2,0,0
245901,166787172,3,5771,5785,15.62,3.2,26,3,0,0
246393,166905622,3,5783,5771,15.67,3.29,26,3,0,0
246852,167011278,3,5767,5728,15.66,3.07,26,3,0,0
247302,167119029,3,5729,5742,15.63,2.83,26,3,0,0
247755,167226038,3,5738,5657,15.59,2.79,26,3,0,0
248206,167334806,3,5655,5585,15.56,2.92,26,3,0,0
248682,167450034,3,5595,5700,15.64,2.68,26,3,0,0
249128,167560421,3,5679,5471,15.62,2.71,26,3,0,0
249584,167666667,3,5469,5442,15.53,2.8,26,3,0,0
249993,167766787,3,5444,5600,15.55,2.89,26,3,0,0
250489,167882369,3,5595,5528,15.57,2.79,27,3,0,0
250944,167989489,3,5528,5542,15.58,2.74,27,3,0,0
251443,168110441,3,5521,5328,15.61,2.61,27,4,0,0
251854,168207630,3,5335,5485,15.59,2.67,26,4,0,0
252346,168322837,3,5485,5485,15.63,2.59,27,4,0,0
252801,168429213,3,5485,5485,15.59,2.61,27,4,0,0
253221,168537466,3,5469,5328,15.58,2.7,27,4,0,0
253674,168641661,3,5328,5342,15.64,2.81,27,4,0,0
254155,168756065,3,5352,5457,15.54,2.8,27,4,0,0
254586,168859443,3,5466,5671,15.59,3.53,27,4,0,0
255033,168970299,3,5687,5914,15.61,3.76,27,4,0,0
255455,169074872,3,5912,5800,15.59,3.21,27,4,0,0
256398,169302864,3,5754,5157,15.58,2.01,27,5,0,0
256841,169402185,3,5149,5057,15.58,1.86,27,5,0,0
257296,169511384,3,5049,4971,15.6,1.88,27,5,0,0
257753,169620878,3,4964,4871,15.57,1.89,27,5,0,0
258207,169733594,3,4869,4842,15.57,1.96,27,5,0,0
258660,169841224,3,4846,4914,15.58,1.89,27,5,0,0
259064,169942313,3,4914,4914,15.57,2.1,27,5,0,0
259543,170056004,3,4914,4914,15.6,2.05,27,5,0,0
259979,170157197,3,4915,4985,15.58,2.19,27,5,0,0
260435,170266426,3,4986,5142,15.6,2.02,27,5,0,0
260931,170385271,3,5144,5171,15.61,2.38,27,5,0,0
261388,170493651,3,5185,5328,15.56,2.32,27,5,0,0
261835,170600368,3,5322,5242,15.61,2.14,27,5,0,0
262738,170816810,3,5234,5042,15.6,2.18,27,5,0,0
263190,170925608,3,5043,5142,15.59,2.2,27,5,0,0
263687,171041802,3,5142,5142,15.57,2.3,27,6,0,0
264096,171142464,3,5143,5214,15.54,2.64,27,6,0,0
264594,171258711,3,5257,5700,15.56,2.47,27,6,0,0
264993,171357665,3,5669,5028,15.54,1.97,27,6,0,0
265471,171473220,3,5033,5114,15.54,1.99,27,6,0,0
265919,171583303,3,5102,4942,15.5,1.59,27,6,0,0
266371,171689949,3,4938,4900,15.58,1.32,27,6,0,0
266822,171800412,3,4920,5128,15.51,3.2,27,6,0,0
267277,171910043,3,5125,5100,15.52,2.29,27,6,0,0
267730,172017867,3,5109,5214,15.49,2.5,27,6,0,0
268178,172132724,3,5191,5028,15.57,2.14,27,6,0,0
268591,172229566,3,5029,5085,15.51,2.24,27,6,0,0
269040,172340071,3,5092,5157,15.54,2.26,27,6,0,0
269491,172444695,3,5157,5157,15.54,2.35,27,6,0,0
269978,172563271,3,5155,5142,15.6,2.39,27,7,0,0
270387,172661205,3,5138,5071,15.58,2.38,27,7,0,0
270828,172776068,3,5071,5071,15.55,1.94,27,7,0,0
271660,172988301,3,5065,4928,15.55,2.25,27,7,0,0
272110,173098218,3,4929,5000,15.52,2.02,27,7,0,0
272551,173207171,3,5013,5171,15.54,2.48,27,7,0,0
273443,173426570,3,5166,5071,15.5,2.22,27,7,0,0
273894,173541609,3,5067,5028,15.58,2.16,27,7,0,0
274340,173649667,3,5026,5014,15.56,1.98,27,7,0,0
274779,173752045,3,5014,5042,15.52,2.12,27,7,0,0
275228,173866577,3,5042,5042,15.58,2.16,27,7,0,0
275625,173970225,3,5042,5085,15.51,2.11,27,7,0,0
276095,174086678,3,5092,5200,15.55,2.39,27,7,0,0
276502,174195068,3,5204,5300,15.53,2.34,27,8,0,0
276957,174308867,3,5290,5214,15.59,2.33,27,8,0,0
277408,174416690,3,5221,5328,15.59,2.33,27,8,0,0
277854,174527728,3,5325,5300,15.55,2.41,27,8,0,0
278304,174637250,3,5309,5400,15.52,2.55,27,8,0,0
278705,174737224,3,5397,5257,15.51,2.43,27,8,0,0
279154,174847661,3,5257,5285,15.5,2.23,27,8,0,0
279602,174960179,3,5286,5300,15.54,2.31,27,8,0,0
280050,175066728,3,5286,5085,15.52,2.23,27,8,0,0
280486,175179564,3,5093,5228,15.5,2.21,27,8,0,0
280876,175279698,3,5220,5057,15.5,2.12,27,8,0,0
281773,175498274,3,5056,5042,15.52,2.35,27,8,0,0
282218,175610296,3,5049,5185,15.5,2.66,27,8,0,0
282629,175718325,3,5197,5357,15.51,2.77,27,9,0,0
283035,175819108,3,5359,5442,15.54,2.57,27,9,0,0
283484,175931704,3,5441,5428,15.47,2.57,27,9,0,0
283937,176043603,3,5428,5428,15.51,2.45,27,9,0,0
284388,176158280,3,5416,5300,15.5,2.36,27,9,0,0
284796,176260683,3,5288,5128,15.47,2.07,27,9,0,0
285222,176367101,3,5135,5228,15.47,2.5,27,9,0,0
285615,176470250,3,5228,5228,15.51,2.48,27,9,0,0
286054,176580875,3,5220,5071,15.56,2.05,27,9,0,0
286506,176691665,3,5086,5242,15.54,2.4,27,9,0,0
286949,176799618,3,5239,5214,15.54,2.28,27,9,0,0
287363,176907463,3,5214,5214,15.51,2.36,27,9,0,0
287766,177004457,3,5214,5228,15.53,2.49,27,9,0,0
288215,177116308,3,5228,5300,15.46,2.6,27,9,0,0
288702,177232031,3,5305,5385,15.43,2.52,27,10,0,0
289145,177342042,3,5381,5300,15.51,2.3,27,10,0,0
289596,177449313,3,5296,5228,15.52,2.36,27,10,0,0
290047,177564591,3,5225,5200,15.55,2.06,27,10,0,0
290455,177662649,3,5187,4942,15.57,1.82,27,10,0,0
290902,177775129,3,4945,5000,15.5,1.98,27,10,0,0
291351,177881926,3,5006,5085,15.47,2.34,27,10,0,0
291775,177987041,3,5081,5014,15.54,2.12,27,10,0,0
292169,178090698,3,5016,5128,15.5,2.43,27,10,0,0
292646,178206799,3,5121,5042,15.55,1.87,27,10,0,0
293099,178320044,3,5063,5200,15.55,2.34,27,10,0,0
293549,178428050,3,5192,5085,15.5,2.06,27,10,0,0
293954,178531241,3,5097,5257,15.54,2.48,27,10,0,0
294400,178639230,3,5264,5328,15.49,2.67,27,10,0,0
294806,178743030,3,5328,5342,15.52,2.55,27,10,0,0
295253,178850182,3,5342,5342,15.43,2.46,27,11,0,0
295697,178957070,3,5332,5242,15.53,2.44,27,11,0,0
296109,179062181,3,5243,5285,15.51,2.45,27,11,0,0
296593,179181722,3,5279,5228,15.45,2.58,27,11,0,0
296998,179280322,3,5236,5400,15.45,2.64,27,11,0,0
297436,179391420,3,5408,5500,15.45,2.57,27,11,0,0
297897,179503313,3,5476,5285,15.45,2.39,27,11,0,0
298345,179612440,3,5299,5442,15.51,2.48,27,11,0,0
298800,179728272,3,5425,5285,15.47,2.51,27,11,0,0
299203,179823060,3,5285,5285,15.52,2.48,27,11,0,0
299692,179942836,3,5296,5414,15.45,2.93,27,11,0,0
300098,180043322,3,5426,5585,15.44,2.93,27,11,0,0
300543,180153412,3,5592,5742,15.38,3.53,27,12,0,0
301398,180367306,3,5742,5785,15.43,3.04,27,12,0,0
301883,180480106,3,5778,5642,15.42,2.98,27,12,0,0
302276,180583423,3,5641,5600,15.42,2.7,27,12,0,0
302739,180694485,3,5596,5528,15.47,2.63,27,12,0,0
303183,180807605,3,5528,5528,15.39,2.71,27,12,0,0
303638,180921929,3,5505,5257,15.46,2.4,27,12,0,0
304083,181027650,3,5259,5285,15.41,2.44,27,12,0,0
304525,181136919,3,5295,5542,15.33,2.99,27,12,0,0
304970,181242703,3,5544,5571,15.37,2.8,27,12,0,0
305380,181351621,3,5564,5428,15.48,2.46,27,12,0,0
305836,181461275,3,5415,5128,15.47,2.09,27,13,0,0
306281,181572087,3,5132,5200,15.38,2.54,27,13,0,0
306729,181679227,3,5220,5485,15.38,2.68,27,13,0,0
307177,181793452,3,5464,5271,15.45,2.48,27,13,0,0
307622,181897583,3,5271,5271,15.42,2.24,27,13,0,0
308072,182009911,3,5278,5357,15.45,2.73,27,13,0,0
308516,182117104,3,5368,5514,15.44,2.8,27,13,0,0
308959,182223219,3,5519,5642,15.43,2.71,27,13,0,0
309405,182334824,3,5636,5528,15.42,3.02,27,13,0,0
309859,182445813,3,5531,5585,15.41,3.01,27,13,0,0
310747,182658997,3,5583,5385,15.44,2.65,27,13,0,0
311683,182886736,3,5392,5542,15.4,2.72,27,14,0,0
312074,182988586,3,5537,5500,15.45,2.62,27,14,0,0
312501,183093393,3,5500,5514,15.48,2.63,27,14,0,0
312948,183207718,3,5511,5485,15.39,2.72,27,14,0,0
313391,183316579,3,5471,5357,15.45,2.59,27,14,0,0
313838,183422416,3,5361,5442,15.44,2.9,27,14,0,0
314290,183534104,3,5438,5400,15.4,2.73,27,14,0,0
314694,183632288,3,5403,5585,15.4,2.93,27,14,0,0
315144,183744808,3,5584,5571,15.43,2.78,27,14,0,0
315591,183852887,3,5568,5457,15.39,2.79,27,14,0,0
316020,183960702,3,5459,5657,15.36,2.98,27,14,0,0
316449,184068592,3,5657,5714,15.42,2.92,27,15,0,0
316922,184181804,3,5706,5600,15.39,3.21,27,15,0,0
317372,184290254,3,5617,5857,15.39,3.21,28,15,0,0
317819,184401578,3,5847,5714,15.4,3.01,27,15,0,0
318226,184502384,3,5714,5742,15.34,3.01,27,15,0,0
318710,184618053,3,5737,5671,15.4,2.99,27,15,0,0
319156,184733577,3,5659,5557,15.37,2.84,27,15,0,0
319564,184829677,3,5557,5571,15.38,2.8,27,15,0,0
320006,184942299,3,5560,5414,15.44,2.62,27,15,0,0
320437,185051670,3,5426,5557,15.42,2.77,27,15,0,0
320837,185156848,3,5555,5542,15.39,2.63,27,15,0,0
321283,185262902,3,5534,5457,15.43,2.46,27,15,0,0
322143,185476696,3,5452,5228,15.42,2.35,28,16,0,0
322586,185590486,3,5235,5300,15.45,2.52,27,16,0,0
323036,185701104,3,5314,5414,15.32,2.69,27,16,0,0
323440,185799863,3,5410,5314,15.42,2.79,27,16,0,0
323890,185911082,3,5320,5428,15.44,2.53,27,16,0,0
324335,186026696,3,5420,5357,15.39,2.78,28,16,0,0
324743,186128701,3,5372,5514,15.38,2.81,27,16,0,0
325192,186235343,3,5504,5385,15.35,2.9,27,16,0,0
325601,186337263,3,5386,5500,15.34,2.73,27,16,0,0
326090,186458865,3,5488,5385,15.38,2.52,27,16,0,0
326494,186562272,3,5389,5442,15.41,2.7,27,16,0,0
326944,186668025,3,5440,5414,15.35,2.49,28,17,0,0
327374,186781230,3,5422,5614,15.39,3.04,27,17,0,0
328290,187008674,3,5610,5457,15.41,2.49,27,17,0,0
329145,187221693,3,5452,5271,15.42,2.69,27,17,0,0
329631,187339899,3,5277,5342,15.36,2.67,27,17,0,0
330039,187438329,3,5350,5414,15.45,2.59,28,17,0,0
330446,187540601,3,5415,5428,15.44,2.59,28,17,0,0
331332,187768280,3,5428,5442,15.32,2.81,27,17,0,0
331764,187875930,3,5444,5471,15.32,3.01,28,17,0,0
332162,187980556,3,5495,5700,15.37,2.99,28,17,0,0
332608,188087901,3,5694,5628,15.28,2.8,28,18,0,0
333057,188199592,3,5606,5300,15.36,2.32,28,18,0,0
333466,188300845,3,5304,5414,15.42,2.35,28,18,0,0
333915,188411646,3,5407,5271,15.42,2.12,28,18,0,0
334404,188532181,3,5255,5085,15.36,2.1,28,18,0,0
334768,188622953,3,5083,4985,15.46,2.08,28,18,0,0
335254,188743188,3,4983,4971,15.38,2.03,27,18,0,0
335705,188851588,3,4981,5171,15.33,2.61,28,18,0,0
336146,188959043,3,5175,5228,15.39,2.56,28,18,0,0
337001,189173129,3,5227,5214,15.4,2.49,28,18,0,0
337449,189281073,3,5210,5085,15.44,2.37,28,18,0,0
337906,189398336,3,5081,5042,15.41,2.09,28,18,0,0
338316,189501283,3,5043,5157,15.35,2.39,28,19,0,0
338742,189609677,3,5158,5228,15.41,2.43,28,19,0,0
339210,189726872,3,5216,5100,15.44,2.52,28,19,0,0
339585,189824297,3,5105,5242,15.36,2.31,28,19,0,0
340031,189935253,3,5236,5157,15.39,2.4,28,19,0,0
340484,190047071,3,5158,5200,15.37,2.34,28,19,0,0
340918,190149269,3,5196,5085,15.41,2.13,28,19,0,0
341370,190259004,3,5082,5028,15.41,2.02,28,19,0,0
341823,190371571,3,5037,5185,15.41,2.26,28,19,0,0
342278,190484087,3,5177,5100,15.37,2.29,28,19,0,0
342664,190584214,3,5100,5114,15.32,2.44,28,19,0,0
343093,190692186,3,5117,5200,15.32,2.23,27,19,0,0
343581,190809920,3,5196,5157,15.39,2.29,28,19,0,0
343983,190913672,3,5159,5200,15.36,2.44,27,19,0,0
344429,191020776,3,5200,5200,15.38,2.55,28,20,0,0
344918,191136457,3,5207,5314,15.28,2.38,28,20,0,0
345371,191249220,3,5315,5342,15.29,2.63,28,20,0,0
345777,191351704,3,5337,5285,15.35,2.5,28,20,0,0
346228,191461570,3,5273,5157,15.35,2.23,28,20,0,0
346667,191572228,3,5161,5200,15.34,2.44,28,20,0,0
347099,191679008,3,5207,5314,15.38,2.25,28,20,0,0
347540,191788827,3,5302,5128,15.39,2.38,27,20,0,0
347992,191897242,3,5135,5214,15.39,2.31,28,20,0,0
348433,192004023,3,5218,5271,15.38,2.61,28,20,0,0
348884,192114874,3,5273,5300,15.36,2.61,28,20,0,0
349329,192223241,3,5293,5228,15.38,2.51,28,20,0,0
349734,192324697,3,5228,5242,15.39,2.09,28,20,0,0
350219,192437101,3,5237,5128,15.38,2.07,28,20,0,0
350620,192542315,3,5126,5028,15.48,1.95,28,21,0,0
351088,192659837,3,5020,4942,15.47,1.85,28,21,0,0
351489,192762286,3,4939,4828,15.49,1.8,28,21,0,0
351978,192879456,3,4824,4785,15.36,2.01,28,21,0,0
352382,192982013,3,4788,4885,15.45,2.19,28,21,0,0
352867,193100623,3,4904,5042,15.47,2.37,28,21,0,0
353267,193197205,3,5043,5128,15.41,2.2,28,21,0,0
353754,193307824,3,5128,5157,15.41,2.38,28,21,0,0
354201,193420241,3,5159,5200,15.45,2.2,28,21,0,0
354601,193522096,3,5198,5085,15.42,2.15,28,21,0,0
355066,193639096,3,5092,5157,15.39,2.41,28,21,0,0
355498,193749725,3,5155,5142,15.39,2.27,28,21,0,0
356389,193967827,3,5149,5257,15.37,2.29,28,21,0,0
356844,194077572,3,5229,5028,15.43,1.99,28,21,0,0
357252,194183322,3,5020,4971,15.41,2.09,28,22,0,0
357660,194282043,3,4972,5000,15.36,2.01,28,22,0,0
358106,194392517,3,4997,4942,15.47,1.91,28,22,0,0
358554,194502838,3,4937,4900,15.44,1.94,28,22,0,0
358981,194611607,3,4910,5000,15.36,2.32,28,22,0,0
359408,194725274,3,5014,5142,15.42,2.47,28,22,0,0
359856,194830847,3,5136,5085,15.39,2.23,28,22,0,0
360288,194931032,3,5089,5271,15.4,2.73,28,22,0,0
360736,195038280,3,5278,5471,15.32,2.58,28,22,0,0
361180,195149450,3,5466,5142,15.45,1.87,28,22,0,0
361674,195265280,3,5139,5114,15.37,2.17,28,22,0,0
362080,195371557,3,5110,5071,15.36,2.07,28,22,0,0
362565,195483304,3,5088,5242,15.4,2.48,28,22,0,0
362956,195587048,3,5237,5171,15.32,2.38,28,22,0,0
363385,195694447,3,5185,5414,15.37,2.99,28,22,0,0
364267,195910101,3,5414,5442,15.36,2.72,28,23,0,0
364747,196018429,3,5438,5414,15.32,2.9,28,23,0,0
365152,196119554,3,5416,5557,15.3,2.67,28,23,0,0
365592,196227051,3,5548,5385,15.37,2.5,28,23,0,0
366042,196338608,3,5385,5385,15.35,2.31,28,23,0,0
366921,196554269,3,5382,5314,15.31,2.51,28,23,0,0
367349,196662296,3,5314,5314,15.34,2.41,28,23,0,0
367785,196770559,3,5309,5200,15.26,2.3,28,23,0,0
368269,196881017,3,5198,5171,15.28,2.41,27,23,0,0
368680,196988660,3,5175,5285,15.28,2.16,28,23,0,0
369127,197102096,3,5275,5200,15.25,2.2,28,23,0,0
369531,197201699,3,5200,5214,15.29,2.56,28,24,0,0
369984,197310468,3,5220,5342,15.29,2.87,28,24,0,0
370389,197414667,3,5340,5242,15.35,2.31,27,24,0,0
370863,197525345,3,5243,5271,15.36,2.4,28,24,0,0
371292,197632056,3,5272,5314,15.26,2.6,28,24,0,0
371725,197746080,3,5313,5300,15.4,2.59,28,24,0,0
372169,197852797,3,5300,5328,15.3,2.5,28,24,0,0
372648,197966459,3,5323,5271,15.37,2.57,28,24,0,0
373097,198073345,3,5267,5228,15.3,2.5,28,24,0,0
373503,198176082,3,5224,5157,15.33,2.21,28,24,0,0
373960,198288664,3,5155,5142,15.37,2.35,28,24,0,0
374363,198388602,3,5140,5100,15.37,2.18,28,24,0,0
374856,198507324,3,5101,5114,15.32,2.49,28,24,0,0
375249,198611801,3,5121,5200,15.36,2.31,28,24,0,0
375672,198716705,3,5199,5142,15.36,2.29,28,25,0,0
376116,198823791,3,5139,5100,15.35,2.16,28,25,0,0
376564,198936330,3,5100,5100,15.35,2.13,28,25,0,0
377015,199044912,3,5096,5057,15.33,2.06,28,25,0,0
377460,199153838,3,5065,5157,15.37,2.71,28,25,0,0
377906,199261240,3,5163,5242,15.4,2.41,28,25,0,0
378313,199366199,3,5243,5271,15.35,2.68,28,25,0,0
378797,199478838,3,5284,5414,15.36,2.81,28,25,0,0
379194,199579723,3,5416,5471,15.29,2.75,28,25,0,0
379646,199690290,3,5464,5371,15.31,2.56,28,25,0,0
380092,199801186,3,5350,5142,15.42,1.87,28,25,0,0
380538,199907257,3,5127,4914,15.39,1.65,28,25,0,0
380935,200010421,3,4910,4728,15.35,1.85,28,25,0,0
381878,200235873,3,4741,5014,15.32,2.27,28,25,0,0
382708,200447428,3,5017,5100,15.33,2.53,28,26,0,0
383104,200550194,3,5102,5157,15.32,2.33,28,26,0,0
383559,200664092,3,5159,5200,15.36,2.7,28,26,0,0
384002,200771307,3,5206,5285,15.3,2.52,28,26,0,0
384450,200879846,3,5292,5357,15.39,2.56,28,26,0,0
384888,200985216,3,5344,5171,15.32,2.32,28,26,0,0
385337,201096180,3,5181,5314,15.36,2.49,28,26,0,0
385784,201209229,3,5317,5357,15.27,2.64,28,26,0,0
386234,201322814,3,5360,5400,15.29,2.54,28,26,0,0
386657,201425244,3,5399,5371,15.33,2.64,28,26,0,0
387088,201536329,3,5372,5400,15.31,2.49,28,26,0,0
387536,201644689,3,5378,5057,15.36,1.72,28,27,0,0
387941,201746662,3,5052,4828,15.41,1.59,28,27,0,0
388430,201862425,3,4824,4771,15.38,1.69,28,27,0,0
388692,201974388,3,4778,4857,15.36,1.87,28,27,0,0
389137,202079875,3,4850,4757,15.36,1.72,28,27,0,0
389581,202189577,3,4769,4900,15.35,1.99,28,27,0,0
390028,202296270,3,4901,4914,15.39,1.91,28,27,0,0
390473,202401602,3,4916,4957,15.4,1.96,28,27,0,0
390924,202516724,3,4964,5014,15.32,2.28,28,27,0,0
391308,202610452,3,5015,5085,15.35,2.1,28,27,0,0
391742,202721327,3,5086,5157,15.33,2.29,28,27,0,0
392190,202830279,3,5153,5085,15.3,2.29,28,27,0,0
392676,202956636,3,5098,5228,15.32,2.52,28,27,0,0
393525,203164670,3,5233,5385,15.27,2.53,28,27,0,0
393978,203279402,3,5387,5442,15.32,2.49,28,27,0,0
394387,203381456,3,5440,5371,15.3,2.47,28,28,0,0
394870,203493468,3,5367,5314,15.31,2.27,28,28,0,0
395261,203596698,3,5298,5000,15.33,2.04,28,28,0,0
396137,203814706,3,4997,4914,15.33,1.94,28,28,0,0
396584,203926388,3,4912,4900,15.35,2.08,28,28,0,0
397033,204035683,3,4909,5014,15.35,1.97,28,28,0,0
397434,204134601,3,5010,4871,15.26,1.84,28,28,0,0
397916,204246291,3,4871,4885,15.3,2.05,28,28,0,0
398406,204365194,3,4887,4914,15.28,1.85,28,28,0,0
398855,204474702,3,4921,5000,15.3,2.32,28,28,0,0
399284,204582293,3,5009,5157,15.31,2.36,28,28,0,0
399713,204690690,3,5161,5228,15.34,2.32,28,28,0,0
400153,204800572,3,5227,5214,15.26,2.66,28,28,0,0
400638,204918908,3,5245,5585,15.36,2.77,28,29,0,0
401040,205015936,3,5584,5528,15.33,2.78,28,29,0,0
401484,205127007,3,5526,5485,15.33,2.64,28,29,0,0
401979,205245011,3,5478,5414,15.35,2.47,28,29,0,0
402384,205349427,3,5403,5257,15.36,2.13,28,29,0,0
402833,205457661,3,5257,5271,15.32,2.4,28,29,0,0
404178,205789801,3,5267,5142,15.36,2.29,28,29,0,0
404631,205902637,3,5144,5171,15.3,2.28,28,29,0,0
405035,206006207,3,5172,5200,15.37,2.27,28,29,0,0
405475,206116691,3,5200,5200,15.31,2.31,28,29,0,0
405904,206225651,3,5196,5142,15.27,2.64,28,29,0,0
406295,206329793,3,5143,5200,15.27,2.08,28,29,0,0
406779,206442460,3,5194,4742,15.32,1.15,28,30,0,0
407180,206547586,3,4731,4128,15.25,0.8,28,30,0,0
407670,206663673,3,4110,3871,15.26,0.93,28,30,0,0
408118,206774562,3,3905,4271,15.28,2.23,28,30,0,0
408561,206880056,3,4313,4914,15.32,2.81,28,30,0,0
409005,206990475,3,4923,5457,15.26,3.32,28,30,0,0
409456,207103710,3,5468,5728,15.35,3.38,28,30,0,0
409883,207208054,3,5733,5871,15.29,3.63,28,30,0,0
410348,207324648,3,5876,5942,15.3,3.86,28,30,0,0
411676,207643606,3,5943,6028,15.36,3.44,28,30,0,0
412157,207761616,3,5995,5800,15.33,3.31,28,31,0,0
412567,207857719,3,5801,5828,15.26,3.29,28,31,0,0
412974,207966577,3,5825,5657,15.34,2.82,28,31,0,0
413463,208082257,3,5648,5557,15.3,2.97,28,31,0,0
413851,208179626,3,5563,5700,15.25,2.9,28,31,0,0
414280,208288427,3,5689,5428,15.4,2.48,28,31,0,0
414759,208410306,3,5413,5271,15.33,2.51,28,31,0,0
415168,208514835,3,5271,5271,15.34,2.55,28,31,0,0
415618,208628747,3,5278,5371,15.27,2.6,28,31,0,0
416428,208828595,3,5369,5114,15.34,2.27,28,31,0,0
416916,208948714,3,5133,5271,15.39,2.68,28,31,0,0
417355,209050263,3,5272,5285,15.29,2.8,28,31,0,0
417794,209161568,3,5293,5485,15.27,2.59,28,32,0,0
418222,209270307,3,5475,5385,15.33,2.89,28,32,0,0
418661,209380795,3,5389,5457,15.25,2.7,28,32,0,0
419068,209481587,3,5453,5371,15.35,2.64,28,32,0,0
419548,209594058,3,5376,5485,15.25,2.88,28,32,0,0
420448,209817301,3,5500,5828,15.27,3.25,28,32,0,0
420890,209925408,3,5817,5671,15.27,2.76,28,32,0,0
421333,210031092,3,5667,5600,15.25,2.85,28,32,0,0
422196,210251210,3,5594,5428,15.25,2.6,28,32,0,0
422635,210363411,3,5421,5357,15.35,2.46,28,32,0,0
423081,210469259,3,5359,5385,15.28,2.46,28,33,0,0
423521,210573647,3,5384,5371,15.29,2.71,28,33,0,0
424010,210689870,3,5364,5271,15.28,2.23,28,33,0,0
424416,210794069,3,5272,5300,15.31,2.74,28,33,0,0
424866,210904289,3,5308,5428,15.35,2.78,28,33,0,0
425309,211009880,3,5426,5385,15.25,2.72,28,33,0,0
425749,211124292,3,5390,5442,15.27,2.8,28,33,0,0
426604,211339677,3,5442,5442,15.23,2.67,28,33,0,0
427049,211445718,3,5440,5414,15.29,2.72,28,33,0,0
427537,211562629,3,5420,5514,15.27,2.74,28,33,0,0
427990,211671414,3,5509,5457,15.23,2.62,28,34,0,0
428435,211782259,3,5471,5614,15.26,2.61,28,34,0,0
428881,211887637,3,5576,5200,15.3,2.39,28,34,0,0
429287,211991080,3,5211,5471,15.23,2.94,28,34,0,0
429734,212097343,3,5474,5542,15.22,3.02,28,34,0,0
430156,212208381,3,5541,5528,15.28,2.92,28,34,0,0
430585,212321439,3,5542,5700,15.28,3.01,28,34,0,0
431036,212430660,3,5679,5485,15.29,2.51,28,34,0,0
431438,212531577,3,5476,5314,15.27,2.35,28,34,0,0
431888,212640244,3,5289,4985,15.32,1.76,28,34,0,0
432330,212751290,3,4978,4857,15.25,1.92,28,34,0,0
432775,212857445,3,4859,4900,15.33,1.95,28,34,0,0
433217,212965325,3,4903,5057,15.3,2.36,28,34,0,0
433667,213072277,3,5058,5100,15.26,2.36,28,34,0,0
434120,213186617,3,5103,5157,15.29,2.28,28,35,0,0
434569,213297299,3,5159,5185,15.27,2.32,28,35,0,0
434964,213396284,3,5185,5214,15.31,2.3,28,35,0,0
435900,213620796,3,5207,5057,15.25,2.24,28,35,0,0
436409,213831991,3,5108,5028,15.28,2.15,28,35,0,0
436851,213939917,3,5030,5085,15.3,2.25,28,35,0,0
437298,214049377,3,5086,5114,15.26,2.26,28,35,0,0
437707,214154426,3,5113,5085,15.25,2.44,28,35,0,0
438152,214259107,3,5092,5257,15.22,2.5,28,35,0,0
438589,214371821,3,5264,5457,15.28,2.84,28,35,0,0
439016,214480019,3,5457,5514,15.23,2.81,28,35,0,0
439487,214593493,3,5521,5614,15.3,2.68,28,35,0,0
439941,214704300,3,5592,5385,15.28,2.38,28,36,0,0
440373,214807020,3,5384,5342,15.33,2.41,28,36,0,0
440824,214921845,3,5349,5457,15.3,2.5,28,36,0,0
441270,215032142,3,5452,5400,15.26,2.9,28,36,0,0
441716,215145082,3,5413,5500,15.26,2.26,28,36,0,0
442166,215254030,3,5476,5257,15.21,2.24,28,36,0,0
442594,215358678,3,5238,5057,15.27,2.15,28,36,0,0
443026,215466226,3,5048,4957,15.3,2.32,28,36,0,0
443429,215569274,3,4958,4985,15.29,2.01,28,36,0,0
443873,215680701,3,4978,4914,15.24,1.94,28,36,0,0
444282,215787219,3,4904,4814,15.2,1.93,28,36,0,0
445176,216005272,3,4816,4857,15.33,2.08,28,36,0,0
445624,216119862,3,4855,4842,15.25,2.1,28,36,0,0
446074,216229332,3,4865,5071,15.25,2.21,28,36,0,0
446483,216333618,3,5078,5185,15.25,2.39,28,37,0,0
446922,216436573,3,5184,5171,15.25,2.48,28,37,0,0
447363,216543456,3,5172,5257,15.28,2.37,28,37,0,0
447860,216665599,3,5239,5100,15.29,2.22,28,37,0,0
448257,216774272,3,5080,4885,15.28,1.85,28,37,0,0
448686,216885195,3,4885,4885,15.21,2.11,28,37,0,0
449132,216997791,3,4888,4928,15.3,2.29,28,37,0,0
449575,217100430,3,4937,5100,15.26,2.45,28,37,0,0
450021,217211846,3,5102,5128,15.31,2.39,28,37,0,0
450505,217328589,3,5130,5157,15.32,2.51,28,37,0,0
451316,217531488,3,5157,5157,15.35,2.07,28,37,0,0
451763,217638389,3,5156,5128,15.32,2.19,28,37,0,0
452201,217751280,3,5126,5100,15.23,2.48,28,37,0,0
452626,217856052,3,5102,5214,15.26,2.45,28,38,0,0
453063,217965844,3,5216,5342,15.29,2.64,28,38,0,0
453545,218078040,3,5347,5400,15.29,2.51,28,38,0,0
453953,218183420,3,5404,5471,15.22,2.5,28,38,0,0
454360,218284712,3,5466,5242,15.27,2.35,28,38,0,0
454848,218402337,3,5250,5385,15.25,2.61,28,38,0,0
455296,218511283,3,5388,5442,15.25,2.75,28,38,0,0
455740,218621275,3,5437,5385,15.19,2.63,28,38,0,0
456142,218728336,3,5387,5414,15.27,2.5,28,38,0,0
456568,218834661,3,5407,5271,15.22,2.3,28,38,0,0
457001,218948821,3,5255,5042,15.19,2.01,28,38,0,0
457449,219059956,3,5038,4985,15.3,1.81,28,38,0,0
457895,219171090,3,4981,4928,15.33,1.96,28,38,0,0
458350,219281318,3,4930,4985,15.22,2.12,28,38,0,0
458757,219384811,3,4986,5028,15.29,2.15,28,39,0,0
459211,219497396,3,5023,4928,15.26,2.05,28,39,0,0
459656,219606708,3,4927,4914,15.24,1.9,28,39,0,0
460531,219831441,3,4905,4714,15.3,1.64,28,39,0,0
460918,219931309,3,4712,4628,15.31,1.59,28,39,0,0
461367,220038862,3,4635,4814,15.28,1.83,28,39,0,0
461819,220154285,3,4814,4814,15.29,1.95,28,39,0,0
462266,220263317,3,4817,4857,15.26,2,28,39,0,0
462713,220374043,3,4862,4928,15.32,1.79,28,39,0,0
463201,220487658,3,4923,4871,15.31,1.64,28,39,0,0
464087,220708489,3,4876,4971,15.33,2.01,28,39,0,0
464515,220815636,3,4978,5085,15.26,2.23,28,39,0,0
464945,220927061,3,5090,5171,15.31,2.17,28,39,0,0
465393,221035484,3,5169,5157,15.25,2.15,28,39,0,0
465795,221139852,3,5148,5000,15.29,1.98,28,39,0,0
466242,221247344,3,5005,5114,15.27,1.95,28,40,0,0
466687,221357293,3,5105,5000,15.32,2.1,28,40,0,0
467134,221466243,3,5001,5014,15.3,1.76,28,40,0,0
467584,221578613,3,5009,4971,15.3,1.81,28,40,0,0
468029,221683102,3,4964,4914,15.32,1.83,28,40,0,0
468889,221902862,3,4914,4928,15.31,2.05,28,40,0,0
469334,222016660,3,4934,5000,15.23,1.75,28,40,0,0
469777,222125881,3,4991,4900,15.35,1.69,28,40,0,0
470181,222223687,3,4899,4857,15.32,1.77,28,40,0,0
470627,222339190,3,4871,4971,15.33,2.12,28,40,0,0
471039,222443080,3,4984,5257,15.26,2.43,28,40,0,0
471515,222552470,3,5273,5442,15.22,2.61,28,40,0,0
471929,222655825,3,5441,5400,15.27,2.56,28,40,0,0
472360,222765165,3,5394,5128,15.32,1.92,28,40,0,0
472827,222881212,3,5116,5014,15.31,1.91,28,40,0,0
473666,223087332,3,5011,4928,15.27,2.04,28,41,0,0
474109,223197076,3,4926,4900,15.19,1.78,28,41,0,0
474963,223409087,3,4899,4871,15.29,2.01,28,41,0,0
475418,223525847,3,4875,4914,15.29,2.19,28,41,0,0
475830,223628447,3,4914,4928,15.25,2.04,28,41,0,0
476267,223734186,3,4929,4957,15.22,2.15,28,41,0,0
476699,223845586,3,4962,5042,15.29,2.23,28,41,0,0
477130,223954369,3,5043,5085,15.25,2.25,28,41,0,0
477586,224068718,3,5085,5085,15.31,2.25,28,41,0,0
478027,224171794,3,5077,5000,15.26,1.94,28,41,0,0
478425,224268472,3,5000,5014,15.29,2.11,28,41,0,0
478910,224387873,3,5014,5014,15.29,2.01,28,41,0,0
479764,224599429,3,5013,5000,15.29,2,28,41,0,0
480214,224711205,3,5003,5071,15.29,2.23,27,42,0,0
480639,224815487,3,5065,5014,15.27,2.07,28,42,0,0
481061,224921819,3,5030,5185,15.25,2.38,28,42,0,0
481509,225032276,3,5188,5228,15.29,2.54,28,42,0,0
481913,225134484,3,5229,5271,15.23,2.79,27,42,0,0
482356,225238338,3,5278,5400,15.26,2.42,28,42,0,0
482810,225352583,3,5394,5342,15.19,2.49,28,42,0,0
483261,225462926,3,5349,5442,15.22,2.69,28,42,0,0
483672,225567710,3,5438,5385,15.27,2.76,28,42,0,0
484122,225680867,3,5397,5514,15.25,2.72,28,42,0,0
484512,225782412,3,5512,5428,15.24,2.5,28,42,0,0
484980,225897667,3,5420,5342,15.22,2.47,28,42,0,0
485386,226002620,3,5340,5314,15.25,2.53,28,42,0,0
485867,226115615,3,5318,5371,15.25,2.62,27,42,0,0
486316,226225574,3,5377,5442,15.3,2.3,28,43,0,0
486760,226336341,3,5432,5328,15.28,2.46,28,43,0,0
487208,226447215,3,5317,5214,15.27,2.44,28,43,0,0
487615,226548893,3,5217,5300,15.27,2.55,28,43,0,0
488099,226661325,3,5301,5328,15.27,2.42,28,43,0,0
488956,226879058,3,5321,5200,15.28,2.14,28,43,0,0
489394,226987215,3,5211,5328,15.24,2.85,28,43,0,0
490246,227197817,3,5333,5614,15.17,3.18,28,43,0,0
490689,227308670,3,5615,5757,15.2,3.16,28,43,0,0
491134,227415894,3,5755,5714,15.22,2.82,28,43,0,0
491584,227527167,3,5706,5542,15.27,3.22,28,44,0,0
492052,227642247,3,5552,5700,15.27,3.15,28,44,0,0
492443,227744054,3,5697,5642,15.25,3.03,28,44,0,0
492937,227862695,3,5639,5614,15.27,3.09,28,44,0,0
493336,227962696,3,5618,5714,15.26,2.93,28,44,0,0
493791,228073671,3,5709,5614,15.25,2.82,28,44,0,0
494230,228181381,3,5599,5400,15.39,2.31,28,44,0,0
494678,228288878,3,5397,5342,15.35,1.98,28,44,0,0
495124,228400867,3,5334,5142,15.38,2.28,28,44,0,0
495610,228517689,3,5150,5271,15.33,2.58,28,44,0,0
496018,228618063,3,5277,5414,15.28,2.9,28,44,0,0
496461,228731427,3,5440,5785,15.24,3.63,28,44,0,0
496853,228834392,3,5779,5657,15.24,3.21,28,45,0,0
497251,228940721,3,5661,5771,15.23,3.15,28,45,0,0
497702,229050090,3,5769,5728,15.3,2.98,28,45,0,0
498144,229157580,3,5728,5728,15.28,2.74,28,45,0,0
498591,229264814,3,5725,5671,15.23,3.03,28,45,0,0
499037,229375707,3,5673,5714,15.21,2.97,28,45,0,0
499483,229486829,3,5706,5614,15.27,2.91,28,45,0,0
499913,229600425,3,5619,5657,15.2,3.19,28,45,0,0
500347,229707600,3,5665,5728,15.27,2.89,28,45,0,0
500745,229802717,3,5723,5614,15.29,3.21,28,45,0,0
501191,229920650,3,5612,5600,15.25,2.97,28,45,0,0
501640,230025044,3,5601,5614,15.25,3.18,28,46,0,0
502081,230132405,3,5608,5557,15.25,2.81,28,46,0,0
502532,230241187,3,5548,5442,15.36,2.68,28,46,0,0
502934,230345324,3,5442,5442,15.27,2.82,28,46,0,0
503381,230456340,3,5444,5571,15.32,3.04,28,46,0,0
503827,230574814,3,5566,5500,15.27,2.8,28,46,0,0
504220,230670215,3,5495,5414,15.15,2.9,28,46,0,0
504665,230791275,3,5433,5585,15.17,2.88,28,46,0,0
505103,230891674,3,5592,5685,15.25,3.11,28,46,0,0
505510,230994794,3,5674,5542,15.17,2.84,28,46,0,0
505959,231111847,3,5545,5571,15.25,2.82,28,46,0,0
506364,231211329,3,5570,5542,15.19,3.05,28,47,0,0
506850,231332084,3,5538,5500,15.22,2.78,28,47,0,0
507256,231427282,3,5498,5385,15.2,2.45,28,47,0,0
507698,231539636,3,5377,5200,15.25,2.49,28,47,0,0
508152,231648594,3,5203,5342,15.27,2.69,28,47,0,0
508590,231763260,3,5345,5385,15.26,2.56,28,47,0,0
509482,231977285,3,5384,5371,15.2,2.65,28,47,0,0
509925,232083857,3,5368,5242,15.26,2.08,28,47,0,0
510365,232193587,3,5234,5100,15.29,2.35,28,47,0,0
510815,232300253,3,5098,5071,15.23,2.08,28,47,0,0
511263,232413086,3,5071,5085,15.23,2.56,28,47,0,0
511705,232522382,3,5080,5042,15.28,2.25,28,47,0,0
512136,232630708,3,5056,5214,15.26,2.54,28,47,0,0
513012,232845636,3,5220,5400,15.22,2.58,28,48,0,0
514752,233272446,3,5399,5257,15.26,2.3,28,48,0,0
515192,233380267,3,5255,5214,15.23,2.34,28,48,0,0
515644,233490919,3,5213,5200,15.2,2.33,28,48,0,0
516048,233595178,3,5197,5014,15.19,1.85,28,48,0,0
516492,233705837,3,5012,4885,15.25,1.91,28,48,0,0
517387,233929457,3,4881,4757,15.25,2.06,28,48,0,0
517834,234036842,3,4762,4871,15.23,2.13,28,48,0,0
518278,234147618,3,4877,5000,15.25,2.6,28,49,0,0
518729,234257176,3,5022,5314,15.23,2.67,28,49,0,0
519169,234365844,3,5315,5357,15.17,2.82,28,49,0,0
519621,234474677,3,5361,5428,15.26,2.76,28,49,0,0
520107,234594557,3,5437,5542,15.25,2.94,28,49,0,0
520555,234701635,3,5537,5471,15.26,2.55,28,49,0,0
520959,234808567,3,5462,5342,15.26,2.33,28,49,0,0
521361,234912808,3,5341,5285,15.24,2.33,28,49,0,0
521832,235028450,3,5280,5228,15.22,2.32,28,49,0,0
522228,235133684,3,5223,5114,15.24,2.18,28,49,0,0
522676,235242742,3,5112,5100,15.21,2.44,28,49,0,0
523121,235353059,3,5100,5100,15.2,2.36,28,49,0,0
523570,235459795,3,5100,5114,15.23,2.4,28,49,0,0
524018,235571561,3,5114,5142,15.1,2.54,28,49,0,0
524462,235676319,3,5144,5328,15.19,2.74,28,50,0,0
524942,235791427,3,5333,5400,15.14,2.81,28,50,0,0
525394,235902174,3,5419,5614,15.13,3.21,28,50,0,0
525836,236011204,3,5609,5571,15.17,3.01,28,50,0,0
526241,236112677,3,5571,5585,15.25,3.3,28,50,0,0
526729,236230288,3,5594,5685,15.15,3.29,28,50,0,0
527127,236329426,3,5685,5700,15.14,3.11,28,50,0,0
527621,236448321,3,5700,5700,15.22,3.19,28,50,0,0
528061,236553842,3,5698,5685,15.27,3.32,28,50,0,0
528511,236662227,3,5685,5685,15.21,2.9,28,50,0,0
528943,236776563,3,5672,5585,15.2,2.98,28,51,0,0
529371,236880712,3,5585,5585,15.17,3,28,51,0,0
529816,236990402,3,5573,5400,15.25,2.67,28,51,0,0
530262,237105820,3,5387,5271,15.25,2.39,28,51,0,0
530697,237207608,3,5267,5228,15.26,2.26,28,51,0,0
531141,237315032,3,5216,5071,15.29,2.34,28,51,0,0
531590,237431842,3,5086,5171,15.3,2.33,28,51,0,0
532028,237534637,3,5163,5071,15.26,2.1,28,51,0,0
532479,237647313,3,5074,5100,15.23,2.52,28,51,0,0
532950,237759243,3,5110,5357,15.26,2.58,28,51,0,0
533343,237859361,3,5355,5271,15.29,2.62,28,51,0,0
533824,237977660,3,5279,5371,15.3,2.65,28,51,0,0
534222,238074271,3,5368,5314,15.26,2.58,28,51,0,0
534670,238185801,3,5315,5442,15.23,2.59,28,51,0,0
535563,238404661,3,5441,5400,15.27,2.47,28,52,0,0
536041,238516428,3,5403,5471,15.2,2.77,28,52,0,0
536899,238735879,3,5469,5414,15.15,2.82,28,52,0,0
537348,238846257,3,5420,5542,15.19,2.8,28,52,0,0
537800,238957865,3,5534,5457,15.29,2.5,28,52,0,0
538245,239064244,3,5443,5328,15.26,2.64,28,52,0,0
538695,239174315,3,5326,5314,15.26,2.71,28,52,0,0
539101,239275576,3,5313,5300,15.23,2.51,28,52,0,0
539492,239379100,3,5301,5414,15.23,2.71,28,52,0,0
540400,239602804,3,5420,5600,15.25,3.17,28,53,0,0
540802,239707050,3,5597,5557,15.2,3.01,28,53,0,0
541254,239818813,3,5554,5514,15.23,2.58,28,53,0,0
541700,239929571,3,5499,5328,15.19,2.47,28,53,0,0
542151,240040601,3,5337,5428,15.19,2.61,28,53,0,0
542598,240151169,3,5431,5471,15.11,2.56,28,53,0,0
542998,240247590,3,5468,5328,15.23,2.59,28,53,0,0
543447,240361681,3,5321,5200,15.23,2.31,28,53,0,0
543898,240470334,3,5202,5242,15.28,2.51,28,53,0,0
544341,240577634,3,5244,5300,15.27,2.59,28,53,0,0
544787,240686263,3,5294,5228,15.23,2.56,28,53,0,0
545228,240795638,3,5229,5257,15.18,2.53,28,53,0,0
545676,240906923,3,5258,5342,15.26,2.71,28,54,0,0
546108,241016622,3,5343,5357,15.16,2.81,28,54,0,0
546540,241126855,3,5355,5342,15.24,2.76,28,54,0,0
546987,241235670,3,5340,5328,15.26,2.57,28,54,0,0
547390,241339262,3,5329,5471,15.25,2.55,28,54,0,0
547877,241454715,3,5464,5400,15.2,2.72,28,54,0,0
548323,241566468,3,5406,5485,15.24,2.56,28,54,0,0
549168,241775692,3,5480,5114,15.19,2.42,28,54,0,0
549626,241889897,3,5125,5271,15.2,2.68,28,54,0,0
550058,241999218,3,5280,5371,15.19,2.74,28,54,0,0
550517,242112078,3,5371,5371,15.26,2.77,28,54,0,0
550928,242214465,3,5371,5371,15.23,2.8,28,55,0,0
551374,242325633,3,5369,5342,15.21,2.69,28,55,0,0
551784,242426275,3,5344,5471,15.24,2.79,28,55,0,0
552185,242529855,3,5471,5485,15.14,2.82,28,55,0,0
552636,242638336,3,5486,5585,15.26,2.91,28,55,0,0
553072,242747793,3,5585,5628,15.22,2.88,28,55,0,0
553541,242864595,3,5618,5528,15.18,2.83,28,55,0,0
553938,242964602,3,5529,5571,15.2,2.92,28,55,0,0
554390,243073105,3,5570,5557,15.26,2.63,28,55,0,0
554837,243186877,3,5560,5600,15.16,2.74,28,55,0,0
555283,243291713,3,5588,5414,15.19,2.59,28,55,0,0
555725,243400569,3,5402,5142,15.2,2.38,28,55,0,0
556179,243511822,3,5143,5171,15.28,2.29,28,55,0,0
556616,243617281,3,5168,5100,15.17,2.58,28,56,0,0
557480,243836328,3,5112,5528,15.23,2.74,28,56,0,0
557914,243945623,3,5529,5557,15.19,2.77,28,56,0,0
558364,244053647,3,5555,5500,15.2,2.88,28,56,0,0
558806,244160834,3,5494,5414,15.32,2.36,28,56,0,0
559658,244374282,3,5397,4957,15.33,1.96,28,56,0,0
560108,244483306,3,4959,4985,15.32,2.21,28,56,0,0
560536,244590301,3,4990,5071,15.36,1.96,28,56,0,0
560963,244698564,3,5068,5042,16.11,1.29,28,56,0,0
561405,244804087,3,5021,3728,15.48,1.59,28,56,0,0
561894,244923100,3,3665,3000,15.72,0.24,28,56,0,0
562297,245021684,3,2983,2300,15.68,0.09999999,28,56,0,0
562745,245138836,3,2306,2385,15.69,0.41,28,56,0,0
563194,245246669,3,2389,2428,15.67,0.26,28,56,0,0
563632,245356041,3,2416,2314,15.69,0.25,28,56,0,0
564057,245461786,3,2316,2371,15.69,0.36,28,56,0,0
564500,245574727,3,2372,2385,15.7,0.27,28,56,0,0
564949,245678815,3,2382,2357,15.69,0.33,28,56,0,0
565348,245778841,3,2359,2414,15.69,0.3,28,56,0,0
565835,245894103,3,2410,2385,15.69,0.31,28,56,0,0
566241,245999766,3,2385,2400,15.7,0.31,28,56,0,0
566685,246111858,3,2400,2400,15.69,0.3,28,56,0,0
567125,246213376,3,2400,2400,15.7,0.32,28,56,0,0
567619,246335275,3,2395,2342,15.71,0.22,28,56,0,0
568023,246429693,3,2340,2228,15.72,0.2,28,56,0,0
568427,246533055,3,2225,2142,15.71,0.19,28,56,0,0
568923,246653214,3,2139,2114,15.72,0.22,28,56,0,0
569367,246761722,3,2111,2071,15.8,0.16,28,56,0,0
569824,246869102,3,2037,1700,15.77,0.01,28,56,0,0
570262,246976925,3,1671,1400,15.77,0.03,28,56,0,0
570714,247082262,3,1393,1300,15.77,0.09,28,56,0,0
571141,247190725,3,1299,1285,15.77,0.09999999,28,56,0,0
571607,247305213,3,1285,1285,15.76,0.11,28,56,0,0
572020,247405840,3,1285,1285,15.77,0.09999999,28,56,0,0
572917,247627463,3,1285,1285,15.77,0.11,28,56,0,0
573361,247737098,3,1285,1285,15.77,0.11,28,56,0,0
574221,247950315,3,1285,1285,15.78,0.09999999,28,56,0,0
574666,248056260,3,1285,1285,15.78,0.11,28,57,0,0
575149,248175201,3,1285,1285,15.79,0.11,28,57,0,0
575532,248271347,3,1285,1285,15.79,0.09999999,28,57,0,0
575978,248384608,3,1285,1285,15.78,0.11,28,57,0,0
576428,248493016,3,1285,1285,15.79,0.11,28,57,0,0
576878,248601470,3,1285,1285,15.79,0.11,28,57,0,0
577329,248708586,3,1285,1285,15.79,0.11,28,57,0,0
577774,248818697,3,1285,1285,15.79,0.11,28,57,0,0
578179,248918634,3,1285,1285,15.79,0.11,28,57,0,0
578643,249032101,3,1285,1285,15.79,0.11,28,57,0,0
579068,249137580,3,1285,1285,15.8,0.11,28,57,0,0
579518,249246089,3,1285,1285,15.79,0.11,28,57,0,0
579923,249347818,3,1285,1285,15.8,0.09999999,28,57,0,0
580374,249456518,3,1285,1285,15.8,0.11,28,57,0,0
580819,249565415,3,1285,1285,15.8,0.09999999,28,57,0,0
581309,249680578,3,1285,1285,15.8,0.09999999,28,57,0,0
581738,249787199,3,1285,1285,15.8,0.11,28,57,0,0
582133,249887696,3,1285,1285,15.8,0.11,28,57,0,0
582576,249997089,3,1285,1285,15.79,0.11,28,57,0,0
583027,250106484,3,1284,1271,15.8,0.11,28,57,0,0
583477,250216854,3,1271,1271,15.81,0.11,28,57,0,0
583925,250325225,3,1272,1285,15.81,0.11,28,57,0,0
584373,250432081,3,1285,1285,15.81,0.09999999,28,57,0,0
584821,250548260,3,1285,1285,15.81,0.09999999,28,57,0,0
585242,250648376,3,1285,1285,15.8,0.11,28,57,0,0
585681,250756669,3,1285,1285,15.81,0.11,28,57,0,0
586132,250862324,3,1285,1285,15.81,0.11,28,57,0,0
586536,250963013,3,1285,1285,15.82,0.11,28,57,0,0
586980,251070421,3,1285,1285,15.82,0.11,27,57,0,0
587462,251185423,3,1285,1285,15.82,0.11,28,57,0,0
587920,251291273,3,1256,671,15.83,0.02,28,57,0,0
588358,251402093,3,663,228,15.83,0.02,28,57,0,0
588833,251519395,3,206,0,15.83,0.03,27,57,0,0
589285,251624580,3,0,0,15.83,0.04,27,57,0,0
589736,251731977,3,0,0,15.84,0.04,27,57,0,0
590190,251838305,3,0,0,15.84,0.04,27,57,0,0
591135,252058412,3,0,0,15.84,0.04,27,57,0,0
591572,252160443,3,0,0,15.84,0.04,27,57,0,0
592045,252273618,3,0,0,15.84,0.04,27,57,0,0
592490,252380254,3,0,0,15.85,0.04,27,57,0,0
592942,252485198,3,0,0,15.85,0.04,27,57,0,0
593400,252595167,3,0,0,15.85,0.04,27,57,0,0
593853,252699417,3,0,0,15.85,0.04,27,57,0,0
594349,252818312,3,0,0,15.85,0.04,28,57,0,0
594800,252923822,3,0,0,15.85,0.04,27,57,0,0
595252,253028032,3,0,0,15.86,0.04,27,57,0,0
595698,253135865,3,0,0,15.85,0.04,27,57,0,0
596171,253250102,3,0,0,15.85,0.04,27,57,0,0
596618,253361567,3,0,0,15.85,0.04,27,57,0,0
597070,253465711,3,0,0,15.85,0.04,27,57,0,0
597520,253574086,3,0,0,15.85,0.04,27,57,0,0
597974,253678703,3,0,0,15.86,0.04,27,57,0,0
598465,253792682,3,0,0,15.85,0.04,27,57,0,0
598920,253898590,3,0,0,15.86,0.04,27,57,0,0
599350,254003571,3,0,0,15.86,0.04,27,57,0,0
599785,254113323,3,0,0,15.86,0.04,27,57,0,0
600236,254218558,3,0,0,15.86,0.04,27,57,0,0
600727,254332486,3,0,0,15.86,0.04,27,57,0,0
601045,254434626,3,0,0,15.86,0.04,27,57,0,0
601493,254541604,3,0,0,15.86,0.04,27,57,0,0
601948,254649330,3,0,0,15.86,0.04,27,57,0,0
602400,254757927,3,0,0,15.87,0.04,27,57,0,0
603290,254972094,3,0,0,15.87,0.04,27,57,0,0
