LineNo,TimeUS,Instance,RPM,RawRPM,Volt,Curr,Temp,CTot,MotTemp,Err
1756,2.184e+07,1,0,0,16.35,0.04,22,0,0,0
2174,2.1942e+07,1,0,0,16.35,0.04,22,0,0,0
2628,2.2054e+07,1,0,0,16.34,0.04,22,0,0,0
3080,2.2165e+07,1,0,0,16.35,0.04,22,0,0,0
3489,2.2266e+07,1,0,0,16.35,0.03,22,0,0,0
3943,2.2377e+07,1,0,0,16.35,0.03,22,0,0,0
4361,2.248e+07,1,0,0,16.35,0.03,22,0,0,0
4775,2.2585e+07,1,0,0,16.35,0.04,22,0,0,0
5191,2.2687e+07,1,0,0,16.35,0.04,22,0,0,0
5644,2.2801e+07,1,0,0,16.35,0.04,22,0,0,0
6063,2.2908e+07,1,0,0,16.35,0.04,22,0,0,0
6478,2.301e+07,1,0,0,16.35,0.03,22,0,0,0
6933,2.3124e+07,1,0,0,16.35,0.04,22,0,0,0
7755,2.333e+07,1,0,0,16.35,0.04,22,0,0,0
8203,2.3441e+07,1,0,0,16.35,0.04,22,0,0,0
8650,2.3549e+07,1,0,0,16.35,0.03,22,0,0,0
9061,2.3653e+07,1,0,0,16.34,0.04,22,0,0,0
9471,2.3756e+07,1,0,0,16.35,0.04,22,0,0,0
9863,2.3868e+07,1,0,0,16.35,0.04,22,0,0,0
10275,2.3969e+07,1,0,0,16.35,0.03,22,0,0,0
10733,2.4083e+07,1,0,0,16.35,0.04,22,0,0,0
11150,2.4188e+07,1,0,0,16.35,0.04,22,0,0,0
11562,2.4292e+07,1,0,0,16.35,0.04,22,0,0,0
12018,2.4407e+07,1,0,0,16.35,0.04,22,0,0,0
12437,2.451e+07,1,0,0,16.35,0.04,22,0,0,0
12849,2.4613e+07,1,0,0,16.35,0.04,22,0,0,0
13711,2.4831e+07,1,0,0,16.35,0.04,22,0,0,0
14124,2.4934e+07,1,0,0,16.34,0.04,22,0,0,0
14533,2.5035e+07,1,0,0,16.35,0.04,22,0,0,0
14993,2.5152e+07,1,0,0,16.34,0.03,22,0,0,0
15403,2.5252e+07,1,0,0,16.34,0.04,22,0,0,0
15830,2.5359e+07,1,0,0,16.35,0.03,22,0,0,0
16280,2.5469e+07,1,0,0,16.34,0.03,22,0,0,0
16694,2.5573e+07,1,0,0,16.34,0.04,22,0,0,0
17109,2.5676e+07,1,0,0,16.34,0.03,22,0,0,0
17527,2.5781e+07,1,0,0,16.35,0.04,22,0,0,0
17982,2.5896e+07,1,0,0,16.35,0.04,22,0,0,0
18396,2.6e+07,1,0,0,16.33,0.04,22,0,0,0
18819,2.6107e+07,1,0,0,16.34,0.03,22,0,0,0
19228,2.6209e+07,1,0,0,16.34,0.03,22,0,0,0
19679,2.632e+07,1,0,0,16.35,0.03,22,0,0,0
20099,2.6426e+07,1,0,0,16.35,0.03,22,0,0,0
20517,2.6531e+07,1,0,0,16.34,0.03,22,0,0,0
20969,2.6643e+07,1,0,0,16.35,0.03,22,0,0,0
21386,2.6747e+07,1,0,0,16.35,0.04,22,0,0,0
21796,2.6852e+07,1,0,0,16.35,0.04,22,0,0,0
22212,2.6956e+07,1,0,0,16.35,0.04,22,0,0,0
22658,2.7071e+07,1,0,0,16.34,0.03,22,0,0,0
23073,2.7173e+07,1,0,0,16.35,0.03,22,0,0,0
23458,2.7275e+07,1,0,0,16.35,0.04,22,0,0,0
23945,2.7389e+07,1,0,0,16.35,0.04,22,0,0,0
24363,2.7495e+07,1,0,0,16.35,0.04,22,0,0,0
24775,2.7599e+07,1,0,0,16.34,0.04,22,0,0,0
25227,2.7711e+07,1,0,0,16.35,0.04,22,0,0,0
25640,2.7818e+07,1,0,0,16.34,0.04,22,0,0,0
26056,2.7925e+07,1,0,0,16.35,0.04,22,0,0,0
26429,2.8022e+07,1,0,0,16.34,0.04,22,0,0,0
26882,2.8132e+07,1,0,0,16.34,0.03,22,0,0,0
27296,2.8238e+07,1,0,0,16.35,0.03,22,0,0,0
27754,2.835e+07,1,0,0,16.35,0.03,22,0,0,0
28164,2.8451e+07,1,0,0,16.34,0.04,22,0,0,0
28618,2.8563e+07,1,0,0,16.34,0.03,22,0,0,0
29027,2.8665e+07,1,0,0,16.34,0.03,22,0,0,0
29482,2.878e+07,1,0,0,16.35,0.03,22,0,0,0
29888,2.8881e+07,1,0,0,16.35,0.04,22,0,0,0
30340,2.8991e+07,1,0,0,16.35,0.03,22,0,0,0
30755,2.9093e+07,1,0,0,16.34,0.04,22,0,0,0
31202,2.9206e+07,1,0,0,16.35,0.04,22,0,0,0
31616,2.9307e+07,1,0,0,16.35,0.04,22,0,0,0
32029,2.9414e+07,1,0,0,16.34,0.03,22,0,0,0
32469,2.9519e+07,1,0,0,16.35,0.04,22,0,0,0
32886,2.9627e+07,1,0,0,16.34,0.03,22,0,0,0
1.929e+05,1.5313e+08,1,0,0,0,0,0,0,0,0
1.9332e+05,1.5324e+08,1,0,0,0,0.03,0,0,0,0
1.9585e+05,1.5388e+08,1,0,0,0,0.03,0,0,0,0
1.9626e+05,1.5399e+08,1,0,0,0,0.03,0,0,0,0
1.9672e+05,1.5411e+08,1,0,0,16.33,0.02,24,0,0,0
1.9712e+05,1.5421e+08,1,0,0,16.33,0.03,24,0,0,0
1.9794e+05,1.5442e+08,1,0,0,16.33,0.03,24,0,0,0
1.9839e+05,1.5454e+08,1,0,0,16.33,0.03,23,0,0,0
1.9881e+05,1.5464e+08,1,0,0,16.33,0.02,24,0,0,0
1.9922e+05,1.5475e+08,1,0,0,16.32,0.03,24,0,0,0
1.9963e+05,1.5485e+08,1,0,0,16.33,0.03,24,0,0,0
2.0005e+05,1.5497e+08,1,0,0,16.33,0.03,24,0,0,0
2.0047e+05,1.5507e+08,1,0,0,16.33,0.03,24,0,0,0
2.0088e+05,1.5518e+08,1,0,0,16.33,0.03,24,0,0,0
2.0134e+05,1.5529e+08,1,0,0,16.32,0.03,24,0,0,0
2.0171e+05,1.554e+08,1,0,0,16.32,0.03,24,0,0,0
2.0225e+05,1.564e+08,1,0,0,16.33,0.03,23,0,0,0
2.0242e+05,1.5645e+08,1,0,0,16.33,0.03,24,0,0,0
2.0285e+05,1.5656e+08,1,0,0,16.32,0.03,24,0,0,0
2.0336e+05,1.5667e+08,1,0,0,16.33,0.03,24,0,0,0
2.0377e+05,1.5677e+08,1,0,0,16.33,0.03,23,0,0,0
2.0422e+05,1.5688e+08,1,0,0,16.33,0.03,24,0,0,0
2.0468e+05,1.5699e+08,1,0,0,16.32,0.03,24,0,0,0
2.0518e+05,1.5711e+08,1,0,0,16.33,0.03,24,0,0,0
2.0559e+05,1.572e+08,1,0,0,16.32,0.03,24,0,0,0
2.0609e+05,1.5732e+08,1,0,0,16.32,0.03,24,0,0,0
2.0655e+05,1.5743e+08,1,0,0,16.33,0.03,24,0,0,0
2.0699e+05,1.5753e+08,1,0,0,16.32,0.03,24,0,0,0
2.0743e+05,1.5764e+08,1,0,0,16.33,0.03,24,0,0,0
2.0788e+05,1.5775e+08,1,0,0,16.32,0.03,24,0,0,0
2.0833e+05,1.5785e+08,1,0,0,16.33,0.03,24,0,0,0
2.0879e+05,1.5796e+08,1,0,0,16.32,0.03,24,0,0,0
2.0928e+05,1.5807e+08,1,0,0,16.33,0.03,24,0,0,0
2.0977e+05,1.5818e+08,1,0,0,16.32,0.03,24,0,0,0
2.1022e+05,1.5829e+08,1,0,0,16.33,0.03,24,0,0,0
2.1068e+05,1.5839e+08,1,0,0,16.33,0.03,24,0,0,0
2.1117e+05,1.5852e+08,1,24,200,16.31,0.02,24,0,0,0
2.1159e+05,1.5861e+08,1,211,457,16.3,0.06,24,0,0,0
2.1251e+05,1.5883e+08,1,489,1200,16.3,0.13,24,0,0,0
2.1296e+05,1.5894e+08,1,1203,1257,16.31,0.11,24,0,0,0
2.1341e+05,1.5904e+08,1,1258,1285,16.3,0.11,24,0,0,0
2.1386e+05,1.5915e+08,1,1285,1300,16.31,0.1,24,0,0,0
2.1432e+05,1.5926e+08,1,1300,1314,16.32,0.1,24,0,0,0
2.1477e+05,1.5937e+08,1,1313,1300,16.32,0.1,24,0,0,0
2.1527e+05,1.5948e+08,1,1300,1300,16.31,0.1,24,0,0,0
2.1572e+05,1.5959e+08,1,1301,1314,16.31,0.1,24,0,0,0
2.1618e+05,1.5969e+08,1,1314,1314,16.31,0.1,24,0,0,0
2.1663e+05,1.598e+08,1,1314,1314,16.31,0.1,24,0,0,0
2.1712e+05,1.5991e+08,1,1314,1314,16.32,0.1,24,0,0,0
2.1732e+05,1.6001e+08,1,1314,1314,16.32,0.1,24,0,0,0
2.178e+05,1.6013e+08,1,1314,1314,16.32,0.1,24,0,0,0
2.1825e+05,1.6023e+08,1,1314,1314,16.31,0.1,24,0,0,0
2.1871e+05,1.6034e+08,1,1314,1314,16.31,0.1,24,0,0,0
2.1916e+05,1.6044e+08,1,1314,1314,16.3,0.1,24,0,0,0
2.1966e+05,1.6056e+08,1,1314,1314,16.3,0.1,24,0,0,0
2.2012e+05,1.6066e+08,1,1314,1314,16.31,0.1,24,0,0,0
2.2053e+05,1.6077e+08,1,1314,1314,16.3,0.1,24,0,0,0
2.2103e+05,1.6089e+08,1,1314,1314,16.31,0.1,24,0,0,0
2.2146e+05,1.6099e+08,1,1314,1314,16.31,0.1,24,0,0,0
2.2191e+05,1.6109e+08,1,1314,1314,16.31,0.1,24,0,0,0
2.2238e+05,1.6121e+08,1,1314,1314,16.3,0.1,24,0,0,0
2.2282e+05,1.6131e+08,1,1314,1314,16.3,0.1,24,0,0,0
2.2327e+05,1.6142e+08,1,1314,1314,16.31,0.1,24,0,0,0
2.2372e+05,1.6153e+08,1,1314,1314,16.3,0.1,24,0,0,0
2.2422e+05,1.6164e+08,1,1314,1314,16.3,0.1,24,0,0,0
2.2467e+05,1.6174e+08,1,1314,1314,16.3,0.11,24,0,0,0
2.2517e+05,1.6186e+08,1,1312,1300,16.31,0.1,24,0,0,0
2.2558e+05,1.6196e+08,1,1300,1314,16.3,0.1,24,0,0,0
2.2608e+05,1.6207e+08,1,1314,1314,16.32,0.11,24,0,0,0
2.2658e+05,1.6218e+08,1,1314,1314,16.3,0.1,24,0,0,0
2.2703e+05,1.6229e+08,1,1314,1314,16.31,0.1,24,0,0,0
2.2751e+05,1.624e+08,1,1314,1314,16.31,0.1,24,0,0,0
2.2794e+05,1.625e+08,1,1314,1314,16.3,0.1,24,0,0,0
2.284e+05,1.6261e+08,1,1314,1314,16.31,0.1,24,0,0,0
2.2888e+05,1.6272e+08,1,1328,1514,16.29,0.21,24,0,0,0
2.2935e+05,1.6283e+08,1,1560,2042,16.26,0.56,24,0,0,0
2.298e+05,1.6293e+08,1,2044,2171,16.25,0.43,24,0,0,0
2.303e+05,1.6304e+08,1,2183,2300,16.23,0.35,24,0,0,0
2.3074e+05,1.6315e+08,1,2303,2342,16.22,0.46,24,0,0,0
2.312e+05,1.6326e+08,1,2342,2357,16.22,0.43,24,0,0,0
2.3169e+05,1.6337e+08,1,2388,2828,16.04,1.25,24,0,0,0
2.3215e+05,1.6348e+08,1,2897,3585,16.02,1.54,24,0,0,0
2.3259e+05,1.6359e+08,1,3622,4128,15.94,1.85,24,0,0,0
2.3302e+05,1.637e+08,1,4160,4785,15.85,2.46,24,0,0,0
2.3347e+05,1.6381e+08,1,4801,5242,15.7,2.63,24,0,0,0
2.3397e+05,1.6392e+08,1,5263,5457,15.74,2.98,24,0,0,0
2.3438e+05,1.6402e+08,1,5453,5385,15.85,2.14,24,0,0,0
2.3483e+05,1.6413e+08,1,5369,5142,15.83,1.88,24,0,0,0
2.3528e+05,1.6424e+08,1,5132,4928,15.8,1.49,24,0,0,0
2.3574e+05,1.6435e+08,1,4926,4914,15.83,1.83,24,1,0,0
2.3619e+05,1.6446e+08,1,4902,4785,15.76,1.83,24,1,0,0
2.3663e+05,1.6457e+08,1,4779,4700,15.79,1.62,24,1,0,0
2.3707e+05,1.6467e+08,1,4700,4714,15.83,1.52,24,1,0,0
2.3751e+05,1.6478e+08,1,4710,4628,15.77,1.53,24,1,0,0
2.3801e+05,1.649e+08,1,4612,4500,15.72,1.43,24,1,0,0
2.3842e+05,1.65e+08,1,4500,4514,15.76,1.33,24,1,0,0
2.3888e+05,1.6511e+08,1,4513,4457,15.76,1.39,24,1,0,0
2.3937e+05,1.6522e+08,1,4454,4428,15.72,1.42,24,1,0,0
2.3982e+05,1.6533e+08,1,4422,4357,15.78,1.23,24,1,0,0
2.4028e+05,1.6544e+08,1,4357,4357,15.78,1.47,24,1,0,0
2.4073e+05,1.6555e+08,1,4357,4414,15.75,1.35,24,1,0,0
2.4123e+05,1.6566e+08,1,4421,4500,15.82,1.65,24,1,0,0
2.4214e+05,1.6588e+08,1,4513,4814,15.83,1.77,24,1,0,0
2.4254e+05,1.6598e+08,1,4813,4800,15.74,1.78,24,1,0,0
2.4302e+05,1.661e+08,1,4811,4942,15.76,2.19,24,1,0,0
2.4346e+05,1.6621e+08,1,4968,5314,15.73,2.4,24,1,0,0
2.4442e+05,1.6643e+08,1,5313,5300,15.8,2.23,24,1,0,0
2.4486e+05,1.6654e+08,1,5307,5400,15.8,2.14,24,2,0,0
2.4532e+05,1.6664e+08,1,5397,5228,15.77,1.95,24,2,0,0
2.4577e+05,1.6676e+08,1,5230,5285,15.79,1.91,24,2,0,0
2.4626e+05,1.6687e+08,1,5285,5285,15.74,2.01,24,2,0,0
2.4667e+05,1.6697e+08,1,5284,5271,15.79,1.75,24,2,0,0
2.4717e+05,1.6708e+08,1,5254,5000,15.81,1.65,24,2,0,0
2.4762e+05,1.672e+08,1,5002,5028,15.76,1.94,24,2,0,0
2.4808e+05,1.673e+08,1,5026,5014,15.73,1.54,24,2,0,0
2.4851e+05,1.6741e+08,1,5014,5014,15.76,1.5,24,2,0,0
2.4899e+05,1.6753e+08,1,5005,4914,15.75,1.56,24,2,0,0
2.4945e+05,1.6764e+08,1,4917,4957,15.73,1.6,24,2,0,0
2.4986e+05,1.6774e+08,1,4955,4914,15.77,1.7,24,2,0,0
2.5035e+05,1.6785e+08,1,4911,4885,15.76,1.81,24,2,0,0
2.508e+05,1.6796e+08,1,4887,4928,15.75,1.65,24,2,0,0
2.5126e+05,1.6806e+08,1,4925,4885,15.77,1.71,24,2,0,0
2.5172e+05,1.6818e+08,1,4887,4928,15.76,1.58,24,2,0,0
2.5217e+05,1.6828e+08,1,4924,4857,15.76,1.61,25,2,0,0
2.5262e+05,1.6839e+08,1,4857,4928,15.73,1.85,25,2,0,0
2.5312e+05,1.6851e+08,1,4917,4828,15.76,1.44,24,2,0,0
2.5354e+05,1.6861e+08,1,4826,4800,15.72,1.56,25,3,0,0
2.5446e+05,1.6883e+08,1,4809,5085,15.77,2.35,25,3,0,0
2.549e+05,1.6894e+08,1,5128,5557,15.68,3.22,25,3,0,0
2.5535e+05,1.6904e+08,1,5572,5714,15.69,2.3,25,3,0,0
2.5577e+05,1.6915e+08,1,5686,5271,15.73,1.46,25,3,0,0
2.5622e+05,1.6926e+08,1,5257,4942,15.73,1.18,25,3,0,0
2.5667e+05,1.6936e+08,1,4934,4771,15.73,1.31,25,3,0,0
2.5716e+05,1.6948e+08,1,4758,4585,15.73,1.1,25,3,0,0
2.5807e+05,1.697e+08,1,4581,4514,15.73,1.47,25,3,0,0
2.5852e+05,1.6981e+08,1,4516,4557,15.75,1.58,25,3,0,0
2.5898e+05,1.6992e+08,1,4560,4600,15.75,1.3,25,3,0,0
2.5941e+05,1.7002e+08,1,4604,4642,15.65,1.66,25,3,0,0
2.5984e+05,1.7013e+08,1,4640,4614,15.75,1.54,25,3,0,0
2.603e+05,1.7023e+08,1,4618,4700,15.73,1.55,25,3,0,0
2.6075e+05,1.7034e+08,1,4701,4742,15.72,1.73,25,3,0,0
2.612e+05,1.7045e+08,1,4747,4814,15.75,1.89,25,3,0,0
2.6165e+05,1.7056e+08,1,4813,4771,15.72,1.58,25,3,0,0
2.6215e+05,1.7068e+08,1,4777,4842,15.72,1.61,25,3,0,0
2.626e+05,1.7078e+08,1,4829,4700,15.73,1.55,25,4,0,0
2.6305e+05,1.7089e+08,1,4701,4714,15.73,1.47,25,4,0,0
2.635e+05,1.71e+08,1,4719,4800,15.72,1.71,25,4,0,0
2.6396e+05,1.7111e+08,1,4789,4700,15.7,1.63,25,4,0,0
2.6441e+05,1.7122e+08,1,4705,4757,15.59,1.75,25,4,0,0
2.649e+05,1.7134e+08,1,4764,4857,15.7,1.64,25,4,0,0
2.6529e+05,1.7143e+08,1,4856,4842,15.66,1.77,25,4,0,0
2.6574e+05,1.7154e+08,1,4841,4800,15.63,1.4,25,4,0,0
2.6623e+05,1.7166e+08,1,4800,4800,15.67,1.78,25,4,0,0
2.6664e+05,1.7176e+08,1,4794,4685,15.65,1.3,25,4,0,0
2.6714e+05,1.7187e+08,1,4670,4528,15.64,1.32,25,4,0,0
2.6755e+05,1.7198e+08,1,4529,4571,15.64,1.44,25,4,0,0
2.68e+05,1.7208e+08,1,4575,4657,15.7,1.52,25,4,0,0
2.6845e+05,1.722e+08,1,4649,4571,15.69,1.5,25,4,0,0
2.6891e+05,1.7231e+08,1,4586,4714,15.64,1.64,25,4,0,0
2.6931e+05,1.724e+08,1,4714,4771,15.66,1.57,25,4,0,0
2.7066e+05,1.7273e+08,1,4767,4571,15.72,1.24,25,4,0,0
2.7109e+05,1.7284e+08,1,4567,4500,15.69,1.32,25,4,0,0
2.7152e+05,1.7295e+08,1,4500,4500,15.68,1.38,25,4,0,0
2.7198e+05,1.7307e+08,1,4506,4571,15.67,1.4,25,5,0,0
2.7238e+05,1.7316e+08,1,4574,4742,15.64,1.62,25,5,0,0
2.7331e+05,1.7339e+08,1,4740,4714,15.68,1.64,25,5,0,0
2.7376e+05,1.7351e+08,1,4717,4771,15.65,1.51,25,5,0,0
2.7417e+05,1.7361e+08,1,4765,4642,15.69,1.48,25,5,0,0
2.7466e+05,1.7373e+08,1,4639,4614,15.67,1.64,25,5,0,0
2.751e+05,1.7383e+08,1,4619,4700,15.58,1.68,25,5,0,0
2.755e+05,1.7394e+08,1,4699,4657,15.62,1.57,25,5,0,0
2.7597e+05,1.7405e+08,1,4659,4685,15.72,1.57,25,5,0,0
2.7637e+05,1.7416e+08,1,4685,4685,15.66,1.8,25,5,0,0
2.7682e+05,1.7427e+08,1,4690,4814,15.73,1.44,25,5,0,0
2.7723e+05,1.7437e+08,1,4813,4785,15.67,1.65,25,5,0,0
2.7773e+05,1.7449e+08,1,4786,4800,15.72,1.58,25,5,0,0
2.7813e+05,1.7459e+08,1,4795,4700,15.68,1.52,25,5,0,0
2.7858e+05,1.747e+08,1,4701,4728,15.66,1.68,25,5,0,0
2.7902e+05,1.7481e+08,1,4729,4800,15.62,1.65,25,5,0,0
2.7951e+05,1.7493e+08,1,4793,4728,15.67,1.47,25,5,0,0
2.7992e+05,1.7503e+08,1,4714,4600,15.69,1.36,25,5,0,0
2.8036e+05,1.7514e+08,1,4600,4614,15.64,1.47,25,5,0,0
2.8079e+05,1.7525e+08,1,4607,4542,15.65,1.26,25,5,0,0
2.8119e+05,1.7536e+08,1,4549,4614,15.64,1.57,25,6,0,0
2.8164e+05,1.7546e+08,1,4617,4814,15.67,1.98,25,6,0,0
2.8209e+05,1.7558e+08,1,4820,4885,15.67,1.57,25,6,0,0
2.8254e+05,1.7569e+08,1,4871,4785,15.67,1.55,25,6,0,0
2.829e+05,1.7579e+08,1,4776,4685,15.66,1.51,25,6,0,0
2.8336e+05,1.759e+08,1,4688,4728,15.62,1.56,25,6,0,0
2.838e+05,1.7601e+08,1,4715,4628,15.67,1.21,25,6,0,0
2.8425e+05,1.7612e+08,1,4621,4585,15.65,1.45,25,6,0,0
2.8466e+05,1.7623e+08,1,4583,4571,15.67,1.38,25,6,0,0
2.851e+05,1.7633e+08,1,4574,4614,15.61,1.57,25,6,0,0
2.8549e+05,1.7644e+08,1,4600,4485,15.65,1.26,25,6,0,0
2.8592e+05,1.7655e+08,1,4486,4514,15.66,1.52,25,6,0,0
2.8637e+05,1.7666e+08,1,4514,4514,15.66,1.36,25,6,0,0
2.8682e+05,1.7677e+08,1,4503,4414,15.64,1.28,25,6,0,0
2.8726e+05,1.7688e+08,1,4436,4614,15.64,1.42,25,6,0,0
2.8764e+05,1.7697e+08,1,4612,4528,15.66,1.38,25,6,0,0
2.8813e+05,1.7709e+08,1,4539,4642,15.62,1.61,25,6,0,0
2.8856e+05,1.772e+08,1,4631,4528,15.65,1.3,25,6,0,0
2.8901e+05,1.7731e+08,1,4532,4585,15.63,1.31,25,6,0,0
2.8946e+05,1.7742e+08,1,4578,4500,15.64,1.33,25,6,0,0
2.8991e+05,1.7753e+08,1,4486,4385,15.64,1.28,25,6,0,0
2.9032e+05,1.7763e+08,1,4370,4142,15.69,0.93,25,6,0,0
2.9077e+05,1.7774e+08,1,4146,4185,15.68,1.23,25,6,0,0
2.9122e+05,1.7785e+08,1,4180,4142,15.6,1.27,25,6,0,0
2.9165e+05,1.7796e+08,1,4124,3942,15.71,1.09,25,7,0,0
2.9208e+05,1.7807e+08,1,3949,4000,15.65,1.53,25,7,0,0
2.9252e+05,1.7817e+08,1,3993,3942,15.67,1.85,25,7,0,0
2.9297e+05,1.7828e+08,1,3957,4128,15.73,1.41,25,7,0,0
2.9337e+05,1.7838e+08,1,4131,4200,15.63,1.89,25,7,0,0
2.9383e+05,1.7849e+08,1,4199,4185,15.67,1.22,25,7,0,0
2.9427e+05,1.7861e+08,1,4199,4314,15.61,1.36,25,7,0,0
2.9468e+05,1.7871e+08,1,4317,4385,15.65,1.41,25,7,0,0
2.9512e+05,1.7882e+08,1,4390,4442,15.61,1.39,25,7,0,0
2.9557e+05,1.7892e+08,1,4435,4385,15.6,1.24,25,7,0,0
2.9602e+05,1.7904e+08,1,4393,4457,15.62,1.32,25,7,0,0
2.9642e+05,1.7914e+08,1,4459,4485,15.6,1.54,25,7,0,0
2.9687e+05,1.7924e+08,1,4488,4571,15.6,1.42,25,7,0,0
2.973e+05,1.7936e+08,1,4557,4471,15.58,1.43,25,7,0,0
2.9774e+05,1.7946e+08,1,4466,4400,15.58,1.38,25,7,0,0
2.9817e+05,1.7957e+08,1,4400,4414,15.63,1.49,25,7,0,0
2.9866e+05,1.7969e+08,1,4426,4528,15.6,1.52,25,7,0,0
2.9907e+05,1.7979e+08,1,4526,4442,15.65,1.59,25,7,0,0
2.9956e+05,1.7991e+08,1,4460,4614,15.63,1.68,25,7,0,0
2.9996e+05,1.8001e+08,1,4620,4700,15.57,1.8,25,7,0,0
3.0041e+05,1.8012e+08,1,4724,4914,15.49,2.26,25,7,0,0
3.0086e+05,1.8023e+08,1,4919,4971,15.54,2.08,25,7,0,0
3.0126e+05,1.8034e+08,1,4977,5042,15.56,1.8,25,8,0,0
3.0175e+05,1.8044e+08,1,5027,4857,15.52,1.61,25,8,0,0
3.0215e+05,1.8055e+08,1,4853,4785,15.57,1.49,25,8,0,0
3.035e+05,1.8088e+08,1,4774,4328,15.6,1.21,25,8,0,0
3.039e+05,1.8099e+08,1,4330,4500,15.55,1.85,25,8,0,0
3.0479e+05,1.812e+08,1,4503,4785,15.49,1.66,25,8,0,0
3.0524e+05,1.8132e+08,1,4762,4528,15.57,1.32,25,8,0,0
3.057e+05,1.8143e+08,1,4512,4371,15.57,1.02,25,8,0,0
3.061e+05,1.8153e+08,1,4371,4400,15.57,1.52,25,8,0,0
3.0659e+05,1.8165e+08,1,4403,4442,15.55,1.51,25,8,0,0
3.0699e+05,1.8175e+08,1,4437,4342,15.6,1.32,25,8,0,0
3.0748e+05,1.8186e+08,1,4353,4514,15.62,1.63,25,8,0,0
3.0789e+05,1.8197e+08,1,4513,4485,15.5,1.47,25,8,0,0
3.0838e+05,1.8209e+08,1,4494,4585,15.54,1.58,25,8,0,0
3.0882e+05,1.8219e+08,1,4591,4700,15.55,1.69,25,8,0,0
3.0927e+05,1.823e+08,1,4697,4671,15.56,1.68,25,8,0,0
3.0968e+05,1.824e+08,1,4670,4642,15.51,1.57,25,8,0,0
3.1016e+05,1.8252e+08,1,4641,4628,15.58,1.47,25,8,0,0
3.1061e+05,1.8263e+08,1,4634,4700,15.55,1.46,25,9,0,0
3.1105e+05,1.8274e+08,1,4695,4642,15.55,1.52,25,9,0,0
3.115e+05,1.8284e+08,1,4643,4671,15.57,1.49,25,9,0,0
3.119e+05,1.8295e+08,1,4669,4585,15.55,1.59,25,9,0,0
3.1237e+05,1.8306e+08,1,4586,4600,15.52,1.56,25,9,0,0
3.1276e+05,1.8317e+08,1,4604,4671,15.59,1.44,25,9,0,0
3.1321e+05,1.8327e+08,1,4666,4571,15.59,1.38,25,9,0,0
3.1366e+05,1.8338e+08,1,4572,4628,15.51,1.63,25,9,0,0
3.1415e+05,1.835e+08,1,4626,4614,15.57,1.62,25,9,0,0
3.1456e+05,1.836e+08,1,4614,4614,15.55,1.34,25,9,0,0
3.1545e+05,1.8382e+08,1,4613,4571,15.55,1.67,25,9,0,0
3.1589e+05,1.8393e+08,1,4581,4742,15.57,1.53,25,9,0,0
3.1632e+05,1.8404e+08,1,4734,4557,15.57,1.64,25,9,0,0
3.1678e+05,1.8415e+08,1,4567,4700,15.5,1.72,25,9,0,0
3.1724e+05,1.8426e+08,1,4706,4771,15.52,1.67,25,9,0,0
3.1768e+05,1.8437e+08,1,4771,4771,15.52,1.84,25,9,0,0
3.1809e+05,1.8447e+08,1,4769,4742,15.55,1.61,25,9,0,0
3.1853e+05,1.8458e+08,1,4742,4785,15.53,1.6,25,9,0,0
3.1898e+05,1.8469e+08,1,4785,4800,15.55,1.6,25,9,0,0
3.1983e+05,1.849e+08,1,4797,4657,15.45,1.77,25,9,0,0
3.2027e+05,1.8501e+08,1,4653,4614,15.58,1.48,25,10,0,0
3.2065e+05,1.8512e+08,1,4606,4428,15.51,1.39,25,10,0,0
3.2156e+05,1.8533e+08,1,4430,4485,15.53,1.19,25,10,0,0
3.2201e+05,1.8545e+08,1,4478,4414,15.48,1.38,25,10,0,0
3.2241e+05,1.8555e+08,1,4414,4414,15.54,1.48,25,10,0,0
3.2285e+05,1.8565e+08,1,4414,4442,15.55,1.4,25,10,0,0
3.2331e+05,1.8577e+08,1,4443,4457,15.56,1.38,25,10,0,0
3.2376e+05,1.8588e+08,1,4457,4471,15.5,1.33,25,10,0,0
3.2416e+05,1.8598e+08,1,4469,4457,15.54,1.45,25,10,0,0
3.2461e+05,1.8609e+08,1,4465,4557,15.44,1.84,25,10,0,0
3.2506e+05,1.862e+08,1,4571,4728,15.52,1.67,25,10,0,0
3.2551e+05,1.8632e+08,1,4715,4628,15.53,1.61,25,10,0,0
3.2592e+05,1.8642e+08,1,4627,4614,15.57,1.32,25,10,0,0
3.2636e+05,1.8652e+08,1,4609,4528,15.5,1.41,25,10,0,0
3.2681e+05,1.8664e+08,1,4538,4642,15.53,1.69,25,10,0,0
3.2721e+05,1.8674e+08,1,4643,4714,15.5,1.59,25,10,0,0
3.2808e+05,1.8696e+08,1,4713,4700,15.51,1.5,25,10,0,0
3.2856e+05,1.8707e+08,1,4694,4585,15.6,1.31,25,10,0,0
3.2901e+05,1.8719e+08,1,4573,4457,15.5,1.4,25,10,0,0
3.2946e+05,1.873e+08,1,4467,4571,15.46,1.55,25,10,0,0
3.2986e+05,1.874e+08,1,4568,4514,15.56,1.46,25,10,0,0
3.3028e+05,1.8751e+08,1,4517,4571,15.54,1.52,25,11,0,0
3.3072e+05,1.8761e+08,1,4572,4600,15.54,1.67,25,11,0,0
3.3116e+05,1.8772e+08,1,4597,4514,15.46,1.68,25,11,0,0
3.316e+05,1.8783e+08,1,4523,4714,15.49,1.8,25,11,0,0
3.3199e+05,1.8793e+08,1,4716,4857,15.43,2.03,25,11,0,0
3.3248e+05,1.8805e+08,1,4853,4814,15.45,1.5,25,11,0,0
3.3288e+05,1.8816e+08,1,4799,4614,15.55,1.36,25,11,0,0
3.3338e+05,1.8827e+08,1,4606,4528,15.51,1.22,25,11,0,0
3.3378e+05,1.8837e+08,1,4520,4414,15.57,1.03,25,11,0,0
3.3424e+05,1.8849e+08,1,4399,4257,15.56,1.11,25,11,0,0
3.3468e+05,1.886e+08,1,4251,4171,15.56,0.97,25,11,0,0
3.3513e+05,1.8871e+08,1,4177,4242,15.55,1.32,25,11,0,0
3.3557e+05,1.8882e+08,1,4245,4271,15.5,1.42,25,11,0,0
3.3597e+05,1.8892e+08,1,4272,4385,15.51,1.41,25,11,0,0
3.3646e+05,1.8904e+08,1,4394,4457,15.55,1.38,25,11,0,0
3.3687e+05,1.8914e+08,1,4457,4457,15.54,1.45,25,11,0,0
3.3732e+05,1.8925e+08,1,4459,4485,15.52,1.21,25,11,0,0
3.3777e+05,1.8937e+08,1,4478,4414,15.55,1.17,25,11,0,0
3.3822e+05,1.8947e+08,1,4415,4428,15.56,1.23,25,11,0,0
3.3861e+05,1.8958e+08,1,4424,4342,15.51,1.33,25,11,0,0
3.3904e+05,1.8968e+08,1,4343,4371,15.55,1.22,25,11,0,0
3.3945e+05,1.8979e+08,1,4371,4371,15.55,1.19,25,11,0,0
3.399e+05,1.899e+08,1,4370,4342,15.53,1.36,25,11,0,0
3.4035e+05,1.9002e+08,1,4344,4371,15.54,1.18,25,12,0,0
3.4075e+05,1.9011e+08,1,4371,4400,15.54,1.32,25,12,0,0
3.4123e+05,1.9023e+08,1,4396,4314,15.52,1.21,25,12,0,0
3.4169e+05,1.9034e+08,1,4322,4414,15.54,1.41,25,12,0,0
3.4214e+05,1.9045e+08,1,4408,4357,15.52,1.24,25,12,0,0
3.4254e+05,1.9055e+08,1,4365,4442,15.49,1.39,25,12,0,0
3.4296e+05,1.9066e+08,1,4432,4342,15.5,1.3,25,12,0,0
3.434e+05,1.9077e+08,1,4346,4457,15.55,1.32,25,12,0,0
3.4385e+05,1.9088e+08,1,4445,4342,15.51,1.28,25,12,0,0
3.4429e+05,1.9099e+08,1,4347,4400,15.51,1.28,25,12,0,0
3.4478e+05,1.911e+08,1,4408,4514,15.53,1.48,25,12,0,0
3.4519e+05,1.9121e+08,1,4512,4471,15.51,1.44,25,12,0,0
3.4564e+05,1.9132e+08,1,4482,4642,15.5,1.47,25,12,0,0
3.4605e+05,1.9142e+08,1,4632,4457,15.52,1.17,25,12,0,0
3.4649e+05,1.9153e+08,1,4457,4500,15.54,1.37,25,12,0,0
3.4697e+05,1.9165e+08,1,4490,4385,15.54,1.1,25,12,0,0
3.4736e+05,1.9175e+08,1,4382,4328,15.55,1.35,25,12,0,0
3.4781e+05,1.9186e+08,1,4332,4442,15.54,1.62,25,12,0,0
3.4829e+05,1.9197e+08,1,4444,4471,15.52,1.24,25,12,0,0
3.487e+05,1.9207e+08,1,4471,4471,15.47,1.36,25,12,0,0
3.4914e+05,1.9218e+08,1,4473,4514,15.54,1.4,25,12,0,0
3.496e+05,1.9229e+08,1,4510,4428,15.54,1.16,25,12,0,0
3.5008e+05,1.9241e+08,1,4418,4328,15.5,1.3,25,12,0,0
3.5053e+05,1.9252e+08,1,4326,4314,15.54,1.16,25,12,0,0
3.5091e+05,1.9262e+08,1,4306,4214,15.6,1.04,25,12,0,0
3.5135e+05,1.9273e+08,1,4197,4014,15.4,1.46,25,13,0,0
3.518e+05,1.9284e+08,1,4022,4142,15.6,1.9,25,13,0,0
3.522e+05,1.9294e+08,1,4144,4285,15.58,1.93,25,13,0,0
3.5268e+05,1.9305e+08,1,4297,4471,15.5,1.5,25,13,0,0
3.5313e+05,1.9317e+08,1,4461,4328,15.57,1.38,25,13,0,0
3.5362e+05,1.9328e+08,1,4336,4457,15.55,1.25,25,13,0,0
3.5402e+05,1.9338e+08,1,4456,4442,15.55,1.37,25,13,0,0
3.5448e+05,1.9349e+08,1,4440,4400,15.55,1.34,25,13,0,0
3.5494e+05,1.936e+08,1,4407,4485,15.55,1.45,25,13,0,0
3.5577e+05,1.9382e+08,1,4485,4500,15.52,1.51,25,13,0,0
3.5621e+05,1.9392e+08,1,4500,4500,15.51,1.47,25,13,0,0
3.5707e+05,1.9414e+08,1,4497,4414,15.52,1.3,25,13,0,0
3.5752e+05,1.9425e+08,1,4409,4314,15.52,1.31,25,13,0,0
3.5797e+05,1.9436e+08,1,4301,4185,15.52,1.11,25,13,0,0
3.5842e+05,1.9447e+08,1,4185,4185,15.55,1.21,25,13,0,0
3.5882e+05,1.9457e+08,1,4186,4214,15.56,1.35,25,13,0,0
3.5928e+05,1.9468e+08,1,4220,4285,15.53,1.6,25,13,0,0
3.5968e+05,1.9479e+08,1,4288,4385,15.52,1.43,25,13,0,0
3.6013e+05,1.9489e+08,1,4388,4457,15.51,1.35,25,13,0,0
3.6061e+05,1.9501e+08,1,4455,4428,15.53,1.36,25,13,0,0
3.6105e+05,1.9512e+08,1,4426,4414,15.58,1.29,25,13,0,0
3.615e+05,1.9522e+08,1,4414,4414,15.6,1.14,25,14,0,0
3.6194e+05,1.9533e+08,1,4410,4371,15.57,1.46,25,14,0,0
3.6235e+05,1.9543e+08,1,4375,4600,15.52,1.64,25,14,0,0
3.6283e+05,1.9555e+08,1,4602,4628,15.55,1.67,25,14,0,0
3.6326e+05,1.9566e+08,1,4641,4785,15.51,1.71,25,14,0,0
3.6369e+05,1.9576e+08,1,4777,4671,15.47,1.51,25,14,0,0
3.6414e+05,1.9587e+08,1,4666,4614,15.55,1.39,25,14,0,0
3.6458e+05,1.9598e+08,1,4621,4700,15.42,1.74,25,14,0,0
3.6507e+05,1.961e+08,1,4708,4771,15.5,1.55,25,14,0,0
3.6591e+05,1.9631e+08,1,4767,4685,15.45,1.42,25,14,0,0
3.6636e+05,1.9641e+08,1,4678,4614,15.45,1.36,25,14,0,0
3.6679e+05,1.9652e+08,1,4606,4528,15.5,1.67,25,14,0,0
3.6722e+05,1.9663e+08,1,4535,4642,15.44,1.87,25,14,0,0
3.6765e+05,1.9674e+08,1,4654,4771,15.41,1.59,25,14,0,0
3.6814e+05,1.9685e+08,1,4764,4685,15.44,1.68,25,14,0,0
3.6854e+05,1.9696e+08,1,4683,4671,15.47,1.72,25,14,0,0
3.69e+05,1.9706e+08,1,4666,4628,15.39,1.58,25,14,0,0
3.6985e+05,1.9728e+08,1,4620,4485,15.46,1.15,25,14,0,0
3.7026e+05,1.9738e+08,1,4485,4500,15.53,1.48,25,14,0,0
3.7074e+05,1.9749e+08,1,4502,4542,15.47,1.67,25,14,0,0
3.7117e+05,1.976e+08,1,4545,4614,15.44,1.61,25,15,0,0
3.7204e+05,1.9782e+08,1,4618,4800,15.48,1.62,25,15,0,0
3.7256e+05,1.9794e+08,1,4790,4685,15.47,1.45,25,15,0,0
3.7292e+05,1.9803e+08,1,4684,4671,15.52,1.54,25,15,0,0
3.7332e+05,1.9814e+08,1,4667,4542,15.53,1.34,25,15,0,0
3.7382e+05,1.9826e+08,1,4531,4442,15.54,1.04,25,15,0,0
3.7423e+05,1.9836e+08,1,4440,4400,15.54,1.37,25,15,0,0
3.7468e+05,1.9846e+08,1,4402,4457,15.52,1.4,25,15,0,0
3.7508e+05,1.9857e+08,1,4460,4685,15.5,1.48,25,15,0,0
3.7598e+05,1.9879e+08,1,4675,4457,15.47,1.24,25,15,0,0
3.7643e+05,1.989e+08,1,4451,4342,15.54,1.24,25,15,0,0
3.7683e+05,1.99e+08,1,4344,4442,15.51,1.52,25,15,0,0
3.7732e+05,1.9912e+08,1,4455,4571,15.55,1.62,25,15,0,0
3.7813e+05,1.9932e+08,1,4572,4785,15.51,1.62,25,15,0,0
3.7862e+05,1.9944e+08,1,4790,4871,15.47,1.76,25,15,0,0
3.7906e+05,1.9955e+08,1,4863,4771,15.47,1.76,25,15,0,0
3.7951e+05,1.9966e+08,1,4769,4757,15.48,1.46,25,15,0,0
3.7995e+05,1.9977e+08,1,4737,4542,15.52,1.2,25,15,0,0
3.808e+05,1.9998e+08,1,4531,4271,15.51,1.12,25,15,0,0
3.8125e+05,2.0008e+08,1,4271,4300,15.5,1.71,25,16,0,0
3.8169e+05,2.0019e+08,1,4311,4457,15.52,1.34,25,16,0,0
3.8214e+05,2.003e+08,1,4468,4585,15.48,1.58,25,16,0,0
3.8253e+05,2.004e+08,1,4584,4557,15.48,1.31,25,16,0,0
3.8292e+05,2.0051e+08,1,4556,4542,15.48,1.56,25,16,0,0
3.8338e+05,2.0062e+08,1,4544,4600,15.44,1.41,25,16,0,0
3.8382e+05,2.0073e+08,1,4599,4585,15.47,1.46,25,16,0,0
3.8427e+05,2.0084e+08,1,4592,4685,15.5,1.4,25,16,0,0
3.8475e+05,2.0095e+08,1,4678,4614,15.51,1.34,25,16,0,0
3.852e+05,2.0106e+08,1,4611,4585,15.42,1.49,25,16,0,0
3.856e+05,2.0117e+08,1,4588,4642,15.44,1.75,25,16,0,0
3.8605e+05,2.0128e+08,1,4643,4728,15.46,1.54,25,16,0,0
3.8652e+05,2.0139e+08,1,4717,4614,15.43,1.56,25,16,0,0
3.8695e+05,2.015e+08,1,4617,4642,15.45,1.42,25,16,0,0
3.8735e+05,2.016e+08,1,4630,4357,15.5,1,25,16,0,0
3.878e+05,2.0172e+08,1,4358,4371,15.51,1.39,25,16,0,0
3.8825e+05,2.0182e+08,1,4372,4400,15.51,1.41,25,16,0,0
3.8895e+05,2.0204e+08,1,4314,4328,15.48,1.37,25,16,0,0
3.894e+05,2.0215e+08,1,4326,4228,15.52,1.27,25,16,0,0
3.8985e+05,2.0225e+08,1,4226,4142,15.45,1.37,25,16,0,0
3.9029e+05,2.0236e+08,1,4143,4200,15.5,1.39,25,16,0,0
3.9074e+05,2.0247e+08,1,4207,4357,15.48,1.49,25,16,0,0
3.9118e+05,2.0258e+08,1,4362,4442,15.44,1.36,25,17,0,0
3.9161e+05,2.0269e+08,1,4447,4528,15.44,1.54,25,17,0,0
3.9206e+05,2.028e+08,1,4527,4514,15.5,1.61,25,17,0,0
3.9251e+05,2.0291e+08,1,4522,4642,15.41,1.64,25,17,0,0
3.9295e+05,2.0302e+08,1,4645,4685,15.41,1.8,25,17,0,0
3.9339e+05,2.0313e+08,1,4683,4657,15.4,1.6,25,17,0,0
3.9425e+05,2.0334e+08,1,4657,4685,15.48,1.42,25,17,0,0
3.947e+05,2.0345e+08,1,4677,4528,15.45,1.3,25,17,0,0
3.9514e+05,2.0356e+08,1,4526,4485,15.42,1.41,25,17,0,0
3.9556e+05,2.0367e+08,1,4484,4471,15.44,1.36,25,17,0,0
3.9601e+05,2.0378e+08,1,4461,4371,15.45,1.36,25,17,0,0
3.9646e+05,2.0389e+08,1,4374,4414,15.44,1.38,25,17,0,0
3.9686e+05,2.0399e+08,1,4414,4414,15.4,1.54,25,17,0,0
3.9775e+05,2.0421e+08,1,4414,4485,15.47,1.33,25,17,0,0
3.9827e+05,2.0433e+08,1,4483,4471,15.44,1.51,25,17,0,0
3.9915e+05,2.0455e+08,1,4477,4614,15.5,1.74,25,17,0,0
3.9958e+05,2.0466e+08,1,4618,4685,15.46,1.62,25,17,0,0
4.0046e+05,2.0488e+08,1,4689,4914,15.4,1.76,25,17,0,0
4.0095e+05,2.05e+08,1,4916,4942,15.44,1.83,25,18,0,0
4.0135e+05,2.0509e+08,1,4937,4828,15.41,1.55,25,18,0,0
4.018e+05,2.052e+08,1,4825,4757,15.52,1.58,25,18,0,0
4.0314e+05,2.0553e+08,1,4754,4657,15.47,1.52,25,18,0,0
4.0359e+05,2.0564e+08,1,4659,4700,15.49,1.49,25,18,0,0
4.04e+05,2.0575e+08,1,4695,4600,15.45,1.45,25,18,0,0
4.0445e+05,2.0586e+08,1,4603,4685,15.48,1.55,25,18,0,0
4.0534e+05,2.0608e+08,1,4682,4628,15.43,1.55,25,18,0,0
4.0577e+05,2.0619e+08,1,4627,4614,15.44,1.63,25,18,0,0
4.062e+05,2.063e+08,1,4611,4571,15.47,1.12,25,18,0,0
4.0664e+05,2.0641e+08,1,4542,4157,15.37,0.83,25,18,0,0
4.0704e+05,2.0652e+08,1,4123,3385,15.39,0.82,25,18,0,0
4.0753e+05,2.0663e+08,1,3351,2985,15.39,0.76,25,18,0,0
4.0794e+05,2.0673e+08,1,3002,3457,15.41,1.39,25,18,0,0
4.0887e+05,2.0696e+08,1,3511,4757,15.43,2.34,25,18,0,0
4.0931e+05,2.0707e+08,1,4785,5157,15.44,2.81,25,18,0,0
4.0971e+05,2.0717e+08,1,5160,5428,15.45,2.63,25,18,0,0
4.1018e+05,2.0728e+08,1,5435,5614,15.45,2.82,25,19,0,0
4.1061e+05,2.0739e+08,1,5616,5742,15.48,2.53,25,19,0,0
4.1154e+05,2.0761e+08,1,5733,5485,15.38,2.45,25,19,0,0
4.1195e+05,2.0772e+08,1,5486,5557,15.41,2.37,25,19,0,0
4.1243e+05,2.0783e+08,1,5545,5400,15.44,2.1,25,19,0,0
4.1284e+05,2.0793e+08,1,5399,5385,15.43,2.11,25,19,0,0
4.1329e+05,2.0804e+08,1,5370,5171,15.42,1.67,25,19,0,0
4.1372e+05,2.0815e+08,1,5160,5014,15.43,1.38,25,19,0,0
4.1415e+05,2.0826e+08,1,4993,4700,15.5,1.51,25,19,0,0
4.1459e+05,2.0837e+08,1,4703,4757,15.49,1.47,25,19,0,0
4.1503e+05,2.0847e+08,1,4754,4714,15.46,1.61,25,19,0,0
4.1544e+05,2.0858e+08,1,4716,4785,15.36,1.83,25,19,0,0
4.1589e+05,2.0869e+08,1,4771,4642,15.45,1.42,25,19,0,0
4.1634e+05,2.088e+08,1,4638,4585,15.47,1.18,25,19,0,0
4.1679e+05,2.0891e+08,1,4581,4542,15.5,1.42,25,19,0,0
4.1719e+05,2.0901e+08,1,4529,4357,15.46,1.63,25,19,0,0
4.1767e+05,2.0913e+08,1,4373,4557,15.47,1.59,25,19,0,0
4.181e+05,2.0923e+08,1,4570,4742,15.47,1.84,25,20,0,0
4.1894e+05,2.0945e+08,1,4743,4785,15.43,1.36,25,20,0,0
4.1938e+05,2.0956e+08,1,4770,4628,15.42,1.56,25,20,0,0
4.1987e+05,2.0967e+08,1,4642,4828,15.31,1.88,25,20,0,0
4.2027e+05,2.0977e+08,1,4828,4828,15.35,1.64,25,20,0,0
4.2076e+05,2.0989e+08,1,4822,4757,15.37,1.48,25,20,0,0
4.212e+05,2.1e+08,1,4752,4671,15.36,1.39,25,20,0,0
4.2164e+05,2.1011e+08,1,4662,4571,15.41,1.39,25,20,0,0
4.2207e+05,2.1022e+08,1,4574,4600,15.4,1.51,25,20,0,0
4.225e+05,2.1033e+08,1,4572,4342,15.34,1.19,25,20,0,0
4.229e+05,2.1043e+08,1,4342,4371,15.41,1.21,25,20,0,0
4.2338e+05,2.1054e+08,1,4371,4400,15.39,1.36,25,20,0,0
4.2384e+05,2.1065e+08,1,4413,4571,15.43,1.66,25,20,0,0
4.2428e+05,2.1076e+08,1,4562,4485,15.45,1.35,25,20,0,0
4.2473e+05,2.1087e+08,1,4484,4457,15.33,1.43,25,20,0,0
4.2518e+05,2.1098e+08,1,4451,4400,15.42,1.42,25,20,0,0
4.2558e+05,2.1108e+08,1,4401,4485,15.41,1.45,25,20,0,0
4.2605e+05,2.112e+08,1,4487,4514,15.44,1.35,25,20,0,0
4.2648e+05,2.1131e+08,1,4521,4571,15.47,1.62,25,20,0,0
4.2692e+05,2.1141e+08,1,4574,4628,15.41,1.49,25,20,0,0
4.2736e+05,2.1152e+08,1,4625,4600,15.33,1.55,25,20,0,0
4.2781e+05,2.1163e+08,1,4608,4728,15.45,1.46,25,21,0,0
4.2825e+05,2.1174e+08,1,4726,4642,15.42,1.47,25,21,0,0
4.287e+05,2.1185e+08,1,4647,4785,15.42,1.97,25,21,0,0
4.2915e+05,2.1196e+08,1,4790,4871,15.4,1.89,25,21,0,0
4.296e+05,2.1207e+08,1,4872,4885,15.42,1.89,25,21,0,0
4.3045e+05,2.1229e+08,1,4886,4928,15.37,1.81,25,21,0,0
4.3085e+05,2.1239e+08,1,4925,4871,15.44,1.68,25,21,0,0
4.313e+05,2.125e+08,1,4854,4685,15.44,1.29,25,21,0,0
4.3175e+05,2.1261e+08,1,4675,4571,15.39,1.28,25,21,0,0
4.3219e+05,2.1272e+08,1,4567,4500,15.36,1.48,25,21,0,0
4.3264e+05,2.1283e+08,1,4504,4557,15.44,1.52,25,21,0,0
4.3308e+05,2.1293e+08,1,4558,4585,15.42,1.56,25,21,0,0
4.3353e+05,2.1304e+08,1,4590,4700,15.42,1.54,25,21,0,0
4.3398e+05,2.1316e+08,1,4706,4771,15.42,1.49,25,21,0,0
4.3439e+05,2.1326e+08,1,4764,4628,15.45,1.4,25,21,0,0
4.3483e+05,2.1337e+08,1,4634,4714,15.46,1.56,25,21,0,0
4.3528e+05,2.1347e+08,1,4712,4700,15.43,1.68,25,21,0,0
4.3571e+05,2.1358e+08,1,4699,4685,15.4,1.52,25,21,0,0
4.3616e+05,2.1369e+08,1,4684,4671,15.41,1.66,25,21,0,0
4.3627e+05,2.138e+08,1,4689,4871,15.41,1.74,25,21,0,0
4.3671e+05,2.1391e+08,1,4857,4742,15.42,1.73,25,22,0,0
4.3716e+05,2.1402e+08,1,4759,4942,15.4,1.87,25,22,0,0
4.3757e+05,2.1412e+08,1,4943,4985,15.42,2.14,25,22,0,0
4.3801e+05,2.1423e+08,1,4991,5085,15.41,2.32,25,22,0,0
4.3841e+05,2.1433e+08,1,5085,5100,15.34,2.25,25,22,0,0
4.3888e+05,2.1445e+08,1,5114,5485,15.4,2.5,25,22,0,0
4.3934e+05,2.1456e+08,1,5477,5385,15.4,2.39,25,22,0,0
4.3976e+05,2.1466e+08,1,5382,5257,15.42,2.36,25,22,0,0
4.4024e+05,2.1478e+08,1,5260,5328,15.38,2.43,25,22,0,0
4.4069e+05,2.1489e+08,1,5330,5357,15.45,2.06,25,22,0,0
4.4113e+05,2.15e+08,1,5344,5157,15.44,2.03,25,22,0,0
4.4158e+05,2.1511e+08,1,5154,5128,15.36,2.49,25,22,0,0
4.4199e+05,2.1521e+08,1,5128,5128,15.38,2.19,25,22,0,0
4.4247e+05,2.1532e+08,1,5133,5214,15.37,2.05,25,22,0,0
4.4286e+05,2.1542e+08,1,5202,4942,15.44,1.39,25,22,0,0
4.433e+05,2.1554e+08,1,4925,4757,15.39,1.55,25,23,0,0
4.4374e+05,2.1564e+08,1,4759,4800,15.42,1.65,26,23,0,0
4.4412e+05,2.1575e+08,1,4794,4671,15.41,1.44,25,23,0,0
4.4456e+05,2.1585e+08,1,4670,4657,15.41,1.5,25,23,0,0
4.45e+05,2.1596e+08,1,4657,4657,15.42,1.57,25,23,0,0
4.4545e+05,2.1607e+08,1,4657,4657,15.41,1.56,25,23,0,0
4.459e+05,2.1619e+08,1,4652,4585,15.33,1.57,25,23,0,0
4.4635e+05,2.163e+08,1,4596,4700,15.31,1.71,25,23,0,0
4.468e+05,2.1641e+08,1,4706,4785,15.4,1.81,25,23,0,0
4.4724e+05,2.1651e+08,1,4782,4671,15.38,1.67,25,23,0,0
4.4768e+05,2.1662e+08,1,4667,4585,15.41,1.28,25,23,0,0
4.4813e+05,2.1674e+08,1,4582,4542,15.46,1.54,25,23,0,0
4.4856e+05,2.1685e+08,1,4538,4500,15.44,1.32,25,23,0,0
4.49e+05,2.1696e+08,1,4485,4314,15.43,1.06,25,23,0,0
4.494e+05,2.1706e+08,1,4314,4314,15.42,1.36,25,23,0,0
4.4989e+05,2.1718e+08,1,4322,4400,15.42,1.28,25,23,0,0
4.5034e+05,2.1729e+08,1,4416,4571,15.38,1.44,25,23,0,0
4.5078e+05,2.1739e+08,1,4562,4485,15.38,1.46,25,23,0,0
4.5123e+05,2.1751e+08,1,4483,4471,15.44,1.42,25,23,0,0
4.5168e+05,2.1762e+08,1,4472,4485,15.47,1.43,26,23,0,0
4.525e+05,2.1782e+08,1,4492,4700,15.39,1.82,26,23,0,0
4.5293e+05,2.1793e+08,1,4705,4800,15.4,1.57,25,24,0,0
4.5382e+05,2.1815e+08,1,4797,4728,15.39,1.62,25,24,0,0
4.5427e+05,2.1826e+08,1,4733,4771,15.43,1.63,26,24,0,0
4.5471e+05,2.1837e+08,1,4764,4728,15.36,1.76,26,24,0,0
4.5516e+05,2.1848e+08,1,4731,4785,15.39,1.8,26,24,0,0
4.556e+05,2.1859e+08,1,4783,4771,15.37,1.47,26,24,0,0
4.5601e+05,2.1869e+08,1,4766,4685,15.41,1.65,25,24,0,0
4.5644e+05,2.188e+08,1,4683,4657,15.38,1.41,25,24,0,0
4.5687e+05,2.1891e+08,1,4649,4571,15.41,1.54,26,24,0,0
4.5732e+05,2.1903e+08,1,4566,4514,15.4,1.26,25,24,0,0
4.5772e+05,2.1913e+08,1,4512,4442,15.39,1.34,25,24,0,0
4.5817e+05,2.1924e+08,1,4437,4357,15.44,1.17,25,24,0,0
4.5862e+05,2.1935e+08,1,4355,4328,15.42,1.3,26,24,0,0
4.5907e+05,2.1947e+08,1,4329,4342,15.36,1.39,25,24,0,0
4.5952e+05,2.1958e+08,1,4335,4285,15.44,1.14,25,24,0,0
4.5997e+05,2.1969e+08,1,4283,4271,15.44,1.24,25,24,0,0
4.6036e+05,2.1979e+08,1,4274,4314,15.43,1.39,25,24,0,0
4.6123e+05,2.2001e+08,1,4311,4257,15.47,1.2,25,24,0,0
4.6168e+05,2.2012e+08,1,4277,4428,15.44,1.54,25,24,0,0
4.6208e+05,2.2022e+08,1,4425,4285,15.42,1.29,25,24,0,0
4.6302e+05,2.2045e+08,1,4287,4357,15.45,1.15,25,25,0,0
4.6346e+05,2.2055e+08,1,4358,4457,15.47,1.38,25,25,0,0
4.6434e+05,2.2077e+08,1,4457,4528,15.42,1.55,26,25,0,0
4.6482e+05,2.2089e+08,1,4534,4600,15.4,1.58,25,25,0,0
4.6521e+05,2.2099e+08,1,4599,4571,15.4,1.38,25,25,0,0
4.6566e+05,2.2111e+08,1,4575,4614,15.39,1.51,25,25,0,0
4.6611e+05,2.2121e+08,1,4616,4642,15.36,1.33,25,25,0,0
4.6655e+05,2.2132e+08,1,4643,4671,15.44,1.51,25,25,0,0
4.67e+05,2.2143e+08,1,4658,4528,15.44,1.31,25,25,0,0
4.674e+05,2.2153e+08,1,4526,4428,15.37,1.28,25,25,0,0
4.6786e+05,2.2164e+08,1,4427,4385,15.45,1.32,25,25,0,0
4.6829e+05,2.2175e+08,1,4386,4457,15.4,1.58,25,25,0,0
4.6872e+05,2.2186e+08,1,4457,4457,15.42,1.29,25,25,0,0
4.6916e+05,2.2197e+08,1,4457,4471,15.42,1.51,25,25,0,0
4.6961e+05,2.2208e+08,1,4477,4542,15.42,1.66,25,25,0,0
4.7005e+05,2.2219e+08,1,4535,4442,15.42,1.4,25,25,0,0
4.709e+05,2.224e+08,1,4450,4685,15.4,1.79,26,25,0,0
4.7135e+05,2.2252e+08,1,4692,4757,15.36,1.57,25,25,0,0
4.7184e+05,2.2263e+08,1,4747,4642,15.42,1.56,25,25,0,0
4.7224e+05,2.2273e+08,1,4640,4600,15.38,1.17,25,25,0,0
4.7266e+05,2.2284e+08,1,4582,4357,15.44,1.07,25,26,0,0
4.7309e+05,2.2295e+08,1,4355,4328,15.41,1.28,25,26,0,0
4.7354e+05,2.2305e+08,1,4329,4342,15.39,1.41,25,26,0,0
4.7398e+05,2.2316e+08,1,4342,4342,15.42,1.27,25,26,0,0
4.7443e+05,2.2327e+08,1,4334,4228,15.37,1.04,25,26,0,0
4.7483e+05,2.2337e+08,1,4224,4157,15.44,1.04,25,26,0,0
4.7528e+05,2.2348e+08,1,4157,4171,15.41,1.45,25,26,0,0
4.757e+05,2.2359e+08,1,4171,4185,15.41,1.33,26,26,0,0
4.7618e+05,2.2371e+08,1,4189,4242,15.42,1.13,25,26,0,0
4.7657e+05,2.2381e+08,1,4242,4257,15.39,1.16,26,26,0,0
4.7745e+05,2.2403e+08,1,4257,4257,15.4,1.25,26,26,0,0
4.7789e+05,2.2414e+08,1,4260,4285,15.43,1.31,25,26,0,0
4.783e+05,2.2424e+08,1,4285,4300,15.39,1.27,25,26,0,0
4.7874e+05,2.2434e+08,1,4300,4300,15.42,1.62,26,26,0,0
4.7919e+05,2.2446e+08,1,4301,4314,15.4,1.19,26,26,0,0
4.7959e+05,2.2456e+08,1,4314,4342,15.43,1.25,25,26,0,0
4.8008e+05,2.2468e+08,1,4335,4271,15.41,1.2,25,26,0,0
4.8055e+05,2.2479e+08,1,4271,4271,15.41,1.15,25,26,0,0
4.8094e+05,2.2489e+08,1,4286,4385,15.42,1.29,25,26,0,0
4.8134e+05,2.2499e+08,1,4386,4414,15.39,1.35,25,26,0,0
4.8178e+05,2.251e+08,1,4398,4271,15.41,1.17,26,26,0,0
4.8226e+05,2.2521e+08,1,4267,4242,15.39,1.3,25,26,0,0
4.8272e+05,2.2533e+08,1,4280,4528,15.34,1.4,25,26,0,0
4.8312e+05,2.2543e+08,1,4540,4657,15.39,1.45,26,26,0,0
4.8353e+05,2.2553e+08,1,4649,4585,15.36,1.36,25,27,0,0
4.8398e+05,2.2564e+08,1,4581,4542,15.37,1.38,25,27,0,0
4.8438e+05,2.2575e+08,1,4542,4614,15.39,1.49,25,27,0,0
4.8481e+05,2.2585e+08,1,4611,4500,15.37,1.18,25,27,0,0
4.8525e+05,2.2597e+08,1,4502,4528,15.34,1.49,25,27,0,0
4.8574e+05,2.2609e+08,1,4525,4500,15.35,1.11,25,27,0,0
4.8618e+05,2.2619e+08,1,4486,4357,15.43,1.27,25,27,0,0
4.8663e+05,2.263e+08,1,4347,4257,15.4,1.51,25,27,0,0
4.8707e+05,2.2642e+08,1,4251,4200,15.42,1.25,25,27,0,0
4.8748e+05,2.2651e+08,1,4201,4300,15.42,1.28,25,27,0,0
4.8796e+05,2.2663e+08,1,4298,4285,15.4,1.43,25,27,0,0
4.8836e+05,2.2673e+08,1,4287,4342,15.42,1.41,25,27,0,0
4.8879e+05,2.2684e+08,1,4340,4242,15.44,1.2,25,27,0,0
4.8922e+05,2.2695e+08,1,4240,4214,15.45,1.33,25,27,0,0
4.8971e+05,2.2706e+08,1,4229,4400,15.36,1.52,25,27,0,0
4.9007e+05,2.2716e+08,1,4403,4614,15.42,1.83,25,27,0,0
4.9149e+05,2.275e+08,1,4615,4657,15.42,1.54,25,27,0,0
4.9188e+05,2.276e+08,1,4658,4728,15.41,1.56,25,27,0,0
4.9235e+05,2.2772e+08,1,4724,4700,15.38,1.6,25,27,0,0
4.9276e+05,2.2782e+08,1,4700,4714,15.41,1.71,26,27,0,0
4.932e+05,2.2793e+08,1,4719,4800,15.41,1.64,26,27,0,0
4.9361e+05,2.2803e+08,1,4799,4785,15.41,1.43,25,28,0,0
4.9454e+05,2.2826e+08,1,4762,4114,15.5,0.93,25,28,0,0
4.9498e+05,2.2837e+08,1,4107,4014,15.48,1.11,25,28,0,0
4.9539e+05,2.2847e+08,1,4015,4128,15.51,1.87,25,28,0,0
4.9588e+05,2.2859e+08,1,4136,4257,15.41,2.22,25,28,0,0
4.9633e+05,2.287e+08,1,4296,4714,15.36,1.73,25,28,0,0
4.9672e+05,2.288e+08,1,4714,4728,15.35,1.88,26,28,0,0
4.9711e+05,2.2891e+08,1,4727,4714,15.4,1.78,25,28,0,0
4.9757e+05,2.2902e+08,1,4706,4600,15.47,1.35,25,28,0,0
4.9801e+05,2.2913e+08,1,4597,4571,15.45,1.48,25,28,0,0
4.989e+05,2.2934e+08,1,4578,4742,15.38,1.84,25,28,0,0
4.993e+05,2.2944e+08,1,4743,4785,15.37,2.02,26,28,0,0
4.9974e+05,2.2955e+08,1,4794,4985,15.38,1.69,25,28,0,0
5.0061e+05,2.2977e+08,1,4969,4642,15.44,1.49,25,28,0,0
5.0106e+05,2.2988e+08,1,4629,4457,15.4,1.23,25,28,0,0
5.0146e+05,2.2998e+08,1,4460,4542,15.38,1.41,25,28,0,0
5.0191e+05,2.3009e+08,1,4540,4485,15.42,1.31,25,28,0,0
5.0236e+05,2.302e+08,1,4485,4500,15.38,1.41,25,28,0,0
5.0325e+05,2.3042e+08,1,4500,4528,15.4,1.36,25,28,0,0
5.0365e+05,2.3053e+08,1,4528,4571,15.4,1.48,25,29,0,0
5.0409e+05,2.3064e+08,1,4575,4642,15.36,1.46,25,29,0,0
5.0453e+05,2.3075e+08,1,4645,4685,15.34,1.43,25,29,0,0
5.0494e+05,2.3085e+08,1,4683,4671,15.35,1.64,25,29,0,0
5.0582e+05,2.3107e+08,1,4670,4657,15.36,1.58,25,29,0,0
5.0623e+05,2.3118e+08,1,4669,4828,15.31,1.69,25,29,0,0
5.0668e+05,2.3129e+08,1,4810,4628,15.37,1.22,25,29,0,0
5.0712e+05,2.3139e+08,1,4627,4614,15.36,1.35,26,29,0,0
5.0757e+05,2.315e+08,1,4612,4600,15.35,1.41,25,29,0,0
5.08e+05,2.3161e+08,1,4600,4628,15.36,1.5,25,29,0,0
5.0846e+05,2.3173e+08,1,4630,4671,15.3,1.5,25,29,0,0
5.0891e+05,2.3184e+08,1,4664,4585,15.33,1.52,25,29,0,0
5.0935e+05,2.3194e+08,1,4583,4542,15.42,1.42,25,29,0,0
5.1068e+05,2.3226e+08,1,4541,4514,15.38,1.59,26,29,0,0
5.1109e+05,2.3237e+08,1,4514,4557,15.35,1.69,25,29,0,0
5.1158e+05,2.3249e+08,1,4568,4671,15.35,1.92,25,29,0,0
5.1197e+05,2.3259e+08,1,4672,4771,15.43,1.61,25,29,0,0
5.1247e+05,2.3272e+08,1,4771,4771,15.42,1.45,25,29,0,0
5.1287e+05,2.3281e+08,1,4765,4714,15.36,1.8,25,29,0,0
5.1332e+05,2.3292e+08,1,4718,4800,15.41,1.64,25,29,0,0
5.1422e+05,2.3314e+08,1,4806,4957,15.41,1.73,25,30,0,0
5.1462e+05,2.3324e+08,1,4941,4771,15.39,1.52,25,30,0,0
5.151e+05,2.3336e+08,1,4771,4771,15.36,1.65,25,30,0,0
5.1551e+05,2.3346e+08,1,4772,4785,15.39,1.59,26,30,0,0
5.1596e+05,2.3357e+08,1,4795,4871,15.39,1.67,26,30,0,0
5.164e+05,2.3368e+08,1,4855,4685,15.36,1.48,25,30,0,0
5.1682e+05,2.3378e+08,1,4688,4728,15.43,1.49,25,30,0,0
5.177e+05,2.34e+08,1,4732,4871,15.31,2.06,25,30,0,0
5.1815e+05,2.3412e+08,1,4881,5000,15.39,2.25,25,30,0,0
5.1859e+05,2.3422e+08,1,5005,5057,15.34,2.3,25,30,0,0
5.1903e+05,2.3433e+08,1,5070,5200,15.36,2.39,25,30,0,0
5.1948e+05,2.3444e+08,1,5217,5385,15.38,2.59,25,30,0,0
5.1993e+05,2.3455e+08,1,5377,5271,15.36,2.37,25,30,0,0
5.2042e+05,2.3467e+08,1,5287,5457,15.37,2.52,25,30,0,0
5.2082e+05,2.3478e+08,1,5452,5414,15.32,2.28,25,31,0,0
5.2123e+05,2.3488e+08,1,5406,5271,15.39,1.87,25,31,0,0
5.2166e+05,2.3499e+08,1,5259,5014,15.35,1.78,25,31,0,0
5.2209e+05,2.351e+08,1,5014,5014,15.4,1.69,25,31,0,0
5.2254e+05,2.3521e+08,1,5008,4942,15.31,1.78,25,31,0,0
5.2294e+05,2.3531e+08,1,4939,4771,15.31,1.72,25,31,0,0
5.2343e+05,2.3543e+08,1,4782,4900,15.36,1.58,25,31,0,0
5.2388e+05,2.3554e+08,1,4894,4742,15.32,1.79,26,31,0,0
5.2432e+05,2.3565e+08,1,4749,4928,15.36,1.81,25,31,0,0
5.248e+05,2.3576e+08,1,4940,5071,15.34,2.38,25,31,0,0
5.2525e+05,2.3587e+08,1,5084,5228,15.27,2.13,25,31,0,0
5.2565e+05,2.3597e+08,1,5231,5300,15.34,2.2,26,31,0,0
5.261e+05,2.3608e+08,1,5302,5371,15.37,2.27,25,31,0,0
5.2655e+05,2.3619e+08,1,5371,5371,15.4,2.29,26,31,0,0
5.2699e+05,2.3629e+08,1,5371,5385,15.35,1.93,25,31,0,0
5.2744e+05,2.3641e+08,1,5374,5142,15.33,1.89,26,31,0,0
5.2792e+05,2.3652e+08,1,5143,5157,15.35,1.6,26,31,0,0
5.2838e+05,2.3663e+08,1,5146,5042,15.41,1.52,26,31,0,0
5.2876e+05,2.3673e+08,1,5037,4857,15.38,1.52,25,32,0,0
5.2924e+05,2.3685e+08,1,4873,5042,15.32,1.8,26,32,0,0
5.3008e+05,2.3706e+08,1,5039,4785,15.4,1.43,25,32,0,0
5.3053e+05,2.3717e+08,1,4771,4642,15.38,1.14,25,32,0,0
5.3096e+05,2.3727e+08,1,4638,4500,15.41,1.26,26,32,0,0
5.3141e+05,2.3738e+08,1,4501,4528,15.41,1.43,26,32,0,0
5.3186e+05,2.3749e+08,1,4524,4428,15.44,1.27,25,32,0,0
5.323e+05,2.376e+08,1,4429,4500,15.38,1.47,26,32,0,0
5.3275e+05,2.3771e+08,1,4501,4628,15.43,1.71,26,32,0,0
5.3321e+05,2.3782e+08,1,4632,4700,15.38,1.68,25,32,0,0
5.3364e+05,2.3793e+08,1,4699,4685,15.39,1.61,25,32,0,0
5.3409e+05,2.3804e+08,1,4687,4714,15.34,1.56,25,32,0,0
5.3454e+05,2.3815e+08,1,4711,4671,15.42,1.57,26,32,0,0
5.3498e+05,2.3826e+08,1,4672,4714,15.33,1.47,25,32,0,0
5.3588e+05,2.3848e+08,1,4714,4742,15.37,1.37,25,32,0,0
5.3634e+05,2.3859e+08,1,4737,4657,15.36,1.27,25,32,0,0
5.3677e+05,2.387e+08,1,4659,4700,15.35,1.53,26,32,0,0
5.3722e+05,2.3881e+08,1,4692,4571,15.35,1.19,26,32,0,0
5.3767e+05,2.3892e+08,1,4576,4657,15.39,1.45,26,32,0,0
5.3807e+05,2.3902e+08,1,4654,4600,15.33,1.38,26,32,0,0
5.3897e+05,2.3924e+08,1,4600,4600,15.39,1.31,26,33,0,0
5.3937e+05,2.3935e+08,1,4602,4657,15.35,1.54,25,33,0,0
5.3979e+05,2.3945e+08,1,4657,4657,15.32,1.72,26,33,0,0
5.4023e+05,2.3956e+08,1,4663,4928,15.34,1.83,26,33,0,0
5.4068e+05,2.3967e+08,1,4922,4800,15.3,1.76,26,33,0,0
5.4157e+05,2.3989e+08,1,4796,4700,15.33,1.41,25,33,0,0
5.4202e+05,2.4001e+08,1,4696,4671,15.36,1.66,25,33,0,0
5.4287e+05,2.4021e+08,1,4670,4600,15.36,1.24,25,33,0,0
5.4331e+05,2.4033e+08,1,4594,4557,15.38,1.4,25,33,0,0
5.4377e+05,2.4044e+08,1,4559,4585,15.37,1.48,25,33,0,0
5.4421e+05,2.4055e+08,1,4599,4771,15.4,1.6,26,33,0,0
5.4509e+05,2.4076e+08,1,4768,4714,15.38,1.49,25,33,0,0
5.4555e+05,2.4087e+08,1,4711,4685,15.35,1.47,26,33,0,0
5.4598e+05,2.4098e+08,1,4680,4628,15.35,1.44,26,33,0,0
5.4641e+05,2.411e+08,1,4632,4671,15.38,1.47,25,33,0,0
5.4726e+05,2.4131e+08,1,4665,4528,15.34,1.28,25,33,0,0
5.477e+05,2.4141e+08,1,4529,4557,15.32,1.4,26,33,0,0
5.4819e+05,2.4154e+08,1,4563,4614,15.35,1.3,26,34,0,0
5.4859e+05,2.4164e+08,1,4609,4557,15.36,1.32,25,34,0,0
5.4944e+05,2.4185e+08,1,4556,4542,15.36,1.43,26,34,0,0
5.4988e+05,2.4196e+08,1,4545,4628,15.36,1.51,26,34,0,0
5.5034e+05,2.4207e+08,1,4625,4528,15.38,1.39,26,34,0,0
5.5079e+05,2.4218e+08,1,4530,4557,15.33,1.49,25,34,0,0
5.5124e+05,2.4229e+08,1,4564,4628,15.32,1.56,26,34,0,0
5.5165e+05,2.424e+08,1,4631,4685,15.33,1.45,25,34,0,0
5.521e+05,2.4251e+08,1,4689,4728,15.36,1.59,25,34,0,0
5.525e+05,2.4261e+08,1,4729,4742,15.3,1.62,25,34,0,0
5.5294e+05,2.4272e+08,1,4739,4671,15.35,1.69,25,34,0,0
5.5337e+05,2.4282e+08,1,4673,4771,15.37,1.6,26,34,0,0
5.538e+05,2.4293e+08,1,4772,4800,15.36,1.69,26,34,0,0
5.5425e+05,2.4304e+08,1,4800,4814,15.39,1.46,26,34,0,0
5.547e+05,2.4315e+08,1,4810,4771,15.34,1.42,26,34,0,0
5.5514e+05,2.4326e+08,1,4760,4657,15.37,1.31,26,34,0,0
5.5604e+05,2.4348e+08,1,4650,4500,15.38,1.52,26,34,0,0
5.5648e+05,2.4359e+08,1,4506,4585,15.38,1.66,25,34,0,0
5.5692e+05,2.437e+08,1,4599,4728,15.32,1.61,26,34,0,0
5.5735e+05,2.4381e+08,1,4716,4600,15.33,1.52,25,34,0,0
5.5778e+05,2.4391e+08,1,4610,4700,15.35,1.46,25,35,0,0
5.5823e+05,2.4402e+08,1,4703,4757,15.36,1.55,25,35,0,0
5.5862e+05,2.4412e+08,1,4754,4614,15.4,1.36,25,35,0,0
5.5952e+05,2.4434e+08,1,4603,4385,15.45,1.39,26,35,0,0
5.604e+05,2.4456e+08,1,4393,4585,15.48,1.64,25,35,0,0
5.6084e+05,2.4467e+08,1,4559,4300,15.58,0.82,25,35,0,0
5.6127e+05,2.4477e+08,1,4172,2328,15.76,0.02,25,35,0,0
5.6172e+05,2.4488e+08,1,2313,2014,15.82,0.21,25,35,0,0
5.6216e+05,2.4499e+08,1,2015,2057,15.79,0.47,26,35,0,0
5.6261e+05,2.451e+08,1,2063,2142,15.79,0.19,25,35,0,0
5.6302e+05,2.452e+08,1,2131,1914,15.79,0.11,26,35,0,0
5.635e+05,2.4532e+08,1,1914,1914,15.78,0.18,25,35,0,0
5.6393e+05,2.4543e+08,1,1909,1871,15.79,0.16,26,35,0,0
5.6432e+05,2.4553e+08,1,1870,1857,15.8,0.16,26,35,0,0
5.6482e+05,2.4565e+08,1,1857,1857,15.8,0.16,25,35,0,0
5.6521e+05,2.4574e+08,1,1857,1857,15.8,0.16,25,35,0,0
5.657e+05,2.4586e+08,1,1857,1857,15.8,0.16,25,35,0,0
5.661e+05,2.4596e+08,1,1857,1857,15.81,0.16,25,35,0,0
5.6656e+05,2.4607e+08,1,1855,1842,15.81,0.17,26,35,0,0
5.67e+05,2.4618e+08,1,1842,1842,15.81,0.16,25,35,0,0
5.6745e+05,2.4629e+08,1,1842,1857,15.8,0.17,25,35,0,0
5.6789e+05,2.464e+08,1,1859,1885,15.82,0.17,25,35,0,0
5.6834e+05,2.4651e+08,1,1887,1914,15.81,0.19,25,35,0,0
5.6875e+05,2.4661e+08,1,1915,1942,15.82,0.22,25,35,0,0
5.6924e+05,2.4673e+08,1,1942,1942,15.8,0.19,25,35,0,0
5.6969e+05,2.4684e+08,1,1927,1785,15.89,0.05,25,35,0,0
5.7013e+05,2.4694e+08,1,1756,1457,15.88,0,25,35,0,0
5.7058e+05,2.4705e+08,1,1443,1314,15.87,0.06,25,35,0,0
5.7102e+05,2.4716e+08,1,1312,1285,15.87,0.08,25,35,0,0
5.7147e+05,2.4727e+08,1,1285,1285,15.87,0.09,25,35,0,0
5.7188e+05,2.4737e+08,1,1285,1285,15.87,0.09,25,35,0,0
5.7233e+05,2.4748e+08,1,1285,1285,15.88,0.09,25,35,0,0
5.7278e+05,2.4759e+08,1,1285,1285,15.88,0.09,25,35,0,0
5.7323e+05,2.477e+08,1,1285,1285,15.87,0.09,25,35,0,0
5.7368e+05,2.4781e+08,1,1285,1285,15.88,0.09,25,35,0,0
5.7409e+05,2.4792e+08,1,1285,1285,15.88,0.09,25,35,0,0
5.7453e+05,2.4802e+08,1,1285,1285,15.88,0.08,25,35,0,0
5.7498e+05,2.4813e+08,1,1285,1285,15.88,0.09,25,35,0,0
5.754e+05,2.4824e+08,1,1285,1285,15.89,0.09,25,35,0,0
5.7584e+05,2.4835e+08,1,1285,1285,15.89,0.09,25,35,0,0
5.7629e+05,2.4846e+08,1,1285,1285,15.89,0.09,25,35,0,0
5.7674e+05,2.4857e+08,1,1285,1285,15.88,0.09,25,35,0,0
5.7719e+05,2.4868e+08,1,1285,1285,15.89,0.09,25,35,0,0
5.7759e+05,2.4878e+08,1,1285,1285,15.89,0.09,25,35,0,0
5.7809e+05,2.4889e+08,1,1285,1285,15.89,0.09,25,35,0,0
5.7847e+05,2.4899e+08,1,1285,1285,15.89,0.09,25,35,0,0
5.789e+05,2.491e+08,1,1285,1285,15.89,0.09,25,35,0,0
5.7934e+05,2.4921e+08,1,1285,1285,15.89,0.09,25,35,0,0
5.7978e+05,2.4931e+08,1,1285,1285,15.91,0.09,25,35,0,0
5.8024e+05,2.4942e+08,1,1285,1285,15.89,0.09,25,35,0,0
5.8068e+05,2.4953e+08,1,1285,1285,15.9,0.09,25,35,0,0
5.8113e+05,2.4964e+08,1,1285,1285,15.9,0.09,25,35,0,0
5.8156e+05,2.4975e+08,1,1285,1285,15.9,0.09,25,35,0,0
5.82e+05,2.4986e+08,1,1285,1285,15.91,0.09,25,35,0,0
5.8244e+05,2.4997e+08,1,1285,1285,15.91,0.09,25,35,0,0
5.8285e+05,2.5007e+08,1,1285,1285,15.91,0.09,25,35,0,0
5.833e+05,2.5018e+08,1,1285,1285,15.91,0.09,25,35,0,0
5.8375e+05,2.5028e+08,1,1285,1285,15.92,0.09,25,35,0,0
5.8424e+05,2.504e+08,1,1285,1285,15.92,0.09,25,35,0,0
5.8469e+05,2.5051e+08,1,1285,1285,15.92,0.09,25,35,0,0
5.8508e+05,2.5061e+08,1,1285,1285,15.92,0.09,25,35,0,0
5.8555e+05,2.5073e+08,1,1285,1285,15.92,0.08,25,35,0,0
5.86e+05,2.5083e+08,1,1285,1285,15.93,0.09,25,35,0,0
5.864e+05,2.5093e+08,1,1285,1285,15.92,0.09,25,35,0,0
5.8685e+05,2.5104e+08,1,1285,1285,15.93,0.09,25,35,0,0
5.8733e+05,2.5115e+08,1,1285,1285,15.93,0.09,25,35,0,0
5.8778e+05,2.5126e+08,1,1285,1285,15.95,0.05,25,35,0,0
5.8823e+05,2.5137e+08,1,1200,342,15.94,0,25,35,0,0
5.8866e+05,2.5147e+08,1,337,0,15.94,0.02,25,35,0,0
5.891e+05,2.5158e+08,1,0,0,15.95,0.02,25,35,0,0
5.896e+05,2.517e+08,1,0,0,15.94,0.02,25,35,0,0
5.9005e+05,2.5181e+08,1,0,0,15.95,0.02,25,35,0,0
5.9051e+05,2.5191e+08,1,0,0,15.95,0.03,25,35,0,0
5.91e+05,2.5203e+08,1,0,0,15.95,0.03,25,35,0,0
5.9144e+05,2.5213e+08,1,0,0,15.96,0.02,25,35,0,0
5.9188e+05,2.5223e+08,1,0,0,15.95,0.02,25,35,0,0
5.9235e+05,2.5235e+08,1,0,0,15.95,0.02,25,35,0,0
5.9281e+05,2.5245e+08,1,0,0,15.95,0.02,25,35,0,0
5.9322e+05,2.5255e+08,1,0,0,15.96,0.03,25,35,0,0
5.9372e+05,2.5267e+08,1,0,0,15.96,0.03,25,35,0,0
5.9417e+05,2.5278e+08,1,0,0,15.96,0.03,25,35,0,0
5.9466e+05,2.5289e+08,1,0,0,15.95,0.02,25,35,0,0
5.9507e+05,2.5299e+08,1,0,0,15.96,0.02,25,35,0,0
5.9557e+05,2.531e+08,1,0,0,15.97,0.02,25,35,0,0
5.96e+05,2.5321e+08,1,0,0,15.97,0.02,25,35,0,0
5.9643e+05,2.5332e+08,1,0,0,15.97,0.02,25,35,0,0
5.9694e+05,2.5344e+08,1,0,0,15.97,0.02,25,35,0,0
5.9734e+05,2.5353e+08,1,0,0,15.97,0.02,25,35,0,0
5.9784e+05,2.5365e+08,1,0,0,15.97,0.02,25,35,0,0
5.9828e+05,2.5375e+08,1,0,0,15.97,0.02,25,35,0,0
5.9874e+05,2.5385e+08,1,0,0,15.97,0.02,25,35,0,0
5.9918e+05,2.5396e+08,1,0,0,15.97,0.02,25,35,0,0
5.9965e+05,2.5408e+08,1,0,0,15.97,0.02,25,35,0,0
6.0006e+05,2.5418e+08,1,0,0,15.97,0.02,25,35,0,0
6.0051e+05,2.5428e+08,1,0,0,15.97,0.02,25,35,0,0
6.0086e+05,2.5439e+08,1,0,0,15.98,0.02,25,35,0,0
6.0136e+05,2.5451e+08,1,0,0,15.97,0.02,25,35,0,0
6.0181e+05,2.5462e+08,1,0,0,15.97,0.03,25,35,0,0
6.0226e+05,2.5472e+08,1,0,0,15.98,0.02,25,35,0,0
6.0272e+05,2.5483e+08,1,0,0,15.98,0.02,25,35,0,0
6.0316e+05,2.5494e+08,1,0,0,15.98,0.02,25,35,0,0
