LineNo,TimeUS,Instance,RPM,RawRPM,Volt,Curr,Temp,CTot,MotTemp,Err
1964,21891300,4,0,0,16.13,0.04,24,0,0,0
2418,22003803,4,0,0,16.13,0.04,24,0,0,0
3280,22215183,4,0,0,16.13,0.04,24,0,0,0
4150,22430107,4,0,0,16.13,0.04,24,0,0,0
4566,22534293,4,0,0,16.13,0.04,24,0,0,0
4978,22636047,4,0,0,16.13,0.04,24,0,0,0
5433,22747487,4,0,0,16.13,0.04,24,0,0,0
5852,22856009,4,0,0,16.13,0.04,24,0,0,0
6267,22957087,4,0,0,16.13,0.05,24,0,0,0
6726,23071322,4,0,0,16.13,0.04,24,0,0,0
7143,23175414,4,0,0,16.12,0.04,24,0,0,0
7594,23286786,4,0,0,16.13,0.04,24,0,0,0
8004,23390624,4,0,0,16.13,0.04,24,0,0,0
8415,23491087,4,0,0,16.12,0.04,24,0,0,0
8857,23599762,4,0,0,16.13,0.04,24,0,0,0
9271,23702641,4,0,0,16.13,0.04,24,0,0,0
9678,23807444,4,0,0,16.13,0.04,24,0,0,0
10110,23928738,4,0,0,16.13,0.04,24,0,0,0
10480,24020205,4,0,0,16.13,0.04,24,0,0,0
10941,24137362,4,0,0,16.13,0.04,24,0,0,0
11351,24241568,4,0,0,16.13,0.04,24,0,0,0
11768,24344876,4,0,0,16.12,0.04,24,0,0,0
12222,24457211,4,0,0,16.12,0.04,24,0,0,0
12640,24563630,4,0,0,16.13,0.04,24,0,0,0
13052,24666495,4,0,0,16.13,0.04,24,0,0,0
13465,24770431,4,0,0,16.13,0.04,24,0,0,0
13917,24881196,4,0,0,16.13,0.04,24,0,0,0
14328,24984460,4,0,0,16.13,0.04,24,0,0,0
14784,25097226,4,0,0,16.12,0.04,25,0,0,0
15202,25201611,4,0,0,16.13,0.04,24,0,0,0
15623,25305814,4,0,0,16.13,0.04,24,0,0,0
16039,25409668,4,0,0,16.13,0.04,25,0,0,0
16493,25519267,4,0,0,16.13,0.04,25,0,0,0
16906,25622692,4,0,0,16.12,0.04,24,0,0,0
17320,25727583,4,0,0,16.12,0.04,24,0,0,0
17776,25843037,4,0,0,16.13,0.04,24,0,0,0
18191,25946574,4,0,0,16.13,0.04,24,0,0,0
18608,26055631,4,0,0,16.12,0.04,25,0,0,0
19019,26158052,4,0,0,16.12,0.04,25,0,0,0
19427,26259492,4,0,0,16.12,0.04,24,0,0,0
19892,26376058,4,0,0,16.13,0.04,24,0,0,0
20304,26481459,4,0,0,16.13,0.04,24,0,0,0
20718,26582654,4,0,0,16.13,0.04,25,0,0,0
21178,26696210,4,0,0,16.13,0.04,24,0,0,0
21587,26801032,4,0,0,16.13,0.04,25,0,0,0
22002,26905196,4,0,0,16.13,0.05,24,0,0,0
22412,27009442,4,0,0,16.13,0.04,24,0,0,0
22867,27121697,4,0,0,16.13,0.04,25,0,0,0
23277,27222746,4,0,0,16.13,0.04,25,0,0,0
23710,27333743,4,0,0,16.12,0.04,25,0,0,0
24153,27440217,4,0,0,16.13,0.05,25,0,0,0
24573,27546214,4,0,0,16.13,0.04,24,0,0,0
24985,27649750,4,0,0,16.12,0.04,25,0,0,0
25435,27761638,4,0,0,16.13,0.05,25,0,0,0
25849,27868349,4,0,0,16.13,0.04,24,0,0,0
26264,27980728,4,0,0,16.13,0.05,25,0,0,0
26678,28081420,4,0,0,16.12,0.04,25,0,0,0
27091,28185857,4,0,0,16.13,0.05,25,0,0,0
27544,28298901,4,0,0,16.13,0.05,25,0,0,0
27955,28401135,4,0,0,16.12,0.05,25,0,0,0
28367,28502289,4,0,0,16.13,0.05,25,0,0,0
28818,28614232,4,0,0,16.12,0.05,25,0,0,0
29233,28718452,4,0,0,16.13,0.05,25,0,0,0
30129,28938209,4,0,0,16.13,0.04,25,0,0,0
30543,29041367,4,0,0,16.13,0.04,25,0,0,0
30954,29143084,4,0,0,16.12,0.04,25,0,0,0
31408,29255802,4,0,0,16.13,0.04,25,0,0,0
31825,29361305,4,0,0,16.13,0.04,25,0,0,0
32234,29464249,4,0,0,16.12,0.05,25,0,0,0
32680,29570587,4,0,0,16.12,0.05,25,0,0,0
193110,153184847,4,0,0,0,0,0,0,0,0
193564,153297603,4,0,0,0,0.05,0,0,0,0
196049,153937612,4,0,0,0,0.05,0,0,0,0
196504,154051041,4,0,0,16.1,0.01,26,0,0,0
196881,154152694,4,0,0,16.11,0.04,26,0,0,0
197333,154265037,4,0,0,16.11,0.04,26,0,0,0
197740,154370213,4,0,0,16.11,0.05,26,0,0,0
198150,154473596,4,0,0,16.11,0.05,26,0,0,0
198601,154588296,4,0,0,16.11,0.05,26,0,0,0
199019,154694051,4,0,0,16.11,0.05,26,0,0,0
199430,154803707,4,0,0,16.11,0.05,26,0,0,0
199844,154911688,4,0,0,16.11,0.05,26,0,0,0
200259,155017186,4,0,0,16.11,0.04,26,0,0,0
201123,155238630,4,0,0,16.11,0.05,26,0,0,0
201506,155344582,4,0,0,16.1,0.05,26,0,0,0
201919,155447821,4,0,0,16.11,0.04,26,0,0,0
202251,156402476,4,0,0,16.11,0.05,26,0,0,0
202668,156508265,4,0,0,16.11,0.05,26,0,0,0
203129,156616624,4,0,0,16.1,0.05,26,0,0,0
203542,156716618,4,0,0,16.11,0.05,26,0,0,0
204047,156835224,4,0,0,16.11,0.05,26,0,0,0
204456,156935405,4,0,0,16.11,0.05,26,0,0,0
204909,157042272,4,0,0,16.11,0.05,26,0,0,0
205364,157149867,4,0,0,16.11,0.05,26,0,0,0
205864,157265381,4,0,0,16.11,0.05,26,0,0,0
206319,157373796,4,0,0,16.11,0.05,26,0,0,0
206774,157480225,4,0,0,16.11,0.05,26,0,0,0
207211,157582734,4,0,0,16.11,0.05,26,0,0,0
207651,157689703,4,0,0,16.11,0.05,26,0,0,0
208103,157798819,4,0,0,16.11,0.05,26,0,0,0
208602,157916860,4,0,0,16.11,0.05,26,0,0,0
209054,158019364,4,0,0,16.11,0.04,26,0,0,0
209498,158123177,4,0,0,16.11,0.04,26,0,0,0
209995,158235466,4,0,0,16.11,0.04,26,0,0,0
210443,158341844,4,0,0,16.11,0.05,26,0,0,0
210899,158446209,4,0,0,16.11,0.04,26,0,0,0
211364,158558435,4,9,142,16.08,0.06,26,0,0,0
211868,158675168,4,140,128,16.05,0.37,26,0,0,0
212298,158778244,4,214,1085,16.09,0.19,26,0,0,0
212730,158881447,4,1092,1214,16.09,0.13,26,0,0,0
213185,158991057,4,1217,1271,16.1,0.12,26,0,0,0
213685,159104578,4,1272,1285,16.1,0.12,26,0,0,0
214093,159205203,4,1285,1300,16.1,0.11,26,0,0,0
214551,159315691,4,1300,1314,16.1,0.11,26,0,0,0
215046,159429727,4,1314,1314,16.09,0.11,26,0,0,0
215495,159532881,4,1314,1314,16.09,0.11,26,0,0,0
215952,159639250,4,1314,1328,16.1,0.11,26,0,0,0
216903,159859733,4,1327,1314,16.09,0.11,26,0,0,0
217573,160075439,4,1326,1314,16.08,0.11,26,0,0,0
218023,160183430,4,1314,1314,16.08,0.11,26,0,0,0
218480,160289098,4,1314,1314,16.1,0.11,26,0,0,0
218931,160392292,4,1314,1314,16.09,0.11,26,0,0,0
219883,160610665,4,1314,1328,16.09,0.11,26,0,0,0
220304,160716607,4,1328,1328,16.1,0.11,26,0,0,0
220803,160830268,4,1328,1328,16.09,0.11,26,0,0,0
221263,160941212,4,1328,1328,16.09,0.11,26,0,0,0
221686,161043227,4,1328,1328,16.09,0.11,26,0,0,0
222123,161146453,4,1328,1328,16.1,0.11,26,0,0,0
222598,161259657,4,1328,1328,16.1,0.11,26,0,0,0
223043,161365340,4,1328,1328,16.08,0.11,26,0,0,0
223539,161478817,4,1328,1328,16.1,0.11,26,0,0,0
223996,161588466,4,1328,1328,16.1,0.11,26,0,0,0
224450,161690255,4,1328,1328,16.09,0.11,26,0,0,0
224901,161796218,4,1328,1328,16.1,0.11,26,0,0,0
225399,161910018,4,1328,1328,16.09,0.11,26,0,0,0
225856,162018247,4,1328,1328,16.08,0.11,26,0,0,0
226305,162122734,4,1328,1328,16.08,0.11,26,0,0,0
226802,162235177,4,1328,1328,16.09,0.11,26,0,0,0
227247,162338380,4,1328,1328,16.09,0.11,26,0,0,0
227721,162450462,4,1328,1328,16.08,0.11,26,0,0,0
228166,162558041,4,1328,1328,16.08,0.11,26,0,0,0
228619,162659854,4,1328,1385,16.07,0.16,26,0,0,0
229116,162775667,4,1417,1757,15.9,0.44,26,0,0,0
229572,162878817,4,1799,2357,16.02,0.64,27,0,0,0
230066,162991477,4,2365,2457,16.05,0.48,26,0,0,0
230520,163094658,4,2459,2500,16.06,0.47,26,0,0,0
230975,163206098,4,2502,2528,16.08,0.54,27,0,0,0
231468,163321690,4,2553,2828,15.96,0.95,26,0,0,0
231920,163427212,4,2873,3500,15.84,1.4,26,0,0,0
232371,163537413,4,3560,4228,15.75,1.9,26,0,0,0
232805,163641911,4,4257,4700,15.64,2.41,26,0,0,0
233247,163753634,4,4741,5328,15.63,2.98,26,0,0,0
233700,163860287,4,5334,5685,15.42,3.92,26,0,0,0
234153,163968805,4,5693,5857,15.59,3.02,27,0,0,0
234651,164084679,4,5830,5557,15.63,2.44,26,1,0,0
235061,164185644,4,5553,5514,15.66,2.49,26,1,0,0
235515,164292832,4,5497,5171,15.61,2.27,26,1,0,0
235967,164405035,4,5158,4985,15.6,1.75,27,1,0,0
236420,164512072,4,4990,5057,15.57,2.12,27,1,0,0
236853,164619290,4,5055,5042,15.55,2.02,27,1,0,0
237284,164727283,4,5042,5085,15.57,2.14,27,1,0,0
237783,164846890,4,5077,5000,15.58,2.02,27,1,0,0
238192,164943741,4,5008,5185,15.51,2.15,27,1,0,0
238691,165059729,4,5170,5014,15.55,2.18,26,1,0,0
239101,165161284,4,5014,5028,15.54,2.04,27,1,0,0
239597,165276066,4,5014,4871,15.55,1.91,27,1,0,0
240047,165381887,4,4860,4728,15.63,1.66,27,1,0,0
240504,165491475,4,4722,4600,15.63,1.45,27,1,0,0
240957,165601045,4,4601,4642,15.6,1.68,27,1,0,0
241415,165714098,4,4644,4685,15.63,1.66,27,1,0,0
241870,165821741,4,4689,4800,15.61,1.94,27,2,0,0
242319,165928815,4,4806,5071,15.58,2.37,27,2,0,0
242799,166046188,4,5073,5100,15.63,2.2,27,2,0,0
243236,166152784,4,5114,5314,15.64,2.49,27,2,0,0
243688,166257602,4,5318,5428,15.58,2.29,27,2,0,0
244142,166371385,4,5429,5457,15.58,2.61,27,2,0,0
244640,166486307,4,5452,5385,15.61,2.16,27,2,0,0
245087,166590832,4,5370,5185,15.5,2.18,27,2,0,0
245589,166707257,4,5175,5085,15.58,2.07,27,2,0,0
245994,166808403,4,5088,5171,15.58,1.94,27,2,0,0
246442,166915855,4,5169,5071,15.55,2.01,27,2,0,0
246946,167032483,4,5068,5042,15.6,1.82,27,2,0,0
248725,167460468,4,5042,5057,15.61,2.03,27,2,0,0
249174,167571267,4,5054,5014,15.49,1.86,27,3,0,0
249674,167688022,4,5029,5185,15.55,2.11,27,3,0,0
250082,167788331,4,5176,4971,15.58,1.92,27,3,0,0
250582,167903470,4,4950,4742,15.57,1.79,27,3,0,0
251034,168010494,4,4743,4771,15.54,1.78,27,3,0,0
251491,168123563,4,4789,4971,15.57,1.9,27,3,0,0
251943,168228622,4,4966,4871,15.51,1.92,27,3,0,0
252394,168335838,4,4871,4871,15.55,1.88,27,3,0,0
252846,168439785,4,4871,4942,15.48,2.11,27,3,0,0
253266,168547365,4,4945,5128,15.57,2.23,27,3,0,0
253763,168662758,4,5133,5257,15.57,2.07,27,3,0,0
254240,168777393,4,5268,5385,15.5,2.67,27,3,0,0
254671,168880171,4,5396,5642,15.62,3.31,27,3,0,0
255122,168991239,4,5667,5914,15.54,3.4,27,3,0,0
255544,169095574,4,5891,5657,15.56,2.42,27,3,0,0
255991,169203084,4,5641,5428,15.57,2.13,27,4,0,0
256932,169422792,4,5415,5142,15.52,2.07,27,4,0,0
257393,169535061,4,5135,5071,15.51,2.03,27,4,0,0
257847,169642848,4,5071,5071,15.48,2.09,27,4,0,0
258300,169753492,4,5074,5114,15.52,2.5,27,4,0,0
258754,169861444,4,5134,5357,15.54,2.42,27,4,0,0
259156,169962474,4,5352,5085,15.55,2.26,27,4,0,0
259632,170076669,4,5108,5357,15.55,2.74,27,4,0,0
260076,170180488,4,5349,5242,15.52,2.45,27,4,0,0
260573,170298625,4,5256,5414,15.45,2.57,27,4,0,0
260976,170396202,4,5406,5314,15.57,2.67,27,4,0,0
261433,170504483,4,5317,5385,15.55,2.68,27,4,0,0
261926,170620612,4,5392,5471,15.47,2.58,27,4,0,0
262332,170720319,4,5471,5485,15.54,2.75,27,5,0,0
262828,170837631,4,5479,5400,15.52,2.72,27,5,0,0
263734,171052678,4,5400,5400,15.51,2.52,27,5,0,0
264185,171163476,4,5390,5300,15.48,1.85,27,5,0,0
264640,171269579,4,5289,5100,15.48,3.58,27,5,0,0
265079,171378307,4,5128,5814,15.46,3.35,27,5,0,0
265556,171494830,4,5806,5700,15.47,3.11,27,5,0,0
266008,171604193,4,5714,5857,15.5,3.24,27,5,0,0
266457,171715656,4,5851,5785,15.44,3.84,27,5,0,0
266912,171820632,4,5715,5042,15.52,1.2,27,5,0,0
267362,171932862,4,5034,4942,15.49,2.07,27,5,0,0
267775,172028255,4,4942,4985,15.5,1.86,27,6,0,0
268223,172143847,4,5003,5171,15.47,2.4,27,6,0,0
268679,172251217,4,5173,5228,15.46,2.57,27,6,0,0
269127,172361869,4,5229,5242,15.5,2.59,28,6,0,0
269578,172466649,4,5244,5271,15.42,2.62,27,6,0,0
270023,172574722,4,5274,5314,15.51,2.45,28,6,0,0
270477,172685310,4,5303,5200,15.5,2.22,27,6,0,0
270869,172787408,4,5203,5342,15.42,2.27,27,6,0,0
271705,173002427,4,5334,5042,15.51,2,28,6,0,0
272154,173110317,4,5041,5028,15.47,2.27,28,6,0,0
272596,173217565,4,5028,5028,15.49,2.19,28,6,0,0
273039,173327489,4,5032,5228,15.44,2.19,28,6,0,0
273532,173447058,4,5219,5128,15.45,2.34,27,6,0,0
274385,173659487,4,5129,5285,15.4,2.66,28,7,0,0
274868,173775828,4,5289,5357,15.45,2.69,28,7,0,0
275317,173888197,4,5362,5414,15.41,2.74,28,7,0,0
275711,173990436,4,5410,5342,15.48,2.54,28,7,0,0
276187,174116319,4,5354,5428,15.45,2.6,28,7,0,0
276591,174216645,4,5424,5371,15.41,2.64,28,7,0,0
277003,174319563,4,5383,5657,15.45,2.83,28,7,0,0
277454,174427068,4,5655,5557,15.49,2.71,28,7,0,0
277902,174540805,4,5551,5442,15.47,2.64,28,7,0,0
278349,174647721,4,5443,5457,15.39,2.6,28,7,0,0
278794,174758798,4,5463,5542,15.51,2.83,28,7,0,0
279244,174869266,4,5539,5514,15.44,2.85,28,7,0,0
279692,174981127,4,5512,5500,15.43,2.79,28,8,0,0
280139,175088596,4,5496,5442,15.44,2.52,28,8,0,0
280571,175199454,4,5439,5414,15.49,2.64,28,8,0,0
280963,175301320,4,5404,5285,15.48,2.31,28,8,0,0
281412,175414285,4,5301,5457,15.45,2.73,28,8,0,0
281858,175521861,4,5449,5342,15.47,2.53,28,8,0,0
282312,175634302,4,5340,5328,15.39,2.47,28,8,0,0
282674,175728707,4,5329,5385,15.48,2.57,28,8,0,0
283574,175952714,4,5384,5371,15.4,2.45,28,8,0,0
284026,176063575,4,5360,5242,15.47,2.27,28,8,0,0
284433,176169451,4,5238,5200,15.51,2.28,28,8,0,0
284885,176282209,4,5197,5171,15.48,2.41,28,8,0,0
285265,176377816,4,5171,5171,15.41,2.42,28,9,0,0
285700,176491627,4,5176,5228,15.48,2.3,28,9,0,0
286099,176591303,4,5228,5242,15.38,2.49,28,9,0,0
286554,176702880,4,5239,5128,15.45,2.4,28,9,0,0
286994,176810302,4,5133,5328,15.39,2.72,28,9,0,0
287408,176917595,4,5328,5371,15.36,2.79,28,9,0,0
287856,177025204,4,5371,5385,15.41,2.46,28,9,0,0
288304,177137623,4,5386,5485,15.39,2.75,28,9,0,0
288791,177253891,4,5484,5471,15.44,2.63,28,9,0,0
289234,177362416,4,5465,5400,15.37,2.81,28,9,0,0
289689,177472465,4,5409,5514,15.5,2.65,28,9,0,0
290092,177574600,4,5512,5485,15.47,2.69,28,9,0,0
290544,177683647,4,5486,5514,15.48,2.57,28,9,0,0
290995,177796295,4,5482,5171,15.43,2.42,28,10,0,0
291476,177909646,4,5178,5228,15.5,2.28,28,10,0,0
291860,178007494,4,5224,5185,15.51,2.36,28,10,0,0
292256,178110811,4,5185,5200,15.46,2.39,28,10,0,0
292691,178216923,4,5202,5314,15.43,2.37,28,10,0,0
293144,178330416,4,5308,5185,15.42,2.48,28,10,0,0
293594,178438588,4,5196,5428,15.47,2.66,28,10,0,0
294043,178550919,4,5414,5271,15.38,2.34,28,10,0,0
294447,178649625,4,5268,5114,15.42,2.2,28,10,0,0
294895,178764376,4,5130,5285,15.33,2.3,28,10,0,0
295344,178870786,4,5294,5385,15.44,2.47,28,10,0,0
295786,178978306,4,5395,5500,15.47,2.49,28,10,0,0
296198,179082867,4,5493,5328,15.41,2.31,28,10,0,0
296638,179192328,4,5326,5314,15.37,2.54,28,10,0,0
297091,179300607,4,5314,5314,15.36,2.51,28,11,0,0
297480,179402626,4,5314,5328,15.37,2.47,28,11,0,0
297945,179516301,4,5322,5257,15.44,2.45,28,11,0,0
298440,179633805,4,5275,5471,15.36,2.6,28,11,0,0
299298,179844865,4,5467,5371,15.43,2.61,28,11,0,0
299742,179954209,4,5366,5285,15.38,2.46,28,11,0,0
300192,180063610,4,5299,5500,15.36,2.56,28,11,0,0
300640,180177226,4,5498,5485,15.26,2.81,28,11,0,0
301045,180279628,4,5487,5542,15.33,2.97,28,11,0,0
301491,180388663,4,5547,5671,15.3,2.82,28,11,0,0
301978,180499683,4,5667,5614,15.36,2.43,28,11,0,0
302366,180604704,4,5609,5400,15.37,2.68,28,11,0,0
302832,180722200,4,5401,5414,15.37,2.3,28,12,0,0
304177,181048413,4,5409,5271,15.31,2.4,28,12,0,0
304574,181147326,4,5272,5314,15.3,2.51,28,12,0,0
305067,181266402,4,5332,5514,15.31,2.86,28,12,0,0
305476,181373638,4,5505,5400,15.36,2.45,28,12,0,0
305926,181482430,4,5383,5228,15.41,2.4,28,12,0,0
306371,181593582,4,5209,5028,15.36,1.97,28,12,0,0
306821,181707404,4,5060,5285,15.38,2.45,28,12,0,0
307267,181812812,4,5274,5157,15.41,2.15,28,12,0,0
307714,181925061,4,5180,5342,15.38,2.7,28,12,0,0
308117,182020311,4,5342,5342,15.41,2.29,28,12,0,0
308604,182139252,4,5339,5314,15.36,2.21,28,12,0,0
309049,182244454,4,5307,5228,15.36,2.39,28,13,0,0
309500,182358010,4,5240,5428,15.32,2.63,28,13,0,0
309980,182474079,4,5411,5328,15.37,2.2,28,13,0,0
310387,182571269,4,5333,5442,15.36,2.59,28,13,0,0
310838,182679787,4,5430,5271,15.44,2.21,28,13,0,0
311726,182902194,4,5275,5357,15.39,2.57,28,13,0,0
312117,182999477,4,5355,5271,15.38,2.35,28,13,0,0
312546,183111397,4,5277,5400,15.25,2.57,28,13,0,0
312993,183218770,4,5400,5414,15.41,2.54,28,13,0,0
313437,183326811,4,5411,5314,15.37,2.4,28,13,0,0
313923,183445178,4,5328,5471,15.37,2.35,28,13,0,0
314335,183544876,4,5467,5400,15.4,2.58,28,13,0,0
314786,183652651,4,5399,5385,15.37,2.54,28,14,0,0
315230,183766405,4,5383,5357,15.33,2.63,28,14,0,0
316105,183985261,4,5358,5442,15.35,2.55,28,14,0,0
316538,184089810,4,5442,5471,15.36,2.55,28,14,0,0
317010,184203487,4,5459,5328,15.27,2.5,28,14,0,0
317455,184314799,4,5343,5471,15.36,2.5,28,14,0,0
317865,184418799,4,5472,5585,15.29,2.73,28,14,0,0
318348,184535097,4,5570,5485,15.34,2.73,28,14,0,0
318756,184628592,4,5486,5542,15.32,2.6,28,14,0,0
319201,184743211,4,5538,5485,15.32,2.43,28,14,0,0
319650,184856088,4,5489,5528,15.32,2.79,28,14,0,0
320089,184967483,4,5519,5428,15.31,2.58,28,14,0,0
320480,185065685,4,5429,5442,15.24,2.58,28,15,0,0
320922,185180007,4,5432,5285,15.33,2.3,28,15,0,0
321366,185286603,4,5275,5200,15.34,2.34,28,15,0,0
321778,185388682,4,5200,5214,15.38,2.42,28,15,0,0
322187,185489194,4,5214,5228,15.38,2.41,28,15,0,0
322631,185600701,4,5224,5114,15.34,2.29,28,15,0,0
323080,185713330,4,5118,5171,15.37,2.41,28,15,0,0
323526,185823091,4,5181,5285,15.37,2.21,28,15,0,0
323930,185925371,4,5285,5300,15.36,2.31,28,15,0,0
324380,186037412,4,5300,5300,15.3,2.67,28,15,0,0
324785,186140186,4,5299,5242,15.33,2.56,28,15,0,0
325277,186257397,4,5273,5528,15.29,2.77,28,15,0,0
325687,186362643,4,5517,5357,15.35,2.6,28,15,0,0
326132,186470858,4,5355,5342,15.38,2.24,28,16,0,0
326580,186584812,4,5338,5300,15.35,2.69,28,16,0,0
327030,186690853,4,5298,5285,15.33,2.59,28,16,0,0
327458,186802186,4,5290,5357,15.3,2.57,28,16,0,0
328335,187019550,4,5359,5471,15.38,2.69,28,16,0,0
328741,187125792,4,5468,5400,15.35,2.49,28,16,0,0
329233,187244095,4,5401,5414,15.35,2.43,28,16,0,0
329680,187352860,4,5408,5357,15.32,2.59,28,16,0,0
330084,187447587,4,5351,5228,15.36,2.38,28,16,0,0
330535,187564904,4,5238,5342,15.34,2.62,28,16,0,0
330984,187672698,4,5344,5371,15.3,2.52,28,16,0,0
331375,187778660,4,5371,5385,15.3,2.59,29,16,0,0
331808,187887232,4,5386,5400,15.26,2.66,29,17,0,0
332251,188001010,4,5408,5500,15.2,2.56,29,17,0,0
332658,188100596,4,5494,5385,15.32,2.46,28,17,0,0
333102,188209841,4,5379,5257,15.32,2.26,29,17,0,0
333553,188323228,4,5253,5200,15.31,2.36,29,17,0,0
334004,188432614,4,5200,5214,15.35,2.21,28,17,0,0
334449,188543026,4,5206,5128,15.36,2.25,28,17,0,0
334857,188643333,4,5126,5042,15.23,2.04,29,17,0,0
335299,188753723,4,5042,5085,15.29,2.18,29,17,0,0
335750,188861431,4,5085,5142,15.32,2.2,29,17,0,0
336238,188980059,4,5156,5300,15.32,2.26,29,17,0,0
336642,189081485,4,5294,5185,15.3,2.17,28,17,0,0
337093,189196253,4,5182,5142,15.31,2.21,29,17,0,0
337546,189303720,4,5139,5100,15.35,2.32,29,17,0,0
337952,189408275,4,5100,5114,15.33,2.32,28,17,0,0
338398,189523066,4,5119,5200,15.31,2.17,29,18,0,0
338831,189631098,4,5198,5128,15.29,2.3,28,18,0,0
339259,189737316,4,5130,5171,15.27,2.31,29,18,0,0
339678,189844493,4,5174,5257,15.35,2.44,29,18,0,0
340124,189956181,4,5257,5257,15.33,2.01,29,18,0,0
340577,190068359,4,5253,5214,15.26,2.25,29,18,0,0
341011,190169899,4,5213,5200,15.36,2.26,29,18,0,0
341465,190280727,4,5202,5257,15.27,2.27,29,18,0,0
341917,190393242,4,5251,5185,15.31,2.47,29,18,0,0
342754,190605219,4,5186,5242,15.35,2.35,29,18,0,0
343182,190713795,4,5237,5114,15.33,2.19,29,18,0,0
343627,190820231,4,5120,5257,15.35,2.49,29,18,0,0
344076,190934386,4,5258,5285,15.31,2.26,29,18,0,0
344522,191041723,4,5284,5271,15.3,2.26,29,19,0,0
345008,191157634,4,5269,5257,15.3,2.67,28,19,0,0
345416,191259323,4,5262,5385,15.32,2.46,29,19,0,0
345822,191362197,4,5383,5342,15.33,2.52,29,19,0,0
346318,191482088,4,5325,5157,15.3,2.36,29,19,0,0
346752,191592084,4,5169,5300,15.36,2.43,29,19,0,0
347187,191699604,4,5293,5228,15.37,2.26,29,19,0,0
347630,191809220,4,5220,5100,15.33,2.33,29,19,0,0
348037,191914200,4,5101,5242,15.37,2.57,29,19,0,0
348522,192031230,4,5232,5185,15.32,2.11,29,19,0,0
348926,192126263,4,5184,5128,15.3,2.37,29,19,0,0
349374,192240240,4,5134,5271,15.36,2.46,29,19,0,0
349857,192350008,4,5273,5300,15.33,2.39,29,19,0,0
350302,192460081,4,5293,5228,15.32,2.5,29,20,0,0
350705,192563329,4,5227,5214,15.3,2.26,29,20,0,0
351129,192671601,4,5211,5042,15.42,1.89,29,20,0,0
351575,192784319,4,5043,5057,15.4,2.37,29,20,0,0
352023,192888691,4,5053,4971,15.35,2.37,29,20,0,0
353835,193335621,4,4978,5314,15.36,2.68,29,20,0,0
354674,193540065,4,5315,5457,15.35,2.53,29,20,0,0
355109,193649846,4,5454,5428,15.38,2.63,29,20,0,0
355547,193760652,4,5426,5400,15.29,2.68,29,20,0,0
356033,193877373,4,5423,5600,15.33,2.74,29,20,0,0
356437,193980446,4,5595,5557,15.26,2.82,29,21,0,0
356889,194091859,4,5550,5500,15.37,2.48,29,21,0,0
357298,194196582,4,5494,5442,15.32,2.67,29,21,0,0
357748,194304018,4,5443,5457,15.35,2.46,29,21,0,0
358151,194402715,4,5457,5457,15.36,2.38,29,21,0,0
358601,194513879,4,5452,5271,15.35,2.52,29,21,0,0
359901,194841191,4,5272,5357,15.32,2.7,29,21,0,0
360378,194951466,4,5362,5471,15.32,2.9,29,21,0,0
360825,195060036,4,5476,5542,15.35,2.87,29,21,0,0
361719,195278809,4,5536,5385,15.37,2.61,29,22,0,0
362125,195382031,4,5385,5428,15.33,2.63,29,22,0,0
362615,195496213,4,5428,5428,15.31,2.69,29,22,0,0
362999,195596651,4,5429,5528,15.34,3.02,29,22,0,0
363429,195705276,4,5525,5400,15.25,2.71,29,22,0,0
363868,195812840,4,5402,5528,15.3,2.61,29,22,0,0
364312,195920226,4,5529,5585,15.24,2.91,29,22,0,0
364796,196030626,4,5595,5828,15.2,3.42,29,22,0,0
365688,196250074,4,5818,5557,15.3,2.6,29,22,0,0
366088,196348875,4,5557,5585,15.3,3.06,29,22,0,0
366542,196461593,4,5583,5542,15.23,2.7,29,22,0,0
367006,196575623,4,5545,5585,15.2,2.51,29,23,0,0
367436,196682404,4,5589,5657,15.27,3.09,29,23,0,0
367875,196792216,4,5646,5542,15.23,2.65,29,23,0,0
368364,196905314,4,5540,5528,15.21,2.82,29,23,0,0
368769,197009613,4,5525,5485,15.2,2.77,29,23,0,0
369175,197114811,4,5489,5542,15.22,2.6,29,23,0,0
369620,197222318,4,5528,5357,15.23,2.18,29,23,0,0
370478,197435304,4,5351,5057,15.29,2.49,29,23,0,0
370949,197546023,4,5065,5185,15.27,2.32,29,23,0,0
371381,197653929,4,5193,5300,15.24,2.53,29,23,0,0
371818,197766986,4,5300,5300,15.27,2.33,29,23,0,0
372262,197873253,4,5293,5142,15.33,2.28,29,23,0,0
372743,197988256,4,5148,5214,15.25,2.34,29,24,0,0
373150,198086415,4,5211,5157,15.3,2.27,29,24,0,0
373597,198197212,4,5169,5414,15.27,2.64,29,24,0,0
374011,198304408,4,5410,5257,15.32,2.08,29,24,0,0
374457,198409494,4,5253,5185,15.32,2.19,29,24,0,0
374907,198521183,4,5182,5128,15.27,2.37,29,24,0,0
375296,198622815,4,5131,5271,15.3,2.57,29,24,0,0
375764,198738782,4,5279,5400,15.27,2.4,29,24,0,0
376209,198844856,4,5396,5357,15.26,2.64,29,24,0,0
376657,198957789,4,5349,5271,15.29,2.36,29,24,0,0
377506,199165055,4,5269,5200,15.31,2.33,29,24,0,0
377999,199284227,4,5203,5242,15.3,2.54,29,24,0,0
378404,199387167,4,5247,5300,15.25,2.56,29,24,0,0
378886,199499443,4,5308,5400,15.2,2.6,29,25,0,0
379287,199601411,4,5409,5528,15.29,2.85,29,25,0,0
379738,199710819,4,5526,5500,15.3,2.4,29,25,0,0
380138,199812643,4,5497,5371,15.27,2.63,29,25,0,0
380622,199929671,4,5378,5457,15.34,2.3,29,25,0,0
381028,200031191,4,5428,5071,15.33,2.04,29,25,0,0
381473,200140003,4,5068,5014,15.29,1.98,29,25,0,0
381923,200246220,4,5012,4957,15.22,2.2,29,25,0,0
382361,200358224,4,4969,5128,15.27,2.64,29,25,0,0
382793,200467818,4,5131,5171,15.26,2.36,29,25,0,0
383194,200571389,4,5179,5285,15.3,2.68,29,25,0,0
383648,200684401,4,5298,5442,15.2,2.57,29,25,0,0
384091,200791599,4,5439,5414,15.27,2.64,29,25,0,0
384495,200890008,4,5413,5357,15.3,2.59,29,25,0,0
384978,201006285,4,5359,5400,15.25,2.67,29,26,0,0
385384,201109676,4,5401,5500,15.28,2.45,29,26,0,0
385831,201219829,4,5500,5542,15.22,2.62,29,26,0,0
386277,201332632,4,5539,5414,15.26,2.57,29,26,0,0
386742,201445824,4,5397,5228,15.23,2.4,29,26,0,0
387177,201556272,4,5247,5457,15.21,3.05,29,26,0,0
387622,201670826,4,5451,5414,15.3,2.24,29,26,0,0
388030,201766248,4,5395,5114,15.32,2.11,29,26,0,0
388475,201872868,4,5120,5257,15.29,2.31,29,26,0,0
388734,201985409,4,5255,5128,15.26,2.28,29,26,0,0
389179,202095058,4,5136,5314,15.27,2.67,29,26,0,0
389623,202200906,4,5313,5300,15.22,2.53,29,26,0,0
390072,202308237,4,5298,5200,15.28,2.37,29,26,0,0
390556,202425678,4,5192,5128,15.3,2.38,29,26,0,0
391387,202633664,4,5139,5414,15.29,2.47,29,27,0,0
391825,202745189,4,5408,5342,15.25,2.59,29,27,0,0
392277,202855041,4,5340,5314,15.2,2.69,29,27,0,0
392721,202966736,4,5326,5500,15.25,2.99,29,27,0,0
393168,203075227,4,5497,5457,15.18,2.98,29,27,0,0
393611,203186617,4,5461,5528,15.21,2.73,29,27,0,0
394023,203289483,4,5528,5571,15.2,2.65,29,27,0,0
394476,203401648,4,5551,5357,15.27,2.38,29,27,0,0
394956,203516231,4,5349,5285,15.22,2.63,29,27,0,0
395346,203617243,4,5279,5200,15.26,2.33,29,27,0,0
396182,203824821,4,5200,5200,15.26,2.57,29,27,0,0
396629,203936860,4,5200,5257,15.29,2.19,29,28,0,0
397078,204046030,4,5258,5328,15.22,2.62,29,28,0,0
397520,204156494,4,5325,5214,15.26,2.23,29,28,0,0
398009,204268650,4,5211,5157,15.18,2.24,29,28,0,0
398451,204375421,4,5159,5200,15.29,2.63,29,28,0,0
398900,204485677,4,5206,5357,15.26,2.52,29,28,0,0
399373,204602428,4,5349,5271,15.26,2.69,29,28,0,0
399806,204718574,4,5295,5485,15.26,3.02,29,28,0,0
400245,204821836,4,5486,5500,15.26,2.85,29,28,0,0
400686,204929711,4,5506,5657,15.25,3.03,29,28,0,0
401132,205036380,4,5656,5628,15.27,3.1,29,28,0,0
401577,205148297,4,5632,5700,15.26,2.93,29,29,0,0
402024,205255576,4,5696,5614,15.3,2.35,29,29,0,0
402478,205370383,4,5597,5371,15.26,2.52,29,29,0,0
402923,205479296,4,5367,5314,15.23,2.57,29,29,0,0
403367,205587270,4,5314,5328,15.24,2.5,29,29,0,0
403816,205697231,4,5328,5328,15.25,2.36,29,29,0,0
404268,205811082,4,5321,5257,15.25,2.35,29,29,0,0
404675,205917055,4,5257,5257,15.26,2.34,29,29,0,0
405125,206027211,4,5245,5128,15.25,2.24,29,29,0,0
405560,206137779,4,5134,5228,15.25,2.35,29,29,0,0
405989,206245636,4,5219,5085,15.24,1.97,29,29,0,0
406384,206350293,4,5083,4971,15.2,1.82,29,29,0,0
407269,206568237,4,4962,3985,15.25,0.85,29,29,0,0
407758,206686290,4,3962,3757,15.26,1.03,29,29,0,0
408163,206784642,4,3762,4157,15.19,1.71,29,29,0,0
408652,206904718,4,4230,4900,15.2,2.72,29,29,0,0
409092,207012233,4,4924,5228,15.17,2.62,29,30,0,0
409577,207136585,4,5240,5385,15.24,2.77,30,30,0,0
409965,207229680,4,5404,5557,15.26,2.63,29,30,0,0
410875,207454366,4,5557,5571,15.2,2.56,29,30,0,0
411314,207562085,4,5563,5500,15.22,2.46,29,30,0,0
412202,207772048,4,5496,5357,15.26,2.34,29,30,0,0
412650,207881640,4,5359,5385,15.17,2.3,30,30,0,0
413060,207989459,4,5381,5328,15.23,2.09,29,30,0,0
413933,208205559,4,5319,5142,15.23,2.04,30,30,0,0
414361,208312054,4,5131,5028,15.35,1.93,29,30,0,0
414807,208422831,4,5024,4985,15.26,2.02,29,30,0,0
415663,208639721,4,4987,5042,15.23,1.98,29,31,0,0
416109,208748649,4,5036,4985,15.32,1.81,29,31,0,0
416518,208849040,4,4984,4971,15.16,2.19,29,31,0,0
416961,208959282,4,4991,5257,15.29,2.7,30,31,0,0
417444,209071446,4,5245,5100,15.26,2.08,29,31,0,0
417837,209172141,4,5102,5185,15.29,2.43,30,31,0,0
418265,209280683,4,5187,5285,15.26,2.45,29,31,0,0
418706,209391439,4,5285,5300,15.27,2.66,30,31,0,0
419637,209618557,4,5306,5485,15.14,2.64,29,31,0,0
420043,209718718,4,5483,5400,15.2,2.51,29,31,0,0
420494,209827795,4,5399,5385,15.17,2.91,29,31,0,0
421422,210052100,4,5379,5242,15.12,2.2,29,32,0,0
421861,210166190,4,5238,5200,15.13,2.21,29,32,0,0
422285,210272080,4,5195,5128,15.22,2.17,29,32,0,0
422681,210373466,4,5129,5228,15.16,2.42,29,32,0,0
423126,210479042,4,5226,5171,15.2,2.25,29,32,0,0
423613,210595027,4,5165,5085,15.25,2.06,29,32,0,0
424060,210699844,4,5086,5128,15.24,2.66,30,32,0,0
424509,210814607,4,5143,5300,15.22,2.51,29,32,0,0
424908,210915298,4,5299,5257,15.2,2.64,29,32,0,0
425840,211144797,4,5262,5385,15.26,2.56,29,32,0,0
426263,211251064,4,5399,5542,15.25,2.53,29,32,0,0
426698,211360477,4,5519,5171,15.23,2.15,29,32,0,0
427143,211467240,4,5184,5357,15.22,2.53,30,33,0,0
427586,211575226,4,5361,5428,15.18,2.43,29,33,0,0
428037,211682373,4,5424,5214,15.17,2.53,29,33,0,0
428481,211792397,4,5223,5357,15.23,2.52,29,33,0,0
428929,211898624,4,5362,5471,15.16,2.93,29,33,0,0
429377,212011419,4,5469,5442,15.22,2.54,29,33,0,0
429814,212120030,4,5437,5357,15.16,2.76,30,33,0,0
430243,212228468,4,5356,5342,15.22,2.57,29,33,0,0
430632,212331791,4,5344,5428,15.16,2.85,29,33,0,0
431081,212440822,4,5432,5528,15.17,2.77,30,33,0,0
431528,212552169,4,5520,5414,15.25,2.41,29,33,0,0
431978,212661891,4,5415,5442,15.23,2.34,30,33,0,0
432421,212771915,4,5433,5314,15.22,2.43,29,33,0,0
432866,212878239,4,5297,5085,15.2,2.16,29,33,0,0
433307,212986067,4,5083,5057,15.23,2.21,29,34,0,0
433757,213092494,4,5063,5200,15.25,2.31,29,34,0,0
434210,213214699,4,5198,5185,15.18,2.4,29,34,0,0
434617,213308421,4,5184,5157,15.19,2.35,29,34,0,0
435054,213416292,4,5156,5142,15.2,2.57,30,34,0,0
435533,213531923,4,5150,5242,15.26,2.63,29,34,0,0
435945,213634857,4,5244,5271,15.17,2.59,29,34,0,0
436498,213853816,4,5271,5271,15.25,2.53,29,34,0,0
436940,213960297,4,5277,5342,15.19,2.63,30,34,0,0
437796,214174681,4,5342,5357,15.21,2.58,30,34,0,0
438241,214280204,4,5364,5457,15.18,2.88,29,34,0,0
438674,214393073,4,5460,5500,15.2,3.07,30,35,0,0
439131,214504582,4,5505,5571,15.22,3.07,30,35,0,0
439578,214621407,4,5571,5571,15.19,3.06,29,35,0,0
440463,214834324,4,5575,5657,15.15,2.94,29,35,0,0
440911,214944081,4,5634,5400,15.25,2.63,29,35,0,0
441763,215155724,4,5400,5442,15.19,2.46,29,35,0,0
442211,215264983,4,5440,5371,15.21,2.32,29,35,0,0
442637,215369188,4,5366,5185,15.2,2.04,29,35,0,0
443109,215487748,4,5182,5157,15.22,2.24,30,35,0,0
443512,215592688,4,5154,5128,15.15,2.09,29,35,0,0
443921,215694211,4,5126,5028,15.2,2.2,30,35,0,0
444371,215808717,4,5029,5042,15.22,2.15,29,36,0,0
444815,215919881,4,5049,5114,15.19,2.44,29,36,0,0
445267,216030305,4,5115,5128,15.21,2.25,30,36,0,0
445670,216131069,4,5128,5157,15.14,2.46,30,36,0,0
446123,216242006,4,5154,5128,15.19,2.45,30,36,0,0
446525,216345223,4,5129,5285,15.19,2.43,29,36,0,0
447011,216457455,4,5286,5314,15.14,2.55,29,36,0,0
447455,216566783,4,5311,5271,15.17,2.48,30,36,0,0
448301,216784321,4,5268,5128,15.22,2.18,29,36,0,0
448729,216895721,4,5126,5100,15.15,2.28,30,36,0,0
449178,217008313,4,5100,5114,15.25,2.33,29,36,0,0
449658,217122681,4,5121,5200,15.22,2.26,30,36,0,0
450111,217232232,4,5197,5157,15.23,2.36,30,37,0,0
450554,217341216,4,5157,5157,15.26,2.61,30,37,0,0
451002,217449312,4,5177,5385,15.25,2.82,30,37,0,0
451405,217551448,4,5387,5542,15.21,2.94,29,37,0,0
451852,217658865,4,5543,5585,15.23,2.67,30,37,0,0
452286,217771715,4,5571,5428,15.22,2.46,30,37,0,0
452712,217876839,4,5421,5328,15.24,2.57,29,37,0,0
453152,217986053,4,5334,5428,15.2,2.58,30,37,0,0
453593,218090626,4,5429,5471,15.17,2.57,30,37,0,0
454045,218204325,4,5470,5457,15.19,3.04,30,37,0,0
454940,218423631,4,5457,5457,15.16,2.39,30,37,0,0
455788,218632082,4,5455,5385,15.2,2.67,30,38,0,0
456231,218748881,4,5378,5314,15.14,2.57,30,38,0,0
456656,218855732,4,5311,5271,15.17,2.29,30,38,0,0
457093,218970439,4,5274,5314,15.25,2.44,30,38,0,0
457541,219080637,4,5317,5371,15.11,2.8,30,38,0,0
457988,219191717,4,5368,5342,15.16,2.52,30,38,0,0
458439,219305281,4,5336,5285,15.23,2.32,30,38,0,0
458848,219405673,4,5277,5171,15.15,2.41,30,38,0,0
459746,219627054,4,5175,5300,15.2,2.28,30,38,0,0
460575,219841855,4,5299,5214,15.22,2.31,30,38,0,0
461009,219951607,4,5209,5071,15.22,2.2,30,38,0,0
461457,220059431,4,5069,5028,15.17,2.24,30,39,0,0
462356,220284617,4,5031,5100,15.19,2.56,30,39,0,0
462759,220384580,4,5104,5300,15.19,2.92,30,39,0,0
463285,220511580,4,5311,5414,15.16,2.79,30,39,0,0
463730,220620100,4,5409,5371,15.2,2.73,30,39,0,0
464594,220839089,4,5380,5557,15.14,2.91,30,39,0,0
464987,220939069,4,5557,5585,15.22,2.94,30,39,0,0
465432,221048390,4,5583,5542,15.16,2.85,30,39,0,0
465881,221160860,4,5542,5542,15.17,2.85,30,39,0,0
466328,221269345,4,5542,5542,15.16,2.9,30,39,0,0
466773,221379194,4,5545,5571,15.15,2.69,30,40,0,0
467225,221487815,4,5571,5571,15.16,3.03,30,40,0,0
467629,221588484,4,5571,5571,15.16,2.72,30,40,0,0
468074,221693206,4,5570,5557,15.2,2.7,30,40,0,0
468547,221816572,4,5549,5471,15.23,2.83,30,40,0,0
468931,221917702,4,5458,5342,15.15,2.37,30,40,0,0
469382,222028858,4,5357,5585,15.15,3.07,30,40,0,0
469825,222138630,4,5583,5571,15.26,3.16,30,40,0,0
470270,222245406,4,5571,5571,15.23,2.97,30,40,0,0
470675,222352230,4,5562,5457,15.22,2.44,30,40,0,0
471128,222463712,4,5458,5471,15.22,2.74,30,40,0,0
471609,222575632,4,5472,5500,15.15,2.89,30,40,0,0
472445,222786251,4,5498,5457,15.23,2.85,30,41,0,0
472870,222891346,4,5456,5414,15.17,2.31,30,41,0,0
473308,223000684,4,5412,5300,15.22,2.34,30,41,0,0
473754,223110018,4,5294,5228,15.14,2.32,30,41,0,0
474202,223219665,4,5231,5257,15.2,2.49,30,41,0,0
474604,223322206,4,5260,5300,15.18,2.47,30,41,0,0
475057,223432205,4,5299,5285,15.23,2.36,30,41,0,0
475463,223535696,4,5275,5085,15.22,2.04,30,41,0,0
475919,223648480,4,5093,5185,15.22,2.57,30,41,0,0
476352,223754702,4,5186,5214,15.19,2.49,30,41,0,0
476784,223866757,4,5215,5242,15.18,2.33,30,41,0,0
477219,223975208,4,5250,5357,15.25,2.37,30,41,0,0
477631,224078871,4,5354,5285,15.19,2.42,30,41,0,0
478113,224193643,4,5285,5285,15.15,2.57,30,42,0,0
478514,224289721,4,5281,5214,15.18,2.18,30,42,0,0
478956,224398253,4,5216,5257,15.23,2.34,30,42,0,0
479406,224514175,4,5264,5314,15.2,2.32,30,42,0,0
479853,224620566,4,5302,5185,15.2,2.25,30,42,0,0
480256,224722395,4,5184,5157,15.17,2.18,30,42,0,0
480724,224836243,4,5159,5185,15.19,2.24,30,42,0,0
481153,224945866,4,5193,5271,15.2,2.44,30,42,0,0
481556,225043130,4,5274,5314,15.23,2.3,30,42,0,0
481958,225144594,4,5312,5228,15.19,2.29,30,42,0,0
482445,225258412,4,5230,5285,15.16,2.54,30,42,0,0
482900,225374580,4,5276,5200,15.1,2.6,30,42,0,0
483306,225473219,4,5205,5342,15.14,2.4,30,42,0,0
483761,225588263,4,5347,5400,15.12,2.34,30,42,0,0
484167,225690741,4,5398,5285,15.16,2.4,30,43,0,0
484597,225802670,4,5285,5300,15.2,2.51,30,43,0,0
485026,225908569,4,5300,5300,15.19,2.33,30,43,0,0
485475,226023517,4,5295,5257,15.19,2.3,30,43,0,0
486361,226236082,4,5256,5242,15.2,2.41,30,43,0,0
487258,226457191,4,5243,5328,15.24,2.31,30,43,0,0
487708,226568979,4,5324,5242,15.2,2.5,30,43,0,0
488191,226682391,4,5238,5185,15.2,2.24,30,43,0,0
489002,226889667,4,5186,5400,15.27,2.44,30,43,0,0
489442,226998056,4,5386,5114,15.17,2.19,30,43,0,0
489894,227109362,4,5121,5271,15.13,2.29,30,44,0,0
490339,227218306,4,5272,5300,15.14,2.14,30,44,0,0
490782,227329613,4,5303,5357,15.13,2.53,30,44,0,0
491226,227436014,4,5361,5457,15.2,2.62,30,44,0,0
491670,227548073,4,5453,5400,15.16,2.15,30,44,0,0
492142,227665101,4,5388,5271,15.19,2.31,30,44,0,0
492535,227764719,4,5275,5328,15.17,2.47,30,44,0,0
492983,227872267,4,5332,5400,15.12,2.58,30,44,0,0
493427,227983178,4,5391,5214,15.22,2.38,30,44,0,0
493880,228095011,4,5245,5528,15.18,2.85,30,44,0,0
494320,228202069,4,5500,5228,15.29,1.97,30,44,0,0
494764,228311633,4,5224,5185,15.3,2.21,30,44,0,0
495211,228426248,4,5170,5071,15.27,1.92,30,44,0,0
495652,228532312,4,5084,5228,15.22,2.16,30,44,0,0
496107,228642858,4,5215,5100,15.23,2.07,30,45,0,0
496504,228748621,4,5121,5342,15.22,2.64,30,45,0,0
496932,228858234,4,5347,5400,15.22,2.45,30,45,0,0
497335,228964423,4,5403,5442,15.2,2.43,30,45,0,0
497787,229073838,4,5438,5385,15.25,2.33,30,45,0,0
498230,229179086,4,5382,5342,15.22,2.32,30,45,0,0
498674,229286977,4,5353,5471,15.16,2.67,30,45,0,0
499120,229399690,4,5476,5557,15.21,2.61,30,45,0,0
499574,229509394,4,5547,5428,15.22,2.43,30,45,0,0
499957,229610427,4,5426,5400,15.23,2.44,30,45,0,0
500430,229729420,4,5401,5414,15.22,2.32,30,45,0,0
500829,229826014,4,5405,5300,15.25,2.29,30,45,0,0
501236,229931648,4,5303,5371,15.25,2.28,30,45,0,0
501726,230047650,4,5365,5314,15.24,2.31,30,45,0,0
502172,230156698,4,5305,5242,15.25,2.13,30,46,0,0
502618,230263570,4,5250,5328,15.2,2.2,30,46,0,0
503024,230369010,4,5329,5342,15.16,2.21,30,46,0,0
503474,230479319,4,5350,5442,15.17,2.27,30,46,0,0
503873,230587477,4,5439,5414,15.2,2.36,30,46,0,0
504301,230693314,4,5414,5414,15.17,2.45,30,46,0,0
505151,230904280,4,5414,5457,15.2,2.61,30,46,0,0
505596,231017059,4,5448,5357,15.12,2.42,30,46,0,0
506001,231123354,4,5364,5514,15.17,2.62,30,46,0,0
506455,231235425,4,5504,5428,15.06,2.7,30,46,0,0
506895,231342635,4,5431,5471,15.16,2.67,30,46,0,0
507342,231448867,4,5473,5500,15.11,2.35,30,46,0,0
507783,231560618,4,5489,5257,15.17,2,30,46,0,0
508240,231671622,4,5250,5157,15.15,2.17,30,47,0,0
508682,231782777,4,5155,5128,15.2,2.25,30,47,0,0
509125,231888709,4,5129,5214,15.16,2.44,30,47,0,0
509571,231997801,4,5213,5171,15.19,2.31,30,47,0,0
510055,232116212,4,5173,5200,15.16,2.19,30,47,0,0
510454,232212912,4,5198,5157,15.21,2.13,30,47,0,0
510863,232317276,4,5158,5271,15.22,2.49,30,47,0,0
511353,232434437,4,5278,5357,15.21,2.45,30,47,0,0
511794,232545251,4,5353,5314,15.17,2.23,30,47,0,0
512224,232651654,4,5312,5300,15.15,2.45,30,47,0,0
512648,232757062,4,5304,5357,15.21,2.47,30,47,0,0
513104,232865616,4,5360,5400,15.17,2.45,30,47,0,0
513505,232966964,4,5394,5314,15.16,2.18,30,47,0,0
513953,233074872,4,5310,5100,15.18,2.38,30,47,0,0
514396,233184055,4,5110,5257,15.19,2.59,30,48,0,0
514844,233293817,4,5259,5285,15.2,2.32,30,48,0,0
515287,233403656,4,5275,5157,15.11,2.1,30,48,0,0
515736,233517021,4,5144,5042,15.16,1.59,30,48,0,0
516140,233616038,4,5039,4928,15.19,2.07,30,48,0,0
516580,233726279,4,4929,5057,15.23,2.2,30,48,0,0
517039,233835635,4,5049,4742,15.19,1.78,30,48,0,0
517479,233950425,4,4754,4885,15.18,2.23,30,48,0,0
517926,234057576,4,4889,4957,15.17,2.55,30,48,0,0
518371,234168438,4,4967,5114,15.19,2.32,30,48,0,0
519711,234496042,4,5115,5200,15.14,2.21,30,48,0,0
520152,234604850,4,5199,5171,15.11,2.23,30,48,0,0
520642,234727331,4,5173,5200,15.19,2.16,30,48,0,0
521050,234828286,4,5181,5000,15.2,1.95,30,49,0,0
521447,234933692,4,4994,4928,15.17,1.85,30,49,0,0
521879,235041702,4,4922,4828,15.14,1.8,30,49,0,0
522318,235153831,4,4826,4800,15.19,1.81,30,49,0,0
522721,235253584,4,4798,4700,15.18,1.55,30,49,0,0
523168,235364387,4,4701,4757,15.15,1.7,30,49,0,0
524108,235592338,4,4758,4814,15.13,1.75,30,49,0,0
524548,235699481,4,4814,4814,15.14,1.8,30,49,0,0
525032,235818834,4,4817,4842,15.05,2.12,30,49,0,0
525474,235925675,4,4865,5071,15.14,2.02,30,49,0,0
525923,236033575,4,5081,5171,15.11,2.34,30,49,0,0
526326,236135614,4,5168,5142,15.17,2.24,30,49,0,0
526774,236239703,4,5144,5214,15.11,2.28,30,49,0,0
527215,236350395,4,5214,5271,15.17,2.56,30,49,0,0
528149,236575736,4,5275,5414,15.19,2.43,30,50,0,0
528594,236685061,4,5411,5385,15.19,2.54,30,50,0,0
528987,236787445,4,5385,5400,15.16,2.2,30,50,0,0
529451,236906171,4,5397,5371,15.16,2.41,30,50,0,0
529859,237005344,4,5369,5271,15.19,1.93,30,50,0,0
530303,237118447,4,5272,5285,15.19,2.27,30,50,0,0
530739,237219383,4,5283,5228,15.2,2.14,30,50,0,0
531224,237338679,4,5213,5071,15.2,1.81,30,50,0,0
532074,237549241,4,5069,4828,15.23,1.77,30,50,0,0
532524,237658029,4,4830,4885,15.22,1.94,30,50,0,0
532993,237769568,4,4889,4971,15.23,2.15,30,50,0,0
533425,237881475,4,4987,5142,15.15,2.22,30,50,0,0
533866,237989465,4,5140,5128,15.19,2.33,30,50,0,0
534312,238095579,4,5143,5342,15.18,2.54,30,50,0,0
534759,238206819,4,5348,5442,15.19,2.67,30,51,0,0
535161,238309703,4,5440,5342,15.11,2.42,30,51,0,0
535650,238426230,4,5343,5414,15.17,2.58,30,51,0,0
536124,238538234,4,5408,5300,15.17,2.19,30,51,0,0
536552,238646227,4,5306,5400,15.19,2.28,30,51,0,0
536991,238759656,4,5388,5271,15.14,2.39,30,51,0,0
537437,238867197,4,5273,5314,15.17,2.57,30,51,0,0
537845,238968664,4,5315,5357,15.14,2.47,30,51,0,0
538290,239074256,4,5366,5557,15.17,2.61,30,51,0,0
538740,239185039,4,5548,5428,15.15,2.62,30,51,0,0
539191,239297517,4,5435,5514,15.16,2.46,30,51,0,0
540445,239613470,4,5509,5257,15.08,2.66,30,52,0,0
540892,239727407,4,5266,5400,15.09,2.63,30,52,0,0
541745,239939821,4,5399,5314,15.15,2.52,30,52,0,0
542196,240051047,4,5313,5300,15.08,2.47,30,52,0,0
543087,240268230,4,5297,5214,15.16,2.32,30,52,0,0
543536,240382465,4,5215,5242,15.18,2.27,30,52,0,0
543943,240481076,4,5242,5271,15.14,2.39,30,52,0,0
544430,240598872,4,5271,5271,15.2,2.47,30,52,0,0
544876,240709701,4,5274,5314,15.19,2.38,30,52,0,0
545323,240816849,4,5311,5285,15.13,2.38,30,52,0,0
545764,240927263,4,5289,5357,15.17,2.55,30,52,0,0
546196,241037232,4,5365,5457,15.18,2.42,30,52,0,0
546632,241147315,4,5455,5442,15.1,2.39,30,53,0,0
547079,241257058,4,5444,5471,15.19,2.76,30,53,0,0
547969,241475230,4,5467,5371,15.14,2.46,30,53,0,0
548817,241685884,4,5372,5414,15.14,2.57,30,53,0,0
549260,241795846,4,5404,5200,15.17,2.16,30,53,0,0
549717,241915420,4,5207,5257,15.15,2.5,30,53,0,0
550101,242008882,4,5257,5257,15.13,2.45,30,53,0,0
550562,242121823,4,5260,5328,15.12,2.31,30,53,0,0
551017,242236017,4,5316,5200,15.14,2.32,30,53,0,0
551464,242346325,4,5211,5371,15.09,2.71,30,53,0,0
551873,242447470,4,5375,5428,15.1,2.51,30,53,0,0
552277,242550388,4,5429,5514,15.16,2.67,30,53,0,0
552725,242659323,4,5508,5442,15.14,2.59,30,54,0,0
553157,242769660,4,5442,5442,15.12,2.62,30,54,0,0
553584,242875195,4,5442,5442,15.19,2.46,30,54,0,0
554027,242985196,4,5432,5300,15.17,2.4,30,54,0,0
554480,243094472,4,5309,5442,15.16,2.46,30,54,0,0
554882,243197300,4,5441,5385,15.18,2.58,30,54,0,0
555369,243314390,4,5382,5357,15.14,2.57,30,54,0,0
555815,243420916,4,5365,5485,15.2,2.23,30,54,0,0
556260,243530597,4,5480,5371,15.09,2.61,30,54,0,0
556706,243642241,4,5362,5257,15.16,2.46,30,54,0,0
557138,243749257,4,5261,5300,15.14,2.52,30,54,0,0
557567,243860271,4,5310,5385,15.19,2.58,30,54,0,0
558005,243966517,4,5387,5414,15.12,2.65,30,54,0,0
558451,244074647,4,5414,5414,15.18,2.38,30,55,0,0
558897,244180631,4,5396,5228,15.26,2.31,30,55,0,0
559340,244294866,4,5213,5085,15.24,1.87,30,55,0,0
559748,244396436,4,5070,4914,15.23,1.88,30,55,0,0
560198,244505107,4,4918,4957,15.23,1.93,30,55,0,0
560620,244615430,4,4955,4942,15.25,2.05,30,55,0,0
561003,244710411,4,4930,4114,15.8,0.6899999999999999,30,55,0,0
561490,244827207,4,4107,3600,15.38,1.48,30,55,0,0
561936,244938699,4,3508,2628,15.6,0.15,30,55,0,0
562381,245044487,4,2601,2242,15.57,0.06,30,55,0,0
562837,245162703,4,2247,2285,15.56,0.45,30,55,0,0
563239,245257175,4,2285,2285,15.59,0.21,30,55,0,0
563719,245375816,4,2272,2142,15.58,0.23,30,55,0,0
564142,245482517,4,2147,2200,15.58,0.27,30,55,0,0
564545,245585299,4,2198,2157,15.6,0.21,30,55,0,0
565472,245805971,4,2154,2114,15.6,0.23,30,55,0,0
565876,245905961,4,2114,2142,15.58,0.26,30,55,0,0
566330,246020804,4,2139,2114,15.58,0.23,30,55,0,0
566730,246122302,4,2114,2128,15.6,0.26,30,55,0,0
567219,246235631,4,2128,2128,15.6,0.25,30,55,0,0
567620,246335289,4,2127,2085,15.58,0.23,30,55,0,0
568113,246450820,4,2082,2042,15.59,0.21,30,55,0,0
568519,246555456,4,2039,2000,15.58,0.23,30,55,0,0
568968,246663291,4,2001,2028,15.6,0.23,30,55,0,0
569456,246782303,4,2023,1957,15.69,0.13,30,55,0,0
569910,246890564,4,1932,1671,15.67,0.01,29,55,0,0
570352,246998290,4,1645,1371,15.66,0.04,29,55,0,0
570802,247104171,4,1366,1300,15.66,0.09999999,29,55,0,0
571226,247211449,4,1300,1300,15.66,0.09999999,29,55,0,0
571652,247315581,4,1300,1300,15.66,0.11,29,55,0,0
572065,247416484,4,1299,1285,15.66,0.11,29,55,0,0
572559,247537087,4,1286,1300,15.66,0.11,29,55,0,0
572962,247637803,4,1299,1285,15.66,0.11,29,55,0,0
573409,247747289,4,1285,1285,15.66,0.11,29,55,0,0
573859,247854557,4,1285,1285,15.66,0.11,29,55,0,0
574313,247970612,4,1285,1285,15.67,0.11,29,55,0,0
574758,248077294,4,1285,1300,15.67,0.11,29,55,0,0
575192,248185831,4,1300,1300,15.67,0.11,29,55,0,0
575620,248291357,4,1300,1300,15.67,0.09999999,29,55,0,0
576067,248404174,4,1300,1300,15.67,0.11,29,55,0,0
576519,248512849,4,1299,1285,15.67,0.11,29,55,0,0
576967,248621437,4,1285,1300,15.68,0.11,29,55,0,0
577412,248730778,4,1298,1285,15.68,0.09999999,29,55,0,0
577867,248838692,4,1285,1300,15.68,0.11,29,55,0,0
578264,248938682,4,1298,1285,15.68,0.11,29,55,0,0
578728,249051616,4,1285,1285,15.69,0.11,29,55,0,0
579116,249149850,4,1285,1285,15.69,0.11,29,55,0,0
579563,249257194,4,1285,1285,15.69,0.11,29,55,0,0
580012,249367200,4,1285,1285,15.69,0.09999999,29,55,0,0
580464,249476616,4,1285,1285,15.69,0.11,29,55,0,0
580908,249585815,4,1285,1300,15.69,0.11,29,55,0,0
581392,249703776,4,1300,1300,15.69,0.11,29,55,0,0
581781,249797674,4,1300,1300,15.69,0.09999999,29,55,0,0
582216,249914726,4,1300,1300,15.7,0.11,29,55,0,0
582665,250024602,4,1300,1300,15.69,0.11,29,55,0,0
583116,250134847,4,1300,1300,15.69,0.11,29,55,0,0
583564,250241306,4,1300,1300,15.7,0.11,29,55,0,0
583970,250335279,4,1300,1300,15.7,0.11,29,55,0,0
584463,250453300,4,1300,1300,15.7,0.11,29,55,0,0
584865,250558417,4,1300,1300,15.7,0.11,29,55,0,0
585287,250658580,4,1300,1300,15.7,0.11,29,55,0,0
585727,250770394,4,1299,1285,15.71,0.11,29,55,0,0
586219,250883875,4,1286,1300,15.7,0.11,29,55,0,0
587070,251091443,4,1299,1285,15.71,0.11,29,55,0,0
587551,251206187,4,1285,1300,15.71,0.11,29,55,0,0
588013,251312330,4,1243,500,15.73,0.01,29,55,0,0
588443,251422649,4,480,200,15.72,0.03,29,55,0,0
588878,251530492,4,190,0,15.73,0.04,29,55,0,0
589374,251644384,4,0,0,15.73,0.04,29,55,0,0
589825,251753318,4,0,0,15.72,0.04,29,55,0,0
590280,251859027,4,0,0,15.73,0.04,29,55,0,0
590776,251974643,4,0,0,15.73,0.04,29,55,0,0
591227,252078286,4,0,0,15.73,0.04,29,55,0,0
591660,252181719,4,0,0,15.73,0.04,29,55,0,0
592135,252294429,4,0,0,15.73,0.04,29,55,0,0
592582,252401627,4,0,0,15.73,0.04,29,55,0,0
593036,252512082,4,0,0,15.73,0.04,29,55,0,0
593490,252615419,4,0,0,15.74,0.04,29,55,0,0
593944,252719029,4,0,0,15.74,0.04,29,55,0,0
594394,252827857,4,0,0,15.74,0.04,29,55,0,0
594889,252945231,4,0,0,15.74,0.04,29,55,0,0
595341,253049384,4,0,0,15.74,0.04,29,55,0,0
595783,253156970,4,0,0,15.74,0.04,29,55,0,0
596256,253269808,4,0,0,15.75,0.04,29,55,0,0
596663,253371626,4,0,0,15.75,0.04,29,55,0,0
597160,253487473,4,0,0,15.75,0.04,29,55,0,0
597612,253596054,4,0,0,15.75,0.04,29,55,0,0
598102,253707759,4,0,0,15.75,0.04,29,55,0,0
598511,253802673,4,0,0,15.75,0.04,29,55,0,0
598968,253909303,4,0,0,15.75,0.05,29,55,0,0
599394,254014461,4,0,0,15.75,0.05,29,55,0,0
599831,254123689,4,0,0,15.75,0.05,29,55,0,0
600282,254229341,4,0,0,15.75,0.05,29,55,0,0
600772,254342980,4,0,0,15.75,0.05,29,55,0,0
601135,254456289,4,0,0,15.75,0.05,29,55,0,0
601585,254564260,4,0,0,15.75,0.05,29,55,0,0
602037,254669697,4,0,0,15.76,0.04,29,55,0,0
602491,254778395,4,0,0,15.76,0.04,29,55,0,0
602943,254884304,4,0,0,15.76,0.04,29,55,0,0
603375,254992251,4,0,0,15.76,0.04,29,55,0,0
603804,255097172,4,0,0,15.76,0.04,29,55,0,0
