LineNo,TimeUS,C,Roll,Pitch,Yaw,VN,VE,VD,dPD,PN,PE,PD,GX,GY,GZ,OH
199,2.1376e+07,1,0.31,-2.33,356.95,-0.11037,0.048306,-0.093058,-0.031924,0.033396,-0.016123,-1.1201,-0.05,0.37,-0.19,79.88
422,2.1441e+07,1,0.3,-2.33,356.96,-0.11243,0.048855,-0.090344,-0.018769,0.033396,-0.016123,-1.12,-0.05,0.37,-0.18,79.88
994,2.1557e+07,1,0.31,-2.31,356.98,-0.11906,0.049669,-0.094738,-0.0028935,0.055659,-0.024184,-1.1205,-0.05,0.35,-0.18,79.88
1531,2.1779e+07,1,0.31,-2.26,357.02,-0.13493,0.054554,-0.53632,-0.39878,0.066791,-0.032245,-1.1712,-0.05,0.33,-0.16,79.88
1571,2.179e+07,1,0.31,-2.25,357.02,-0.13587,0.054151,-0.53572,-0.39703,0.066791,-0.032245,-1.1765,-0.05,0.33,-0.16,79.88
1613,2.18e+07,1,0.31,-2.25,357.02,-0.13557,0.053993,-0.53307,-0.39548,0.066791,-0.032245,-1.181,-0.05,0.33,-0.16,79.88
1650,2.181e+07,1,0.31,-2.24,357.02,-0.13539,0.054918,-0.53222,-0.39444,0.066791,-0.032245,-1.1844,-0.05,0.34,-0.16,79.88
1691,2.182e+07,1,0.31,-2.24,357.02,-0.13553,0.054272,-0.531,-0.39067,0.066791,-0.032245,-1.1875,-0.05,0.34,-0.16,79.88
1732,2.183e+07,1,0.31,-2.23,357.01,-0.13439,0.055274,-0.53131,-0.38857,0.066791,-0.032245,-1.1907,-0.05,0.34,-0.16,79.88
1778,2.1841e+07,1,0.32,-2.23,357.01,-0.13425,0.055878,-0.53021,-0.38241,0.066791,-0.032245,-1.194,-0.05,0.34,-0.16,79.88
1818,2.1851e+07,1,0.32,-2.23,357.01,-0.13574,0.056718,-0.53037,-0.3757,0.066791,-0.032245,-1.1993,-0.05,0.34,-0.16,79.88
1859,2.1862e+07,1,0.32,-2.23,357.01,-0.13813,0.056655,-0.52994,-0.37128,0.066791,-0.032245,-1.2032,-0.05,0.34,-0.16,79.88
1900,2.1872e+07,1,0.32,-2.23,357.01,-0.13969,0.057431,-0.52813,-0.36672,0.066791,-0.032245,-1.2067,-0.05,0.34,-0.16,79.88
1940,2.1882e+07,1,0.32,-2.22,357,-0.13997,0.056783,-0.52767,-0.36498,0.066791,-0.032245,-1.2096,-0.05,0.34,-0.16,79.88
1983,2.1892e+07,1,0.32,-2.22,357,-0.14139,0.056454,-0.52725,-0.36166,0.066791,-0.032245,-1.2148,-0.05,0.34,-0.16,79.88
2025,2.1903e+07,1,0.31,-2.22,356.99,-0.14124,0.057338,-0.52753,-0.35965,0.089055,-0.032245,-1.2184,-0.05,0.34,-0.16,79.88
2066,2.1913e+07,1,0.31,-2.21,356.99,-0.14231,0.057683,-0.52632,-0.35509,0.089055,-0.032245,-1.2215,-0.05,0.34,-0.16,79.88
2106,2.1924e+07,1,0.31,-2.21,356.99,-0.14282,0.057312,-0.5249,-0.35131,0.089055,-0.032245,-1.2253,-0.05,0.34,-0.16,79.88
2147,2.1934e+07,1,0.31,-2.2,356.99,-0.14265,0.058434,-0.52355,-0.34868,0.089055,-0.032245,-1.2286,-0.05,0.34,-0.16,79.88
2196,2.1944e+07,1,0.31,-2.2,356.99,-0.14364,0.058932,-0.52162,-0.34727,0.089055,-0.032245,-1.232,-0.05,0.34,-0.16,79.88
2236,2.1954e+07,1,0.31,-2.19,356.99,-0.14415,0.058602,-0.5188,-0.34394,0.089055,-0.032245,-1.2355,-0.05,0.35,-0.16,79.88
2277,2.1964e+07,1,0.31,-2.19,356.99,-0.14443,0.058047,-0.51927,-0.34315,0.089055,-0.032245,-1.2407,-0.05,0.35,-0.16,79.88
2317,2.1974e+07,1,0.31,-2.19,356.99,-0.14453,0.056886,-0.51886,-0.34403,0.089055,-0.032245,-1.2442,-0.05,0.35,-0.16,79.88
2358,2.1985e+07,1,0.31,-2.19,356.99,-0.14504,0.056095,-0.51716,-0.34559,0.089055,-0.032245,-1.2473,-0.05,0.35,-0.16,79.88
2395,2.1995e+07,1,0.31,-2.19,356.99,-0.14625,0.054659,-0.51793,-0.34564,0.089055,-0.032245,-1.25,-0.05,0.35,-0.16,79.88
2436,2.2005e+07,1,0.31,-2.19,356.99,-0.1463,0.055171,-0.51729,-0.34326,0.089055,-0.032245,-1.2528,-0.05,0.35,-0.16,79.88
2478,2.2015e+07,1,0.31,-2.2,356.99,-0.14791,0.054363,-0.51644,-0.3376,0.089055,-0.032245,-1.258,-0.05,0.35,-0.16,79.88
2519,2.2025e+07,1,0.31,-2.2,356.99,-0.14778,0.054182,-0.51683,-0.33523,0.089055,-0.032245,-1.2609,-0.05,0.35,-0.16,79.88
2560,2.2035e+07,1,0.31,-2.19,356.98,-0.14913,0.05513,-0.51653,-0.33273,0.089055,-0.032245,-1.2639,-0.05,0.35,-0.16,79.88
2604,2.2045e+07,1,0.31,-2.19,356.98,-0.14845,0.054861,-0.51658,-0.33437,0.089055,-0.032245,-1.2671,-0.05,0.35,-0.16,79.88
2646,2.2056e+07,1,0.31,-2.18,356.99,-0.14947,0.054758,-0.51521,-0.33256,0.089055,-0.032245,-1.2727,-0.05,0.35,-0.16,79.88
2686,2.2066e+07,1,0.31,-2.18,356.99,-0.14979,0.054643,-0.51329,-0.33397,0.089055,-0.032245,-1.2759,-0.05,0.35,-0.16,79.88
2727,2.2076e+07,1,0.31,-2.18,356.99,-0.14934,0.054118,-0.51317,-0.3369,0.089055,-0.032245,-1.2792,-0.05,0.35,-0.16,79.88
2769,2.2086e+07,1,0.31,-2.18,356.99,-0.14875,0.054075,-0.51307,-0.33679,0.11132,-0.040306,-1.2813,-0.05,0.35,-0.16,79.88
2806,2.2096e+07,1,0.3,-2.19,356.99,-0.14855,0.054423,-0.51206,-0.33436,0.11132,-0.040306,-1.2834,-0.05,0.35,-0.16,79.88
2847,2.2106e+07,1,0.3,-2.19,356.99,-0.1497,0.054632,-0.51251,-0.32788,0.11132,-0.040306,-1.2885,-0.05,0.35,-0.16,79.88
2887,2.2116e+07,1,0.3,-2.19,356.99,-0.1505,0.054904,-0.51261,-0.32241,0.11132,-0.040306,-1.2908,-0.05,0.35,-0.16,79.88
2929,2.2126e+07,1,0.31,-2.19,356.99,-0.15118,0.053951,-0.51207,-0.31622,0.11132,-0.040306,-1.2933,-0.05,0.35,-0.16,79.88
2969,2.2136e+07,1,0.3,-2.19,356.99,-0.15154,0.054944,-0.51211,-0.31245,0.11132,-0.040306,-1.2959,-0.05,0.35,-0.16,79.88
3014,2.2146e+07,1,0.3,-2.18,357,-0.15182,0.055684,-0.51129,-0.30642,0.11132,-0.040306,-1.2986,-0.05,0.35,-0.16,79.88
3056,2.2156e+07,1,0.31,-2.18,357,-0.15255,0.055538,-0.51305,-0.30409,0.11132,-0.040306,-1.3037,-0.05,0.35,-0.16,79.88
3098,2.2166e+07,1,0.31,-2.18,357,-0.15388,0.055107,-0.51282,-0.30252,0.11132,-0.040306,-1.3065,-0.05,0.35,-0.16,79.88
3139,2.2176e+07,1,0.31,-2.18,356.99,-0.15503,0.054058,-0.51202,-0.29982,0.11132,-0.040306,-1.3095,-0.05,0.36,-0.16,79.88
3179,2.2189e+07,1,0.31,-2.18,356.99,-0.15491,0.054058,-0.51121,-0.2951,0.11132,-0.040306,-1.3129,-0.05,0.36,-0.16,79.88
3220,2.2199e+07,1,0.31,-2.17,356.99,-0.15518,0.053136,-0.51072,-0.29083,0.11132,-0.040306,-1.3149,-0.05,0.36,-0.16,79.88
3260,2.2209e+07,1,0.31,-2.17,356.99,-0.15582,0.052122,-0.50792,-0.28541,0.11132,-0.040306,-1.317,-0.05,0.36,-0.16,79.88
3301,2.2219e+07,1,0.31,-2.17,356.99,-0.15642,0.052445,-0.50727,-0.28203,0.11132,-0.040306,-1.3193,-0.05,0.36,-0.16,79.88
3343,2.2229e+07,1,0.31,-2.17,356.99,-0.15632,0.053398,-0.50581,-0.27581,0.11132,-0.040306,-1.3223,-0.05,0.36,-0.16,79.88
3384,2.2239e+07,1,0.31,-2.17,356.99,-0.15679,0.052669,-0.5069,-0.27179,0.11132,-0.040306,-1.3273,-0.05,0.36,-0.16,79.88
3429,2.2249e+07,1,0.31,-2.17,357,-0.15702,0.053325,-0.50467,-0.26686,0.11132,-0.040306,-1.3299,-0.05,0.36,-0.16,79.88
3469,2.2259e+07,1,0.31,-2.17,357,-0.15766,0.052977,-0.50371,-0.26795,0.11132,-0.040306,-1.3325,-0.05,0.36,-0.16,79.88
3513,2.2269e+07,1,0.3,-2.16,357,-0.15781,0.053062,-0.50271,-0.26771,0.11132,-0.040306,-1.3353,-0.05,0.36,-0.16,79.88
3556,2.2282e+07,1,0.31,-2.16,357.01,-0.15819,0.053469,-0.5022,-0.26927,0.11132,-0.040306,-1.3375,-0.05,0.36,-0.16,79.88
3595,2.2292e+07,1,0.31,-2.16,357.01,-0.15866,0.052309,-0.50142,-0.26632,0.11132,-0.040306,-1.3426,-0.05,0.36,-0.16,79.88
3637,2.2302e+07,1,0.31,-2.16,357.01,-0.15868,0.05342,-0.49811,-0.26052,0.11132,-0.040306,-1.344,-0.05,0.36,-0.16,79.88
3679,2.2312e+07,1,0.31,-2.15,357.01,-0.15778,0.053517,-0.49715,-0.25543,0.11132,-0.040306,-1.3455,-0.05,0.36,-0.16,79.88
3719,2.2322e+07,1,0.31,-2.15,357.01,-0.15893,0.05269,-0.49596,-0.25372,0.11132,-0.040306,-1.3505,-0.05,0.36,-0.16,79.88
3760,2.2333e+07,1,0.31,-2.16,357.01,-0.15842,0.052378,-0.49546,-0.25294,0.11132,-0.040306,-1.3527,-0.05,0.36,-0.16,79.88
3801,2.2343e+07,1,0.31,-2.15,357.02,-0.15853,0.051965,-0.49265,-0.24983,0.11132,-0.040306,-1.3545,-0.05,0.36,-0.16,79.88
3845,2.2353e+07,1,0.31,-2.16,357.02,-0.15871,0.05207,-0.49206,-0.24849,0.11132,-0.040306,-1.3565,-0.05,0.36,-0.16,79.88
3886,2.2363e+07,1,0.31,-2.16,357.02,-0.15985,0.052,-0.49338,-0.25014,0.11132,-0.040306,-1.3614,-0.05,0.36,-0.16,79.88
3926,2.2373e+07,1,0.31,-2.15,357.02,-0.15985,0.052015,-0.49217,-0.2506,0.11132,-0.040306,-1.3635,-0.05,0.36,-0.16,79.88
3967,2.2383e+07,1,0.3,-2.15,357.02,-0.16098,0.051539,-0.49152,-0.25259,0.11132,-0.040306,-1.3662,-0.05,0.36,-0.16,79.88
4008,2.2394e+07,1,0.3,-2.15,357.02,-0.16196,0.0514,-0.49066,-0.25415,0.11132,-0.040306,-1.3685,-0.05,0.36,-0.16,79.88
4052,2.2406e+07,1,0.3,-2.15,357.03,-0.16272,0.05161,-0.49161,-0.25837,0.11132,-0.040306,-1.3713,-0.05,0.36,-0.16,79.88
4093,2.2416e+07,1,0.3,-2.15,357.03,-0.16225,0.050794,-0.49137,-0.25969,0.11132,-0.040306,-1.3732,-0.05,0.36,-0.16,79.88
4133,2.2426e+07,1,0.3,-2.14,357.03,-0.16351,0.051507,-0.49002,-0.25566,0.11132,-0.040306,-1.3781,-0.05,0.36,-0.16,79.88
4176,2.2436e+07,1,0.3,-2.14,357.04,-0.16512,0.051965,-0.48894,-0.25403,0.11132,-0.040306,-1.3802,-0.05,0.36,-0.16,79.88
4217,2.2446e+07,1,0.3,-2.14,357.03,-0.16567,0.050708,-0.48782,-0.25063,0.11132,-0.040306,-1.3823,-0.05,0.36,-0.16,79.88
4263,2.2456e+07,1,0.3,-2.14,357.04,-0.16622,0.049471,-0.48633,-0.24825,0.11132,-0.040306,-1.3846,-0.05,0.36,-0.16,79.88
4304,2.2466e+07,1,0.31,-2.14,357.04,-0.16664,0.049956,-0.48358,-0.24961,0.11132,-0.040306,-1.387,-0.05,0.36,-0.16,79.88
4344,2.2476e+07,1,0.31,-2.14,357.03,-0.16718,0.049691,-0.48177,-0.25063,0.11132,-0.040306,-1.39,-0.05,0.36,-0.16,79.88
4385,2.2487e+07,1,0.31,-2.14,357.03,-0.16954,0.050015,-0.48268,-0.25306,0.11132,-0.040306,-1.3948,-0.05,0.36,-0.16,79.88
4422,2.2497e+07,1,0.31,-2.14,357.03,-0.1702,0.048988,-0.48091,-0.24893,0.11132,-0.040306,-1.3957,-0.05,0.37,-0.16,79.88
4465,2.2507e+07,1,0.31,-2.14,357.03,-0.17025,0.048777,-0.48029,-0.24195,0.12245,-0.048368,-1.3967,-0.05,0.37,-0.16,79.88
4506,2.2517e+07,1,0.31,-2.13,357.04,-0.16993,0.049479,-0.47778,-0.23279,0.12245,-0.048368,-1.3985,-0.05,0.37,-0.16,79.88
4546,2.2528e+07,1,0.31,-2.13,357.04,-0.17055,0.049793,-0.47432,-0.22359,0.12245,-0.048368,-1.3998,-0.05,0.37,-0.16,79.88
4587,2.2538e+07,1,0.32,-2.12,357.05,-0.16972,0.049782,-0.47387,-0.21974,0.12245,-0.048368,-1.4013,-0.05,0.37,-0.16,79.88
4628,2.2548e+07,1,0.32,-2.12,357.05,-0.1709,0.048743,-0.47374,-0.21325,0.12245,-0.048368,-1.406,-0.05,0.37,-0.16,79.88
4673,2.2558e+07,1,0.32,-2.12,357.05,-0.17131,0.048308,-0.47247,-0.20904,0.12245,-0.048368,-1.4077,-0.05,0.37,-0.16,79.88
4715,2.2568e+07,1,0.32,-2.12,357.05,-0.17006,0.04754,-0.47165,-0.2105,0.12245,-0.048368,-1.4095,-0.05,0.37,-0.16,79.88
4755,2.2578e+07,1,0.32,-2.12,357.06,-0.17126,0.047851,-0.47034,-0.211,0.12245,-0.048368,-1.4141,-0.05,0.37,-0.16,79.88
4796,2.2589e+07,1,0.31,-2.12,357.06,-0.17148,0.04771,-0.46796,-0.21367,0.12245,-0.048368,-1.4165,-0.05,0.36,-0.16,79.88
4836,2.2599e+07,1,0.32,-2.13,357.06,-0.17164,0.047455,-0.46818,-0.21597,0.12245,-0.048368,-1.4173,-0.05,0.37,-0.16,79.88
4877,2.2609e+07,1,0.31,-2.13,357.07,-0.16989,0.046769,-0.46689,-0.21173,0.12245,-0.048368,-1.4178,-0.05,0.37,-0.16,79.88
4918,2.2619e+07,1,0.31,-2.12,357.07,-0.16996,0.047092,-0.46548,-0.20743,0.12245,-0.048368,-1.4185,-0.05,0.37,-0.16,79.88
4958,2.2629e+07,1,0.31,-2.12,357.07,-0.17018,0.04594,-0.46513,-0.19808,0.12245,-0.048368,-1.4232,-0.05,0.37,-0.16,79.88
5000,2.2639e+07,1,0.31,-2.11,357.07,-0.16939,0.04649,-0.4646,-0.19408,0.12245,-0.048368,-1.424,-0.05,0.37,-0.16,79.88
5043,2.2649e+07,1,0.31,-2.11,357.08,-0.1712,0.046849,-0.46213,-0.18473,0.12245,-0.048368,-1.4251,-0.05,0.37,-0.16,79.88
5088,2.2659e+07,1,0.31,-2.1,357.08,-0.17166,0.047602,-0.4601,-0.17726,0.12245,-0.048368,-1.4263,-0.05,0.37,-0.16,79.88
5128,2.2669e+07,1,0.31,-2.1,357.08,-0.17227,0.047412,-0.45997,-0.17518,0.12245,-0.048368,-1.4276,-0.05,0.37,-0.16,79.88
5169,2.268e+07,1,0.31,-2.1,357.08,-0.17368,0.047444,-0.45988,-0.17079,0.12245,-0.048368,-1.4322,-0.05,0.37,-0.16,79.88
5213,2.2693e+07,1,0.31,-2.1,357.09,-0.17408,0.049066,-0.45985,-0.17109,0.12245,-0.048368,-1.4351,-0.05,0.37,-0.16,79.88
5253,2.2703e+07,1,0.31,-2.1,357.09,-0.17455,0.050239,-0.45832,-0.17129,0.12245,-0.048368,-1.4355,-0.05,0.37,-0.16,79.88
5294,2.2713e+07,1,0.31,-2.11,357.09,-0.17566,0.052078,-0.45598,-0.17292,0.12245,-0.048368,-1.4401,-0.05,0.37,-0.16,79.88
5334,2.2724e+07,1,0.31,-2.1,357.09,-0.17697,0.052747,-0.45514,-0.17497,0.12245,-0.048368,-1.4411,-0.05,0.36,-0.15,79.88
5376,2.2734e+07,1,0.31,-2.1,357.1,-0.17794,0.05203,-0.45401,-0.1783,0.12245,-0.048368,-1.4419,-0.05,0.36,-0.15,79.88
5416,2.2744e+07,1,0.31,-2.11,357.1,-0.17779,0.051785,-0.45466,-0.18293,0.12245,-0.048368,-1.4428,-0.05,0.36,-0.15,79.88
5461,2.2754e+07,1,0.31,-2.1,357.1,-0.17881,0.052421,-0.45576,-0.18193,0.12245,-0.048368,-1.4473,-0.05,0.36,-0.15,79.88
5501,2.2764e+07,1,0.31,-2.1,357.1,-0.17905,0.053552,-0.4542,-0.18028,0.12245,-0.048368,-1.4484,-0.05,0.36,-0.15,79.88
5542,2.2774e+07,1,0.3,-2.1,357.1,-0.17969,0.053687,-0.45358,-0.1794,0.12245,-0.048368,-1.4497,-0.05,0.36,-0.15,79.88
5587,2.2787e+07,1,0.31,-2.1,357.09,-0.18051,0.052321,-0.45314,-0.17736,0.12245,-0.048368,-1.4525,-0.05,0.37,-0.16,79.88
5627,2.2797e+07,1,0.31,-2.09,357.09,-0.18212,0.053614,-0.45228,-0.17659,0.12245,-0.048368,-1.454,-0.05,0.37,-0.16,79.88
5669,2.2807e+07,1,0.31,-2.09,357.09,-0.18381,0.054311,-0.45301,-0.18333,0.12245,-0.048368,-1.459,-0.05,0.37,-0.16,79.88
5709,2.2818e+07,1,0.31,-2.09,357.09,-0.18377,0.054606,-0.45157,-0.18495,0.12245,-0.048368,-1.4596,-0.05,0.36,-0.15,79.88
5750,2.2829e+07,1,0.31,-2.08,357.09,-0.18325,0.05455,-0.4499,-0.18004,0.12245,-0.048368,-1.4602,-0.05,0.37,-0.15,79.88
5791,2.2839e+07,1,0.31,-2.08,357.09,-0.1836,0.054212,-0.4465,-0.17233,0.12245,-0.048368,-1.4606,-0.05,0.37,-0.15,79.88
5832,2.2849e+07,1,0.31,-2.08,357.08,-0.18338,0.054385,-0.44582,-0.16697,0.12245,-0.048368,-1.4614,-0.05,0.37,-0.15,79.88
5877,2.2859e+07,1,0.31,-2.07,357.08,-0.1832,0.053866,-0.44473,-0.16384,0.12245,-0.048368,-1.4623,-0.05,0.37,-0.15,79.88
5917,2.287e+07,1,0.31,-2.07,357.09,-0.18274,0.052844,-0.44379,-0.15829,0.12245,-0.048368,-1.4639,-0.05,0.37,-0.15,79.88
5959,2.288e+07,1,0.31,-2.07,357.08,-0.1839,0.051937,-0.44441,-0.15373,0.12245,-0.048368,-1.4683,-0.05,0.37,-0.15,79.88
6003,2.289e+07,1,0.31,-2.07,357.08,-0.18443,0.051111,-0.4435,-0.15546,0.12245,-0.048368,-1.4699,-0.05,0.37,-0.15,79.88
6043,2.2901e+07,1,0.31,-2.06,357.08,-0.18447,0.052199,-0.44126,-0.15682,0.13358,-0.048368,-1.47,-0.05,0.37,-0.15,79.88
6084,2.2911e+07,1,0.31,-2.06,357.08,-0.18542,0.051436,-0.44042,-0.15523,0.13358,-0.048368,-1.4745,-0.05,0.37,-0.15,79.88
6124,2.2921e+07,1,0.31,-2.06,357.08,-0.18441,0.051079,-0.43904,-0.15315,0.13358,-0.048368,-1.4747,-0.05,0.37,-0.15,79.88
6165,2.2931e+07,1,0.31,-2.05,357.08,-0.18341,0.05043,-0.43821,-0.15001,0.13358,-0.048368,-1.4752,-0.05,0.37,-0.15,79.88
6205,2.2941e+07,1,0.31,-2.05,357.08,-0.18323,0.049188,-0.43572,-0.14183,0.13358,-0.048368,-1.4758,-0.05,0.37,-0.15,79.88
6246,2.2951e+07,1,0.31,-2.05,357.07,-0.18529,0.050443,-0.43631,-0.14243,0.13358,-0.048368,-1.4802,-0.05,0.37,-0.15,79.88
6292,2.2961e+07,1,0.31,-2.05,357.07,-0.18644,0.050053,-0.435,-0.14281,0.13358,-0.048368,-1.481,-0.05,0.37,-0.15,79.88
6332,2.2971e+07,1,0.3,-2.05,357.07,-0.18686,0.049133,-0.43427,-0.14356,0.13358,-0.048368,-1.4819,-0.05,0.37,-0.15,79.88
6375,2.2982e+07,1,0.3,-2.05,357.07,-0.18747,0.050037,-0.43343,-0.14287,0.13358,-0.048368,-1.4835,-0.05,0.37,-0.15,79.88
6416,2.2992e+07,1,0.3,-2.05,357.07,-0.18863,0.051026,-0.43246,-0.14502,0.13358,-0.048368,-1.4848,-0.05,0.37,-0.15,79.88
6461,2.3005e+07,1,0.3,-2.04,357.06,-0.18837,0.05028,-0.42971,-0.14572,0.13358,-0.048368,-1.4861,-0.05,0.37,-0.15,79.88
6502,2.3016e+07,1,0.3,-2.04,357.07,-0.1897,0.049884,-0.42931,-0.14539,0.13358,-0.048368,-1.4907,-0.05,0.37,-0.15,79.88
6542,2.3026e+07,1,0.3,-2.04,357.07,-0.18971,0.049156,-0.42972,-0.15912,0.13358,-0.048368,-1.4908,-0.04,0.36,-0.15,79.88
6583,2.3036e+07,1,0.3,-2.04,357.07,-0.1908,0.049067,-0.42891,-0.16031,0.13358,-0.048368,-1.4951,-0.04,0.36,-0.15,79.88
6623,2.3046e+07,1,0.3,-2.04,357.07,-0.1924,0.049943,-0.42699,-0.15953,0.13358,-0.048368,-1.4953,-0.04,0.36,-0.15,79.88
6665,2.3056e+07,1,0.3,-2.04,357.07,-0.19274,0.049815,-0.42578,-0.15712,0.13358,-0.048368,-1.4958,-0.05,0.36,-0.15,79.88
6709,2.3067e+07,1,0.3,-2.04,357.07,-0.19242,0.050887,-0.42369,-0.15075,0.13358,-0.048368,-1.4968,-0.05,0.37,-0.15,79.88
6750,2.3077e+07,1,0.3,-2.04,357.07,-0.19217,0.051046,-0.42232,-0.15124,0.13358,-0.048368,-1.4976,-0.05,0.36,-0.15,79.88
6791,2.3087e+07,1,0.3,-2.03,357.06,-0.19338,0.050581,-0.4204,-0.14671,0.13358,-0.048368,-1.5018,-0.05,0.36,-0.15,79.88
6834,2.3097e+07,1,0.3,-2.03,357.07,-0.19395,0.050209,-0.41993,-0.14633,0.14471,-0.048368,-1.5027,-0.05,0.36,-0.15,79.88
6876,2.311e+07,1,0.3,-2.03,357.07,-0.1947,0.049791,-0.42026,-0.14543,0.14471,-0.048368,-1.505,-0.05,0.37,-0.15,79.88
6916,2.312e+07,1,0.3,-2.02,357.07,-0.19484,0.048869,-0.41905,-0.14248,0.14471,-0.048368,-1.5053,-0.05,0.37,-0.15,79.88
6957,2.313e+07,1,0.3,-2.02,357.07,-0.1955,0.048974,-0.41656,-0.13855,0.14471,-0.048368,-1.5062,-0.05,0.37,-0.14,79.88
7000,2.314e+07,1,0.3,-2.02,357.07,-0.19626,0.04827,-0.41453,-0.13501,0.14471,-0.048368,-1.5068,-0.05,0.37,-0.15,79.88
7040,2.315e+07,1,0.3,-2.01,357.07,-0.19698,0.04801,-0.41469,-0.13601,0.14471,-0.048368,-1.5076,-0.05,0.37,-0.15,79.88
7082,2.3161e+07,1,0.3,-2.01,357.07,-0.19741,0.04756,-0.41306,-0.13253,0.14471,-0.048368,-1.5086,-0.05,0.37,-0.15,79.88
7126,2.3171e+07,1,0.3,-2.01,357.07,-0.19867,0.047955,-0.41557,-0.13148,0.14471,-0.048368,-1.5127,-0.05,0.37,-0.15,79.88
7167,2.3181e+07,1,0.3,-2.02,357.07,-0.19889,0.047804,-0.415,-0.13138,0.14471,-0.048368,-1.5139,-0.05,0.37,-0.15,79.88
7208,2.3192e+07,1,0.3,-2.02,357.07,-0.20017,0.047851,-0.41552,-0.13531,0.14471,-0.048368,-1.5155,-0.05,0.37,-0.15,79.88
7249,2.3202e+07,1,0.29,-2.03,357.08,-0.2001,0.046599,-0.41532,-0.13816,0.14471,-0.048368,-1.5157,-0.05,0.37,-0.15,79.88
7286,2.3212e+07,1,0.3,-2.02,357.08,-0.20096,0.045192,-0.41315,-0.13519,0.14471,-0.048368,-1.5161,-0.05,0.37,-0.14,79.88
7328,2.3222e+07,1,0.3,-2.02,357.08,-0.20097,0.044649,-0.41191,-0.13272,0.14471,-0.048368,-1.5167,-0.05,0.37,-0.14,79.88
7368,2.3232e+07,1,0.3,-2.02,357.08,-0.20349,0.044785,-0.41224,-0.12821,0.14471,-0.048368,-1.5211,-0.05,0.37,-0.14,79.88
7408,2.3242e+07,1,0.3,-2.02,357.07,-0.20456,0.045502,-0.40963,-0.13051,0.14471,-0.048368,-1.5218,-0.04,0.37,-0.14,79.88
7449,2.3253e+07,1,0.3,-2.02,357.07,-0.20548,0.045716,-0.40766,-0.12944,0.14471,-0.048368,-1.5226,-0.05,0.37,-0.14,79.88
7490,2.3263e+07,1,0.3,-2.02,357.07,-0.20617,0.045924,-0.40737,-0.13157,0.14471,-0.048368,-1.5266,-0.05,0.37,-0.14,79.88
7535,2.3273e+07,1,0.3,-2.02,357.06,-0.20772,0.045704,-0.40658,-0.13482,0.14471,-0.048368,-1.5276,-0.04,0.37,-0.14,79.88
7576,2.3283e+07,1,0.3,-2.02,357.06,-0.20895,0.046,-0.40512,-0.13511,0.14471,-0.048368,-1.5286,-0.05,0.37,-0.14,79.88
7619,2.3293e+07,1,0.3,-2.02,357.06,-0.2102,0.04591,-0.40468,-0.1374,0.14471,-0.048368,-1.5299,-0.05,0.37,-0.14,79.88
7661,2.3303e+07,1,0.3,-2.02,357.06,-0.21051,0.045489,-0.40511,-0.1449,0.13358,-0.048368,-1.5339,-0.05,0.37,-0.14,79.88
7698,2.3314e+07,1,0.3,-2.02,357.06,-0.21087,0.045415,-0.40505,-0.15945,0.13358,-0.048368,-1.5356,-0.04,0.37,-0.14,79.88
7735,2.3324e+07,1,0.3,-2.02,357.06,-0.21024,0.044124,-0.40502,-0.16627,0.13358,-0.048368,-1.5356,-0.04,0.37,-0.14,79.88
7776,2.3334e+07,1,0.3,-2.02,357.05,-0.21053,0.043499,-0.40311,-0.16848,0.13358,-0.048368,-1.5358,-0.04,0.37,-0.14,79.88
7817,2.3344e+07,1,0.3,-2.02,357.05,-0.21169,0.04328,-0.4022,-0.16367,0.13358,-0.048368,-1.5398,-0.04,0.37,-0.14,79.88
7858,2.3354e+07,1,0.3,-2.01,357.05,-0.21076,0.044454,-0.40252,-0.16096,0.13358,-0.048368,-1.5401,-0.04,0.37,-0.14,79.88
7898,2.3364e+07,1,0.3,-2.01,357.05,-0.21169,0.044333,-0.40097,-0.1562,0.13358,-0.048368,-1.541,-0.04,0.37,-0.14,79.88
7943,2.3374e+07,1,0.3,-2.01,357.06,-0.21195,0.044959,-0.39953,-0.14903,0.13358,-0.048368,-1.5417,-0.04,0.37,-0.14,79.88
7984,2.3384e+07,1,0.3,-2.01,357.05,-0.2123,0.044879,-0.39721,-0.14258,0.13358,-0.048368,-1.5425,-0.04,0.37,-0.14,79.88
8026,2.3394e+07,1,0.3,-2.01,357.05,-0.21247,0.044209,-0.39702,-0.1415,0.13358,-0.048368,-1.5435,-0.04,0.37,-0.14,79.88
8063,2.3405e+07,1,0.31,-2.01,357.04,-0.21442,0.044501,-0.39779,-0.1393,0.13358,-0.048368,-1.5474,-0.04,0.37,-0.14,79.88
8101,2.3415e+07,1,0.31,-2.01,357.04,-0.21503,0.044202,-0.39603,-0.13083,0.13358,-0.048368,-1.5467,-0.04,0.37,-0.13,79.88
8142,2.3425e+07,1,0.31,-2.01,357.03,-0.21546,0.044971,-0.39523,-0.12264,0.13358,-0.048368,-1.5461,-0.04,0.37,-0.13,79.88
8183,2.3435e+07,1,0.31,-2.01,357.02,-0.21564,0.044973,-0.39251,-0.11333,0.13358,-0.048368,-1.5458,-0.04,0.37,-0.13,79.88
8224,2.3445e+07,1,0.31,-2.01,357.01,-0.21594,0.044085,-0.39054,-0.10463,0.13358,-0.048368,-1.5455,-0.04,0.38,-0.13,79.88
8264,2.3455e+07,1,0.31,-2.01,357.01,-0.21717,0.044744,-0.39167,-0.094593,0.13358,-0.048368,-1.5495,-0.04,0.38,-0.13,79.88
8305,2.3465e+07,1,0.31,-2,357.01,-0.2171,0.044378,-0.39056,-0.086544,0.13358,-0.048368,-1.5495,-0.04,0.38,-0.13,79.88
8352,2.3475e+07,1,0.31,-1.99,357.01,-0.21749,0.045403,-0.38987,-0.080572,0.13358,-0.048368,-1.5496,-0.04,0.38,-0.13,79.88
8395,2.3485e+07,1,0.31,-1.99,357.01,-0.21932,0.044629,-0.39001,-0.081489,0.13358,-0.048368,-1.5536,-0.04,0.38,-0.13,79.88
8437,2.3495e+07,1,0.31,-1.99,357.01,-0.21979,0.045296,-0.39066,-0.084787,0.13358,-0.048368,-1.5539,-0.04,0.37,-0.13,79.88
8477,2.3505e+07,1,0.3,-1.99,357.01,-0.22032,0.046217,-0.38957,-0.086226,0.13358,-0.048368,-1.5544,-0.04,0.37,-0.13,79.88
8511,2.3515e+07,1,0.3,-1.99,357.01,-0.21941,0.045762,-0.3894,-0.089678,0.13358,-0.048368,-1.5539,-0.04,0.37,-0.13,79.88
8552,2.3525e+07,1,0.3,-1.99,357.01,-0.21981,0.045457,-0.38793,-0.088949,0.13358,-0.048368,-1.5535,-0.04,0.38,-0.13,79.88
8593,2.3535e+07,1,0.3,-1.99,357,-0.22114,0.046562,-0.38786,-0.083119,0.13358,-0.048368,-1.5574,-0.04,0.38,-0.13,79.88
8633,2.3545e+07,1,0.29,-1.99,357,-0.22149,0.045749,-0.38708,-0.079109,0.13358,-0.048368,-1.5573,-0.04,0.38,-0.13,79.88
8674,2.3556e+07,1,0.29,-1.99,357,-0.22194,0.046411,-0.38563,-0.082621,0.13358,-0.048368,-1.5611,-0.04,0.38,-0.13,79.88
8714,2.3565e+07,1,0.29,-1.98,356.99,-0.22255,0.046471,-0.38297,-0.08782,0.13358,-0.048368,-1.5611,-0.04,0.37,-0.13,79.88
8759,2.3575e+07,1,0.29,-1.98,356.99,-0.2229,0.048464,-0.38333,-0.097405,0.13358,-0.048368,-1.5649,-0.04,0.37,-0.13,79.88
8800,2.3585e+07,1,0.29,-1.98,356.99,-0.22397,0.047833,-0.38145,-0.10314,0.13358,-0.048368,-1.565,-0.04,0.37,-0.13,79.88
8840,2.3596e+07,1,0.29,-1.98,356.99,-0.22358,0.04782,-0.38081,-0.1046,0.13358,-0.048368,-1.5656,-0.04,0.37,-0.13,79.88
8883,2.3606e+07,1,0.29,-1.97,356.98,-0.22526,0.04729,-0.37921,-0.10552,0.13358,-0.048368,-1.566,-0.04,0.37,-0.13,79.88
8920,2.3616e+07,1,0.29,-1.97,356.98,-0.22596,0.047782,-0.37767,-0.11083,0.13358,-0.048368,-1.5666,-0.04,0.37,-0.13,79.88
8961,2.3626e+07,1,0.29,-1.97,356.99,-0.22538,0.0483,-0.37598,-0.11109,0.13358,-0.048368,-1.5704,-0.04,0.37,-0.13,79.88
9000,2.3636e+07,1,0.29,-1.97,356.99,-0.22519,0.048908,-0.3745,-0.10974,0.13358,-0.048368,-1.5702,-0.04,0.37,-0.13,79.88
9041,2.3646e+07,1,0.29,-1.96,356.99,-0.22461,0.048378,-0.37324,-0.10676,0.13358,-0.048368,-1.5698,-0.04,0.37,-0.13,79.88
9083,2.3656e+07,1,0.28,-1.96,357,-0.22319,0.048121,-0.37031,-0.10054,0.13358,-0.048368,-1.5696,-0.04,0.37,-0.13,79.88
9123,2.3666e+07,1,0.28,-1.96,357,-0.2236,0.047203,-0.36914,-0.09773,0.13358,-0.048368,-1.5696,-0.04,0.37,-0.13,79.88
9168,2.3676e+07,1,0.28,-1.96,357,-0.22523,0.048457,-0.37016,-0.092668,0.13358,-0.048368,-1.5733,-0.04,0.37,-0.13,79.88
9210,2.3686e+07,1,0.28,-1.95,357.01,-0.22522,0.047654,-0.37037,-0.088472,0.12245,-0.048368,-1.5734,-0.04,0.37,-0.13,79.88
9251,2.3696e+07,1,0.27,-1.95,357.01,-0.22646,0.04738,-0.3717,-0.088313,0.12245,-0.048368,-1.5737,-0.04,0.37,-0.13,79.88
9292,2.3706e+07,1,0.27,-1.95,357.01,-0.22758,0.048282,-0.37145,-0.087806,0.12245,-0.048368,-1.5743,-0.04,0.37,-0.13,79.88
9329,2.3716e+07,1,0.27,-1.95,357.02,-0.22821,0.047607,-0.37109,-0.089572,0.12245,-0.048368,-1.578,-0.04,0.37,-0.13,79.88
9367,2.3727e+07,1,0.27,-1.95,357.02,-0.22883,0.046391,-0.3693,-0.086285,0.12245,-0.048368,-1.5772,-0.04,0.37,-0.13,79.88
9408,2.3737e+07,1,0.28,-1.95,357.02,-0.22909,0.046973,-0.36793,-0.086368,0.12245,-0.048368,-1.5766,-0.04,0.37,-0.13,79.88
9448,2.3747e+07,1,0.28,-1.95,357.02,-0.22868,0.047674,-0.36516,-0.080778,0.12245,-0.048368,-1.5762,-0.04,0.37,-0.13,79.88
9489,2.3757e+07,1,0.28,-1.95,357.02,-0.22878,0.047658,-0.36425,-0.076466,0.12245,-0.048368,-1.576,-0.04,0.37,-0.13,79.88
9529,2.3768e+07,1,0.28,-1.96,357.02,-0.23011,0.046263,-0.36369,-0.069419,0.12245,-0.048368,-1.5764,-0.04,0.37,-0.13,79.88
9574,2.3778e+07,1,0.28,-1.95,357.03,-0.23085,0.046342,-0.36293,-0.061475,0.12245,-0.048368,-1.58,-0.04,0.37,-0.13,79.88
9614,2.3788e+07,1,0.28,-1.95,357.03,-0.2315,0.047413,-0.36203,-0.057858,0.12245,-0.048368,-1.5801,-0.04,0.37,-0.13,79.88
9655,2.3799e+07,1,0.28,-1.95,357.03,-0.2316,0.048376,-0.35986,-0.055837,0.12245,-0.048368,-1.5808,-0.04,0.37,-0.13,79.88
9718,2.3829e+07,1,0.27,-1.95,357.05,-0.23555,0.046877,-0.3582,-0.062681,0.12245,-0.048368,-1.5838,-0.04,0.37,-0.13,79.88
9758,2.3839e+07,1,0.27,-1.94,357.05,-0.23568,0.046133,-0.35799,-0.061237,0.12245,-0.048368,-1.5831,-0.04,0.38,-0.13,79.88
9799,2.3849e+07,1,0.27,-1.94,357.05,-0.23503,0.046303,-0.35736,-0.057882,0.12245,-0.048368,-1.5825,-0.04,0.38,-0.13,79.88
9839,2.3859e+07,1,0.27,-1.94,357.05,-0.23613,0.04657,-0.35745,-0.055947,0.12245,-0.048368,-1.5861,-0.04,0.38,-0.13,79.88
9881,2.3869e+07,1,0.27,-1.94,357.05,-0.23686,0.046322,-0.35789,-0.059243,0.12245,-0.048368,-1.5857,-0.04,0.37,-0.12,79.88
9926,2.3879e+07,1,0.27,-1.94,357.06,-0.23653,0.046813,-0.35694,-0.061606,0.12245,-0.048368,-1.5855,-0.04,0.37,-0.12,79.88
9968,2.3889e+07,1,0.27,-1.94,357.06,-0.23678,0.045526,-0.35665,-0.063481,0.10019,-0.048368,-1.5855,-0.04,0.37,-0.12,79.88
10009,2.3899e+07,1,0.27,-1.94,357.06,-0.23767,0.0459,-0.35692,-0.061704,0.10019,-0.048368,-1.5891,-0.04,0.37,-0.12,79.88
10053,2.3914e+07,1,0.28,-1.94,357.06,-0.23771,0.045893,-0.35307,-0.057617,0.10019,-0.048368,-1.5872,-0.04,0.38,-0.13,79.88
10093,2.3924e+07,1,0.28,-1.93,357.06,-0.23712,0.044035,-0.3538,-0.05773,0.10019,-0.048368,-1.5864,-0.04,0.38,-0.12,79.88
10134,2.3935e+07,1,0.28,-1.93,357.07,-0.23913,0.044333,-0.35386,-0.051173,0.10019,-0.048368,-1.5903,-0.04,0.38,-0.12,79.88
10177,2.3945e+07,1,0.28,-1.92,357.07,-0.23977,0.044848,-0.35285,-0.048468,0.10019,-0.048368,-1.59,-0.04,0.38,-0.12,79.88
10217,2.3955e+07,1,0.28,-1.92,357.07,-0.23944,0.045002,-0.3491,-0.043571,0.10019,-0.048368,-1.5899,-0.04,0.38,-0.12,79.88
10258,2.3965e+07,1,0.27,-1.91,357.07,-0.23966,0.044307,-0.34835,-0.044435,0.10019,-0.048368,-1.59,-0.04,0.38,-0.12,79.88
10303,2.3975e+07,1,0.27,-1.92,357.07,-0.24043,0.044311,-0.34771,-0.046428,0.10019,-0.048368,-1.5902,-0.04,0.38,-0.12,79.88
10343,2.3985e+07,1,0.27,-1.92,357.07,-0.24093,0.044601,-0.34858,-0.047284,0.10019,-0.048368,-1.5937,-0.04,0.38,-0.12,79.88
10385,2.3995e+07,1,0.27,-1.92,357.07,-0.2413,0.043786,-0.34766,-0.049862,0.10019,-0.048368,-1.5941,-0.04,0.38,-0.12,79.88
10428,2.4008e+07,1,0.27,-1.91,357.07,-0.24142,0.04436,-0.34758,-0.054019,0.10019,-0.048368,-1.5957,-0.04,0.38,-0.12,79.88
10466,2.4018e+07,1,0.26,-1.91,357.06,-0.24277,0.043562,-0.34498,-0.050258,0.10019,-0.048368,-1.5947,-0.04,0.38,-0.12,79.88
10507,2.4028e+07,1,0.27,-1.91,357.06,-0.24368,0.042207,-0.34371,-0.047825,0.10019,-0.048368,-1.594,-0.04,0.38,-0.12,79.88
10550,2.4038e+07,1,0.27,-1.91,357.06,-0.2434,0.042009,-0.34374,-0.046542,0.10019,-0.048368,-1.5938,-0.04,0.38,-0.12,79.88
10591,2.4049e+07,1,0.27,-1.9,357.05,-0.24352,0.042937,-0.34282,-0.046482,0.10019,-0.048368,-1.5934,-0.04,0.38,-0.12,79.88
10631,2.4059e+07,1,0.27,-1.91,357.05,-0.24534,0.042239,-0.34292,-0.042857,0.10019,-0.048368,-1.5968,-0.04,0.38,-0.12,79.88
10672,2.4069e+07,1,0.27,-1.9,357.05,-0.24617,0.042342,-0.34097,-0.040253,0.10019,-0.048368,-1.5966,-0.04,0.38,-0.12,79.88
10716,2.4079e+07,1,0.27,-1.9,357.04,-0.24755,0.042199,-0.33878,-0.035707,0.10019,-0.048368,-1.5966,-0.04,0.38,-0.12,79.88
10760,2.4089e+07,1,0.27,-1.9,357.04,-0.24851,0.042377,-0.33802,-0.034566,0.077923,-0.048368,-1.5968,-0.04,0.38,-0.12,79.88
10801,2.4099e+07,1,0.27,-1.9,357.04,-0.24965,0.042709,-0.33754,-0.03688,0.077923,-0.048368,-1.5974,-0.04,0.38,-0.12,79.88
10841,2.411e+07,1,0.27,-1.9,357.04,-0.24932,0.042466,-0.33734,-0.039274,0.077923,-0.048368,-1.5968,-0.04,0.39,-0.12,79.88
10879,2.412e+07,1,0.27,-1.9,357.04,-0.24975,0.042074,-0.3361,-0.039565,0.077923,-0.048368,-1.5965,-0.04,0.39,-0.12,79.88
10921,2.413e+07,1,0.27,-1.9,357.05,-0.25087,0.041839,-0.33617,-0.037839,0.077923,-0.048368,-1.5966,-0.04,0.39,-0.12,79.88
10963,2.4141e+07,1,0.27,-1.9,357.04,-0.25135,0.041483,-0.33555,-0.033728,0.077923,-0.048368,-1.6,-0.04,0.39,-0.12,79.88
11004,2.4151e+07,1,0.27,-1.9,357.04,-0.251,0.04184,-0.33501,-0.033513,0.077923,-0.048368,-1.6,-0.04,0.39,-0.12,79.88
11045,2.4161e+07,1,0.26,-1.89,357.04,-0.25183,0.042268,-0.33362,-0.031402,0.077923,-0.048368,-1.6005,-0.04,0.39,-0.12,79.88
11085,2.4171e+07,1,0.26,-1.89,357.04,-0.25263,0.042002,-0.33394,-0.034457,0.077923,-0.048368,-1.6008,-0.04,0.39,-0.12,79.88
11129,2.4181e+07,1,0.26,-1.89,357.04,-0.25322,0.042367,-0.33318,-0.038135,0.077923,-0.048368,-1.6012,-0.04,0.39,-0.12,79.88
11171,2.4191e+07,1,0.26,-1.89,357.03,-0.254,0.04291,-0.33201,-0.044546,0.077923,-0.048368,-1.6018,-0.04,0.39,-0.12,79.88
11211,2.4202e+07,1,0.26,-1.89,357.03,-0.25666,0.043396,-0.33109,-0.048961,0.077923,-0.048368,-1.6051,-0.04,0.39,-0.12,79.88
11252,2.4215e+07,1,0.27,-1.89,357.03,-0.25793,0.043534,-0.33371,-0.062902,0.077923,-0.048368,-1.6068,-0.04,0.39,-0.12,79.88
11290,2.4225e+07,1,0.27,-1.88,357.02,-0.25783,0.043209,-0.33393,-0.069546,0.077923,-0.048368,-1.6067,-0.04,0.39,-0.12,79.88
11331,2.4235e+07,1,0.27,-1.88,357.02,-0.25886,0.043283,-0.33344,-0.073821,0.077923,-0.048368,-1.6068,-0.04,0.39,-0.12,79.88
11372,2.4245e+07,1,0.27,-1.88,357.02,-0.2614,0.044536,-0.33285,-0.080988,0.077923,-0.048368,-1.6102,-0.04,0.39,-0.12,79.88
11413,2.4256e+07,1,0.27,-1.88,357.02,-0.26205,0.043952,-0.33071,-0.093273,0.077923,-0.048368,-1.6106,-0.04,0.38,-0.11,79.88
11454,2.4266e+07,1,0.27,-1.87,357.02,-0.26257,0.043046,-0.33046,-0.10398,0.077923,-0.048368,-1.6109,-0.04,0.38,-0.11,79.88
11496,2.4276e+07,1,0.27,-1.87,357.02,-0.26342,0.042515,-0.33096,-0.10903,0.077923,-0.048368,-1.6142,-0.04,0.38,-0.11,79.88
11540,2.4286e+07,1,0.27,-1.87,357.03,-0.26322,0.041157,-0.33106,-0.11291,0.077923,-0.048368,-1.6146,-0.04,0.39,-0.11,79.88
11585,2.4296e+07,1,0.27,-1.87,357.03,-0.26288,0.041307,-0.33151,-0.11752,0.077923,-0.048368,-1.6152,-0.04,0.39,-0.11,79.88
11625,2.4306e+07,1,0.26,-1.86,357.03,-0.26266,0.041618,-0.33033,-0.11795,0.055659,-0.048368,-1.616,-0.04,0.39,-0.11,79.88
11667,2.4317e+07,1,0.27,-1.86,357.03,-0.264,0.041011,-0.32939,-0.12134,0.055659,-0.048368,-1.6171,-0.04,0.39,-0.11,79.88
11710,2.433e+07,1,0.27,-1.86,357.03,-0.26358,0.039317,-0.32819,-0.12428,0.055659,-0.048368,-1.6174,-0.04,0.39,-0.11,79.88
11751,2.434e+07,1,0.27,-1.86,357.03,-0.26462,0.039494,-0.32692,-0.12249,0.055659,-0.048368,-1.6171,-0.04,0.39,-0.11,79.88
11793,2.4351e+07,1,0.27,-1.85,357.02,-0.26712,0.040156,-0.32629,-0.11455,0.055659,-0.048368,-1.6204,-0.04,0.39,-0.11,79.88
11834,2.4361e+07,1,0.27,-1.85,357.02,-0.26729,0.039583,-0.3263,-0.10781,0.055659,-0.048368,-1.6203,-0.04,0.39,-0.11,79.88
11875,2.4371e+07,1,0.27,-1.85,357.02,-0.26801,0.040292,-0.32576,-0.1003,0.055659,-0.048368,-1.6201,-0.04,0.39,-0.11,79.88
11920,2.4381e+07,1,0.27,-1.85,357.02,-0.26924,0.039837,-0.32711,-0.096783,0.055659,-0.048368,-1.62,-0.04,0.39,-0.11,79.88
11961,2.4392e+07,1,0.28,-1.85,357.02,-0.27086,0.040493,-0.32756,-0.093875,0.055659,-0.048368,-1.6234,-0.04,0.39,-0.11,79.88
12001,2.4403e+07,1,0.28,-1.85,357.02,-0.2716,0.039745,-0.32877,-0.093501,0.055659,-0.048368,-1.6238,-0.04,0.39,-0.11,79.88
12042,2.4413e+07,1,0.28,-1.85,357.02,-0.27142,0.038696,-0.32718,-0.091667,0.055659,-0.048368,-1.6241,-0.04,0.39,-0.11,79.88
12083,2.4423e+07,1,0.28,-1.84,357.02,-0.2731,0.038027,-0.32503,-0.089665,0.055659,-0.048368,-1.6244,-0.04,0.39,-0.11,79.88
12123,2.4433e+07,1,0.28,-1.85,357.02,-0.27379,0.037937,-0.32444,-0.090639,0.055659,-0.048368,-1.6277,-0.04,0.39,-0.11,79.88
12165,2.4443e+07,1,0.28,-1.84,357.02,-0.27429,0.037793,-0.32444,-0.086943,0.055659,-0.048368,-1.6265,-0.04,0.39,-0.11,79.88
12205,2.4453e+07,1,0.27,-1.84,357.02,-0.27472,0.037333,-0.32321,-0.077189,0.055659,-0.048368,-1.6254,-0.04,0.39,-0.11,79.88
12246,2.4463e+07,1,0.27,-1.84,357.02,-0.27513,0.037178,-0.32257,-0.072334,0.055659,-0.048368,-1.6246,-0.04,0.39,-0.11,79.88
12287,2.4473e+07,1,0.27,-1.84,357.02,-0.27543,0.035706,-0.3209,-0.065131,0.055659,-0.048368,-1.624,-0.04,0.39,-0.11,79.88
12338,2.4486e+07,1,0.27,-1.84,357.02,-0.27564,0.034298,-0.31698,-0.051782,0.055659,-0.048368,-1.6244,-0.04,0.39,-0.11,79.88
12379,2.4496e+07,1,0.27,-1.84,357.01,-0.27682,0.035062,-0.31686,-0.043213,0.055659,-0.048368,-1.6276,-0.04,0.39,-0.11,79.88
12420,2.4506e+07,1,0.27,-1.84,357.01,-0.2776,0.035226,-0.31711,-0.038596,0.055659,-0.048368,-1.6272,-0.04,0.39,-0.11,79.88
12461,2.4516e+07,1,0.27,-1.83,357.01,-0.2791,0.036358,-0.31512,-0.033181,0.055659,-0.048368,-1.6271,-0.04,0.39,-0.11,79.88
12501,2.4529e+07,1,0.27,-1.83,357.01,-0.27923,0.036591,-0.31512,-0.032494,0.055659,-0.048368,-1.6268,-0.04,0.39,-0.1,79.88
12539,2.4539e+07,1,0.27,-1.83,357,-0.27915,0.036453,-0.31261,-0.024201,0.055659,-0.048368,-1.6261,-0.04,0.39,-0.1,79.88
12583,2.4549e+07,1,0.27,-1.83,357,-0.28001,0.037255,-0.31164,-0.020062,0.033396,-0.048368,-1.6252,-0.04,0.39,-0.1,79.88
12623,2.4559e+07,1,0.27,-1.83,357,-0.28045,0.038496,-0.31086,-0.012318,0.033396,-0.048368,-1.6246,-0.04,0.39,-0.1,79.88
12665,2.4569e+07,1,0.27,-1.82,357,-0.28297,0.039762,-0.31067,-0.0027358,0.033396,-0.048368,-1.6277,-0.04,0.39,-0.1,79.88
12705,2.4579e+07,1,0.27,-1.82,357,-0.28367,0.040505,-0.31019,0.0037023,0.033396,-0.048368,-1.6272,-0.04,0.39,-0.1,79.88
12750,2.4589e+07,1,0.27,-1.82,357,-0.28415,0.040024,-0.30937,0.0064236,0.033396,-0.048368,-1.6269,-0.04,0.39,-0.1,79.88
12792,2.4599e+07,1,0.27,-1.82,357,-0.28459,0.041369,-0.30936,0.0063045,0.033396,-0.048368,-1.6268,-0.04,0.39,-0.1,79.88
12832,2.4609e+07,1,0.27,-1.81,357,-0.28549,0.041021,-0.30809,0.0043996,0.033396,-0.048368,-1.6299,-0.04,0.39,-0.1,79.88
12873,2.4619e+07,1,0.27,-1.81,357,-0.28503,0.040304,-0.30706,0.0008917,0.033396,-0.048368,-1.6298,-0.04,0.39,-0.1,79.88
12912,2.4633e+07,1,0.27,-1.8,357,-0.28667,0.039864,-0.3047,0.0021198,0.033396,-0.048368,-1.6294,-0.04,0.39,-0.1,79.88
12953,2.4642e+07,1,0.27,-1.81,357,-0.28659,0.039838,-0.30338,0.0065661,0.033396,-0.048368,-1.6283,-0.04,0.39,-0.1,79.88
12995,2.4653e+07,1,0.27,-1.81,357,-0.28703,0.040274,-0.30318,0.011558,0.033396,-0.048368,-1.6274,-0.04,0.39,-0.1,79.88
13035,2.4663e+07,1,0.27,-1.8,357,-0.28706,0.040468,-0.30365,0.014683,0.033396,-0.048368,-1.6267,-0.04,0.39,-0.1,79.88
13077,2.4673e+07,1,0.27,-1.81,357,-0.28759,0.040647,-0.30395,0.014535,0.033396,-0.048368,-1.6261,-0.04,0.39,-0.1,79.88
13117,2.4683e+07,1,0.27,-1.81,357,-0.28828,0.040352,-0.30307,0.01426,0.033396,-0.048368,-1.6258,-0.04,0.39,-0.1,79.88
13164,2.4694e+07,1,0.27,-1.8,357,-0.28965,0.03991,-0.30345,0.015104,0.011132,-0.048368,-1.6288,-0.04,0.39,-0.1,79.88
13204,2.4703e+07,1,0.27,-1.8,357,-0.29043,0.039264,-0.30158,0.007514,0.011132,-0.048368,-1.6286,-0.04,0.39,-0.1,79.88
13246,2.4713e+07,1,0.27,-1.8,357,-0.29002,0.041012,-0.30026,5.5644e-05,0.011132,-0.048368,-1.6285,-0.04,0.39,-0.1,79.88
13286,2.4724e+07,1,0.27,-1.8,357.01,-0.29187,0.041226,-0.30167,-0.0072901,0.011132,-0.048368,-1.6318,-0.04,0.39,-0.1,79.88
13326,2.4734e+07,1,0.27,-1.8,357.01,-0.29183,0.04249,-0.30138,-0.010464,0.011132,-0.048368,-1.6303,-0.04,0.39,-0.1,79.88
13363,2.4744e+07,1,0.27,-1.79,357.01,-0.29117,0.04236,-0.29985,-0.010774,0.011132,-0.048368,-1.6291,-0.04,0.39,-0.1,79.88
13404,2.4754e+07,1,0.27,-1.79,357.02,-0.29182,0.043205,-0.29893,-0.0092606,0.011132,-0.048368,-1.628,-0.04,0.39,-0.1,79.88
13445,2.4764e+07,1,0.27,-1.79,357.02,-0.29272,0.042423,-0.29816,-0.0070841,0.011132,-0.048368,-1.6271,-0.04,0.39,-0.1,79.88
13486,2.4774e+07,1,0.27,-1.79,357.02,-0.29409,0.042109,-0.29948,-0.0025879,0.011132,-0.048368,-1.6301,-0.04,0.39,-0.1,79.88
13527,2.4784e+07,1,0.27,-1.79,357.02,-0.29445,0.043072,-0.29765,-0.0013036,0.011132,-0.048368,-1.6294,-0.04,0.39,-0.1,79.88
13572,2.4794e+07,1,0.27,-1.78,357.03,-0.29522,0.042233,-0.29782,-0.0036075,0.011132,-0.048368,-1.6289,-0.04,0.39,-0.1,79.88
13613,2.4804e+07,1,0.27,-1.78,357.03,-0.29535,0.041539,-0.29629,-0.0045804,0.011132,-0.048368,-1.6285,-0.04,0.39,-0.1,79.88
13654,2.4814e+07,1,0.27,-1.78,357.03,-0.29693,0.04185,-0.29734,-0.0048725,0.011132,-0.048368,-1.6315,-0.04,0.39,-0.1,79.88
13694,2.4824e+07,1,0.27,-1.78,357.03,-0.29858,0.041595,-0.29766,-0.0075352,0.011132,-0.048368,-1.6313,-0.04,0.39,-0.1,79.88
13733,2.4834e+07,1,0.27,-1.77,357.03,-0.29831,0.040923,-0.29739,-0.013186,0.011132,-0.048368,-1.6303,-0.04,0.39,-0.1,79.88
13775,2.4844e+07,1,0.27,-1.76,357.03,-0.29708,0.040142,-0.29699,-0.017169,0.011132,-0.048368,-1.6293,-0.04,0.39,-0.1,79.88
13815,2.4854e+07,1,0.27,-1.76,357.02,-0.29872,0.040185,-0.29964,-0.017124,0.011132,-0.048368,-1.6323,-0.04,0.39,-0.1,79.88
13856,2.4864e+07,1,0.27,-1.77,357.02,-0.29736,0.03936,-0.29887,-0.013785,0.011132,-0.048368,-1.6315,-0.04,0.39,-0.1,79.88
13896,2.4874e+07,1,0.27,-1.76,357.02,-0.29774,0.039803,-0.29723,-0.011379,0.011132,-0.048368,-1.6308,-0.04,0.39,-0.1,79.88
13938,2.4884e+07,1,0.27,-1.77,357.02,-0.29823,0.040438,-0.29476,-0.0056709,0.011132,-0.048368,-1.6304,-0.04,0.39,-0.1,79.88
13986,2.4894e+07,1,0.28,-1.77,357.02,-0.30004,0.04114,-0.29449,-0.0040611,-0.011132,-0.040306,-1.6301,-0.04,0.39,-0.1,79.88
14026,2.4904e+07,1,0.28,-1.77,357.03,-0.30049,0.041541,-0.29264,-0.0044521,-0.011132,-0.040306,-1.6299,-0.04,0.39,-0.1,79.88
14067,2.4914e+07,1,0.28,-1.76,357.03,-0.30247,0.041192,-0.29522,-0.0071081,-0.011132,-0.040306,-1.6329,-0.04,0.39,-0.1,79.88
14107,2.4925e+07,1,0.28,-1.76,357.02,-0.304,0.040469,-0.29416,-0.0096486,-0.011132,-0.040306,-1.6329,-0.04,0.39,-0.1,79.88
14142,2.4935e+07,1,0.28,-1.76,357.02,-0.30478,0.040736,-0.29304,-0.011681,-0.011132,-0.040306,-1.6319,-0.04,0.4,-0.1,79.88
14184,2.4945e+07,1,0.28,-1.76,357.03,-0.30473,0.040437,-0.29157,-0.010153,-0.011132,-0.040306,-1.6307,-0.04,0.4,-0.1,79.88
14224,2.4955e+07,1,0.27,-1.77,357.02,-0.3061,0.040546,-0.29135,-0.010557,-0.011132,-0.040306,-1.6298,-0.04,0.4,-0.1,79.88
14265,2.4966e+07,1,0.27,-1.76,357.02,-0.3085,0.038924,-0.29194,-0.0064807,-0.011132,-0.040306,-1.6327,-0.04,0.4,-0.1,79.88
14305,2.4975e+07,1,0.28,-1.76,357.02,-0.30892,0.038141,-0.29155,-0.0026834,-0.011132,-0.040306,-1.632,-0.04,0.4,-0.1,79.88
14348,2.4985e+07,1,0.28,-1.76,357.02,-0.31047,0.038724,-0.29011,-0.00031712,-0.011132,-0.040306,-1.6314,-0.04,0.4,-0.1,79.88
14392,2.4995e+07,1,0.28,-1.76,357.01,-0.31171,0.03972,-0.28938,0.00029381,-0.011132,-0.040306,-1.631,-0.04,0.4,-0.1,79.88
14433,2.5005e+07,1,0.27,-1.76,357.01,-0.31225,0.038143,-0.28692,-0.00033463,-0.011132,-0.040306,-1.6307,-0.04,0.4,-0.1,79.88
14474,2.5016e+07,1,0.27,-1.76,357.02,-0.31295,0.037925,-0.28445,0.0011538,-0.011132,-0.040306,-1.6306,-0.04,0.4,-0.1,79.88
14516,2.5032e+07,1,0.27,-1.76,357.02,-0.31376,0.038249,-0.2816,0.0036456,-0.011132,-0.040306,-1.6311,-0.04,0.4,-0.1,79.88
14557,2.5042e+07,1,0.27,-1.76,357.02,-0.31523,0.037053,-0.28045,0.0023357,-0.011132,-0.040306,-1.63,-0.04,0.4,-0.1,79.88
14598,2.5052e+07,1,0.27,-1.76,357.02,-0.31474,0.036613,-0.2792,0.0062078,-0.011132,-0.040306,-1.6291,-0.04,0.4,-0.1,79.88
14639,2.5062e+07,1,0.27,-1.76,357.03,-0.31718,0.036592,-0.28094,0.010383,-0.011132,-0.040306,-1.6319,-0.04,0.4,-0.1,79.88
14679,2.5073e+07,1,0.27,-1.75,357.03,-0.31525,0.037071,-0.28242,0.011312,-0.011132,-0.040306,-1.6315,-0.04,0.4,-0.1,79.88
14720,2.5083e+07,1,0.26,-1.75,357.04,-0.3177,0.037475,-0.28221,0.0083257,-0.011132,-0.040306,-1.6309,-0.04,0.4,-0.1,79.88
14765,2.5093e+07,1,0.26,-1.75,357.04,-0.32034,0.037956,-0.28202,0.0041233,-0.011132,-0.040306,-1.6338,-0.04,0.4,-0.1,79.88
14808,2.5103e+07,1,0.26,-1.75,357.04,-0.32189,0.037444,-0.27947,0.00104,-0.044528,-0.048368,-1.6334,-0.04,0.4,-0.1,79.88
14850,2.5113e+07,1,0.27,-1.74,357.04,-0.32275,0.03691,-0.27949,-0.0018555,-0.044528,-0.048368,-1.6331,-0.04,0.4,-0.1,79.88
14895,2.5126e+07,1,0.27,-1.75,357.04,-0.32395,0.038149,-0.27726,-0.005769,-0.044528,-0.048368,-1.6338,-0.04,0.4,-0.1,79.88
14936,2.5136e+07,1,0.27,-1.75,357.05,-0.32416,0.037941,-0.2768,-0.0077664,-0.044528,-0.048368,-1.6326,-0.04,0.4,-0.1,79.88
14976,2.5147e+07,1,0.27,-1.75,357.05,-0.32543,0.038271,-0.27579,-0.012313,-0.044528,-0.048368,-1.6356,-0.04,0.4,-0.1,79.88
15017,2.5157e+07,1,0.27,-1.75,357.05,-0.32579,0.03718,-0.2737,-0.014553,-0.044528,-0.048368,-1.6345,-0.04,0.4,-0.1,79.88
15059,2.5168e+07,1,0.27,-1.74,357.05,-0.32591,0.038307,-0.27373,-0.020302,-0.044528,-0.048368,-1.6338,-0.04,0.4,-0.1,79.88
15099,2.5178e+07,1,0.27,-1.74,357.06,-0.32595,0.039192,-0.27234,-0.018548,-0.044528,-0.048368,-1.633,-0.04,0.4,-0.1,79.88
15140,2.5188e+07,1,0.27,-1.74,357.06,-0.32716,0.039541,-0.27148,-0.017896,-0.044528,-0.048368,-1.6357,-0.04,0.4,-0.1,79.88
15185,2.5198e+07,1,0.27,-1.74,357.06,-0.32756,0.039298,-0.27045,-0.01827,-0.044528,-0.048368,-1.6351,-0.04,0.4,-0.1,79.88
15227,2.5208e+07,1,0.27,-1.74,357.07,-0.32749,0.040435,-0.2685,-0.021358,-0.044528,-0.048368,-1.6346,-0.04,0.39,-0.1,79.88
15267,2.5218e+07,1,0.27,-1.74,357.07,-0.3277,0.039754,-0.26826,-0.024956,-0.044528,-0.048368,-1.6342,-0.04,0.39,-0.1,79.88
15308,2.5228e+07,1,0.27,-1.74,357.08,-0.32959,0.040862,-0.26745,-0.024014,-0.044528,-0.048368,-1.6369,-0.04,0.39,-0.1,79.88
15346,2.5239e+07,1,0.27,-1.74,357.08,-0.33159,0.041061,-0.26615,-0.025059,-0.044528,-0.048368,-1.6369,-0.04,0.39,-0.1,79.88
15386,2.5248e+07,1,0.27,-1.73,357.08,-0.33081,0.040583,-0.26483,-0.021035,-0.044528,-0.048368,-1.6356,-0.04,0.4,-0.1,79.88
15427,2.5259e+07,1,0.27,-1.73,357.08,-0.32991,0.040171,-0.2642,-0.018635,-0.044528,-0.048368,-1.6347,-0.04,0.4,-0.09,79.88
15467,2.5269e+07,1,0.27,-1.73,357.08,-0.33042,0.040406,-0.26364,-0.016518,-0.044528,-0.048368,-1.6343,-0.04,0.4,-0.09,79.88
15515,2.5281e+07,1,0.27,-1.73,357.08,-0.3313,0.040286,-0.26349,-0.012842,-0.055659,-0.048368,-1.6345,-0.04,0.4,-0.09,79.88
15558,2.5291e+07,1,0.27,-1.73,357.08,-0.33245,0.040687,-0.26375,-0.013965,-0.055659,-0.048368,-1.6341,-0.04,0.4,-0.09,79.88
15606,2.5302e+07,1,0.26,-1.73,357.08,-0.33411,0.040216,-0.263,-0.011223,-0.055659,-0.048368,-1.6368,-0.04,0.4,-0.09,79.88
15647,2.5312e+07,1,0.27,-1.73,357.08,-0.3351,0.040357,-0.26139,-0.010489,-0.055659,-0.048368,-1.6365,-0.04,0.4,-0.09,79.88
15687,2.5322e+07,1,0.27,-1.73,357.07,-0.33545,0.040218,-0.26186,-0.010881,-0.055659,-0.048368,-1.6364,-0.04,0.4,-0.09,79.88
15732,2.5334e+07,1,0.26,-1.74,357.08,-0.33523,0.040735,-0.26275,-0.010366,-0.055659,-0.048368,-1.6361,-0.04,0.4,-0.09,79.88
15772,2.5344e+07,1,0.26,-1.74,357.08,-0.3353,0.041157,-0.26046,-0.0056439,-0.055659,-0.048368,-1.6349,-0.04,0.4,-0.09,79.88
15813,2.5355e+07,1,0.26,-1.74,357.08,-0.33581,0.041271,-0.25914,-0.0037346,-0.055659,-0.048368,-1.6344,-0.04,0.4,-0.09,79.88
15854,2.5365e+07,1,0.26,-1.74,357.08,-0.33515,0.040763,-0.25791,-0.0025651,-0.055659,-0.048368,-1.6338,-0.04,0.4,-0.09,79.88
15894,2.5375e+07,1,0.26,-1.74,357.08,-0.33701,0.039757,-0.25935,-0.0007632,-0.055659,-0.048368,-1.6363,-0.04,0.4,-0.09,79.88
15936,2.5385e+07,1,0.26,-1.74,357.08,-0.33773,0.038381,-0.25877,5.5626e-05,-0.055659,-0.048368,-1.6359,-0.04,0.4,-0.09,79.88
15982,2.5395e+07,1,0.26,-1.73,357.08,-0.33904,0.039475,-0.25877,-0.0065714,-0.055659,-0.048368,-1.6385,-0.04,0.4,-0.09,79.88
16022,2.5405e+07,1,0.26,-1.73,357.08,-0.3394,0.038361,-0.25682,-0.015576,-0.055659,-0.048368,-1.6383,-0.04,0.39,-0.09,79.88
16063,2.5415e+07,1,0.26,-1.73,357.07,-0.33977,0.039086,-0.25761,-0.023847,-0.055659,-0.048368,-1.6381,-0.04,0.4,-0.09,79.88
16104,2.5425e+07,1,0.26,-1.73,357.07,-0.34093,0.039007,-0.25681,-0.03061,-0.055659,-0.048368,-1.638,-0.04,0.4,-0.09,79.88
16145,2.5435e+07,1,0.26,-1.73,357.07,-0.34281,0.039723,-0.2567,-0.033857,-0.055659,-0.048368,-1.6405,-0.04,0.4,-0.09,79.88
16185,2.5446e+07,1,0.26,-1.73,357.07,-0.34249,0.040249,-0.25766,-0.038675,-0.055659,-0.048368,-1.6406,-0.04,0.4,-0.09,79.88
16223,2.5456e+07,1,0.26,-1.72,357.06,-0.34207,0.040145,-0.25825,-0.042135,-0.055659,-0.048368,-1.6398,-0.04,0.4,-0.09,79.88
16263,2.5465e+07,1,0.26,-1.72,357.06,-0.34233,0.039424,-0.25844,-0.042945,-0.055659,-0.048368,-1.6391,-0.04,0.4,-0.09,79.88
16304,2.5475e+07,1,0.26,-1.72,357.06,-0.34136,0.039337,-0.25643,-0.041968,-0.055659,-0.048368,-1.6386,-0.04,0.4,-0.09,79.88
16345,2.5485e+07,1,0.26,-1.72,357.06,-0.34273,0.040783,-0.25877,-0.041042,-0.055659,-0.048368,-1.6412,-0.04,0.4,-0.09,79.88
16392,2.5495e+07,1,0.26,-1.72,357.06,-0.34273,0.04042,-0.25911,-0.039085,-0.055659,-0.048368,-1.6409,-0.04,0.4,-0.09,79.88
16435,2.5505e+07,1,0.26,-1.71,357.05,-0.34315,0.040865,-0.25665,-0.034156,-0.077923,-0.048368,-1.6408,-0.04,0.4,-0.09,79.88
16476,2.5515e+07,1,0.26,-1.71,357.05,-0.34415,0.040779,-0.25367,-0.03013,-0.077923,-0.048368,-1.6408,-0.04,0.4,-0.09,79.88
16517,2.5525e+07,1,0.26,-1.71,357.05,-0.34455,0.04033,-0.2535,-0.030428,-0.077923,-0.048368,-1.6408,-0.04,0.4,-0.09,79.88
16555,2.5538e+07,1,0.26,-1.71,357.05,-0.34529,0.039533,-0.25378,-0.032336,-0.077923,-0.048368,-1.64,-0.04,0.4,-0.09,79.88
16596,2.5549e+07,1,0.25,-1.7,357.05,-0.34621,0.039643,-0.25166,-0.028863,-0.077923,-0.048368,-1.6391,-0.04,0.4,-0.09,79.88
16637,2.5559e+07,1,0.26,-1.7,357.05,-0.34827,0.04065,-0.2493,-0.019689,-0.077923,-0.048368,-1.6416,-0.04,0.4,-0.09,79.88
16677,2.5569e+07,1,0.26,-1.7,357.05,-0.34747,0.040612,-0.2485,-0.013858,-0.077923,-0.048368,-1.6406,-0.04,0.4,-0.09,79.88
16718,2.5579e+07,1,0.26,-1.7,357.05,-0.3469,0.040101,-0.24618,-0.0063752,-0.077923,-0.048368,-1.6398,-0.04,0.4,-0.09,79.88
16759,2.5589e+07,1,0.26,-1.7,357.05,-0.34661,0.040697,-0.24423,-0.0016139,-0.077923,-0.048368,-1.6391,-0.04,0.4,-0.09,79.88
16804,2.5599e+07,1,0.26,-1.69,357.04,-0.34816,0.039514,-0.2454,-3.5517e-05,-0.077923,-0.048368,-1.6415,-0.04,0.4,-0.09,79.88
16846,2.5609e+07,1,0.26,-1.69,357.04,-0.34898,0.041002,-0.24352,2.2654e-05,-0.077923,-0.048368,-1.6409,-0.04,0.4,-0.09,79.88
16889,2.5619e+07,1,0.26,-1.69,357.05,-0.34997,0.039785,-0.24356,-0.0030065,-0.077923,-0.048368,-1.6405,-0.04,0.4,-0.09,79.88
16930,2.5629e+07,1,0.25,-1.69,357.05,-0.35223,0.040191,-0.24378,-0.0054697,-0.077923,-0.048368,-1.6429,-0.04,0.4,-0.09,79.88
16970,2.5642e+07,1,0.25,-1.68,357.05,-0.35304,0.041045,-0.2413,-0.0083503,-0.077923,-0.048368,-1.6433,-0.04,0.4,-0.08,79.88
17011,2.5652e+07,1,0.25,-1.68,357.05,-0.3536,0.042328,-0.2395,-0.0055131,-0.077923,-0.048368,-1.6415,-0.04,0.4,-0.08,79.88
17052,2.5662e+07,1,0.25,-1.67,357.05,-0.35382,0.042191,-0.23985,0.0019052,-0.077923,-0.048368,-1.6399,-0.04,0.4,-0.08,79.88
17092,2.5672e+07,1,0.26,-1.67,357.05,-0.35321,0.040548,-0.24032,0.0097212,-0.077923,-0.048368,-1.6384,-0.04,0.4,-0.08,79.88
17135,2.5683e+07,1,0.26,-1.68,357.05,-0.35466,0.04011,-0.23979,0.013726,-0.077923,-0.048368,-1.6411,-0.04,0.4,-0.08,79.88
17176,2.5693e+07,1,0.26,-1.67,357.05,-0.35504,0.040793,-0.23913,0.0083876,-0.089055,-0.048368,-1.6397,-0.04,0.39,-0.08,79.88
17221,2.5703e+07,1,0.26,-1.67,357.05,-0.35491,0.041287,-0.23779,0.010548,-0.089055,-0.048368,-1.6386,-0.04,0.4,-0.08,79.88
17262,2.5713e+07,1,0.26,-1.67,357.04,-0.35624,0.04142,-0.23666,0.013231,-0.089055,-0.048368,-1.6376,-0.04,0.4,-0.08,79.88
17303,2.5724e+07,1,0.25,-1.67,357.04,-0.35764,0.042224,-0.23803,0.017166,-0.089055,-0.048368,-1.6402,-0.04,0.4,-0.08,79.88
17347,2.5736e+07,1,0.25,-1.67,357.04,-0.35684,0.043123,-0.23443,0.022055,-0.089055,-0.048368,-1.6372,-0.04,0.4,-0.08,79.88
17388,2.5747e+07,1,0.26,-1.67,357.04,-0.35856,0.043298,-0.23376,0.026414,-0.089055,-0.048368,-1.6395,-0.04,0.4,-0.08,79.88
17429,2.5757e+07,1,0.26,-1.67,357.04,-0.35888,0.042309,-0.23364,0.031092,-0.089055,-0.048368,-1.6374,-0.04,0.4,-0.08,79.88
17469,2.5768e+07,1,0.25,-1.66,357.04,-0.35942,0.04292,-0.2341,0.033413,-0.089055,-0.048368,-1.6358,-0.04,0.4,-0.08,79.88
17510,2.5777e+07,1,0.25,-1.66,357.04,-0.35912,0.043141,-0.23396,0.03557,-0.089055,-0.048368,-1.6341,-0.04,0.4,-0.08,79.88
17552,2.5787e+07,1,0.25,-1.67,357.04,-0.3607,0.043087,-0.23314,0.044402,-0.089055,-0.048368,-1.6365,-0.04,0.4,-0.08,79.88
17592,2.5798e+07,1,0.25,-1.67,357.04,-0.35996,0.043665,-0.23268,0.051791,-0.089055,-0.048368,-1.635,-0.04,0.4,-0.08,79.88
17637,2.5808e+07,1,0.25,-1.67,357.04,-0.35997,0.043692,-0.23097,0.05491,-0.089055,-0.048368,-1.6337,-0.04,0.4,-0.08,79.88
17677,2.5818e+07,1,0.25,-1.67,357.04,-0.35965,0.042275,-0.23021,0.058202,-0.089055,-0.048368,-1.6325,-0.04,0.4,-0.08,79.88
17719,2.5828e+07,1,0.25,-1.67,357.05,-0.35987,0.043442,-0.23064,0.059149,-0.089055,-0.048368,-1.6316,-0.04,0.4,-0.08,79.88
17762,2.5841e+07,1,0.25,-1.67,357.05,-0.36122,0.04352,-0.22782,0.067524,-0.089055,-0.048368,-1.6296,-0.04,0.4,-0.08,79.88
17801,2.5851e+07,1,0.25,-1.67,357.05,-0.36084,0.043587,-0.22633,0.075106,-0.089055,-0.048368,-1.6272,-0.04,0.4,-0.08,79.88
17842,2.5862e+07,1,0.24,-1.68,357.05,-0.36081,0.044001,-0.22402,0.089759,-0.089055,-0.048368,-1.6252,-0.04,0.4,-0.08,79.88
17882,2.5872e+07,1,0.25,-1.68,357.05,-0.36386,0.043625,-0.22204,0.10558,-0.089055,-0.048368,-1.6274,-0.04,0.4,-0.08,79.88
17923,2.5882e+07,1,0.25,-1.67,357.05,-0.36505,0.044148,-0.22217,0.11475,-0.089055,-0.048368,-1.6254,-0.04,0.4,-0.08,79.88
17965,2.5892e+07,1,0.25,-1.67,357.05,-0.36534,0.045704,-0.22166,0.12549,-0.10019,-0.048368,-1.6236,-0.04,0.41,-0.08,79.88
18011,2.5902e+07,1,0.25,-1.68,357.05,-0.36593,0.04619,-0.22058,0.13335,-0.10019,-0.048368,-1.622,-0.04,0.41,-0.08,79.88
18051,2.5912e+07,1,0.25,-1.67,357.05,-0.3683,0.045897,-0.21857,0.1344,-0.10019,-0.048368,-1.6242,-0.04,0.41,-0.08,79.88
18091,2.5922e+07,1,0.25,-1.67,357.04,-0.36844,0.045357,-0.21789,0.13123,-0.10019,-0.048368,-1.6227,-0.04,0.4,-0.08,79.88
18134,2.5932e+07,1,0.25,-1.67,357.05,-0.36898,0.045385,-0.21536,0.12472,-0.10019,-0.048368,-1.6213,-0.04,0.4,-0.08,79.88
18177,2.5945e+07,1,0.25,-1.67,357.04,-0.36919,0.046557,-0.21501,0.11854,-0.10019,-0.048368,-1.6191,-0.04,0.4,-0.08,79.88
18215,2.5955e+07,1,0.25,-1.67,357.05,-0.36966,0.046239,-0.21383,0.11633,-0.10019,-0.048368,-1.6165,-0.04,0.4,-0.08,79.88
18256,2.5965e+07,1,0.24,-1.66,357.05,-0.37165,0.047301,-0.21488,0.12021,-0.10019,-0.048368,-1.6189,-0.04,0.4,-0.08,79.88
18296,2.5975e+07,1,0.24,-1.66,357.05,-0.37165,0.046898,-0.21459,0.12436,-0.10019,-0.048368,-1.6165,-0.04,0.4,-0.08,79.88
18338,2.5985e+07,1,0.24,-1.66,357.05,-0.37458,0.046961,-0.21397,0.11826,-0.10019,-0.048368,-1.6186,-0.04,0.4,-0.08,79.88
18379,2.5996e+07,1,0.24,-1.66,357.05,-0.37426,0.047782,-0.21377,0.11293,-0.10019,-0.048368,-1.6164,-0.04,0.4,-0.07,79.88
18424,2.6006e+07,1,0.24,-1.66,357.05,-0.37423,0.047838,-0.2141,0.10996,-0.10019,-0.048368,-1.6143,-0.04,0.4,-0.07,79.88
18464,2.6016e+07,1,0.25,-1.66,357.05,-0.37494,0.047482,-0.21363,0.10696,-0.10019,-0.048368,-1.6125,-0.04,0.4,-0.07,79.88
18505,2.6026e+07,1,0.25,-1.65,357.05,-0.37606,0.047161,-0.21241,0.10546,-0.10019,-0.048368,-1.6109,-0.04,0.4,-0.07,79.88
18546,2.6036e+07,1,0.25,-1.65,357.05,-0.37798,0.047616,-0.21241,0.10641,-0.10019,-0.048368,-1.6133,-0.04,0.4,-0.07,79.88
18588,2.6046e+07,1,0.25,-1.65,357.06,-0.37874,0.046317,-0.21055,0.10692,-0.10019,-0.048368,-1.6118,-0.04,0.4,-0.07,79.88
18626,2.6057e+07,1,0.25,-1.66,357.05,-0.37794,0.048535,-0.20869,0.10733,-0.10019,-0.048368,-1.6093,-0.04,0.4,-0.07,79.88
18667,2.6067e+07,1,0.25,-1.66,357.05,-0.37737,0.049485,-0.2072,0.11324,-0.10019,-0.048368,-1.6071,-0.04,0.4,-0.07,79.88
18708,2.6077e+07,1,0.24,-1.66,357.05,-0.37714,0.049823,-0.20653,0.11193,-0.10019,-0.048368,-1.6051,-0.04,0.4,-0.07,79.88
18749,2.6087e+07,1,0.24,-1.66,357.05,-0.38041,0.050013,-0.20567,0.11591,-0.10019,-0.048368,-1.6074,-0.04,0.4,-0.07,79.88
18792,2.6098e+07,1,0.24,-1.66,357.05,-0.37955,0.050098,-0.20461,0.11632,-0.10019,-0.048368,-1.6055,-0.04,0.4,-0.07,79.88
18837,2.6108e+07,1,0.24,-1.66,357.06,-0.38001,0.050285,-0.20497,0.11513,-0.10019,-0.048368,-1.6038,-0.04,0.4,-0.07,79.88
18880,2.6118e+07,1,0.24,-1.66,357.05,-0.38066,0.049363,-0.20295,0.1138,-0.10019,-0.048368,-1.6024,-0.04,0.4,-0.07,79.88
18921,2.6128e+07,1,0.24,-1.65,357.05,-0.38122,0.049158,-0.20192,0.11075,-0.10019,-0.048368,-1.601,-0.04,0.4,-0.07,79.88
18962,2.6138e+07,1,0.24,-1.65,357.05,-0.3819,0.049056,-0.20407,0.10663,-0.10019,-0.048368,-1.6033,-0.04,0.4,-0.07,79.88
19002,2.6149e+07,1,0.24,-1.65,357.06,-0.3816,0.049343,-0.2017,0.10346,-0.10019,-0.048368,-1.6021,-0.04,0.4,-0.07,79.88
19037,2.6159e+07,1,0.24,-1.65,357.06,-0.38196,0.048788,-0.19929,0.10021,-0.10019,-0.048368,-1.5999,-0.04,0.4,-0.07,79.88
19078,2.6169e+07,1,0.24,-1.65,357.06,-0.38289,0.048795,-0.19765,0.099193,-0.10019,-0.048368,-1.5978,-0.04,0.4,-0.07,79.88
19119,2.6179e+07,1,0.24,-1.65,357.06,-0.38402,0.049142,-0.19642,0.099029,-0.10019,-0.048368,-1.596,-0.04,0.4,-0.07,79.88
19161,2.619e+07,1,0.24,-1.64,357.06,-0.38363,0.047848,-0.19281,0.10482,-0.10019,-0.048368,-1.5945,-0.04,0.41,-0.07,79.88
19201,2.62e+07,1,0.24,-1.64,357.06,-0.38531,0.047346,-0.19235,0.10915,-0.10019,-0.048368,-1.5964,-0.04,0.41,-0.07,79.88
19246,2.621e+07,1,0.24,-1.64,357.06,-0.38525,0.047275,-0.19004,0.11157,-0.10019,-0.048368,-1.5949,-0.04,0.41,-0.07,79.88
19286,2.622e+07,1,0.24,-1.63,357.06,-0.38594,0.047224,-0.18914,0.11111,-0.10019,-0.048368,-1.5935,-0.04,0.41,-0.07,79.88
19327,2.623e+07,1,0.24,-1.63,357.06,-0.38578,0.046711,-0.18875,0.10863,-0.10019,-0.048368,-1.5924,-0.04,0.41,-0.07,79.88
19368,2.624e+07,1,0.24,-1.63,357.06,-0.38537,0.046157,-0.18761,0.10374,-0.10019,-0.048368,-1.5913,-0.04,0.41,-0.07,79.88
19410,2.6256e+07,1,0.24,-1.63,357.07,-0.38671,0.046194,-0.18645,0.098213,-0.10019,-0.048368,-1.5904,-0.04,0.41,-0.07,79.88
19451,2.6266e+07,1,0.24,-1.63,357.07,-0.38626,0.047206,-0.18525,0.098772,-0.10019,-0.048368,-1.5886,-0.04,0.41,-0.07,79.88
19491,2.6276e+07,1,0.24,-1.63,357.07,-0.38633,0.046884,-0.18421,0.097449,-0.10019,-0.048368,-1.587,-0.04,0.41,-0.07,79.88
19533,2.6286e+07,1,0.24,-1.64,357.07,-0.38807,0.047529,-0.18398,0.099296,-0.10019,-0.048368,-1.5888,-0.04,0.41,-0.07,79.88
19574,2.6296e+07,1,0.24,-1.63,357.07,-0.38878,0.047052,-0.18456,0.097232,-0.10019,-0.048368,-1.5876,-0.04,0.41,-0.07,79.88
19618,2.6307e+07,1,0.24,-1.64,357.07,-0.38977,0.04661,-0.18469,0.097564,-0.11132,-0.048368,-1.5863,-0.04,0.41,-0.07,79.88
19662,2.6316e+07,1,0.24,-1.63,357.07,-0.38993,0.04844,-0.18308,0.096441,-0.11132,-0.048368,-1.5852,-0.04,0.41,-0.07,79.88
19704,2.6326e+07,1,0.24,-1.63,357.07,-0.3899,0.048929,-0.18064,0.09477,-0.11132,-0.048368,-1.5842,-0.04,0.41,-0.07,79.88
19744,2.6336e+07,1,0.24,-1.63,357.06,-0.3917,0.049045,-0.18042,0.088611,-0.11132,-0.048368,-1.586,-0.04,0.41,-0.07,79.88
19792,2.6352e+07,1,0.25,-1.63,357.06,-0.3894,0.048293,-0.18005,0.080143,-0.11132,-0.048368,-1.5825,-0.04,0.41,-0.07,79.88
19835,2.6362e+07,1,0.25,-1.63,357.06,-0.39139,0.048069,-0.17957,0.076039,-0.11132,-0.048368,-1.5843,-0.04,0.41,-0.07,79.88
19875,2.6372e+07,1,0.25,-1.63,357.06,-0.3907,0.047111,-0.17764,0.073405,-0.11132,-0.048368,-1.5828,-0.04,0.41,-0.07,79.88
19916,2.6382e+07,1,0.24,-1.63,357.06,-0.39129,0.048071,-0.17646,0.069961,-0.11132,-0.048368,-1.5815,-0.04,0.41,-0.07,79.88
19957,2.6393e+07,1,0.24,-1.63,357.05,-0.39272,0.048931,-0.1752,0.067849,-0.11132,-0.048368,-1.5802,-0.04,0.41,-0.07,79.88
19997,2.6403e+07,1,0.24,-1.63,357.05,-0.3935,0.048758,-0.17367,0.064722,-0.11132,-0.048368,-1.5791,-0.04,0.41,-0.07,79.88
20042,2.6413e+07,1,0.24,-1.63,357.05,-0.39491,0.049897,-0.17288,0.064325,-0.11132,-0.048368,-1.5809,-0.04,0.41,-0.07,79.88
20082,2.6423e+07,1,0.24,-1.63,357.05,-0.39602,0.049945,-0.1729,0.06081,-0.11132,-0.048368,-1.5799,-0.04,0.41,-0.07,79.88
20124,2.6433e+07,1,0.24,-1.63,357.04,-0.39517,0.04949,-0.17267,0.057226,-0.11132,-0.048368,-1.579,-0.04,0.41,-0.07,79.88
20167,2.6446e+07,1,0.23,-1.62,357.04,-0.39543,0.048921,-0.16993,0.055638,-0.11132,-0.048368,-1.5788,-0.04,0.41,-0.07,79.88
20205,2.6456e+07,1,0.24,-1.62,357.04,-0.39361,0.048988,-0.16866,0.05548,-0.11132,-0.048368,-1.5768,-0.04,0.42,-0.06,79.88
20246,2.6467e+07,1,0.24,-1.62,357.04,-0.39525,0.048963,-0.16895,0.051233,-0.11132,-0.048368,-1.5787,-0.04,0.42,-0.06,79.88
20287,2.6477e+07,1,0.24,-1.62,357.04,-0.39523,0.049093,-0.16665,0.050993,-0.11132,-0.048368,-1.5768,-0.04,0.41,-0.06,79.88
20329,2.6487e+07,1,0.24,-1.62,357.04,-0.3948,0.048589,-0.16504,0.055443,-0.11132,-0.048368,-1.5751,-0.04,0.41,-0.06,79.88
20369,2.6497e+07,1,0.24,-1.63,357.03,-0.39389,0.048452,-0.16457,0.054959,-0.11132,-0.048368,-1.5735,-0.04,0.41,-0.06,79.88
20412,2.6507e+07,1,0.23,-1.63,357.03,-0.39392,0.047633,-0.16281,0.056541,-0.12245,-0.048368,-1.5721,-0.04,0.41,-0.06,79.88
20459,2.6518e+07,1,0.23,-1.63,357.03,-0.39391,0.04683,-0.16149,0.060566,-0.12245,-0.048368,-1.571,-0.04,0.41,-0.06,79.88
20500,2.6528e+07,1,0.23,-1.63,357.03,-0.39501,0.047489,-0.1622,0.063786,-0.12245,-0.048368,-1.5726,-0.04,0.41,-0.06,79.88
20541,2.6538e+07,1,0.24,-1.63,357.03,-0.39625,0.048273,-0.15935,0.068546,-0.12245,-0.048368,-1.5715,-0.04,0.41,-0.06,79.88
20581,2.6548e+07,1,0.23,-1.63,357.03,-0.39621,0.048771,-0.15996,0.06925,-0.12245,-0.048368,-1.5705,-0.04,0.42,-0.06,79.88
20619,2.6558e+07,1,0.24,-1.64,357.02,-0.39542,0.048843,-0.15887,0.072057,-0.12245,-0.048368,-1.5686,-0.04,0.42,-0.06,79.88
20659,2.6568e+07,1,0.23,-1.64,357.02,-0.3945,0.048038,-0.15829,0.070469,-0.12245,-0.048368,-1.5668,-0.04,0.42,-0.06,79.88
20701,2.6578e+07,1,0.23,-1.64,357.01,-0.39664,0.047081,-0.15822,0.073893,-0.12245,-0.048368,-1.5684,-0.04,0.42,-0.06,79.88
20742,2.6588e+07,1,0.23,-1.63,357.01,-0.39638,0.046682,-0.15762,0.076367,-0.12245,-0.048368,-1.5668,-0.04,0.42,-0.06,79.88
20782,2.6599e+07,1,0.23,-1.63,357.01,-0.39582,0.045593,-0.15739,0.074259,-0.12245,-0.048368,-1.5653,-0.04,0.41,-0.06,79.88
20826,2.6608e+07,1,0.23,-1.63,357.01,-0.39654,0.046507,-0.1561,0.073968,-0.12245,-0.048368,-1.5639,-0.04,0.41,-0.06,79.88
20870,2.6619e+07,1,0.23,-1.63,357.01,-0.39848,0.046364,-0.15568,0.075805,-0.12245,-0.048368,-1.5656,-0.04,0.41,-0.06,79.88
20911,2.6629e+07,1,0.23,-1.63,357.01,-0.3996,0.04592,-0.15289,0.077064,-0.12245,-0.048368,-1.5644,-0.04,0.41,-0.06,79.88
20952,2.6639e+07,1,0.23,-1.63,357.01,-0.40001,0.045316,-0.15076,0.077265,-0.12245,-0.048368,-1.5633,-0.04,0.41,-0.06,79.88
20993,2.6649e+07,1,0.23,-1.63,357.02,-0.4004,0.044417,-0.14948,0.074725,-0.12245,-0.048368,-1.5623,-0.04,0.41,-0.06,79.88
21037,2.6662e+07,1,0.23,-1.63,357.02,-0.39914,0.044473,-0.14912,0.07312,-0.12245,-0.048368,-1.5605,-0.04,0.42,-0.06,79.88
21077,2.6672e+07,1,0.23,-1.63,357.02,-0.39912,0.044935,-0.1478,0.073904,-0.12245,-0.048368,-1.5583,-0.04,0.42,-0.06,79.88
21118,2.6682e+07,1,0.23,-1.62,357.02,-0.40143,0.044803,-0.14652,0.081107,-0.12245,-0.048368,-1.5598,-0.04,0.42,-0.06,79.88
21161,2.6692e+07,1,0.23,-1.62,357.02,-0.40185,0.044615,-0.14582,0.086185,-0.13358,-0.048368,-1.5578,-0.04,0.42,-0.06,79.88
21202,2.6703e+07,1,0.23,-1.62,357.02,-0.40233,0.043845,-0.14396,0.091885,-0.13358,-0.048368,-1.5561,-0.04,0.42,-0.06,79.88
21244,2.6713e+07,1,0.23,-1.62,357.03,-0.40338,0.044149,-0.14249,0.092694,-0.13358,-0.048368,-1.5576,-0.04,0.42,-0.06,79.88
21288,2.6723e+07,1,0.23,-1.62,357.03,-0.40477,0.04292,-0.14228,0.089136,-0.13358,-0.048368,-1.5558,-0.04,0.41,-0.06,79.88
21329,2.6733e+07,1,0.23,-1.62,357.03,-0.40598,0.042384,-0.14105,0.083965,-0.13358,-0.048368,-1.5542,-0.04,0.41,-0.06,79.88
21369,2.6743e+07,1,0.23,-1.62,357.03,-0.40909,0.042426,-0.14024,0.083979,-0.13358,-0.048368,-1.5556,-0.04,0.41,-0.06,79.88
21410,2.6756e+07,1,0.23,-1.62,357.02,-0.40942,0.042215,-0.13886,0.082412,-0.13358,-0.048368,-1.5545,-0.04,0.41,-0.06,79.88
21451,2.6766e+07,1,0.23,-1.62,357.02,-0.40989,0.043408,-0.13811,0.081499,-0.13358,-0.048368,-1.5532,-0.04,0.41,-0.06,79.88
21489,2.6776e+07,1,0.23,-1.61,357.02,-0.40932,0.043299,-0.13705,0.078315,-0.13358,-0.048368,-1.5508,-0.04,0.41,-0.06,79.88
21530,2.6787e+07,1,0.23,-1.61,357.03,-0.40874,0.043235,-0.13473,0.085092,-0.13358,-0.048368,-1.5488,-0.04,0.41,-0.06,79.88
21570,2.6797e+07,1,0.23,-1.61,357.03,-0.40838,0.042176,-0.13376,0.091984,-0.13358,-0.048368,-1.5468,-0.04,0.41,-0.06,79.88
21611,2.6807e+07,1,0.23,-1.61,357.03,-0.40964,0.042474,-0.13255,0.099278,-0.13358,-0.048368,-1.5481,-0.04,0.41,-0.06,79.88
21656,2.6817e+07,1,0.23,-1.61,357.03,-0.4102,0.042771,-0.1311,0.10434,-0.13358,-0.048368,-1.5463,-0.04,0.41,-0.06,79.88
21697,2.6827e+07,1,0.23,-1.61,357.03,-0.4099,0.042941,-0.12951,0.10905,-0.13358,-0.048368,-1.5446,-0.04,0.41,-0.06,79.88
21739,2.6837e+07,1,0.23,-1.61,357.03,-0.40951,0.041788,-0.12741,0.11188,-0.13358,-0.048368,-1.543,-0.04,0.41,-0.06,79.88
21779,2.6847e+07,1,0.23,-1.6,357.03,-0.40922,0.041821,-0.12617,0.11531,-0.13358,-0.048368,-1.5416,-0.04,0.41,-0.06,79.88
