LineNo,TimeUS,C,Roll,Pitch,Yaw,VN,VE,VD,dPD,PN,PE,PD,GX,GY,GZ,OH
199,21375603,1,0.31,-2.33,356.95,-0.1103697,0.04830597,-0.09305806,-0.03192352,0.03339566,-0.01612257,-1.120142,-0.05,0.37,-0.19,79.88
422,21440633,1,0.3,-2.33,356.96,-0.1124326,0.0488547,-0.09034443,-0.01876892,0.03339566,-0.01612257,-1.120036,-0.05,0.37,-0.18,79.88
994,21557359,1,0.31,-2.31,356.98,-0.1190571,0.04966902,-0.09473798,-0.002893456,0.05565942,-0.02418386,-1.120486,-0.05,0.35,-0.18,79.88
1531,21779295,1,0.31,-2.26,357.02,-0.134931,0.05455408,-0.5363178,-0.3987768,0.06679131000000001,-0.03224515,-1.171175,-0.05,0.33,-0.16,79.88
1571,21789580,1,0.31,-2.25,357.02,-0.135865,0.05415058,-0.5357221,-0.3970286,0.06679131000000001,-0.03224515,-1.176512,-0.05,0.33,-0.16,79.88
1613,21800259,1,0.31,-2.25,357.02,-0.1355657,0.05399298,-0.533075,-0.3954828,0.06679131000000001,-0.03224515,-1.180956,-0.05,0.33,-0.16,79.88
1650,21810309,1,0.31,-2.24,357.02,-0.1353918,0.05491836,-0.5322230999999999,-0.3944441,0.06679131000000001,-0.03224515,-1.184442,-0.05,0.34,-0.16,79.88
1691,21820310,1,0.31,-2.24,357.02,-0.1355312,0.05427166,-0.5310013,-0.3906677,0.06679131000000001,-0.03224515,-1.187506,-0.05,0.34,-0.16,79.88
1732,21830316,1,0.31,-2.23,357.01,-0.1343942,0.05527416,-0.5313087,-0.3885692,0.06679131000000001,-0.03224515,-1.190661,-0.05,0.34,-0.16,79.88
1778,21840658,1,0.32,-2.23,357.01,-0.1342494,0.05587814,-0.5302093,-0.38241,0.06679131000000001,-0.03224515,-1.193962,-0.05,0.34,-0.16,79.88
1818,21851369,1,0.32,-2.23,357.01,-0.1357413,0.05671774,-0.530367,-0.3757029,0.06679131000000001,-0.03224515,-1.199284,-0.05,0.34,-0.16,79.88
1859,21861777,1,0.32,-2.23,357.01,-0.1381279,0.05665461,-0.5299429,-0.3712772,0.06679131000000001,-0.03224515,-1.203202,-0.05,0.34,-0.16,79.88
1900,21871758,1,0.32,-2.23,357.01,-0.139693,0.05743098,-0.5281293,-0.3667209,0.06679131000000001,-0.03224515,-1.20665,-0.05,0.34,-0.16,79.88
1940,21882173,1,0.32,-2.22,357,-0.1399659,0.05678291,-0.5276729,-0.3649816,0.06679131000000001,-0.03224515,-1.20956,-0.05,0.34,-0.16,79.88
1983,21892437,1,0.32,-2.22,357,-0.1413913,0.05645446,-0.527248,-0.3616623,0.06679131000000001,-0.03224515,-1.214849,-0.05,0.34,-0.16,79.88
2025,21902651,1,0.31,-2.22,356.99,-0.1412415,0.05733785,-0.5275339999999999,-0.3596521,0.08905507999999999,-0.03224515,-1.218388,-0.05,0.34,-0.16,79.88
2066,21913380,1,0.31,-2.21,356.99,-0.1423063,0.05768332,-0.5263163,-0.3550852,0.08905507999999999,-0.03224515,-1.221529,-0.05,0.34,-0.16,79.88
2106,21923809,1,0.31,-2.21,356.99,-0.1428186,0.05731246,-0.5249026,-0.3513089,0.08905507999999999,-0.03224515,-1.225316,-0.05,0.34,-0.16,79.88
2147,21933740,1,0.31,-2.2,356.99,-0.1426493,0.05843439,-0.5235497,-0.3486809,0.08905507999999999,-0.03224515,-1.228593,-0.05,0.34,-0.16,79.88
2196,21943781,1,0.31,-2.2,356.99,-0.143635,0.0589316,-0.52162,-0.3472734,0.08905507999999999,-0.03224515,-1.23201,-0.05,0.34,-0.16,79.88
2236,21954351,1,0.31,-2.19,356.99,-0.1441505,0.0586017,-0.5188012,-0.3439425,0.08905507999999999,-0.03224515,-1.235462,-0.05,0.35,-0.16,79.88
2277,21964407,1,0.31,-2.19,356.99,-0.1444288,0.0580474,-0.5192703,-0.3431513,0.08905507999999999,-0.03224515,-1.240667,-0.05,0.35,-0.16,79.88
2317,21974340,1,0.31,-2.19,356.99,-0.1445252,0.0568862,-0.5188602,-0.3440311,0.08905507999999999,-0.03224515,-1.244207,-0.05,0.35,-0.16,79.88
2358,21985040,1,0.31,-2.19,356.99,-0.1450417,0.05609538,-0.5171565,-0.3455923,0.08905507999999999,-0.03224515,-1.247297,-0.05,0.35,-0.16,79.88
2395,21995330,1,0.31,-2.19,356.99,-0.1462537,0.05465936,-0.5179265,-0.3456351,0.08905507999999999,-0.03224515,-1.249999,-0.05,0.35,-0.16,79.88
2436,22005238,1,0.31,-2.19,356.99,-0.1462951,0.05517106,-0.5172871999999999,-0.3432649,0.08905507999999999,-0.03224515,-1.252801,-0.05,0.35,-0.16,79.88
2478,22015266,1,0.31,-2.2,356.99,-0.147912,0.05436321,-0.5164412,-0.3375958,0.08905507999999999,-0.03224515,-1.257961,-0.05,0.35,-0.16,79.88
2519,22025254,1,0.31,-2.2,356.99,-0.1477835,0.0541819,-0.5168277,-0.3352322,0.08905507999999999,-0.03224515,-1.260884,-0.05,0.35,-0.16,79.88
2560,22035317,1,0.31,-2.19,356.98,-0.149135,0.05512992,-0.5165319,-0.3327302,0.08905507999999999,-0.03224515,-1.263929,-0.05,0.35,-0.16,79.88
2604,22045265,1,0.31,-2.19,356.98,-0.1484527,0.05486127,-0.5165802,-0.3343732,0.08905507999999999,-0.03224515,-1.267062,-0.05,0.35,-0.16,79.88
2646,22055672,1,0.31,-2.18,356.99,-0.1494687,0.05475836,-0.5152082,-0.3325641,0.08905507999999999,-0.03224515,-1.272689,-0.05,0.35,-0.16,79.88
2686,22065685,1,0.31,-2.18,356.99,-0.1497854,0.05464298,-0.5132949,-0.3339716,0.08905507999999999,-0.03224515,-1.275927,-0.05,0.35,-0.16,79.88
2727,22075611,1,0.31,-2.18,356.99,-0.149341,0.05411806,-0.5131736,-0.3369021,0.08905507999999999,-0.03224515,-1.279212,-0.05,0.35,-0.16,79.88
2769,22085725,1,0.31,-2.18,356.99,-0.1487467,0.05407504,-0.5130689,-0.3367852,0.1113188,-0.04030643,-1.281253,-0.05,0.35,-0.16,79.88
2806,22095955,1,0.3,-2.19,356.99,-0.1485482,0.05442268,-0.5120586,-0.3343635,0.1113188,-0.04030643,-1.283408,-0.05,0.35,-0.16,79.88
2847,22106263,1,0.3,-2.19,356.99,-0.1497035,0.05463177,-0.5125087,-0.3278822,0.1113188,-0.04030643,-1.288501,-0.05,0.35,-0.16,79.88
2887,22116103,1,0.3,-2.19,356.99,-0.1504957,0.05490392,-0.5126115,-0.322414,0.1113188,-0.04030643,-1.290828,-0.05,0.35,-0.16,79.88
2929,22125929,1,0.31,-2.19,356.99,-0.1511783,0.05395138,-0.5120711,-0.316215,0.1113188,-0.04030643,-1.293262,-0.05,0.35,-0.16,79.88
2969,22135980,1,0.3,-2.19,356.99,-0.1515391,0.05494412,-0.5121102,-0.3124496,0.1113188,-0.04030643,-1.295863,-0.05,0.35,-0.16,79.88
3014,22145930,1,0.3,-2.18,357,-0.1518196,0.05568411,-0.511288,-0.3064234,0.1113188,-0.04030643,-1.298551,-0.05,0.35,-0.16,79.88
3056,22156334,1,0.31,-2.18,357,-0.1525469,0.05553809,-0.5130457,-0.3040938,0.1113188,-0.04030643,-1.303726,-0.05,0.35,-0.16,79.88
3098,22166168,1,0.31,-2.18,357,-0.153883,0.05510682,-0.5128173,-0.3025232,0.1113188,-0.04030643,-1.306523,-0.05,0.35,-0.16,79.88
3139,22175957,1,0.31,-2.18,356.99,-0.1550258,0.05405774,-0.5120239,-0.299822,0.1113188,-0.04030643,-1.309476,-0.05,0.36,-0.16,79.88
3179,22188823,1,0.31,-2.18,356.99,-0.1549067,0.05405792,-0.5112056,-0.2950986,0.1113188,-0.04030643,-1.312909,-0.05,0.36,-0.16,79.88
3220,22198611,1,0.31,-2.17,356.99,-0.1551807,0.05313559,-0.5107163,-0.2908273,0.1113188,-0.04030643,-1.314923,-0.05,0.36,-0.16,79.88
3260,22209024,1,0.31,-2.17,356.99,-0.1558187,0.05212247,-0.5079224,-0.2854092,0.1113188,-0.04030643,-1.317035,-0.05,0.36,-0.16,79.88
3301,22219002,1,0.31,-2.17,356.99,-0.1564224,0.05244513,-0.507269,-0.2820301,0.1113188,-0.04030643,-1.319337,-0.05,0.36,-0.16,79.88
3343,22229385,1,0.31,-2.17,356.99,-0.1563178,0.05339809,-0.5058117,-0.2758103,0.1113188,-0.04030643,-1.322276,-0.05,0.36,-0.16,79.88
3384,22239370,1,0.31,-2.17,356.99,-0.1567938,0.05266888,-0.5069032,-0.2717902,0.1113188,-0.04030643,-1.327337,-0.05,0.36,-0.16,79.88
3429,22249412,1,0.31,-2.17,357,-0.1570184,0.05332517,-0.5046742,-0.2668595,0.1113188,-0.04030643,-1.329882,-0.05,0.36,-0.16,79.88
3469,22259406,1,0.31,-2.17,357,-0.1576649,0.05297672,-0.503707,-0.2679547,0.1113188,-0.04030643,-1.332484,-0.05,0.36,-0.16,79.88
3513,22269372,1,0.3,-2.16,357,-0.1578082,0.05306204,-0.5027075,-0.2677103,0.1113188,-0.04030643,-1.33526,-0.05,0.36,-0.16,79.88
3556,22282311,1,0.31,-2.16,357.01,-0.1581891,0.05346924,-0.5022033,-0.2692685,0.1113188,-0.04030643,-1.337543,-0.05,0.36,-0.16,79.88
3595,22292483,1,0.31,-2.16,357.01,-0.1586647,0.05230862,-0.5014216,-0.2663191,0.1113188,-0.04030643,-1.342559,-0.05,0.36,-0.16,79.88
3637,22302418,1,0.31,-2.16,357.01,-0.158678,0.05342017,-0.4981095,-0.2605194,0.1113188,-0.04030643,-1.343972,-0.05,0.36,-0.16,79.88
3679,22312392,1,0.31,-2.15,357.01,-0.1577809,0.05351672,-0.4971479,-0.2554334,0.1113188,-0.04030643,-1.345538,-0.05,0.36,-0.16,79.88
3719,22322429,1,0.31,-2.15,357.01,-0.1589327,0.05268968,-0.4959572,-0.2537186,0.1113188,-0.04030643,-1.350539,-0.05,0.36,-0.16,79.88
3760,22332979,1,0.31,-2.16,357.01,-0.1584187,0.0523776,-0.4954557,-0.252939,0.1113188,-0.04030643,-1.352687,-0.05,0.36,-0.16,79.88
3801,22342797,1,0.31,-2.15,357.02,-0.1585321,0.05196495,-0.4926486,-0.2498349,0.1113188,-0.04030643,-1.354491,-0.05,0.36,-0.16,79.88
3845,22352794,1,0.31,-2.16,357.02,-0.1587135,0.05206997,-0.4920616,-0.2484914,0.1113188,-0.04030643,-1.356508,-0.05,0.36,-0.16,79.88
3886,22362847,1,0.31,-2.16,357.02,-0.1598452,0.05200018,-0.4933779,-0.2501375,0.1113188,-0.04030643,-1.361398,-0.05,0.36,-0.16,79.88
3926,22373394,1,0.31,-2.15,357.02,-0.1598504,0.05201503,-0.4921717,-0.2506009,0.1113188,-0.04030643,-1.363515,-0.05,0.36,-0.16,79.88
3967,22383451,1,0.3,-2.15,357.02,-0.1609835,0.05153874,-0.4915236,-0.2525852,0.1113188,-0.04030643,-1.366183,-0.05,0.36,-0.16,79.88
4008,22393600,1,0.3,-2.15,357.02,-0.1619584,0.05139975,-0.4906568,-0.2541455,0.1113188,-0.04030643,-1.368539,-0.05,0.36,-0.16,79.88
4052,22406303,1,0.3,-2.15,357.03,-0.1627201,0.0516105,-0.4916074,-0.2583684,0.1113188,-0.04030643,-1.371283,-0.05,0.36,-0.16,79.88
4093,22416250,1,0.3,-2.15,357.03,-0.1622455,0.0507945,-0.4913725,-0.259691,0.1113188,-0.04030643,-1.373202,-0.05,0.36,-0.16,79.88
4133,22426238,1,0.3,-2.14,357.03,-0.1635138,0.05150707,-0.4900223,-0.2556581,0.1113188,-0.04030643,-1.378104,-0.05,0.36,-0.16,79.88
4176,22436062,1,0.3,-2.14,357.04,-0.1651241,0.05196496,-0.4889402,-0.2540292,0.1113188,-0.04030643,-1.380152,-0.05,0.36,-0.16,79.88
4217,22446129,1,0.3,-2.14,357.03,-0.1656741,0.05070776,-0.4878183,-0.2506253,0.1113188,-0.04030643,-1.382309,-0.05,0.36,-0.16,79.88
4263,22456281,1,0.3,-2.14,357.04,-0.1662229,0.0494705,-0.4863302,-0.2482506,0.1113188,-0.04030643,-1.384629,-0.05,0.36,-0.16,79.88
4304,22466270,1,0.31,-2.14,357.04,-0.1666415,0.0499558,-0.4835807,-0.2496117,0.1113188,-0.04030643,-1.387011,-0.05,0.36,-0.16,79.88
4344,22476444,1,0.31,-2.14,357.03,-0.1671765,0.04969083,-0.4817728,-0.2506269,0.1113188,-0.04030643,-1.390016,-0.05,0.36,-0.16,79.88
4385,22486616,1,0.31,-2.14,357.03,-0.1695384,0.05001513,-0.4826803,-0.2530623,0.1113188,-0.04030643,-1.394812,-0.05,0.36,-0.16,79.88
4422,22496785,1,0.31,-2.14,357.03,-0.1702015,0.04898805,-0.4809134,-0.2489309,0.1113188,-0.04030643,-1.395699,-0.05,0.37,-0.16,79.88
4465,22506828,1,0.31,-2.14,357.03,-0.1702471,0.04877701,-0.4802868,-0.2419513,0.1224507,-0.04836772,-1.396733,-0.05,0.37,-0.16,79.88
4506,22517409,1,0.31,-2.13,357.04,-0.1699257,0.04947932,-0.4777846,-0.2327943,0.1224507,-0.04836772,-1.398456,-0.05,0.37,-0.16,79.88
4546,22527910,1,0.31,-2.13,357.04,-0.170553,0.04979283,-0.4743165,-0.2235947,0.1224507,-0.04836772,-1.399788,-0.05,0.37,-0.16,79.88
4587,22537887,1,0.32,-2.12,357.05,-0.1697233,0.04978165,-0.4738654,-0.2197392,0.1224507,-0.04836772,-1.401318,-0.05,0.37,-0.16,79.88
4628,22547867,1,0.32,-2.12,357.05,-0.1708961,0.0487431,-0.4737382,-0.2132496,0.1224507,-0.04836772,-1.406039,-0.05,0.37,-0.16,79.88
4673,22557854,1,0.32,-2.12,357.05,-0.1713134,0.04830751,-0.4724683,-0.2090448,0.1224507,-0.04836772,-1.407698,-0.05,0.37,-0.16,79.88
4715,22567859,1,0.32,-2.12,357.05,-0.1700647,0.04754,-0.4716501,-0.2104961,0.1224507,-0.04836772,-1.409459,-0.05,0.37,-0.16,79.88
4755,22578434,1,0.32,-2.12,357.06,-0.1712593,0.04785063,-0.4703392,-0.2110013,0.1224507,-0.04836772,-1.414146,-0.05,0.37,-0.16,79.88
4796,22588995,1,0.31,-2.12,357.06,-0.17148,0.04770981,-0.4679624,-0.2136652,0.1224507,-0.04836772,-1.416478,-0.05,0.36,-0.16,79.88
4836,22599406,1,0.32,-2.13,357.06,-0.17164,0.04745505,-0.4681826,-0.2159652,0.1224507,-0.04836772,-1.417274,-0.05,0.37,-0.16,79.88
4877,22609400,1,0.31,-2.13,357.07,-0.1698932,0.04676866,-0.4668874,-0.2117348,0.1224507,-0.04836772,-1.417828,-0.05,0.37,-0.16,79.88
4918,22619361,1,0.31,-2.12,357.07,-0.1699595,0.0470924,-0.4654848,-0.2074307,0.1224507,-0.04836772,-1.418512,-0.05,0.37,-0.16,79.88
4958,22629430,1,0.31,-2.12,357.07,-0.1701763,0.04594005,-0.465132,-0.1980843,0.1224507,-0.04836772,-1.423154,-0.05,0.37,-0.16,79.88
5000,22639355,1,0.31,-2.11,357.07,-0.1693911,0.04649032,-0.4646045,-0.1940769,0.1224507,-0.04836772,-1.424027,-0.05,0.37,-0.16,79.88
5043,22649407,1,0.31,-2.11,357.08,-0.1711976,0.04684912,-0.4621297,-0.1847306,0.1224507,-0.04836772,-1.425078,-0.05,0.37,-0.16,79.88
5088,22659365,1,0.31,-2.1,357.08,-0.1716574,0.04760218,-0.4601036,-0.1772639,0.1224507,-0.04836772,-1.426252,-0.05,0.37,-0.16,79.88
5128,22669388,1,0.31,-2.1,357.08,-0.1722658,0.04741176,-0.4599718,-0.1751818,0.1224507,-0.04836772,-1.427614,-0.05,0.37,-0.16,79.88
5169,22679849,1,0.31,-2.1,357.08,-0.1736817,0.04744378,-0.4598843,-0.1707878,0.1224507,-0.04836772,-1.432213,-0.05,0.37,-0.16,79.88
5213,22692924,1,0.31,-2.1,357.09,-0.1740774,0.04906612,-0.4598476,-0.171091,0.1224507,-0.04836772,-1.435071,-0.05,0.37,-0.16,79.88
5253,22703277,1,0.31,-2.1,357.09,-0.1745549,0.05023925,-0.4583168,-0.1712902,0.1224507,-0.04836772,-1.435522,-0.05,0.37,-0.16,79.88
5294,22713442,1,0.31,-2.11,357.09,-0.1756647,0.052078,-0.4559776,-0.1729174,0.1224507,-0.04836772,-1.440105,-0.05,0.37,-0.16,79.88
5334,22723799,1,0.31,-2.1,357.09,-0.1769688,0.05274732,-0.4551361,-0.1749707,0.1224507,-0.04836772,-1.441135,-0.05,0.36,-0.15,79.88
5376,22733756,1,0.31,-2.1,357.1,-0.1779369,0.05203025,-0.4540071,-0.1783025,0.1224507,-0.04836772,-1.441869,-0.05,0.36,-0.15,79.88
5416,22743822,1,0.31,-2.11,357.1,-0.1777865,0.05178488,-0.454656,-0.182934,0.1224507,-0.04836772,-1.442782,-0.05,0.36,-0.15,79.88
5461,22754280,1,0.31,-2.1,357.1,-0.1788138,0.0524208,-0.4557553,-0.1819347,0.1224507,-0.04836772,-1.447304,-0.05,0.36,-0.15,79.88
5501,22764245,1,0.31,-2.1,357.1,-0.179046,0.05355181,-0.4542031,-0.180283,0.1224507,-0.04836772,-1.448438,-0.05,0.36,-0.15,79.88
5542,22774342,1,0.3,-2.1,357.1,-0.1796859,0.05368669,-0.4535826,-0.1794024,0.1224507,-0.04836772,-1.449672,-0.05,0.36,-0.15,79.88
5587,22787176,1,0.31,-2.1,357.09,-0.1805086,0.05232115,-0.4531408,-0.1773577,0.1224507,-0.04836772,-1.452476,-0.05,0.37,-0.16,79.88
5627,22796920,1,0.31,-2.09,357.09,-0.1821194,0.053614,-0.4522752,-0.176589,0.1224507,-0.04836772,-1.454033,-0.05,0.37,-0.16,79.88
5669,22807412,1,0.31,-2.09,357.09,-0.1838148,0.0543109,-0.4530066,-0.1833294,0.1224507,-0.04836772,-1.459031,-0.05,0.37,-0.16,79.88
5709,22818485,1,0.31,-2.09,357.09,-0.1837665,0.05460602,-0.4515731,-0.1849535,0.1224507,-0.04836772,-1.459648,-0.05,0.36,-0.15,79.88
5750,22828911,1,0.31,-2.08,357.09,-0.1832491,0.05455037,-0.4499044,-0.1800374,0.1224507,-0.04836772,-1.460175,-0.05,0.37,-0.15,79.88
5791,22838883,1,0.31,-2.08,357.09,-0.1835976,0.0542122,-0.4465011,-0.1723313,0.1224507,-0.04836772,-1.460636,-0.05,0.37,-0.15,79.88
5832,22848913,1,0.31,-2.08,357.08,-0.1833768,0.05438483,-0.4458161,-0.1669737,0.1224507,-0.04836772,-1.461385,-0.05,0.37,-0.15,79.88
5877,22859262,1,0.31,-2.07,357.08,-0.183199,0.05386584,-0.4447313,-0.1638432,0.1224507,-0.04836772,-1.462295,-0.05,0.37,-0.15,79.88
5917,22869659,1,0.31,-2.07,357.09,-0.1827411,0.05284388,-0.4437943,-0.158295,0.1224507,-0.04836772,-1.463864,-0.05,0.37,-0.15,79.88
5959,22880447,1,0.31,-2.07,357.08,-0.1838994,0.05193663,-0.4444142,-0.1537271,0.1224507,-0.04836772,-1.468291,-0.05,0.37,-0.15,79.88
6003,22890445,1,0.31,-2.07,357.08,-0.1844277,0.05111065,-0.4434958,-0.1554636,0.1224507,-0.04836772,-1.469942,-0.05,0.37,-0.15,79.88
6043,22901251,1,0.31,-2.06,357.08,-0.1844657,0.05219857,-0.4412552,-0.1568169,0.1335826,-0.04836772,-1.470043,-0.05,0.37,-0.15,79.88
6084,22910774,1,0.31,-2.06,357.08,-0.1854217,0.05143574,-0.4404182,-0.1552299,0.1335826,-0.04836772,-1.474456,-0.05,0.37,-0.15,79.88
6124,22920777,1,0.31,-2.06,357.08,-0.1844077,0.05107898,-0.4390387,-0.153154,0.1335826,-0.04836772,-1.474734,-0.05,0.37,-0.15,79.88
6165,22931054,1,0.31,-2.05,357.08,-0.1834092,0.05042962,-0.4382103,-0.1500088,0.1335826,-0.04836772,-1.475201,-0.05,0.37,-0.15,79.88
6205,22940869,1,0.31,-2.05,357.08,-0.1832325,0.04918781,-0.435718,-0.1418296,0.1335826,-0.04836772,-1.475848,-0.05,0.37,-0.15,79.88
6246,22950777,1,0.31,-2.05,357.07,-0.1852905,0.05044319,-0.4363142,-0.1424284,0.1335826,-0.04836772,-1.480206,-0.05,0.37,-0.15,79.88
6292,22960800,1,0.31,-2.05,357.07,-0.1864438,0.05005269,-0.4349977,-0.142807,0.1335826,-0.04836772,-1.481001,-0.05,0.37,-0.15,79.88
6332,22970787,1,0.3,-2.05,357.07,-0.1868594,0.04913317,-0.4342657,-0.1435558,0.1335826,-0.04836772,-1.481931,-0.05,0.37,-0.15,79.88
6375,22981519,1,0.3,-2.05,357.07,-0.1874652,0.05003689,-0.4334274,-0.1428712,0.1335826,-0.04836772,-1.483533,-0.05,0.37,-0.15,79.88
6416,22992429,1,0.3,-2.05,357.07,-0.1886255,0.05102582,-0.4324556,-0.145015,0.1335826,-0.04836772,-1.484775,-0.05,0.37,-0.15,79.88
6461,23005271,1,0.3,-2.04,357.06,-0.1883726,0.05028044,-0.4297131,-0.1457233,0.1335826,-0.04836772,-1.486055,-0.05,0.37,-0.15,79.88
6502,23015872,1,0.3,-2.04,357.07,-0.1897041,0.04988365,-0.4293133,-0.1453925,0.1335826,-0.04836772,-1.490731,-0.05,0.37,-0.15,79.88
6542,23025797,1,0.3,-2.04,357.07,-0.1897061,0.04915641,-0.42972,-0.1591244,0.1335826,-0.04836772,-1.490809,-0.04,0.36,-0.15,79.88
6583,23036472,1,0.3,-2.04,357.07,-0.1908011,0.04906747,-0.4289055,-0.1603136,0.1335826,-0.04836772,-1.495077,-0.04,0.36,-0.15,79.88
6623,23046368,1,0.3,-2.04,357.07,-0.1924012,0.04994281,-0.4269903,-0.1595325,0.1335826,-0.04836772,-1.495318,-0.04,0.36,-0.15,79.88
6665,23056316,1,0.3,-2.04,357.07,-0.1927387,0.04981459,-0.4257771,-0.1571243,0.1335826,-0.04836772,-1.49581,-0.05,0.36,-0.15,79.88
6709,23066829,1,0.3,-2.04,357.07,-0.1924174,0.05088682,-0.4236853,-0.1507489,0.1335826,-0.04836772,-1.496812,-0.05,0.37,-0.15,79.88
6750,23076893,1,0.3,-2.04,357.07,-0.1921659,0.05104563,-0.422322,-0.1512391,0.1335826,-0.04836772,-1.497584,-0.05,0.36,-0.15,79.88
6791,23087389,1,0.3,-2.03,357.06,-0.1933845,0.05058057,-0.4204042,-0.1467064,0.1335826,-0.04836772,-1.501768,-0.05,0.36,-0.15,79.88
6834,23097407,1,0.3,-2.03,357.07,-0.1939531,0.05020925,-0.4199286,-0.1463301,0.1447145,-0.04836772,-1.50269,-0.05,0.36,-0.15,79.88
6876,23110238,1,0.3,-2.03,357.07,-0.1947047,0.04979067,-0.4202577,-0.1454308,0.1447145,-0.04836772,-1.505041,-0.05,0.37,-0.15,79.88
6916,23120363,1,0.3,-2.02,357.07,-0.1948432,0.04886936,-0.4190546,-0.1424766,0.1447145,-0.04836772,-1.505349,-0.05,0.37,-0.15,79.88
6957,23130423,1,0.3,-2.02,357.07,-0.1955015,0.04897437,-0.4165612,-0.138546,0.1447145,-0.04836772,-1.50621,-0.05,0.37,-0.14,79.88
7000,23140390,1,0.3,-2.02,357.07,-0.1962557,0.04827048,-0.4145278,-0.1350138,0.1447145,-0.04836772,-1.506843,-0.05,0.37,-0.15,79.88
7040,23150402,1,0.3,-2.01,357.07,-0.1969761,0.04800993,-0.4146906,-0.1360129,0.1447145,-0.04836772,-1.507626,-0.05,0.37,-0.15,79.88
7082,23160785,1,0.3,-2.01,357.07,-0.1974134,0.04756039,-0.413056,-0.1325262,0.1447145,-0.04836772,-1.508613,-0.05,0.37,-0.15,79.88
7126,23170787,1,0.3,-2.01,357.07,-0.1986749,0.04795486,-0.4155741,-0.13148,0.1447145,-0.04836772,-1.512746,-0.05,0.37,-0.15,79.88
7167,23181327,1,0.3,-2.02,357.07,-0.1988894,0.0478045,-0.415002,-0.131384,0.1447145,-0.04836772,-1.51388,-0.05,0.37,-0.15,79.88
7208,23191764,1,0.3,-2.02,357.07,-0.2001697,0.04785087,-0.4155189,-0.1353088,0.1447145,-0.04836772,-1.515547,-0.05,0.37,-0.15,79.88
7249,23201848,1,0.29,-2.03,357.08,-0.2001015,0.04659935,-0.4153158,-0.1381555,0.1447145,-0.04836772,-1.515741,-0.05,0.37,-0.15,79.88
7286,23212009,1,0.3,-2.02,357.08,-0.2009596,0.04519187,-0.413153,-0.13519,0.1447145,-0.04836772,-1.516085,-0.05,0.37,-0.14,79.88
7328,23222293,1,0.3,-2.02,357.08,-0.200965,0.04464872,-0.411914,-0.1327173,0.1447145,-0.04836772,-1.516668,-0.05,0.37,-0.14,79.88
7368,23232432,1,0.3,-2.02,357.08,-0.2034909,0.04478512,-0.4122427,-0.1282053,0.1447145,-0.04836772,-1.521115,-0.05,0.37,-0.14,79.88
7408,23242435,1,0.3,-2.02,357.07,-0.2045562,0.04550215,-0.4096259,-0.1305105,0.1447145,-0.04836772,-1.521762,-0.04,0.37,-0.14,79.88
7449,23252857,1,0.3,-2.02,357.07,-0.2054777,0.04571631,-0.4076573,-0.1294449,0.1447145,-0.04836772,-1.522555,-0.05,0.37,-0.14,79.88
7490,23262908,1,0.3,-2.02,357.07,-0.2061725,0.04592437,-0.4073696,-0.131568,0.1447145,-0.04836772,-1.526646,-0.05,0.37,-0.14,79.88
7535,23272844,1,0.3,-2.02,357.06,-0.2077182,0.04570425,-0.406578,-0.1348176,0.1447145,-0.04836772,-1.527558,-0.04,0.37,-0.14,79.88
7576,23282886,1,0.3,-2.02,357.06,-0.2089455,0.04599992,-0.405117,-0.1351071,0.1447145,-0.04836772,-1.528621,-0.05,0.37,-0.14,79.88
7619,23293402,1,0.3,-2.02,357.06,-0.2102017,0.04591002,-0.4046797,-0.1374014,0.1447145,-0.04836772,-1.529871,-0.05,0.37,-0.14,79.88
7661,23303352,1,0.3,-2.02,357.06,-0.2105078,0.04548939,-0.4051051,-0.1449048,0.1335826,-0.04836772,-1.533889,-0.05,0.37,-0.14,79.88
7698,23313738,1,0.3,-2.02,357.06,-0.210871,0.04541531,-0.405053,-0.1594513,0.1335826,-0.04836772,-1.535624,-0.04,0.37,-0.14,79.88
7735,23324087,1,0.3,-2.02,357.06,-0.210241,0.04412416,-0.4050193,-0.1662704,0.1335826,-0.04836772,-1.535577,-0.04,0.37,-0.14,79.88
7776,23333796,1,0.3,-2.02,357.05,-0.2105259,0.04349877,-0.4031127,-0.1684793,0.1335826,-0.04836772,-1.535781,-0.04,0.37,-0.14,79.88
7817,23344352,1,0.3,-2.02,357.05,-0.2116923,0.04327987,-0.4021966,-0.1636711,0.1335826,-0.04836772,-1.539766,-0.04,0.37,-0.14,79.88
7858,23354284,1,0.3,-2.01,357.05,-0.2107577,0.04445439,-0.4025244,-0.1609581,0.1335826,-0.04836772,-1.540111,-0.04,0.37,-0.14,79.88
7898,23364454,1,0.3,-2.01,357.05,-0.2116947,0.04433299,-0.4009668,-0.1561986,0.1335826,-0.04836772,-1.540989,-0.04,0.37,-0.14,79.88
7943,23374460,1,0.3,-2.01,357.06,-0.2119493,0.04495923,-0.3995285,-0.1490307,0.1335826,-0.04836772,-1.541682,-0.04,0.37,-0.14,79.88
7984,23384467,1,0.3,-2.01,357.05,-0.212301,0.04487851,-0.3972071,-0.1425806,0.1335826,-0.04836772,-1.54247,-0.04,0.37,-0.14,79.88
8026,23394441,1,0.3,-2.01,357.05,-0.2124681,0.04420926,-0.3970208,-0.1414999,0.1335826,-0.04836772,-1.543478,-0.04,0.37,-0.14,79.88
8063,23405182,1,0.31,-2.01,357.04,-0.2144177,0.04450106,-0.3977936,-0.1392982,0.1335826,-0.04836772,-1.547449,-0.04,0.37,-0.14,79.88
8101,23414890,1,0.31,-2.01,357.04,-0.2150257,0.04420232,-0.3960292,-0.1308283,0.1335826,-0.04836772,-1.546661,-0.04,0.37,-0.13,79.88
8142,23424912,1,0.31,-2.01,357.03,-0.2154649,0.04497132,-0.3952253,-0.1226411,0.1335826,-0.04836772,-1.546105,-0.04,0.37,-0.13,79.88
8183,23434925,1,0.31,-2.01,357.02,-0.215636,0.0449726,-0.3925121,-0.1133265,0.1335826,-0.04836772,-1.545757,-0.04,0.37,-0.13,79.88
8224,23444927,1,0.31,-2.01,357.01,-0.2159412,0.04408525,-0.3905375,-0.1046336,0.1335826,-0.04836772,-1.545528,-0.04,0.38,-0.13,79.88
8264,23454884,1,0.31,-2.01,357.01,-0.2171749,0.04474388,-0.3916713,-0.09459310999999999,0.1335826,-0.04836772,-1.549475,-0.04,0.38,-0.13,79.88
8305,23465249,1,0.31,-2,357.01,-0.217099,0.04437845,-0.3905648,-0.08654439,0.1335826,-0.04836772,-1.549482,-0.04,0.38,-0.13,79.88
8352,23474912,1,0.31,-1.99,357.01,-0.2174852,0.04540284,-0.3898679,-0.08057215,0.1335826,-0.04836772,-1.549643,-0.04,0.38,-0.13,79.88
8395,23484888,1,0.31,-1.99,357.01,-0.2193187,0.04462945,-0.3900144,-0.08148853,0.1335826,-0.04836772,-1.553566,-0.04,0.38,-0.13,79.88
8437,23494919,1,0.31,-1.99,357.01,-0.2197865,0.04529595,-0.3906622,-0.08478736000000001,0.1335826,-0.04836772,-1.553899,-0.04,0.37,-0.13,79.88
8477,23504941,1,0.3,-1.99,357.01,-0.2203221,0.04621704,-0.3895749,-0.08622610999999999,0.1335826,-0.04836772,-1.554403,-0.04,0.37,-0.13,79.88
8511,23515425,1,0.3,-1.99,357.01,-0.2194139,0.04576247,-0.3893974,-0.08967817,0.1335826,-0.04836772,-1.553883,-0.04,0.37,-0.13,79.88
8552,23525446,1,0.3,-1.99,357.01,-0.2198061,0.04545743,-0.3879272,-0.08894939,0.1335826,-0.04836772,-1.553546,-0.04,0.38,-0.13,79.88
8593,23535402,1,0.3,-1.99,357,-0.2211405,0.04656167,-0.3878645,-0.08311898,0.1335826,-0.04836772,-1.557428,-0.04,0.38,-0.13,79.88
8633,23545369,1,0.29,-1.99,357,-0.2214885,0.04574936,-0.3870822,-0.07910903,0.1335826,-0.04836772,-1.557285,-0.04,0.38,-0.13,79.88
8674,23555515,1,0.29,-1.99,357,-0.2219374,0.04641103,-0.3856257,-0.08262052,0.1335826,-0.04836772,-1.561148,-0.04,0.38,-0.13,79.88
8714,23565379,1,0.29,-1.98,356.99,-0.2225515,0.04647136,-0.3829679,-0.08781984,0.1335826,-0.04836772,-1.561076,-0.04,0.37,-0.13,79.88
8759,23575459,1,0.29,-1.98,356.99,-0.2228999,0.04846418,-0.3833309,-0.09740469,0.1335826,-0.04836772,-1.564894,-0.04,0.37,-0.13,79.88
8800,23585422,1,0.29,-1.98,356.99,-0.2239743,0.04783311,-0.3814485,-0.1031402,0.1335826,-0.04836772,-1.565004,-0.04,0.37,-0.13,79.88
8840,23595795,1,0.29,-1.98,356.99,-0.2235801,0.04782045,-0.3808075,-0.104597,0.1335826,-0.04836772,-1.565626,-0.04,0.37,-0.13,79.88
8883,23605690,1,0.29,-1.97,356.98,-0.225261,0.04728989,-0.3792147,-0.105525,0.1335826,-0.04836772,-1.566041,-0.04,0.37,-0.13,79.88
8920,23615853,1,0.29,-1.97,356.98,-0.2259564,0.04778187,-0.3776661,-0.1108256,0.1335826,-0.04836772,-1.566618,-0.04,0.37,-0.13,79.88
8961,23626301,1,0.29,-1.97,356.99,-0.2253802,0.04830033,-0.375976,-0.1110859,0.1335826,-0.04836772,-1.570381,-0.04,0.37,-0.13,79.88
9000,23636453,1,0.29,-1.97,356.99,-0.225186,0.04890768,-0.3744951,-0.1097368,0.1335826,-0.04836772,-1.570197,-0.04,0.37,-0.13,79.88
9041,23646494,1,0.29,-1.96,356.99,-0.2246128,0.04837793,-0.3732399,-0.1067635,0.1335826,-0.04836772,-1.569775,-0.04,0.37,-0.13,79.88
9083,23656426,1,0.28,-1.96,357,-0.2231927,0.04812067,-0.370314,-0.1005378,0.1335826,-0.04836772,-1.56961,-0.04,0.37,-0.13,79.88
9123,23666449,1,0.28,-1.96,357,-0.223601,0.04720267,-0.3691379,-0.09773,0.1335826,-0.04836772,-1.569586,-0.04,0.37,-0.13,79.88
9168,23676462,1,0.28,-1.96,357,-0.2252345,0.04845656,-0.3701564,-0.09266805,0.1335826,-0.04836772,-1.573255,-0.04,0.37,-0.13,79.88
9210,23686453,1,0.28,-1.95,357.01,-0.2252183,0.04765409,-0.3703661,-0.08847155,0.1224507,-0.04836772,-1.573433,-0.04,0.37,-0.13,79.88
9251,23696475,1,0.27,-1.95,357.01,-0.2264597,0.04737987,-0.3717042,-0.08831253999999999,0.1224507,-0.04836772,-1.573749,-0.04,0.37,-0.13,79.88
9292,23706464,1,0.27,-1.95,357.01,-0.2275786,0.04828189,-0.3714515,-0.08780602999999999,0.1224507,-0.04836772,-1.574289,-0.04,0.37,-0.13,79.88
9329,23716433,1,0.27,-1.95,357.02,-0.2282104,0.04760661,-0.3710941,-0.08957174,0.1224507,-0.04836772,-1.578016,-0.04,0.37,-0.13,79.88
9367,23726862,1,0.27,-1.95,357.02,-0.2288292,0.04639061,-0.3693037,-0.08628521,0.1224507,-0.04836772,-1.577208,-0.04,0.37,-0.13,79.88
9408,23736849,1,0.28,-1.95,357.02,-0.2290885,0.04697272,-0.3679264,-0.08636826,0.1224507,-0.04836772,-1.576597,-0.04,0.37,-0.13,79.88
9448,23747380,1,0.28,-1.95,357.02,-0.2286783,0.04767368,-0.3651626,-0.08077846,0.1224507,-0.04836772,-1.57618,-0.04,0.37,-0.13,79.88
9489,23757381,1,0.28,-1.95,357.02,-0.2287782,0.04765792,-0.3642531,-0.07646572,0.1224507,-0.04836772,-1.575994,-0.04,0.37,-0.13,79.88
9529,23767624,1,0.28,-1.96,357.02,-0.2301126,0.04626316,-0.3636929,-0.06941877,0.1224507,-0.04836772,-1.576369,-0.04,0.37,-0.13,79.88
9574,23778406,1,0.28,-1.95,357.03,-0.230847,0.04634155,-0.3629319,-0.06147456,0.1224507,-0.04836772,-1.580003,-0.04,0.37,-0.13,79.88
9614,23788393,1,0.28,-1.95,357.03,-0.2314957,0.04741278,-0.3620284,-0.0578579,0.1224507,-0.04836772,-1.580142,-0.04,0.37,-0.13,79.88
9655,23798530,1,0.28,-1.95,357.03,-0.2316006,0.04837638,-0.3598597,-0.05583747,0.1224507,-0.04836772,-1.58082,-0.04,0.37,-0.13,79.88
9718,23828930,1,0.27,-1.95,357.05,-0.235552,0.04687697,-0.3581962,-0.06268126,0.1224507,-0.04836772,-1.583833,-0.04,0.37,-0.13,79.88
9758,23838881,1,0.27,-1.94,357.05,-0.2356761,0.04613295,-0.3579867,-0.06123652,0.1224507,-0.04836772,-1.58307,-0.04,0.38,-0.13,79.88
9799,23848847,1,0.27,-1.94,357.05,-0.2350314,0.04630284,-0.3573624,-0.05788244,0.1224507,-0.04836772,-1.582518,-0.04,0.38,-0.13,79.88
9839,23859321,1,0.27,-1.94,357.05,-0.2361289,0.04657031,-0.357448,-0.0559472,0.1224507,-0.04836772,-1.586107,-0.04,0.38,-0.13,79.88
9881,23869372,1,0.27,-1.94,357.05,-0.2368565,0.04632176,-0.3578892,-0.05924295,0.1224507,-0.04836772,-1.585707,-0.04,0.37,-0.12,79.88
9926,23879309,1,0.27,-1.94,357.06,-0.2365333,0.04681271,-0.3569408,-0.06160639,0.1224507,-0.04836772,-1.585511,-0.04,0.37,-0.12,79.88
9968,23889339,1,0.27,-1.94,357.06,-0.2367844,0.04552551,-0.3566501,-0.06348112,0.100187,-0.04836772,-1.585501,-0.04,0.37,-0.12,79.88
10009,23899298,1,0.27,-1.94,357.06,-0.2376719,0.04589992,-0.3569208,-0.06170445,0.100187,-0.04836772,-1.589058,-0.04,0.37,-0.12,79.88
10053,23914325,1,0.28,-1.94,357.06,-0.2377134,0.04589272,-0.353066,-0.05761654,0.100187,-0.04836772,-1.587175,-0.04,0.38,-0.13,79.88
10093,23924418,1,0.28,-1.93,357.06,-0.2371185,0.04403466,-0.3537993,-0.05772952,0.100187,-0.04836772,-1.586376,-0.04,0.38,-0.12,79.88
10134,23935254,1,0.28,-1.93,357.07,-0.2391266,0.04433301,-0.3538598,-0.05117285,0.100187,-0.04836772,-1.59026,-0.04,0.38,-0.12,79.88
10177,23945103,1,0.28,-1.92,357.07,-0.2397747,0.04484831,-0.3528506,-0.04846842,0.100187,-0.04836772,-1.589998,-0.04,0.38,-0.12,79.88
10217,23954942,1,0.28,-1.92,357.07,-0.239438,0.04500223,-0.3491015,-0.04357097,0.100187,-0.04836772,-1.589921,-0.04,0.38,-0.12,79.88
10258,23965194,1,0.27,-1.91,357.07,-0.2396587,0.04430658,-0.348353,-0.04443545,0.100187,-0.04836772,-1.589962,-0.04,0.38,-0.12,79.88
10303,23975056,1,0.27,-1.92,357.07,-0.2404269,0.04431143,-0.3477093,-0.04642797,0.100187,-0.04836772,-1.590183,-0.04,0.38,-0.12,79.88
10343,23985200,1,0.27,-1.92,357.07,-0.24093,0.04460078,-0.3485819,-0.04728444,0.100187,-0.04836772,-1.593665,-0.04,0.38,-0.12,79.88
10385,23995202,1,0.27,-1.92,357.07,-0.2413036,0.04378638,-0.3476579,-0.04986206,0.100187,-0.04836772,-1.594057,-0.04,0.38,-0.12,79.88
10428,24007582,1,0.27,-1.91,357.07,-0.2414158,0.04436021,-0.3475759,-0.05401921,0.100187,-0.04836772,-1.595674,-0.04,0.38,-0.12,79.88
10466,24018344,1,0.26,-1.91,357.06,-0.2427699,0.04356243,-0.3449779,-0.05025794,0.100187,-0.04836772,-1.59471,-0.04,0.38,-0.12,79.88
10507,24028340,1,0.27,-1.91,357.06,-0.2436803,0.04220718,-0.3437107,-0.04782494,0.100187,-0.04836772,-1.593969,-0.04,0.38,-0.12,79.88
10550,24038487,1,0.27,-1.91,357.06,-0.2433969,0.04200944,-0.3437374,-0.04654177,0.100187,-0.04836772,-1.593753,-0.04,0.38,-0.12,79.88
10591,24048816,1,0.27,-1.9,357.05,-0.2435167,0.04293666,-0.3428197,-0.04648194,0.100187,-0.04836772,-1.593396,-0.04,0.38,-0.12,79.88
10631,24059049,1,0.27,-1.91,357.05,-0.2453419,0.04223933,-0.3429208,-0.04285746,0.100187,-0.04836772,-1.596814,-0.04,0.38,-0.12,79.88
10672,24069130,1,0.27,-1.9,357.05,-0.2461689,0.04234245,-0.3409659,-0.04025299,0.100187,-0.04836772,-1.59664,-0.04,0.38,-0.12,79.88
10716,24079065,1,0.27,-1.9,357.04,-0.2475473,0.04219852,-0.3387763,-0.03570677,0.100187,-0.04836772,-1.596611,-0.04,0.38,-0.12,79.88
10760,24089456,1,0.27,-1.9,357.04,-0.2485108,0.04237683,-0.3380241,-0.03456556,0.07792319,-0.04836772,-1.596765,-0.04,0.38,-0.12,79.88
10801,24099455,1,0.27,-1.9,357.04,-0.249647,0.04270864,-0.3375364,-0.03688013,0.07792319,-0.04836772,-1.597382,-0.04,0.38,-0.12,79.88
10841,24110177,1,0.27,-1.9,357.04,-0.2493206,0.04246587,-0.3373382,-0.03927438,0.07792319,-0.04836772,-1.596831,-0.04,0.39,-0.12,79.88
10879,24119821,1,0.27,-1.9,357.04,-0.2497477,0.04207361,-0.3360997,-0.03956482,0.07792319,-0.04836772,-1.596459,-0.04,0.39,-0.12,79.88
10921,24130474,1,0.27,-1.9,357.05,-0.2508687,0.04183906,-0.3361675,-0.03783921,0.07792319,-0.04836772,-1.59663,-0.04,0.39,-0.12,79.88
10963,24140939,1,0.27,-1.9,357.04,-0.2513529,0.04148329,-0.3355522,-0.03372784,0.07792319,-0.04836772,-1.599962,-0.04,0.39,-0.12,79.88
11004,24150954,1,0.27,-1.9,357.04,-0.2509971,0.0418397,-0.335008,-0.03351266,0.07792319,-0.04836772,-1.599954,-0.04,0.39,-0.12,79.88
11045,24161453,1,0.26,-1.89,357.04,-0.2518275,0.04226833,-0.3336162,-0.03140205,0.07792319,-0.04836772,-1.60048,-0.04,0.39,-0.12,79.88
11085,24171434,1,0.26,-1.89,357.04,-0.2526308,0.04200225,-0.3339374,-0.03445711,0.07792319,-0.04836772,-1.60078,-0.04,0.39,-0.12,79.88
11129,24181420,1,0.26,-1.89,357.04,-0.2532242,0.04236653,-0.3331807,-0.03813529,0.07792319,-0.04836772,-1.60124,-0.04,0.39,-0.12,79.88
11171,24191473,1,0.26,-1.89,357.03,-0.2540033,0.04291029,-0.3320087,-0.04454567,0.07792319,-0.04836772,-1.601814,-0.04,0.39,-0.12,79.88
11211,24202418,1,0.26,-1.89,357.03,-0.2566558,0.0433958,-0.331089,-0.04896114,0.07792319,-0.04836772,-1.60511,-0.04,0.39,-0.12,79.88
11252,24214838,1,0.27,-1.89,357.03,-0.2579341,0.04353447,-0.3337108,-0.06290233000000001,0.07792319,-0.04836772,-1.606832,-0.04,0.39,-0.12,79.88
11290,24224894,1,0.27,-1.88,357.02,-0.2578265,0.04320907,-0.3339262,-0.06954626999999999,0.07792319,-0.04836772,-1.606722,-0.04,0.39,-0.12,79.88
11331,24235249,1,0.27,-1.88,357.02,-0.2588595,0.04328258,-0.3334353,-0.07382089999999999,0.07792319,-0.04836772,-1.60682,-0.04,0.39,-0.12,79.88
11372,24245428,1,0.27,-1.88,357.02,-0.2613978,0.04453642,-0.3328462,-0.08098822999999999,0.07792319,-0.04836772,-1.610159,-0.04,0.39,-0.12,79.88
11413,24255880,1,0.27,-1.88,357.02,-0.2620541,0.04395182,-0.3307101,-0.09327257999999999,0.07792319,-0.04836772,-1.610604,-0.04,0.38,-0.11,79.88
11454,24265722,1,0.27,-1.87,357.02,-0.2625675,0.04304645,-0.3304605,-0.1039799,0.07792319,-0.04836772,-1.610881,-0.04,0.38,-0.11,79.88
11496,24275898,1,0.27,-1.87,357.02,-0.2634204,0.04251476,-0.3309588,-0.109032,0.07792319,-0.04836772,-1.614189,-0.04,0.38,-0.11,79.88
11540,24285745,1,0.27,-1.87,357.03,-0.2632207,0.04115732,-0.3310602,-0.1129091,0.07792319,-0.04836772,-1.614623,-0.04,0.39,-0.11,79.88
11585,24295794,1,0.27,-1.87,357.03,-0.2628805,0.04130718,-0.3315065,-0.1175246,0.07792319,-0.04836772,-1.615193,-0.04,0.39,-0.11,79.88
11625,24306437,1,0.26,-1.86,357.03,-0.2626553,0.04161791,-0.3303276,-0.11795,0.05565942,-0.04836772,-1.615954,-0.04,0.39,-0.11,79.88
11667,24317268,1,0.27,-1.86,357.03,-0.2640004,0.04101114,-0.3293944,-0.1213448,0.05565942,-0.04836772,-1.617122,-0.04,0.39,-0.11,79.88
11710,24330275,1,0.27,-1.86,357.03,-0.2635759,0.0393175,-0.3281861,-0.1242803,0.05565942,-0.04836772,-1.617367,-0.04,0.39,-0.11,79.88
11751,24340285,1,0.27,-1.86,357.03,-0.2646182,0.03949364,-0.3269179,-0.1224866,0.05565942,-0.04836772,-1.617125,-0.04,0.39,-0.11,79.88
11793,24351404,1,0.27,-1.85,357.02,-0.2671162,0.04015581,-0.3262925,-0.1145501,0.05565942,-0.04836772,-1.620428,-0.04,0.39,-0.11,79.88
11834,24361374,1,0.27,-1.85,357.02,-0.2672871,0.0395834,-0.3263028,-0.1078067,0.05565942,-0.04836772,-1.620308,-0.04,0.39,-0.11,79.88
11875,24371435,1,0.27,-1.85,357.02,-0.2680126,0.04029159,-0.3257584,-0.100299,0.05565942,-0.04836772,-1.620104,-0.04,0.39,-0.11,79.88
11920,24381367,1,0.27,-1.85,357.02,-0.2692379,0.03983721,-0.3271077,-0.09678291999999999,0.05565942,-0.04836772,-1.620044,-0.04,0.39,-0.11,79.88
11961,24392391,1,0.28,-1.85,357.02,-0.2708597,0.04049323,-0.3275567,-0.09387539,0.05565942,-0.04836772,-1.623355,-0.04,0.39,-0.11,79.88
12001,24402773,1,0.28,-1.85,357.02,-0.2716048,0.03974451,-0.3287728,-0.09350094,0.05565942,-0.04836772,-1.623765,-0.04,0.39,-0.11,79.88
12042,24412748,1,0.28,-1.85,357.02,-0.2714233,0.03869626,-0.3271825,-0.09166665,0.05565942,-0.04836772,-1.624062,-0.04,0.39,-0.11,79.88
12083,24422639,1,0.28,-1.84,357.02,-0.2731032,0.03802714,-0.3250269,-0.08966499999999999,0.05565942,-0.04836772,-1.624422,-0.04,0.39,-0.11,79.88
12123,24432777,1,0.28,-1.85,357.02,-0.2737867,0.03793664,-0.3244382,-0.09063880000000001,0.05565942,-0.04836772,-1.627683,-0.04,0.39,-0.11,79.88
12165,24442767,1,0.28,-1.84,357.02,-0.2742887,0.03779257,-0.3244363,-0.08694325999999999,0.05565942,-0.04836772,-1.626466,-0.04,0.39,-0.11,79.88
12205,24453400,1,0.27,-1.84,357.02,-0.2747189,0.0373331,-0.3232077,-0.07718904,0.05565942,-0.04836772,-1.625422,-0.04,0.39,-0.11,79.88
12246,24463415,1,0.27,-1.84,357.02,-0.2751317,0.03717846,-0.322571,-0.07233372,0.05565942,-0.04836772,-1.624585,-0.04,0.39,-0.11,79.88
12287,24473294,1,0.27,-1.84,357.02,-0.2754326,0.03570597,-0.3209025,-0.06513138,0.05565942,-0.04836772,-1.623957,-0.04,0.39,-0.11,79.88
12338,24485838,1,0.27,-1.84,357.02,-0.2756363,0.03429811,-0.3169831,-0.05178207,0.05565942,-0.04836772,-1.624412,-0.04,0.39,-0.11,79.88
12379,24496341,1,0.27,-1.84,357.01,-0.2768195,0.03506176,-0.3168593,-0.04321288,0.05565942,-0.04836772,-1.627573,-0.04,0.39,-0.11,79.88
12420,24506396,1,0.27,-1.84,357.01,-0.2775968,0.0352258,-0.3171067,-0.03859556,0.05565942,-0.04836772,-1.627232,-0.04,0.39,-0.11,79.88
12461,24516403,1,0.27,-1.83,357.01,-0.2791006,0.03635822,-0.3151236,-0.03318084,0.05565942,-0.04836772,-1.627088,-0.04,0.39,-0.11,79.88
12501,24529223,1,0.27,-1.83,357.01,-0.2792267,0.0365912,-0.315124,-0.03249366,0.05565942,-0.04836772,-1.62678,-0.04,0.39,-0.1,79.88
12539,24539396,1,0.27,-1.83,357,-0.2791472,0.03645302,-0.3126053,-0.02420127,0.05565942,-0.04836772,-1.626056,-0.04,0.39,-0.1,79.88
12583,24549389,1,0.27,-1.83,357,-0.2800054,0.03725506,-0.3116417,-0.02006214,0.03339566,-0.04836772,-1.625215,-0.04,0.39,-0.1,79.88
12623,24559382,1,0.27,-1.83,357,-0.2804515,0.03849601,-0.3108594,-0.01231825,0.03339566,-0.04836772,-1.624568,-0.04,0.39,-0.1,79.88
12665,24569398,1,0.27,-1.82,357,-0.2829705,0.03976185,-0.3106715,-0.002735751,0.03339566,-0.04836772,-1.62769,-0.04,0.39,-0.1,79.88
12705,24579389,1,0.27,-1.82,357,-0.2836701,0.04050512,-0.3101892,0.003702278,0.03339566,-0.04836772,-1.627216,-0.04,0.39,-0.1,79.88
12750,24589421,1,0.27,-1.82,357,-0.2841496,0.04002364,-0.3093673,0.006423602,0.03339566,-0.04836772,-1.626919,-0.04,0.39,-0.1,79.88
12792,24599374,1,0.27,-1.82,357,-0.284588,0.04136912,-0.3093565,0.00630453,0.03339566,-0.04836772,-1.626786,-0.04,0.39,-0.1,79.88
12832,24609436,1,0.27,-1.81,357,-0.2854947,0.04102061,-0.3080853,0.004399632,0.03339566,-0.04836772,-1.629881,-0.04,0.39,-0.1,79.88
12873,24619418,1,0.27,-1.81,357,-0.2850278,0.04030357,-0.3070602,0.0008916982,0.03339566,-0.04836772,-1.629845,-0.04,0.39,-0.1,79.88
12912,24632742,1,0.27,-1.8,357,-0.2866725,0.03986369,-0.3047028,0.002119779,0.03339566,-0.04836772,-1.629441,-0.04,0.39,-0.1,79.88
12953,24642435,1,0.27,-1.81,357,-0.2865932,0.03983757,-0.3033832,0.006566097,0.03339566,-0.04836772,-1.628317,-0.04,0.39,-0.1,79.88
12995,24652970,1,0.27,-1.81,357,-0.2870259,0.04027373,-0.3031819,0.01155831,0.03339566,-0.04836772,-1.627405,-0.04,0.39,-0.1,79.88
13035,24662981,1,0.27,-1.8,357,-0.2870603,0.04046819,-0.3036464,0.01468269,0.03339566,-0.04836772,-1.62671,-0.04,0.39,-0.1,79.88
13077,24672962,1,0.27,-1.81,357,-0.2875944,0.04064732,-0.3039497,0.01453469,0.03339566,-0.04836772,-1.626146,-0.04,0.39,-0.1,79.88
13117,24682955,1,0.27,-1.81,357,-0.2882778,0.04035216,-0.3030739,0.01426017,0.03339566,-0.04836772,-1.625824,-0.04,0.39,-0.1,79.88
13164,24693595,1,0.27,-1.8,357,-0.2896464,0.0399102,-0.3034483,0.0151037,0.01113188,-0.04836772,-1.62882,-0.04,0.39,-0.1,79.88
13204,24703389,1,0.27,-1.8,357,-0.2904282,0.03926377,-0.3015807,0.007513979,0.01113188,-0.04836772,-1.628571,-0.04,0.39,-0.1,79.88
13246,24713370,1,0.27,-1.8,357,-0.2900163,0.04101238,-0.3002598,5.564443e-05,0.01113188,-0.04836772,-1.628511,-0.04,0.39,-0.1,79.88
13286,24723900,1,0.27,-1.8,357.01,-0.2918746,0.04122628,-0.3016705,-0.007290077,0.01113188,-0.04836772,-1.631831,-0.04,0.39,-0.1,79.88
13326,24734258,1,0.27,-1.8,357.01,-0.2918271,0.04248988,-0.301382,-0.01046422,0.01113188,-0.04836772,-1.630332,-0.04,0.39,-0.1,79.88
13363,24744315,1,0.27,-1.79,357.01,-0.2911724,0.04236016,-0.2998467,-0.01077448,0.01113188,-0.04836772,-1.629056,-0.04,0.39,-0.1,79.88
13404,24754334,1,0.27,-1.79,357.02,-0.2918185,0.04320536,-0.2989323,-0.009260648999999999,0.01113188,-0.04836772,-1.627997,-0.04,0.39,-0.1,79.88
13445,24764327,1,0.27,-1.79,357.02,-0.2927197,0.04242297,-0.2981608,-0.007084112,0.01113188,-0.04836772,-1.627123,-0.04,0.39,-0.1,79.88
13486,24774427,1,0.27,-1.79,357.02,-0.294093,0.04210886,-0.2994761,-0.002587893,0.01113188,-0.04836772,-1.630124,-0.04,0.39,-0.1,79.88
13527,24784318,1,0.27,-1.79,357.02,-0.2944548,0.04307237,-0.2976533,-0.001303589,0.01113188,-0.04836772,-1.629404,-0.04,0.39,-0.1,79.88
13572,24794360,1,0.27,-1.78,357.03,-0.2952173,0.04223254,-0.2978215,-0.003607507,0.01113188,-0.04836772,-1.628873,-0.04,0.39,-0.1,79.88
13613,24804319,1,0.27,-1.78,357.03,-0.2953507,0.0415394,-0.2962942,-0.004580406,0.01113188,-0.04836772,-1.628503,-0.04,0.39,-0.1,79.88
13654,24814288,1,0.27,-1.78,357.03,-0.2969307,0.04184993,-0.297338,-0.004872487,0.01113188,-0.04836772,-1.631474,-0.04,0.39,-0.1,79.88
13694,24824323,1,0.27,-1.78,357.03,-0.2985795,0.04159484,-0.2976628,-0.00753516,0.01113188,-0.04836772,-1.631263,-0.04,0.39,-0.1,79.88
13733,24834487,1,0.27,-1.77,357.03,-0.298307,0.04092344,-0.2973934,-0.01318567,0.01113188,-0.04836772,-1.630345,-0.04,0.39,-0.1,79.88
13775,24844425,1,0.27,-1.76,357.03,-0.2970754,0.04014178,-0.2969933,-0.0171686,0.01113188,-0.04836772,-1.629307,-0.04,0.39,-0.1,79.88
13815,24854400,1,0.27,-1.76,357.02,-0.2987247,0.04018456,-0.2996427,-0.01712391,0.01113188,-0.04836772,-1.632287,-0.04,0.39,-0.1,79.88
13856,24864411,1,0.27,-1.77,357.02,-0.2973562,0.0393605,-0.298873,-0.01378521,0.01113188,-0.04836772,-1.631481,-0.04,0.39,-0.1,79.88
13896,24874457,1,0.27,-1.76,357.02,-0.2977377,0.03980264,-0.2972329,-0.01137862,0.01113188,-0.04836772,-1.630843,-0.04,0.39,-0.1,79.88
13938,24884413,1,0.27,-1.77,357.02,-0.2982277,0.0404375,-0.2947554,-0.005670935,0.01113188,-0.04836772,-1.63039,-0.04,0.39,-0.1,79.88
13986,24894491,1,0.28,-1.77,357.02,-0.3000394,0.04114042,-0.2944886,-0.00406109,-0.01113188,-0.04030643,-1.630082,-0.04,0.39,-0.1,79.88
14026,24904381,1,0.28,-1.77,357.03,-0.300488,0.04154087,-0.292642,-0.004452072,-0.01113188,-0.04030643,-1.629944,-0.04,0.39,-0.1,79.88
14067,24914411,1,0.28,-1.76,357.03,-0.302472,0.04119172,-0.2952224,-0.007108143,-0.01113188,-0.04030643,-1.632879,-0.04,0.39,-0.1,79.88
14107,24924964,1,0.28,-1.76,357.02,-0.3039972,0.04046926,-0.2941639,-0.009648612000000001,-0.01113188,-0.04030643,-1.632916,-0.04,0.39,-0.1,79.88
14142,24935443,1,0.28,-1.76,357.02,-0.3047842,0.04073562,-0.2930427,-0.01168107,-0.01113188,-0.04030643,-1.631875,-0.04,0.4,-0.1,79.88
14184,24945452,1,0.28,-1.76,357.03,-0.3047258,0.04043707,-0.2915747,-0.01015299,-0.01113188,-0.04030643,-1.630737,-0.04,0.4,-0.1,79.88
14224,24955455,1,0.27,-1.77,357.02,-0.3061001,0.04054639,-0.2913458,-0.0105566,-0.01113188,-0.04030643,-1.629786,-0.04,0.4,-0.1,79.88
14265,24965613,1,0.27,-1.76,357.02,-0.3085008,0.03892376,-0.2919445,-0.006480659,-0.01113188,-0.04030643,-1.632711,-0.04,0.4,-0.1,79.88
14305,24975442,1,0.28,-1.76,357.02,-0.3089169,0.03814119,-0.2915473,-0.00268338,-0.01113188,-0.04030643,-1.631982,-0.04,0.4,-0.1,79.88
14348,24985430,1,0.28,-1.76,357.02,-0.31047,0.03872432,-0.2901084,-0.0003171156,-0.01113188,-0.04030643,-1.63139,-0.04,0.4,-0.1,79.88
14392,24995454,1,0.28,-1.76,357.01,-0.311713,0.03972005,-0.2893792,0.0002938095,-0.01113188,-0.04030643,-1.630993,-0.04,0.4,-0.1,79.88
14433,25005460,1,0.27,-1.76,357.01,-0.3122475,0.03814314,-0.2869228,-0.000334634,-0.01113188,-0.04030643,-1.630697,-0.04,0.4,-0.1,79.88
14474,25015880,1,0.27,-1.76,357.02,-0.3129482,0.03792539,-0.284449,0.001153795,-0.01113188,-0.04030643,-1.6306,-0.04,0.4,-0.1,79.88
14516,25031575,1,0.27,-1.76,357.02,-0.31376,0.03824945,-0.2816029,0.003645569,-0.01113188,-0.04030643,-1.631056,-0.04,0.4,-0.1,79.88
14557,25041638,1,0.27,-1.76,357.02,-0.3152337,0.03705289,-0.2804455,0.002335658,-0.01113188,-0.04030643,-1.629959,-0.04,0.4,-0.1,79.88
14598,25051858,1,0.27,-1.76,357.02,-0.3147397,0.0366133,-0.2791965,0.006207817,-0.01113188,-0.04030643,-1.629114,-0.04,0.4,-0.1,79.88
14639,25062478,1,0.27,-1.76,357.03,-0.3171844,0.03659186,-0.2809402,0.01038335,-0.01113188,-0.04030643,-1.631909,-0.04,0.4,-0.1,79.88
14679,25072862,1,0.27,-1.75,357.03,-0.3152458,0.03707058,-0.2824151,0.01131166,-0.01113188,-0.04030643,-1.631486,-0.04,0.4,-0.1,79.88
14720,25082809,1,0.26,-1.75,357.04,-0.3177013,0.03747461,-0.2822075,0.008325730999999999,-0.01113188,-0.04030643,-1.630945,-0.04,0.4,-0.1,79.88
14765,25092845,1,0.26,-1.75,357.04,-0.3203419,0.03795639,-0.28202,0.004123254,-0.01113188,-0.04030643,-1.633781,-0.04,0.4,-0.1,79.88
14808,25102815,1,0.26,-1.75,357.04,-0.3218895,0.03744434,-0.2794723,0.001039966,-0.04452754,-0.04836772,-1.633359,-0.04,0.4,-0.1,79.88
14850,25113352,1,0.27,-1.74,357.04,-0.3227539,0.03691007,-0.2794917,-0.001855496,-0.04452754,-0.04836772,-1.633129,-0.04,0.4,-0.1,79.88
14895,25126299,1,0.27,-1.75,357.04,-0.3239462,0.03814905,-0.2772551,-0.005769045,-0.04452754,-0.04836772,-1.633846,-0.04,0.4,-0.1,79.88
14936,25136278,1,0.27,-1.75,357.05,-0.3241631,0.03794119,-0.2767954,-0.007766447,-0.04452754,-0.04836772,-1.632596,-0.04,0.4,-0.1,79.88
14976,25147106,1,0.27,-1.75,357.05,-0.3254344,0.03827123,-0.2757908,-0.01231347,-0.04452754,-0.04836772,-1.63564,-0.04,0.4,-0.1,79.88
15017,25157356,1,0.27,-1.75,357.05,-0.3257898,0.03718043,-0.2737007,-0.01455291,-0.04452754,-0.04836772,-1.6345,-0.04,0.4,-0.1,79.88
15059,25167780,1,0.27,-1.74,357.05,-0.3259064,0.03830748,-0.2737314,-0.02030179,-0.04452754,-0.04836772,-1.633789,-0.04,0.4,-0.1,79.88
15099,25177791,1,0.27,-1.74,357.06,-0.3259527,0.03919152,-0.2723369,-0.01854829,-0.04452754,-0.04836772,-1.633001,-0.04,0.4,-0.1,79.88
15140,25187927,1,0.27,-1.74,357.06,-0.327163,0.03954083,-0.2714835,-0.01789602,-0.04452754,-0.04836772,-1.635731,-0.04,0.4,-0.1,79.88
15185,25198016,1,0.27,-1.74,357.06,-0.327559,0.03929832,-0.2704465,-0.01827038,-0.04452754,-0.04836772,-1.635072,-0.04,0.4,-0.1,79.88
15227,25208306,1,0.27,-1.74,357.07,-0.3274938,0.04043537,-0.2684977,-0.0213582,-0.04452754,-0.04836772,-1.634556,-0.04,0.39,-0.1,79.88
15267,25218256,1,0.27,-1.74,357.07,-0.3277022,0.03975395,-0.2682577,-0.02495601,-0.04452754,-0.04836772,-1.634189,-0.04,0.39,-0.1,79.88
15308,25228089,1,0.27,-1.74,357.08,-0.329591,0.04086153,-0.2674548,-0.02401403,-0.04452754,-0.04836772,-1.636866,-0.04,0.39,-0.1,79.88
15346,25238589,1,0.27,-1.74,357.08,-0.3315946,0.0410612,-0.2661524,-0.02505921,-0.04452754,-0.04836772,-1.636891,-0.04,0.39,-0.1,79.88
15386,25248393,1,0.27,-1.73,357.08,-0.3308146,0.04058296,-0.2648312,-0.02103521,-0.04452754,-0.04836772,-1.635586,-0.04,0.4,-0.1,79.88
15427,25258524,1,0.27,-1.73,357.08,-0.3299074,0.04017073,-0.264196,-0.01863527,-0.04452754,-0.04836772,-1.634713,-0.04,0.4,-0.09,79.88
15467,25268936,1,0.27,-1.73,357.08,-0.3304184,0.04040569,-0.2636354,-0.01651812,-0.04452754,-0.04836772,-1.634258,-0.04,0.4,-0.09,79.88
15515,25281483,1,0.27,-1.73,357.08,-0.3312955,0.04028627,-0.2634891,-0.01284198,-0.05565942,-0.04836772,-1.634496,-0.04,0.4,-0.09,79.88
15558,25291432,1,0.27,-1.73,357.08,-0.332451,0.0406873,-0.263751,-0.01396469,-0.05565942,-0.04836772,-1.634109,-0.04,0.4,-0.09,79.88
15606,25301800,1,0.26,-1.73,357.08,-0.3341058,0.04021562,-0.2629978,-0.01122251,-0.05565942,-0.04836772,-1.636764,-0.04,0.4,-0.09,79.88
15647,25311845,1,0.27,-1.73,357.08,-0.3351001,0.04035738,-0.2613891,-0.0104893,-0.05565942,-0.04836772,-1.636503,-0.04,0.4,-0.09,79.88
15687,25321781,1,0.27,-1.73,357.07,-0.3354471,0.04021779,-0.2618589,-0.01088081,-0.05565942,-0.04836772,-1.636398,-0.04,0.4,-0.09,79.88
15732,25334486,1,0.26,-1.74,357.08,-0.3352341,0.0407353,-0.2627454,-0.01036571,-0.05565942,-0.04836772,-1.636092,-0.04,0.4,-0.09,79.88
15772,25344387,1,0.26,-1.74,357.08,-0.3352978,0.04115706,-0.2604591,-0.005643857,-0.05565942,-0.04836772,-1.634902,-0.04,0.4,-0.09,79.88
15813,25354856,1,0.26,-1.74,357.08,-0.3358122,0.04127067,-0.259137,-0.003734599,-0.05565942,-0.04836772,-1.634385,-0.04,0.4,-0.09,79.88
15854,25364858,1,0.26,-1.74,357.08,-0.3351461,0.0407626,-0.2579064,-0.002565122,-0.05565942,-0.04836772,-1.633768,-0.04,0.4,-0.09,79.88
15894,25374891,1,0.26,-1.74,357.08,-0.3370066,0.03975746,-0.2593546,-0.0007631954,-0.05565942,-0.04836772,-1.636344,-0.04,0.4,-0.09,79.88
15936,25384852,1,0.26,-1.74,357.08,-0.3377349,0.03838117,-0.2587652,5.562569e-05,-0.05565942,-0.04836772,-1.635889,-0.04,0.4,-0.09,79.88
15982,25394843,1,0.26,-1.73,357.08,-0.3390428,0.03947522,-0.2587673,-0.006571385,-0.05565942,-0.04836772,-1.638454,-0.04,0.4,-0.09,79.88
16022,25405454,1,0.26,-1.73,357.08,-0.339403,0.03836114,-0.2568194,-0.01557635,-0.05565942,-0.04836772,-1.638321,-0.04,0.39,-0.09,79.88
16063,25415423,1,0.26,-1.73,357.07,-0.3397734,0.03908559,-0.2576144,-0.02384688,-0.05565942,-0.04836772,-1.638073,-0.04,0.4,-0.09,79.88
16104,25425471,1,0.26,-1.73,357.07,-0.340933,0.0390067,-0.2568138,-0.03060951,-0.05565942,-0.04836772,-1.637957,-0.04,0.4,-0.09,79.88
16145,25435448,1,0.26,-1.73,357.07,-0.3428124,0.03972259,-0.2566991,-0.03385691,-0.05565942,-0.04836772,-1.640516,-0.04,0.4,-0.09,79.88
16185,25445616,1,0.26,-1.73,357.07,-0.3424908,0.04024943,-0.257658,-0.03867472,-0.05565942,-0.04836772,-1.640587,-0.04,0.4,-0.09,79.88
16223,25455654,1,0.26,-1.72,357.06,-0.3420686,0.04014499,-0.2582493,-0.04213456,-0.05565942,-0.04836772,-1.639753,-0.04,0.4,-0.09,79.88
16263,25465421,1,0.26,-1.72,357.06,-0.3423281,0.03942386,-0.2584447,-0.04294465,-0.05565942,-0.04836772,-1.639145,-0.04,0.4,-0.09,79.88
16304,25475483,1,0.26,-1.72,357.06,-0.3413629,0.03933707,-0.256431,-0.04196781,-0.05565942,-0.04836772,-1.63865,-0.04,0.4,-0.09,79.88
16345,25485468,1,0.26,-1.72,357.06,-0.3427346,0.04078348,-0.2587651,-0.04104249,-0.05565942,-0.04836772,-1.641237,-0.04,0.4,-0.09,79.88
16392,25495435,1,0.26,-1.72,357.06,-0.3427289,0.04041972,-0.2591131,-0.0390852,-0.05565942,-0.04836772,-1.640939,-0.04,0.4,-0.09,79.88
16435,25505416,1,0.26,-1.71,357.05,-0.3431479,0.04086466,-0.2566495,-0.03415628,-0.07792319,-0.04836772,-1.640794,-0.04,0.4,-0.09,79.88
16476,25515451,1,0.26,-1.71,357.05,-0.3441506,0.04077879,-0.2536739,-0.03012997,-0.07792319,-0.04836772,-1.640768,-0.04,0.4,-0.09,79.88
16517,25525354,1,0.26,-1.71,357.05,-0.3445523,0.04033012,-0.2534952,-0.03042848,-0.07792319,-0.04836772,-1.640841,-0.04,0.4,-0.09,79.88
16555,25538306,1,0.26,-1.71,357.05,-0.3452903,0.03953291,-0.2537818,-0.03233558,-0.07792319,-0.04836772,-1.640033,-0.04,0.4,-0.09,79.88
16596,25548667,1,0.25,-1.7,357.05,-0.3462078,0.03964279,-0.2516635,-0.02886287,-0.07792319,-0.04836772,-1.639135,-0.04,0.4,-0.09,79.88
16637,25559004,1,0.26,-1.7,357.05,-0.3482673,0.0406504,-0.2493009,-0.01968907,-0.07792319,-0.04836772,-1.641635,-0.04,0.4,-0.09,79.88
16677,25569007,1,0.26,-1.7,357.05,-0.34747,0.04061167,-0.2484984,-0.01385768,-0.07792319,-0.04836772,-1.640617,-0.04,0.4,-0.09,79.88
16718,25578979,1,0.26,-1.7,357.05,-0.3468964,0.04010117,-0.2461787,-0.006375211,-0.07792319,-0.04836772,-1.639766,-0.04,0.4,-0.09,79.88
16759,25589026,1,0.26,-1.7,357.05,-0.3466145,0.0406969,-0.2442292,-0.001613895,-0.07792319,-0.04836772,-1.639061,-0.04,0.4,-0.09,79.88
16804,25599353,1,0.26,-1.69,357.04,-0.3481647,0.03951376,-0.2454021,-3.551741e-05,-0.07792319,-0.04836772,-1.641516,-0.04,0.4,-0.09,79.88
16846,25609000,1,0.26,-1.69,357.04,-0.3489758,0.04100171,-0.2435188,2.265413e-05,-0.07792319,-0.04836772,-1.640911,-0.04,0.4,-0.09,79.88
16889,25618986,1,0.26,-1.69,357.05,-0.3499659,0.03978527,-0.2435616,-0.003006502,-0.07792319,-0.04836772,-1.640473,-0.04,0.4,-0.09,79.88
16930,25629068,1,0.25,-1.69,357.05,-0.3522272,0.04019088,-0.2437757,-0.005469712,-0.07792319,-0.04836772,-1.642907,-0.04,0.4,-0.09,79.88
16970,25641735,1,0.25,-1.68,357.05,-0.353045,0.04104502,-0.2412997,-0.008350293,-0.07792319,-0.04836772,-1.643318,-0.04,0.4,-0.08,79.88
17011,25651977,1,0.25,-1.68,357.05,-0.3535968,0.04232768,-0.2395008,-0.00551312,-0.07792319,-0.04836772,-1.64147,-0.04,0.4,-0.08,79.88
17052,25662188,1,0.25,-1.67,357.05,-0.3538209,0.04219088,-0.2398528,0.001905217,-0.07792319,-0.04836772,-1.639853,-0.04,0.4,-0.08,79.88
17092,25672416,1,0.26,-1.67,357.05,-0.3532144,0.04054802,-0.2403215,0.009721169999999999,-0.07792319,-0.04836772,-1.638432,-0.04,0.4,-0.08,79.88
17135,25682961,1,0.26,-1.68,357.05,-0.3546568,0.04011029,-0.2397884,0.0137257,-0.07792319,-0.04836772,-1.641071,-0.04,0.4,-0.08,79.88
17176,25693413,1,0.26,-1.67,357.05,-0.3550437,0.04079289,-0.2391276,0.008387561999999999,-0.08905507999999999,-0.04836772,-1.639748,-0.04,0.39,-0.08,79.88
17221,25703340,1,0.26,-1.67,357.05,-0.354907,0.04128711,-0.2377928,0.0105484,-0.08905507999999999,-0.04836772,-1.638605,-0.04,0.4,-0.08,79.88
17262,25713309,1,0.26,-1.67,357.04,-0.3562402,0.04141958,-0.2366603,0.01323137,-0.08905507999999999,-0.04836772,-1.637648,-0.04,0.4,-0.08,79.88
17303,25723759,1,0.25,-1.67,357.04,-0.3576426,0.04222401,-0.238027,0.01716566,-0.08905507999999999,-0.04836772,-1.64025,-0.04,0.4,-0.08,79.88
17347,25736314,1,0.25,-1.67,357.04,-0.3568359,0.04312335,-0.2344277,0.02205465,-0.08905507999999999,-0.04836772,-1.63719,-0.04,0.4,-0.08,79.88
17388,25746656,1,0.26,-1.67,357.04,-0.3585581,0.04329844,-0.2337644,0.02641359,-0.08905507999999999,-0.04836772,-1.639525,-0.04,0.4,-0.08,79.88
17429,25757324,1,0.26,-1.67,357.04,-0.3588773,0.04230897,-0.2336415,0.03109172,-0.08905507999999999,-0.04836772,-1.637445,-0.04,0.4,-0.08,79.88
17469,25767659,1,0.25,-1.66,357.04,-0.3594175,0.04292019,-0.2340968,0.03341283,-0.08905507999999999,-0.04836772,-1.635806,-0.04,0.4,-0.08,79.88
17510,25777474,1,0.25,-1.66,357.04,-0.3591165,0.0431414,-0.233962,0.03557047,-0.08905507999999999,-0.04836772,-1.634139,-0.04,0.4,-0.08,79.88
17552,25787492,1,0.25,-1.67,357.04,-0.3607014,0.04308711,-0.233139,0.04440195,-0.08905507999999999,-0.04836772,-1.636458,-0.04,0.4,-0.08,79.88
17592,25797616,1,0.25,-1.67,357.04,-0.3599622,0.04366484,-0.2326762,0.05179064,-0.08905507999999999,-0.04836772,-1.634981,-0.04,0.4,-0.08,79.88
17637,25807653,1,0.25,-1.67,357.04,-0.3599688,0.04369222,-0.2309689,0.05490981,-0.08905507999999999,-0.04836772,-1.633669,-0.04,0.4,-0.08,79.88
17677,25817874,1,0.25,-1.67,357.04,-0.3596504,0.04227538,-0.2302099,0.05820223,-0.08905507999999999,-0.04836772,-1.632514,-0.04,0.4,-0.08,79.88
17719,25827863,1,0.25,-1.67,357.05,-0.3598689,0.04344219,-0.2306439,0.05914896,-0.08905507999999999,-0.04836772,-1.631571,-0.04,0.4,-0.08,79.88
17762,25841106,1,0.25,-1.67,357.05,-0.3612222,0.0435198,-0.2278158,0.0675239,-0.08905507999999999,-0.04836772,-1.629597,-0.04,0.4,-0.08,79.88
17801,25850902,1,0.25,-1.67,357.05,-0.3608439,0.04358705,-0.2263342,0.07510615,-0.08905507999999999,-0.04836772,-1.627157,-0.04,0.4,-0.08,79.88
17842,25861766,1,0.24,-1.68,357.05,-0.3608073,0.04400063,-0.2240153,0.08975880999999999,-0.08905507999999999,-0.04836772,-1.625188,-0.04,0.4,-0.08,79.88
17882,25872301,1,0.25,-1.68,357.05,-0.3638625,0.04362541,-0.2220431,0.1055829,-0.08905507999999999,-0.04836772,-1.627398,-0.04,0.4,-0.08,79.88
17923,25882390,1,0.25,-1.67,357.05,-0.3650506,0.04414763,-0.2221674,0.1147535,-0.08905507999999999,-0.04836772,-1.625388,-0.04,0.4,-0.08,79.88
17965,25892411,1,0.25,-1.67,357.05,-0.3653373,0.04570441,-0.2216613,0.1254888,-0.100187,-0.04836772,-1.623578,-0.04,0.41,-0.08,79.88
18011,25902289,1,0.25,-1.68,357.05,-0.3659319,0.04619036,-0.2205751,0.1333458,-0.100187,-0.04836772,-1.621968,-0.04,0.41,-0.08,79.88
18051,25912402,1,0.25,-1.67,357.05,-0.3683019,0.04589672,-0.218574,0.134401,-0.100187,-0.04836772,-1.624162,-0.04,0.41,-0.08,79.88
18091,25922425,1,0.25,-1.67,357.04,-0.3684447,0.04535698,-0.2178853,0.1312287,-0.100187,-0.04836772,-1.622661,-0.04,0.4,-0.08,79.88
18134,25932368,1,0.25,-1.67,357.05,-0.3689764,0.04538453,-0.2153592,0.1247176,-0.100187,-0.04836772,-1.621313,-0.04,0.4,-0.08,79.88
18177,25944855,1,0.25,-1.67,357.04,-0.3691877,0.04655674,-0.2150066,0.118535,-0.100187,-0.04836772,-1.619099,-0.04,0.4,-0.08,79.88
18215,25954957,1,0.25,-1.67,357.05,-0.3696568,0.04623913,-0.2138349,0.1163337,-0.100187,-0.04836772,-1.616522,-0.04,0.4,-0.08,79.88
18256,25965471,1,0.24,-1.66,357.05,-0.3716522,0.04730138,-0.2148791,0.1202092,-0.100187,-0.04836772,-1.618857,-0.04,0.4,-0.08,79.88
18296,25975414,1,0.24,-1.66,357.05,-0.3716533,0.04689773,-0.2145925,0.124358,-0.100187,-0.04836772,-1.616484,-0.04,0.4,-0.08,79.88
18338,25985389,1,0.24,-1.66,357.05,-0.3745787,0.04696131,-0.2139672,0.1182603,-0.100187,-0.04836772,-1.618613,-0.04,0.4,-0.08,79.88
18379,25995926,1,0.24,-1.66,357.05,-0.3742554,0.04778237,-0.2137707,0.1129322,-0.100187,-0.04836772,-1.616377,-0.04,0.4,-0.07000000000000001,79.88
18424,26006278,1,0.24,-1.66,357.05,-0.3742275,0.04783761,-0.2141015,0.1099569,-0.100187,-0.04836772,-1.614324,-0.04,0.4,-0.07000000000000001,79.88
18464,26015913,1,0.25,-1.66,357.05,-0.3749367,0.04748172,-0.2136259,0.1069622,-0.100187,-0.04836772,-1.61251,-0.04,0.4,-0.07000000000000001,79.88
18505,26025958,1,0.25,-1.65,357.05,-0.3760583,0.047161,-0.2124145,0.10546,-0.100187,-0.04836772,-1.6109,-0.04,0.4,-0.07000000000000001,79.88
18546,26036429,1,0.25,-1.65,357.05,-0.3779787,0.04761558,-0.2124102,0.1064099,-0.100187,-0.04836772,-1.613251,-0.04,0.4,-0.07000000000000001,79.88
18588,26046457,1,0.25,-1.65,357.06,-0.3787362,0.04631696,-0.2105519,0.1069214,-0.100187,-0.04836772,-1.611788,-0.04,0.4,-0.07000000000000001,79.88
18626,26057251,1,0.25,-1.66,357.05,-0.3779411,0.04853546,-0.208686,0.1073253,-0.100187,-0.04836772,-1.609339,-0.04,0.4,-0.07000000000000001,79.88
18667,26067179,1,0.25,-1.66,357.05,-0.3773657,0.04948537,-0.2071991,0.1132371,-0.100187,-0.04836772,-1.607141,-0.04,0.4,-0.07000000000000001,79.88
18708,26077308,1,0.24,-1.66,357.05,-0.3771355,0.04982335,-0.206527,0.1119252,-0.100187,-0.04836772,-1.60511,-0.04,0.4,-0.07000000000000001,79.88
18749,26087484,1,0.24,-1.66,357.05,-0.3804067,0.05001294,-0.2056705,0.115911,-0.100187,-0.04836772,-1.607358,-0.04,0.4,-0.07000000000000001,79.88
18792,26097983,1,0.24,-1.66,357.05,-0.3795513,0.05009773,-0.2046076,0.1163226,-0.100187,-0.04836772,-1.605515,-0.04,0.4,-0.07000000000000001,79.88
18837,26107950,1,0.24,-1.66,357.06,-0.3800054,0.05028462,-0.2049715,0.1151305,-0.100187,-0.04836772,-1.603837,-0.04,0.4,-0.07000000000000001,79.88
18880,26117937,1,0.24,-1.66,357.05,-0.3806614,0.04936256,-0.2029489,0.1138009,-0.100187,-0.04836772,-1.602357,-0.04,0.4,-0.07000000000000001,79.88
18921,26127954,1,0.24,-1.65,357.05,-0.3812248,0.04915771,-0.2019169,0.1107504,-0.100187,-0.04836772,-1.601047,-0.04,0.4,-0.07000000000000001,79.88
18962,26138461,1,0.24,-1.65,357.05,-0.3819028,0.04905614,-0.2040661,0.1066319,-0.100187,-0.04836772,-1.603287,-0.04,0.4,-0.07000000000000001,79.88
19002,26148968,1,0.24,-1.65,357.06,-0.3816042,0.04934257,-0.2016954,0.1034573,-0.100187,-0.04836772,-1.602136,-0.04,0.4,-0.07000000000000001,79.88
19037,26159317,1,0.24,-1.65,357.06,-0.3819558,0.0487884,-0.199293,0.1002147,-0.100187,-0.04836772,-1.599882,-0.04,0.4,-0.07000000000000001,79.88
19078,26169410,1,0.24,-1.65,357.06,-0.3828917,0.04879484,-0.1976536,0.09919314999999999,-0.100187,-0.04836772,-1.597832,-0.04,0.4,-0.07000000000000001,79.88
19119,26179283,1,0.24,-1.65,357.06,-0.3840182,0.04914225,-0.1964246,0.09902935,-0.100187,-0.04836772,-1.595968,-0.04,0.4,-0.07000000000000001,79.88
19161,26189718,1,0.24,-1.64,357.06,-0.383633,0.04784805,-0.1928132,0.1048231,-0.100187,-0.04836772,-1.594509,-0.04,0.41,-0.07000000000000001,79.88
19201,26199674,1,0.24,-1.64,357.06,-0.3853059,0.04734617,-0.1923532,0.1091522,-0.100187,-0.04836772,-1.596428,-0.04,0.41,-0.07000000000000001,79.88
19246,26209640,1,0.24,-1.64,357.06,-0.3852482,0.04727526,-0.1900406,0.1115692,-0.100187,-0.04836772,-1.594921,-0.04,0.41,-0.07000000000000001,79.88
19286,26219693,1,0.24,-1.63,357.06,-0.3859417,0.04722437,-0.1891368,0.1111078,-0.100187,-0.04836772,-1.593535,-0.04,0.41,-0.07000000000000001,79.88
19327,26229658,1,0.24,-1.63,357.06,-0.3857799,0.04671082,-0.1887506,0.1086268,-0.100187,-0.04836772,-1.592359,-0.04,0.41,-0.07000000000000001,79.88
19368,26239671,1,0.24,-1.63,357.06,-0.3853741,0.04615737,-0.1876122,0.1037406,-0.100187,-0.04836772,-1.591304,-0.04,0.41,-0.07000000000000001,79.88
19410,26255699,1,0.24,-1.63,357.07,-0.3867149,0.04619398,-0.1864527,0.09821343,-0.100187,-0.04836772,-1.590428,-0.04,0.41,-0.07000000000000001,79.88
19451,26265720,1,0.24,-1.63,357.07,-0.3862562,0.04720635,-0.1852528,0.09877194,-0.100187,-0.04836772,-1.588633,-0.04,0.41,-0.07000000000000001,79.88
19491,26275736,1,0.24,-1.63,357.07,-0.386335,0.04688377,-0.184207,0.09744912,-0.100187,-0.04836772,-1.587,-0.04,0.41,-0.07000000000000001,79.88
19533,26286351,1,0.24,-1.64,357.07,-0.3880676,0.04752894,-0.1839823,0.09929636,-0.100187,-0.04836772,-1.588835,-0.04,0.41,-0.07000000000000001,79.88
19574,26296459,1,0.24,-1.63,357.07,-0.3887753,0.04705196,-0.1845638,0.0972321,-0.100187,-0.04836772,-1.587575,-0.04,0.41,-0.07000000000000001,79.88
19618,26306638,1,0.24,-1.64,357.07,-0.3897676,0.04661008,-0.1846853,0.09756399,-0.1113188,-0.04836772,-1.5863,-0.04,0.41,-0.07000000000000001,79.88
