LineNo,TimeUS,Roll,Pitch,Yaw,Alt,Lat,Lng,Q1,Q2,Q3,Q4
207,1.5038e+07,0.24,-0.28,12.34,-0.1,43.601,13.482,0.9942,0.0024225,-0.002222,0.10747
310,1.5072e+07,0.25,-0.28,12.35,-0.1,43.601,13.482,0.9942,0.0024427,-0.0022566,0.10754
652,1.5134e+07,0.25,-0.28,12.36,-0.1,43.601,13.482,0.99418,0.0024894,-0.0022378,0.10766
765,1.515e+07,0.25,-0.28,12.36,-0.22,43.601,13.482,0.99418,0.0024805,-0.0022345,0.10766
878,1.5165e+07,0.25,-0.28,12.37,-0.22,43.601,13.482,0.99418,0.0024844,-0.0022336,0.10767
991,1.5183e+07,0.25,-0.28,12.37,-0.22,43.601,13.482,0.99418,0.0024831,-0.0022407,0.10769
1222,1.5261e+07,0.25,-0.29,12.38,-0.22,43.601,13.482,0.99416,0.0025114,-0.0023301,0.10782
1606,1.5416e+07,0.25,-0.3,12.39,-0.13,43.601,13.482,0.99416,0.0025363,-0.0024113,0.1079
1684,1.5427e+07,0.25,-0.3,12.39,-0.13,43.601,13.482,0.99415,0.0025298,-0.0024281,0.10791
1726,1.5437e+07,0.25,-0.3,12.39,-0.13,43.601,13.482,0.99415,0.0025186,-0.0024476,0.10791
1766,1.5447e+07,0.25,-0.31,12.39,-0.13,43.601,13.482,0.99415,0.0025097,-0.0024741,0.10793
1807,1.5461e+07,0.25,-0.31,12.4,-0.13,43.601,13.482,0.99415,0.0025076,-0.002502,0.10794
1850,1.5473e+07,0.25,-0.31,12.4,-0.13,43.601,13.482,0.99415,0.0025281,-0.0025346,0.10795
1892,1.5483e+07,0.25,-0.32,12.4,-0.13,43.601,13.482,0.99415,0.0025304,-0.0025536,0.10797
1937,1.5493e+07,0.25,-0.32,12.4,-0.23,43.601,13.482,0.99415,0.0025369,-0.002577,0.10798
1977,1.5503e+07,0.25,-0.32,12.4,-0.23,43.601,13.482,0.99414,0.0025448,-0.0025891,0.108
2018,1.5513e+07,0.25,-0.32,12.4,-0.23,43.601,13.482,0.99414,0.0025618,-0.0025994,0.10799
2061,1.5524e+07,0.26,-0.32,12.4,-0.23,43.601,13.482,0.99414,0.0025697,-0.0026138,0.108
2105,1.5539e+07,0.26,-0.33,12.4,-0.23,43.601,13.482,0.99414,0.0025726,-0.0026534,0.108
2149,1.5549e+07,0.25,-0.33,12.4,-0.23,43.601,13.482,0.99414,0.0025728,-0.0026697,0.108
2189,1.5559e+07,0.25,-0.33,12.4,-0.23,43.601,13.482,0.99414,0.0025616,-0.0026702,0.108
2230,1.5569e+07,0.25,-0.33,12.4,-0.23,43.601,13.482,0.99414,0.0025511,-0.002678,0.10801
2271,1.5579e+07,0.25,-0.33,12.4,-0.23,43.601,13.482,0.99414,0.0025297,-0.0026832,0.10801
2315,1.5589e+07,0.25,-0.33,12.41,-0.23,43.601,13.482,0.99414,0.0025259,-0.0026731,0.10803
2357,1.5599e+07,0.25,-0.33,12.41,-0.22,43.601,13.482,0.99414,0.002519,-0.0026825,0.10803
2398,1.5609e+07,0.25,-0.33,12.41,-0.22,43.601,13.482,0.99414,0.0025166,-0.0026735,0.10804
2442,1.5619e+07,0.25,-0.33,12.41,-0.22,43.601,13.482,0.99414,0.0025099,-0.0026706,0.10805
2482,1.5629e+07,0.25,-0.33,12.41,-0.22,43.601,13.482,0.99414,0.0025137,-0.0026653,0.10806
2520,1.564e+07,0.25,-0.33,12.41,-0.22,43.601,13.482,0.99414,0.0025276,-0.0026486,0.10806
2563,1.565e+07,0.25,-0.33,12.41,-0.22,43.601,13.482,0.99414,0.0025279,-0.0026435,0.10807
2603,1.566e+07,0.25,-0.33,12.41,-0.22,43.601,13.482,0.99414,0.0025374,-0.0026287,0.10806
2644,1.567e+07,0.25,-0.32,12.41,-0.22,43.601,13.482,0.99414,0.0025419,-0.0026156,0.10805
2684,1.568e+07,0.25,-0.32,12.41,-0.22,43.601,13.482,0.99414,0.0025552,-0.0026187,0.10805
2729,1.569e+07,0.25,-0.32,12.41,-0.22,43.601,13.482,0.99414,0.0025535,-0.0026154,0.10805
2770,1.57e+07,0.25,-0.32,12.41,0.09,43.601,13.482,0.99414,0.0025527,-0.0026085,0.10807
2811,1.571e+07,0.25,-0.32,12.41,0.09,43.601,13.482,0.99413,0.0025595,-0.0026087,0.10809
2852,1.572e+07,0.25,-0.32,12.41,0.09,43.601,13.482,0.99413,0.0025601,-0.0026086,0.1081
2892,1.573e+07,0.25,-0.32,12.42,0.09,43.601,13.482,0.99413,0.0025504,-0.0026077,0.10812
2934,1.574e+07,0.25,-0.32,12.42,0.09,43.601,13.482,0.99413,0.0025292,-0.002614,0.10814
2976,1.575e+07,0.25,-0.33,12.42,0.09,43.601,13.482,0.99413,0.0025142,-0.0026257,0.10816
3015,1.576e+07,0.25,-0.33,12.42,0.09,43.601,13.482,0.99413,0.0025091,-0.0026468,0.10817
3057,1.577e+07,0.25,-0.33,12.42,0.09,43.601,13.482,0.99412,0.0025022,-0.002662,0.10818
3097,1.578e+07,0.25,-0.33,12.43,0.09,43.601,13.482,0.99412,0.0025011,-0.0026707,0.10819
3143,1.579e+07,0.25,-0.33,12.43,0.09,43.601,13.482,0.99412,0.0025087,-0.0026742,0.10821
3185,1.58e+07,0.25,-0.33,12.43,-0.09,43.601,13.482,0.99412,0.0025125,-0.0026746,0.10823
3226,1.581e+07,0.25,-0.33,12.43,-0.09,43.601,13.482,0.99412,0.0025144,-0.0026727,0.10823
3267,1.5821e+07,0.25,-0.33,12.43,-0.09,43.601,13.482,0.99412,0.0025282,-0.0026778,0.10825
3309,1.5833e+07,0.25,-0.33,12.43,-0.09,43.601,13.482,0.99412,0.0025344,-0.0026858,0.10826
3346,1.5844e+07,0.25,-0.33,12.43,-0.09,43.601,13.482,0.99411,0.0025602,-0.0026934,0.10828
3388,1.5854e+07,0.25,-0.33,12.44,-0.09,43.601,13.482,0.99411,0.0025709,-0.0027007,0.10829
3429,1.5864e+07,0.25,-0.34,12.44,-0.09,43.601,13.482,0.99411,0.0025614,-0.0027203,0.1083
3469,1.5874e+07,0.25,-0.34,12.44,-0.09,43.601,13.482,0.99411,0.0025708,-0.0027441,0.10832
3510,1.5884e+07,0.25,-0.34,12.44,-0.09,43.601,13.482,0.99411,0.0025794,-0.0027572,0.10832
3554,1.5894e+07,0.25,-0.34,12.44,-0.01,43.601,13.482,0.99411,0.0025825,-0.0027642,0.10832
3595,1.5904e+07,0.25,-0.34,12.44,-0.01,43.601,13.482,0.99411,0.0025731,-0.0027751,0.10835
3637,1.5914e+07,0.25,-0.34,12.45,-0.01,43.601,13.482,0.9941,0.0025657,-0.0027693,0.10837
3679,1.5924e+07,0.25,-0.34,12.45,-0.01,43.601,13.482,0.9941,0.0025609,-0.0027788,0.1084
3717,1.5934e+07,0.25,-0.34,12.45,-0.01,43.601,13.482,0.9941,0.0025597,-0.0027756,0.10841
3754,1.5945e+07,0.25,-0.34,12.45,-0.01,43.601,13.482,0.9941,0.0025718,-0.0027775,0.10843
3796,1.5955e+07,0.26,-0.34,12.46,-0.01,43.601,13.482,0.99409,0.0025963,-0.0027785,0.10846
3837,1.5965e+07,0.26,-0.34,12.46,-0.01,43.601,13.482,0.99409,0.0026162,-0.002785,0.10848
3877,1.5975e+07,0.26,-0.35,12.46,-0.01,43.601,13.482,0.99409,0.0026529,-0.0027961,0.10849
3918,1.5985e+07,0.27,-0.35,12.46,-0.01,43.601,13.482,0.99409,0.0026791,-0.002807,0.10853
3962,1.5995e+07,0.27,-0.35,12.46,0.22,43.601,13.482,0.99408,0.0027118,-0.0028143,0.10854
4003,1.6005e+07,0.27,-0.35,12.47,0.22,43.601,13.482,0.99408,0.0027581,-0.0028205,0.10856
4046,1.6015e+07,0.28,-0.35,12.47,0.22,43.601,13.482,0.99408,0.0027828,-0.0028265,0.10858
4087,1.6025e+07,0.28,-0.35,12.47,0.22,43.601,13.482,0.99408,0.0028176,-0.0028251,0.10859
4128,1.6035e+07,0.28,-0.35,12.47,0.22,43.601,13.482,0.99408,0.0028448,-0.0028186,0.10861
4165,1.6045e+07,0.29,-0.35,12.47,0.22,43.601,13.482,0.99407,0.0028793,-0.0028219,0.10863
4207,1.6055e+07,0.29,-0.35,12.48,0.22,43.601,13.482,0.99407,0.0028985,-0.002816,0.10863
4251,1.6067e+07,0.29,-0.35,12.48,0.22,43.601,13.482,0.99407,0.0029074,-0.002815,0.10864
4293,1.6078e+07,0.29,-0.35,12.48,0.22,43.601,13.482,0.99407,0.0029162,-0.0028087,0.10864
4333,1.6088e+07,0.29,-0.35,12.48,0.22,43.601,13.482,0.99407,0.0029201,-0.0028247,0.10864
4378,1.6097e+07,0.29,-0.35,12.48,0.35,43.601,13.482,0.99407,0.0029266,-0.0028346,0.10864
4419,1.6107e+07,0.29,-0.36,12.48,0.35,43.601,13.482,0.99407,0.0029259,-0.0028431,0.10864
4459,1.6118e+07,0.29,-0.36,12.48,0.35,43.601,13.482,0.99407,0.0029403,-0.0028616,0.10864
4505,1.6133e+07,0.3,-0.36,12.48,0.35,43.601,13.482,0.99407,0.0029684,-0.0028727,0.10865
4548,1.6145e+07,0.3,-0.36,12.48,0.35,43.601,13.482,0.99407,0.0029721,-0.0028653,0.10867
4588,1.6156e+07,0.3,-0.36,12.48,0.35,43.601,13.482,0.99407,0.0029692,-0.0028569,0.10868
4629,1.6166e+07,0.3,-0.36,12.48,0.35,43.601,13.482,0.99407,0.0029829,-0.0028495,0.1087
4671,1.6176e+07,0.3,-0.36,12.49,0.35,43.601,13.482,0.99406,0.0030018,-0.0028466,0.10872
4711,1.6185e+07,0.3,-0.36,12.49,0.35,43.601,13.482,0.99406,0.0030146,-0.0028427,0.10873
4756,1.6196e+07,0.3,-0.35,12.49,0.19,43.601,13.482,0.99406,0.0030289,-0.0028285,0.10875
4796,1.6206e+07,0.31,-0.36,12.49,0.19,43.601,13.482,0.99406,0.0030599,-0.0028308,0.10876
4838,1.6216e+07,0.31,-0.35,12.49,0.19,43.601,13.482,0.99406,0.0030688,-0.0028232,0.10876
4878,1.6226e+07,0.31,-0.35,12.49,0.19,43.601,13.482,0.99406,0.0030792,-0.002816,0.10875
4919,1.6236e+07,0.31,-0.35,12.49,0.19,43.601,13.482,0.99406,0.0030934,-0.0028106,0.10874
4957,1.6246e+07,0.31,-0.35,12.49,0.19,43.601,13.482,0.99406,0.0030901,-0.0028012,0.10874
4994,1.6256e+07,0.31,-0.35,12.49,0.19,43.601,13.482,0.99406,0.0030822,-0.0027946,0.10872
5036,1.6266e+07,0.31,-0.35,12.49,0.19,43.601,13.482,0.99406,0.0030834,-0.0027887,0.10873
5078,1.6276e+07,0.31,-0.35,12.49,0.19,43.601,13.482,0.99406,0.0030833,-0.0027847,0.10874
5118,1.6286e+07,0.31,-0.35,12.49,0.19,43.601,13.482,0.99406,0.0030706,-0.0027793,0.10876
5163,1.6296e+07,0.31,-0.35,12.49,0.11,43.601,13.482,0.99406,0.0030676,-0.0027781,0.10877
5204,1.6306e+07,0.31,-0.35,12.49,0.11,43.601,13.482,0.99406,0.0030677,-0.0027817,0.10879
5245,1.6316e+07,0.31,-0.35,12.5,0.11,43.601,13.482,0.99405,0.003069,-0.0027901,0.10883
5285,1.6326e+07,0.31,-0.35,12.5,0.11,43.601,13.482,0.99405,0.00308,-0.0027958,0.10886
5328,1.6338e+07,0.31,-0.35,12.5,0.11,43.601,13.482,0.99405,0.0031013,-0.0028005,0.10888
5365,1.6348e+07,0.32,-0.35,12.51,0.11,43.601,13.482,0.99404,0.0031199,-0.0027818,0.10889
5410,1.636e+07,0.32,-0.35,12.51,0.11,43.601,13.482,0.99404,0.0031287,-0.0027683,0.10891
5451,1.6371e+07,0.32,-0.35,12.51,0.11,43.601,13.482,0.99404,0.0031439,-0.0027564,0.10891
5491,1.6381e+07,0.32,-0.35,12.51,0.11,43.601,13.482,0.99404,0.0031695,-0.0027358,0.1089
5533,1.639e+07,0.32,-0.34,12.51,0.11,43.601,13.482,0.99404,0.0031789,-0.0027227,0.1089
5577,1.6401e+07,0.32,-0.34,12.51,0,43.601,13.482,0.99404,0.0031871,-0.0027132,0.1089
5619,1.6411e+07,0.33,-0.34,12.51,0,43.601,13.482,0.99404,0.0032049,-0.0026982,0.10893
5660,1.6421e+07,0.33,-0.34,12.51,0,43.601,13.482,0.99404,0.0032046,-0.0026932,0.10894
5700,1.6431e+07,0.33,-0.34,12.51,0,43.601,13.482,0.99404,0.0032087,-0.0026823,0.10895
5735,1.6441e+07,0.33,-0.34,12.51,0,43.601,13.482,0.99404,0.0032073,-0.0026808,0.10897
5776,1.6452e+07,0.33,-0.34,12.52,0,43.601,13.482,0.99403,0.0032063,-0.0026778,0.109
5817,1.6462e+07,0.33,-0.34,12.52,0,43.601,13.482,0.99403,0.0031932,-0.0026794,0.10902
5857,1.6472e+07,0.32,-0.34,12.52,0,43.601,13.482,0.99403,0.0031808,-0.0026621,0.10905
5899,1.6481e+07,0.32,-0.34,12.53,0,43.601,13.482,0.99402,0.003172,-0.0026589,0.10908
5941,1.6492e+07,0.32,-0.34,12.53,0,43.601,13.482,0.99402,0.003176,-0.0026454,0.1091
5985,1.6502e+07,0.33,-0.33,12.53,0.22,43.601,13.482,0.99402,0.0031889,-0.0026297,0.10911
6028,1.6512e+07,0.33,-0.33,12.53,0.22,43.601,13.482,0.99402,0.0032031,-0.0026043,0.10911
6068,1.6522e+07,0.33,-0.33,12.53,0.22,43.601,13.482,0.99402,0.0032178,-0.0025787,0.1091
6112,1.6533e+07,0.33,-0.33,12.53,0.22,43.601,13.482,0.99402,0.0032527,-0.0025571,0.10911
6149,1.6543e+07,0.34,-0.33,12.53,0.22,43.601,13.482,0.99402,0.0032727,-0.0025618,0.1091
6189,1.6553e+07,0.34,-0.33,12.53,0.22,43.601,13.482,0.99402,0.003287,-0.0025892,0.1091
6229,1.6563e+07,0.34,-0.34,12.53,0.22,43.601,13.482,0.99402,0.003308,-0.0026248,0.1091
6270,1.6573e+07,0.34,-0.34,12.53,0.22,43.601,13.482,0.99402,0.003314,-0.0026589,0.10912
6311,1.6583e+07,0.34,-0.34,12.53,0.22,43.601,13.482,0.99402,0.0033016,-0.0026899,0.10913
6352,1.6593e+07,0.33,-0.35,12.53,0.22,43.601,13.482,0.99402,0.0032697,-0.002716,0.10915
6400,1.6603e+07,0.33,-0.35,12.54,0.11,43.601,13.482,0.99402,0.0032486,-0.0027346,0.10916
6442,1.6614e+07,0.32,-0.35,12.54,0.11,43.601,13.482,0.99401,0.003196,-0.002748,0.10916
6483,1.6623e+07,0.32,-0.35,12.54,0.11,43.601,13.482,0.99401,0.0031276,-0.0027615,0.10918
6524,1.6633e+07,0.31,-0.35,12.54,0.11,43.601,13.482,0.99401,0.0030842,-0.0027719,0.10919
6562,1.6646e+07,0.31,-0.35,12.54,0.11,43.601,13.482,0.99401,0.0030376,-0.0027929,0.10919
6603,1.6656e+07,0.3,-0.35,12.54,0.11,43.601,13.482,0.99401,0.00302,-0.0028258,0.10921
6643,1.6666e+07,0.3,-0.36,12.54,0.11,43.601,13.482,0.99401,0.0030124,-0.002853,0.10921
6685,1.6676e+07,0.3,-0.36,12.54,0.11,43.601,13.482,0.99401,0.0030279,-0.0028878,0.1092
6725,1.6685e+07,0.31,-0.37,12.54,0.11,43.601,13.482,0.99401,0.0030515,-0.0029243,0.1092
6770,1.6696e+07,0.31,-0.37,12.54,0.11,43.601,13.482,0.99401,0.0030787,-0.0029626,0.10922
6812,1.6705e+07,0.31,-0.37,12.54,-0.15,43.601,13.482,0.99401,0.0031094,-0.0029889,0.1092
6853,1.6716e+07,0.32,-0.38,12.54,-0.15,43.601,13.482,0.99401,0.0031435,-0.0030137,0.10919
6894,1.6726e+07,0.32,-0.38,12.54,-0.15,43.601,13.482,0.99401,0.0031562,-0.0030336,0.10918
6936,1.6735e+07,0.32,-0.38,12.54,-0.15,43.601,13.482,0.99401,0.003159,-0.0030444,0.10918
6971,1.6746e+07,0.32,-0.38,12.54,-0.15,43.601,13.482,0.99401,0.0031624,-0.0030273,0.10916
7011,1.6756e+07,0.32,-0.38,12.54,-0.15,43.601,13.482,0.99401,0.0031537,-0.0030143,0.10917
7052,1.6766e+07,0.32,-0.37,12.54,-0.15,43.601,13.482,0.99401,0.0031405,-0.0029909,0.10916
7093,1.6776e+07,0.31,-0.37,12.54,-0.15,43.601,13.482,0.99401,0.0031271,-0.0029786,0.10916
7134,1.6786e+07,0.31,-0.37,12.54,-0.15,43.601,13.482,0.99401,0.003106,-0.0029729,0.10916
7181,1.6797e+07,0.31,-0.37,12.54,-0.15,43.601,13.482,0.99401,0.0030927,-0.0029752,0.10917
7222,1.6806e+07,0.31,-0.37,12.54,-0.31,43.601,13.482,0.99401,0.0030813,-0.0029827,0.10918
7264,1.6816e+07,0.31,-0.38,12.54,-0.31,43.601,13.482,0.99401,0.0030811,-0.0030046,0.10919
7305,1.6826e+07,0.31,-0.38,12.54,-0.31,43.601,13.482,0.99401,0.003088,-0.0030226,0.10921
7345,1.6836e+07,0.31,-0.38,12.54,-0.31,43.601,13.482,0.99401,0.0031083,-0.0030163,0.10923
7386,1.6846e+07,0.32,-0.38,12.54,-0.31,43.601,13.482,0.99401,0.0031461,-0.0030118,0.10923
7423,1.6856e+07,0.32,-0.38,12.55,-0.31,43.601,13.482,0.994,0.0031891,-0.0029936,0.10925
7464,1.6866e+07,0.32,-0.37,12.55,-0.31,43.601,13.482,0.994,0.0032256,-0.0029809,0.10926
7506,1.6877e+07,0.33,-0.37,12.55,-0.31,43.601,13.482,0.994,0.0032616,-0.0029672,0.10927
7546,1.6887e+07,0.33,-0.37,12.55,-0.31,43.601,13.482,0.994,0.0033006,-0.0029542,0.10929
7590,1.6897e+07,0.34,-0.37,12.55,-0.31,43.601,13.482,0.994,0.0033158,-0.0029586,0.1093
7632,1.6907e+07,0.34,-0.37,12.55,-0.42,43.601,13.482,0.994,0.0033242,-0.0029548,0.10932
7674,1.6917e+07,0.34,-0.37,12.56,-0.42,43.601,13.482,0.994,0.0033272,-0.0029643,0.10933
7715,1.6927e+07,0.34,-0.38,12.56,-0.42,43.601,13.482,0.99399,0.0033181,-0.0029824,0.10935
7757,1.694e+07,0.33,-0.38,12.56,-0.42,43.601,13.482,0.99399,0.0032848,-0.0030118,0.10937
7798,1.695e+07,0.33,-0.38,12.56,-0.42,43.601,13.482,0.99399,0.0032698,-0.0030275,0.10939
7835,1.696e+07,0.33,-0.38,12.56,-0.42,43.601,13.482,0.99399,0.0032584,-0.0030374,0.1094
7877,1.697e+07,0.33,-0.38,12.57,-0.42,43.601,13.482,0.99399,0.0032484,-0.003041,0.10942
7917,1.698e+07,0.33,-0.38,12.57,-0.42,43.601,13.482,0.99398,0.0032392,-0.003049,0.10944
7958,1.699e+07,0.33,-0.38,12.57,-0.42,43.601,13.482,0.99398,0.0032479,-0.0030499,0.10944
8004,1.7e+07,0.33,-0.38,12.57,-0.31,43.601,13.482,0.99398,0.0032709,-0.003041,0.10945
8048,1.701e+07,0.33,-0.38,12.57,-0.31,43.601,13.482,0.99398,0.0032859,-0.0030424,0.10948
8089,1.702e+07,0.33,-0.38,12.58,-0.31,43.601,13.482,0.99397,0.0033087,-0.003038,0.10952
8129,1.703e+07,0.34,-0.38,12.58,-0.31,43.601,13.482,0.99397,0.0033586,-0.0030254,0.10956
8167,1.704e+07,0.34,-0.38,12.59,-0.31,43.601,13.482,0.99397,0.0033894,-0.003011,0.10959
8204,1.7051e+07,0.35,-0.38,12.59,-0.31,43.601,13.482,0.99397,0.0034149,-0.0030208,0.10959
8245,1.7061e+07,0.35,-0.38,12.58,-0.31,43.601,13.482,0.99397,0.0034423,-0.0029986,0.10957
8285,1.7071e+07,0.35,-0.38,12.59,-0.31,43.601,13.482,0.99396,0.0034749,-0.0029777,0.10962
8327,1.7081e+07,0.36,-0.39,12.59,-0.31,43.601,13.482,0.99396,0.0035329,-0.0030543,0.10966
8369,1.709e+07,0.36,-0.39,12.6,-0.31,43.601,13.482,0.99395,0.0035827,-0.0030458,0.10973
8413,1.7101e+07,0.36,-0.39,12.61,0.14,43.601,13.482,0.99394,0.0035387,-0.0031038,0.10978
8454,1.7111e+07,0.36,-0.39,12.61,0.14,43.601,13.482,0.99394,0.0035134,-0.0030768,0.10982
8496,1.7121e+07,0.36,-0.38,12.61,0.14,43.601,13.482,0.99394,0.0035183,-0.0030235,0.10984
8537,1.7131e+07,0.35,-0.38,12.62,0.14,43.601,13.482,0.99394,0.0034714,-0.002957,0.10985
8577,1.7141e+07,0.35,-0.38,12.61,0.14,43.601,13.482,0.99394,0.0034435,-0.0029853,0.10983
8617,1.7153e+07,0.37,-0.39,12.6,0.14,43.601,13.482,0.99395,0.0036197,-0.0030927,0.10975
8658,1.7163e+07,0.37,-0.39,12.6,0.14,43.601,13.482,0.99395,0.0035952,-0.003049,0.10973
8698,1.7173e+07,0.36,-0.38,12.6,0.14,43.601,13.482,0.99395,0.0035467,-0.0030304,0.1097
8739,1.7183e+07,0.36,-0.38,12.6,0.14,43.601,13.482,0.99396,0.003499,-0.0029872,0.10968
8780,1.7193e+07,0.35,-0.38,12.6,0.14,43.601,13.482,0.99396,0.003475,-0.0029716,0.10968
8824,1.7203e+07,0.35,-0.38,12.6,0.44,43.601,13.482,0.99396,0.0034922,-0.0030315,0.10967
8865,1.7214e+07,0.36,-0.39,12.6,0.44,43.601,13.482,0.99395,0.0035291,-0.0031082,0.1097
8905,1.7224e+07,0.36,-0.4,12.6,0.44,43.601,13.482,0.99395,0.0035327,-0.003131,0.10974
8947,1.7233e+07,0.35,-0.39,12.61,0.44,43.601,13.482,0.99394,0.0034923,-0.0031163,0.1098
8984,1.7244e+07,0.35,-0.4,12.62,0.44,43.601,13.482,0.99393,0.0034754,-0.0031812,0.10989
9022,1.7254e+07,0.36,-0.4,12.63,0.44,43.601,13.482,0.99393,0.0035705,-0.0031929,0.10994
9063,1.7264e+07,0.37,-0.4,12.63,0.44,43.601,13.482,0.99392,0.0036635,-0.0031552,0.11
9103,1.7274e+07,0.36,-0.39,12.63,0.44,43.601,13.482,0.99392,0.0035503,-0.0031132,0.11001
9144,1.7284e+07,0.35,-0.39,12.64,0.44,43.601,13.482,0.99391,0.0034406,-0.0030909,0.11005
9184,1.7294e+07,0.34,-0.39,12.63,0.44,43.601,13.482,0.99392,0.0034184,-0.0031298,0.11001
9229,1.7304e+07,0.35,-0.38,12.63,0,43.601,13.482,0.99392,0.0034424,-0.0030373,0.11001
9264,1.7334e+07,0.35,-0.4,12.62,0,43.601,13.482,0.99393,0.0034595,-0.003136,0.10993
9307,1.7344e+07,0.35,-0.4,12.62,0,43.601,13.482,0.99394,0.0034398,-0.003142,0.10985
9344,1.7354e+07,0.34,-0.41,12.62,0,43.601,13.482,0.99393,0.003396,-0.0032726,0.1099
9382,1.7364e+07,0.35,-0.41,12.62,0,43.601,13.482,0.99394,0.0034686,-0.0032369,0.10986
9423,1.7374e+07,0.38,-0.41,12.63,0,43.601,13.482,0.99392,0.0037668,-0.0032687,0.10996
9463,1.7384e+07,0.37,-0.42,12.62,0,43.601,13.482,0.99393,0.0036659,-0.0032891,0.10991
9505,1.7394e+07,0.36,-0.44,12.63,0,43.601,13.482,0.99392,0.0035575,-0.003471,0.10998
9549,1.7404e+07,0.36,-0.44,12.64,-0.06,43.601,13.482,0.99391,0.0035512,-0.003497,0.11005
9590,1.7414e+07,0.38,-0.44,12.64,-0.06,43.601,13.482,0.99391,0.003779,-0.003486,0.11007
9630,1.7424e+07,0.39,-0.45,12.65,-0.06,43.601,13.482,0.9939,0.0038801,-0.0035493,0.11016
9673,1.7434e+07,0.39,-0.44,12.64,-0.06,43.601,13.482,0.99391,0.0038983,-0.0035046,0.11009
9714,1.7444e+07,0.41,-0.45,12.66,-0.06,43.601,13.482,0.99389,0.0040254,-0.0035691,0.11023
9751,1.7454e+07,0.41,-0.44,12.64,-0.06,43.601,13.482,0.99391,0.0039966,-0.0034536,0.1101
9793,1.7466e+07,0.39,-0.48,12.65,-0.06,43.601,13.482,0.9939,0.0038675,-0.0038133,0.11015
9834,1.7477e+07,0.41,-0.45,12.63,-0.06,43.601,13.482,0.99392,0.0040054,-0.0035842,0.11002
9874,1.7487e+07,0.39,-0.48,12.64,-0.06,43.601,13.482,0.99391,0.0039343,-0.0038482,0.11006
9915,1.7497e+07,0.4,-0.46,12.63,-0.06,43.601,13.482,0.99392,0.0039727,-0.0036667,0.10995
9961,1.7507e+07,0.41,-0.48,12.63,-0.19,43.601,13.482,0.99392,0.0040256,-0.0038029,0.11
10003,1.7517e+07,0.4,-0.46,12.63,-0.19,43.601,13.482,0.99392,0.0039424,-0.0036242,0.10999
10043,1.7526e+07,0.39,-0.47,12.64,-0.19,43.601,13.482,0.99391,0.0038487,-0.0037813,0.11003
10084,1.7537e+07,0.39,-0.45,12.65,-0.19,43.601,13.482,0.99391,0.0038484,-0.0035778,0.11011
10123,1.7547e+07,0.38,-0.46,12.64,-0.19,43.601,13.482,0.99391,0.0038188,-0.0037036,0.11011
10162,1.7557e+07,0.4,-0.45,12.66,-0.19,43.601,13.482,0.99389,0.0039546,-0.003545,0.1102
10203,1.7567e+07,0.39,-0.46,12.66,-0.19,43.601,13.482,0.99389,0.0038768,-0.0036924,0.11021
10243,1.7577e+07,0.41,-0.43,12.67,-0.19,43.601,13.482,0.99388,0.0039833,-0.0033407,0.11035
10285,1.7587e+07,0.4,-0.45,12.67,-0.19,43.601,13.482,0.99388,0.003934,-0.0035152,0.11031
10325,1.7597e+07,0.41,-0.41,12.68,-0.19,43.601,13.482,0.99387,0.003969,-0.0032172,0.11041
10371,1.7607e+07,0.39,-0.43,12.67,-0.12,43.601,13.482,0.99388,0.0038644,-0.0033654,0.11036
10412,1.7617e+07,0.4,-0.4,12.69,-0.12,43.601,13.482,0.99387,0.0039347,-0.0031469,0.11046
10452,1.7627e+07,0.39,-0.42,12.68,-0.12,43.601,13.482,0.99388,0.0038686,-0.0033067,0.11039
10494,1.7637e+07,0.4,-0.41,12.68,-0.12,43.601,13.482,0.99387,0.0038718,-0.0032234,0.11041
10531,1.765e+07,0.4,-0.47,12.67,-0.12,43.601,13.482,0.99388,0.0039613,-0.0037185,0.11032
10573,1.766e+07,0.42,-0.44,12.66,-0.12,43.601,13.482,0.99389,0.0040989,-0.0034453,0.11027
10615,1.767e+07,0.41,-0.46,12.66,-0.12,43.601,13.482,0.99389,0.0040693,-0.0036707,0.11025
10656,1.768e+07,0.42,-0.43,12.66,-0.12,43.601,13.482,0.99389,0.0041036,-0.0033821,0.11026
10697,1.769e+07,0.41,-0.46,12.66,-0.12,43.601,13.482,0.99389,0.0040585,-0.0036235,0.1102
10740,1.77e+07,0.44,-0.42,12.67,-0.12,43.601,13.482,0.99388,0.004257,-0.0032713,0.11031
10783,1.7711e+07,0.41,-0.46,12.66,-0.19,43.601,13.482,0.99389,0.0040834,-0.0036563,0.11027
10823,1.7721e+07,0.43,-0.41,12.67,-0.19,43.601,13.482,0.99388,0.0041566,-0.0032047,0.11036
10864,1.7731e+07,0.41,-0.46,12.67,-0.19,43.601,13.482,0.99388,0.0040456,-0.0036395,0.11036
10907,1.7741e+07,0.44,-0.41,12.69,-0.19,43.601,13.482,0.99386,0.0042293,-0.0032034,0.11048
10947,1.7753e+07,0.35,-0.42,12.7,-0.19,43.601,13.482,0.99385,0.0035274,-0.0033338,0.11061
10990,1.7764e+07,0.36,-0.4,12.69,-0.19,43.601,13.482,0.99387,0.0035772,-0.0031792,0.11049
11030,1.7774e+07,0.34,-0.43,12.71,-0.19,43.601,13.482,0.99384,0.0034199,-0.0034064,0.11069
11071,1.7784e+07,0.36,-0.39,12.69,-0.19,43.601,13.482,0.99386,0.0035286,-0.0031035,0.11051
11111,1.7794e+07,0.36,-0.42,12.71,-0.19,43.601,13.482,0.99384,0.0035694,-0.0033445,0.1107
11159,1.7804e+07,0.35,-0.39,12.69,-0.51,43.601,13.482,0.99387,0.0034385,-0.0030537,0.11045
11200,1.7813e+07,0.34,-0.41,12.71,-0.51,43.601,13.482,0.99385,0.0033718,-0.0032701,0.11068
11240,1.7824e+07,0.35,-0.38,12.68,-0.51,43.601,13.482,0.99387,0.0034162,-0.0030173,0.11044
11282,1.7834e+07,0.35,-0.4,12.71,-0.51,43.601,13.482,0.99385,0.0034532,-0.0031808,0.11066
11322,1.7844e+07,0.34,-0.39,12.68,-0.51,43.601,13.482,0.99388,0.0033529,-0.0030983,0.11041
11360,1.7854e+07,0.34,-0.41,12.71,-0.51,43.601,13.482,0.99384,0.0033609,-0.0032945,0.11069
11401,1.7864e+07,0.34,-0.4,12.69,-0.51,43.601,13.482,0.99387,0.0034241,-0.0031844,0.11046
11445,1.7877e+07,0.44,-0.44,12.7,-0.51,43.601,13.482,0.99385,0.0042578,-0.0033922,0.11062
11486,1.7886e+07,0.42,-0.46,12.69,-0.51,43.601,13.482,0.99386,0.0041012,-0.0036155,0.11051
11528,1.7896e+07,0.43,-0.45,12.71,-0.51,43.601,13.482,0.99384,0.0042023,-0.0035173,0.1107
11573,1.7906e+07,0.43,-0.47,12.7,0.21,43.601,13.482,0.99385,0.0042568,-0.0036679,0.11062
11614,1.7916e+07,0.45,-0.45,12.72,0.21,43.601,13.482,0.99383,0.0043773,-0.0035114,0.11075
11654,1.7927e+07,0.43,-0.47,12.71,0.21,43.601,13.482,0.99384,0.0042265,-0.0036941,0.11065
11695,1.7937e+07,0.44,-0.45,12.72,0.21,43.601,13.482,0.99383,0.0042922,-0.0035365,0.11079
11737,1.7946e+07,0.44,-0.46,12.71,0.21,43.601,13.482,0.99384,0.0043159,-0.0036309,0.11069
11775,1.7956e+07,0.45,-0.44,12.72,0.21,43.601,13.482,0.99383,0.0044144,-0.0034396,0.11076
11816,1.7967e+07,0.43,-0.47,12.71,0.21,43.601,13.482,0.99384,0.0042193,-0.0037205,0.11065
11859,1.7977e+07,0.44,-0.45,12.72,0.21,43.601,13.482,0.99383,0.0043287,-0.0035261,0.11077
11900,1.7988e+07,0.43,-0.48,12.71,0.21,43.601,13.482,0.99384,0.0042787,-0.0037934,0.11066
11942,1.7997e+07,0.44,-0.46,12.72,0.21,43.601,13.482,0.99384,0.0042888,-0.0036035,0.11072
11987,1.8007e+07,0.4,-0.5,12.7,-0.07,43.601,13.482,0.99385,0.0040396,-0.0040085,0.11063
12027,1.8017e+07,0.41,-0.47,12.72,-0.07,43.601,13.482,0.99383,0.0041025,-0.00371,0.11079
12069,1.8027e+07,0.41,-0.51,12.71,-0.07,43.601,13.482,0.99384,0.0040543,-0.0040661,0.11069
12113,1.8042e+07,0.35,-0.45,12.71,-0.07,43.601,13.482,0.99384,0.0034899,-0.0036245,0.11068
12154,1.8053e+07,0.33,-0.47,12.74,-0.07,43.601,13.482,0.99381,0.0033361,-0.0038176,0.11096
12194,1.8063e+07,0.37,-0.44,12.72,-0.07,43.601,13.482,0.99384,0.0036796,-0.0035351,0.11072
12237,1.8073e+07,0.39,-0.46,12.75,-0.07,43.601,13.482,0.99381,0.0038606,-0.0036148,0.111
12277,1.8083e+07,0.38,-0.44,12.72,-0.07,43.601,13.482,0.99384,0.0037982,-0.0034992,0.11074
12319,1.8093e+07,0.4,-0.46,12.75,-0.07,43.601,13.482,0.9938,0.0039215,-0.0036401,0.11105
12362,1.8103e+07,0.41,-0.45,12.72,-0.07,43.601,13.482,0.99383,0.0040435,-0.0035284,0.11075
12404,1.8113e+07,0.43,-0.46,12.75,-0.1,43.601,13.482,0.9938,0.0041856,-0.0036174,0.11102
12450,1.8125e+07,0.44,-0.51,12.72,-0.1,43.601,13.482,0.99383,0.0043733,-0.0040195,0.11074
12490,1.8135e+07,0.45,-0.48,12.75,-0.1,43.601,13.482,0.9938,0.0044485,-0.0037414,0.11099
12535,1.8148e+07,0.38,-0.53,12.73,-0.1,43.601,13.482,0.99382,0.0038708,-0.0042418,0.11087
12572,1.8159e+07,0.38,-0.46,12.73,-0.1,43.601,13.482,0.99382,0.0038138,-0.0036587,0.11085
12613,1.8169e+07,0.34,-0.5,12.74,-0.1,43.601,13.482,0.99381,0.003518,-0.0040377,0.11095
12654,1.8179e+07,0.35,-0.44,12.73,-0.1,43.601,13.482,0.99383,0.0034868,-0.0035408,0.11085
12696,1.8189e+07,0.34,-0.49,12.74,-0.1,43.601,13.482,0.99381,0.0034497,-0.0039709,0.11097
12737,1.8199e+07,0.34,-0.44,12.73,-0.1,43.601,13.482,0.99383,0.0034031,-0.0034998,0.11084
12781,1.8209e+07,0.33,-0.48,12.75,0.23,43.601,13.482,0.9938,0.0033515,-0.0038974,0.11102
12822,1.8219e+07,0.34,-0.44,12.74,0.23,43.601,13.482,0.99382,0.0033884,-0.0035167,0.1109
12862,1.8229e+07,0.34,-0.48,12.75,0.23,43.601,13.482,0.9938,0.0034835,-0.0038991,0.11106
12904,1.8239e+07,0.35,-0.44,12.74,0.23,43.601,13.482,0.99382,0.003478,-0.0035562,0.1109
12942,1.8249e+07,0.35,-0.48,12.76,0.23,43.601,13.482,0.9938,0.0035653,-0.0038855,0.1111
12979,1.8259e+07,0.37,-0.44,12.74,0.23,43.601,13.482,0.99382,0.0036925,-0.0035387,0.11092
13020,1.8269e+07,0.39,-0.48,12.76,0.23,43.601,13.482,0.9938,0.0038565,-0.0038346,0.11109
13061,1.828e+07,0.38,-0.44,12.74,0.23,43.601,13.482,0.99382,0.003804,-0.0035252,0.1109
13103,1.8289e+07,0.39,-0.47,12.76,0.23,43.601,13.482,0.99379,0.0039189,-0.0037129,0.11113
13143,1.8299e+07,0.4,-0.44,12.74,0.23,43.601,13.482,0.99382,0.0039075,-0.0034283,0.11092
13188,1.831e+07,0.41,-0.46,12.76,0.07,43.601,13.482,0.99379,0.0040349,-0.0035892,0.11113
13228,1.8319e+07,0.39,-0.43,12.74,0.07,43.601,13.482,0.99382,0.0038503,-0.0034135,0.11092
13271,1.8329e+07,0.4,-0.45,12.77,0.07,43.601,13.482,0.99378,0.0039281,-0.0035689,0.1112
13312,1.834e+07,0.39,-0.43,12.75,0.07,43.601,13.482,0.99381,0.0038806,-0.0034282,0.11099
13350,1.8352e+07,0.4,-0.46,12.77,0.07,43.601,13.482,0.99378,0.0039863,-0.0036537,0.11121
13390,1.8362e+07,0.37,-0.49,12.75,0.07,43.601,13.482,0.9938,0.0037625,-0.0039147,0.11102
13431,1.8373e+07,0.38,-0.47,12.78,0.07,43.601,13.482,0.99377,0.003791,-0.00375,0.11128
13473,1.8382e+07,0.37,-0.5,12.76,0.07,43.601,13.482,0.9938,0.0037714,-0.0039984,0.11107
13513,1.8393e+07,0.38,-0.47,12.78,0.07,43.601,13.482,0.99378,0.0038306,-0.0037218,0.11127
13555,1.8403e+07,0.36,-0.51,12.76,0.07,43.601,13.482,0.99379,0.0036569,-0.0041508,0.1111
13599,1.8413e+07,0.37,-0.46,12.77,0.49,43.601,13.482,0.99378,0.0037426,-0.0036956,0.11123
13639,1.8423e+07,0.37,-0.51,12.76,0.49,43.601,13.482,0.99379,0.0037832,-0.0040744,0.11111
13680,1.8433e+07,0.39,-0.45,12.77,0.49,43.601,13.482,0.99379,0.0038733,-0.0035983,0.11116
13721,1.8443e+07,0.38,-0.5,12.76,0.49,43.601,13.482,0.99379,0.0038461,-0.0040349,0.11111
13759,1.8453e+07,0.4,-0.46,12.76,0.49,43.601,13.482,0.99379,0.0039503,-0.0036072,0.11114
13799,1.8463e+07,0.4,-0.49,12.77,0.49,43.601,13.482,0.99379,0.0039931,-0.0039408,0.11117
13837,1.8473e+07,0.4,-0.45,12.76,0.49,43.601,13.482,0.9938,0.0039332,-0.0035562,0.11109
13878,1.8483e+07,0.39,-0.5,12.77,0.49,43.601,13.482,0.99378,0.0039188,-0.0039744,0.11121
13920,1.8493e+07,0.39,-0.46,12.76,0.49,43.601,13.482,0.99379,0.0038945,-0.0036361,0.11111
13962,1.8503e+07,0.39,-0.49,12.77,0.49,43.601,13.482,0.99378,0.0038797,-0.0039484,0.11123
14007,1.8513e+07,0.37,-0.46,12.76,-0.1,43.601,13.482,0.9938,0.0036877,-0.003651,0.11109
14048,1.8523e+07,0.36,-0.49,12.78,-0.1,43.601,13.482,0.99378,0.0036366,-0.0039178,0.11125
14091,1.8533e+07,0.36,-0.46,12.76,-0.1,43.601,13.482,0.99379,0.003595,-0.0036467,0.11114
14131,1.8543e+07,0.36,-0.48,12.78,-0.1,43.601,13.482,0.99378,0.0036437,-0.0038612,0.11127
14172,1.8556e+07,0.33,-0.46,12.76,-0.1,43.601,13.482,0.99379,0.0033638,-0.0037365,0.11112
14213,1.8567e+07,0.34,-0.45,12.79,-0.1,43.601,13.482,0.99377,0.0034454,-0.0036361,0.11136
14254,1.8577e+07,0.34,-0.48,12.76,-0.1,43.601,13.482,0.99379,0.0034595,-0.0038379,0.11114
14294,1.8586e+07,0.36,-0.46,12.78,-0.1,43.601,13.482,0.99377,0.0036329,-0.0036335,0.11131
14336,1.8597e+07,0.36,-0.49,12.77,-0.1,43.601,13.482,0.99379,0.0036394,-0.0039476,0.11115
14380,1.8606e+07,0.39,-0.46,12.79,-0.1,43.601,13.482,0.99377,0.0038528,-0.0036718,0.11134
14423,1.8616e+07,0.39,-0.51,12.77,0.12,43.601,13.482,0.99379,0.0039389,-0.0040561,0.11117
14464,1.8627e+07,0.42,-0.47,12.78,0.12,43.601,13.482,0.99377,0.004124,-0.0037424,0.11129
14504,1.8636e+07,0.4,-0.52,12.77,0.12,43.601,13.482,0.99379,0.0040554,-0.0041376,0.11116
14546,1.8646e+07,0.42,-0.48,12.78,0.12,43.601,13.482,0.99377,0.0041278,-0.0037657,0.11131
14583,1.8657e+07,0.4,-0.52,12.77,0.12,43.601,13.482,0.99378,0.0040493,-0.0041636,0.11119
14625,1.8668e+07,0.41,-0.47,12.78,0.12,43.601,13.482,0.99377,0.0040417,-0.0037567,0.1113
14666,1.8678e+07,0.38,-0.51,12.78,0.12,43.601,13.482,0.99378,0.0038251,-0.0041323,0.11125
14706,1.8687e+07,0.37,-0.47,12.78,0.12,43.601,13.482,0.99377,0.003755,-0.0037568,0.11132
14747,1.8697e+07,0.37,-0.51,12.78,0.12,43.601,13.482,0.99377,0.0037242,-0.0041249,0.11127
14791,1.8708e+07,0.37,-0.47,12.78,0.12,43.601,13.482,0.99377,0.0036963,-0.0037961,0.11131
14833,1.8718e+07,0.36,-0.52,12.78,0.28,43.601,13.482,0.99377,0.003669,-0.0041794,0.11129
14874,1.8728e+07,0.37,-0.49,12.79,0.28,43.601,13.482,0.99377,0.0037461,-0.0038952,0.11134
14917,1.8739e+07,0.38,-0.53,12.78,0.28,43.601,13.482,0.99377,0.0038623,-0.0042434,0.11128
14959,1.8748e+07,0.39,-0.49,12.78,0.28,43.601,13.482,0.99377,0.0039386,-0.0039089,0.1113
14993,1.8758e+07,0.4,-0.52,12.78,0.28,43.601,13.482,0.99377,0.0040554,-0.0041791,0.11131
15033,1.8768e+07,0.42,-0.49,12.78,0.28,43.601,13.482,0.99377,0.0041436,-0.0038778,0.11129
15073,1.8779e+07,0.43,-0.52,12.79,0.28,43.601,13.482,0.99377,0.0042965,-0.0040866,0.11133
15113,1.8789e+07,0.42,-0.48,12.78,0.28,43.601,13.482,0.99378,0.0041769,-0.0038187,0.11125
15155,1.8799e+07,0.43,-0.5,12.8,0.28,43.601,13.482,0.99376,0.0042673,-0.003942,0.11142
15200,1.8809e+07,0.42,-0.48,12.78,0.28,43.601,13.482,0.99377,0.0041839,-0.0037744,0.11128
15243,1.8819e+07,0.42,-0.5,12.8,0.12,43.601,13.482,0.99375,0.0042083,-0.0039209,0.11147
15284,1.8829e+07,0.4,-0.48,12.79,0.12,43.601,13.482,0.99377,0.0039399,-0.0037935,0.11133
15326,1.8839e+07,0.39,-0.49,12.81,0.12,43.601,13.482,0.99374,0.0039213,-0.0039329,0.11156
15366,1.8848e+07,0.37,-0.48,12.79,0.12,43.601,13.482,0.99376,0.0037032,-0.0038478,0.1114
15401,1.8859e+07,0.37,-0.49,12.82,0.12,43.601,13.482,0.99374,0.0037368,-0.0039376,0.11162
15442,1.8869e+07,0.35,-0.48,12.8,0.12,43.601,13.482,0.99376,0.0035163,-0.0038798,0.11141
15482,1.8879e+07,0.36,-0.48,12.82,0.12,43.601,13.482,0.99373,0.0036499,-0.0038651,0.11166
15523,1.8889e+07,0.36,-0.48,12.8,0.12,43.601,13.482,0.99376,0.0036258,-0.00383,0.11144
15565,1.89e+07,0.38,-0.48,12.82,0.12,43.601,13.482,0.99373,0.0038255,-0.0037864,0.11164
15608,1.891e+07,0.38,-0.48,12.8,0.12,43.601,13.482,0.99376,0.0037995,-0.0038049,0.11143
15650,1.892e+07,0.41,-0.46,12.83,0.22,43.601,13.482,0.99373,0.0040753,-0.0036121,0.1117
15690,1.893e+07,0.43,-0.47,12.8,0.22,43.601,13.482,0.99375,0.0042291,-0.0036858,0.11149
15734,1.894e+07,0.45,-0.45,12.83,0.22,43.601,13.482,0.99373,0.004361,-0.0035345,0.11171
15775,1.8953e+07,0.46,-0.48,12.82,0.22,43.601,13.482,0.99373,0.0045056,-0.0037192,0.11165
15816,1.8963e+07,0.46,-0.46,12.82,0.22,43.601,13.482,0.99373,0.0045171,-0.0035412,0.11164
15853,1.8973e+07,0.47,-0.49,12.83,0.22,43.601,13.482,0.99372,0.0046222,-0.0037966,0.11172
15894,1.8983e+07,0.46,-0.46,12.82,0.22,43.601,13.482,0.99373,0.0044567,-0.0036219,0.11163
15937,1.8993e+07,0.45,-0.5,12.84,0.22,43.601,13.482,0.99371,0.004419,-0.0039239,0.1118
15977,1.9003e+07,0.43,-0.48,12.82,0.22,43.601,13.482,0.99373,0.0042181,-0.0037486,0.11163
16023,1.9013e+07,0.43,-0.5,12.85,0.24,43.601,13.482,0.99371,0.0042717,-0.0039471,0.11185
16063,1.9023e+07,0.4,-0.48,12.82,0.24,43.601,13.482,0.99374,0.0040104,-0.0038075,0.11159
16104,1.9033e+07,0.41,-0.5,12.86,0.24,43.601,13.482,0.9937,0.0040648,-0.0039619,0.11194
16147,1.9043e+07,0.39,-0.49,12.82,0.24,43.601,13.482,0.99374,0.0038988,-0.0038775,0.11161
16184,1.9055e+07,0.4,-0.46,12.86,0.24,43.601,13.482,0.9937,0.0039305,-0.0036558,0.11199
16225,1.9066e+07,0.39,-0.49,12.83,0.24,43.601,13.482,0.99373,0.0038821,-0.0039192,0.11168
16265,1.9076e+07,0.41,-0.46,12.86,0.24,43.601,13.482,0.99369,0.0040329,-0.0036229,0.11199
16306,1.9085e+07,0.42,-0.49,12.83,0.24,43.601,13.482,0.99372,0.0041508,-0.0038901,0.11175
16348,1.9095e+07,0.44,-0.46,12.86,0.24,43.601,13.482,0.9937,0.0043179,-0.0036349,0.11194
16389,1.9106e+07,0.45,-0.49,12.84,0.24,43.601,13.482,0.99371,0.0043933,-0.0038671,0.11181
16434,1.9116e+07,0.46,-0.46,12.86,0.59,43.601,13.482,0.9937,0.0044793,-0.0036186,0.11195
16474,1.9125e+07,0.47,-0.49,12.85,0.59,43.601,13.482,0.9937,0.0045895,-0.0038319,0.11189
16516,1.9136e+07,0.47,-0.47,12.85,0.59,43.601,13.482,0.9937,0.0045603,-0.0036322,0.11193
16559,1.9146e+07,0.46,-0.49,12.85,0.59,43.601,13.482,0.9937,0.0045429,-0.0038641,0.11192
16600,1.9161e+07,0.41,-0.47,12.84,0.59,43.601,13.482,0.99371,0.0040641,-0.0037476,0.11182
16640,1.9172e+07,0.41,-0.48,12.88,0.59,43.601,13.482,0.99368,0.0040884,-0.0038183,0.11213
16682,1.9182e+07,0.39,-0.48,12.84,0.59,43.601,13.482,0.99371,0.0038954,-0.0037982,0.11183
16723,1.9192e+07,0.39,-0.47,12.88,0.59,43.601,13.482,0.99368,0.0038916,-0.0037663,0.1121
16763,1.9202e+07,0.38,-0.48,12.85,0.59,43.601,13.482,0.99371,0.003771,-0.0038392,0.11184
16807,1.9212e+07,0.39,-0.48,12.87,0.59,43.601,13.482,0.99369,0.0038789,-0.0038428,0.11204
16848,1.9222e+07,0.38,-0.49,12.84,-0.01,43.601,13.482,0.99371,0.0038488,-0.0039011,0.11183
16890,1.9233e+07,0.4,-0.48,12.87,-0.01,43.601,13.482,0.99368,0.0039479,-0.0038178,0.11207
16931,1.9243e+07,0.41,-0.49,12.85,-0.01,43.601,13.482,0.9937,0.0041281,-0.0039077,0.1119
16971,1.9253e+07,0.43,-0.48,12.87,-0.01,43.601,13.482,0.99368,0.0042585,-0.0037791,0.11208
17009,1.9266e+07,0.43,-0.51,12.87,-0.01,43.601,13.482,0.99369,0.0042908,-0.0040762,0.11205
17054,1.9278e+07,0.42,-0.49,12.86,-0.01,43.601,13.482,0.9937,0.0041364,-0.0038917,0.11194
17095,1.9288e+07,0.45,-0.51,12.89,-0.01,43.601,13.482,0.99367,0.0044098,-0.0040216,0.1122
17136,1.9298e+07,0.43,-0.5,12.86,-0.01,43.601,13.482,0.9937,0.0042606,-0.0039279,0.11195
17176,1.9308e+07,0.44,-0.51,12.9,-0.01,43.601,13.482,0.99366,0.0044068,-0.0040535,0.11229
17224,1.9321e+07,0.44,-0.49,12.88,0.32,43.601,13.482,0.99368,0.0043255,-0.0038396,0.11214
17268,1.9331e+07,0.43,-0.48,12.91,0.32,43.601,13.482,0.99365,0.0042761,-0.0037867,0.11241
17308,1.9341e+07,0.41,-0.48,12.88,0.32,43.601,13.482,0.99368,0.0041082,-0.0038276,0.11213
17349,1.9353e+07,0.37,-0.51,12.89,0.32,43.601,13.482,0.99367,0.0037951,-0.0040679,0.11223
17386,1.9364e+07,0.37,-0.53,12.89,0.32,43.601,13.482,0.99367,0.0038119,-0.0042257,0.11222
17427,1.9374e+07,0.35,-0.52,12.88,0.32,43.601,13.482,0.99368,0.0036296,-0.0041783,0.11215
17470,1.9383e+07,0.36,-0.53,12.88,0.32,43.601,13.482,0.99367,0.0036773,-0.0042931,0.11217
17510,1.9393e+07,0.35,-0.52,12.87,0.32,43.601,13.482,0.99369,0.0035768,-0.0041867,0.11206
17552,1.9404e+07,0.37,-0.54,12.88,0.32,43.601,13.482,0.99367,0.0037554,-0.0043472,0.11216
17595,1.9414e+07,0.36,-0.53,12.87,0.32,43.601,13.482,0.99369,0.0037298,-0.0042638,0.11204
17637,1.9423e+07,0.39,-0.55,12.88,-0.07,43.601,13.482,0.99367,0.0039286,-0.0043999,0.11215
17677,1.9434e+07,0.39,-0.53,12.87,-0.07,43.601,13.482,0.99369,0.003926,-0.0042667,0.11203
17718,1.9444e+07,0.41,-0.55,12.88,-0.07,43.601,13.482,0.99367,0.0041746,-0.0044053,0.11219
17759,1.9456e+07,0.42,-0.51,12.87,-0.07,43.601,13.482,0.99368,0.0042202,-0.004023,0.11207
17800,1.9467e+07,0.43,-0.52,12.9,-0.07,43.601,13.482,0.99365,0.0042626,-0.0041303,0.11234
17841,1.9477e+07,0.42,-0.51,12.87,-0.07,43.601,13.482,0.99368,0.0042095,-0.0040794,0.11209
17883,1.9486e+07,0.42,-0.52,12.9,-0.07,43.601,13.482,0.99365,0.0041737,-0.0041549,0.11236
17925,1.9496e+07,0.41,-0.52,12.88,-0.07,43.601,13.482,0.99368,0.0040967,-0.0041251,0.11212
17966,1.9506e+07,0.39,-0.52,12.9,-0.07,43.601,13.482,0.99365,0.0039405,-0.0042016,0.11236
18011,1.9517e+07,0.38,-0.52,12.88,0.25,43.601,13.482,0.99368,0.0038295,-0.0042073,0.11212
18054,1.9527e+07,0.36,-0.53,12.9,0.25,43.601,13.482,0.99366,0.0037077,-0.0043173,0.11231
18094,1.9536e+07,0.36,-0.53,12.88,0.25,43.601,13.482,0.99368,0.0036805,-0.0042686,0.11211
18135,1.9547e+07,0.35,-0.54,12.89,0.25,43.601,13.482,0.99366,0.0035919,-0.0043684,0.11225
18175,1.956e+07,0.34,-0.54,12.88,0.25,43.601,13.482,0.99367,0.0035424,-0.0044103,0.11217
18217,1.957e+07,0.34,-0.54,12.87,0.25,43.601,13.482,0.99368,0.0035121,-0.0044173,0.11208
18258,1.9579e+07,0.36,-0.53,12.88,0.25,43.601,13.482,0.99367,0.0036817,-0.0042887,0.11217
18295,1.959e+07,0.36,-0.53,12.88,0.25,43.601,13.482,0.99368,0.0036645,-0.0042927,0.11212
18337,1.96e+07,0.38,-0.52,12.89,0.25,43.601,13.482,0.99367,0.0038744,-0.0041945,0.11221
18378,1.9609e+07,0.39,-0.52,12.88,0.25,43.601,13.482,0.99367,0.0039163,-0.0042036,0.11216
18424,1.962e+07,0.41,-0.52,12.89,0.48,43.601,13.482,0.99366,0.0040721,-0.0041354,0.11226
18465,1.963e+07,0.41,-0.51,12.89,0.48,43.601,13.482,0.99366,0.0040721,-0.0040986,0.11228
18505,1.964e+07,0.42,-0.52,12.9,0.48,43.601,13.482,0.99365,0.0042135,-0.0041195,0.11236
18546,1.965e+07,0.42,-0.51,12.9,0.48,43.601,13.482,0.99366,0.0041889,-0.0040892,0.11232
18586,1.966e+07,0.42,-0.51,12.91,0.48,43.601,13.482,0.99365,0.0041678,-0.0040722,0.1124
18622,1.967e+07,0.4,-0.5,12.91,0.48,43.601,13.482,0.99365,0.0039996,-0.0039439,0.11239
18664,1.968e+07,0.4,-0.5,12.91,0.48,43.601,13.482,0.99364,0.003986,-0.0039933,0.11245
18704,1.969e+07,0.39,-0.49,12.91,0.48,43.601,13.482,0.99365,0.0039172,-0.0038876,0.11238
18745,1.97e+07,0.38,-0.5,12.91,0.48,43.601,13.482,0.99365,0.0038246,-0.0039622,0.11242
18788,1.971e+07,0.38,-0.48,12.91,0.48,43.601,13.482,0.99365,0.0038077,-0.0038148,0.11239
18832,1.972e+07,0.38,-0.49,12.91,0.26,43.601,13.482,0.99365,0.0038216,-0.0039483,0.1124
18874,1.973e+07,0.39,-0.48,12.91,0.26,43.601,13.482,0.99365,0.0038872,-0.0037776,0.11237
18915,1.974e+07,0.38,-0.49,12.91,0.26,43.601,13.482,0.99365,0.0038367,-0.0039416,0.1124
18955,1.975e+07,0.39,-0.47,12.91,0.26,43.601,13.482,0.99364,0.0039209,-0.0037699,0.11243
18997,1.976e+07,0.4,-0.5,12.92,0.26,43.601,13.482,0.99364,0.0039721,-0.0040001,0.11247
19035,1.977e+07,0.42,-0.48,12.92,0.26,43.601,13.482,0.99364,0.0041209,-0.0037953,0.11247
19075,1.978e+07,0.41,-0.51,12.92,0.26,43.601,13.482,0.99363,0.0041039,-0.00405,0.11252
19116,1.9791e+07,0.42,-0.48,12.92,0.26,43.601,13.482,0.99363,0.0041668,-0.0038283,0.11253
19156,1.98e+07,0.42,-0.52,12.93,0.26,43.601,13.482,0.99362,0.0041618,-0.004123,0.11259
19199,1.9811e+07,0.42,-0.49,12.93,0.26,43.601,13.482,0.99363,0.0041865,-0.0039087,0.11254
19245,1.9821e+07,0.41,-0.52,12.93,0.25,43.601,13.482,0.99362,0.0041048,-0.0041567,0.11262
19286,1.983e+07,0.41,-0.49,12.93,0.25,43.601,13.482,0.99362,0.0040951,-0.003915,0.1126
19327,1.9841e+07,0.4,-0.53,12.94,0.25,43.601,13.482,0.99362,0.0040116,-0.0042058,0.11263
19367,1.985e+07,0.4,-0.5,12.93,0.25,43.601,13.482,0.99363,0.0039623,-0.0039433,0.11259
19409,1.9863e+07,0.4,-0.52,12.94,0.25,43.601,13.482,0.99362,0.0040218,-0.0041185,0.11263
19449,1.9873e+07,0.4,-0.51,12.93,0.25,43.601,13.482,0.99362,0.0040575,-0.004062,0.11262
19490,1.9883e+07,0.4,-0.51,12.94,0.25,43.601,13.482,0.99362,0.0040214,-0.0041104,0.11263
19531,1.9893e+07,0.39,-0.51,12.93,0.25,43.601,13.482,0.99363,0.0039779,-0.0040958,0.11258
19572,1.9902e+07,0.39,-0.52,12.94,0.25,43.601,13.482,0.99362,0.0039407,-0.0041682,0.11265
19620,1.9915e+07,0.36,-0.52,12.94,0.25,43.601,13.482,0.99362,0.0037067,-0.0041691,0.11263
19661,1.9925e+07,0.38,-0.51,12.94,0.25,43.601,13.482,0.99362,0.0038292,-0.0040946,0.11266
19704,1.9935e+07,0.37,-0.52,12.93,0.25,43.601,13.482,0.99362,0.0037933,-0.0041795,0.11262
19745,1.9945e+07,0.38,-0.51,12.94,0.25,43.601,13.482,0.99361,0.0038145,-0.0040542,0.1127
19783,1.9955e+07,0.38,-0.52,12.93,0.25,43.601,13.482,0.99362,0.003855,-0.0041989,0.11262
19821,1.9965e+07,0.4,-0.5,12.94,0.25,43.601,13.482,0.99361,0.0040245,-0.0040011,0.1127
19862,1.9976e+07,0.39,-0.52,12.93,0.25,43.601,13.482,0.99363,0.0039182,-0.0041911,0.11259
19905,1.9985e+07,0.39,-0.5,12.95,0.25,43.601,13.482,0.99361,0.0039481,-0.0039658,0.11273
19945,1.9996e+07,0.39,-0.52,12.93,0.25,43.601,13.482,0.99363,0.0039075,-0.004196,0.11259
19987,2.0005e+07,0.4,-0.5,12.94,0.25,43.601,13.482,0.99361,0.0039923,-0.0039544,0.1127
20031,2.0015e+07,0.38,-0.52,12.93,0.25,43.601,13.482,0.99363,0.0038306,-0.004203,0.11256
20073,2.0026e+07,0.38,-0.5,12.95,0.23,43.601,13.482,0.99361,0.0038037,-0.0040136,0.11271
20114,2.0035e+07,0.38,-0.53,12.93,0.23,43.601,13.482,0.99363,0.0038343,-0.004264,0.11258
20154,2.0045e+07,0.39,-0.51,12.95,0.23,43.601,13.482,0.99361,0.0038982,-0.0040637,0.11271
20195,2.0055e+07,0.38,-0.53,12.93,0.23,43.601,13.482,0.99362,0.0038421,-0.0042782,0.1126
20230,2.0065e+07,0.39,-0.51,12.95,0.23,43.601,13.482,0.99361,0.0038902,-0.004078,0.11273
20271,2.0075e+07,0.4,-0.53,12.94,0.23,43.601,13.482,0.99362,0.0040163,-0.0042689,0.11264
20312,2.0085e+07,0.41,-0.51,12.95,0.23,43.601,13.482,0.99361,0.0040973,-0.0040195,0.11273
20352,2.0096e+07,0.41,-0.53,12.94,0.23,43.601,13.482,0.99361,0.004083,-0.0042358,0.11268
20394,2.0105e+07,0.42,-0.5,12.95,0.23,43.601,13.482,0.9936,0.0041617,-0.0039722,0.11277
20439,2.0115e+07,0.44,-0.52,12.95,0.23,43.601,13.482,0.9936,0.0043645,-0.0041319,0.11275
20480,2.0125e+07,0.44,-0.5,12.95,0.05,43.601,13.482,0.9936,0.0043778,-0.0039075,0.11276
20522,2.0135e+07,0.44,-0.52,12.96,0.05,43.601,13.482,0.9936,0.0043654,-0.0041092,0.11283
20562,2.0145e+07,0.44,-0.5,12.96,0.05,43.601,13.482,0.9936,0.0043402,-0.0039397,0.11282
20606,2.0158e+07,0.45,-0.53,12.97,0.05,43.601,13.482,0.99358,0.0044858,-0.0041461,0.11297
20643,2.0168e+07,0.42,-0.52,12.95,0.05,43.601,13.482,0.9936,0.0042399,-0.0041691,0.11279
20683,2.0178e+07,0.41,-0.53,12.98,0.05,43.601,13.482,0.99358,0.0041492,-0.0041839,0.11301
20723,2.0188e+07,0.4,-0.52,12.96,0.05,43.601,13.482,0.9936,0.0040328,-0.0041912,0.11283
20764,2.0198e+07,0.41,-0.52,12.98,0.05,43.601,13.482,0.99358,0.0041353,-0.0041563,0.113
20805,2.0207e+07,0.4,-0.52,12.96,0.05,43.601,13.482,0.9936,0.0039945,-0.0041535,0.11281
20849,2.0218e+07,0.39,-0.52,12.98,0.19,43.601,13.482,0.99358,0.0039774,-0.0041573,0.11299
20891,2.0227e+07,0.4,-0.52,12.96,0.19,43.601,13.482,0.9936,0.0040028,-0.0041461,0.11281
20932,2.0238e+07,0.41,-0.51,12.97,0.19,43.601,13.482,0.99359,0.0041378,-0.0040802,0.11293
20973,2.0248e+07,0.4,-0.51,12.95,0.19,43.601,13.482,0.99361,0.0040037,-0.0040775,0.11276
21014,2.026e+07,0.41,-0.49,12.97,0.19,43.601,13.482,0.99359,0.0041075,-0.0039014,0.11289
21052,2.027e+07,0.44,-0.5,12.95,0.19,43.601,13.482,0.9936,0.0043343,-0.0039227,0.11279
21093,2.028e+07,0.44,-0.49,12.96,0.19,43.601,13.482,0.99359,0.0043587,-0.0038591,0.11286
21133,2.029e+07,0.43,-0.5,12.95,0.19,43.601,13.482,0.9936,0.0043036,-0.0039347,0.11279
21175,2.0301e+07,0.43,-0.49,12.97,0.19,43.601,13.482,0.99359,0.0042193,-0.0038773,0.11289
21215,2.031e+07,0.45,-0.5,12.96,0.19,43.601,13.482,0.9936,0.0044056,-0.0039024,0.11283
21262,2.032e+07,0.43,-0.48,12.96,0.17,43.601,13.482,0.9936,0.0042933,-0.0038131,0.11285
21303,2.033e+07,0.42,-0.49,12.96,0.17,43.601,13.482,0.9936,0.0041785,-0.0039017,0.11284
21345,2.034e+07,0.4,-0.49,12.96,0.17,43.601,13.482,0.9936,0.0040047,-0.0038783,0.11285
21388,2.035e+07,0.42,-0.49,12.96,0.17,43.601,13.482,0.99359,0.0041916,-0.0039111,0.11288
21425,2.036e+07,0.4,-0.5,12.95,0.17,43.601,13.482,0.99361,0.0040195,-0.0039535,0.11277
21462,2.037e+07,0.4,-0.5,12.96,0.17,43.601,13.482,0.99359,0.0040075,-0.0039617,0.11288
21503,2.0381e+07,0.38,-0.51,12.95,0.17,43.601,13.482,0.99361,0.003851,-0.0040694,0.11275
21543,2.039e+07,0.41,-0.5,12.96,0.17,43.601,13.482,0.99359,0.0041014,-0.0039358,0.11288
21584,2.0401e+07,0.39,-0.51,12.94,0.17,43.601,13.482,0.99361,0.00396,-0.0040866,0.11269
21625,2.0411e+07,0.41,-0.5,12.97,0.17,43.601,13.482,0.99359,0.0041143,-0.0039331,0.11289
21670,2.042e+07,0.4,-0.52,12.95,-0.09,43.601,13.482,0.99361,0.0040406,-0.0041179,0.11272
21711,2.0431e+07,0.44,-0.49,12.97,-0.09,43.601,13.482,0.99359,0.0043136,-0.0038946,0.11291
21751,2.0441e+07,0.42,-0.52,12.95,-0.09,43.601,13.482,0.99361,0.0041966,-0.0040951,0.11275
21794,2.0451e+07,0.43,-0.49,12.98,-0.09,43.601,13.482,0.99358,0.0043063,-0.0038912,0.11299
21831,2.0463e+07,0.43,-0.5,12.97,-0.09,43.601,13.482,0.99359,0.0042441,-0.0039136,0.11291
21871,2.0474e+07,0.43,-0.49,12.98,-0.09,43.601,13.482,0.99357,0.0042818,-0.0038731,0.11304
21914,2.0484e+07,0.42,-0.5,12.98,-0.09,43.601,13.482,0.99358,0.0041813,-0.0039676,0.113
21954,2.0494e+07,0.4,-0.51,12.99,-0.09,43.601,13.482,0.99357,0.0039765,-0.0040407,0.11306
21996,2.0503e+07,0.4,-0.51,12.98,-0.09,43.601,13.482,0.99357,0.0040651,-0.0040786,0.11305
22036,2.0514e+07,0.38,-0.52,12.98,-0.09,43.601,13.482,0.99358,0.0038823,-0.0041747,0.11299
22082,2.0524e+07,0.38,-0.52,12.99,0.29,43.601,13.482,0.99357,0.003847,-0.0041388,0.11306
22124,2.0534e+07,0.34,-0.53,12.97,0.29,43.601,13.482,0.99359,0.0035306,-0.0043015,0.11294
22165,2.0544e+07,0.36,-0.51,12.99,0.29,43.601,13.482,0.99357,0.003691,-0.0040989,0.11311
22206,2.0554e+07,0.33,-0.53,12.96,0.29,43.601,13.482,0.99359,0.0034767,-0.00434,0.11287
22248,2.0566e+07,0.35,-0.48,12.99,0.29,43.601,13.482,0.99357,0.0035231,-0.0038885,0.11311
22286,2.0576e+07,0.33,-0.52,12.97,0.29,43.601,13.482,0.99359,0.0034169,-0.004201,0.11291
22326,2.0586e+07,0.37,-0.49,12.99,0.29,43.601,13.482,0.99357,0.0037564,-0.0038815,0.11311
22367,2.0596e+07,0.36,-0.51,12.97,0.29,43.601,13.482,0.99358,0.0037085,-0.0041096,0.11296
22407,2.0606e+07,0.38,-0.49,13,0.29,43.601,13.482,0.99356,0.0037985,-0.0039074,0.11315
22453,2.0617e+07,0.37,-0.51,12.99,0.29,43.601,13.482,0.99357,0.0037998,-0.0040948,0.11309
22495,2.0626e+07,0.4,-0.49,13,-0.23,43.601,13.482,0.99355,0.0040408,-0.0039234,0.11321
22535,2.0636e+07,0.4,-0.51,13,-0.23,43.601,13.482,0.99356,0.0040341,-0.0040764,0.11317
22576,2.0646e+07,0.4,-0.5,13.01,-0.23,43.601,13.482,0.99354,0.0039992,-0.0039619,0.1133
22618,2.0657e+07,0.39,-0.52,13.01,-0.23,43.601,13.482,0.99355,0.0039561,-0.0041495,0.11324
22659,2.0667e+07,0.41,-0.5,13.02,-0.23,43.601,13.482,0.99354,0.004118,-0.003937,0.11334
22696,2.0676e+07,0.41,-0.52,13,-0.23,43.601,13.482,0.99355,0.0040757,-0.0041516,0.11322
22734,2.0686e+07,0.4,-0.5,13.01,-0.23,43.601,13.482,0.99354,0.0040083,-0.0039923,0.11332
22776,2.0696e+07,0.4,-0.52,13,-0.23,43.601,13.482,0.99355,0.0040114,-0.0041952,0.11323
22816,2.0707e+07,0.41,-0.5,13.01,-0.23,43.601,13.482,0.99355,0.0041231,-0.0039725,0.11328
22861,2.0717e+07,0.41,-0.52,13,-0.23,43.601,13.482,0.99355,0.0041104,-0.0041499,0.11321
22902,2.0727e+07,0.4,-0.53,13,-0.18,43.601,13.482,0.99356,0.0040054,-0.0042476,0.11319
22946,2.0737e+07,0.4,-0.53,13.01,-0.18,43.601,13.482,0.99354,0.0040649,-0.0042779,0.11329
22986,2.0747e+07,0.4,-0.54,13,-0.18,43.601,13.482,0.99356,0.0040334,-0.0043536,0.11319
23028,2.076e+07,0.38,-0.54,13.02,-0.18,43.601,13.482,0.99354,0.0038636,-0.0043623,0.11335
23069,2.077e+07,0.35,-0.56,13,-0.18,43.601,13.482,0.99355,0.0036644,-0.0045309,0.11322
23106,2.078e+07,0.38,-0.54,13.02,-0.18,43.601,13.482,0.99353,0.003893,-0.0043328,0.1134
23147,2.079e+07,0.37,-0.56,13.01,-0.18,43.601,13.482,0.99355,0.0038382,-0.0045252,0.11326
23187,2.08e+07,0.39,-0.55,13.02,-0.18,43.601,13.482,0.99353,0.0039345,-0.0044178,0.1134
23229,2.081e+07,0.39,-0.55,13.01,-0.18,43.601,13.482,0.99354,0.0039488,-0.0044667,0.11331
23275,2.082e+07,0.41,-0.54,13.03,0,43.601,13.482,0.99353,0.0041738,-0.0043208,0.11343
23316,2.083e+07,0.41,-0.55,13.01,0,43.601,13.482,0.99354,0.0041063,-0.0043784,0.11329
23357,2.084e+07,0.41,-0.53,13.03,0,43.601,13.482,0.99352,0.0041569,-0.0042636,0.11347
23397,2.085e+07,0.4,-0.55,13.01,0,43.601,13.482,0.99354,0.0040715,-0.0044157,0.11331
23440,2.086e+07,0.42,-0.52,13.04,0,43.601,13.482,0.99352,0.0042107,-0.0041358,0.11351
23480,2.0872e+07,0.42,-0.52,13.02,0,43.601,13.482,0.99354,0.0042123,-0.004138,0.11335
23521,2.0882e+07,0.41,-0.51,13.04,0,43.601,13.482,0.99352,0.004076,-0.0040356,0.11355
23562,2.0892e+07,0.4,-0.53,13.03,0,43.601,13.482,0.99353,0.0040374,-0.0042049,0.11343
23605,2.0902e+07,0.4,-0.51,13.04,0,43.601,13.482,0.99352,0.0040706,-0.0041017,0.11355
23646,2.0912e+07,0.39,-0.53,13.03,0,43.601,13.482,0.99352,0.0040011,-0.0042661,0.11346
23690,2.0922e+07,0.38,-0.53,13.04,0,43.601,13.482,0.99352,0.0038708,-0.0042608,0.11355
23731,2.0932e+07,0.4,-0.53,13.04,0,43.601,13.482,0.99351,0.0040015,-0.0042548,0.11356
23773,2.0942e+07,0.4,-0.54,13.04,0,43.601,13.482,0.99352,0.0040159,-0.0043357,0.11353
23815,2.0952e+07,0.41,-0.53,13.04,0,43.601,13.482,0.99351,0.0040895,-0.0042541,0.11356
23856,2.0962e+07,0.39,-0.54,13.04,0,43.601,13.482,0.99352,0.0039445,-0.0043506,0.11355
23897,2.0972e+07,0.41,-0.53,13.05,0,43.601,13.482,0.99351,0.0041207,-0.0042221,0.11359
23940,2.0984e+07,0.41,-0.56,13.03,0,43.601,13.482,0.99353,0.0041917,-0.0045102,0.11344
23980,2.0995e+07,0.43,-0.56,13.04,0,43.601,13.482,0.99351,0.0043234,-0.0044436,0.11358
24021,2.1005e+07,0.42,-0.56,13.03,0,43.601,13.482,0.99352,0.0042599,-0.0045182,0.11346
24063,2.1014e+07,0.44,-0.56,13.05,0,43.601,13.482,0.99351,0.0044334,-0.0044564,0.11361
24107,2.1024e+07,0.44,-0.56,13.03,0.23,43.601,13.482,0.99352,0.0043995,-0.0044997,0.11347
24148,2.1035e+07,0.44,-0.56,13.05,0.23,43.601,13.482,0.9935,0.0044284,-0.0044956,0.11363
24189,2.1044e+07,0.43,-0.57,13.04,0.23,43.601,13.482,0.99352,0.0043572,-0.0045332,0.11351
24230,2.1055e+07,0.44,-0.57,13.06,0.23,43.601,13.482,0.9935,0.0044409,-0.0045028,0.11367
24267,2.1064e+07,0.43,-0.56,13.04,0.23,43.601,13.482,0.99352,0.0043648,-0.0044319,0.11352
24312,2.108e+07,0.38,-0.55,13.05,0.23,43.601,13.482,0.9935,0.0039036,-0.0044486,0.11364
24353,2.109e+07,0.39,-0.52,13.06,0.23,43.601,13.482,0.9935,0.0039171,-0.0041802,0.11367
24394,2.11e+07,0.38,-0.53,13.06,0.23,43.601,13.482,0.9935,0.0038682,-0.0042469,0.1137
24436,2.111e+07,0.4,-0.54,13.05,0.23,43.601,13.482,0.9935,0.0040288,-0.0043389,0.11366
24481,2.112e+07,0.38,-0.54,13.05,0.31,43.601,13.482,0.9935,0.0039222,-0.0043761,0.11365
24521,2.113e+07,0.41,-0.54,13.06,0.31,43.601,13.482,0.9935,0.0041678,-0.0043272,0.11371
24565,2.114e+07,0.41,-0.55,13.05,0.31,43.601,13.482,0.9935,0.004164,-0.0043866,0.11364
24605,2.115e+07,0.42,-0.56,13.06,0.31,43.601,13.482,0.99349,0.0042788,-0.0044491,0.11373
24646,2.116e+07,0.42,-0.56,13.05,0.31,43.601,13.482,0.9935,0.004235,-0.0044647,0.11366
24683,2.117e+07,0.44,-0.57,13.06,0.31,43.601,13.482,0.99349,0.0044118,-0.004517,0.11375
24724,2.118e+07,0.44,-0.56,13.05,0.31,43.601,13.482,0.9935,0.0044119,-0.0044413,0.11366
24766,2.1191e+07,0.44,-0.57,13.07,0.31,43.601,13.482,0.99349,0.0044193,-0.0045879,0.11376
24806,2.1201e+07,0.44,-0.55,13.05,0.31,43.601,13.482,0.9935,0.0044312,-0.0043855,0.11366
24848,2.1211e+07,0.45,-0.57,13.07,0.31,43.601,13.482,0.99348,0.0044779,-0.0045684,0.11384
24892,2.1221e+07,0.44,-0.55,13.05,0.38,43.601,13.482,0.9935,0.0044055,-0.0043588,0.11364
24933,2.1231e+07,0.43,-0.57,13.08,0.38,43.601,13.482,0.99347,0.0043146,-0.0045532,0.11388
24973,2.1241e+07,0.42,-0.55,13.06,0.38,43.601,13.482,0.9935,0.0042484,-0.0043519,0.11368
25015,2.125e+07,0.42,-0.56,13.09,0.38,43.601,13.482,0.99347,0.0042705,-0.0045146,0.11394
25056,2.1261e+07,0.42,-0.55,13.06,0.38,43.601,13.482,0.9935,0.0042338,-0.0043802,0.11369
25096,2.1273e+07,0.39,-0.54,13.09,0.38,43.601,13.482,0.99346,0.0039397,-0.004376,0.11399
25138,2.1284e+07,0.4,-0.54,13.07,0.38,43.601,13.482,0.99348,0.0040864,-0.0043087,0.11381
25179,2.1294e+07,0.42,-0.55,13.09,0.38,43.601,13.482,0.99347,0.0041976,-0.004394,0.11396
25220,2.1304e+07,0.41,-0.55,13.07,0.38,43.601,13.482,0.99348,0.0041787,-0.0044126,0.11383
25261,2.1314e+07,0.4,-0.55,13.09,0.38,43.601,13.482,0.99347,0.0040668,-0.0044327,0.11396
25305,2.1324e+07,0.41,-0.55,13.08,-0.27,43.601,13.482,0.99348,0.0041476,-0.0043702,0.11389
25347,2.1334e+07,0.42,-0.54,13.09,-0.27,43.601,13.482,0.99347,0.0042114,-0.004318,0.11396
25389,2.1344e+07,0.41,-0.55,13.08,-0.27,43.601,13.482,0.99347,0.0041665,-0.0043861,0.1139
25430,2.1354e+07,0.4,-0.55,13.09,-0.27,43.601,13.482,0.99347,0.0041017,-0.0044026,0.11397
25473,2.1366e+07,0.44,-0.58,13.09,-0.27,43.601,13.482,0.99346,0.0044277,-0.0046457,0.11396
25511,2.1377e+07,0.44,-0.58,13.08,-0.27,43.601,13.482,0.99348,0.0044123,-0.0046589,0.11387
25552,2.1387e+07,0.43,-0.59,13.1,-0.27,43.601,13.482,0.99346,0.0043741,-0.0047065,0.11403
25594,2.1397e+07,0.41,-0.59,13.08,-0.27,43.601,13.482,0.99347,0.0042068,-0.0047655,0.11391
25635,2.1407e+07,0.41,-0.58,13.1,-0.27,43.601,13.482,0.99345,0.0041831,-0.0046555,0.11407
25675,2.1417e+07,0.4,-0.59,13.09,-0.27,43.601,13.482,0.99347,0.0040802,-0.004752,0.11395
25720,2.1426e+07,0.39,-0.58,13.1,0.16,43.601,13.482,0.99345,0.004033,-0.004652,0.11407
25762,2.1437e+07,0.39,-0.59,13.09,0.16,43.601,13.482,0.99346,0.0040029,-0.0047377,0.11399
25802,2.1446e+07,0.39,-0.57,13.09,0.16,43.601,13.482,0.99346,0.0040241,-0.0046086,0.11401
25846,2.1459e+07,0.4,-0.58,13.1,0.16,43.601,13.482,0.99346,0.0040925,-0.0046329,0.11404
25886,2.147e+07,0.39,-0.6,13.08,0.16,43.601,13.482,0.99347,0.0040484,-0.0048456,0.11388
25926,2.148e+07,0.42,-0.58,13.1,0.16,43.601,13.482,0.99346,0.0042971,-0.0046398,0.11404
25968,2.149e+07,0.42,-0.62,13.08,0.16,43.601,13.482,0.99348,0.0042637,-0.0049882,0.11385
26009,2.1499e+07,0.42,-0.59,13.1,0.16,43.601,13.482,0.99346,0.0043223,-0.0047575,0.11402
26050,2.151e+07,0.4,-0.64,13.08,0.16,43.601,13.482,0.99347,0.0041853,-0.0051489,0.11388
26094,2.1519e+07,0.43,-0.6,13.1,0.16,43.601,13.482,0.99346,0.004368,-0.0048434,0.11403
26138,2.153e+07,0.41,-0.64,13.09,0.32,43.601,13.482,0.99347,0.0042671,-0.0051721,0.11393
26178,2.154e+07,0.41,-0.62,13.1,0.32,43.601,13.482,0.99346,0.0042268,-0.0049664,0.11403
26219,2.155e+07,0.4,-0.64,13.09,0.32,43.601,13.482,0.99346,0.0041405,-0.0051857,0.114
26260,2.156e+07,0.41,-0.6,13.1,0.32,43.601,13.482,0.99345,0.0042199,-0.0048591,0.11405
26300,2.157e+07,0.4,-0.62,13.1,0.32,43.601,13.482,0.99346,0.0041479,-0.0050455,0.11403
26339,2.1582e+07,0.39,-0.6,13.09,0.32,43.601,13.482,0.99346,0.004009,-0.0048309,0.11398
26380,2.1593e+07,0.4,-0.61,13.11,0.32,43.601,13.482,0.99345,0.0041025,-0.004905,0.11412
26420,2.1603e+07,0.39,-0.62,13.08,0.32,43.601,13.482,0.99347,0.0040171,-0.0050322,0.11389
26464,2.1613e+07,0.42,-0.62,13.11,0.32,43.601,13.482,0.99345,0.0043142,-0.005002,0.11412
26509,2.1623e+07,0.39,-0.63,13.07,0.26,43.601,13.482,0.99348,0.0040749,-0.0050989,0.11384
26551,2.1633e+07,0.43,-0.6,13.11,0.26,43.601,13.482,0.99344,0.0043801,-0.0048295,0.11417
26591,2.1643e+07,0.41,-0.63,13.07,0.26,43.601,13.482,0.99348,0.004208,-0.0050544,0.1138
26632,2.1653e+07,0.43,-0.59,13.12,0.26,43.601,13.482,0.99344,0.0043811,-0.0047471,0.11421
26672,2.1663e+07,0.43,-0.62,13.08,0.26,43.601,13.482,0.99348,0.0043972,-0.0049471,0.11384
26710,2.1673e+07,0.44,-0.6,13.1,0.26,43.601,13.482,0.99345,0.0045059,-0.004814,0.1141
26748,2.1683e+07,0.45,-0.57,13.1,0.26,43.601,13.482,0.99345,0.0044832,-0.0045457,0.11405
26789,2.1694e+07,0.48,-0.59,13.1,0.26,43.601,13.482,0.99345,0.0047881,-0.0047197,0.11407
26830,2.1704e+07,0.46,-0.57,13.1,0.26,43.601,13.482,0.99345,0.0046463,-0.0045446,0.11405
26872,2.1714e+07,0.43,-0.58,13.11,0.26,43.601,13.482,0.99344,0.0043188,-0.0046399,0.11416
26922,2.1726e+07,0.39,-0.55,13.11,0.02,43.601,13.482,0.99345,0.004019,-0.004447,0.11414
26962,2.1736e+07,0.41,-0.56,13.12,0.02,43.601,13.482,0.99343,0.004132,-0.0045299,0.11426
27003,2.1746e+07,0.49,-0.57,13.11,0.02,43.601,13.482,0.99345,0.0048819,-0.0044605,0.11411
27045,2.1756e+07,0.5,-0.58,13.12,0.02,43.601,13.482,0.99343,0.0049917,-0.0045756,0.11422
27085,2.1766e+07,0.41,-0.59,13.1,0.02,43.601,13.482,0.99345,0.0041565,-0.0047387,0.11407
27127,2.1776e+07,0.3,-0.58,13.13,0.02,43.601,13.482,0.99342,0.0032394,-0.0047975,0.11435
27165,2.1786e+07,0.32,-0.57,13.13,0.02,43.601,13.482,0.99342,0.0033922,-0.0046618,0.11435
27206,2.1796e+07,0.46,-0.58,13.13,0.02,43.601,13.482,0.99342,0.0046575,-0.0046079,0.11434
27247,2.1806e+07,0.54,-0.57,13.12,0.02,43.601,13.482,0.99343,0.0053237,-0.0044726,0.11423
27288,2.1816e+07,0.49,-0.57,13.12,0.02,43.601,13.482,0.99343,0.0049034,-0.0044497,0.11423
27336,2.1826e+07,0.42,-0.56,13.13,0.39,43.601,13.482,0.99342,0.0042327,-0.0044402,0.11432
27376,2.1836e+07,0.4,-0.54,13.13,0.39,43.601,13.482,0.99343,0.0040129,-0.0043003,0.1143
27418,2.1846e+07,0.43,-0.55,13.14,0.39,43.601,13.482,0.99341,0.0042954,-0.0043416,0.11444
27458,2.1856e+07,0.44,-0.54,13.13,0.39,43.601,13.482,0.99342,0.0044246,-0.004267,0.11433
27499,2.1866e+07,0.43,-0.56,13.15,0.39,43.601,13.482,0.9934,0.0043162,-0.0044369,0.11451
27540,2.1876e+07,0.41,-0.56,13.14,0.39,43.601,13.482,0.99341,0.0041361,-0.0044835,0.11441
27577,2.1886e+07,0.45,-0.58,13.15,0.39,43.601,13.482,0.9934,0.0045225,-0.0046544,0.11451
27619,2.1896e+07,0.5,-0.58,13.15,0.39,43.601,13.482,0.99341,0.0049528,-0.0045751,0.11445
27660,2.1906e+07,0.51,-0.56,13.15,0.39,43.601,13.482,0.99341,0.0050012,-0.0044216,0.11446
27700,2.1916e+07,0.44,-0.56,13.15,0.39,43.601,13.482,0.9934,0.0044462,-0.0044712,0.11452
27748,2.1927e+07,0.36,-0.55,13.15,-0.02,43.601,13.482,0.99341,0.0037323,-0.0044473,0.11447
27788,2.1936e+07,0.36,-0.57,13.16,-0.02,43.601,13.482,0.99339,0.003743,-0.0046343,0.11462
27829,2.1946e+07,0.42,-0.57,13.14,-0.02,43.601,13.482,0.99342,0.0042729,-0.0045928,0.1144
27870,2.1957e+07,0.49,-0.59,13.16,-0.02,43.601,13.482,0.99339,0.0048542,-0.0046486,0.11455
27908,2.1969e+07,0.45,-0.57,13.13,-0.02,43.601,13.482,0.99342,0.0045224,-0.0045081,0.11435
27950,2.1979e+07,0.49,-0.59,13.15,-0.02,43.601,13.482,0.9934,0.0048944,-0.0046724,0.11454
27991,2.199e+07,0.49,-0.57,13.13,-0.02,43.601,13.482,0.99342,0.0049042,-0.0045075,0.11429
28032,2.2e+07,0.52,-0.58,13.16,-0.02,43.601,13.482,0.99339,0.0051648,-0.0045532,0.11455
28073,2.2009e+07,0.53,-0.54,13.14,-0.02,43.601,13.482,0.99342,0.0051968,-0.004166,0.11437
28114,2.2019e+07,0.52,-0.53,13.16,-0.02,43.601,13.482,0.99339,0.005087,-0.0040963,0.1146
28159,2.2029e+07,0.45,-0.51,13.15,-0.09,43.601,13.482,0.99341,0.0044877,-0.0039765,0.11448
28200,2.2039e+07,0.41,-0.51,13.16,-0.09,43.601,13.482,0.99339,0.0041116,-0.0040658,0.1146
28240,2.2049e+07,0.39,-0.53,13.16,-0.09,43.601,13.482,0.9934,0.0039444,-0.0042371,0.11458
28282,2.2059e+07,0.4,-0.55,13.15,-0.09,43.601,13.482,0.99341,0.0040346,-0.0044014,0.11449
28320,2.2069e+07,0.41,-0.59,13.16,-0.09,43.601,13.482,0.9934,0.0041556,-0.0047115,0.11455
28360,2.2079e+07,0.39,-0.59,13.13,-0.09,43.601,13.482,0.99342,0.0040631,-0.0047683,0.11435
28398,2.209e+07,0.4,-0.62,13.16,-0.09,43.601,13.482,0.9934,0.0041759,-0.0049862,0.11453
28438,2.21e+07,0.4,-0.6,13.14,-0.09,43.601,13.482,0.99342,0.0040944,-0.0048305,0.11437
28480,2.211e+07,0.43,-0.62,13.15,-0.09,43.601,13.482,0.9934,0.004415,-0.0049828,0.11451
28520,2.212e+07,0.47,-0.6,13.13,-0.09,43.601,13.482,0.99342,0.0046819,-0.0047816,0.11435
28569,2.213e+07,0.5,-0.6,13.16,0.16,43.601,13.482,0.99339,0.0049647,-0.004777,0.11457
28619,2.214e+07,0.48,-0.57,13.14,84.55,43.601,13.482,0.99341,0.004801,-0.0045399,0.11442
28663,2.2151e+07,0.47,-0.57,13.17,84.55,43.601,13.482,0.99338,0.0047205,-0.0044738,0.11469
28708,2.2164e+07,0.47,-0.59,13.15,84.55,43.601,13.482,0.99341,0.0047109,-0.0047167,0.11445
28755,2.2177e+07,0.46,-0.6,13.16,84.55,43.601,13.482,0.9934,0.0046176,-0.0047833,0.11455
28800,2.2187e+07,0.42,-0.58,13.15,84.55,43.601,13.482,0.9934,0.0042442,-0.0046579,0.11453
28846,2.2197e+07,0.41,-0.58,13.16,84.55,43.601,13.482,0.99339,0.004207,-0.0046547,0.11462
28887,2.2207e+07,0.43,-0.56,13.16,84.55,43.601,13.482,0.99339,0.0043803,-0.0044847,0.11458
28932,2.2217e+07,0.48,-0.55,13.17,84.55,43.601,13.482,0.99338,0.0047517,-0.0043356,0.11467
28981,2.2227e+07,0.46,-0.53,13.16,84.35,43.601,13.482,0.99339,0.0045875,-0.0041478,0.11459
29026,2.2238e+07,0.41,-0.51,13.18,84.35,43.601,13.482,0.99338,0.004136,-0.0040484,0.11473
29072,2.2248e+07,0.38,-0.5,13.17,84.35,43.601,13.482,0.99339,0.0038673,-0.0040188,0.11467
29116,2.2258e+07,0.36,-0.51,13.18,84.35,43.601,13.482,0.99337,0.0037183,-0.0040636,0.11479
29161,2.2268e+07,0.42,-0.54,13.17,84.35,43.601,13.482,0.99338,0.0042282,-0.0042885,0.11469
