LineNo,TimeUS,RMSRollP,RMSRollD,RMSPitchP,RMSPitchD,RMSYaw
215,1.5038e+07,0.0057811,0.00067104,0.0057062,0.00045374,0.64158
318,1.5072e+07,0.0057773,0.00064827,0.0057364,0.00044605,0.6438
660,1.5134e+07,0.0057713,0.00062761,0.0057223,0.00042728,0.65242
773,1.515e+07,0.0057792,0.00062678,0.0057163,0.00042015,0.65565
886,1.5166e+07,0.0057786,0.00061585,0.0057105,0.00042301,0.65929
999,1.5183e+07,0.0057801,0.00060456,0.0057091,0.00041614,0.66333
1230,1.5261e+07,0.0057909,0.00058379,0.0057386,0.00043632,0.68004
1614,1.5416e+07,0.0058136,0.0005834,0.005728,0.00045423,0.71814
1692,1.5427e+07,0.0058244,0.00057309,0.0057245,0.00044884,0.72348
1734,1.5437e+07,0.005837,0.0005653,0.005723,0.00044236,0.72873
1774,1.5447e+07,0.0058473,0.00055575,0.0057219,0.00044287,0.73387
1815,1.5461e+07,0.0058588,0.00054637,0.0057256,0.00043775,0.74013
1858,1.5473e+07,0.0058487,0.00056069,0.0057376,0.0004379,0.7462
1900,1.5484e+07,0.0058478,0.00055581,0.0057385,0.00043428,0.7509
1945,1.5494e+07,0.0058415,0.00054809,0.005743,0.0004306,0.75546
1985,1.5503e+07,0.0058358,0.00053967,0.0057412,0.00042831,0.75988
2026,1.5514e+07,0.0058222,0.0005431,0.0057331,0.00042743,0.76416
2069,1.5524e+07,0.0058182,0.00054001,0.0057305,0.00042072,0.76831
2113,1.5539e+07,0.0058158,0.00052949,0.0057387,0.000421,0.77427
2157,1.5549e+07,0.0058202,0.00052376,0.0057465,0.00041449,0.77807
2197,1.5559e+07,0.0058309,0.00052319,0.0057521,0.00040696,0.78174
2238,1.5569e+07,0.0058416,0.00051529,0.0057586,0.00040194,0.78528
2279,1.5579e+07,0.0058589,0.00051766,0.0057645,0.00039482,0.78869
2323,1.5589e+07,0.0058653,0.0005234,0.0057598,0.00040826,0.79197
2365,1.5599e+07,0.005871,0.00051405,0.0057622,0.00041234,0.79513
2406,1.5609e+07,0.0058761,0.00050761,0.0057616,0.00042314,0.79816
2450,1.5619e+07,0.0058798,0.00050069,0.0057656,0.0004246,0.80105
2490,1.5629e+07,0.0058678,0.00051899,0.0057595,0.00042595,0.80376
2528,1.564e+07,0.0058504,0.00052201,0.0057501,0.00042297,0.80626
2571,1.565e+07,0.0058306,0.00052791,0.0057431,0.00042571,0.80854
2611,1.566e+07,0.005809,0.0005297,0.0057349,0.00042263,0.81058
2652,1.567e+07,0.0057874,0.00051949,0.0057256,0.00041595,0.81236
2692,1.568e+07,0.00576,0.0005167,0.0057267,0.00042544,0.81388
2737,1.569e+07,0.0057345,0.00051027,0.0057383,0.00043957,0.81512
2778,1.57e+07,0.0057138,0.00050137,0.0057335,0.00044684,0.81609
2819,1.571e+07,0.005682,0.00051253,0.0057425,0.0004578,0.81678
2860,1.572e+07,0.0056516,0.00050656,0.0057454,0.00044991,0.81719
2900,1.573e+07,0.0056331,0.00051126,0.0057512,0.00044234,0.81732
2942,1.574e+07,0.0056233,0.00052041,0.0057587,0.0004362,0.81718
2984,1.575e+07,0.0056085,0.00051276,0.0057728,0.00043401,0.81676
3023,1.576e+07,0.0055914,0.00050574,0.0057853,0.00042712,0.81609
3065,1.577e+07,0.0055722,0.0004973,0.0057988,0.00041986,0.81515
3105,1.578e+07,0.0055508,0.00049085,0.0058069,0.00041624,0.81396
3151,1.5791e+07,0.0055152,0.00051328,0.0058046,0.00042107,0.81252
3193,1.58e+07,0.0054817,0.00050574,0.0057993,0.00041772,0.81084
3234,1.581e+07,0.0054454,0.00049969,0.0057951,0.0004131,0.80893
3275,1.5821e+07,0.0054055,0.0005021,0.0057909,0.00041048,0.80679
3317,1.5834e+07,0.0053552,0.00049522,0.0057934,0.00040578,0.80381
3354,1.5844e+07,0.0053035,0.00052789,0.0057975,0.00040023,0.80119
3396,1.5854e+07,0.0052565,0.0005227,0.0058015,0.00039369,0.79837
3437,1.5864e+07,0.0052205,0.00053695,0.0058155,0.00039896,0.79536
3477,1.5874e+07,0.0051838,0.00053314,0.0058367,0.00040334,0.79217
3518,1.5884e+07,0.0051383,0.00053527,0.0058468,0.00040672,0.7888
3562,1.5894e+07,0.0050961,0.00052515,0.0058567,0.00040481,0.78526
3603,1.5904e+07,0.0050645,0.00053337,0.0058627,0.0003979,0.78155
3645,1.5914e+07,0.0050262,0.00052798,0.0058619,0.00040619,0.77769
3687,1.5924e+07,0.004988,0.00052129,0.0058551,0.00041606,0.77367
3725,1.5934e+07,0.0049556,0.00051372,0.0058566,0.00041515,0.7695
3762,1.5945e+07,0.00492,0.00050712,0.0058554,0.00040768,0.76519
3804,1.5955e+07,0.0048725,0.00052957,0.0058583,0.00040546,0.76075
3845,1.5965e+07,0.0048248,0.00052477,0.0058614,0.00040164,0.75618
3885,1.5975e+07,0.0047708,0.00053746,0.0058687,0.00040136,0.75149
3926,1.5985e+07,0.004717,0.00053165,0.005889,0.00042085,0.74667
3970,1.5995e+07,0.0046601,0.00052887,0.0058974,0.00041869,0.74174
4011,1.6005e+07,0.0045957,0.00055458,0.005909,0.00041268,0.7367
4054,1.6015e+07,0.0045373,0.00055175,0.005917,0.0004071,0.73154
4095,1.6025e+07,0.0044795,0.0005459,0.0059204,0.00040322,0.72628
4136,1.6035e+07,0.0044231,0.00053695,0.0059143,0.00041603,0.72092
4173,1.6045e+07,0.0043597,0.00055202,0.0059178,0.00041522,0.71547
4215,1.6055e+07,0.0043043,0.00054801,0.0059203,0.00041952,0.70992
4259,1.6068e+07,0.0042461,0.00054974,0.0059158,0.00041372,0.70286
4301,1.6078e+07,0.0042061,0.00055758,0.0059135,0.00041133,0.69713
4341,1.6088e+07,0.0041617,0.00054825,0.0059261,0.00043828,0.69132
4386,1.6098e+07,0.0041211,0.00053845,0.0059344,0.00043233,0.68544
4427,1.6108e+07,0.0040824,0.00052966,0.005946,0.0004261,0.67949
4467,1.6118e+07,0.0040351,0.00054025,0.0059614,0.00042692,0.67347
4513,1.6133e+07,0.0039582,0.000546,0.0059773,0.00041791,0.66431
4556,1.6146e+07,0.0038975,0.00053414,0.0059821,0.00041224,0.65656
4596,1.6156e+07,0.0038489,0.00052715,0.0059853,0.00040857,0.6503
4637,1.6166e+07,0.003794,0.00054797,0.0059839,0.00040517,0.64398
4679,1.6176e+07,0.0037359,0.00055159,0.0059817,0.00040595,0.63759
4719,1.6186e+07,0.003678,0.00054282,0.0059904,0.00040858,0.63116
4764,1.6196e+07,0.0036234,0.0005352,0.005989,0.00041099,0.62467
4804,1.6206e+07,0.0035616,0.00056175,0.0059952,0.00041273,0.61813
4846,1.6216e+07,0.0035013,0.00056348,0.0060037,0.00041161,0.61155
4886,1.6226e+07,0.0034486,0.00056731,0.0059999,0.0004176,0.60492
4927,1.6236e+07,0.0033911,0.00056415,0.0060026,0.000411,0.59826
4965,1.6246e+07,0.0033376,0.00056157,0.0060035,0.00040499,0.59155
5002,1.6256e+07,0.0032929,0.00056942,0.0060034,0.00039827,0.58481
5044,1.6266e+07,0.0032455,0.00056123,0.0059999,0.00039489,0.57804
5086,1.6276e+07,0.0031926,0.0005706,0.0060048,0.00039686,0.57123
5126,1.6286e+07,0.0031472,0.00056594,0.0060108,0.00039339,0.56439
5171,1.6296e+07,0.0031028,0.00056374,0.00601,0.00039279,0.55752
5212,1.6306e+07,0.0030564,0.000561,0.0060219,0.00039898,0.55062
5253,1.6316e+07,0.0030054,0.00056605,0.0060392,0.00040193,0.54369
5293,1.6326e+07,0.0029537,0.00056389,0.0060557,0.00039472,0.53675
5336,1.6338e+07,0.0028859,0.00056811,0.0060765,0.00038531,0.52803
5373,1.6348e+07,0.0028332,0.00056914,0.0060834,0.00039576,0.52105
5418,1.6361e+07,0.0027672,0.00057964,0.0060881,0.00038988,0.51232
5459,1.6371e+07,0.0027171,0.00057475,0.0060883,0.00038536,0.50537
5499,1.6381e+07,0.0026643,0.0005817,0.0060921,0.00038446,0.49847
5541,1.6391e+07,0.0026138,0.0005755,0.0060851,0.00039321,0.49163
5585,1.6401e+07,0.0025677,0.00057628,0.0060918,0.00039814,0.48486
5627,1.6411e+07,0.0025193,0.00057322,0.0060942,0.00039066,0.47818
5668,1.6421e+07,0.0024753,0.00057462,0.0060941,0.00039698,0.47159
5708,1.6431e+07,0.0024349,0.00057276,0.0061031,0.00040042,0.46509
5743,1.6441e+07,0.0023955,0.00056388,0.0061129,0.00039591,0.45871
5784,1.6452e+07,0.0023565,0.00055294,0.0061242,0.00038889,0.45243
5825,1.6462e+07,0.0023246,0.00056119,0.0061348,0.00038276,0.44626
5865,1.6472e+07,0.0022939,0.00055298,0.0061375,0.00039263,0.44021
5907,1.6482e+07,0.0022654,0.00054508,0.006139,0.000395,0.43428
5949,1.6492e+07,0.002233,0.00054483,0.0061434,0.00039222,0.42846
5993,1.6502e+07,0.0021967,0.00054826,0.0061397,0.00039035,0.42277
6036,1.6512e+07,0.0021582,0.00054733,0.0061315,0.00039131,0.4172
6076,1.6522e+07,0.0021196,0.00053989,0.0061163,0.00039421,0.41175
6120,1.6533e+07,0.002078,0.00056486,0.0061046,0.00039016,0.40642
6157,1.6543e+07,0.0020373,0.0005556,0.0061021,0.00039222,0.40122
6197,1.6553e+07,0.0019971,0.00054824,0.0061046,0.00040782,0.39614
6237,1.6563e+07,0.0019575,0.00054561,0.0061261,0.00044144,0.39119
6278,1.6573e+07,0.0019201,0.00054991,0.0061509,0.00044781,0.38635
6319,1.6583e+07,0.0018886,0.00057821,0.0061639,0.00044579,0.38163
6360,1.6594e+07,0.0018645,0.00060549,0.0061725,0.00044187,0.37703
6408,1.6603e+07,0.0018446,0.00060893,0.0061699,0.00045219,0.37255
6450,1.6614e+07,0.0018406,0.00065109,0.0061661,0.00044833,0.36818
6491,1.6624e+07,0.0018611,0.00069863,0.006156,0.0004473,0.36393
6532,1.6634e+07,0.001868,0.00069963,0.0061386,0.00044983,0.35979
6570,1.6646e+07,0.0018555,0.00070224,0.0061266,0.00044672,0.35476
6611,1.6656e+07,0.0018402,0.00069779,0.0061299,0.00046892,0.35087
6651,1.6666e+07,0.0018183,0.00069664,0.0061421,0.00047569,0.34708
6693,1.6676e+07,0.0017868,0.00072294,0.0061561,0.00047249,0.3434
6733,1.6686e+07,0.0017516,0.00074705,0.0061785,0.00047322,0.33982
6778,1.6696e+07,0.0017168,0.00074135,0.0062053,0.00047194,0.33635
6820,1.6706e+07,0.0016836,0.00074681,0.0062189,0.00047434,0.33297
6861,1.6716e+07,0.0016502,0.00073366,0.0062311,0.00046567,0.32969
6902,1.6726e+07,0.0016178,0.00072912,0.0062384,0.00046011,0.32651
6944,1.6736e+07,0.0015862,0.00071938,0.006229,0.00048651,0.32342
6979,1.6746e+07,0.0015637,0.00075348,0.0062171,0.00048934,0.32042
7019,1.6756e+07,0.0015533,0.00077796,0.0061971,0.00049116,0.31751
7060,1.6766e+07,0.0015497,0.00077673,0.0061773,0.0004921,0.31468
7101,1.6776e+07,0.0015401,0.0007655,0.0061539,0.00048598,0.31194
7142,1.6786e+07,0.0015451,0.00076387,0.0061424,0.00048828,0.30929
7189,1.6797e+07,0.0015536,0.00075298,0.0061387,0.00049017,0.30671
7230,1.6806e+07,0.0015547,0.00073937,0.0061443,0.00049559,0.30422
7272,1.6816e+07,0.001549,0.0007296,0.006159,0.00050761,0.3018
7313,1.6826e+07,0.0015359,0.0007257,0.0061801,0.0005065,0.29946
7353,1.6837e+07,0.0015183,0.0007267,0.0061876,0.00051995,0.2972
7394,1.6846e+07,0.0014901,0.00075739,0.0061791,0.00054313,0.29501
7431,1.6857e+07,0.0014612,0.00075181,0.0061711,0.00054622,0.29288
7472,1.6867e+07,0.0014334,0.0007392,0.0061565,0.00054085,0.29083
7514,1.6877e+07,0.0014051,0.00073895,0.0061447,0.00053019,0.28884
7554,1.6887e+07,0.0013782,0.00073162,0.0061323,0.00052202,0.28692
7598,1.6897e+07,0.0013571,0.00075395,0.0061307,0.00052799,0.28506
7640,1.6907e+07,0.0013373,0.00074477,0.0061283,0.0005203,0.28327
7682,1.6917e+07,0.0013249,0.00074186,0.0061338,0.00052164,0.28153
7723,1.6927e+07,0.0013253,0.00074676,0.0061429,0.00051843,0.27985
7765,1.694e+07,0.0013556,0.0007713,0.0061733,0.00054084,0.27783
7806,1.695e+07,0.0013692,0.00076307,0.0061828,0.00053684,0.27628
7843,1.696e+07,0.0013763,0.00075078,0.006191,0.00052926,0.27478
7885,1.697e+07,0.0013773,0.00073815,0.006189,0.00053043,0.27333
7925,1.698e+07,0.0013822,0.00072401,0.0061873,0.00052347,0.27193
7966,1.699e+07,0.0013722,0.00073125,0.0061837,0.00051478,0.27057
8012,1.7e+07,0.0013514,0.00074771,0.0061804,0.00051385,0.26926
8056,1.7011e+07,0.0013332,0.00073298,0.0061719,0.00051372,0.268
8097,1.702e+07,0.0013134,0.00072098,0.0061654,0.00050373,0.26652
8137,1.7031e+07,0.0012884,0.00076483,0.0061585,0.00049535,0.26445
8175,1.704e+07,0.0012647,0.00077878,0.0061583,0.00057491,0.26178
8212,1.7051e+07,0.0012452,0.0008386,0.0061689,0.00089229,0.25862
8253,1.7061e+07,0.0012354,0.0010397,0.0061479,0.0010927,0.25511
8293,1.7071e+07,0.001221,0.0010923,0.0061547,0.0012055,0.25132
8335,1.7081e+07,0.0012098,0.0011309,0.0061584,0.0016105,0.24734
8377,1.7091e+07,0.0013107,0.0018807,0.0061452,0.001844,0.24322
8421,1.7101e+07,0.0014641,0.002685,0.0061626,0.002018,0.23902
8462,1.7111e+07,0.0015175,0.0031269,0.0061461,0.0025934,0.23476
8504,1.7121e+07,0.0015574,0.003417,0.0061769,0.0032081,0.23048
8545,1.7131e+07,0.0016906,0.0040498,0.0062285,0.0039165,0.22621
8585,1.7141e+07,0.0019232,0.0051072,0.0062865,0.0043512,0.22196
8625,1.7154e+07,0.00224,0.0063109,0.0062613,0.0044099,0.21669
8666,1.7164e+07,0.0023244,0.0066529,0.006266,0.0047538,0.21253
8706,1.7174e+07,0.0023647,0.0067092,0.0062715,0.0049369,0.20842
8747,1.7183e+07,0.0023546,0.0066832,0.0062507,0.0050265,0.20437
8788,1.7194e+07,0.002332,0.006557,0.0062671,0.0050785,0.20037
8832,1.7204e+07,0.0022953,0.0064381,0.0063083,0.0050685,0.19645
8873,1.7214e+07,0.0022511,0.0063304,0.0063419,0.0050758,0.19258
8913,1.7224e+07,0.0022087,0.0062121,0.0063646,0.0050002,0.18879
8955,1.7234e+07,0.002218,0.0061713,0.0063599,0.004924,0.18506
8992,1.7244e+07,0.0022269,0.0061081,0.0063741,0.0050028,0.1814
9030,1.7254e+07,0.0022347,0.0062063,0.0063757,0.0051251,0.1778
9071,1.7264e+07,0.002258,0.0063131,0.0063788,0.0051433,0.17428
9111,1.7274e+07,0.0023097,0.0065129,0.0063388,0.0051396,0.17082
9152,1.7284e+07,0.0023804,0.0065027,0.0062993,0.0050796,0.16743
9192,1.7294e+07,0.0023424,0.0064146,0.0062949,0.0050559,0.1641
9272,1.7334e+07,0.0023052,0.0063122,0.0062904,0.0048881,0.15143
9315,1.7344e+07,0.0022661,0.0062015,0.0062803,0.0048171,0.14842
9352,1.7354e+07,0.0022325,0.006127,0.0063748,0.0048364,0.14547
9390,1.7364e+07,0.0023185,0.0064452,0.0063273,0.0051776,0.14258
9431,1.7374e+07,0.0026181,0.0074927,0.0064223,0.0052274,0.13974
9471,1.7384e+07,0.0028134,0.0081689,0.0064351,0.0051408,0.13696
9513,1.7394e+07,0.0028153,0.0081949,0.0064587,0.0056533,0.13423
9557,1.7404e+07,0.0028688,0.0083665,0.0065427,0.005769,0.13156
9598,1.7414e+07,0.0031114,0.0091076,0.0064786,0.0064755,0.12895
9638,1.7424e+07,0.0032777,0.0094516,0.0066026,0.0066577,0.12638
9681,1.7434e+07,0.0034425,0.010323,0.0065572,0.0071344,0.12386
9722,1.7444e+07,0.0035831,0.010821,0.0066101,0.007188,0.1214
9759,1.7454e+07,0.0037176,0.011319,0.0066328,0.0076538,0.11898
9801,1.7466e+07,0.0038719,0.011816,0.0067396,0.0080905,0.11603
9842,1.7477e+07,0.0040501,0.012486,0.0068263,0.0093216,0.11372
9882,1.7487e+07,0.0043162,0.013347,0.0068753,0.0097324,0.11146
9923,1.7497e+07,0.0046608,0.014461,0.0070494,0.010828,0.10924
9969,1.7507e+07,0.0049124,0.015337,0.0070008,0.010894,0.10707
10011,1.7517e+07,0.0051619,0.016159,0.0072514,0.012059,0.10494
10051,1.7527e+07,0.0053801,0.0168,0.0071571,0.011921,0.10285
10092,1.7537e+07,0.0055032,0.017222,0.0076022,0.013739,0.1008
10131,1.7547e+07,0.0056527,0.017774,0.0074896,0.013728,0.098796
10170,1.7557e+07,0.0057725,0.018197,0.00791,0.015589,0.09683
10211,1.7567e+07,0.005883,0.018527,0.0078045,0.015434,0.094903
10251,1.7577e+07,0.0058901,0.018609,0.0082074,0.01735,0.093015
10293,1.7587e+07,0.0060966,0.019271,0.0080783,0.017115,0.091164
10333,1.7597e+07,0.0060795,0.019224,0.0084058,0.018508,0.08935
10379,1.7607e+07,0.006199,0.019546,0.0082908,0.018282,0.087572
10420,1.7617e+07,0.006149,0.019389,0.0085015,0.019034,0.08583
10460,1.7627e+07,0.0062928,0.019906,0.0084171,0.018934,0.084122
10502,1.7637e+07,0.0062457,0.019719,0.0085799,0.019263,0.082449
10539,1.765e+07,0.0062963,0.019891,0.0084885,0.019057,0.080403
10581,1.766e+07,0.0064308,0.020296,0.0087385,0.019948,0.078803
10623,1.767e+07,0.0064295,0.020312,0.0086324,0.019653,0.077235
10664,1.768e+07,0.0064887,0.020505,0.0088452,0.020464,0.075698
10705,1.769e+07,0.0065889,0.020847,0.0087339,0.020251,0.074192
10748,1.7701e+07,0.0069371,0.021932,0.0089928,0.021203,0.072716
10791,1.7711e+07,0.0070341,0.022228,0.0090287,0.021524,0.071269
10831,1.7721e+07,0.0072458,0.022898,0.0092062,0.022221,0.069851
10872,1.7731e+07,0.0074129,0.023547,0.0093116,0.02266,0.068461
10915,1.7741e+07,0.0077534,0.024572,0.0094922,0.023262,0.067099
10955,1.7754e+07,0.0079085,0.025184,0.0097868,0.023896,0.065435
10998,1.7764e+07,0.0081523,0.02594,0.0096168,0.023802,0.064133
11038,1.7774e+07,0.0084928,0.027096,0.010029,0.024425,0.062858
11079,1.7784e+07,0.0089587,0.028575,0.0098401,0.024503,0.061608
11119,1.7794e+07,0.0090671,0.028951,0.010136,0.02492,0.060382
11167,1.7804e+07,0.0093824,0.029993,0.0099474,0.024945,0.059181
11208,1.7814e+07,0.0096206,0.030691,0.010243,0.025577,0.058004
11248,1.7824e+07,0.009941,0.031786,0.010057,0.025571,0.05685
11290,1.7834e+07,0.010061,0.032172,0.010309,0.026098,0.055719
11330,1.7844e+07,0.010291,0.032934,0.010112,0.025914,0.054611
11368,1.7854e+07,0.010399,0.033044,0.010283,0.026061,0.053524
11409,1.7864e+07,0.010449,0.033371,0.010088,0.025818,0.05246
11453,1.7877e+07,0.010387,0.033213,0.01021,0.025847,0.051158
11494,1.7887e+07,0.010461,0.033423,0.010049,0.025449,0.050141
11536,1.7896e+07,0.010414,0.033298,0.01018,0.025406,0.049144
11581,1.7906e+07,0.010408,0.033291,0.010009,0.025089,0.048167
11622,1.7917e+07,0.010394,0.033245,0.01008,0.024996,0.047209
11662,1.7927e+07,0.010441,0.03339,0.0099208,0.024731,0.04627
11703,1.7937e+07,0.010423,0.033338,0.0099341,0.024523,0.04535
11745,1.7946e+07,0.0104,0.033264,0.0097773,0.024261,0.044448
11783,1.7957e+07,0.010407,0.0333,0.0098013,0.024077,0.043564
11824,1.7967e+07,0.010419,0.03333,0.0096864,0.023921,0.042698
11867,1.7977e+07,0.010372,0.033158,0.0097737,0.0239,0.041849
11908,1.7988e+07,0.01027,0.032839,0.0096626,0.023649,0.041016
11950,1.7997e+07,0.010187,0.032576,0.009764,0.023637,0.040201
11995,1.8007e+07,0.01013,0.032315,0.0096973,0.023558,0.039401
12035,1.8017e+07,0.010116,0.032218,0.0098723,0.023858,0.038617
12077,1.8028e+07,0.010018,0.031915,0.0098004,0.023831,0.037849
12121,1.8043e+07,0.0099948,0.031823,0.0098293,0.024061,0.036726
12162,1.8053e+07,0.0099548,0.031529,0.010101,0.024408,0.035996
12202,1.8063e+07,0.0099462,0.031663,0.0099509,0.024642,0.03528
12245,1.8073e+07,0.0098846,0.031467,0.010334,0.02546,0.034579
12285,1.8083e+07,0.0099704,0.031732,0.010164,0.025511,0.033892
12327,1.8093e+07,0.0098924,0.031408,0.010605,0.026467,0.033218
12370,1.8103e+07,0.009945,0.031663,0.010432,0.02654,0.032558
12412,1.8113e+07,0.0098801,0.031434,0.010962,0.027709,0.031911
12458,1.8126e+07,0.010084,0.032074,0.010754,0.027644,0.03112
12498,1.8135e+07,0.010022,0.031877,0.011131,0.028498,0.030501
12543,1.8148e+07,0.0098755,0.031411,0.011224,0.028903,0.029745
12580,1.8159e+07,0.0098597,0.031342,0.011225,0.029088,0.029154
12621,1.8169e+07,0.0098431,0.031243,0.011397,0.029302,0.028574
12662,1.8179e+07,0.0098657,0.031365,0.011243,0.029215,0.028006
12704,1.8189e+07,0.0098268,0.031218,0.011415,0.029524,0.027449
12745,1.8199e+07,0.0098512,0.031331,0.011262,0.029423,0.026904
12789,1.8209e+07,0.0098171,0.031054,0.011489,0.029737,0.026369
12830,1.8219e+07,0.0098272,0.031197,0.011298,0.029524,0.025845
12870,1.8229e+07,0.009754,0.030974,0.011531,0.029777,0.025332
12912,1.8239e+07,0.0097778,0.031058,0.011333,0.029557,0.024829
12950,1.8249e+07,0.0096573,0.030625,0.011593,0.029706,0.024335
12987,1.826e+07,0.0096176,0.030551,0.011372,0.029603,0.023853
13028,1.8269e+07,0.0095017,0.030174,0.011572,0.029692,0.023379
13069,1.828e+07,0.0095124,0.030192,0.011351,0.029548,0.022915
13111,1.8289e+07,0.0093624,0.029674,0.011492,0.029542,0.022459
13151,1.83e+07,0.0093028,0.02953,0.011275,0.029361,0.022013
13196,1.831e+07,0.0091379,0.029006,0.011374,0.029331,0.021576
13236,1.8319e+07,0.0090723,0.028787,0.011152,0.029049,0.021148
13279,1.8329e+07,0.0089171,0.028229,0.011255,0.028964,0.020727
13320,1.834e+07,0.0087794,0.027828,0.011035,0.028632,0.020316
13358,1.8353e+07,0.0085808,0.027206,0.011081,0.028476,0.019814
13398,1.8362e+07,0.0084611,0.026755,0.010905,0.028022,0.019421
13439,1.8373e+07,0.0083285,0.026334,0.011039,0.028134,0.019036
13481,1.8383e+07,0.008168,0.025826,0.010866,0.027734,0.018659
13521,1.8393e+07,0.0080462,0.025435,0.011035,0.028119,0.018289
13563,1.8403e+07,0.007934,0.025041,0.010986,0.028021,0.017926
13607,1.8413e+07,0.0078177,0.024683,0.01104,0.028225,0.017571
13647,1.8423e+07,0.0076721,0.024204,0.011015,0.028165,0.017223
13688,1.8433e+07,0.0075666,0.023794,0.011041,0.028314,0.016881
13729,1.8443e+07,0.0074394,0.023444,0.011109,0.028417,0.016546
13767,1.8453e+07,0.0073376,0.023073,0.011082,0.028415,0.016218
13807,1.8463e+07,0.007194,0.022637,0.011167,0.028472,0.015896
13845,1.8473e+07,0.0070674,0.022207,0.010988,0.028158,0.015581
13886,1.8483e+07,0.0069854,0.021917,0.011253,0.028446,0.015271
13928,1.8493e+07,0.0068555,0.021541,0.01105,0.028301,0.014969
13970,1.8504e+07,0.0067441,0.021151,0.011184,0.028231,0.014672
14015,1.8514e+07,0.0066434,0.020824,0.010978,0.027987,0.014382
14056,1.8523e+07,0.0066474,0.020512,0.011066,0.027838,0.014096
14099,1.8533e+07,0.0065222,0.020205,0.010856,0.027621,0.013818
14139,1.8544e+07,0.0064205,0.019841,0.010876,0.027373,0.013544
14180,1.8556e+07,0.0062967,0.019449,0.010619,0.02694,0.01321
14221,1.8567e+07,0.006234,0.019245,0.010707,0.026919,0.012948
14262,1.8577e+07,0.0061527,0.018995,0.010528,0.026663,0.012693
14302,1.8586e+07,0.0060973,0.01878,0.01065,0.026753,0.012442
14344,1.8597e+07,0.006037,0.018605,0.010481,0.026453,0.012196
14388,1.8607e+07,0.00598,0.018396,0.010688,0.026766,0.011954
14431,1.8617e+07,0.0059743,0.018276,0.010555,0.026596,0.011718
14472,1.8627e+07,0.0059233,0.01802,0.010708,0.026813,0.011487
14512,1.8637e+07,0.0058556,0.017867,0.010593,0.026671,0.011259
14554,1.8647e+07,0.0057507,0.017552,0.010682,0.026792,0.011037
14591,1.8657e+07,0.0056665,0.017289,0.010616,0.02684,0.010819
14633,1.8668e+07,0.0055601,0.016972,0.010633,0.026872,0.010606
14674,1.8678e+07,0.0056342,0.016903,0.010651,0.026887,0.010397
14714,1.8688e+07,0.0055363,0.016698,0.010564,0.026689,0.010193
14755,1.8698e+07,0.0054701,0.016382,0.010549,0.026585,0.009992
14799,1.8708e+07,0.0053658,0.016116,0.010474,0.026361,0.0097958
14841,1.8718e+07,0.0053977,0.015983,0.010474,0.026189,0.0096028
14882,1.8729e+07,0.0053239,0.015947,0.010357,0.025957,0.0094151
14925,1.8739e+07,0.0052505,0.015739,0.010362,0.025693,0.0092298
14967,1.8748e+07,0.0052071,0.015563,0.010272,0.025565,0.0090488
15001,1.8758e+07,0.0051776,0.015543,0.010285,0.02528,0.0088703
15041,1.8768e+07,0.0051674,0.015439,0.010136,0.025091,0.0086967
15081,1.8779e+07,0.0051271,0.015338,0.010125,0.024789,0.008525
15121,1.8789e+07,0.0050755,0.015154,0.0099752,0.024616,0.0083579
15163,1.8799e+07,0.0051617,0.015532,0.0099901,0.024352,0.0081927
15208,1.8809e+07,0.0051064,0.015364,0.009826,0.024172,0.0080332
15251,1.8819e+07,0.0051058,0.01542,0.0098705,0.023937,0.0078749
15292,1.8829e+07,0.0050405,0.015225,0.0097158,0.02375,0.007722
15334,1.8839e+07,0.005258,0.015699,0.0098024,0.023527,0.0075701
15374,1.8849e+07,0.0051926,0.015475,0.00965,0.023444,0.0074248
15409,1.8859e+07,0.0052681,0.01569,0.0097277,0.02319,0.0072797
15450,1.8869e+07,0.0052444,0.015561,0.0095593,0.023003,0.0071401
15490,1.8879e+07,0.0053438,0.015842,0.0095875,0.022665,0.0070003
15531,1.8889e+07,0.005265,0.015628,0.0094265,0.02253,0.0068663
15573,1.89e+07,0.0052119,0.015476,0.0094128,0.02217,0.0067318
15616,1.891e+07,0.0051472,0.015301,0.009269,0.021941,0.0066015
15658,1.892e+07,0.0051402,0.015233,0.0092252,0.021572,0.0064723
15698,1.893e+07,0.0050677,0.014954,0.0091112,0.021359,0.0063481
15742,1.894e+07,0.005057,0.014747,0.0090981,0.021008,0.0062245
15783,1.8953e+07,0.0049616,0.01453,0.0090393,0.02085,0.0060739
15824,1.8963e+07,0.0048939,0.014302,0.0089483,0.020704,0.0059583
15861,1.8973e+07,0.0048453,0.014206,0.0089729,0.020482,0.0058429
15902,1.8983e+07,0.0048169,0.014146,0.0089122,0.020451,0.0057329
15945,1.8993e+07,0.0048798,0.01415,0.0090021,0.020301,0.0056218
15985,1.9003e+07,0.0048479,0.014056,0.008942,0.020556,0.0055186
16031,1.9013e+07,0.0048766,0.013997,0.0090867,0.020537,0.0054117
16071,1.9023e+07,0.0048789,0.013916,0.0089783,0.020684,0.005312
16112,1.9033e+07,0.004967,0.013963,0.0091301,0.020669,0.0052085
16155,1.9043e+07,0.0049295,0.013922,0.0090537,0.021009,0.0051139
16192,1.9056e+07,0.004899,0.0139,0.0091657,0.020973,0.0049911
16233,1.9066e+07,0.0048393,0.013734,0.0091213,0.021089,0.0048964
16273,1.9076e+07,0.0048506,0.013788,0.0091505,0.020949,0.0048022
16314,1.9086e+07,0.0047562,0.013553,0.0091121,0.020975,0.0047108
16356,1.9096e+07,0.0048493,0.013582,0.0091026,0.0208,0.0046209
16397,1.9106e+07,0.0047762,0.013543,0.009052,0.020609,0.0045319
16442,1.9116e+07,0.0047714,0.013452,0.0090091,0.020436,0.0044465
16482,1.9126e+07,0.0047038,0.013334,0.0089304,0.020203,0.0043618
16524,1.9136e+07,0.0046784,0.013268,0.0089023,0.020056,0.0042816
16567,1.9146e+07,0.0047261,0.013368,0.0088218,0.019771,0.0042002
16608,1.9161e+07,0.0046993,0.013273,0.008722,0.019496,0.0040864
16648,1.9172e+07,0.0046891,0.013282,0.0087978,0.01931,0.00401
16690,1.9182e+07,0.0048173,0.013376,0.008639,0.019108,0.0039384
16731,1.9192e+07,0.0047957,0.01343,0.0087602,0.019073,0.0038651
16771,1.9202e+07,0.0049079,0.013755,0.0086068,0.018864,0.0037957
16815,1.9213e+07,0.0049095,0.013997,0.0086845,0.018748,0.0037249
16856,1.9223e+07,0.0050794,0.014486,0.0085395,0.018454,0.0036557
16898,1.9233e+07,0.0051323,0.014917,0.0085878,0.01838,0.0035863
16939,1.9243e+07,0.0051994,0.015225,0.0084478,0.018094,0.0035193
16979,1.9253e+07,0.0052327,0.015346,0.0084654,0.018024,0.0034527
17017,1.9266e+07,0.0052829,0.015518,0.0083814,0.017758,0.0033702
17062,1.9278e+07,0.005184,0.015221,0.0083331,0.017748,0.0032931
17103,1.9289e+07,0.0051706,0.015151,0.0084525,0.017685,0.0032293
17144,1.9298e+07,0.0051336,0.015092,0.0083326,0.017664,0.0031733
17184,1.9308e+07,0.0050551,0.014868,0.0084504,0.017638,0.0031128
17232,1.9321e+07,0.0050073,0.014693,0.0082958,0.017583,0.0030492
17276,1.9331e+07,0.0049091,0.014437,0.0084263,0.017685,0.0029971
17316,1.9341e+07,0.0049981,0.01443,0.0082961,0.017511,0.0029476
17357,1.9354e+07,0.0049216,0.014156,0.00831,0.017481,0.0028874
17394,1.9364e+07,0.0049564,0.014095,0.0082131,0.017221,0.002837
17435,1.9374e+07,0.0048879,0.0139,0.008245,0.017233,0.0027919
17478,1.9384e+07,0.0048478,0.013765,0.0081589,0.017104,0.0027403
17518,1.9394e+07,0.0047866,0.013597,0.0081479,0.017123,0.0026948
17560,1.9404e+07,0.0047392,0.013506,0.0081062,0.017018,0.0026437
17603,1.9414e+07,0.0046669,0.013308,0.0080932,0.016995,0.0025981
17645,1.9424e+07,0.0046148,0.01312,0.008075,0.016946,0.0025483
17685,1.9434e+07,0.0045629,0.012968,0.008029,0.016919,0.0025071
17726,1.9444e+07,0.0045401,0.012782,0.0080423,0.016876,0.0024617
17767,1.9456e+07,0.0044817,0.012623,0.0079703,0.016726,0.0024153
17808,1.9467e+07,0.0044365,0.012395,0.0080265,0.016708,0.0023757
17849,1.9477e+07,0.0043908,0.012391,0.0079062,0.016565,0.0023452
17891,1.9487e+07,0.0043277,0.012208,0.0079489,0.016468,0.0023114
17933,1.9497e+07,0.0043641,0.012363,0.0078386,0.01627,0.0022825
17974,1.9507e+07,0.0043,0.012179,0.0078434,0.016113,0.0022506
18019,1.9517e+07,0.0044408,0.012423,0.0077311,0.015875,0.0022215
18062,1.9527e+07,0.0043949,0.01234,0.0077607,0.015732,0.0021893
18102,1.9536e+07,0.0045421,0.01271,0.0076837,0.015524,0.0021552
18143,1.9547e+07,0.0044988,0.012613,0.0076633,0.015285,0.0021198
18183,1.956e+07,0.0046162,0.013019,0.007565,0.015024,0.0020744
18225,1.957e+07,0.0046,0.013037,0.0076058,0.014805,0.0020407
18266,1.958e+07,0.0046175,0.013143,0.0074859,0.014682,0.0020032
18303,1.959e+07,0.0045852,0.013096,0.0075641,0.014537,0.0019707
18345,1.96e+07,0.004618,0.013167,0.0074518,0.014498,0.001937
18386,1.961e+07,0.0045638,0.013037,0.0075907,0.014435,0.001908
18432,1.962e+07,0.0045571,0.012952,0.0074814,0.014514,0.0018779
18473,1.963e+07,0.0044764,0.012782,0.0075625,0.014362,0.0018541
18513,1.964e+07,0.004435,0.01263,0.0075033,0.014473,0.0018311
18554,1.965e+07,0.0043723,0.012505,0.007589,0.014271,0.0018115
18594,1.966e+07,0.004289,0.012264,0.0075151,0.014401,0.0017889
18630,1.967e+07,0.0042888,0.012145,0.0075306,0.014191,0.0017686
18672,1.968e+07,0.0042128,0.011954,0.0074555,0.014165,0.0017466
18712,1.969e+07,0.0042137,0.011824,0.0075055,0.014064,0.001724
18753,1.97e+07,0.0041381,0.011645,0.0074225,0.014078,0.0016981
18796,1.971e+07,0.004168,0.01161,0.0074551,0.014005,0.0016718
18840,1.972e+07,0.0041063,0.011507,0.0074083,0.014015,0.0016451
18882,1.973e+07,0.004073,0.011443,0.0074714,0.014018,0.0016173
18923,1.974e+07,0.0040207,0.011301,0.0074189,0.014065,0.0015892
18963,1.975e+07,0.0040283,0.011403,0.0074482,0.01405,0.0015624
19005,1.976e+07,0.004034,0.011356,0.0074388,0.014091,0.0015383
19043,1.977e+07,0.0040428,0.011412,0.0074726,0.014124,0.0015156
19083,1.9781e+07,0.0039944,0.011275,0.0075112,0.014143,0.0014947
19124,1.9791e+07,0.0039811,0.011278,0.0074572,0.014109,0.0014772
19164,1.98e+07,0.0039479,0.011191,0.0075573,0.0142,0.0014616
19207,1.9811e+07,0.0039144,0.011131,0.0074963,0.014193,0.0014477
19253,1.9821e+07,0.0038958,0.011097,0.0075295,0.014153,0.0014332
19294,1.983e+07,0.0038685,0.010932,0.0074683,0.014209,0.0014223
19335,1.9841e+07,0.0039273,0.011142,0.0075698,0.014276,0.0014107
19375,1.985e+07,0.0039215,0.011136,0.0075019,0.014404,0.0013969
19417,1.9863e+07,0.0040577,0.011424,0.0075735,0.014322,0.0013774
19457,1.9873e+07,0.0041394,0.01179,0.0074569,0.014474,0.0013626
19498,1.9883e+07,0.0042523,0.012156,0.0076551,0.014655,0.0013472
19539,1.9893e+07,0.0043073,0.012444,0.007533,0.01478,0.0013296
19580,1.9903e+07,0.004447,0.012951,0.0076671,0.014751,0.0013113
19628,1.9915e+07,0.004601,0.013481,0.007574,0.014892,0.0012911
19669,1.9926e+07,0.0047894,0.014136,0.0077151,0.014856,0.0012756
19712,1.9936e+07,0.004805,0.014278,0.0076151,0.015087,0.0012597
19753,1.9945e+07,0.0049212,0.014741,0.0077475,0.01511,0.0012467
19791,1.9955e+07,0.0050688,0.015169,0.0076925,0.015545,0.0012364
19829,1.9965e+07,0.0053397,0.016032,0.0078322,0.015664,0.0012256
19870,1.9976e+07,0.0053442,0.016265,0.0078005,0.016107,0.0012154
19913,1.9985e+07,0.0054655,0.016707,0.0078673,0.016078,0.0012069
19953,1.9996e+07,0.0054539,0.016718,0.0078479,0.016404,0.0012012
19995,2.0005e+07,0.0054997,0.016875,0.0079197,0.016455,0.0011935
20039,2.0015e+07,0.00553,0.016904,0.0078859,0.016581,0.001185
20081,2.0026e+07,0.0055119,0.016858,0.0079422,0.016587,0.0011774
20122,2.0035e+07,0.0054934,0.016725,0.0078839,0.016495,0.0011687
20162,2.0046e+07,0.0054736,0.01678,0.0079867,0.016717,0.0011594
20203,2.0055e+07,0.0055564,0.016897,0.0079039,0.016527,0.0011463
20238,2.0065e+07,0.0055435,0.01699,0.0079821,0.016722,0.0011374
20279,2.0075e+07,0.0055425,0.017014,0.0079142,0.016475,0.001125
20320,2.0085e+07,0.0056625,0.017479,0.0079763,0.016683,0.0011152
20360,2.0096e+07,0.0058034,0.017869,0.0079088,0.016464,0.001101
20402,2.0105e+07,0.0058685,0.018208,0.0079281,0.016668,0.0010958
20447,2.0115e+07,0.0058944,0.018321,0.007891,0.016408,0.0010849
20488,2.0126e+07,0.0061444,0.019112,0.0078658,0.016476,0.0010816
20530,2.0135e+07,0.0062593,0.019356,0.0078681,0.01628,0.0010709
20570,2.0145e+07,0.0063317,0.019684,0.0078229,0.016329,0.0010764
20614,2.0158e+07,0.006395,0.019965,0.0078855,0.016138,0.0010712
20651,2.0168e+07,0.00637,0.019924,0.0077872,0.016006,0.0010768
20691,2.0178e+07,0.0064267,0.020004,0.0078215,0.015766,0.0010729
20731,2.0188e+07,0.0064357,0.019921,0.0077169,0.015672,0.0010822
20772,2.0198e+07,0.0064619,0.020001,0.0077153,0.01541,0.0010777
20813,2.0208e+07,0.006391,0.019798,0.0076122,0.015316,0.0010788
20857,2.0218e+07,0.006379,0.019734,0.0075957,0.015077,0.0010703
20899,2.0228e+07,0.0063396,0.019602,0.0075141,0.014986,0.0010711
20940,2.0238e+07,0.0063238,0.019476,0.0074926,0.014728,0.0010626
20981,2.0248e+07,0.006227,0.019249,0.0074128,0.014615,0.0010579
21022,2.026e+07,0.0062176,0.019256,0.0073681,0.014395,0.0010497
21060,2.0271e+07,0.0061102,0.018932,0.0073071,0.0142,0.0010472
21101,2.028e+07,0.0061327,0.018973,0.0072978,0.014162,0.0010443
21141,2.029e+07,0.0061392,0.018936,0.007238,0.013982,0.0010406
21183,2.0301e+07,0.0061298,0.018959,0.0072273,0.013998,0.0010456
21223,2.031e+07,0.0060199,0.018639,0.0072069,0.013872,0.0010468
21270,2.0321e+07,0.0060517,0.018763,0.0071979,0.01396,0.0010523
21311,2.033e+07,0.0060422,0.018583,0.0072148,0.013863,0.0010471
21353,2.034e+07,0.006016,0.018487,0.0071462,0.013793,0.0010528
21396,2.0351e+07,0.0059168,0.018203,0.0072317,0.013855,0.0010478
21433,2.036e+07,0.0059324,0.018274,0.0071387,0.013672,0.0010494
21470,2.037e+07,0.0058671,0.017955,0.0071974,0.013639,0.0010378
21511,2.0381e+07,0.0058476,0.017837,0.0071009,0.013435,0.0010394
21551,2.039e+07,0.0057585,0.017656,0.0072109,0.013694,0.0010282
21592,2.0401e+07,0.005811,0.017823,0.0071186,0.013493,0.0010238
21633,2.0411e+07,0.0057101,0.017517,0.0071402,0.013574,0.0010108
21678,2.0421e+07,0.0056558,0.017352,0.0071267,0.013465,0.0010093
21719,2.0431e+07,0.0057057,0.0173,0.0071023,0.013422,0.00099917
21759,2.0441e+07,0.0056623,0.017253,0.0071536,0.013468,0.00099735
21802,2.0451e+07,0.0055837,0.016982,0.0070942,0.013453,0.00098997
21839,2.0463e+07,0.0055414,0.016895,0.0072054,0.013419,0.00099573
21879,2.0474e+07,0.0055697,0.0168,0.0070827,0.013367,0.0010017
21922,2.0484e+07,0.005554,0.016901,0.0072283,0.013469,0.0010032
21962,2.0494e+07,0.00545,0.016589,0.0071064,0.013359,0.0010153
22004,2.0504e+07,0.0055659,0.016842,0.0072873,0.013441,0.0010194
22044,2.0514e+07,0.0054964,0.016661,0.0071884,0.013659,0.0010305
22090,2.0524e+07,0.0056371,0.017071,0.0073626,0.013683,0.0010231
22132,2.0534e+07,0.005564,0.016826,0.0073356,0.014344,0.0010271
22173,2.0544e+07,0.0058161,0.017577,0.0075271,0.014436,0.0010151
22214,2.0554e+07,0.0058112,0.017568,0.0075534,0.015291,0.0010137
22256,2.0566e+07,0.0060146,0.018314,0.0076125,0.015467,0.00099572
22294,2.0576e+07,0.0061644,0.018676,0.0077682,0.015991,0.00098869
22334,2.0587e+07,0.0062133,0.019001,0.0076835,0.015989,0.00097934
22375,2.0596e+07,0.0063884,0.019553,0.007787,0.016147,0.00097309
22415,2.0606e+07,0.00645,0.019834,0.0076759,0.016054,0.00096916
22461,2.0617e+07,0.006561,0.020103,0.0077839,0.016112,0.00097182
22503,2.0627e+07,0.0066446,0.020526,0.007689,0.01604,0.00098151
22543,2.0636e+07,0.0067883,0.020952,0.0077493,0.016,0.00098806
22584,2.0646e+07,0.0069029,0.021377,0.0076882,0.015951,0.0010008
22626,2.0657e+07,0.0070452,0.021666,0.0077375,0.01589,0.0010119
22667,2.0667e+07,0.0071093,0.022144,0.0077503,0.01621,0.001025
22704,2.0676e+07,0.0072855,0.022505,0.0078475,0.016363,0.0010255
22742,2.0686e+07,0.0073655,0.02291,0.0078351,0.016675,0.0010251
22784,2.0696e+07,0.007418,0.022936,0.0079054,0.016781,0.0010182
22824,2.0707e+07,0.0074277,0.023186,0.00791,0.017219,0.0010152
22869,2.0717e+07,0.0074546,0.023212,0.0080381,0.017587,0.0010019
22910,2.0727e+07,0.0074521,0.023257,0.0079516,0.017587,0.00099399
22954,2.0737e+07,0.0074601,0.023246,0.0080983,0.017864,0.00097928
22994,2.0747e+07,0.007402,0.023062,0.0079914,0.017772,0.00097561
23036,2.076e+07,0.0073871,0.023069,0.0081328,0.017975,0.00095939
23077,2.077e+07,0.0072952,0.022771,0.0082081,0.018155,0.00095706
23114,2.078e+07,0.0072503,0.022643,0.0081681,0.018018,0.00095026
23155,2.079e+07,0.0072181,0.022534,0.0082222,0.018032,0.00095253
23195,2.08e+07,0.0071775,0.02241,0.0081709,0.017913,0.00094719
23237,2.081e+07,0.0070629,0.022059,0.008156,0.017796,0.00095008
23283,2.082e+07,0.0069987,0.02182,0.0080887,0.017556,0.00094625
23324,2.083e+07,0.0069563,0.021645,0.0080731,0.017624,0.00094752
23365,2.084e+07,0.0068777,0.021413,0.0080111,0.017424,0.00093835
23405,2.085e+07,0.0067715,0.021071,0.0080201,0.01744,0.0009396
23448,2.086e+07,0.0067007,0.020868,0.007964,0.017202,0.00093133
23488,2.0872e+07,0.0066922,0.020775,0.0080018,0.017453,0.00092963
23529,2.0882e+07,0.0066548,0.020665,0.0079541,0.017508,0.00092584
23570,2.0892e+07,0.0066313,0.020354,0.0080691,0.017675,0.0009244
23613,2.0903e+07,0.00654,0.020258,0.0080001,0.017736,0.00092638
23654,2.0913e+07,0.006497,0.02001,0.0081653,0.018058,0.00092324
23698,2.0922e+07,0.0063894,0.01973,0.0080655,0.018034,0.00092865
23739,2.0932e+07,0.0063511,0.019554,0.0083018,0.018692,0.00092757
23781,2.0942e+07,0.0062844,0.01931,0.0081595,0.018436,0.00093852
23823,2.0953e+07,0.0062081,0.019136,0.0082734,0.018828,0.0009353
23864,2.0962e+07,0.0060909,0.018776,0.0081722,0.018591,0.00094295
23905,2.0972e+07,0.0060413,0.018617,0.0082731,0.018992,0.00093997
23948,2.0985e+07,0.0059701,0.018316,0.0082514,0.018798,0.00094444
23988,2.0995e+07,0.0058669,0.017983,0.0082335,0.018845,0.00093711
24029,2.1005e+07,0.0058052,0.017785,0.0082722,0.018771,0.00094185
24071,2.1015e+07,0.0057179,0.017534,0.0082626,0.018889,0.00093642
24115,2.1025e+07,0.0056658,0.017372,0.0083094,0.018752,0.0009415
24156,2.1035e+07,0.0055575,0.01704,0.0082974,0.018862,0.00093275
24197,2.1045e+07,0.0055772,0.016967,0.008375,0.018715,0.00093587
24238,2.1055e+07,0.0054887,0.016804,0.0083515,0.018937,0.00092773
24275,2.1064e+07,0.0054695,0.016741,0.0083517,0.018683,0.00092841
24320,2.108e+07,0.0054642,0.016598,0.0082919,0.018742,0.00091896
24361,2.109e+07,0.0054878,0.016683,0.008262,0.018813,0.00091093
24402,2.11e+07,0.0055583,0.016994,0.0082957,0.018887,0.00090654
24444,2.111e+07,0.0055383,0.016951,0.0082224,0.018748,0.00089535
24489,2.112e+07,0.0056197,0.017237,0.0083444,0.018809,0.00089177
24529,2.113e+07,0.0055897,0.0172,0.0082895,0.018703,0.00087996
24573,2.1141e+07,0.0057045,0.017561,0.0084011,0.018663,0.00087636
24613,2.115e+07,0.0056695,0.01747,0.008312,0.018521,0.00086306
24654,2.1161e+07,0.0056967,0.017482,0.0084285,0.018515,0.00086133
24691,2.1171e+07,0.0056521,0.017458,0.0083255,0.018441,0.00085042
24732,2.118e+07,0.0056932,0.017597,0.0083994,0.018447,0.00085079
24774,2.1191e+07,0.0057055,0.017662,0.0083199,0.018423,0.00083868
24814,2.1201e+07,0.0057509,0.017776,0.0084105,0.018541,0.00083804
24856,2.1211e+07,0.0057411,0.017825,0.0084125,0.018844,0.00082687
24900,2.1221e+07,0.0057879,0.018002,0.0083967,0.018833,0.00082948
24941,2.1231e+07,0.0057987,0.018041,0.0084497,0.019004,0.0008172
24981,2.1241e+07,0.005879,0.018221,0.008406,0.018869,0.00082087
25023,2.1251e+07,0.0058292,0.018129,0.0084881,0.01895,0.00080973
25064,2.1261e+07,0.005754,0.017902,0.0084005,0.018783,0.00081272
25104,2.1273e+07,0.0056582,0.017605,0.0084443,0.018798,0.00080282
25146,2.1284e+07,0.0056174,0.017477,0.0083265,0.018596,0.00080116
25187,2.1294e+07,0.0055601,0.017243,0.0083916,0.018701,0.00079668
25228,2.1304e+07,0.0054757,0.016996,0.008292,0.01849,0.00079066
25269,2.1314e+07,0.0054535,0.016948,0.0082896,0.018421,0.00078694
25313,2.1324e+07,0.0054477,0.01695,0.0081913,0.018239,0.00078239
25355,2.1334e+07,0.0054411,0.016917,0.0082142,0.018304,0.00078118
25397,2.1344e+07,0.0054171,0.01686,0.0081177,0.018016,0.00077286
25438,2.1354e+07,0.0054315,0.016906,0.0081224,0.01797,0.00077078
25481,2.1366e+07,0.0053729,0.016736,0.008049,0.017689,0.00076404
25519,2.1377e+07,0.0053491,0.016686,0.0080195,0.017485,0.00077019
25560,2.1387e+07,0.0053344,0.016608,0.0079881,0.017294,0.00076607
25602,2.1397e+07,0.0053524,0.016544,0.0079668,0.017084,0.00077908
25643,2.1407e+07,0.0052673,0.016333,0.0078831,0.016844,0.00077908
25683,2.1417e+07,0.0051806,0.016057,0.0078662,0.016611,0.00078839
25728,2.1427e+07,0.0050989,0.015789,0.0077437,0.016379,0.00078829
25770,2.1437e+07,0.0050752,0.015617,0.007759,0.01619,0.00079289
25810,2.1446e+07,0.0050097,0.015455,0.0076136,0.016032,0.00079542
25854,2.1459e+07,0.0048879,0.015088,0.007641,0.015993,0.00079297
25894,2.147e+07,0.0047975,0.014809,0.0075311,0.015903,0.00079422
25934,2.148e+07,0.0048439,0.014917,0.0076284,0.016151,0.0007889
25976,2.149e+07,0.0048223,0.014826,0.0076468,0.01625,0.00078917
26017,2.15e+07,0.004764,0.014558,0.0076746,0.016257,0.00078383
26058,2.151e+07,0.0047077,0.014429,0.0078015,0.016491,0.00078275
26102,2.152e+07,0.0047355,0.014465,0.0077905,0.016552,0.00078284
26146,2.153e+07,0.0047036,0.014407,0.0079737,0.016818,0.00078362
26186,2.154e+07,0.0047137,0.014468,0.007882,0.016732,0.00078794
26227,2.155e+07,0.0047353,0.014396,0.0080074,0.016804,0.00078944
26268,2.156e+07,0.0047197,0.01444,0.0078928,0.016734,0.00079914
26308,2.157e+07,0.0046897,0.014263,0.0080252,0.016995,0.0007994
26347,2.1583e+07,0.004755,0.014486,0.0078478,0.0169,0.00081452
26388,2.1593e+07,0.0047962,0.014287,0.0079434,0.017046,0.00080964
26428,2.1603e+07,0.0048308,0.014609,0.0078292,0.017013,0.00082338
26472,2.1613e+07,0.0048512,0.014683,0.0079401,0.01706,0.00081174
26517,2.1623e+07,0.0048937,0.014803,0.0079048,0.017277,0.00081933
26559,2.1633e+07,0.0050117,0.015198,0.0080023,0.017199,0.00080507
26599,2.1643e+07,0.0049778,0.015101,0.008006,0.017482,0.00080955
26640,2.1653e+07,0.0050085,0.015057,0.0079281,0.017313,0.00079638
26680,2.1663e+07,0.0049433,0.014976,0.0080268,0.017302,0.0008003
26718,2.1673e+07,0.0049125,0.014819,0.0079139,0.017398,0.00078939
26756,2.1684e+07,0.0048536,0.014588,0.0080768,0.017779,0.00078175
26797,2.1694e+07,0.004815,0.01448,0.0080055,0.017728,0.00077149
26838,2.1704e+07,0.0049347,0.014797,0.0079418,0.017625,0.00076775
26880,2.1714e+07,0.0052322,0.01583,0.0078328,0.01729,0.00075945
26930,2.1726e+07,0.0056063,0.017172,0.0077133,0.016923,0.00075583
26970,2.1736e+07,0.0062408,0.01919,0.007713,0.016803,0.0007501
27011,2.1746e+07,0.0074266,0.023113,0.0076036,0.016491,0.00075276
27053,2.1756e+07,0.0084142,0.026245,0.0076478,0.016262,0.0007503
27093,2.1766e+07,0.0098307,0.030489,0.0075479,0.016051,0.00075783
27135,2.1776e+07,0.011762,0.037273,0.0074874,0.015776,0.00075494
27173,2.1786e+07,0.012894,0.040867,0.0075076,0.015755,0.00076221
27214,2.1796e+07,0.014408,0.045526,0.0074125,0.0155,0.00076359
27255,2.1806e+07,0.015488,0.049324,0.0073793,0.015225,0.00077327
27296,2.1816e+07,0.016238,0.051622,0.0072429,0.01503,0.00077264
27344,2.1826e+07,0.016559,0.052733,0.0072402,0.014966,0.00077388
27384,2.1836e+07,0.016654,0.053049,0.0071246,0.014766,0.00077323
27426,2.1846e+07,0.016471,0.052323,0.0071526,0.014707,0.00076878
27466,2.1856e+07,0.016175,0.051444,0.0070446,0.014499,0.00077159
27507,2.1866e+07,0.015878,0.050509,0.0070922,0.014482,0.00076616
27548,2.1876e+07,0.015627,0.049713,0.0070435,0.014327,0.00077833
27585,2.1886e+07,0.015586,0.049513,0.0070601,0.014468,0.00077714
27627,2.1896e+07,0.015694,0.049905,0.0070684,0.014479,0.00079534
27668,2.1907e+07,0.015776,0.050157,0.0070502,0.014652,0.00079691
27708,2.1916e+07,0.016094,0.050943,0.0071615,0.014907,0.00080807
27756,2.1927e+07,0.016468,0.052298,0.0070937,0.014695,0.00080987
27796,2.1937e+07,0.016364,0.052118,0.0071703,0.014603,0.00080824
27837,2.1946e+07,0.016351,0.051979,0.0070859,0.014477,0.00081225
27878,2.1957e+07,0.016438,0.052246,0.007084,0.014541,0.00080477
27916,2.1969e+07,0.016171,0.05139,0.0070783,0.014672,0.00080466
27958,2.198e+07,0.015967,0.050765,0.0071034,0.014977,0.00079659
27999,2.199e+07,0.015685,0.049908,0.0071228,0.015469,0.00079887
28040,2.2e+07,0.01545,0.049124,0.0071788,0.015859,0.00078705
28081,2.201e+07,0.01521,0.048394,0.0077884,0.018526,0.00078955
28122,2.2019e+07,0.015077,0.047913,0.0080379,0.019526,0.00077634
28167,2.203e+07,0.015235,0.048297,0.0084009,0.020707,0.00078047
28208,2.204e+07,0.015175,0.048043,0.0085542,0.021229,0.00076874
28248,2.205e+07,0.015006,0.047635,0.0090258,0.022434,0.00077378
28290,2.206e+07,0.014805,0.046923,0.0093751,0.02421,0.00076711
28328,2.2069e+07,0.014564,0.046133,0.0098532,0.025577,0.00076654
28368,2.208e+07,0.01429,0.045231,0.0099437,0.026568,0.00076167
28406,2.209e+07,0.014079,0.044537,0.0099732,0.026636,0.00075628
28446,2.21e+07,0.013866,0.043894,0.010076,0.027275,0.00075242
28488,2.211e+07,0.013758,0.043456,0.010211,0.027567,0.0007478
28528,2.212e+07,0.013618,0.043036,0.010281,0.027994,0.0007433
28577,2.2131e+07,0.013453,0.04255,0.010246,0.027829,0.0007358
28627,2.2141e+07,0.013258,0.041944,0.010339,0.02818,0.00073219
28671,2.2151e+07,0.013065,0.041317,0.010333,0.028112,0.00072324
28716,2.2164e+07,0.012798,0.040455,0.010303,0.027989,0.0007208
28763,2.2177e+07,0.01252,0.039548,0.010306,0.027791,0.00072046
28808,2.2187e+07,0.012359,0.038948,0.010152,0.027434,0.00071504
28854,2.2197e+07,0.012206,0.038521,0.010035,0.027045,0.00071522
28895,2.2207e+07,0.012089,0.038137,0.0099084,0.026689,0.00071229
28940,2.2217e+07,0.012078,0.038105,0.0098049,0.026366,0.0007107
28989,2.2227e+07,0.012002,0.037793,0.0097622,0.026252,0.00070744
29034,2.2238e+07,0.012099,0.038018,0.0097121,0.026035,0.00070009
29080,2.2248e+07,0.012274,0.038721,0.0097631,0.026127,0.00069428
29124,2.2258e+07,0.01231,0.038943,0.0097897,0.026073,0.00068485
29169,2.2268e+07,0.012498,0.039399,0.0099684,0.026524,0.00067912
29207,2.2279e+07,0.012627,0.039965,0.010002,0.026793,0.00067094
29255,2.2292e+07,0.012567,0.0398,0.010048,0.026988,0.00066291
29299,2.2302e+07,0.012459,0.039476,0.010315,0.027798,0.00065743
29344,2.2312e+07,0.012281,0.038908,0.010631,0.028894,0.00065384
29389,2.2322e+07,0.012093,0.038333,0.010832,0.02987,0.00064778
29438,2.2333e+07,0.012002,0.037946,0.011043,0.031068,0.00064579
29486,2.2343e+07,0.012062,0.038214,0.011135,0.031506,0.00064296
29530,2.2353e+07,0.012102,0.038318,0.011239,0.031949,0.00064035
29575,2.2363e+07,0.012655,0.039795,0.011559,0.033003,0.00063742
29617,2.2373e+07,0.012992,0.041167,0.011519,0.032879,0.00063373
29661,2.2383e+07,0.013254,0.042109,0.011522,0.032859,0.00062867
29703,2.2393e+07,0.013345,0.042329,0.011475,0.032811,0.00062141
29747,2.2403e+07,0.013214,0.042018,0.011798,0.033929,0.00061475
29795,2.2415e+07,0.013121,0.041701,0.011888,0.034466,0.0006119
29840,2.2426e+07,0.013727,0.043473,0.012046,0.034967,0.0006095
29889,2.2436e+07,0.014584,0.046324,0.011884,0.034403,0.00060829
29934,2.2446e+07,0.014747,0.047013,0.011819,0.034135,0.00060726
29978,2.2456e+07,0.014697,0.046704,0.011712,0.033601,0.00060218
30020,2.2466e+07,0.014905,0.047488,0.011611,0.033303,0.00059766
30066,2.2479e+07,0.015452,0.049234,0.011563,0.0327,0.00058632
30112,2.2489e+07,0.015275,0.048645,0.011538,0.033032,0.00059086
30157,2.2499e+07,0.015291,0.048699,0.011393,0.032562,0.0005877
30201,2.2509e+07,0.015582,0.049722,0.011228,0.032211,0.00059869
30247,2.252e+07,0.015398,0.049125,0.011322,0.032612,0.0006063
30296,2.253e+07,0.015296,0.04873,0.011218,0.032216,0.00061934
30342,2.254e+07,0.015244,0.048489,0.011092,0.03185,0.00063939
30387,2.255e+07,0.015141,0.048097,0.01107,0.031384,0.00065976
30431,2.256e+07,0.01499,0.047716,0.0109,0.031166,0.00070719
30476,2.2573e+07,0.014875,0.047377,0.010806,0.03085,0.00075422
30520,2.2583e+07,0.014593,0.046465,0.010802,0.03059,0.00079999
30564,2.2593e+07,0.01465,0.046545,0.010649,0.030226,0.00085697
30609,2.2603e+07,0.014443,0.045778,0.010581,0.029869,0.00091183
30653,2.2614e+07,0.014219,0.045122,0.010389,0.029338,0.00097256
30699,2.2624e+07,0.013992,0.044396,0.010265,0.028924,0.0010224
30749,2.2634e+07,0.01373,0.04355,0.010081,0.028446,0.0010747
30793,2.2644e+07,0.01357,0.043022,0.010032,0.028093,0.0011089
30838,2.2654e+07,0.013313,0.042198,0.0099559,0.027721,0.0011423
30882,2.2664e+07,0.013149,0.041524,0.0097819,0.027345,0.0011578
30927,2.2677e+07,0.01288,0.040558,0.0098291,0.027551,0.0011738
30970,2.2688e+07,0.012658,0.039934,0.010091,0.028303,0.0011742
31015,2.2698e+07,0.012694,0.039965,0.010534,0.029265,0.0011719
31060,2.2708e+07,0.012559,0.039607,0.010748,0.030731,0.0011668
31104,2.2718e+07,0.012941,0.040775,0.01136,0.032789,0.0011637
31155,2.2731e+07,0.013278,0.041831,0.011972,0.035191,0.0011627
31203,2.2741e+07,0.01381,0.042726,0.012288,0.036355,0.0011663
31248,2.2751e+07,0.014405,0.044801,0.012656,0.037469,0.0011717
31292,2.2761e+07,0.014887,0.046898,0.012931,0.03851,0.0011883
31337,2.2771e+07,0.015397,0.048289,0.012835,0.038377,0.001196
31376,2.2782e+07,0.016219,0.051048,0.012756,0.038166,0.0012017
31420,2.2793e+07,0.016521,0.052298,0.012642,0.03775,0.0012061
31465,2.2803e+07,0.01664,0.052692,0.012503,0.037327,0.0012173
31512,2.2813e+07,0.01693,0.053287,0.01238,0.036878,0.0012195
31557,2.2823e+07,0.017237,0.053807,0.012236,0.036256,0.0012267
31601,2.2833e+07,0.01723,0.0537,0.012184,0.035737,0.0012265
31652,2.2843e+07,0.01701,0.053118,0.012052,0.035218,0.0012256
31697,2.2853e+07,0.016694,0.052148,0.01189,0.035008,0.0012205
31742,2.2863e+07,0.016391,0.051133,0.011807,0.034827,0.0012131
31787,2.2874e+07,0.016093,0.050228,0.011634,0.034281,0.0012015
31828,2.2884e+07,0.015878,0.04959,0.011451,0.033767,0.0011844
31873,2.2894e+07,0.015675,0.048963,0.011254,0.033202,0.0011682
31915,2.2905e+07,0.015406,0.048124,0.011121,0.032642,0.0011501
31960,2.2916e+07,0.015105,0.047178,0.010924,0.03208,0.0011368
32006,2.2925e+07,0.014845,0.046345,0.010731,0.031465,0.0011254
32052,2.2935e+07,0.014601,0.045541,0.010541,0.03091,0.0011263
32101,2.2946e+07,0.014391,0.044812,0.010401,0.03035,0.0011253
32145,2.2956e+07,0.014248,0.044034,0.010308,0.029887,0.0011324
32190,2.2966e+07,0.014069,0.043237,0.01013,0.029328,0.0011401
32238,2.2976e+07,0.014072,0.042443,0.0099731,0.028906,0.001171
32276,2.2987e+07,0.013966,0.041636,0.0098349,0.028547,0.0012264
32322,2.2997e+07,0.014023,0.040843,0.0098292,0.028395,0.0013158
32366,2.3007e+07,0.014306,0.04009,0.0099379,0.028307,0.0014391
32412,2.3017e+07,0.014764,0.039343,0.010072,0.02817,0.0015706
32456,2.3027e+07,0.015384,0.038611,0.010063,0.027948,0.0017447
32501,2.3037e+07,0.015955,0.037866,0.010081,0.02767,0.0019566
32549,2.3047e+07,0.016758,0.037158,0.010005,0.027456,0.0021984
32595,2.3057e+07,0.017386,0.03644,0.01005,0.027526,0.0024641
32640,2.3068e+07,0.017736,0.035865,0.0099268,0.027203,0.0027632
32684,2.3081e+07,0.018574,0.035123,0.0097666,0.026851,0.0032214
32729,2.3092e+07,0.019251,0.034497,0.0096471,0.026585,0.0036424
32772,2.3103e+07,0.019667,0.034013,0.0095732,0.026478,0.0041208
32816,2.3113e+07,0.019772,0.033539,0.0094185,0.026028,0.0046596
32863,2.3123e+07,0.019776,0.032908,0.009264,0.025677,0.0052701
32907,2.3133e+07,0.019901,0.032376,0.0093257,0.025583,0.005934
32961,2.3145e+07,0.019977,0.031738,0.0093454,0.025153,0.0068395
33006,2.3156e+07,0.019998,0.031365,0.009364,0.024817,0.0076053
33050,2.3166e+07,0.019976,0.030797,0.0093875,0.024354,0.0084152
33095,2.3176e+07,0.020057,0.030345,0.009232,0.024071,0.0092917
33137,2.3189e+07,0.020194,0.029802,0.0090478,0.023661,0.010449
33182,2.3199e+07,0.020362,0.029279,0.0089641,0.02347,0.01141
33226,2.321e+07,0.020453,0.028846,0.0087936,0.023028,0.012424
33271,2.322e+07,0.020655,0.028395,0.0086751,0.022743,0.013444
33317,2.323e+07,0.021129,0.027956,0.0085414,0.022448,0.0145
33362,2.324e+07,0.021445,0.027612,0.0084553,0.022217,0.015567
33411,2.325e+07,0.021752,0.027075,0.0083163,0.021836,0.016641
33455,2.326e+07,0.022005,0.026712,0.0081645,0.021492,0.017752
33501,2.327e+07,0.022201,0.026391,0.00802,0.021115,0.018896
33546,2.328e+07,0.022176,0.02594,0.0078779,0.020775,0.020052
33587,2.3294e+07,0.022121,0.025374,0.0077233,0.020377,0.021543
33631,2.3304e+07,0.022033,0.02491,0.0075931,0.020071,0.022769
33676,2.3314e+07,0.022362,0.024666,0.0075279,0.019902,0.024008
33721,2.3325e+07,0.022935,0.024338,0.0075768,0.019734,0.025282
33765,2.3334e+07,0.023708,0.024023,0.0075467,0.019515,0.026583
33814,2.3345e+07,0.024456,0.023673,0.0075604,0.019319,0.027915
33863,2.3355e+07,0.025482,0.023454,0.0075026,0.019,0.02928
33907,2.3365e+07,0.0275,0.023995,0.0075681,0.01876,0.030663
33952,2.3375e+07,0.02997,0.024159,0.0076199,0.018558,0.032074
33997,2.3386e+07,0.031894,0.023747,0.0075929,0.01829,0.033499
34045,2.3399e+07,0.03347,0.023466,0.0074712,0.018136,0.035317
34092,2.3411e+07,0.034728,0.023161,0.0073613,0.017964,0.037165
34137,2.3421e+07,0.035315,0.022948,0.0074616,0.01796,0.038658
34182,2.3431e+07,0.035724,0.022588,0.0075158,0.017651,0.040164
34227,2.3441e+07,0.035992,0.022385,0.0078948,0.017805,0.041688
34280,2.3454e+07,0.035985,0.022354,0.008077,0.018973,0.043607
34325,2.3465e+07,0.035752,0.022738,0.0081083,0.019104,0.045156
34371,2.3475e+07,0.035486,0.022629,0.0083202,0.019267,0.046733
34416,2.3485e+07,0.035244,0.022218,0.0085783,0.019268,0.048325
34460,2.3498e+07,0.03477,0.021975,0.0085221,0.01889,0.050311
34505,2.3511e+07,0.034176,0.021723,0.0084985,0.018439,0.052282
34551,2.3521e+07,0.03371,0.021523,0.0085062,0.018097,0.053857
34597,2.3532e+07,0.03317,0.021354,0.0086661,0.017989,0.055418
34643,2.3543e+07,0.032603,0.021173,0.0088931,0.01787,0.056964
34695,2.3555e+07,0.031856,0.020776,0.009102,0.017566,0.058855
34739,2.3566e+07,0.031253,0.020565,0.0092083,0.017459,0.060355
34784,2.3576e+07,0.030655,0.020337,0.0092078,0.017705,0.061837
34829,2.3587e+07,0.030088,0.020549,0.0091683,0.017869,0.063298
34874,2.3598e+07,0.029527,0.020398,0.0093072,0.018301,0.06475
34919,2.3608e+07,0.028971,0.020216,0.0092481,0.018373,0.066194
34960,2.3619e+07,0.028454,0.02041,0.0090991,0.018082,0.067624
35006,2.3629e+07,0.027933,0.020614,0.0090032,0.018188,0.06905
35050,2.3639e+07,0.027414,0.02059,0.0091761,0.019498,0.070459
35097,2.3649e+07,0.026946,0.020894,0.0093837,0.020938,0.071867
35149,2.3662e+07,0.026352,0.020999,0.0093487,0.021267,0.073609
35193,2.3672e+07,0.025943,0.021302,0.009194,0.020948,0.074996
35238,2.3683e+07,0.02553,0.021156,0.0090398,0.020598,0.076366
35282,2.3693e+07,0.025096,0.020858,0.009004,0.020702,0.077714
35327,2.3703e+07,0.024661,0.020644,0.0089959,0.020947,0.079037
35366,2.3713e+07,0.024218,0.020667,0.0090216,0.021404,0.080352
35411,2.3723e+07,0.023805,0.020591,0.0088861,0.021205,0.081643
35456,2.3734e+07,0.023373,0.020517,0.0087559,0.020962,0.082915
35503,2.3744e+07,0.022917,0.020436,0.0086047,0.020654,0.084152
35548,2.3754e+07,0.022493,0.020391,0.0084797,0.020444,0.085365
35597,2.3764e+07,0.022071,0.020218,0.008351,0.020204,0.086546
35642,2.3774e+07,0.02165,0.020065,0.0083056,0.020279,0.087693
35687,2.3784e+07,0.021254,0.020048,0.0082358,0.020301,0.088817
35731,2.3794e+07,0.020876,0.020079,0.0081092,0.020049,0.089895
35776,2.3804e+07,0.020682,0.021144,0.0080165,0.019842,0.090954
35820,2.3814e+07,0.020411,0.02145,0.0079281,0.019728,0.092009
35865,2.3824e+07,0.02012,0.021432,0.0079566,0.020041,0.0931
35907,2.3835e+07,0.019839,0.021356,0.0079434,0.020222,0.094255
35951,2.3845e+07,0.019508,0.021712,0.0079094,0.020298,0.09547
35997,2.3855e+07,0.019134,0.021579,0.0078854,0.020375,0.096749
36048,2.3865e+07,0.018861,0.021884,0.0080851,0.021258,0.098071
36094,2.3875e+07,0.018726,0.022693,0.0083611,0.02245,0.099441
36139,2.3885e+07,0.018721,0.023647,0.0084095,0.022883,0.10087
36183,2.3895e+07,0.018793,0.024696,0.0084931,0.023387,0.10235
36229,2.3905e+07,0.018918,0.024911,0.0085578,0.023799,0.10391
36267,2.3916e+07,0.019041,0.025281,0.0088695,0.02506,0.10553
36313,2.3926e+07,0.019661,0.026984,0.0090077,0.02572,0.10721
36357,2.3936e+07,0.020295,0.027848,0.0089489,0.025623,0.10892
36404,2.3946e+07,0.02054,0.027912,0.009151,0.026359,0.11069
36448,2.3956e+07,0.020884,0.027727,0.0092034,0.026597,0.11253
36500,2.3966e+07,0.02164,0.02821,0.0092469,0.026801,0.11449
36545,2.3977e+07,0.022552,0.028306,0.0091618,0.02661,0.11656
36590,2.3986e+07,0.023116,0.027864,0.0090467,0.026282,0.11875
36635,2.3997e+07,0.023422,0.027565,0.0089629,0.026023,0.12106
36676,2.4007e+07,0.023542,0.027437,0.0088285,0.02563,0.12352
36720,2.4018e+07,0.023725,0.027137,0.0087139,0.025348,0.12613
36761,2.4029e+07,0.024078,0.027301,0.0086652,0.025133,0.12886
36806,2.4039e+07,0.024551,0.028057,0.0087749,0.025649,0.13167
36850,2.4049e+07,0.024979,0.02869,0.0086944,0.025398,0.13449
36894,2.4059e+07,0.025426,0.02943,0.0087945,0.025691,0.13732
36943,2.4069e+07,0.025922,0.029895,0.0088975,0.026106,0.14009
36987,2.4079e+07,0.026395,0.029525,0.0087945,0.025864,0.14282
37034,2.4089e+07,0.026686,0.029263,0.0087181,0.02559,0.1455
37079,2.4099e+07,0.026845,0.028763,0.0088079,0.025919,0.14811
37123,2.4111e+07,0.027369,0.028422,0.0087744,0.025534,0.15121
37172,2.4124e+07,0.027838,0.028503,0.0088428,0.025558,0.1541
37215,2.4134e+07,0.027878,0.030019,0.008809,0.025792,0.15622
37261,2.4144e+07,0.028445,0.033108,0.0087209,0.025458,0.15816
37306,2.4154e+07,0.028796,0.033647,0.0086556,0.025459,0.15992
37353,2.4164e+07,0.029248,0.034019,0.0086649,0.025552,0.16149
37399,2.4174e+07,0.029548,0.034583,0.0085929,0.025374,0.16285
37443,2.4184e+07,0.029489,0.034501,0.0085016,0.025127,0.164
37488,2.4194e+07,0.029681,0.034344,0.0085,0.025194,0.1649
37533,2.4204e+07,0.029978,0.033931,0.0084619,0.025133,0.16555
37579,2.4217e+07,0.030271,0.03443,0.0083169,0.024736,0.16599
37621,2.4227e+07,0.030783,0.035435,0.008357,0.024968,0.16605
37665,2.4237e+07,0.031293,0.037785,0.0084174,0.025244,0.16586
37710,2.4248e+07,0.031379,0.038997,0.0083192,0.024906,0.16542
37754,2.4258e+07,0.031534,0.039813,0.0083818,0.025065,0.16478
37804,2.4268e+07,0.031787,0.039874,0.0083501,0.024861,0.16395
37848,2.4279e+07,0.032145,0.039609,0.0083019,0.024456,0.16297
37893,2.4289e+07,0.032359,0.039214,0.0084574,0.024467,0.16186
37938,2.4299e+07,0.032517,0.039945,0.0084756,0.024325,0.16065
37983,2.431e+07,0.03236,0.040329,0.0088156,0.024532,0.15936
38027,2.432e+07,0.032208,0.040853,0.008933,0.024537,0.158
38071,2.433e+07,0.032322,0.041946,0.0090496,0.024412,0.15659
38118,2.4341e+07,0.03245,0.042022,0.0090772,0.024293,0.15513
38162,2.4351e+07,0.032547,0.041428,0.0092841,0.024556,0.15363
38208,2.4362e+07,0.03264,0.040652,0.0092437,0.024296,0.15211
38257,2.4372e+07,0.032249,0.040212,0.0094495,0.024387,0.15057
38301,2.4382e+07,0.03177,0.039635,0.0094943,0.024209,0.14901
38346,2.4392e+07,0.031362,0.03888,0.0095635,0.024204,0.14745
38390,2.4403e+07,0.030954,0.038735,0.0096346,0.02398,0.14587
38437,2.4413e+07,0.030502,0.038191,0.009676,0.023632,0.1443
38479,2.4423e+07,0.030007,0.038161,0.0099836,0.023746,0.14273
38520,2.4434e+07,0.02948,0.038088,0.010116,0.023795,0.14117
38565,2.4444e+07,0.02896,0.037943,0.010198,0.023787,0.13961
38609,2.4454e+07,0.028425,0.037461,0.010474,0.024231,0.13806
38657,2.4464e+07,0.027889,0.036935,0.010646,0.024189,0.13652
38705,2.4475e+07,0.027414,0.036722,0.01076,0.024063,0.13499
38750,2.4484e+07,0.026895,0.036169,0.010988,0.024118,0.13347
38794,2.4495e+07,0.026377,0.035566,0.011016,0.023952,0.13196
38840,2.4505e+07,0.025881,0.03492,0.011024,0.023685,0.13046
38884,2.4515e+07,0.025381,0.034241,0.011127,0.023377,0.12897
38923,2.4525e+07,0.024908,0.033703,0.011263,0.022957,0.1275
38968,2.4535e+07,0.024462,0.033106,0.011221,0.022556,0.12603
39015,2.4546e+07,0.024062,0.032588,0.011263,0.022246,0.12458
39059,2.4556e+07,0.023758,0.032553,0.011326,0.022495,0.12314
39105,2.4566e+07,0.023439,0.032354,0.011464,0.022817,0.1217
39153,2.4576e+07,0.023104,0.032259,0.011545,0.022993,0.12028
39198,2.4587e+07,0.022682,0.031839,0.0115,0.022798,0.11888
39242,2.4597e+07,0.022256,0.031357,0.011391,0.022558,0.11748
39288,2.4607e+07,0.021904,0.0314,0.011486,0.02309,0.1161
39333,2.462e+07,0.021622,0.0324,0.011947,0.025201,0.11438
39375,2.4631e+07,0.021283,0.03249,0.011926,0.025807,0.11303
39420,2.4641e+07,0.020937,0.032218,0.011841,0.02575,0.11169
39465,2.4652e+07,0.020626,0.031898,0.011724,0.025856,0.11037
39510,2.4662e+07,0.020377,0.032011,0.011684,0.026199,0.10906
39555,2.4673e+07,0.020091,0.03187,0.011692,0.0265,0.10776
39604,2.4683e+07,0.019831,0.031493,0.011676,0.026738,0.10648
39648,2.4693e+07,0.01965,0.031424,0.011619,0.026776,0.10522
39693,2.4703e+07,0.019418,0.031443,0.01148,0.026424,0.10397
39741,2.4716e+07,0.019159,0.030986,0.011392,0.026206,0.10244
39786,2.4727e+07,0.01896,0.030532,0.011371,0.026422,0.10122
39830,2.4737e+07,0.018663,0.03003,0.011214,0.025994,0.10003
39874,2.4748e+07,0.018412,0.029556,0.011074,0.025489,0.098842
39919,2.4759e+07,0.018347,0.029128,0.010956,0.025044,0.097681
39964,2.4769e+07,0.018276,0.02889,0.010893,0.024856,0.096532
40009,2.4779e+07,0.018005,0.029379,0.011235,0.025106,0.095399
40059,2.4789e+07,0.017898,0.030503,0.012161,0.025762,0.094284
40103,2.4799e+07,0.018004,0.030608,0.013815,0.026308,0.093192
40148,2.4809e+07,0.018347,0.030294,0.015511,0.026214,0.092119
40192,2.4819e+07,0.01871,0.030067,0.017175,0.025962,0.091068
40232,2.4831e+07,0.019158,0.030238,0.019275,0.026034,0.090036
40276,2.4841e+07,0.019277,0.030022,0.020752,0.026241,0.089028
40323,2.4851e+07,0.019354,0.029676,0.022118,0.026146,0.088043
40367,2.4862e+07,0.019262,0.029304,0.023143,0.025989,0.087067
40411,2.4872e+07,0.019089,0.028936,0.024103,0.025728,0.086107
40456,2.4883e+07,0.018801,0.028769,0.024892,0.025334,0.085165
40506,2.4893e+07,0.018582,0.028774,0.025271,0.025891,0.084234
40552,2.4903e+07,0.018296,0.02871,0.025281,0.026452,0.083312
40597,2.4913e+07,0.017968,0.028624,0.025027,0.026546,0.082405
40642,2.4924e+07,0.017752,0.028551,0.024643,0.026907,0.081503
40694,2.494e+07,0.017706,0.028669,0.024025,0.026909,0.080159
40738,2.495e+07,0.018355,0.029262,0.023657,0.027005,0.079276
40786,2.496e+07,0.018883,0.029115,0.023315,0.027092,0.078405
40831,2.497e+07,0.019366,0.02872,0.022929,0.027136,0.077543
40877,2.498e+07,0.01984,0.028781,0.022541,0.026982,0.076687
40926,2.499e+07,0.020492,0.029212,0.022198,0.026768,0.075839
40970,2.5001e+07,0.020904,0.029161,0.021861,0.026599,0.074999
41015,2.5011e+07,0.021099,0.028836,0.02159,0.02675,0.074169
41060,2.5021e+07,0.021133,0.028316,0.021262,0.026508,0.073345
41105,2.5032e+07,0.021072,0.027893,0.020921,0.026131,0.072534
41147,2.5048e+07,0.020903,0.027364,0.020581,0.025832,0.071527
41192,2.5059e+07,0.020821,0.02693,0.020307,0.025383,0.070727
41236,2.507e+07,0.020655,0.027139,0.020025,0.024904,0.069937
41282,2.508e+07,0.020378,0.026921,0.01969,0.024464,0.06915
41326,2.509e+07,0.020168,0.026445,0.019357,0.02415,0.068368
