LineNo,TimeUS,ThI,ABst,ThO,ThH,DAlt,Alt,BAlt,DSAlt,SAlt,TAlt,DCRt,CRt
1911,15489852,-1.341105e-07,-7.588596e-12,0,0.2091079,-0.0909358,-0.0909358,-0.23,NaN,0,-88.67233,47,47
2324,15590264,-1.341105e-07,-7.617017999999999e-12,0,0.2091079,0.05838599,0.05838599,-0.22,NaN,0,-88.65818,47,47
2738,15691546,-1.341105e-07,-7.47491e-12,0,0.2091079,0.1662975,0.1662975,0.09,NaN,0,-88.3417,47,47
3152,15792092,-1.341105e-07,-7.560175e-12,0,0.2091079,0.2490893,0.2490893,-0.09,NaN,0,-88.53757,47,47
3531,15893068,-1.341105e-07,-7.560175e-12,0,0.2091079,0.3159129,0.3159129,-0.01,NaN,0,-88.45845,47,47
3939,15994080,-1.341105e-07,-7.531752999999999e-12,0,0.2091079,0.367685,0.367685,0.22,NaN,0,-88.22228,47,47
4352,16094615,-1.341105e-07,-7.403855000000001e-12,0,0.2091079,0.4137988,0.4137988,0.35,NaN,0,-88.08947000000001,47,47
4733,16195172,-1.341105e-07,-7.332801e-12,0,0.2091079,0.4590124,0.4590124,0.19,NaN,0,-88.25143,47,47
5140,16294840,-1.341105e-07,-7.219114e-12,0,0.2091079,0.5011342,0.5011342,0.11,NaN,0,-88.32773,47,47
5548,16395165,-1.341105e-07,-7.190692e-12,0,0.2091079,0.5390341,0.5390341,0,NaN,0,-88.45013,46,46
5956,16495898,-1.341105e-07,-7.219114e-12,0,0.2091079,0.5716488,0.5716488,0.22,NaN,0,-88.22408,46,46
6368,16597408,-1.341105e-07,-7.14806e-12,0,0.2091079,0.6014985,0.6014985,0.11,NaN,0,-88.33508999999999,46,46
6779,16697844,-1.341105e-07,-7.247536e-12,0,0.2091079,0.6283273,0.6283273,-0.15,NaN,0,-88.61201,45,45
7190,16798637,-1.341105e-07,-7.020162e-12,0,0.2091079,0.6510149,0.6510149,-0.31,NaN,0,-88.77312999999999,44,44
7599,16899319,-1.341105e-07,-6.920686e-12,0,0.2091079,0.6680533,0.6680533,-0.42,NaN,0,-88.88616,44,44
7981,16999557,-1.341105e-07,-7.077006e-12,0,0.2091079,0.6792271,0.6792271,-0.31,NaN,0,-88.76951,43,43
8390,17100126,-1.341105e-07,-7.105427e-12,0,0.2091079,0.6879035999999999,0.6879035999999999,0.14,NaN,0,-88.31174,42,42
8798,17200232,-1.341105e-07,-6.906475e-12,0,0.2091079,0.6956268,0.6956268,0.44,NaN,0,-88.01211000000001,41,41
9203,17301088,-1.341105e-07,-6.636469e-12,0,0.2091079,0.7079968,0.7079968,0,NaN,0,-88.45856999999999,40,40
9523,17400821,-1.341105e-07,-7.261747e-12,0,0.2091079,0.7232182,0.7232182,-0.06,NaN,0,-88.53133,39,39
9930,17501024,-1.341105e-07,-6.423306e-12,0,0.2091079,0.7301881,0.7301881,-0.19,NaN,0,-88.66131,39,39
10340,17601675,-1.341105e-07,-6.863843e-12,0,0.2091079,0.7338435,0.7338435,-0.12,NaN,0,-88.59012,37,37
10749,17701908,-1.341105e-07,-6.409095e-12,0,0.2091079,0.7359431,0.7359431,-0.19,NaN,0,-88.66359,37,37
11136,17803045,-1.341105e-07,-5.940137e-12,0,0.2091079,0.7357541,0.7357541,-0.51,NaN,0,-88.98303,36,36
11547,17903065,-1.341105e-07,-6.409095e-12,0,0.2091079,0.7335488999999999,0.7335488999999999,0.21,NaN,0,-88.25682,35,35
11961,18003862,-1.341105e-07,-7.062795e-12,0,0.2091079,0.7317781,0.7317781,-0.07000000000000001,NaN,0,-88.55006,33,33
12371,18104104,-1.341105e-07,-7.275957999999999e-12,0,0.2091079,0.7276051,0.7276051,-0.1,NaN,0,-88.57266,32,32
12755,18205285,-1.341105e-07,-7.787548e-12,0,0.2091079,0.7237139,0.7237139,0.23,NaN,0,-88.23844,31,31
13162,18306232,-1.341105e-07,-7.133849e-12,0,0.2091079,0.7199728,0.7199728,0.07000000000000001,NaN,0,-88.39951000000001,30,30
13570,18407014,-1.341105e-07,-6.735945e-12,0,0.2091079,0.7151806000000001,0.7151806000000001,0.49,NaN,0,-87.98434,28,28
13977,18507669,-1.341105e-07,-6.82121e-12,0,0.2091079,0.713612,0.713612,-0.1,NaN,0,-88.57774000000001,27,27
14390,18608611,-1.341105e-07,-6.451728e-12,0,0.2091079,0.7124515,0.7124515,0.12,NaN,0,-88.3484,26,26
14800,18709269,-1.341105e-07,-6.281198e-12,0,0.2091079,0.7079917999999999,0.7079917999999999,0.28,NaN,0,-88.19298999999999,25,25
15209,18810229,-1.341105e-07,-6.508571e-12,0,0.2091079,0.7033901,0.7033901,0.12,NaN,0,-88.35317000000001,24,24
15617,18912062,-1.341105e-07,-6.65068e-12,0,0.2091079,0.6937931000000001,0.6937931000000001,0.22,NaN,0,-88.25427000000001,24,24
16000,19012375,-1.341105e-07,-7.290168e-12,0,0.2091079,0.6869511,0.6869511,0.24,NaN,0,-88.24036,23,23
16408,19112784,-1.341105e-07,-6.735945e-12,0,0.2091079,0.6833555,0.6833555,0.59,NaN,0,-87.88714,22,22
16816,19213777,-1.341105e-07,-6.878054e-12,0,0.2091079,0.6814566,0.6814566,-0.01,NaN,0,-88.49771,20,20
17195,19314844,-1.341105e-07,-6.792789e-12,0,0.2091079,0.6788992,0.6788992,0.32,NaN,0,-88.16428000000001,19,19
17604,19415577,-1.341105e-07,-6.423306e-12,0,0.2091079,0.6722137,0.6722137,-0.07000000000000001,NaN,0,-88.56225000000001,19,19
17988,19515917,-1.341105e-07,-6.1533e-12,0,0.2091079,0.6688021,0.6688021,0.25,NaN,0,-88.23164,18,18
18398,19616573,-1.341105e-07,-6.423306e-12,0,0.2091079,0.6612628,0.6612628,0.48,NaN,0,-88.00769,18,18
18806,19716683,-1.341105e-07,-6.423306e-12,0,0.2091079,0.6563547,0.6563547,0.26,NaN,0,-88.22526999999999,17,17
19219,19817051,-1.341105e-07,-6.622258e-12,0,0.2091079,0.6520585,0.6520585,0.25,NaN,0,-88.24168,16,16
19629,19916719,-1.341105e-07,-6.679102e-12,0,0.2091079,0.6454035,0.6454035,0.25,NaN,0,-88.23602,15,15
20040,20016874,-1.341105e-07,-6.437517e-12,0,0.2091079,0.637971,0.637971,0.23,NaN,0,-88.26365,14,14
20448,20117227,-1.341105e-07,-6.508571e-12,0,0.2091079,0.6303696,0.6303696,0.05,NaN,0,-88.44450000000001,14,14
20826,20217189,-1.341105e-07,-6.48015e-12,0,0.2091079,0.6197691,0.6197691,0.19,NaN,0,-88.30643000000001,12,12
21236,20316699,-1.341105e-07,-5.65592e-12,0,0.2091079,0.6072881999999999,0.6072881999999999,0.17,NaN,0,-88.3262,11,11
21644,20417837,-1.341105e-07,-6.181722e-12,0,0.2091079,0.5940014,0.5940014,-0.09,NaN,0,-88.59135999999999,10,10
22051,20517923,-1.341105e-07,-6.508571e-12,0,0.2091079,0.5786409,0.5786409,0.29,NaN,0,-88.20424,9,9
22462,20618621,-1.341105e-07,-6.309619e-12,0,0.2091079,0.5639004,0.5639004,-0.23,NaN,0,-88.73577,8,8
22870,20718861,-1.341105e-07,-6.494361e-12,0,0.2091079,0.547837,0.547837,-0.18,NaN,0,-88.69056,8,8
23252,20818846,-1.341105e-07,-6.139089e-12,0,0.2091079,0.5311642,0.5311642,0,NaN,0,-88.5065,7,7
23664,20919199,-1.341105e-07,-5.343281e-12,0,0.2091079,0.5127276,0.5127276,0,NaN,0,-88.5065,5,5
24078,21019054,-1.341105e-07,-5.726974e-12,0,0.2091079,0.4929592,0.4929592,0.23,NaN,0,-88.27433000000001,4,4
24458,21119098,-1.341105e-07,-6.238565e-12,0,0.2091079,0.4695898,0.4695898,0.31,NaN,0,-88.19521,3,3
24869,21219679,-1.341105e-07,-6.082246e-12,0,0.2091079,0.4515763,0.4515763,0.38,NaN,0,-88.12188,3,3
25279,21321095,-1.341105e-07,-5.670131e-12,0,0.2091079,0.4386111,0.4386111,-0.27,NaN,0,-88.7831,2,2
25691,21421228,-1.341105e-07,-5.897505e-12,0,0.2091079,0.4240757,0.4240757,0.16,NaN,0,-88.35312,1,1
26105,21521816,-1.341105e-07,-5.599077e-12,0,0.2091079,0.409661,0.409661,0.32,NaN,0,-88.18640000000001,0,0
26486,21622100,-1.341105e-07,-6.451728e-12,0,0.2091079,0.395982,0.395982,0.26,NaN,0,-88.24827000000001,0,0
26896,21723539,-1.341105e-07,-5.31486e-12,0,0.2091079,0.384571,0.384571,0.02,NaN,0,-88.48845,0,0
27310,21822814,-1.341105e-07,-5.499601e-12,0,0.2091079,0.3712928,0.3712928,0.39,NaN,0,-88.12063999999999,-1,-1
27721,21923172,-1.341105e-07,-5.243805e-12,0,0.2091079,0.3605301,0.3605301,-0.02,NaN,0,-88.54733,-1,-1
28129,22023881,-1.341105e-07,-6.167511e-12,0,0.2091079,0.3453048,0.3453048,-0.09,NaN,0,-88.61118999999999,-2,-2
28536,22124293,-1.341105e-07,-4.575895e-12,0,0.2091079,0.3268271,0.3268271,0.16,NaN,0,-88.35687,-3,-3
28954,22226141,-1.341105e-07,-4.646949e-12,0,0.2091079,0.3087556,0.3087556,-0.03,NaN,0,0.3087556,-5,-5
29400,22328375,0.002499834,1.001172e-07,3.80704e-05,0.2091079,0.2900723,0.2900723,-0.08,NaN,0,0.2900723,-6,-6
29847,22429378,0.05249935,2.078712e-06,0.0226555,0.2091079,0.2691821,0.2691821,0.18,NaN,0,0.266817,-6,-6
30297,22531056,0.1012491,3.524125e-06,0.06405585,0.2091079,0.2492574,0.2492574,0.01,NaN,0,0.2436956,-6,-6
30714,22633282,0.1487489,4.693866e-06,0.1100196,0.2091079,0.2304814,0.2304814,0.17,NaN,0,0.2249195,-7,-7
31162,22734756,0.1962489,6.28829e-06,0.157112,0.2091079,0.2130062,0.2130062,0.36,NaN,0,0.2032253,-7,-7
31611,22837002,0.2437488,8.255242999999999e-06,0.2044749,0.2091079,0.1998758,0.1998758,-0.1,NaN,0,0.190095,-7,-7
32059,22939520,0.2924988,6.020069e-06,0.2525898,0.2091079,0.1867068,0.1867068,0.35,NaN,0,0.1737216,-6,-6
32508,23041640,0.3325451,3.904104e-05,0.3008489,0.2091079,0.1793749,0.1792748,-0.01,NaN,0,0.1662896,0,1
32926,23143891,0.3061795,8.830428000000001e-05,0.3130714,0.2091079,0.1875166,0.187199,0.31,NaN,0,0.1718486,16,21
33373,23246355,0.2600269,0.0001123846,0.286999,0.2091079,0.2123817,0.2204234,0.38,NaN,0,0.2050731,31,45
33822,23349086,0.2587895,9.566545e-05,0.2701344,0.2091079,0.2505112,0.2781985,0.02,NaN,0,0.2599795,42,61
34242,23451264,0.2644236,1.138449e-05,0.2645576,0.2091079,0.3005841,0.3454034,0.31,NaN,0,0.3271844,50,69
34660,23554257,0.2616646,6.6787e-05,0.2631635,0.2091079,0.3575235,0.4198559,0.32,NaN,0,0.4006985,55,74
35111,23658310,0.2498343,0.0002273321,0.258633,0.2091079,0.4225657,0.4986764,0.41,NaN,0,0.479519,60,78
35558,23760506,0.2562088,0.0003023744,0.2552044,0.2091079,0.4912936,0.5791986,0.22,NaN,0,0.5591943,64,81
36010,23862133,0.2588398,0.000187099,0.2564724,0.2091079,0.5643061,0.6564397,0.77,NaN,0,0.6364354,67,81
36459,23962547,0.261231,1.120567e-05,0.2588796,0.2091079,0.6408547999999999,0.7405252,0.57,NaN,0,0.7188272,70,82
36904,24065093,0.2442246,3.671646e-05,0.2529595,0.2091079,0.7200245,0.8250935,0.46,NaN,0,0.8033956,71,81
37354,24165680,0.2494,0.0001117289,0.2450076,0.2091079,0.8009438,0.8938472,1.2,NaN,0,0.8705471,70,79
37769,24266686,0.2559369,7.197261e-05,0.2517799,0.2091079,0.8765604,0.9706847,0.64,NaN,0,0.9473845,69,76
38222,24370746,0.2559498,3.752112e-05,0.2543859,0.2091079,0.9550384,1.042423,1.04,NaN,0,1.020122,69,73
38670,24473612,0.2561156,0.000298053,0.2570567,0.2091079,1.032624,1.111869,1.13,NaN,0,1.089568,69,71
39118,24575242,0.260199,0.0007321536999999999,0.2589333,0.2091079,1.107511,1.183145,1.36,NaN,0,1.159738,69,70
39566,24679107,0.2555397,0.0008652508,0.2580716,0.2091079,1.181871,1.261428,1.28,NaN,0,1.238021,68,69
40017,24782656,0.2503433,0.001010537,0.25559,0.2091079,1.257658,1.339685,1.64,NaN,0,1.314836,67,69
40465,24886585,0.2533071,0.001030385,0.254024,0.2091079,1.332973,1.424817,1.35,NaN,0,1.399969,65,69
40891,24989287,0.2470888,0.0006338805,0.2504157,0.2091079,1.407995,1.506356,1.44,NaN,0,1.480652,65,69
41337,25095755,0.2525302,0.0005685687,0.2515701,0.2091079,1.47895,1.585482,2.05,NaN,0,1.559779,63,67
41783,25200261,0.2443291,0.0005773157,0.2488606,0.2091079,1.54967,1.668911,1.56,NaN,0,1.64143,62,67
42229,25305369,0.244107,0.0006230623,0.2477401,0.2091079,1.62016,1.749364,1.84,NaN,0,1.721883,61,65
42678,25411019,0.2488186,0.0008925796,0.2476197,0.2091079,1.69048,1.826922,2.04,NaN,0,1.800272,60,64
43127,25517206,0.2434728,0.001237035,0.2482167,0.2091079,1.760655,1.905525,1.91,NaN,0,1.878876,59,63
43574,25622879,0.2512428,0.001778662,0.2482603,0.2091079,1.830683,1.980768,1.91,NaN,0,1.95328,58,62
43990,25728553,0.2497388,0.002273276,0.2490836,0.2091079,1.900748,2.05234,2.34,NaN,0,2.024852,58,61
44436,25834795,0.262312,0.004163951,0.2584669,0.2091079,1.970679,2.124079,1.89,NaN,0,2.097346,58,57
44886,25940872,0.2495225,0.007061452,0.259941,0.2091079,2.0406,2.191522,1.98,NaN,0,2.167482,58,56
45338,26044306,0.2305122,0.007766992,0.2513025,0.2091079,2.109775,2.25016,2.38,NaN,0,2.22612,57,57
45754,26149792,0.2473075,0.007562324,0.2497944,0.2091079,2.175642,2.308472,2.59,NaN,0,2.286034,54,54
46201,26256338,0.2490954,0.004267037,0.2511014,0.2091079,2.238198,2.370414,2.63,NaN,0,2.347976,51,50
46649,26362639,0.2459244,0.001680896,0.251616,0.2091079,2.297931,2.432453,2.24,NaN,0,2.413394,48,47
47097,26469095,0.2503793,0.001137018,0.2502391,0.2091079,2.355347,2.48986,2.15,NaN,0,2.470801,45,46
47515,26576079,0.2527335,0.0009412169,0.2528656,0.2091079,2.410863,2.535193,2.68,NaN,0,2.517753,45,43
47964,26681146,0.2504041,0.000837326,0.2558462,0.2091079,2.46481,2.57815,2.93,NaN,0,2.560709,44,41
48413,26785071,0.2532417,0.0008300841,0.2528438,0.2091079,2.517393,2.627466,3.04,NaN,0,2.609461,43,41
48857,26891056,0.2450604,0.00168249,0.2497392,0.2091079,2.567644,2.683228,2.77,NaN,0,2.665222,39,39
49312,26997457,0.2449219,0.003179699,0.246363,0.2091079,2.613883,2.735741,2.87,NaN,0,2.717758,34,35
49727,27103072,0.2468914,0.00481686,0.2506148,0.2091079,2.655984,2.782872,2.97,NaN,0,2.764889,29,29
50176,27208152,0.2492963,0.005364239,0.2534047,0.2091079,2.694725,2.82437,2.72,NaN,0,2.8076,26,27
50622,27313136,0.2461271,0.004463255,0.2508691,0.2091079,2.730632,2.859035,2.59,NaN,0,2.842265,23,24
51071,27418662,0.252878,0.004133344,0.2498111,0.2091079,2.764189,2.885131,2.96,NaN,0,2.872535,22,21
51486,27523108,0.2559171,0.004920572,0.2547643,0.2091079,2.79585,2.906631,2.96,NaN,0,2.894034,21,19
51932,27628122,0.2566572,0.005262733,0.2583873,0.2091079,2.825857,2.927501,2.94,NaN,0,2.914936,20,17
52381,27732193,0.2530177,0.005360305,0.2599367,0.2091079,2.854558,2.947371,2.64,NaN,0,2.936553,20,17
52825,27838290,0.2532864,0.00526014,0.2577922,0.2091079,2.882154,2.963249,3.08,NaN,0,2.95243,20,17
53276,27944589,0.250455,0.005191118,0.2564177,0.2091079,2.908838,2.979418,3.47,NaN,0,2.971545,20,18
53726,28049786,0.2400832,0.004706874,0.2470828,0.2091079,2.933824,3.006398,3.57,NaN,0,2.998524,17,17
54172,28156642,0.278924,0.006200582,0.2606248,0.2091079,2.954891,3.035581,3.13,NaN,0,3.031255,12,10
54619,28263781,0.2251729,0.004965037,0.2620137,0.2091079,2.972304,3.059892,2.8,NaN,0,3.055567,7,9
55069,28372098,0.2155375,0.0036017,0.2285209,0.2091079,2.986699,3.079271,3.71,NaN,0,3.076326,4,10
55515,28478660,0.2306283,0.001968443,0.2274639,0.2091079,2.998597,3.100243,3.49,NaN,0,3.097298,1,8
55932,28583556,0.2215017,0.0008663535,0.2270097,0.2091079,3.008431,3.127252,2.97,NaN,0,3.124513,-2,6
56380,28687472,0.2319373,0.0001921356,0.22857,0.2091079,3.016559,3.145005,2.96,NaN,0,3.142266,-5,3
56827,28792921,0.2301835,1.572073e-05,0.2268779,0.2091079,3.023279,3.152528,3.43,NaN,0,3.149323,-6,0
57274,28898046,0.2272597,0.0001492202,0.2294018,0.2091079,3.028832,3.157096,3.64,NaN,0,3.153892,-7,-2
57725,29004573,0.2550998,0.0001778305,0.2426407,0.2091079,3.033422,3.163946,4.09,NaN,0,3.161123,-8,-8
58174,29111337,0.25686,9.089708e-05,0.2514898,0.2091079,3.037216,3.178752,4.87,NaN,0,3.175929,-10,-11
58591,29217422,0.2433596,9.121001e-05,0.2460431,0.2091079,3.040352,3.214879,4.14,NaN,0,3.210813,-14,-10
59039,29322794,0.2317562,1.886487e-05,0.2367143,0.2091079,3.042944,3.259798,3.86,NaN,0,3.255731,-19,-11
59490,29428898,0.2404376,0.0003382117,0.2364795,0.2091079,3.045086,3.294704,4.84,NaN,0,3.289028,-22,-14
59937,29535073,0.2407269,0.001018226,0.2402201,0.2091079,3.046858,3.336995,4.93,NaN,0,3.329519,-27,-17
60385,29640633,0.2348145,0.001159653,0.2359478,0.2091079,3.048322,3.387515,4.28,NaN,0,3.380038,-32,-19
60802,29747028,0.2364696,0.001142576,0.2360355,0.2091079,3.049531,3.42991,3.7,NaN,0,3.420633,-36,-23
61248,29853599,0.2347132,0.0007706285,0.2328396,0.2091079,3.050531,3.459988,4.25,NaN,0,3.450711,-39,-28
61700,29958137,0.2339971,0.0003880709,0.2350724,0.2091079,3.051358,3.471888,4.41,NaN,0,3.463076,-41,-33
62145,30062736,0.2351175,6.704032e-05,0.234142,0.2091079,3.052042,3.482952,4.74,NaN,0,3.47414,-42,-34
62597,30168282,0.236011,3.427267e-07,0.2316668,0.2091079,3.052607,3.504523,3.75,NaN,0,3.49211,-44,-36
63014,30271936,0.2434164,1.743436e-06,0.2405993,0.2091079,3.053074,3.51127,4.15,NaN,0,3.498857,-45,-41
63462,30377863,0.2453567,1.400709e-06,0.2449445,0.2091079,3.053459,3.510343,4.52,NaN,0,3.492955,-45,-43
63878,30482607,0.2428525,7.332861e-05,0.2458236,0.2091079,3.053778,3.512683,4.46,NaN,0,3.495296,-45,-44
64327,30586686,0.245569,0.0004795939,0.2458794,0.2091079,3.054042,3.509788,4.19,NaN,0,3.488341,-45,-43
64774,30691711,0.2508276,0.0008191168,0.246007,0.2091079,3.05426,3.505996,4.69,NaN,0,3.48455,-44,-44
65223,30795652,0.2437313,0.0007127225,0.2463703,0.2091079,3.05444,3.511463,4.26,NaN,0,3.486622,-45,-43
65639,30900463,0.2430764,0.0005386472,0.2425232,0.2091079,3.054589,3.515322,5.24,NaN,0,3.490481,-45,-43
66086,31008141,0.229418,0.0005808622,0.2393902,0.2091079,3.054713,3.530717,4.13,NaN,0,3.502465,-47,-42
66531,31113032,0.2252549,0.0009148121,0.2310733,0.2091079,3.054814,3.541287,4.09,NaN,0,3.513036,-48,-40
66953,31217584,0.2419763,0.001714513,0.2358472,0.2091079,3.054899,3.549571,3.65,NaN,0,3.522898,-49,-43
67398,31323181,0.233362,0.002406225,0.2396994,0.2091079,3.054968,3.540049,3.61,NaN,0,3.513377,-48,-44
67850,31428596,0.2470204,0.003058895,0.2444675,0.2091079,3.055026,3.513799,3.83,NaN,0,3.48895,-45,-47
68265,31532051,0.2394897,0.002888516,0.2457248,0.2091079,3.055073,3.485702,3.91,NaN,0,3.465896,-43,-46
68712,31638580,0.2669503,0.003210425,0.2550418,0.2091079,3.055111,3.456728,4.6,NaN,0,3.436922,-40,-47
69162,31743910,0.262383,0.003295869,0.2666348,0.2091079,3.055146,3.432615,4.15,NaN,0,3.421324,-37,-47
69608,31849778,0.2519035,0.003715158,0.2604223,0.2091079,3.05517,3.423396,4.04,NaN,0,3.412104,-36,-41
70058,31954901,0.2539678,0.004270077,0.2564354,0.2091079,3.055193,3.415451,5.1,NaN,0,3.416565,-36,-39
70505,32060932,0.2506053,0.004145026,0.2586553,0.2091079,3.055213,3.418216,4.77,NaN,0,3.41933,-36,-37
70954,32167136,0.2423632,0.00387615,0.254272,0.2091079,3.055225,3.444593,4.72,NaN,0,3.45957,-38,-35
71403,32272308,0.2457216,0.003798887,0.2542412,0.2091079,3.055237,3.467448,5.02,NaN,0,3.482425,-41,-35
71852,32378594,0.2531109,0.003839344,0.2508746,0.2091079,3.055248,3.505946,5.61,NaN,0,3.536463,-45,-37
72301,32482840,0.235667,0.003369898,0.2490531,0.2091079,3.05526,3.548024,4.81,NaN,0,3.578542,-49,-38
72749,32589729,0.2318355,0.003021136,0.2417112,0.2091079,3.055272,3.597242,5.01,NaN,0,3.644338,-54,-39
73165,32695852,0.2209619,0.002583891,0.2301138,0.2091079,3.055278,3.645562,4.32,NaN,0,3.692658,-59,-40
73612,32801263,0.2103198,0.00248532,0.2238639,0.2091079,3.055278,3.66638,4.4,NaN,0,3.730734,-61,-44
74060,32907243,0.2232709,0.002746075,0.2223552,0.2091079,3.055278,3.680292,4.01,NaN,0,3.744646,-62,-46
74478,33012124,0.2207181,0.002609164,0.2254317,0.2091079,3.055278,3.673679,3.52,NaN,0,3.756214,-61,-51
74923,33116987,0.2441512,0.002893105,0.2324077,0.2091079,3.055281,3.647465,3.13,NaN,0,3.73,-59,-56
75371,33222853,0.2759705,0.003477037,0.2583122,0.2091079,3.056103,3.600092,2.91,NaN,0,3.700121,-51,-58
75821,33327674,0.2587287,0.003370166,0.2628761,0.2091079,3.060267,3.536608,2.99,NaN,0,3.636637,-41,-54
76270,33434655,0.2783103,0.003762186,0.2722162,0.2091079,3.067656,3.463192,2.72,NaN,0,3.585384,-30,-48
76688,33541006,0.2977283,0.003536731,0.2898027,0.2091079,3.078099,3.387871,2.78,NaN,0,3.534599,-17,-43
77102,33645820,0.2927745,0.002950311,0.2953302,0.2091079,3.093811,3.319125,2.98,NaN,0,3.465853,-2,-30
77549,33751131,0.2829713,0.002333283,0.2898667,0.2091079,3.114896,3.267501,2.72,NaN,0,3.440864,9,-15
77963,33854596,0.2787019,0.002025485,0.2868946,0.2091079,3.140612,3.228477,3.03,NaN,0,3.40184,20,-2
78411,33959324,0.286918,0.002545297,0.2864108,0.2091079,3.169957,3.211051,2.71,NaN,0,3.414748,28,9
78857,34065270,0.2630475,0.004230052,0.2783714,0.2091079,3.202276,3.20045,2.74,NaN,0,3.404147,35,20
79274,34171076,0.2786885,0.006361008,0.2787467,0.2091079,3.236964,3.202004,2.44,NaN,0,3.438248,41,30
79722,34276612,0.2669336,0.00765413,0.2795364,0.2091079,3.273652,3.207109,2.13,NaN,0,3.443353,46,37
80171,34381569,0.2730049,0.00773406,0.2776251,0.2091079,3.312001,3.211547,2.86,NaN,0,3.479934,51,42
80620,34486973,0.2599441,0.005112559,0.2721716,0.2091079,3.351742,3.222357,3.72,NaN,0,3.490744,55,48
81069,34592092,0.240607,0.002304479,0.2568282,0.2091079,3.392608,3.260927,3.55,NaN,0,3.560518,56,57
81515,34697335,0.2598957,0.001464695,0.2538666,0.2091079,3.434425,3.317104,3.99,NaN,0,3.616695,56,59
81961,34804718,0.2654831,0.0008251965,0.2635867,0.2091079,3.476979,3.390597,4.01,NaN,0,3.718966,53,58
82379,34909877,0.2373473,0.0006578714,0.251316,0.2091079,3.51971,3.469094,4.24,NaN,0,3.797463,49,59
82827,35016909,0.2366461,0.001074359,0.2409764,0.2091079,3.560811,3.556769,4.02,NaN,0,3.913069,42,56
83271,35123317,0.2277855,0.001686811,0.2361757,0.2091079,3.599,3.644656,4.3,NaN,0,4.000957,34,50
83688,35228869,0.230062,0.002094269,0.2294225,0.2091079,3.634306,3.722598,4.17,NaN,0,4.103366,27,44
84138,35333871,0.2337348,0.002052799,0.2314434,0.2091079,3.667198,3.796257,4.21,NaN,0,4.195251,20,36
84589,35439820,0.2302464,0.001891375,0.2312065,0.2091079,3.697531,3.857721,4.34,NaN,0,4.256715,14,28
85038,35546876,0.2316724,0.001583442,0.2342539,0.2091079,3.725276,3.912638,3.87,NaN,0,4.328798,9,21
85452,35652045,0.2343233,0.001815796,0.2339057,0.2091079,3.750857,3.951699,3.77,NaN,0,4.36786,5,15
85901,35758701,0.2465651,0.002572879,0.239536,0.2091079,3.774654,3.977264,3.07,NaN,0,4.409752,4,8
86347,35864622,0.245783,0.002188414,0.24233,0.2091079,3.797037,3.976672,3.12,NaN,0,4.40916,5,5
86795,35969298,0.2572931,0.002025932,0.2511345,0.2091079,3.818915,3.962699,3.07,NaN,0,4.408042,8,3
87210,36073292,0.2570789,0.001890153,0.255745,0.2091079,3.840761,3.936056,2.9,NaN,0,4.381399,13,3
87655,36178263,0.2696119,0.001420736,0.2604393,0.2091079,3.862571,3.901762,2.83,NaN,0,4.357023,19,5
88071,36281794,0.261202,0.001320064,0.2638336,0.2091079,3.884262,3.864084,2.56,NaN,0,4.319345,24,7
88518,36388031,0.2734069,0.001673162,0.2686484,0.2091079,3.90593,3.821468,2.87,NaN,0,4.28165,31,12
88935,36492434,0.2811095,0.0005143285,0.2756378,0.2091079,3.927618,3.783896,2.77,NaN,0,4.244079,37,16
89384,36596298,0.2854841,6.502866999999999e-05,0.2818679,0.2091079,3.949329,3.751711,2.95,NaN,0,4.212985,42,21
89833,36701597,0.2880913,0.0003276467,0.2853538,0.2091079,3.97102,3.722545,3.11,NaN,0,4.183818,47,27
90282,36806837,0.2764576,0.001755595,0.2835083,0.2091079,3.992684,3.706296,3.06,NaN,0,4.168126,51,34
90729,36912295,0.2739865,0.001999706,0.2787995,0.2091079,4.014361,3.706122,3.05,NaN,0,4.167953,53,40
91177,37018471,0.2774079,0.0005188286,0.2799734,0.2091079,4.036023,3.711299,3.35,NaN,0,4.174266,55,44
91594,37123802,0.2710825,2.026558e-05,0.2765164,0.2091079,4.057635,3.728242,3.29,NaN,0,4.191468,55,48
92039,37229109,0.2563358,0.0002635121,0.2686142,0.2091079,4.079109,3.751574,3.14,NaN,0,4.2148,54,52
92488,37335830,0.2474112,0.001077756,0.2548326,0.2091079,4.098718,3.781392,3.36,NaN,0,4.243818,50,53
92936,37441057,0.2505318,0.001661479,0.2511356,0.2091079,4.11499,3.806989,3.65,NaN,0,4.269415,46,50
93386,37545602,0.2478911,0.002515182,0.2520881,0.2091079,4.128438,3.837574,3.76,NaN,0,4.302311,41,47
93833,37652555,0.244678,0.003379941,0.2486739,0.2091079,4.139555,3.869944,3.73,NaN,0,4.334682,37,44
94251,37758175,0.2505586,0.003745735,0.2491184,0.2091079,4.148744,3.903214,3.62,NaN,0,4.367233,33,40
94697,37863876,0.2406091,0.002831489,0.2482613,0.2091079,4.156338,3.933213,4.06,NaN,0,4.397233,29,36
95147,37969691,0.2444444,0.001184225,0.2474399,0.2091079,4.162616,3.96328,3.84,NaN,0,4.424332,25,33
95595,38075089,0.2466013,0.0003778785,0.2457011,0.2091079,4.167804,3.992166,3.72,NaN,0,4.453218,22,30
96040,38178880,0.2466507,0.00044249,0.2445681,0.2091079,4.172093,4.015057,3.91,NaN,0,4.475689,19,25
96453,38283257,0.2486008,0.0005641133,0.2469852,0.2091079,4.175638,4.034624,3.63,NaN,0,4.495256,17,21
96901,38388875,0.2484883,0.000532493,0.250093,0.2091079,4.178568,4.047341,3.93,NaN,0,4.505784,15,19
97313,38492321,0.2566697,0.000362277,0.2522683,0.2091079,4.180991,4.056939,3.63,NaN,0,4.515382,14,16
97761,38596198,0.261228,0.0003799796,0.2547751,0.2091079,4.182993,4.062929,4.04,NaN,0,4.521799,13,14
98208,38701864,0.2569407,0.001223207,0.2564467,0.2091079,4.184648,4.067482,4.05,NaN,0,4.526351,13,12
98621,38808111,0.2555525,0.002454191,0.2584401,0.2091079,4.186015,4.073316,3.96,NaN,0,4.533613,12,11
99070,38913657,0.2565832,0.003696889,0.2585741,0.2091079,4.187147,4.080364,4.1,NaN,0,4.540661,11,10
99519,39021550,0.2499631,0.004024804,0.2588107,0.2091079,4.188081,4.088297,4.09,NaN,0,4.551798,10,10
99966,39127220,0.2580569,0.003190815,0.2589112,0.2091079,4.188853,4.097582,4.08,NaN,0,4.561083,9,9
100382,39230677,0.2534934,0.002703935,0.259268,0.2091079,4.189492,4.106651,4.06,NaN,0,4.572792,8,9
100830,39336233,0.2520014,0.002154917,0.2560219,0.2091079,4.19002,4.11582,3.95,NaN,0,4.58396,7,9
101278,39440652,0.2476643,0.001073658,0.2514092,0.2091079,4.190455,4.123262,4.1,NaN,0,4.591402,7,9
101728,39546312,0.2483603,0.0004065335,0.2510126,0.2091079,4.190816,4.130484,4.06,NaN,0,4.600302,6,8
102175,39649771,0.2448797,0.0001942664,0.2490882,0.2091079,4.191114,4.137421,4.4,NaN,0,4.607239,5,8
102591,39755047,0.2346731,0.0001012981,0.2430425,0.2091079,4.19136,4.147826,4.12,NaN,0,4.619246,4,8
103039,39859464,0.2383506,5.160272e-05,0.2350493,0.2091079,4.191564,4.161059,4.32,NaN,0,4.632479,3,10
103486,39966032,0.2393336,0.0001018494,0.2400156,0.2091079,4.191732,4.174479,4.03,NaN,0,4.647738,1,7
103896,40070592,0.2513171,0.0001190603,0.24502,0.2091079,4.191871,4.183451,4.18,NaN,0,4.65671,0,5
104344,40175684,0.2523904,5.656481e-05,0.2499515,0.2091079,4.191986,4.188117,4.3,NaN,0,4.664535,0,2
104789,40281054,0.2509545,2.619624e-05,0.250377,0.2091079,4.192081,4.192056,4.5,NaN,0,4.668473,0,1
105240,40386852,0.2538917,0.0001540184,0.2526752,0.2091079,4.192159,4.198023,4.42,NaN,0,4.678172,0,0
105653,40491589,0.2525785,0.0004752576,0.253401,0.2091079,4.192224,4.206063,4.22,NaN,0,4.686212,-1,0
106100,40597255,0.2505557,0.0004999339999999999,0.2496995,0.2091079,4.192278,4.212214,4.12,NaN,0,4.697154,-1,0
106549,40703267,0.2524597,0.0004143417,0.2508854,0.2091079,4.192324,4.215625,4.24,NaN,0,4.700565,-2,-1
106995,40810247,0.2532775,0.0004101992,0.2535092,0.2091079,4.192358,4.216347,4.52,NaN,0,4.705818,-2,-2
107442,40915690,0.2544011,0.0004258156,0.254763,0.2091079,4.19239,4.219171,4.56,NaN,0,4.708642,-2,-3
107858,41021098,0.2468717,0.0006493926,0.2525102,0.2091079,4.192413,4.22536,4.34,NaN,0,4.720424,-3,-2
108301,41127218,0.2412511,0.00113833,0.247423,0.2091079,4.192436,4.232163,4.26,NaN,0,4.727227,-3,-1
108749,41233002,0.2415522,0.002004296,0.2437712,0.2091079,4.192452,4.238307,4.51,NaN,0,4.737368,-4,0
109197,41338249,0.2501651,0.003042221,0.2459793,0.2091079,4.192464,4.245406,4.85,NaN,0,4.748145,-5,-2
109642,41442475,0.2454293,0.003271252,0.248682,0.2091079,4.192476,4.254774,4,NaN,0,4.757513,-6,-3
110089,41546789,0.2435331,0.003079936,0.2476344,0.2091079,4.192487,4.261604,4.16,NaN,0,4.76947,-6,-4
110534,41652340,0.2467894,0.002943307,0.2481916,0.2091079,4.192499,4.261757,4.24,NaN,0,4.769623,-6,-5
110952,41758099,0.2496935,0.002475888,0.2518136,0.2091079,4.192511,4.257927,3.95,NaN,0,4.770272,-6,-6
111399,41862664,0.2548763,0.001327664,0.2545379,0.2091079,4.192513,4.248205,4.35,NaN,0,4.76055,-5,-7
111847,41967013,0.258503,0.0007242560000000001,0.2575817,0.2091079,4.192513,4.238426,4.27,NaN,0,4.754166,-4,-7
112292,42071602,0.24274,0.0005091131,0.2526741,0.2091079,4.192513,4.230712,4.11,NaN,0,4.746452,-3,-6
112739,42178031,0.2421647,0.0005927533,0.2435719,0.2091079,4.192513,4.224647,4.03,NaN,0,4.745063,-3,-3
113152,42282290,0.25624,0.000959456,0.2486259,0.2091079,4.192513,4.217763,4.11,NaN,0,4.738179,-2,-4
113601,42388788,0.2545592,0.001156807,0.2542571,0.2091079,4.192513,4.209613,4.13,NaN,0,4.733631,-1,-4
114014,42493606,0.2600694,0.001302391,0.2543707,0.2091079,4.192513,4.202001,4.02,NaN,0,4.726018,0,-4
114458,42598932,0.2588413,0.001255304,0.260291,0.2091079,4.192513,4.192887,3.86,NaN,0,4.720742,0,-4
114905,42704849,0.2548085,0.001057029,0.2591403,0.2091079,4.192513,4.181324,4.36,NaN,0,4.709179,1,-3
115322,42810626,0.2557904,0.000870645,0.2610091,0.2091079,4.192513,4.174233,4.09,NaN,0,4.705926,1,-2
115770,42916698,0.2555922,0.000728637,0.2588559,0.2091079,4.192513,4.169549,4.11,NaN,0,4.701241,2,0
116217,43023137,0.2523926,0.0007349551,0.2558551,0.2091079,4.192513,4.167081,3.92,NaN,0,4.699575,2,0
116630,43127885,0.2484168,0.0007933825,0.2515634,0.2091079,4.192513,4.164495,3.78,NaN,0,4.696989,2,3
117077,43232697,0.2463185,0.000846073,0.2466873,0.2091079,4.192513,4.159947,4.27,NaN,0,4.694149,3,3
117526,43337706,0.253217,0.001085073,0.2521101,0.2091079,4.192513,4.158214,3.91,NaN,0,4.692531,3,3
117970,43440916,0.2638305,0.001327008,0.2580113,0.2091079,4.192513,4.15584,4.13,NaN,0,4.690157,3,2
118417,43545234,0.2604842,0.001168847,0.2595862,0.2091079,4.192513,4.152594,4.07,NaN,0,4.687033,3,1
118830,43650216,0.2563852,0.001080036,0.2594938,0.2091079,4.192513,4.150549,4.33,NaN,0,4.684988,4,1
119279,43755884,0.2585167,0.001093179,0.2608694,0.2091079,4.192513,4.151169,4.51,NaN,0,4.687409,4,2
119725,43861321,0.2588281,0.00105229,0.2595464,0.2091079,4.192513,4.158229,4.6,NaN,0,4.694468,3,3
120170,43965689,0.253918,0.001055658,0.2582379,0.2091079,4.192513,4.170416,4.36,NaN,0,4.706778,2,2
120616,44070315,0.2592016,0.001091987,0.2576113,0.2091079,4.192513,4.183675,4.58,NaN,0,4.720037,0,2
121063,44174012,0.2607706,0.001565546,0.2621355,0.2091079,4.192513,4.197998,4.14,NaN,0,4.733482,0,0
121508,44278851,0.2577593,0.002714425,0.2624959,0.2091079,4.192513,4.207463,4.62,NaN,0,4.742948,-1,0
121957,44384820,0.2459406,0.003097042,0.2592833,0.2091079,4.192513,4.21788,4.51,NaN,0,4.752571,-2,0
122402,44489587,0.2288304,0.002420247,0.2448961,0.2091079,4.192513,4.232789,4.06,NaN,0,4.76748,-4,2
122814,44594004,0.2378845,0.002272636,0.2380582,0.2091079,4.192513,4.243082,4.39,NaN,0,4.775903,-5,2
123260,44698369,0.2410618,0.002375722,0.2395615,0.2091079,4.192513,4.250351,4.48,NaN,0,4.783173,-5,0
123709,44802154,0.2503379,0.002670646,0.246524,0.2091079,4.192513,4.256381,4.23,NaN,0,4.788004,-6,-2
124156,44907145,0.25046,0.002601713,0.2501292,0.2091079,4.192513,4.258937,4.2,NaN,0,4.790561,-6,-4
124572,45012465,0.2512797,0.002339303,0.2505974,0.2091079,4.192513,4.257503,4.34,NaN,0,4.788379,-6,-4
125017,45115805,0.2587325,0.002409607,0.2542416,0.2091079,4.192513,4.253635,4.44,NaN,0,4.784511,-6,-6
125464,45221636,0.2514276,0.002721578,0.2544315,0.2091079,4.192513,4.250634,4.3,NaN,0,4.780671,-5,-6
125882,45326274,0.2526346,0.002554595,0.2539241,0.2091079,4.192513,4.247913,4.32,NaN,0,4.77795,-5,-6
126296,45432673,0.2581633,0.002101123,0.2571008,0.2091079,4.192513,4.244637,4.53,NaN,0,4.775041,-5,-7
126741,45538587,0.2655922,0.002097517,0.2631545,0.2091079,4.192513,4.242902,4.6,NaN,0,4.772832,-5,-8
127185,45643031,0.2566619,0.002119809,0.2639708,0.2091079,4.192513,4.242771,4.58,NaN,0,4.772701,-5,-8
127633,45747818,0.2573203,0.002592742,0.2607903,0.2091079,4.192513,4.245868,4.58,NaN,0,4.775088,-5,-6
128048,45852740,0.2440042,0.002821639,0.2532714,0.2091079,4.192513,4.251738,4.42,NaN,0,4.780959,-5,-5
128499,45959013,0.2489319,0.003059477,0.2513094,0.2091079,4.192513,4.260231,4.46,NaN,0,4.787582,-6,-3
128944,46063914,0.2574344,0.003491998,0.253385,0.2091079,4.192513,4.266644,4.71,NaN,0,4.793996,-7,-4
129391,46170009,0.2450219,0.003469527,0.2535755,0.2091079,4.192513,4.273683,4.63,NaN,0,4.797166,-8,-6
129804,46276056,0.2507781,0.002896458,0.251064,0.2091079,4.192513,4.281435,4.53,NaN,0,4.804918,-8,-6
130254,46381937,0.2386903,0.002081245,0.2461861,0.2091079,4.192513,4.290105,4.84,NaN,0,4.810232,-9,-5
130698,46488638,0.2522505,0.002009749,0.2488607,0.2091079,4.192513,4.301557,4.41,NaN,0,4.821683,-10,-7
131146,46592615,0.2418612,0.001729146,0.2507451,0.2091079,4.192513,4.306591,4.63,NaN,0,4.821369,-11,-8
131557,46697442,0.2479581,0.001328975,0.2505551,0.2091079,4.192513,4.309195,4.32,NaN,0,4.823973,-11,-9
131901,46802332,0.2440202,0.0005689263,0.2457364,0.2091079,4.192513,4.309994,4.74,NaN,0,4.82246,-11,-8
132344,46905724,0.2432576,0.0003583878,0.2433955,0.2091079,4.192513,4.311978,4.54,NaN,0,4.824445,-11,-8
132791,47011087,0.2563255,0.0005563796,0.2476628,0.2091079,4.192513,4.313492,4.27,NaN,0,4.823121,-12,-10
133238,47116722,0.2495635,0.000901103,0.249289,0.2091079,4.192513,4.311894,4.46,NaN,0,4.821523,-11,-11
133653,47222308,0.2582874,0.001539797,0.256168,0.2091079,4.192513,4.305717,4.39,NaN,0,4.810927,-11,-13
134101,47328070,0.2615187,0.001990795,0.2594185,0.2091079,4.192513,4.298584,4.19,NaN,0,4.803795,-10,-13
134545,47435015,0.2534447,0.002001315,0.2569117,0.2091079,4.192513,4.288924,4.16,NaN,0,4.787429,-9,-12
134992,47538911,0.2524456,0.001801759,0.254164,0.2091079,4.192513,4.277503,4.34,NaN,0,4.767715,-8,-11
135435,47644476,0.2577099,0.001588851,0.2559653,0.2091079,4.192513,4.266796,4.83,NaN,0,4.757007,-7,-10
135882,47750816,0.243722,0.001444325,0.2552765,0.2091079,4.192513,4.263715,4.69,NaN,0,4.742872,-7,-8
136295,47854935,0.2469304,0.0009667426,0.2456987,0.2091079,4.192513,4.269115,4.68,NaN,0,4.748272,-7,-5
136743,47959889,0.2512792,0.000949651,0.2475846,0.2093651,4.192513,4.275638,4.46,NaN,0,4.741557,-8,-5
137190,48066020,0.2400883,0.0007577091,0.2450659,0.2097439,4.192513,4.282875,4.71,NaN,0,4.748794,-9,-6
137637,48172026,0.2481334,0.0004131347,0.244881,0.2100898,4.192513,4.290717,4.52,NaN,0,4.744231,-9,-5
138052,48276010,0.242461,0.0001941174,0.2432665,0.2104306,4.192513,4.297305,4.68,NaN,0,4.750819,-10,-6
138497,48381709,0.2479745,0.000311777,0.2466403,0.2107667,4.192513,4.302872,4.62,NaN,0,4.740959,-11,-7
138942,48486322,0.245048,0.0006397367,0.2492717,0.2111437,4.192513,4.309314,4.68,NaN,0,4.747402,-11,-9
139389,48594304,0.2433168,0.001107961,0.2480564,0.2114064,4.192513,4.315837,4.59,NaN,0,4.739734,-12,-9
139834,48702334,0.2484026,0.001834139,0.2490477,0.2114064,4.192513,4.319528,4.48,NaN,0,4.743424,-12,-10
140251,48809020,0.2551638,0.002476752,0.2518831,0.2114064,4.192513,4.320183,4.36,NaN,0,4.728386,-12,-12
140698,48914601,0.2548199,0.002604306,0.2568885,0.2114064,4.192513,4.315489,4.63,NaN,0,4.723692,-12,-13
141145,49020072,0.2519148,0.002319276,0.256405,0.2114064,4.192513,4.310075,4.77,NaN,0,4.70334,-11,-13
141591,49124698,0.2463985,0.002207085,0.2558658,0.2114064,4.192513,4.309736,4.58,NaN,0,4.703001,-11,-13
142005,49231346,0.24907,0.002305046,0.2524731,0.2114064,4.192513,4.31024,4.33,NaN,0,4.689573,-11,-12
142454,49338361,0.2498251,0.002178788,0.2540474,0.2114064,4.192513,4.308915,4.53,NaN,0,4.670884,-11,-11
142900,49444840,0.2405749,0.002055869,0.2468968,0.2114064,4.192513,4.306464,4.47,NaN,0,4.668433,-11,-10
143315,49552782,0.2501556,0.00230515,0.2485884,0.2114064,4.192513,4.304784,4.71,NaN,0,4.649076,-11,-10
143759,49657669,0.2450676,0.002128124,0.2491408,0.2114064,4.192513,4.303288,4.51,NaN,0,4.64758,-11,-9
144209,49764963,0.2399398,0.00143218,0.2453832,0.2114064,4.192513,4.304917,4.85,NaN,0,4.630517,-11,-9
144653,49869643,0.2525428,0.001376331,0.2461818,0.2114064,4.192513,4.309534,4.39,NaN,0,4.635133,-11,-9
145102,49974914,0.2532285,0.001431465,0.2537365,0.2114064,4.192513,4.311293,4.6,NaN,0,4.6173,-11,-11
145545,50079145,0.2536439,0.001308799,0.2514692,0.2114064,4.192513,4.310516,4.78,NaN,0,4.616524,-11,-11
145961,50184456,0.2527895,0.001339972,0.2531273,0.2114064,4.192513,4.311848,4.85,NaN,0,4.599087,-11,-12
146408,50290108,0.2533538,0.001467019,0.2539253,0.2114064,4.192513,4.315494,4.63,NaN,0,4.602733,-12,-11
146825,50394255,0.2528856,0.00156787,0.255391,0.2114064,4.192513,4.318219,4.49,NaN,0,4.584111,-12,-12
147270,50498258,0.2501095,0.001525909,0.2550604,0.2114064,4.192513,4.318247,4.86,NaN,0,4.584139,-12,-12
147716,50604688,0.2496065,0.001535296,0.25001,0.2114064,4.192513,4.321425,4.86,NaN,0,4.568046,-12,-11
148162,50709650,0.2394576,0.001533061,0.2459884,0.2114064,4.192513,4.327143,4.65,NaN,0,4.573763,-13,-10
148576,50814890,0.2416147,0.001588851,0.2399192,0.2114064,4.192513,4.335283,4.45,NaN,0,4.560976,-14,-10
149021,50920608,0.2557865,0.001801312,0.2495544,0.2114064,4.192513,4.338366,4.36,NaN,0,4.564058,-14,-12
149470,51027240,0.2539175,0.001906782,0.2539904,0.2114064,4.192513,4.332902,4.71,NaN,0,4.538415,-14,-14
149917,51133044,0.2614883,0.001972467,0.2594631,0.2114064,4.192513,4.326134,4.51,NaN,0,4.531647,-13,-15
150332,51237893,0.2548313,0.001953304,0.2620281,0.2114064,4.192513,4.320015,4.47,NaN,0,4.505272,-12,-16
150779,51343835,0.2592886,0.001919985,0.260126,0.2114064,4.192513,4.31188,4.78,NaN,0,4.497137,-11,-15
151225,51448915,0.2573412,0.001753181,0.2601556,0.2114064,4.192513,4.306421,4.61,NaN,0,4.472086,-11,-14
151671,51554697,0.2626365,0.001611233,0.2599291,0.2114064,4.192513,4.305207,4.21,NaN,0,4.452134,-11,-13
152117,51660622,0.2559422,0.001377344,0.2611538,0.2114064,4.192513,4.300115,4.49,NaN,0,4.447042,-10,-13
152567,51767621,0.2472926,0.001174971,0.2578449,0.2114064,4.192513,4.293786,4.75,NaN,0,4.419793,-10,-11
153013,51871734,0.253476,0.001126617,0.2511193,0.2114064,4.192513,4.292655,4.54,NaN,0,4.418662,-10,-9
153428,51977872,0.2487026,0.001095161,0.2497317,0.2114064,4.192513,4.293622,4.65,NaN,0,4.397626,-10,-8
153874,52083663,0.2427485,0.0009134859,0.2463034,0.2114781,4.192513,4.297679,4.37,NaN,0,4.401683,-10,-6
154319,52189005,0.2324441,0.001336873,0.2374575,0.2117851,4.192513,4.301887,4.55,NaN,0,4.383048,-10,-4
154767,52293027,0.2671521,0.002240211,0.2468553,0.2118863,4.192513,4.304179,4.31,NaN,0,4.385341,-11,-8
155215,52399056,0.2611813,0.002480745,0.2586115,0.2118863,4.192513,4.30084,4.23,NaN,0,4.359579,-10,-11
155659,52504779,0.2545867,0.002226204,0.2563282,0.2118863,4.192513,4.29237,4.24,NaN,0,4.351109,-9,-10
156074,52610189,0.2509103,0.001954317,0.2584652,0.2118863,4.192513,4.28116,4.4,NaN,0,4.321489,-8,-11
156522,52714303,0.2516571,0.001755536,0.2556427,0.2118863,4.192513,4.270906,4.45,NaN,0,4.311235,-7,-10
156969,52820410,0.2508942,0.001713485,0.2523989,0.2118863,4.192513,4.264446,4.57,NaN,0,4.288044,-7,-7
157382,52926543,0.2461099,0.00164628,0.2503222,0.2118863,4.192513,4.263118,4.77,NaN,0,4.286716,-7,-7
157830,53032008,0.2378743,0.001593366,0.2442004,0.2118863,4.192513,4.265063,4.29,NaN,0,4.2737,-7,-5
158278,53138243,0.2503994,0.001819044,0.2486238,0.2118863,4.192513,4.269711,4.51,NaN,0,4.267308,-7,-5
158724,53243567,0.2400905,0.00158377,0.2465703,0.2118863,4.192513,4.271348,4.5,NaN,0,4.268945,-7,-5
159173,53350606,0.2471386,0.001632616,0.2455592,0.2118863,4.192513,4.274923,4.11,NaN,0,4.262739,-8,-6
159619,53455914,0.263939,0.001925647,0.2541378,0.2118863,4.192513,4.272699,4.29,NaN,0,4.260515,-8,-9
160065,53561084,0.2659116,0.002911031,0.2633645,0.2118863,4.192513,4.265155,4.49,NaN,0,4.245449,-7,-11
160510,53666015,0.2629717,0.005087256,0.2655137,0.2118863,4.192513,4.257501,4.59,NaN,0,4.237794,-6,-9
160956,53773159,0.2613449,0.00734669,0.2677797,0.2118863,4.192513,4.25329,4.22,NaN,0,4.225473,-6,-10
161401,53878064,0.2685806,0.008730084000000001,0.2726098,0.2118863,4.192513,4.247866,4.06,NaN,0,4.220049,-5,-10
161849,53983649,0.2725863,0.009023905,0.2772473,0.2118863,4.192513,4.238904,4.16,NaN,0,4.203809,-4,-10
162262,54088693,0.2693767,0.008838832,0.281879,0.2118863,4.192513,4.226703,4.1,NaN,0,4.191608,-3,-11
162709,54194062,0.2599282,0.007753789,0.2767898,0.2118863,4.192513,4.214755,3.85,NaN,0,4.170108,-2,-7
163155,54298270,0.2433266,0.006268069,0.2640502,0.2118863,4.192513,4.203992,4.02,NaN,0,4.159345,-1,-2
163605,54402809,0.2385374,0.005760118,0.2480902,0.2118863,4.192513,4.195363,3.9,NaN,0,4.140912,0,0
164017,54507173,0.2565005,0.006485552,0.2552095,0.2118863,4.192513,4.188137,4.83,NaN,0,4.133686,0,0
164465,54613685,0.2532505,0.006677389,0.2583145,0.2118863,4.192513,4.18705,4.47,NaN,0,4.122353,0,0
164880,54717914,0.2486335,0.006740972,0.2571869,0.2118863,4.192513,4.193721,4.4,NaN,0,4.129024,0,0
165327,54822360,0.246965,0.006518677,0.2544936,0.2118863,4.192513,4.202533,4.29,NaN,0,4.128078,-1,2
165773,54928908,0.2516813,0.006475866,0.2553848,0.2118863,4.192513,4.210736,3.93,NaN,0,4.136281,-1,1
166220,55035741,0.2177057,0.004788429,0.2411141,0.2118863,4.192513,4.215444,4.41,NaN,0,4.134077,-2,3
166635,55141319,0.2242176,0.004653543,0.2329604,0.2118863,4.192513,4.222195,4.04,NaN,0,4.137417,-2,5
167083,55247936,0.2501934,0.00562042,0.2415427,0.2118863,4.192513,4.225847,4.08,NaN,0,4.141069,-3,1
167531,55353861,0.2478288,0.005696118,0.2478999,0.2118863,4.192513,4.223929,4.32,NaN,0,4.137671,-3,-1
167978,55459623,0.2381032,0.005411997,0.2480893,0.2118863,4.192513,4.220999,4.5,NaN,0,4.134741,-2,-2
168426,55565939,0.2297007,0.004774377,0.2392811,0.2118863,4.192513,4.223501,4.44,NaN,0,4.138792,-3,0
168839,55671718,0.2283311,0.004584879,0.2356968,0.2118863,4.192513,4.228889,4.72,NaN,0,4.144179,-3,0
169289,55777870,0.2259989,0.004209131,0.2282229,0.2118863,4.192513,4.239281,4.26,NaN,0,4.159317,-4,1
169734,55881699,0.2293463,0.0042032,0.2307362,0.2118863,4.192513,4.248939,5.21,NaN,0,4.168975,-5,0
170181,55985822,0.2562484,0.004753768,0.2438132,0.2118863,4.192513,4.262965,4.45,NaN,0,4.188518,-7,-4
170625,56090712,0.2477623,0.004439771,0.2525355,0.2118863,4.192513,4.273211,3.94,NaN,0,4.198763,-8,-7
171071,56194247,0.2338578,0.004219875,0.2429528,0.2118863,4.192513,4.275783,4.28,NaN,0,4.208285,-8,-7
171517,56298187,0.2363587,0.00461489,0.2432551,0.2118863,4.192513,4.2728,4.32,NaN,0,4.205303,-8,-7
171964,56403771,0.2439458,0.005263478,0.244496,0.2118863,4.192513,4.269005,3.69,NaN,0,4.209076,-7,-8
172412,56509299,0.2338067,0.005157396,0.2453215,0.2118863,4.192513,4.259566,3.37,NaN,0,4.199637,-6,-7
172858,56614288,0.2330049,0.004291356,0.2440092,0.2118863,4.192513,4.2384,3.51,NaN,0,4.184041,-4,-7
173275,56719232,0.2466039,0.00306657,0.2454153,0.2118863,4.192513,4.211461,3.65,NaN,0,4.157101,-1,-6
173722,56823704,0.2446395,0.002398804,0.2473512,0.2118863,4.192513,4.182458,3.63,NaN,0,4.132768,1,-4
174166,56927832,0.252748,0.002198696,0.251192,0.2118863,4.192513,4.153556,3.64,NaN,0,4.103866,3,-4
174613,57031309,0.2342317,0.000656873,0.2492271,0.2119245,4.192513,4.129892,3.75,NaN,0,4.083117,6,0
175059,57135921,0.2250875,2.755225e-05,0.2386756,0.2122436,4.192513,4.112659,4.88,NaN,0,4.069408,7,5
175507,57240656,0.2229547,8.255242999999999e-05,0.2278226,0.2124534,4.192513,4.112698,4.71,NaN,0,4.069447,7,8
175955,57345725,0.2211197,0.0004001856,0.2209623,0.2125683,4.192513,4.128867,4.39,NaN,0,4.089736,6,12
176400,57451931,0.2252144,0.0007210225,0.2204101,0.2126479,4.192513,4.152461,4.96,NaN,0,4.113329,4,12
176818,57557555,0.2393743,0.0005972832,0.2336008,0.2127823,4.192513,4.180596,5.56,NaN,0,4.142716,1,7
177264,57662593,0.2310106,0.0003824234,0.2373392,0.2130279,4.192513,4.215704,5.97,NaN,0,4.177824,-2,5
177713,57767761,0.2352088,0.0002500266,0.2320803,0.2132372,4.192513,4.26654,5.79,NaN,0,4.228477,-7,3
178155,57872584,0.2235738,0.0002188683,0.2294369,0.2134007,4.192513,4.320741,6.21,NaN,0,4.282678,-12,0
178570,57976297,0.2205689,0.0001587421,0.22566,0.2135449,4.192513,4.383214,5.8,NaN,0,4.343931,-19,-4
179015,58082131,0.2234916,3.631413e-05,0.2230576,0.2136583,4.192513,4.445039,4.52,NaN,0,4.405755,-25,-9
179463,58187248,0.2349119,2.321601e-05,0.2322005,0.2137867,4.192513,4.485204,4.96,NaN,0,4.441801,-29,-15
179908,58292734,0.2304494,1.980364e-05,0.2328236,0.2139783,4.192513,4.497179,4.75,NaN,0,4.453775,-30,-21
180319,58398351,0.234123,1.308322e-05,0.2338572,0.2141708,4.192513,4.505673,4.8,NaN,0,4.459676,-31,-26
180765,58503062,0.2592676,1.570582e-05,0.2427106,0.2144033,4.192513,4.499825,4.73,NaN,0,4.453827,-30,-30
181214,58606902,0.2491607,8.450449e-05,0.2525811,0.2147533,4.192513,4.485473,4.55,NaN,0,4.432472,-29,-33
181658,58712608,0.2722765,0.0001421869,0.2576389,0.2151369,4.192513,4.46606,4.71,NaN,0,4.413059,-27,-33
182105,58820901,0.2619416,0.0001198649,0.2622997,0.2155973,4.192513,4.441125,4.8,NaN,0,4.381013,-24,-34
182521,58925264,0.254421,4.804134e-05,0.2563288,0.2159963,4.192513,4.419101,4.55,NaN,0,4.358989,-22,-30
182965,59031068,0.2647313,8.749962e-05,0.2608313,0.2164136,4.192513,4.399889,4.86,NaN,0,4.333178,-20,-28
183380,59137069,0.2456754,0.0001289248,0.2579597,0.2168564,4.192513,4.384217,4.9,NaN,0,4.317506,-19,-25
183828,59244258,0.2597365,0.0001300871,0.2551165,0.2172296,4.192513,4.375154,4.67,NaN,0,4.300577,-18,-21
184274,59348466,0.2441358,8.97795e-05,0.2553267,0.2176175,4.192513,4.367868,4.46,NaN,0,4.286676,-17,-20
184721,59453147,0.2442164,7.115304e-05,0.2459208,0.2179395,4.192513,4.360897,4.12,NaN,0,4.279705,-16,-16
185136,59558112,0.2431878,5.424023e-05,0.2454211,0.2181904,4.192513,4.351378,4.46,NaN,0,4.265944,-15,-14
185585,59662694,0.2374243,7.240474e-05,0.2445841,0.2184558,4.192513,4.339929,4.33,NaN,0,4.254495,-14,-14
186033,59768788,0.2473665,0.0001333803,0.2451032,0.218714,4.192513,4.328408,4.56,NaN,0,4.23806,-13,-13
186478,59874913,0.2553835,0.0003460646,0.2493002,0.2189946,4.192513,4.317895,4.24,NaN,0,4.227548,-12,-13
186925,59981049,0.2568561,0.0004321039,0.2527548,0.2193089,4.192513,4.30632,4.6,NaN,0,4.20935,-11,-13
187369,60085356,0.2433634,0.0002793521,0.2502686,0.2196348,4.192513,4.296989,4,NaN,0,4.20002,-10,-11
187786,60191764,0.2527344,0.0002615452,0.2480018,0.2198925,4.192513,4.286978,4.09,NaN,0,4.184675,-9,-10
188231,60297183,0.2464589,0.0002437383,0.2471233,0.2201711,4.192513,4.273852,4.04,NaN,0,4.17155,-8,-9
188679,60403780,0.2562439,0.0002315342,0.249503,0.2204597,4.192513,4.259704,3.69,NaN,0,4.151221,-6,-8
189126,60508784,0.2424043,0.0002161264,0.2507131,0.2207563,4.192513,4.242766,3.8,NaN,0,4.134284,-5,-6
189539,60614296,0.2436818,0.0001774877,0.2482146,0.2210372,4.192513,4.221416,3.51,NaN,0,4.108951,-2,-4
189989,60721849,0.2512779,0.0003221929,0.2481751,0.2213035,4.192513,4.199951,3.15,NaN,0,4.087486,0,-4
190406,60827739,0.2586791,0.0008554161,0.2499113,0.2215826,4.192513,4.172816,3.63,NaN,0,4.055094,1,-3
190853,60933708,0.2529785,0.001697242,0.254348,0.2217716,4.192513,4.140444,3.08,NaN,0,4.015872,5,-1
191298,61040881,0.2525946,0.002509058,0.2560077,0.2217716,4.192513,4.104991,3.25,NaN,0,3.980418,8,0
191712,61145880,0.2591805,0.003048778,0.2587673,0.2217716,4.192513,4.075792,3.52,NaN,0,3.947916,11,3
192156,61251190,0.2548823,0.003424436,0.2587525,0.2217716,4.192513,4.049835,3.3,NaN,0,3.921959,14,6
192603,61356024,0.2572515,0.003770858,0.257479,0.2217716,4.192513,4.029781,3.21,NaN,0,3.899883,16,9
193049,61462718,0.2368878,0.003738165,0.2554021,0.2217716,4.192297,4.006033,3.37,NaN,0,3.876135,17,11
193496,61567364,0.2323079,0.003703967,0.2404646,0.2217716,4.189537,3.988976,3.24,NaN,0,3.858055,14,12
193942,61671881,0.2316381,0.003835335,0.2365679,0.2217716,4.181752,3.972898,3.51,NaN,0,3.841977,9,9
194358,61778598,0.2273681,0.003885135,0.2365285,0.2217716,4.168232,3.949995,3.12,NaN,0,3.818739,4,4
194772,61882046,0.2283036,0.003721669,0.2279312,0.2217716,4.147426,3.926478,3,NaN,0,3.795222,-4,-1
195219,61987096,0.2277051,0.003434464,0.2303678,0.2217716,4.118819,3.88811,2.98,NaN,0,3.75989,-10,-10
195664,62092544,0.228575,0.002709731,0.2320965,0.2217716,4.083894,3.843055,3.49,NaN,0,3.714836,-15,-15
196049,62196442,0.2368639,0.00169763,0.2301544,0.2217716,4.043618,3.794118,2.76,NaN,0,3.669019,-19,-20
196494,62301925,0.2274639,0.0006736964,0.2333063,0.2217716,3.998942,3.750591,2.94,NaN,0,3.625492,-24,-24
196940,62407730,0.2294505,0.000366956,0.2342847,0.2217716,3.950501,3.705952,3.11,NaN,0,3.586926,-28,-28
197387,62514121,0.2423667,0.000318706,0.2376466,0.2217716,3.898958,3.662067,2.82,NaN,0,3.543041,-31,-32
197836,62618658,0.2444976,0.0003323257,0.2408696,0.2217716,3.844937,3.616084,2.79,NaN,0,3.501956,-35,-35
198245,62723262,0.2478691,0.0003744662,0.2442901,0.2217716,3.788836,3.567897,2.5,NaN,0,3.453769,-37,-39
198694,62829826,0.2503149,0.0003979802,0.2472277,0.2217716,3.731116,3.518291,2.84,NaN,0,3.408642,-40,-42
199138,62935701,0.2450133,0.000381425,0.2502504,0.2217716,3.671983,3.466066,2.74,NaN,0,3.358773,-42,-44
199584,63041655,0.2486403,0.0003167391,0.2520688,0.2217716,3.611706,3.412066,2.82,NaN,0,3.304775,-44,-45
200033,63146558,0.2469688,7.772445999999999e-05,0.2516351,0.2217716,3.550508,3.357238,2.7,NaN,0,3.252227,-45,-47
200445,63250692,0.246657,4.142523e-06,0.2479238,0.2217716,3.488566,3.302822,2.76,NaN,0,3.197811,-47,-47
200860,63355034,0.241224,1.113117e-05,0.2431236,0.2217716,3.42592,3.246884,2.19,NaN,0,3.145429,-48,-47
201306,63459684,0.2412457,6.131828e-05,0.2394587,0.2217716,3.362612,3.191871,2.43,NaN,0,3.090415,-49,-47
201753,63564595,0.2279793,0.0001076758,0.2352112,0.2217716,3.29892,3.136978,2.06,NaN,0,3.034843,-51,-47
202168,63669755,0.2370827,0.0002107024,0.2338159,0.2217716,3.234834,3.080885,1.93,NaN,0,2.978751,-52,-47
202616,63778212,0.2307858,0.0003030449,0.2304796,0.2217716,3.170413,3.022529,1.55,NaN,0,2.918288,-53,-48
203031,63880838,0.2511978,0.000542134,0.2363858,0.2217716,3.105644,2.964643,1.52,NaN,0,2.860403,-54,-51
203478,63986241,0.2440774,0.0006137043,0.2443895,0.2217716,3.040611,2.902076,1.54,NaN,0,2.799529,-54,-53
203922,64089836,0.2565452,0.0005355477,0.2457213,0.2217716,2.975355,2.839098,1.87,NaN,0,2.736552,-55,-56
204372,64195263,0.2355113,0.0003858954,0.2479852,0.2217716,2.909967,2.771527,2.06,NaN,0,2.669652,-54,-56
204784,64300112,0.2367619,0.0002932996,0.2398812,0.2217716,2.844502,2.705552,1.64,NaN,0,2.603677,-55,-55
205231,64405158,0.2382069,0.000338316,0.2407115,0.2217716,2.778918,2.641011,1.7,NaN,0,2.540494,-55,-54
205675,64509029,0.2337792,0.0003114343,0.2404653,0.2217716,2.713246,2.577402,1.81,NaN,0,2.476884,-55,-54
206124,64613792,0.2396794,0.0002820045,0.2399376,0.2217716,2.647499,2.511897,1.68,NaN,0,2.412547,-55,-55
206569,64719012,0.2431903,0.0003151298,0.2404461,0.2217716,2.581629,2.445514,2.06,NaN,0,2.346164,-55,-55
206984,64822920,0.2408056,0.0004095286,0.2384074,0.2217716,2.515667,2.379629,1.61,NaN,0,2.282812,-55,-55
207428,64926370,0.2403149,0.0004475862,0.2403371,0.2217716,2.449705,2.315187,1.45,NaN,0,2.21837,-55,-56
207869,65030258,0.241341,0.0004689544,0.2424998,0.2217716,2.385487,2.248344,1.72,NaN,0,2.152297,-55,-55
208317,65135090,0.2524745,0.0004835427,0.2505564,0.2217716,2.319575,2.179212,1.52,NaN,0,2.083409,-55,-57
208759,65240653,0.2433512,0.0005522072,0.248713,0.2217716,2.253644,2.109484,1.4,NaN,0,2.013682,-54,-57
209206,65344273,0.2426182,0.0004961342,0.2456652,0.2217716,2.187792,2.041636,1.4,NaN,0,1.945834,-54,-55
209616,65450874,0.2456645,0.0004348308,0.2450773,0.2217716,2.121945,1.973382,1.18,NaN,0,1.87758,-54,-55
210061,65556543,0.2413175,0.0004423559,0.246969,0.2217716,2.057942,1.906264,1.15,NaN,0,1.811904,-54,-55
210509,65661310,0.2457303,0.0004294664,0.2446733,0.2217716,1.992192,1.838737,1.27,NaN,0,1.744377,-53,-54
210954,65765714,0.2483775,0.000405699,0.2434408,0.2217716,1.928143,1.772928,0.98,NaN,0,1.678148,-53,-54
211394,65869175,0.2459292,0.0003151,0.2463297,0.2217716,1.862304,1.706239,1.02,NaN,0,1.611459,-53,-54
211841,65973907,0.2539561,0.0001787543,0.2467491,0.2217716,1.798136,1.638229,1.18,NaN,0,1.542778,-53,-54
212283,66077748,0.2457751,0.0001024306,0.2459338,0.2217716,1.732233,1.573029,1,NaN,0,1.477578,-53,-53
212694,66182589,0.2694312,0.0001162887,0.2563388,0.2217716,1.6711,1.506512,0.75,NaN,0,1.407849,-49,-51
213137,66287384,0.2660731,9.220839e-05,0.269133,0.2217716,1.611395,1.443136,0.8,NaN,0,1.344473,-42,-49
213582,66391094,0.2628148,6.681680999999999e-05,0.2652919,0.2217716,1.558514,1.386397,0.67,NaN,0,1.278205,-37,-42
214028,66494449,0.2628908,7.402897e-05,0.2622443,0.2217716,1.508692,1.335838,0.6,NaN,0,1.21566,-33,-36
214440,66598832,0.2582799,0.0001113117,0.2621008,0.2217716,1.465092,1.280555,0.79,NaN,0,1.152183,-28,-31
214888,66702796,0.2587004,0.0002054274,0.2583715,0.2217716,1.422124,1.228013,0.8,NaN,0,1.092897,-24,-26
215330,66807067,0.2447754,0.0002062172,0.2550026,0.2217716,1.382881,1.182857,0.61,NaN,0,1.043094,-21,-22
215775,66909875,0.2320813,0.000186637,0.2408807,0.2217716,1.343555,1.14358,0.53,NaN,0,1.000521,-22,-19
216217,67015579,0.2348921,0.0002470911,0.2342466,0.2217716,1.302271,1.108082,0.53,NaN,0,0.9624902,-25,-20
216664,67119940,0.2406299,0.0004046857,0.2371638,0.2217716,1.258838,1.070404,0.24,NaN,0,0.9224552,-27,-23
217105,67226474,0.241482,0.0005424321,0.2396735,0.2217716,1.21481,1.030588,0.6899999999999999,NaN,0,0.8811967000000001,-30,-26
217551,67334053,0.237994,0.0006080717,0.2415878,0.2217716,1.168208,0.9892847,0.42,NaN,0,0.8384516,-31,-28
217992,67439060,0.2383672,0.0005818605,0.2374771,0.2217716,1.120386,0.9445431,0.32,NaN,0,0.7915967,-33,-30
218404,67545861,0.2336573,0.0004605651,0.2345411,0.2217716,1.070202,0.8996676,0.65,NaN,0,0.7462253,-34,-31
218852,67649656,0.2239848,0.000389412,0.2329159,0.2217716,1.020429,0.8559309000000001,0.05,NaN,0,0.7018018,-36,-32
219293,67755791,0.2363611,0.0004605204,0.2316964,0.2217716,0.9726154,0.8099394,0.25,NaN,0,0.6561461,-37,-33
219739,67858693,0.225643,0.0004431605,0.229912,0.2217716,0.9216441,0.761981,0.16,NaN,0,0.6085309,-37,-34
220148,67963064,0.2173713,0.0004431307,0.223342,0.2217716,0.8728854,0.7156242,0.22,NaN,0,0.5625097999999999,-38,-33
220596,68066488,0.2306831,0.0005397946,0.2269484,0.2217716,0.8210965,0.6734683,0.21,NaN,0,0.5213763,-39,-35
221037,68172071,0.2366177,0.0005750805,0.2316432,0.2217716,0.7716727,0.6283609,0.02,NaN,0,0.477276,-40,-38
221482,68274604,0.2286288,0.0005277842,0.233967,0.2217716,0.7192215,0.5835215,0.01,NaN,0,0.4326044,-41,-40
221923,68378893,0.2207271,0.0006162673,0.2270904,0.2217716,0.6692559,0.5336598,0.07000000000000001,NaN,0,0.3842686,-42,-39
222368,68483086,0.1987466,0.0006496459,0.2192809,0.2217716,0.6162534,0.4814109,0.06,NaN,0,0.332859,-42,-37
222812,68587214,-0.09799723,-0.0001435727,0.07442034,0.2217716,0.5645279,0.4529015,0.24,NaN,0,0.3043496,-44,0
223224,68692460,0.2016958,0.0002970397,0.1280238,0.2217716,0.5112666,0.4457876,-0.12,NaN,0,0.2975714,-49,-18
223665,68797899,-0.09538029000000001,-0.0001075938,0.03749779,0.2217716,0.460639,0.4373122,-0.2,NaN,0,0.289775,-54,2
224110,68901691,-0.04904382,-3.540143e-05,0.03521029,0.2217716,0.4057356,0.4349329,0.13,NaN,0,0.289509,-62,-6
224551,69007906,-0.06699549,-4.915148e-05,0,0.2217716,0.3874754,0.4316359,0.3,NaN,0,0.2870513,-66,-5
225001,69112781,-0.09329663000000001,-6.9879e-05,0,0.2217716,0.3874754,0.428997,-0.07000000000000001,NaN,0,0.2855949,-66,-4
225442,69218297,-0.1248995,-9.463727e-05,0,0.2217716,0.3874754,0.4250386,0.05,NaN,0,0.2837422,-65,-4
225885,69322324,-0.1508733,-9.690225000000001e-05,0,0.2217716,0.3874754,0.4194208,0.4,NaN,0,0.2781245,-65,-5
226326,69428117,-0.158218,-0.000120014,0,0.2217716,0.3874754,0.4184809,0.45,NaN,0,0.2772685,-65,-4
226739,69532191,-0.1476078,-9.10908e-05,0,0.2217716,0.3874754,0.4166095,0.23,NaN,0,0.2762439,-64,-3
227182,69636583,-0.1524561,-0.0001094639,0,0.2217716,0.3874754,0.4143479,0.38,NaN,0,0.2741502,-64,-4
227623,69740914,-0.1523701,-0.0001071543,0,0.2217716,0.3874754,0.4111592,0.68,NaN,0,0.2711369,-64,-4
228068,69844623,-0.1489071,-9.603798e-05,0,0.2217716,0.3874754,0.4103002,0.24,NaN,0,0.2702779,-64,-4
228481,69952160,-0.1422992,-9.706616000000001e-05,0,0.2217716,0.3874754,0.4090051,0.16,NaN,0,0.2692346,-64,-3
228928,70055554,-0.1459195,-9.414554e-05,0,0.2217716,0.3874754,0.4062764,0.58,NaN,0,0.2666661,-63,-4
229372,70160742,-0.0846756,-5.567074e-05,0,0.2217716,0.4035078,0.4035078,0.41,NaN,0,0.2638975,-3,-3
229817,70264926,-0.04697783,-3.288314e-05,0,0.2217716,0.4025221,0.4025221,0.35,NaN,0,0.2646056,-4,-4
230228,70369208,-0.02688415,-1.681596e-05,0,0.2217716,0.4006173,0.4006173,0.38,NaN,0,0.2627008,-3,-3
230673,70472540,-0.01491548,-1.042988e-05,0,0.2217716,0.398757,0.398757,-0.15,NaN,0,0.2608405,-4,-4
231117,70577283,-0.008404642,-5.589798e-06,0,0.2217716,0.3944213,0.3944213,-0.42,NaN,0,0.2565048,-3,-3
231561,70681614,-0.004663199,-2.866611e-06,0,0.2217716,0.3877981,0.3877981,-0.49,NaN,0,0.2498815,-5,-5
231971,70786773,-0.002668902,-1.753448e-06,0,0.2217716,0.3785101,0.3785101,-0.54,NaN,0,0.2404258,-4,-4
232418,70890107,-0.001480997,-9.022187e-07,0,0.2217716,0.3673615,0.3673615,-0.42,NaN,0,0.2292772,-5,-5
232861,70995016,-0.0008219332,-5.311449e-07,0,0.2217716,0.3562097,0.3562097,-0.05,NaN,0,0.2181253,-4,-4
233308,71097562,-0.0004563034,-2.795423e-07,0,0.2217716,0.3444888,0.3444888,-0.18,NaN,0,0.2064044,-4,-4
233722,71204601,-0.0002574176,-1.614681e-07,0,0.2217716,0.3339092,0.3339092,-0.47,NaN,0,0.1958249,-5,-5
234165,71307897,-0.0001430959,-8.991628000000001e-08,0,0.2217716,0.3226484,0.3226484,-0.57,NaN,0,0.1847318,-5,-5
234606,71413304,-7.972121000000001e-05,-4.820322e-08,0,0.2217716,0.3123916,0.3123916,-0.24,NaN,0,0.174475,-4,-4
235051,71517323,-4.453957e-05,-2.804518e-08,0,0.2217716,0.3016314,0.3016314,-0.03,NaN,0,0.1645617,-4,-4
235495,71624854,-2.533197e-05,-1.50867e-08,0,0.2217716,0.2916372,0.2916372,-0.29,NaN,0,0.1545675,-5,-5
235908,71729019,-1.437962e-05,-8.605639e-09,0,0.2217716,0.2809891,0.2809891,-0.25,NaN,0,0.1439193,-4,-4
236349,71833905,-8.270143999999999e-06,-5.09317e-09,0,0.2217716,0.2679985,0.2679985,-0.09,NaN,0,0.1309288,-5,-5
236797,71939124,-4.842877e-06,-2.928118e-09,0,0.2217716,0.2551123,0.2551123,-0.46,NaN,0,0.1197287,-5,-5
237241,72043868,-3.054738e-06,-1.773742e-09,0,0.2217716,0.2461591,0.2461591,0.35,NaN,0,0.1107755,-5,-5
237687,72148244,-2.145767e-06,-1.232365e-09,0,0.2217716,0.2369727,0.2369727,-0.18,NaN,0,0.09990303,-5,-5
238139,72251415,-1.475215e-06,-8.353709e-10,0,0.2217716,0.2235854,0.2235854,0.17,NaN,0,0.08651569000000001,-5,-5
238589,72355071,-1.475215e-06,-8.402594e-10,0,0.2217716,0.2080504,0.2080504,0.47,NaN,0,0.07098069999999999,-5,-5
239004,72458978,-1.475215e-06,-8.279812e-10,0,0.2217716,0.1999784,0.1999784,0.27,NaN,0,0.06290875,-5,-5
239454,72564269,-1.475215e-06,-8.647021e-10,0,0.2217716,0.1958231,0.1958231,0.08,NaN,0,0.05875346,-5,-5
239904,72666474,-1.475215e-06,-8.409415e-10,0,0.2217716,0.1908215,0.1908215,0.15,NaN,0,0.0539196,-5,-5
240350,72772601,-1.475215e-06,-8.388952e-10,0,0.2217716,0.1859287,0.1859287,-0.14,NaN,0,0.05071293,-5,-5
240800,72873608,-1.475215e-06,-8.049028e-10,0,0.2217716,0.1776378,0.1776378,0.05,NaN,0,0.04242207,-5,-5
241246,72977404,-1.475215e-06,-7.785275e-10,0,0.2217716,0.1682522,0.1682522,0.1,NaN,0,0.03379942,-5,-5
241698,73081047,-1.475215e-06,-8.139978e-10,0,0.2217716,0.1590879,0.1590879,0.4,NaN,0,0.02463505,-5,-5
242145,73185616,-1.475215e-06,-8.00128e-10,0,0.2217716,0.1545957,0.1545957,0.52,NaN,0,0.02031073,-5,-5
242598,73288050,-1.475215e-06,-7.955805e-10,0,0.2217716,0.1545924,0.1545924,0.38,NaN,0,0.02030741,-5,-5
243045,73395066,-1.475215e-06,-7.848939e-10,0,0.2217716,0.1589298,0.1589298,0.58,NaN,0,0.02464482,-5,-5
243492,73498860,-1.475215e-06,-7.878498e-10,0,0.2217716,0.1658729,0.1658729,0.87,NaN,0,0.03175582,-4,-4
243942,73603938,-1.475215e-06,-7.739800000000001e-10,0,0.2217716,0.1799635,0.1799635,0.79,NaN,0,0.04584636,-4,-4
244393,73708667,-1.475215e-06,-7.697736e-10,0,0.2217716,0.1961812,0.1961812,0.58,NaN,0,0.06206404,-4,-4
244809,73813859,-1.475215e-06,-7.864855e-10,0,0.2217716,0.2146877,0.2146877,0.45,NaN,0,0.08057062,-4,-4
245261,73917921,-1.475215e-06,-7.864855e-10,0,0.2217716,0.2282378,0.2282378,0.13,NaN,0,0.09496752999999999,-4,-4
245710,74021825,-1.475215e-06,-7.631797e-10,0,0.2217716,0.2363036,0.2363036,0.26,NaN,0,0.1030334,-3,-3
246165,74126349,-1.475215e-06,-8.016059e-10,0,0.2217716,0.2397558,0.2397558,0.16,NaN,0,0.1064855,-3,-3
246609,74231353,-1.475215e-06,-7.624976e-10,0,0.2217716,0.2400477,0.2400477,0.55,NaN,0,0.1067774,-3,-3
247063,74337811,-1.475215e-06,-7.631797e-10,0,0.2217716,0.2421669,0.2421669,0.21,NaN,0,0.1088966,-3,-3
247479,74442666,-1.475215e-06,-7.829613e-10,0,0.2217716,0.243099,0.243099,-0.36,NaN,0,0.1099966,-3,-3
247935,74548263,-1.475215e-06,-7.324843e-10,0,0.2217716,0.2369565,0.2369565,-0.14,NaN,0,0.1055401,-3,-3
248383,74654600,-1.475215e-06,-6.068603e-10,0,0.2217716,0.2249617,0.2249617,0.2,NaN,0,0.09455243000000001,-3,-3
248830,74758687,-1.475215e-06,-7.431709e-10,0,0.2217716,0.2150466,0.2150466,0.68,NaN,0,0.08463734000000001,-2,-2
249281,74863925,-1.475215e-06,-7.282779e-10,0,0.2217716,0.2100663,0.2100663,0.73,NaN,0,0.07948917,-2,-2
249728,74969840,-1.475215e-06,-7.21343e-10,0,0.2217716,0.212394,0.212394,0.57,NaN,0,0.08181691000000001,-2,-2
250183,75073012,-1.475215e-06,-8.594725e-10,0,0.2217716,0.2183032,0.2183032,0.83,NaN,0,0.08755825,-2,-2
250630,75177627,-1.475215e-06,-7.79437e-10,0,0.2217716,0.2300104,0.2300104,0.84,NaN,0,0.09926546999999999,-2,-2
251080,75279583,-1.475215e-06,-9.014229e-10,0,0.2217716,0.2450215,0.2450215,1.09,NaN,0,0.1142766,-2,-2
251530,75385124,-1.475215e-06,-8.518555e-10,0,0.2217716,0.2654477,0.2654477,1.02,NaN,0,0.1347028,-2,-2
251949,75487428,-1.475215e-06,-9.438281000000001e-10,0,0.2217716,0.2860667,0.2860667,0.75,NaN,0,0.1553218,-1,-1
252396,75594238,-1.475215e-06,-9.573568999999999e-10,0,0.2217716,0.3087366,0.3087366,0.8100000000000001,NaN,0,0.1779917,-1,-1
252846,75696121,-1.475215e-06,-9.065388e-10,0,0.2217716,0.3276159,0.3276159,0.49,NaN,0,0.196871,-1,-1
253294,75800738,-1.475215e-06,-9.821406000000001e-10,0,0.2217716,0.3440918,0.3440918,1.08,NaN,0,0.2133469,-1,-1
253745,75904117,-1.475215e-06,-7.662493e-10,0,0.2217716,0.3601029,0.3601029,1.05,NaN,0,0.2291901,-1,-1
