LineNo,TimeUS,ThI,ABst,ThO,ThH,DAlt,Alt,BAlt,DSAlt,SAlt,TAlt,DCRt,CRt
1911,1.549e+07,-1.3411e-07,-7.5886e-12,0,0.20911,-0.090936,-0.090936,-0.23,NaN,0,-88.672,47,47
2324,1.559e+07,-1.3411e-07,-7.617e-12,0,0.20911,0.058386,0.058386,-0.22,NaN,0,-88.658,47,47
2738,1.5692e+07,-1.3411e-07,-7.4749e-12,0,0.20911,0.1663,0.1663,0.09,NaN,0,-88.342,47,47
3152,1.5792e+07,-1.3411e-07,-7.5602e-12,0,0.20911,0.24909,0.24909,-0.09,NaN,0,-88.538,47,47
3531,1.5893e+07,-1.3411e-07,-7.5602e-12,0,0.20911,0.31591,0.31591,-0.01,NaN,0,-88.458,47,47
3939,1.5994e+07,-1.3411e-07,-7.5318e-12,0,0.20911,0.36768,0.36768,0.22,NaN,0,-88.222,47,47
4352,1.6095e+07,-1.3411e-07,-7.4039e-12,0,0.20911,0.4138,0.4138,0.35,NaN,0,-88.089,47,47
4733,1.6195e+07,-1.3411e-07,-7.3328e-12,0,0.20911,0.45901,0.45901,0.19,NaN,0,-88.251,47,47
5140,1.6295e+07,-1.3411e-07,-7.2191e-12,0,0.20911,0.50113,0.50113,0.11,NaN,0,-88.328,47,47
5548,1.6395e+07,-1.3411e-07,-7.1907e-12,0,0.20911,0.53903,0.53903,0,NaN,0,-88.45,46,46
5956,1.6496e+07,-1.3411e-07,-7.2191e-12,0,0.20911,0.57165,0.57165,0.22,NaN,0,-88.224,46,46
6368,1.6597e+07,-1.3411e-07,-7.1481e-12,0,0.20911,0.6015,0.6015,0.11,NaN,0,-88.335,46,46
6779,1.6698e+07,-1.3411e-07,-7.2475e-12,0,0.20911,0.62833,0.62833,-0.15,NaN,0,-88.612,45,45
7190,1.6799e+07,-1.3411e-07,-7.0202e-12,0,0.20911,0.65101,0.65101,-0.31,NaN,0,-88.773,44,44
7599,1.6899e+07,-1.3411e-07,-6.9207e-12,0,0.20911,0.66805,0.66805,-0.42,NaN,0,-88.886,44,44
7981,1.7e+07,-1.3411e-07,-7.077e-12,0,0.20911,0.67923,0.67923,-0.31,NaN,0,-88.77,43,43
8390,1.71e+07,-1.3411e-07,-7.1054e-12,0,0.20911,0.6879,0.6879,0.14,NaN,0,-88.312,42,42
8798,1.72e+07,-1.3411e-07,-6.9065e-12,0,0.20911,0.69563,0.69563,0.44,NaN,0,-88.012,41,41
9203,1.7301e+07,-1.3411e-07,-6.6365e-12,0,0.20911,0.708,0.708,0,NaN,0,-88.459,40,40
9523,1.7401e+07,-1.3411e-07,-7.2617e-12,0,0.20911,0.72322,0.72322,-0.06,NaN,0,-88.531,39,39
9930,1.7501e+07,-1.3411e-07,-6.4233e-12,0,0.20911,0.73019,0.73019,-0.19,NaN,0,-88.661,39,39
10340,1.7602e+07,-1.3411e-07,-6.8638e-12,0,0.20911,0.73384,0.73384,-0.12,NaN,0,-88.59,37,37
10749,1.7702e+07,-1.3411e-07,-6.4091e-12,0,0.20911,0.73594,0.73594,-0.19,NaN,0,-88.664,37,37
11136,1.7803e+07,-1.3411e-07,-5.9401e-12,0,0.20911,0.73575,0.73575,-0.51,NaN,0,-88.983,36,36
11547,1.7903e+07,-1.3411e-07,-6.4091e-12,0,0.20911,0.73355,0.73355,0.21,NaN,0,-88.257,35,35
11961,1.8004e+07,-1.3411e-07,-7.0628e-12,0,0.20911,0.73178,0.73178,-0.07,NaN,0,-88.55,33,33
12371,1.8104e+07,-1.3411e-07,-7.276e-12,0,0.20911,0.72761,0.72761,-0.1,NaN,0,-88.573,32,32
12755,1.8205e+07,-1.3411e-07,-7.7875e-12,0,0.20911,0.72371,0.72371,0.23,NaN,0,-88.238,31,31
13162,1.8306e+07,-1.3411e-07,-7.1338e-12,0,0.20911,0.71997,0.71997,0.07,NaN,0,-88.4,30,30
13570,1.8407e+07,-1.3411e-07,-6.7359e-12,0,0.20911,0.71518,0.71518,0.49,NaN,0,-87.984,28,28
13977,1.8508e+07,-1.3411e-07,-6.8212e-12,0,0.20911,0.71361,0.71361,-0.1,NaN,0,-88.578,27,27
14390,1.8609e+07,-1.3411e-07,-6.4517e-12,0,0.20911,0.71245,0.71245,0.12,NaN,0,-88.348,26,26
14800,1.8709e+07,-1.3411e-07,-6.2812e-12,0,0.20911,0.70799,0.70799,0.28,NaN,0,-88.193,25,25
15209,1.881e+07,-1.3411e-07,-6.5086e-12,0,0.20911,0.70339,0.70339,0.12,NaN,0,-88.353,24,24
15617,1.8912e+07,-1.3411e-07,-6.6507e-12,0,0.20911,0.69379,0.69379,0.22,NaN,0,-88.254,24,24
16000,1.9012e+07,-1.3411e-07,-7.2902e-12,0,0.20911,0.68695,0.68695,0.24,NaN,0,-88.24,23,23
16408,1.9113e+07,-1.3411e-07,-6.7359e-12,0,0.20911,0.68336,0.68336,0.59,NaN,0,-87.887,22,22
16816,1.9214e+07,-1.3411e-07,-6.8781e-12,0,0.20911,0.68146,0.68146,-0.01,NaN,0,-88.498,20,20
17195,1.9315e+07,-1.3411e-07,-6.7928e-12,0,0.20911,0.6789,0.6789,0.32,NaN,0,-88.164,19,19
17604,1.9416e+07,-1.3411e-07,-6.4233e-12,0,0.20911,0.67221,0.67221,-0.07,NaN,0,-88.562,19,19
17988,1.9516e+07,-1.3411e-07,-6.1533e-12,0,0.20911,0.6688,0.6688,0.25,NaN,0,-88.232,18,18
18398,1.9617e+07,-1.3411e-07,-6.4233e-12,0,0.20911,0.66126,0.66126,0.48,NaN,0,-88.008,18,18
18806,1.9717e+07,-1.3411e-07,-6.4233e-12,0,0.20911,0.65635,0.65635,0.26,NaN,0,-88.225,17,17
19219,1.9817e+07,-1.3411e-07,-6.6223e-12,0,0.20911,0.65206,0.65206,0.25,NaN,0,-88.242,16,16
19629,1.9917e+07,-1.3411e-07,-6.6791e-12,0,0.20911,0.6454,0.6454,0.25,NaN,0,-88.236,15,15
20040,2.0017e+07,-1.3411e-07,-6.4375e-12,0,0.20911,0.63797,0.63797,0.23,NaN,0,-88.264,14,14
20448,2.0117e+07,-1.3411e-07,-6.5086e-12,0,0.20911,0.63037,0.63037,0.05,NaN,0,-88.445,14,14
20826,2.0217e+07,-1.3411e-07,-6.4802e-12,0,0.20911,0.61977,0.61977,0.19,NaN,0,-88.306,12,12
21236,2.0317e+07,-1.3411e-07,-5.6559e-12,0,0.20911,0.60729,0.60729,0.17,NaN,0,-88.326,11,11
21644,2.0418e+07,-1.3411e-07,-6.1817e-12,0,0.20911,0.594,0.594,-0.09,NaN,0,-88.591,10,10
22051,2.0518e+07,-1.3411e-07,-6.5086e-12,0,0.20911,0.57864,0.57864,0.29,NaN,0,-88.204,9,9
22462,2.0619e+07,-1.3411e-07,-6.3096e-12,0,0.20911,0.5639,0.5639,-0.23,NaN,0,-88.736,8,8
22870,2.0719e+07,-1.3411e-07,-6.4944e-12,0,0.20911,0.54784,0.54784,-0.18,NaN,0,-88.691,8,8
23252,2.0819e+07,-1.3411e-07,-6.1391e-12,0,0.20911,0.53116,0.53116,0,NaN,0,-88.507,7,7
23664,2.0919e+07,-1.3411e-07,-5.3433e-12,0,0.20911,0.51273,0.51273,0,NaN,0,-88.507,5,5
24078,2.1019e+07,-1.3411e-07,-5.727e-12,0,0.20911,0.49296,0.49296,0.23,NaN,0,-88.274,4,4
24458,2.1119e+07,-1.3411e-07,-6.2386e-12,0,0.20911,0.46959,0.46959,0.31,NaN,0,-88.195,3,3
24869,2.122e+07,-1.3411e-07,-6.0822e-12,0,0.20911,0.45158,0.45158,0.38,NaN,0,-88.122,3,3
25279,2.1321e+07,-1.3411e-07,-5.6701e-12,0,0.20911,0.43861,0.43861,-0.27,NaN,0,-88.783,2,2
25691,2.1421e+07,-1.3411e-07,-5.8975e-12,0,0.20911,0.42408,0.42408,0.16,NaN,0,-88.353,1,1
26105,2.1522e+07,-1.3411e-07,-5.5991e-12,0,0.20911,0.40966,0.40966,0.32,NaN,0,-88.186,0,0
26486,2.1622e+07,-1.3411e-07,-6.4517e-12,0,0.20911,0.39598,0.39598,0.26,NaN,0,-88.248,0,0
26896,2.1724e+07,-1.3411e-07,-5.3149e-12,0,0.20911,0.38457,0.38457,0.02,NaN,0,-88.488,0,0
27310,2.1823e+07,-1.3411e-07,-5.4996e-12,0,0.20911,0.37129,0.37129,0.39,NaN,0,-88.121,-1,-1
27721,2.1923e+07,-1.3411e-07,-5.2438e-12,0,0.20911,0.36053,0.36053,-0.02,NaN,0,-88.547,-1,-1
28129,2.2024e+07,-1.3411e-07,-6.1675e-12,0,0.20911,0.3453,0.3453,-0.09,NaN,0,-88.611,-2,-2
28536,2.2124e+07,-1.3411e-07,-4.5759e-12,0,0.20911,0.32683,0.32683,0.16,NaN,0,-88.357,-3,-3
28954,2.2226e+07,-1.3411e-07,-4.6469e-12,0,0.20911,0.30876,0.30876,-0.03,NaN,0,0.30876,-5,-5
29400,2.2328e+07,0.0024998,1.0012e-07,3.807e-05,0.20911,0.29007,0.29007,-0.08,NaN,0,0.29007,-6,-6
29847,2.2429e+07,0.052499,2.0787e-06,0.022655,0.20911,0.26918,0.26918,0.18,NaN,0,0.26682,-6,-6
30297,2.2531e+07,0.10125,3.5241e-06,0.064056,0.20911,0.24926,0.24926,0.01,NaN,0,0.2437,-6,-6
30714,2.2633e+07,0.14875,4.6939e-06,0.11002,0.20911,0.23048,0.23048,0.17,NaN,0,0.22492,-7,-7
31162,2.2735e+07,0.19625,6.2883e-06,0.15711,0.20911,0.21301,0.21301,0.36,NaN,0,0.20323,-7,-7
31611,2.2837e+07,0.24375,8.2552e-06,0.20447,0.20911,0.19988,0.19988,-0.1,NaN,0,0.19009,-7,-7
32059,2.294e+07,0.2925,6.0201e-06,0.25259,0.20911,0.18671,0.18671,0.35,NaN,0,0.17372,-6,-6
32508,2.3042e+07,0.33255,3.9041e-05,0.30085,0.20911,0.17937,0.17927,-0.01,NaN,0,0.16629,0,1
32926,2.3144e+07,0.30618,8.8304e-05,0.31307,0.20911,0.18752,0.1872,0.31,NaN,0,0.17185,16,21
33373,2.3246e+07,0.26003,0.00011238,0.287,0.20911,0.21238,0.22042,0.38,NaN,0,0.20507,31,45
33822,2.3349e+07,0.25879,9.5665e-05,0.27013,0.20911,0.25051,0.2782,0.02,NaN,0,0.25998,42,61
34242,2.3451e+07,0.26442,1.1384e-05,0.26456,0.20911,0.30058,0.3454,0.31,NaN,0,0.32718,50,69
34660,2.3554e+07,0.26166,6.6787e-05,0.26316,0.20911,0.35752,0.41986,0.32,NaN,0,0.4007,55,74
35111,2.3658e+07,0.24983,0.00022733,0.25863,0.20911,0.42257,0.49868,0.41,NaN,0,0.47952,60,78
35558,2.3761e+07,0.25621,0.00030237,0.2552,0.20911,0.49129,0.5792,0.22,NaN,0,0.55919,64,81
36010,2.3862e+07,0.25884,0.0001871,0.25647,0.20911,0.56431,0.65644,0.77,NaN,0,0.63644,67,81
36459,2.3963e+07,0.26123,1.1206e-05,0.25888,0.20911,0.64085,0.74053,0.57,NaN,0,0.71883,70,82
36904,2.4065e+07,0.24422,3.6716e-05,0.25296,0.20911,0.72002,0.82509,0.46,NaN,0,0.8034,71,81
37354,2.4166e+07,0.2494,0.00011173,0.24501,0.20911,0.80094,0.89385,1.2,NaN,0,0.87055,70,79
37769,2.4267e+07,0.25594,7.1973e-05,0.25178,0.20911,0.87656,0.97068,0.64,NaN,0,0.94738,69,76
38222,2.4371e+07,0.25595,3.7521e-05,0.25439,0.20911,0.95504,1.0424,1.04,NaN,0,1.0201,69,73
38670,2.4474e+07,0.25612,0.00029805,0.25706,0.20911,1.0326,1.1119,1.13,NaN,0,1.0896,69,71
39118,2.4575e+07,0.2602,0.00073215,0.25893,0.20911,1.1075,1.1831,1.36,NaN,0,1.1597,69,70
39566,2.4679e+07,0.25554,0.00086525,0.25807,0.20911,1.1819,1.2614,1.28,NaN,0,1.238,68,69
40017,2.4783e+07,0.25034,0.0010105,0.25559,0.20911,1.2577,1.3397,1.64,NaN,0,1.3148,67,69
40465,2.4887e+07,0.25331,0.0010304,0.25402,0.20911,1.333,1.4248,1.35,NaN,0,1.4,65,69
40891,2.4989e+07,0.24709,0.00063388,0.25042,0.20911,1.408,1.5064,1.44,NaN,0,1.4807,65,69
41337,2.5096e+07,0.25253,0.00056857,0.25157,0.20911,1.4789,1.5855,2.05,NaN,0,1.5598,63,67
41783,2.52e+07,0.24433,0.00057732,0.24886,0.20911,1.5497,1.6689,1.56,NaN,0,1.6414,62,67
42229,2.5305e+07,0.24411,0.00062306,0.24774,0.20911,1.6202,1.7494,1.84,NaN,0,1.7219,61,65
42678,2.5411e+07,0.24882,0.00089258,0.24762,0.20911,1.6905,1.8269,2.04,NaN,0,1.8003,60,64
43127,2.5517e+07,0.24347,0.001237,0.24822,0.20911,1.7607,1.9055,1.91,NaN,0,1.8789,59,63
43574,2.5623e+07,0.25124,0.0017787,0.24826,0.20911,1.8307,1.9808,1.91,NaN,0,1.9533,58,62
43990,2.5729e+07,0.24974,0.0022733,0.24908,0.20911,1.9007,2.0523,2.34,NaN,0,2.0249,58,61
44436,2.5835e+07,0.26231,0.004164,0.25847,0.20911,1.9707,2.1241,1.89,NaN,0,2.0973,58,57
44886,2.5941e+07,0.24952,0.0070615,0.25994,0.20911,2.0406,2.1915,1.98,NaN,0,2.1675,58,56
45338,2.6044e+07,0.23051,0.007767,0.2513,0.20911,2.1098,2.2502,2.38,NaN,0,2.2261,57,57
45754,2.615e+07,0.24731,0.0075623,0.24979,0.20911,2.1756,2.3085,2.59,NaN,0,2.286,54,54
46201,2.6256e+07,0.2491,0.004267,0.2511,0.20911,2.2382,2.3704,2.63,NaN,0,2.348,51,50
46649,2.6363e+07,0.24592,0.0016809,0.25162,0.20911,2.2979,2.4325,2.24,NaN,0,2.4134,48,47
47097,2.6469e+07,0.25038,0.001137,0.25024,0.20911,2.3553,2.4899,2.15,NaN,0,2.4708,45,46
47515,2.6576e+07,0.25273,0.00094122,0.25287,0.20911,2.4109,2.5352,2.68,NaN,0,2.5178,45,43
47964,2.6681e+07,0.2504,0.00083733,0.25585,0.20911,2.4648,2.5781,2.93,NaN,0,2.5607,44,41
48413,2.6785e+07,0.25324,0.00083008,0.25284,0.20911,2.5174,2.6275,3.04,NaN,0,2.6095,43,41
48857,2.6891e+07,0.24506,0.0016825,0.24974,0.20911,2.5676,2.6832,2.77,NaN,0,2.6652,39,39
49312,2.6997e+07,0.24492,0.0031797,0.24636,0.20911,2.6139,2.7357,2.87,NaN,0,2.7178,34,35
49727,2.7103e+07,0.24689,0.0048169,0.25061,0.20911,2.656,2.7829,2.97,NaN,0,2.7649,29,29
50176,2.7208e+07,0.2493,0.0053642,0.2534,0.20911,2.6947,2.8244,2.72,NaN,0,2.8076,26,27
50622,2.7313e+07,0.24613,0.0044633,0.25087,0.20911,2.7306,2.859,2.59,NaN,0,2.8423,23,24
51071,2.7419e+07,0.25288,0.0041333,0.24981,0.20911,2.7642,2.8851,2.96,NaN,0,2.8725,22,21
51486,2.7523e+07,0.25592,0.0049206,0.25476,0.20911,2.7959,2.9066,2.96,NaN,0,2.894,21,19
51932,2.7628e+07,0.25666,0.0052627,0.25839,0.20911,2.8259,2.9275,2.94,NaN,0,2.9149,20,17
52381,2.7732e+07,0.25302,0.0053603,0.25994,0.20911,2.8546,2.9474,2.64,NaN,0,2.9366,20,17
52825,2.7838e+07,0.25329,0.0052601,0.25779,0.20911,2.8822,2.9632,3.08,NaN,0,2.9524,20,17
53276,2.7945e+07,0.25045,0.0051911,0.25642,0.20911,2.9088,2.9794,3.47,NaN,0,2.9715,20,18
53726,2.805e+07,0.24008,0.0047069,0.24708,0.20911,2.9338,3.0064,3.57,NaN,0,2.9985,17,17
54172,2.8157e+07,0.27892,0.0062006,0.26062,0.20911,2.9549,3.0356,3.13,NaN,0,3.0313,12,10
54619,2.8264e+07,0.22517,0.004965,0.26201,0.20911,2.9723,3.0599,2.8,NaN,0,3.0556,7,9
55069,2.8372e+07,0.21554,0.0036017,0.22852,0.20911,2.9867,3.0793,3.71,NaN,0,3.0763,4,10
55515,2.8479e+07,0.23063,0.0019684,0.22746,0.20911,2.9986,3.1002,3.49,NaN,0,3.0973,1,8
55932,2.8584e+07,0.2215,0.00086635,0.22701,0.20911,3.0084,3.1273,2.97,NaN,0,3.1245,-2,6
56380,2.8687e+07,0.23194,0.00019214,0.22857,0.20911,3.0166,3.145,2.96,NaN,0,3.1423,-5,3
56827,2.8793e+07,0.23018,1.5721e-05,0.22688,0.20911,3.0233,3.1525,3.43,NaN,0,3.1493,-6,0
57274,2.8898e+07,0.22726,0.00014922,0.2294,0.20911,3.0288,3.1571,3.64,NaN,0,3.1539,-7,-2
57725,2.9005e+07,0.2551,0.00017783,0.24264,0.20911,3.0334,3.1639,4.09,NaN,0,3.1611,-8,-8
58174,2.9111e+07,0.25686,9.0897e-05,0.25149,0.20911,3.0372,3.1788,4.87,NaN,0,3.1759,-10,-11
58591,2.9217e+07,0.24336,9.121e-05,0.24604,0.20911,3.0404,3.2149,4.14,NaN,0,3.2108,-14,-10
59039,2.9323e+07,0.23176,1.8865e-05,0.23671,0.20911,3.0429,3.2598,3.86,NaN,0,3.2557,-19,-11
59490,2.9429e+07,0.24044,0.00033821,0.23648,0.20911,3.0451,3.2947,4.84,NaN,0,3.289,-22,-14
59937,2.9535e+07,0.24073,0.0010182,0.24022,0.20911,3.0469,3.337,4.93,NaN,0,3.3295,-27,-17
60385,2.9641e+07,0.23481,0.0011597,0.23595,0.20911,3.0483,3.3875,4.28,NaN,0,3.38,-32,-19
60802,2.9747e+07,0.23647,0.0011426,0.23604,0.20911,3.0495,3.4299,3.7,NaN,0,3.4206,-36,-23
61248,2.9854e+07,0.23471,0.00077063,0.23284,0.20911,3.0505,3.46,4.25,NaN,0,3.4507,-39,-28
61700,2.9958e+07,0.234,0.00038807,0.23507,0.20911,3.0514,3.4719,4.41,NaN,0,3.4631,-41,-33
62145,3.0063e+07,0.23512,6.704e-05,0.23414,0.20911,3.052,3.483,4.74,NaN,0,3.4741,-42,-34
62597,3.0168e+07,0.23601,3.4273e-07,0.23167,0.20911,3.0526,3.5045,3.75,NaN,0,3.4921,-44,-36
63014,3.0272e+07,0.24342,1.7434e-06,0.2406,0.20911,3.0531,3.5113,4.15,NaN,0,3.4989,-45,-41
63462,3.0378e+07,0.24536,1.4007e-06,0.24494,0.20911,3.0535,3.5103,4.52,NaN,0,3.493,-45,-43
63878,3.0483e+07,0.24285,7.3329e-05,0.24582,0.20911,3.0538,3.5127,4.46,NaN,0,3.4953,-45,-44
64327,3.0587e+07,0.24557,0.00047959,0.24588,0.20911,3.054,3.5098,4.19,NaN,0,3.4883,-45,-43
64774,3.0692e+07,0.25083,0.00081912,0.24601,0.20911,3.0543,3.506,4.69,NaN,0,3.4846,-44,-44
65223,3.0796e+07,0.24373,0.00071272,0.24637,0.20911,3.0544,3.5115,4.26,NaN,0,3.4866,-45,-43
65639,3.09e+07,0.24308,0.00053865,0.24252,0.20911,3.0546,3.5153,5.24,NaN,0,3.4905,-45,-43
66086,3.1008e+07,0.22942,0.00058086,0.23939,0.20911,3.0547,3.5307,4.13,NaN,0,3.5025,-47,-42
66531,3.1113e+07,0.22525,0.00091481,0.23107,0.20911,3.0548,3.5413,4.09,NaN,0,3.513,-48,-40
66953,3.1218e+07,0.24198,0.0017145,0.23585,0.20911,3.0549,3.5496,3.65,NaN,0,3.5229,-49,-43
67398,3.1323e+07,0.23336,0.0024062,0.2397,0.20911,3.055,3.54,3.61,NaN,0,3.5134,-48,-44
67850,3.1429e+07,0.24702,0.0030589,0.24447,0.20911,3.055,3.5138,3.83,NaN,0,3.4889,-45,-47
68265,3.1532e+07,0.23949,0.0028885,0.24572,0.20911,3.0551,3.4857,3.91,NaN,0,3.4659,-43,-46
68712,3.1639e+07,0.26695,0.0032104,0.25504,0.20911,3.0551,3.4567,4.6,NaN,0,3.4369,-40,-47
69162,3.1744e+07,0.26238,0.0032959,0.26663,0.20911,3.0551,3.4326,4.15,NaN,0,3.4213,-37,-47
69608,3.185e+07,0.2519,0.0037152,0.26042,0.20911,3.0552,3.4234,4.04,NaN,0,3.4121,-36,-41
70058,3.1955e+07,0.25397,0.0042701,0.25644,0.20911,3.0552,3.4155,5.1,NaN,0,3.4166,-36,-39
70505,3.2061e+07,0.25061,0.004145,0.25866,0.20911,3.0552,3.4182,4.77,NaN,0,3.4193,-36,-37
70954,3.2167e+07,0.24236,0.0038762,0.25427,0.20911,3.0552,3.4446,4.72,NaN,0,3.4596,-38,-35
71403,3.2272e+07,0.24572,0.0037989,0.25424,0.20911,3.0552,3.4674,5.02,NaN,0,3.4824,-41,-35
71852,3.2379e+07,0.25311,0.0038393,0.25087,0.20911,3.0552,3.5059,5.61,NaN,0,3.5365,-45,-37
72301,3.2483e+07,0.23567,0.0033699,0.24905,0.20911,3.0553,3.548,4.81,NaN,0,3.5785,-49,-38
72749,3.259e+07,0.23184,0.0030211,0.24171,0.20911,3.0553,3.5972,5.01,NaN,0,3.6443,-54,-39
73165,3.2696e+07,0.22096,0.0025839,0.23011,0.20911,3.0553,3.6456,4.32,NaN,0,3.6927,-59,-40
73612,3.2801e+07,0.21032,0.0024853,0.22386,0.20911,3.0553,3.6664,4.4,NaN,0,3.7307,-61,-44
74060,3.2907e+07,0.22327,0.0027461,0.22236,0.20911,3.0553,3.6803,4.01,NaN,0,3.7446,-62,-46
74478,3.3012e+07,0.22072,0.0026092,0.22543,0.20911,3.0553,3.6737,3.52,NaN,0,3.7562,-61,-51
74923,3.3117e+07,0.24415,0.0028931,0.23241,0.20911,3.0553,3.6475,3.13,NaN,0,3.73,-59,-56
75371,3.3223e+07,0.27597,0.003477,0.25831,0.20911,3.0561,3.6001,2.91,NaN,0,3.7001,-51,-58
75821,3.3328e+07,0.25873,0.0033702,0.26288,0.20911,3.0603,3.5366,2.99,NaN,0,3.6366,-41,-54
76270,3.3435e+07,0.27831,0.0037622,0.27222,0.20911,3.0677,3.4632,2.72,NaN,0,3.5854,-30,-48
76688,3.3541e+07,0.29773,0.0035367,0.2898,0.20911,3.0781,3.3879,2.78,NaN,0,3.5346,-17,-43
77102,3.3646e+07,0.29277,0.0029503,0.29533,0.20911,3.0938,3.3191,2.98,NaN,0,3.4659,-2,-30
77549,3.3751e+07,0.28297,0.0023333,0.28987,0.20911,3.1149,3.2675,2.72,NaN,0,3.4409,9,-15
77963,3.3855e+07,0.2787,0.0020255,0.28689,0.20911,3.1406,3.2285,3.03,NaN,0,3.4018,20,-2
78411,3.3959e+07,0.28692,0.0025453,0.28641,0.20911,3.17,3.2111,2.71,NaN,0,3.4147,28,9
78857,3.4065e+07,0.26305,0.0042301,0.27837,0.20911,3.2023,3.2005,2.74,NaN,0,3.4041,35,20
79274,3.4171e+07,0.27869,0.006361,0.27875,0.20911,3.237,3.202,2.44,NaN,0,3.4382,41,30
79722,3.4277e+07,0.26693,0.0076541,0.27954,0.20911,3.2737,3.2071,2.13,NaN,0,3.4434,46,37
80171,3.4382e+07,0.273,0.0077341,0.27763,0.20911,3.312,3.2115,2.86,NaN,0,3.4799,51,42
80620,3.4487e+07,0.25994,0.0051126,0.27217,0.20911,3.3517,3.2224,3.72,NaN,0,3.4907,55,48
81069,3.4592e+07,0.24061,0.0023045,0.25683,0.20911,3.3926,3.2609,3.55,NaN,0,3.5605,56,57
81515,3.4697e+07,0.2599,0.0014647,0.25387,0.20911,3.4344,3.3171,3.99,NaN,0,3.6167,56,59
81961,3.4805e+07,0.26548,0.0008252,0.26359,0.20911,3.477,3.3906,4.01,NaN,0,3.719,53,58
82379,3.491e+07,0.23735,0.00065787,0.25132,0.20911,3.5197,3.4691,4.24,NaN,0,3.7975,49,59
82827,3.5017e+07,0.23665,0.0010744,0.24098,0.20911,3.5608,3.5568,4.02,NaN,0,3.9131,42,56
83271,3.5123e+07,0.22779,0.0016868,0.23618,0.20911,3.599,3.6447,4.3,NaN,0,4.001,34,50
83688,3.5229e+07,0.23006,0.0020943,0.22942,0.20911,3.6343,3.7226,4.17,NaN,0,4.1034,27,44
84138,3.5334e+07,0.23373,0.0020528,0.23144,0.20911,3.6672,3.7963,4.21,NaN,0,4.1953,20,36
84589,3.544e+07,0.23025,0.0018914,0.23121,0.20911,3.6975,3.8577,4.34,NaN,0,4.2567,14,28
85038,3.5547e+07,0.23167,0.0015834,0.23425,0.20911,3.7253,3.9126,3.87,NaN,0,4.3288,9,21
85452,3.5652e+07,0.23432,0.0018158,0.23391,0.20911,3.7509,3.9517,3.77,NaN,0,4.3679,5,15
85901,3.5759e+07,0.24657,0.0025729,0.23954,0.20911,3.7747,3.9773,3.07,NaN,0,4.4098,4,8
86347,3.5865e+07,0.24578,0.0021884,0.24233,0.20911,3.797,3.9767,3.12,NaN,0,4.4092,5,5
86795,3.5969e+07,0.25729,0.0020259,0.25113,0.20911,3.8189,3.9627,3.07,NaN,0,4.408,8,3
87210,3.6073e+07,0.25708,0.0018902,0.25575,0.20911,3.8408,3.9361,2.9,NaN,0,4.3814,13,3
87655,3.6178e+07,0.26961,0.0014207,0.26044,0.20911,3.8626,3.9018,2.83,NaN,0,4.357,19,5
88071,3.6282e+07,0.2612,0.0013201,0.26383,0.20911,3.8843,3.8641,2.56,NaN,0,4.3193,24,7
88518,3.6388e+07,0.27341,0.0016732,0.26865,0.20911,3.9059,3.8215,2.87,NaN,0,4.2816,31,12
88935,3.6492e+07,0.28111,0.00051433,0.27564,0.20911,3.9276,3.7839,2.77,NaN,0,4.2441,37,16
89384,3.6596e+07,0.28548,6.5029e-05,0.28187,0.20911,3.9493,3.7517,2.95,NaN,0,4.213,42,21
89833,3.6702e+07,0.28809,0.00032765,0.28535,0.20911,3.971,3.7225,3.11,NaN,0,4.1838,47,27
90282,3.6807e+07,0.27646,0.0017556,0.28351,0.20911,3.9927,3.7063,3.06,NaN,0,4.1681,51,34
90729,3.6912e+07,0.27399,0.0019997,0.2788,0.20911,4.0144,3.7061,3.05,NaN,0,4.168,53,40
91177,3.7018e+07,0.27741,0.00051883,0.27997,0.20911,4.036,3.7113,3.35,NaN,0,4.1743,55,44
91594,3.7124e+07,0.27108,2.0266e-05,0.27652,0.20911,4.0576,3.7282,3.29,NaN,0,4.1915,55,48
92039,3.7229e+07,0.25634,0.00026351,0.26861,0.20911,4.0791,3.7516,3.14,NaN,0,4.2148,54,52
92488,3.7336e+07,0.24741,0.0010778,0.25483,0.20911,4.0987,3.7814,3.36,NaN,0,4.2438,50,53
92936,3.7441e+07,0.25053,0.0016615,0.25114,0.20911,4.115,3.807,3.65,NaN,0,4.2694,46,50
93386,3.7546e+07,0.24789,0.0025152,0.25209,0.20911,4.1284,3.8376,3.76,NaN,0,4.3023,41,47
93833,3.7653e+07,0.24468,0.0033799,0.24867,0.20911,4.1396,3.8699,3.73,NaN,0,4.3347,37,44
94251,3.7758e+07,0.25056,0.0037457,0.24912,0.20911,4.1487,3.9032,3.62,NaN,0,4.3672,33,40
94697,3.7864e+07,0.24061,0.0028315,0.24826,0.20911,4.1563,3.9332,4.06,NaN,0,4.3972,29,36
95147,3.797e+07,0.24444,0.0011842,0.24744,0.20911,4.1626,3.9633,3.84,NaN,0,4.4243,25,33
95595,3.8075e+07,0.2466,0.00037788,0.2457,0.20911,4.1678,3.9922,3.72,NaN,0,4.4532,22,30
96040,3.8179e+07,0.24665,0.00044249,0.24457,0.20911,4.1721,4.0151,3.91,NaN,0,4.4757,19,25
96453,3.8283e+07,0.2486,0.00056411,0.24699,0.20911,4.1756,4.0346,3.63,NaN,0,4.4953,17,21
96901,3.8389e+07,0.24849,0.00053249,0.25009,0.20911,4.1786,4.0473,3.93,NaN,0,4.5058,15,19
97313,3.8492e+07,0.25667,0.00036228,0.25227,0.20911,4.181,4.0569,3.63,NaN,0,4.5154,14,16
97761,3.8596e+07,0.26123,0.00037998,0.25478,0.20911,4.183,4.0629,4.04,NaN,0,4.5218,13,14
98208,3.8702e+07,0.25694,0.0012232,0.25645,0.20911,4.1846,4.0675,4.05,NaN,0,4.5264,13,12
98621,3.8808e+07,0.25555,0.0024542,0.25844,0.20911,4.186,4.0733,3.96,NaN,0,4.5336,12,11
99070,3.8914e+07,0.25658,0.0036969,0.25857,0.20911,4.1871,4.0804,4.1,NaN,0,4.5407,11,10
99519,3.9022e+07,0.24996,0.0040248,0.25881,0.20911,4.1881,4.0883,4.09,NaN,0,4.5518,10,10
99966,3.9127e+07,0.25806,0.0031908,0.25891,0.20911,4.1889,4.0976,4.08,NaN,0,4.5611,9,9
1.0038e+05,3.9231e+07,0.25349,0.0027039,0.25927,0.20911,4.1895,4.1067,4.06,NaN,0,4.5728,8,9
1.0083e+05,3.9336e+07,0.252,0.0021549,0.25602,0.20911,4.19,4.1158,3.95,NaN,0,4.584,7,9
1.0128e+05,3.9441e+07,0.24766,0.0010737,0.25141,0.20911,4.1905,4.1233,4.1,NaN,0,4.5914,7,9
1.0173e+05,3.9546e+07,0.24836,0.00040653,0.25101,0.20911,4.1908,4.1305,4.06,NaN,0,4.6003,6,8
1.0218e+05,3.965e+07,0.24488,0.00019427,0.24909,0.20911,4.1911,4.1374,4.4,NaN,0,4.6072,5,8
1.0259e+05,3.9755e+07,0.23467,0.0001013,0.24304,0.20911,4.1914,4.1478,4.12,NaN,0,4.6192,4,8
1.0304e+05,3.9859e+07,0.23835,5.1603e-05,0.23505,0.20911,4.1916,4.1611,4.32,NaN,0,4.6325,3,10
1.0349e+05,3.9966e+07,0.23933,0.00010185,0.24002,0.20911,4.1917,4.1745,4.03,NaN,0,4.6477,1,7
1.039e+05,4.0071e+07,0.25132,0.00011906,0.24502,0.20911,4.1919,4.1835,4.18,NaN,0,4.6567,0,5
1.0434e+05,4.0176e+07,0.25239,5.6565e-05,0.24995,0.20911,4.192,4.1881,4.3,NaN,0,4.6645,0,2
1.0479e+05,4.0281e+07,0.25095,2.6196e-05,0.25038,0.20911,4.1921,4.1921,4.5,NaN,0,4.6685,0,1
1.0524e+05,4.0387e+07,0.25389,0.00015402,0.25268,0.20911,4.1922,4.198,4.42,NaN,0,4.6782,0,0
1.0565e+05,4.0492e+07,0.25258,0.00047526,0.2534,0.20911,4.1922,4.2061,4.22,NaN,0,4.6862,-1,0
1.061e+05,4.0597e+07,0.25056,0.00049993,0.2497,0.20911,4.1923,4.2122,4.12,NaN,0,4.6972,-1,0
1.0655e+05,4.0703e+07,0.25246,0.00041434,0.25089,0.20911,4.1923,4.2156,4.24,NaN,0,4.7006,-2,-1
1.07e+05,4.081e+07,0.25328,0.0004102,0.25351,0.20911,4.1924,4.2163,4.52,NaN,0,4.7058,-2,-2
1.0744e+05,4.0916e+07,0.2544,0.00042582,0.25476,0.20911,4.1924,4.2192,4.56,NaN,0,4.7086,-2,-3
1.0786e+05,4.1021e+07,0.24687,0.00064939,0.25251,0.20911,4.1924,4.2254,4.34,NaN,0,4.7204,-3,-2
1.083e+05,4.1127e+07,0.24125,0.0011383,0.24742,0.20911,4.1924,4.2322,4.26,NaN,0,4.7272,-3,-1
1.0875e+05,4.1233e+07,0.24155,0.0020043,0.24377,0.20911,4.1925,4.2383,4.51,NaN,0,4.7374,-4,0
1.092e+05,4.1338e+07,0.25017,0.0030422,0.24598,0.20911,4.1925,4.2454,4.85,NaN,0,4.7481,-5,-2
1.0964e+05,4.1442e+07,0.24543,0.0032713,0.24868,0.20911,4.1925,4.2548,4,NaN,0,4.7575,-6,-3
1.1009e+05,4.1547e+07,0.24353,0.0030799,0.24763,0.20911,4.1925,4.2616,4.16,NaN,0,4.7695,-6,-4
1.1053e+05,4.1652e+07,0.24679,0.0029433,0.24819,0.20911,4.1925,4.2618,4.24,NaN,0,4.7696,-6,-5
1.1095e+05,4.1758e+07,0.24969,0.0024759,0.25181,0.20911,4.1925,4.2579,3.95,NaN,0,4.7703,-6,-6
1.114e+05,4.1863e+07,0.25488,0.0013277,0.25454,0.20911,4.1925,4.2482,4.35,NaN,0,4.7606,-5,-7
1.1185e+05,4.1967e+07,0.2585,0.00072426,0.25758,0.20911,4.1925,4.2384,4.27,NaN,0,4.7542,-4,-7
1.1229e+05,4.2072e+07,0.24274,0.00050911,0.25267,0.20911,4.1925,4.2307,4.11,NaN,0,4.7465,-3,-6
1.1274e+05,4.2178e+07,0.24216,0.00059275,0.24357,0.20911,4.1925,4.2246,4.03,NaN,0,4.7451,-3,-3
1.1315e+05,4.2282e+07,0.25624,0.00095946,0.24863,0.20911,4.1925,4.2178,4.11,NaN,0,4.7382,-2,-4
1.136e+05,4.2389e+07,0.25456,0.0011568,0.25426,0.20911,4.1925,4.2096,4.13,NaN,0,4.7336,-1,-4
1.1401e+05,4.2494e+07,0.26007,0.0013024,0.25437,0.20911,4.1925,4.202,4.02,NaN,0,4.726,0,-4
1.1446e+05,4.2599e+07,0.25884,0.0012553,0.26029,0.20911,4.1925,4.1929,3.86,NaN,0,4.7207,0,-4
1.149e+05,4.2705e+07,0.25481,0.001057,0.25914,0.20911,4.1925,4.1813,4.36,NaN,0,4.7092,1,-3
1.1532e+05,4.2811e+07,0.25579,0.00087064,0.26101,0.20911,4.1925,4.1742,4.09,NaN,0,4.7059,1,-2
1.1577e+05,4.2917e+07,0.25559,0.00072864,0.25886,0.20911,4.1925,4.1695,4.11,NaN,0,4.7012,2,0
1.1622e+05,4.3023e+07,0.25239,0.00073496,0.25586,0.20911,4.1925,4.1671,3.92,NaN,0,4.6996,2,0
1.1663e+05,4.3128e+07,0.24842,0.00079338,0.25156,0.20911,4.1925,4.1645,3.78,NaN,0,4.697,2,3
1.1708e+05,4.3233e+07,0.24632,0.00084607,0.24669,0.20911,4.1925,4.1599,4.27,NaN,0,4.6941,3,3
1.1753e+05,4.3338e+07,0.25322,0.0010851,0.25211,0.20911,4.1925,4.1582,3.91,NaN,0,4.6925,3,3
1.1797e+05,4.3441e+07,0.26383,0.001327,0.25801,0.20911,4.1925,4.1558,4.13,NaN,0,4.6902,3,2
1.1842e+05,4.3545e+07,0.26048,0.0011688,0.25959,0.20911,4.1925,4.1526,4.07,NaN,0,4.687,3,1
1.1883e+05,4.365e+07,0.25639,0.00108,0.25949,0.20911,4.1925,4.1505,4.33,NaN,0,4.685,4,1
1.1928e+05,4.3756e+07,0.25852,0.0010932,0.26087,0.20911,4.1925,4.1512,4.51,NaN,0,4.6874,4,2
1.1972e+05,4.3861e+07,0.25883,0.0010523,0.25955,0.20911,4.1925,4.1582,4.6,NaN,0,4.6945,3,3
1.2017e+05,4.3966e+07,0.25392,0.0010557,0.25824,0.20911,4.1925,4.1704,4.36,NaN,0,4.7068,2,2
1.2062e+05,4.407e+07,0.2592,0.001092,0.25761,0.20911,4.1925,4.1837,4.58,NaN,0,4.72,0,2
1.2106e+05,4.4174e+07,0.26077,0.0015655,0.26214,0.20911,4.1925,4.198,4.14,NaN,0,4.7335,0,0
1.2151e+05,4.4279e+07,0.25776,0.0027144,0.2625,0.20911,4.1925,4.2075,4.62,NaN,0,4.7429,-1,0
1.2196e+05,4.4385e+07,0.24594,0.003097,0.25928,0.20911,4.1925,4.2179,4.51,NaN,0,4.7526,-2,0
1.224e+05,4.449e+07,0.22883,0.0024202,0.2449,0.20911,4.1925,4.2328,4.06,NaN,0,4.7675,-4,2
1.2281e+05,4.4594e+07,0.23788,0.0022726,0.23806,0.20911,4.1925,4.2431,4.39,NaN,0,4.7759,-5,2
1.2326e+05,4.4698e+07,0.24106,0.0023757,0.23956,0.20911,4.1925,4.2504,4.48,NaN,0,4.7832,-5,0
1.2371e+05,4.4802e+07,0.25034,0.0026706,0.24652,0.20911,4.1925,4.2564,4.23,NaN,0,4.788,-6,-2
1.2416e+05,4.4907e+07,0.25046,0.0026017,0.25013,0.20911,4.1925,4.2589,4.2,NaN,0,4.7906,-6,-4
1.2457e+05,4.5012e+07,0.25128,0.0023393,0.2506,0.20911,4.1925,4.2575,4.34,NaN,0,4.7884,-6,-4
1.2502e+05,4.5116e+07,0.25873,0.0024096,0.25424,0.20911,4.1925,4.2536,4.44,NaN,0,4.7845,-6,-6
1.2546e+05,4.5222e+07,0.25143,0.0027216,0.25443,0.20911,4.1925,4.2506,4.3,NaN,0,4.7807,-5,-6
1.2588e+05,4.5326e+07,0.25263,0.0025546,0.25392,0.20911,4.1925,4.2479,4.32,NaN,0,4.7779,-5,-6
1.263e+05,4.5433e+07,0.25816,0.0021011,0.2571,0.20911,4.1925,4.2446,4.53,NaN,0,4.775,-5,-7
1.2674e+05,4.5539e+07,0.26559,0.0020975,0.26315,0.20911,4.1925,4.2429,4.6,NaN,0,4.7728,-5,-8
1.2718e+05,4.5643e+07,0.25666,0.0021198,0.26397,0.20911,4.1925,4.2428,4.58,NaN,0,4.7727,-5,-8
1.2763e+05,4.5748e+07,0.25732,0.0025927,0.26079,0.20911,4.1925,4.2459,4.58,NaN,0,4.7751,-5,-6
1.2805e+05,4.5853e+07,0.244,0.0028216,0.25327,0.20911,4.1925,4.2517,4.42,NaN,0,4.781,-5,-5
1.285e+05,4.5959e+07,0.24893,0.0030595,0.25131,0.20911,4.1925,4.2602,4.46,NaN,0,4.7876,-6,-3
1.2894e+05,4.6064e+07,0.25743,0.003492,0.25339,0.20911,4.1925,4.2666,4.71,NaN,0,4.794,-7,-4
1.2939e+05,4.617e+07,0.24502,0.0034695,0.25358,0.20911,4.1925,4.2737,4.63,NaN,0,4.7972,-8,-6
1.298e+05,4.6276e+07,0.25078,0.0028965,0.25106,0.20911,4.1925,4.2814,4.53,NaN,0,4.8049,-8,-6
1.3025e+05,4.6382e+07,0.23869,0.0020812,0.24619,0.20911,4.1925,4.2901,4.84,NaN,0,4.8102,-9,-5
1.307e+05,4.6489e+07,0.25225,0.0020097,0.24886,0.20911,4.1925,4.3016,4.41,NaN,0,4.8217,-10,-7
1.3115e+05,4.6593e+07,0.24186,0.0017291,0.25075,0.20911,4.1925,4.3066,4.63,NaN,0,4.8214,-11,-8
1.3156e+05,4.6697e+07,0.24796,0.001329,0.25056,0.20911,4.1925,4.3092,4.32,NaN,0,4.824,-11,-9
1.319e+05,4.6802e+07,0.24402,0.00056893,0.24574,0.20911,4.1925,4.31,4.74,NaN,0,4.8225,-11,-8
1.3234e+05,4.6906e+07,0.24326,0.00035839,0.2434,0.20911,4.1925,4.312,4.54,NaN,0,4.8244,-11,-8
1.3279e+05,4.7011e+07,0.25633,0.00055638,0.24766,0.20911,4.1925,4.3135,4.27,NaN,0,4.8231,-12,-10
1.3324e+05,4.7117e+07,0.24956,0.0009011,0.24929,0.20911,4.1925,4.3119,4.46,NaN,0,4.8215,-11,-11
1.3365e+05,4.7222e+07,0.25829,0.0015398,0.25617,0.20911,4.1925,4.3057,4.39,NaN,0,4.8109,-11,-13
1.341e+05,4.7328e+07,0.26152,0.0019908,0.25942,0.20911,4.1925,4.2986,4.19,NaN,0,4.8038,-10,-13
1.3454e+05,4.7435e+07,0.25344,0.0020013,0.25691,0.20911,4.1925,4.2889,4.16,NaN,0,4.7874,-9,-12
1.3499e+05,4.7539e+07,0.25245,0.0018018,0.25416,0.20911,4.1925,4.2775,4.34,NaN,0,4.7677,-8,-11
1.3544e+05,4.7644e+07,0.25771,0.0015889,0.25597,0.20911,4.1925,4.2668,4.83,NaN,0,4.757,-7,-10
1.3588e+05,4.7751e+07,0.24372,0.0014443,0.25528,0.20911,4.1925,4.2637,4.69,NaN,0,4.7429,-7,-8
1.363e+05,4.7855e+07,0.24693,0.00096674,0.2457,0.20911,4.1925,4.2691,4.68,NaN,0,4.7483,-7,-5
1.3674e+05,4.796e+07,0.25128,0.00094965,0.24758,0.20937,4.1925,4.2756,4.46,NaN,0,4.7416,-8,-5
1.3719e+05,4.8066e+07,0.24009,0.00075771,0.24507,0.20974,4.1925,4.2829,4.71,NaN,0,4.7488,-9,-6
1.3764e+05,4.8172e+07,0.24813,0.00041313,0.24488,0.21009,4.1925,4.2907,4.52,NaN,0,4.7442,-9,-5
1.3805e+05,4.8276e+07,0.24246,0.00019412,0.24327,0.21043,4.1925,4.2973,4.68,NaN,0,4.7508,-10,-6
1.385e+05,4.8382e+07,0.24797,0.00031178,0.24664,0.21077,4.1925,4.3029,4.62,NaN,0,4.741,-11,-7
1.3894e+05,4.8486e+07,0.24505,0.00063974,0.24927,0.21114,4.1925,4.3093,4.68,NaN,0,4.7474,-11,-9
1.3939e+05,4.8594e+07,0.24332,0.001108,0.24806,0.21141,4.1925,4.3158,4.59,NaN,0,4.7397,-12,-9
1.3983e+05,4.8702e+07,0.2484,0.0018341,0.24905,0.21141,4.1925,4.3195,4.48,NaN,0,4.7434,-12,-10
1.4025e+05,4.8809e+07,0.25516,0.0024768,0.25188,0.21141,4.1925,4.3202,4.36,NaN,0,4.7284,-12,-12
1.407e+05,4.8915e+07,0.25482,0.0026043,0.25689,0.21141,4.1925,4.3155,4.63,NaN,0,4.7237,-12,-13
1.4114e+05,4.902e+07,0.25191,0.0023193,0.2564,0.21141,4.1925,4.3101,4.77,NaN,0,4.7033,-11,-13
1.4159e+05,4.9125e+07,0.2464,0.0022071,0.25587,0.21141,4.1925,4.3097,4.58,NaN,0,4.703,-11,-13
1.42e+05,4.9231e+07,0.24907,0.002305,0.25247,0.21141,4.1925,4.3102,4.33,NaN,0,4.6896,-11,-12
1.4245e+05,4.9338e+07,0.24983,0.0021788,0.25405,0.21141,4.1925,4.3089,4.53,NaN,0,4.6709,-11,-11
1.429e+05,4.9445e+07,0.24057,0.0020559,0.2469,0.21141,4.1925,4.3065,4.47,NaN,0,4.6684,-11,-10
1.4332e+05,4.9553e+07,0.25016,0.0023052,0.24859,0.21141,4.1925,4.3048,4.71,NaN,0,4.6491,-11,-10
1.4376e+05,4.9658e+07,0.24507,0.0021281,0.24914,0.21141,4.1925,4.3033,4.51,NaN,0,4.6476,-11,-9
1.4421e+05,4.9765e+07,0.23994,0.0014322,0.24538,0.21141,4.1925,4.3049,4.85,NaN,0,4.6305,-11,-9
1.4465e+05,4.987e+07,0.25254,0.0013763,0.24618,0.21141,4.1925,4.3095,4.39,NaN,0,4.6351,-11,-9
1.451e+05,4.9975e+07,0.25323,0.0014315,0.25374,0.21141,4.1925,4.3113,4.6,NaN,0,4.6173,-11,-11
1.4554e+05,5.0079e+07,0.25364,0.0013088,0.25147,0.21141,4.1925,4.3105,4.78,NaN,0,4.6165,-11,-11
1.4596e+05,5.0184e+07,0.25279,0.00134,0.25313,0.21141,4.1925,4.3118,4.85,NaN,0,4.5991,-11,-12
1.4641e+05,5.029e+07,0.25335,0.001467,0.25393,0.21141,4.1925,4.3155,4.63,NaN,0,4.6027,-12,-11
1.4682e+05,5.0394e+07,0.25289,0.0015679,0.25539,0.21141,4.1925,4.3182,4.49,NaN,0,4.5841,-12,-12
1.4727e+05,5.0498e+07,0.25011,0.0015259,0.25506,0.21141,4.1925,4.3182,4.86,NaN,0,4.5841,-12,-12
1.4772e+05,5.0605e+07,0.24961,0.0015353,0.25001,0.21141,4.1925,4.3214,4.86,NaN,0,4.568,-12,-11
1.4816e+05,5.071e+07,0.23946,0.0015331,0.24599,0.21141,4.1925,4.3271,4.65,NaN,0,4.5738,-13,-10
1.4858e+05,5.0815e+07,0.24161,0.0015889,0.23992,0.21141,4.1925,4.3353,4.45,NaN,0,4.561,-14,-10
1.4902e+05,5.0921e+07,0.25579,0.0018013,0.24955,0.21141,4.1925,4.3384,4.36,NaN,0,4.5641,-14,-12
1.4947e+05,5.1027e+07,0.25392,0.0019068,0.25399,0.21141,4.1925,4.3329,4.71,NaN,0,4.5384,-14,-14
1.4992e+05,5.1133e+07,0.26149,0.0019725,0.25946,0.21141,4.1925,4.3261,4.51,NaN,0,4.5316,-13,-15
1.5033e+05,5.1238e+07,0.25483,0.0019533,0.26203,0.21141,4.1925,4.32,4.47,NaN,0,4.5053,-12,-16
1.5078e+05,5.1344e+07,0.25929,0.00192,0.26013,0.21141,4.1925,4.3119,4.78,NaN,0,4.4971,-11,-15
1.5122e+05,5.1449e+07,0.25734,0.0017532,0.26016,0.21141,4.1925,4.3064,4.61,NaN,0,4.4721,-11,-14
1.5167e+05,5.1555e+07,0.26264,0.0016112,0.25993,0.21141,4.1925,4.3052,4.21,NaN,0,4.4521,-11,-13
1.5212e+05,5.1661e+07,0.25594,0.0013773,0.26115,0.21141,4.1925,4.3001,4.49,NaN,0,4.447,-10,-13
1.5257e+05,5.1768e+07,0.24729,0.001175,0.25784,0.21141,4.1925,4.2938,4.75,NaN,0,4.4198,-10,-11
1.5301e+05,5.1872e+07,0.25348,0.0011266,0.25112,0.21141,4.1925,4.2927,4.54,NaN,0,4.4187,-10,-9
1.5343e+05,5.1978e+07,0.2487,0.0010952,0.24973,0.21141,4.1925,4.2936,4.65,NaN,0,4.3976,-10,-8
1.5387e+05,5.2084e+07,0.24275,0.00091349,0.2463,0.21148,4.1925,4.2977,4.37,NaN,0,4.4017,-10,-6
1.5432e+05,5.2189e+07,0.23244,0.0013369,0.23746,0.21179,4.1925,4.3019,4.55,NaN,0,4.383,-10,-4
1.5477e+05,5.2293e+07,0.26715,0.0022402,0.24686,0.21189,4.1925,4.3042,4.31,NaN,0,4.3853,-11,-8
1.5522e+05,5.2399e+07,0.26118,0.0024807,0.25861,0.21189,4.1925,4.3008,4.23,NaN,0,4.3596,-10,-11
1.5566e+05,5.2505e+07,0.25459,0.0022262,0.25633,0.21189,4.1925,4.2924,4.24,NaN,0,4.3511,-9,-10
1.5607e+05,5.261e+07,0.25091,0.0019543,0.25847,0.21189,4.1925,4.2812,4.4,NaN,0,4.3215,-8,-11
1.5652e+05,5.2714e+07,0.25166,0.0017555,0.25564,0.21189,4.1925,4.2709,4.45,NaN,0,4.3112,-7,-10
1.5697e+05,5.282e+07,0.25089,0.0017135,0.2524,0.21189,4.1925,4.2644,4.57,NaN,0,4.288,-7,-7
1.5738e+05,5.2927e+07,0.24611,0.0016463,0.25032,0.21189,4.1925,4.2631,4.77,NaN,0,4.2867,-7,-7
1.5783e+05,5.3032e+07,0.23787,0.0015934,0.2442,0.21189,4.1925,4.2651,4.29,NaN,0,4.2737,-7,-5
1.5828e+05,5.3138e+07,0.2504,0.001819,0.24862,0.21189,4.1925,4.2697,4.51,NaN,0,4.2673,-7,-5
1.5872e+05,5.3244e+07,0.24009,0.0015838,0.24657,0.21189,4.1925,4.2713,4.5,NaN,0,4.2689,-7,-5
1.5917e+05,5.3351e+07,0.24714,0.0016326,0.24556,0.21189,4.1925,4.2749,4.11,NaN,0,4.2627,-8,-6
1.5962e+05,5.3456e+07,0.26394,0.0019256,0.25414,0.21189,4.1925,4.2727,4.29,NaN,0,4.2605,-8,-9
1.6006e+05,5.3561e+07,0.26591,0.002911,0.26336,0.21189,4.1925,4.2652,4.49,NaN,0,4.2454,-7,-11
1.6051e+05,5.3666e+07,0.26297,0.0050873,0.26551,0.21189,4.1925,4.2575,4.59,NaN,0,4.2378,-6,-9
1.6096e+05,5.3773e+07,0.26134,0.0073467,0.26778,0.21189,4.1925,4.2533,4.22,NaN,0,4.2255,-6,-10
1.614e+05,5.3878e+07,0.26858,0.0087301,0.27261,0.21189,4.1925,4.2479,4.06,NaN,0,4.22,-5,-10
1.6185e+05,5.3984e+07,0.27259,0.0090239,0.27725,0.21189,4.1925,4.2389,4.16,NaN,0,4.2038,-4,-10
1.6226e+05,5.4089e+07,0.26938,0.0088388,0.28188,0.21189,4.1925,4.2267,4.1,NaN,0,4.1916,-3,-11
1.6271e+05,5.4194e+07,0.25993,0.0077538,0.27679,0.21189,4.1925,4.2148,3.85,NaN,0,4.1701,-2,-7
1.6316e+05,5.4298e+07,0.24333,0.0062681,0.26405,0.21189,4.1925,4.204,4.02,NaN,0,4.1593,-1,-2
1.636e+05,5.4403e+07,0.23854,0.0057601,0.24809,0.21189,4.1925,4.1954,3.9,NaN,0,4.1409,0,0
1.6402e+05,5.4507e+07,0.2565,0.0064856,0.25521,0.21189,4.1925,4.1881,4.83,NaN,0,4.1337,0,0
1.6446e+05,5.4614e+07,0.25325,0.0066774,0.25831,0.21189,4.1925,4.1871,4.47,NaN,0,4.1224,0,0
1.6488e+05,5.4718e+07,0.24863,0.006741,0.25719,0.21189,4.1925,4.1937,4.4,NaN,0,4.129,0,0
1.6533e+05,5.4822e+07,0.24696,0.0065187,0.25449,0.21189,4.1925,4.2025,4.29,NaN,0,4.1281,-1,2
1.6577e+05,5.4929e+07,0.25168,0.0064759,0.25538,0.21189,4.1925,4.2107,3.93,NaN,0,4.1363,-1,1
1.6622e+05,5.5036e+07,0.21771,0.0047884,0.24111,0.21189,4.1925,4.2154,4.41,NaN,0,4.1341,-2,3
1.6664e+05,5.5141e+07,0.22422,0.0046535,0.23296,0.21189,4.1925,4.2222,4.04,NaN,0,4.1374,-2,5
1.6708e+05,5.5248e+07,0.25019,0.0056204,0.24154,0.21189,4.1925,4.2258,4.08,NaN,0,4.1411,-3,1
1.6753e+05,5.5354e+07,0.24783,0.0056961,0.2479,0.21189,4.1925,4.2239,4.32,NaN,0,4.1377,-3,-1
1.6798e+05,5.546e+07,0.2381,0.005412,0.24809,0.21189,4.1925,4.221,4.5,NaN,0,4.1347,-2,-2
1.6843e+05,5.5566e+07,0.2297,0.0047744,0.23928,0.21189,4.1925,4.2235,4.44,NaN,0,4.1388,-3,0
1.6884e+05,5.5672e+07,0.22833,0.0045849,0.2357,0.21189,4.1925,4.2289,4.72,NaN,0,4.1442,-3,0
1.6929e+05,5.5778e+07,0.226,0.0042091,0.22822,0.21189,4.1925,4.2393,4.26,NaN,0,4.1593,-4,1
1.6973e+05,5.5882e+07,0.22935,0.0042032,0.23074,0.21189,4.1925,4.2489,5.21,NaN,0,4.169,-5,0
1.7018e+05,5.5986e+07,0.25625,0.0047538,0.24381,0.21189,4.1925,4.263,4.45,NaN,0,4.1885,-7,-4
1.7062e+05,5.6091e+07,0.24776,0.0044398,0.25254,0.21189,4.1925,4.2732,3.94,NaN,0,4.1988,-8,-7
1.7107e+05,5.6194e+07,0.23386,0.0042199,0.24295,0.21189,4.1925,4.2758,4.28,NaN,0,4.2083,-8,-7
1.7152e+05,5.6298e+07,0.23636,0.0046149,0.24326,0.21189,4.1925,4.2728,4.32,NaN,0,4.2053,-8,-7
1.7196e+05,5.6404e+07,0.24395,0.0052635,0.2445,0.21189,4.1925,4.269,3.69,NaN,0,4.2091,-7,-8
1.7241e+05,5.6509e+07,0.23381,0.0051574,0.24532,0.21189,4.1925,4.2596,3.37,NaN,0,4.1996,-6,-7
1.7286e+05,5.6614e+07,0.233,0.0042914,0.24401,0.21189,4.1925,4.2384,3.51,NaN,0,4.184,-4,-7
1.7328e+05,5.6719e+07,0.2466,0.0030666,0.24542,0.21189,4.1925,4.2115,3.65,NaN,0,4.1571,-1,-6
1.7372e+05,5.6824e+07,0.24464,0.0023988,0.24735,0.21189,4.1925,4.1825,3.63,NaN,0,4.1328,1,-4
1.7417e+05,5.6928e+07,0.25275,0.0021987,0.25119,0.21189,4.1925,4.1536,3.64,NaN,0,4.1039,3,-4
1.7461e+05,5.7031e+07,0.23423,0.00065687,0.24923,0.21192,4.1925,4.1299,3.75,NaN,0,4.0831,6,0
1.7506e+05,5.7136e+07,0.22509,2.7552e-05,0.23868,0.21224,4.1925,4.1127,4.88,NaN,0,4.0694,7,5
1.7551e+05,5.7241e+07,0.22295,8.2552e-05,0.22782,0.21245,4.1925,4.1127,4.71,NaN,0,4.0694,7,8
1.7596e+05,5.7346e+07,0.22112,0.00040019,0.22096,0.21257,4.1925,4.1289,4.39,NaN,0,4.0897,6,12
1.764e+05,5.7452e+07,0.22521,0.00072102,0.22041,0.21265,4.1925,4.1525,4.96,NaN,0,4.1133,4,12
1.7682e+05,5.7558e+07,0.23937,0.00059728,0.2336,0.21278,4.1925,4.1806,5.56,NaN,0,4.1427,1,7
1.7726e+05,5.7663e+07,0.23101,0.00038242,0.23734,0.21303,4.1925,4.2157,5.97,NaN,0,4.1778,-2,5
1.7771e+05,5.7768e+07,0.23521,0.00025003,0.23208,0.21324,4.1925,4.2665,5.79,NaN,0,4.2285,-7,3
1.7816e+05,5.7873e+07,0.22357,0.00021887,0.22944,0.2134,4.1925,4.3207,6.21,NaN,0,4.2827,-12,0
1.7857e+05,5.7976e+07,0.22057,0.00015874,0.22566,0.21354,4.1925,4.3832,5.8,NaN,0,4.3439,-19,-4
1.7902e+05,5.8082e+07,0.22349,3.6314e-05,0.22306,0.21366,4.1925,4.445,4.52,NaN,0,4.4058,-25,-9
1.7946e+05,5.8187e+07,0.23491,2.3216e-05,0.2322,0.21379,4.1925,4.4852,4.96,NaN,0,4.4418,-29,-15
1.7991e+05,5.8293e+07,0.23045,1.9804e-05,0.23282,0.21398,4.1925,4.4972,4.75,NaN,0,4.4538,-30,-21
1.8032e+05,5.8398e+07,0.23412,1.3083e-05,0.23386,0.21417,4.1925,4.5057,4.8,NaN,0,4.4597,-31,-26
1.8076e+05,5.8503e+07,0.25927,1.5706e-05,0.24271,0.2144,4.1925,4.4998,4.73,NaN,0,4.4538,-30,-30
1.8121e+05,5.8607e+07,0.24916,8.4504e-05,0.25258,0.21475,4.1925,4.4855,4.55,NaN,0,4.4325,-29,-33
1.8166e+05,5.8713e+07,0.27228,0.00014219,0.25764,0.21514,4.1925,4.4661,4.71,NaN,0,4.4131,-27,-33
1.821e+05,5.8821e+07,0.26194,0.00011986,0.2623,0.2156,4.1925,4.4411,4.8,NaN,0,4.381,-24,-34
1.8252e+05,5.8925e+07,0.25442,4.8041e-05,0.25633,0.216,4.1925,4.4191,4.55,NaN,0,4.359,-22,-30
1.8296e+05,5.9031e+07,0.26473,8.75e-05,0.26083,0.21641,4.1925,4.3999,4.86,NaN,0,4.3332,-20,-28
1.8338e+05,5.9137e+07,0.24568,0.00012892,0.25796,0.21686,4.1925,4.3842,4.9,NaN,0,4.3175,-19,-25
1.8383e+05,5.9244e+07,0.25974,0.00013009,0.25512,0.21723,4.1925,4.3752,4.67,NaN,0,4.3006,-18,-21
1.8427e+05,5.9348e+07,0.24414,8.978e-05,0.25533,0.21762,4.1925,4.3679,4.46,NaN,0,4.2867,-17,-20
1.8472e+05,5.9453e+07,0.24422,7.1153e-05,0.24592,0.21794,4.1925,4.3609,4.12,NaN,0,4.2797,-16,-16
1.8514e+05,5.9558e+07,0.24319,5.424e-05,0.24542,0.21819,4.1925,4.3514,4.46,NaN,0,4.2659,-15,-14
1.8558e+05,5.9663e+07,0.23742,7.2405e-05,0.24458,0.21846,4.1925,4.3399,4.33,NaN,0,4.2545,-14,-14
1.8603e+05,5.9769e+07,0.24737,0.00013338,0.2451,0.21871,4.1925,4.3284,4.56,NaN,0,4.2381,-13,-13
1.8648e+05,5.9875e+07,0.25538,0.00034606,0.2493,0.21899,4.1925,4.3179,4.24,NaN,0,4.2275,-12,-13
1.8692e+05,5.9981e+07,0.25686,0.0004321,0.25275,0.21931,4.1925,4.3063,4.6,NaN,0,4.2093,-11,-13
1.8737e+05,6.0085e+07,0.24336,0.00027935,0.25027,0.21963,4.1925,4.297,4,NaN,0,4.2,-10,-11
1.8779e+05,6.0192e+07,0.25273,0.00026155,0.248,0.21989,4.1925,4.287,4.09,NaN,0,4.1847,-9,-10
1.8823e+05,6.0297e+07,0.24646,0.00024374,0.24712,0.22017,4.1925,4.2739,4.04,NaN,0,4.1715,-8,-9
1.8868e+05,6.0404e+07,0.25624,0.00023153,0.2495,0.22046,4.1925,4.2597,3.69,NaN,0,4.1512,-6,-8
1.8913e+05,6.0509e+07,0.2424,0.00021613,0.25071,0.22076,4.1925,4.2428,3.8,NaN,0,4.1343,-5,-6
1.8954e+05,6.0614e+07,0.24368,0.00017749,0.24821,0.22104,4.1925,4.2214,3.51,NaN,0,4.109,-2,-4
1.8999e+05,6.0722e+07,0.25128,0.00032219,0.24818,0.2213,4.1925,4.2,3.15,NaN,0,4.0875,0,-4
1.9041e+05,6.0828e+07,0.25868,0.00085542,0.24991,0.22158,4.1925,4.1728,3.63,NaN,0,4.0551,1,-3
1.9085e+05,6.0934e+07,0.25298,0.0016972,0.25435,0.22177,4.1925,4.1404,3.08,NaN,0,4.0159,5,-1
1.913e+05,6.1041e+07,0.25259,0.0025091,0.25601,0.22177,4.1925,4.105,3.25,NaN,0,3.9804,8,0
1.9171e+05,6.1146e+07,0.25918,0.0030488,0.25877,0.22177,4.1925,4.0758,3.52,NaN,0,3.9479,11,3
1.9216e+05,6.1251e+07,0.25488,0.0034244,0.25875,0.22177,4.1925,4.0498,3.3,NaN,0,3.922,14,6
1.926e+05,6.1356e+07,0.25725,0.0037709,0.25748,0.22177,4.1925,4.0298,3.21,NaN,0,3.8999,16,9
1.9305e+05,6.1463e+07,0.23689,0.0037382,0.2554,0.22177,4.1923,4.006,3.37,NaN,0,3.8761,17,11
1.935e+05,6.1567e+07,0.23231,0.003704,0.24046,0.22177,4.1895,3.989,3.24,NaN,0,3.8581,14,12
1.9394e+05,6.1672e+07,0.23164,0.0038353,0.23657,0.22177,4.1818,3.9729,3.51,NaN,0,3.842,9,9
1.9436e+05,6.1779e+07,0.22737,0.0038851,0.23653,0.22177,4.1682,3.95,3.12,NaN,0,3.8187,4,4
1.9477e+05,6.1882e+07,0.2283,0.0037217,0.22793,0.22177,4.1474,3.9265,3,NaN,0,3.7952,-4,-1
1.9522e+05,6.1987e+07,0.22771,0.0034345,0.23037,0.22177,4.1188,3.8881,2.98,NaN,0,3.7599,-10,-10
1.9566e+05,6.2093e+07,0.22858,0.0027097,0.2321,0.22177,4.0839,3.8431,3.49,NaN,0,3.7148,-15,-15
1.9605e+05,6.2196e+07,0.23686,0.0016976,0.23015,0.22177,4.0436,3.7941,2.76,NaN,0,3.669,-19,-20
1.9649e+05,6.2302e+07,0.22746,0.0006737,0.23331,0.22177,3.9989,3.7506,2.94,NaN,0,3.6255,-24,-24
1.9694e+05,6.2408e+07,0.22945,0.00036696,0.23428,0.22177,3.9505,3.706,3.11,NaN,0,3.5869,-28,-28
1.9739e+05,6.2514e+07,0.24237,0.00031871,0.23765,0.22177,3.899,3.6621,2.82,NaN,0,3.543,-31,-32
1.9784e+05,6.2619e+07,0.2445,0.00033233,0.24087,0.22177,3.8449,3.6161,2.79,NaN,0,3.502,-35,-35
1.9824e+05,6.2723e+07,0.24787,0.00037447,0.24429,0.22177,3.7888,3.5679,2.5,NaN,0,3.4538,-37,-39
1.9869e+05,6.283e+07,0.25031,0.00039798,0.24723,0.22177,3.7311,3.5183,2.84,NaN,0,3.4086,-40,-42
1.9914e+05,6.2936e+07,0.24501,0.00038143,0.25025,0.22177,3.672,3.4661,2.74,NaN,0,3.3588,-42,-44
1.9958e+05,6.3042e+07,0.24864,0.00031674,0.25207,0.22177,3.6117,3.4121,2.82,NaN,0,3.3048,-44,-45
2.0003e+05,6.3147e+07,0.24697,7.7724e-05,0.25164,0.22177,3.5505,3.3572,2.7,NaN,0,3.2522,-45,-47
2.0044e+05,6.3251e+07,0.24666,4.1425e-06,0.24792,0.22177,3.4886,3.3028,2.76,NaN,0,3.1978,-47,-47
2.0086e+05,6.3355e+07,0.24122,1.1131e-05,0.24312,0.22177,3.4259,3.2469,2.19,NaN,0,3.1454,-48,-47
2.0131e+05,6.346e+07,0.24125,6.1318e-05,0.23946,0.22177,3.3626,3.1919,2.43,NaN,0,3.0904,-49,-47
2.0175e+05,6.3565e+07,0.22798,0.00010768,0.23521,0.22177,3.2989,3.137,2.06,NaN,0,3.0348,-51,-47
2.0217e+05,6.367e+07,0.23708,0.0002107,0.23382,0.22177,3.2348,3.0809,1.93,NaN,0,2.9788,-52,-47
2.0262e+05,6.3778e+07,0.23079,0.00030304,0.23048,0.22177,3.1704,3.0225,1.55,NaN,0,2.9183,-53,-48
2.0303e+05,6.3881e+07,0.2512,0.00054213,0.23639,0.22177,3.1056,2.9646,1.52,NaN,0,2.8604,-54,-51
2.0348e+05,6.3986e+07,0.24408,0.0006137,0.24439,0.22177,3.0406,2.9021,1.54,NaN,0,2.7995,-54,-53
2.0392e+05,6.409e+07,0.25655,0.00053555,0.24572,0.22177,2.9754,2.8391,1.87,NaN,0,2.7366,-55,-56
2.0437e+05,6.4195e+07,0.23551,0.0003859,0.24799,0.22177,2.91,2.7715,2.06,NaN,0,2.6697,-54,-56
2.0478e+05,6.43e+07,0.23676,0.0002933,0.23988,0.22177,2.8445,2.7056,1.64,NaN,0,2.6037,-55,-55
2.0523e+05,6.4405e+07,0.23821,0.00033832,0.24071,0.22177,2.7789,2.641,1.7,NaN,0,2.5405,-55,-54
2.0568e+05,6.4509e+07,0.23378,0.00031143,0.24047,0.22177,2.7132,2.5774,1.81,NaN,0,2.4769,-55,-54
2.0612e+05,6.4614e+07,0.23968,0.000282,0.23994,0.22177,2.6475,2.5119,1.68,NaN,0,2.4125,-55,-55
2.0657e+05,6.4719e+07,0.24319,0.00031513,0.24045,0.22177,2.5816,2.4455,2.06,NaN,0,2.3462,-55,-55
2.0698e+05,6.4823e+07,0.24081,0.00040953,0.23841,0.22177,2.5157,2.3796,1.61,NaN,0,2.2828,-55,-55
2.0743e+05,6.4926e+07,0.24031,0.00044759,0.24034,0.22177,2.4497,2.3152,1.45,NaN,0,2.2184,-55,-56
2.0787e+05,6.503e+07,0.24134,0.00046895,0.2425,0.22177,2.3855,2.2483,1.72,NaN,0,2.1523,-55,-55
2.0832e+05,6.5135e+07,0.25247,0.00048354,0.25056,0.22177,2.3196,2.1792,1.52,NaN,0,2.0834,-55,-57
2.0876e+05,6.5241e+07,0.24335,0.00055221,0.24871,0.22177,2.2536,2.1095,1.4,NaN,0,2.0137,-54,-57
2.0921e+05,6.5344e+07,0.24262,0.00049613,0.24567,0.22177,2.1878,2.0416,1.4,NaN,0,1.9458,-54,-55
2.0962e+05,6.5451e+07,0.24566,0.00043483,0.24508,0.22177,2.1219,1.9734,1.18,NaN,0,1.8776,-54,-55
2.1006e+05,6.5557e+07,0.24132,0.00044236,0.24697,0.22177,2.0579,1.9063,1.15,NaN,0,1.8119,-54,-55
2.1051e+05,6.5661e+07,0.24573,0.00042947,0.24467,0.22177,1.9922,1.8387,1.27,NaN,0,1.7444,-53,-54
2.1095e+05,6.5766e+07,0.24838,0.0004057,0.24344,0.22177,1.9281,1.7729,0.98,NaN,0,1.6781,-53,-54
2.1139e+05,6.5869e+07,0.24593,0.0003151,0.24633,0.22177,1.8623,1.7062,1.02,NaN,0,1.6115,-53,-54
2.1184e+05,6.5974e+07,0.25396,0.00017875,0.24675,0.22177,1.7981,1.6382,1.18,NaN,0,1.5428,-53,-54
2.1228e+05,6.6078e+07,0.24578,0.00010243,0.24593,0.22177,1.7322,1.573,1,NaN,0,1.4776,-53,-53
2.1269e+05,6.6183e+07,0.26943,0.00011629,0.25634,0.22177,1.6711,1.5065,0.75,NaN,0,1.4078,-49,-51
2.1314e+05,6.6287e+07,0.26607,9.2208e-05,0.26913,0.22177,1.6114,1.4431,0.8,NaN,0,1.3445,-42,-49
2.1358e+05,6.6391e+07,0.26281,6.6817e-05,0.26529,0.22177,1.5585,1.3864,0.67,NaN,0,1.2782,-37,-42
2.1403e+05,6.6494e+07,0.26289,7.4029e-05,0.26224,0.22177,1.5087,1.3358,0.6,NaN,0,1.2157,-33,-36
2.1444e+05,6.6599e+07,0.25828,0.00011131,0.2621,0.22177,1.4651,1.2806,0.79,NaN,0,1.1522,-28,-31
2.1489e+05,6.6703e+07,0.2587,0.00020543,0.25837,0.22177,1.4221,1.228,0.8,NaN,0,1.0929,-24,-26
2.1533e+05,6.6807e+07,0.24478,0.00020622,0.255,0.22177,1.3829,1.1829,0.61,NaN,0,1.0431,-21,-22
2.1578e+05,6.691e+07,0.23208,0.00018664,0.24088,0.22177,1.3436,1.1436,0.53,NaN,0,1.0005,-22,-19
2.1622e+05,6.7016e+07,0.23489,0.00024709,0.23425,0.22177,1.3023,1.1081,0.53,NaN,0,0.96249,-25,-20
2.1666e+05,6.712e+07,0.24063,0.00040469,0.23716,0.22177,1.2588,1.0704,0.24,NaN,0,0.92246,-27,-23
2.171e+05,6.7226e+07,0.24148,0.00054243,0.23967,0.22177,1.2148,1.0306,0.69,NaN,0,0.8812,-30,-26
2.1755e+05,6.7334e+07,0.23799,0.00060807,0.24159,0.22177,1.1682,0.98928,0.42,NaN,0,0.83845,-31,-28
2.1799e+05,6.7439e+07,0.23837,0.00058186,0.23748,0.22177,1.1204,0.94454,0.32,NaN,0,0.7916,-33,-30
2.184e+05,6.7546e+07,0.23366,0.00046057,0.23454,0.22177,1.0702,0.89967,0.65,NaN,0,0.74623,-34,-31
2.1885e+05,6.765e+07,0.22398,0.00038941,0.23292,0.22177,1.0204,0.85593,0.05,NaN,0,0.7018,-36,-32
2.1929e+05,6.7756e+07,0.23636,0.00046052,0.2317,0.22177,0.97262,0.80994,0.25,NaN,0,0.65615,-37,-33
2.1974e+05,6.7859e+07,0.22564,0.00044316,0.22991,0.22177,0.92164,0.76198,0.16,NaN,0,0.60853,-37,-34
2.2015e+05,6.7963e+07,0.21737,0.00044313,0.22334,0.22177,0.87289,0.71562,0.22,NaN,0,0.56251,-38,-33
2.206e+05,6.8066e+07,0.23068,0.00053979,0.22695,0.22177,0.8211,0.67347,0.21,NaN,0,0.52138,-39,-35
2.2104e+05,6.8172e+07,0.23662,0.00057508,0.23164,0.22177,0.77167,0.62836,0.02,NaN,0,0.47728,-40,-38
2.2148e+05,6.8275e+07,0.22863,0.00052778,0.23397,0.22177,0.71922,0.58352,0.01,NaN,0,0.4326,-41,-40
2.2192e+05,6.8379e+07,0.22073,0.00061627,0.22709,0.22177,0.66926,0.53366,0.07,NaN,0,0.38427,-42,-39
2.2237e+05,6.8483e+07,0.19875,0.00064965,0.21928,0.22177,0.61625,0.48141,0.06,NaN,0,0.33286,-42,-37
2.2281e+05,6.8587e+07,-0.097997,-0.00014357,0.07442,0.22177,0.56453,0.4529,0.24,NaN,0,0.30435,-44,0
2.2322e+05,6.8692e+07,0.2017,0.00029704,0.12802,0.22177,0.51127,0.44579,-0.12,NaN,0,0.29757,-49,-18
2.2366e+05,6.8798e+07,-0.09538,-0.00010759,0.037498,0.22177,0.46064,0.43731,-0.2,NaN,0,0.28978,-54,2
2.2411e+05,6.8902e+07,-0.049044,-3.5401e-05,0.03521,0.22177,0.40574,0.43493,0.13,NaN,0,0.28951,-62,-6
2.2455e+05,6.9008e+07,-0.066995,-4.9151e-05,0,0.22177,0.38748,0.43164,0.3,NaN,0,0.28705,-66,-5
2.25e+05,6.9113e+07,-0.093297,-6.9879e-05,0,0.22177,0.38748,0.429,-0.07,NaN,0,0.28559,-66,-4
2.2544e+05,6.9218e+07,-0.1249,-9.4637e-05,0,0.22177,0.38748,0.42504,0.05,NaN,0,0.28374,-65,-4
2.2588e+05,6.9322e+07,-0.15087,-9.6902e-05,0,0.22177,0.38748,0.41942,0.4,NaN,0,0.27812,-65,-5
2.2633e+05,6.9428e+07,-0.15822,-0.00012001,0,0.22177,0.38748,0.41848,0.45,NaN,0,0.27727,-65,-4
2.2674e+05,6.9532e+07,-0.14761,-9.1091e-05,0,0.22177,0.38748,0.41661,0.23,NaN,0,0.27624,-64,-3
2.2718e+05,6.9637e+07,-0.15246,-0.00010946,0,0.22177,0.38748,0.41435,0.38,NaN,0,0.27415,-64,-4
2.2762e+05,6.9741e+07,-0.15237,-0.00010715,0,0.22177,0.38748,0.41116,0.68,NaN,0,0.27114,-64,-4
2.2807e+05,6.9845e+07,-0.14891,-9.6038e-05,0,0.22177,0.38748,0.4103,0.24,NaN,0,0.27028,-64,-4
2.2848e+05,6.9952e+07,-0.1423,-9.7066e-05,0,0.22177,0.38748,0.40901,0.16,NaN,0,0.26923,-64,-3
2.2893e+05,7.0056e+07,-0.14592,-9.4146e-05,0,0.22177,0.38748,0.40628,0.58,NaN,0,0.26667,-63,-4
2.2937e+05,7.0161e+07,-0.084676,-5.5671e-05,0,0.22177,0.40351,0.40351,0.41,NaN,0,0.2639,-3,-3
2.2982e+05,7.0265e+07,-0.046978,-3.2883e-05,0,0.22177,0.40252,0.40252,0.35,NaN,0,0.26461,-4,-4
2.3023e+05,7.0369e+07,-0.026884,-1.6816e-05,0,0.22177,0.40062,0.40062,0.38,NaN,0,0.2627,-3,-3
2.3067e+05,7.0473e+07,-0.014915,-1.043e-05,0,0.22177,0.39876,0.39876,-0.15,NaN,0,0.26084,-4,-4
2.3112e+05,7.0577e+07,-0.0084046,-5.5898e-06,0,0.22177,0.39442,0.39442,-0.42,NaN,0,0.2565,-3,-3
2.3156e+05,7.0682e+07,-0.0046632,-2.8666e-06,0,0.22177,0.3878,0.3878,-0.49,NaN,0,0.24988,-5,-5
2.3197e+05,7.0787e+07,-0.0026689,-1.7534e-06,0,0.22177,0.37851,0.37851,-0.54,NaN,0,0.24043,-4,-4
2.3242e+05,7.089e+07,-0.001481,-9.0222e-07,0,0.22177,0.36736,0.36736,-0.42,NaN,0,0.22928,-5,-5
2.3286e+05,7.0995e+07,-0.00082193,-5.3114e-07,0,0.22177,0.35621,0.35621,-0.05,NaN,0,0.21813,-4,-4
2.3331e+05,7.1098e+07,-0.0004563,-2.7954e-07,0,0.22177,0.34449,0.34449,-0.18,NaN,0,0.2064,-4,-4
2.3372e+05,7.1205e+07,-0.00025742,-1.6147e-07,0,0.22177,0.33391,0.33391,-0.47,NaN,0,0.19582,-5,-5
2.3416e+05,7.1308e+07,-0.0001431,-8.9916e-08,0,0.22177,0.32265,0.32265,-0.57,NaN,0,0.18473,-5,-5
2.3461e+05,7.1413e+07,-7.9721e-05,-4.8203e-08,0,0.22177,0.31239,0.31239,-0.24,NaN,0,0.17447,-4,-4
2.3505e+05,7.1517e+07,-4.454e-05,-2.8045e-08,0,0.22177,0.30163,0.30163,-0.03,NaN,0,0.16456,-4,-4
2.355e+05,7.1625e+07,-2.5332e-05,-1.5087e-08,0,0.22177,0.29164,0.29164,-0.29,NaN,0,0.15457,-5,-5
2.3591e+05,7.1729e+07,-1.438e-05,-8.6056e-09,0,0.22177,0.28099,0.28099,-0.25,NaN,0,0.14392,-4,-4
2.3635e+05,7.1834e+07,-8.2701e-06,-5.0932e-09,0,0.22177,0.268,0.268,-0.09,NaN,0,0.13093,-5,-5
2.368e+05,7.1939e+07,-4.8429e-06,-2.9281e-09,0,0.22177,0.25511,0.25511,-0.46,NaN,0,0.11973,-5,-5
2.3724e+05,7.2044e+07,-3.0547e-06,-1.7737e-09,0,0.22177,0.24616,0.24616,0.35,NaN,0,0.11078,-5,-5
2.3769e+05,7.2148e+07,-2.1458e-06,-1.2324e-09,0,0.22177,0.23697,0.23697,-0.18,NaN,0,0.099903,-5,-5
2.3814e+05,7.2251e+07,-1.4752e-06,-8.3537e-10,0,0.22177,0.22359,0.22359,0.17,NaN,0,0.086516,-5,-5
2.3859e+05,7.2355e+07,-1.4752e-06,-8.4026e-10,0,0.22177,0.20805,0.20805,0.47,NaN,0,0.070981,-5,-5
2.39e+05,7.2459e+07,-1.4752e-06,-8.2798e-10,0,0.22177,0.19998,0.19998,0.27,NaN,0,0.062909,-5,-5
2.3945e+05,7.2564e+07,-1.4752e-06,-8.647e-10,0,0.22177,0.19582,0.19582,0.08,NaN,0,0.058753,-5,-5
2.399e+05,7.2666e+07,-1.4752e-06,-8.4094e-10,0,0.22177,0.19082,0.19082,0.15,NaN,0,0.05392,-5,-5
2.4035e+05,7.2773e+07,-1.4752e-06,-8.389e-10,0,0.22177,0.18593,0.18593,-0.14,NaN,0,0.050713,-5,-5
2.408e+05,7.2874e+07,-1.4752e-06,-8.049e-10,0,0.22177,0.17764,0.17764,0.05,NaN,0,0.042422,-5,-5
2.4125e+05,7.2977e+07,-1.4752e-06,-7.7853e-10,0,0.22177,0.16825,0.16825,0.1,NaN,0,0.033799,-5,-5
2.417e+05,7.3081e+07,-1.4752e-06,-8.14e-10,0,0.22177,0.15909,0.15909,0.4,NaN,0,0.024635,-5,-5
2.4214e+05,7.3186e+07,-1.4752e-06,-8.0013e-10,0,0.22177,0.1546,0.1546,0.52,NaN,0,0.020311,-5,-5
2.426e+05,7.3288e+07,-1.4752e-06,-7.9558e-10,0,0.22177,0.15459,0.15459,0.38,NaN,0,0.020307,-5,-5
2.4304e+05,7.3395e+07,-1.4752e-06,-7.8489e-10,0,0.22177,0.15893,0.15893,0.58,NaN,0,0.024645,-5,-5
2.4349e+05,7.3499e+07,-1.4752e-06,-7.8785e-10,0,0.22177,0.16587,0.16587,0.87,NaN,0,0.031756,-4,-4
2.4394e+05,7.3604e+07,-1.4752e-06,-7.7398e-10,0,0.22177,0.17996,0.17996,0.79,NaN,0,0.045846,-4,-4
2.4439e+05,7.3709e+07,-1.4752e-06,-7.6977e-10,0,0.22177,0.19618,0.19618,0.58,NaN,0,0.062064,-4,-4
2.4481e+05,7.3814e+07,-1.4752e-06,-7.8649e-10,0,0.22177,0.21469,0.21469,0.45,NaN,0,0.080571,-4,-4
2.4526e+05,7.3918e+07,-1.4752e-06,-7.8649e-10,0,0.22177,0.22824,0.22824,0.13,NaN,0,0.094968,-4,-4
2.4571e+05,7.4022e+07,-1.4752e-06,-7.6318e-10,0,0.22177,0.2363,0.2363,0.26,NaN,0,0.10303,-3,-3
2.4616e+05,7.4126e+07,-1.4752e-06,-8.0161e-10,0,0.22177,0.23976,0.23976,0.16,NaN,0,0.10649,-3,-3
2.4661e+05,7.4231e+07,-1.4752e-06,-7.625e-10,0,0.22177,0.24005,0.24005,0.55,NaN,0,0.10678,-3,-3
2.4706e+05,7.4338e+07,-1.4752e-06,-7.6318e-10,0,0.22177,0.24217,0.24217,0.21,NaN,0,0.1089,-3,-3
2.4748e+05,7.4443e+07,-1.4752e-06,-7.8296e-10,0,0.22177,0.2431,0.2431,-0.36,NaN,0,0.11,-3,-3
2.4794e+05,7.4548e+07,-1.4752e-06,-7.3248e-10,0,0.22177,0.23696,0.23696,-0.14,NaN,0,0.10554,-3,-3
2.4838e+05,7.4655e+07,-1.4752e-06,-6.0686e-10,0,0.22177,0.22496,0.22496,0.2,NaN,0,0.094552,-3,-3
2.4883e+05,7.4759e+07,-1.4752e-06,-7.4317e-10,0,0.22177,0.21505,0.21505,0.68,NaN,0,0.084637,-2,-2
2.4928e+05,7.4864e+07,-1.4752e-06,-7.2828e-10,0,0.22177,0.21007,0.21007,0.73,NaN,0,0.079489,-2,-2
2.4973e+05,7.497e+07,-1.4752e-06,-7.2134e-10,0,0.22177,0.21239,0.21239,0.57,NaN,0,0.081817,-2,-2
2.5018e+05,7.5073e+07,-1.4752e-06,-8.5947e-10,0,0.22177,0.2183,0.2183,0.83,NaN,0,0.087558,-2,-2
2.5063e+05,7.5178e+07,-1.4752e-06,-7.7944e-10,0,0.22177,0.23001,0.23001,0.84,NaN,0,0.099265,-2,-2
2.5108e+05,7.528e+07,-1.4752e-06,-9.0142e-10,0,0.22177,0.24502,0.24502,1.09,NaN,0,0.11428,-2,-2
2.5153e+05,7.5385e+07,-1.4752e-06,-8.5186e-10,0,0.22177,0.26545,0.26545,1.02,NaN,0,0.1347,-2,-2
2.5195e+05,7.5487e+07,-1.4752e-06,-9.4383e-10,0,0.22177,0.28607,0.28607,0.75,NaN,0,0.15532,-1,-1
2.524e+05,7.5594e+07,-1.4752e-06,-9.5736e-10,0,0.22177,0.30874,0.30874,0.81,NaN,0,0.17799,-1,-1
2.5285e+05,7.5696e+07,-1.4752e-06,-9.0654e-10,0,0.22177,0.32762,0.32762,0.49,NaN,0,0.19687,-1,-1
2.5329e+05,7.5801e+07,-1.4752e-06,-9.8214e-10,0,0.22177,0.34409,0.34409,1.08,NaN,0,0.21335,-1,-1
2.5374e+05,7.5904e+07,-1.4752e-06,-7.6625e-10,0,0.22177,0.3601,0.3601,1.05,NaN,0,0.22919,-1,-1
2.5419e+05,7.601e+07,-1.4752e-06,-7.0588e-10,0,0.22177,0.38135,0.38135,0.65,NaN,0,0.25044,0,0
2.5465e+05,7.6114e+07,-1.4752e-06,-8.2741e-10,0,0.22177,0.3991,0.3991,0.76,NaN,0,0.26818,0,0
2.5509e+05,7.6218e+07,-1.4752e-06,-7.9649e-10,0,0.22177,0.41608,0.41608,0.83,NaN,0,0.28533,0,0
2.5554e+05,7.632e+07,-1.4752e-06,-8.904e-10,0,0.22177,0.43037,0.43037,0.99,NaN,0,0.29963,0,0
2.5596e+05,7.6423e+07,-1.4752e-06,-9.162e-10,0,0.22177,0.44398,0.44398,0.61,NaN,0,0.31323,0,0
2.5641e+05,7.653e+07,-1.4752e-06,-8.5151e-10,0,0.22177,0.45746,0.45746,0.8,NaN,0,0.32671,0,0
2.5686e+05,7.6634e+07,-1.4752e-06,-8.0774e-10,0,0.22177,0.46864,0.46864,0.86,NaN,0,0.33772,0,0
2.5731e+05,7.6742e+07,-1.4752e-06,-9.0392e-10,0,0.22177,0.48076,0.48076,0.57,NaN,0,0.34985,0,0
2.5776e+05,7.6845e+07,-1.4752e-06,-1.0828e-09,0,0.22177,0.49026,0.49026,0.28,NaN,0,0.36103,0,0
2.5821e+05,7.695e+07,-1.4752e-06,-9.9647e-10,0,0.22177,0.49475,0.49475,0.65,NaN,0,0.36553,0,0
2.5866e+05,7.7054e+07,-1.4752e-06,-1.0601e-09,0,0.22177,0.49771,0.49771,0.5,NaN,0,0.36848,0,0
2.5911e+05,7.7158e+07,-1.4752e-06,-1.0743e-09,0,0.22177,0.49931,0.49931,0.51,NaN,0,0.36992,0,0
2.5956e+05,7.7261e+07,-1.4752e-06,-1.1401e-09,0,0.22177,0.49953,0.49953,0.48,NaN,0,0.37014,0,0
2.6001e+05,7.7365e+07,-1.4752e-06,-1.0754e-09,0,0.22177,0.49947,0.49947,0.54,NaN,0,0.37092,0,0
2.6046e+05,7.7469e+07,-1.4752e-06,-9.4963e-10,0,0.22177,0.5011,0.5011,0.47,NaN,0,0.37272,0,0
2.6091e+05,7.7575e+07,-1.4752e-06,-8.5367e-10,0,0.22177,0.50176,0.50176,0.18,NaN,0,0.37507,0,0
2.6136e+05,7.7678e+07,-1.4752e-06,-9.7123e-10,0,0.22177,0.50031,0.50031,0.64,NaN,0,0.37447,0,0
2.6178e+05,7.7781e+07,-1.4752e-06,-8.439e-10,0,0.22177,0.4996,0.4996,0.21,NaN,0,0.37375,0,0
2.6223e+05,7.7883e+07,-1.4752e-06,-9.8282e-10,0,0.22177,0.49784,0.49784,0.11,NaN,0,0.37182,0,0
2.6267e+05,7.7987e+07,-1.4752e-06,-8.7812e-10,0,0.22177,0.49086,0.49086,0.1,NaN,0,0.36569,-1,-1
2.6313e+05,7.8091e+07,-1.4752e-06,-8.3264e-10,0,0.22177,0.48079,0.48079,0.4,NaN,0,0.35529,-1,-1
2.6357e+05,7.8196e+07,-1.4752e-06,-8.9881e-10,0,0.22177,0.4707,0.4707,-0.01,NaN,0,0.34688,-1,-1
2.6402e+05,7.8301e+07,-1.4752e-06,-7.8944e-10,0,0.22177,0.45889,0.45889,0.46,NaN,0,0.33489,-1,-1
2.6447e+05,7.8406e+07,-1.4752e-06,-7.808e-10,0,0.22177,0.45132,0.45132,0.41,NaN,0,0.32733,-1,-1
2.6493e+05,7.8508e+07,-1.4752e-06,-8.1297e-10,0,0.22177,0.4453,0.4453,0.09,NaN,0,0.32105,-2,-2
2.6534e+05,7.8612e+07,-1.4752e-06,-7.9649e-10,0,0.22177,0.43761,0.43761,0.38,NaN,0,0.31337,-2,-2
2.6579e+05,7.8714e+07,-1.4752e-06,-7.1736e-10,0,0.22177,0.43062,0.43062,0.01,NaN,0,0.30638,-3,-3
2.6624e+05,7.8818e+07,-1.4752e-06,-7.3874e-10,0,0.22177,0.42086,0.42086,0.24,NaN,0,0.29662,-3,-3
2.6669e+05,7.8922e+07,-1.4752e-06,-7.9683e-10,0,0.22177,0.41106,0.41106,0.24,NaN,0,0.28681,-3,-3
2.6714e+05,7.9026e+07,-1.4752e-06,-7.0781e-10,0,0.22177,0.4016,0.4016,0.35,NaN,0,0.27736,-2,-2
2.6759e+05,7.9129e+07,-1.4752e-06,-6.8303e-10,0,0.22177,0.39381,0.39381,0.09,NaN,0,0.26956,-3,-3
2.6801e+05,7.9233e+07,-1.4752e-06,-7.6852e-10,0,0.22177,0.38629,0.38629,0.48,NaN,0,0.26204,-3,-3
2.6845e+05,7.9337e+07,-1.4752e-06,-6.7178e-10,0,0.22177,0.38014,0.38014,0.31,NaN,0,0.25614,-3,-3
2.689e+05,7.9442e+07,-1.4752e-06,-6.0515e-10,0,0.22177,0.37539,0.37539,0.2,NaN,0,0.25139,-4,-4
2.6935e+05,7.9545e+07,-1.4752e-06,-5.6878e-10,0,0.22177,0.36998,0.36998,0.12,NaN,0,0.24598,-3,-3
2.6981e+05,7.9649e+07,-1.4752e-06,-5.823e-10,0,0.22177,0.36339,0.36339,0.28,NaN,0,0.23772,-4,-4
2.7026e+05,7.9753e+07,-1.4752e-06,-6.3005e-10,0,0.22177,0.35693,0.35693,-0.12,NaN,0,0.23126,-4,-4
2.707e+05,7.9857e+07,-1.4752e-06,-6.6734e-10,0,0.22177,0.34953,0.34953,-0.08,NaN,0,0.2236,-4,-4
2.7115e+05,7.9961e+07,-1.4752e-06,-6.3596e-10,0,0.22177,0.33927,0.33927,0.02,NaN,0,0.21335,-3,-3
2.716e+05,8.0065e+07,-1.4752e-06,-7.326e-10,0,0.22177,0.32888,0.32888,0.27,NaN,0,0.20464,-4,-4
2.7205e+05,8.0172e+07,-1.4752e-06,-6.8599e-10,0,0.22177,0.3196,0.3196,0.34,NaN,0,0.19535,-3,-3
2.725e+05,8.0277e+07,-1.4752e-06,-8.6561e-10,0,0.22177,0.31377,0.31377,-0.03,NaN,0,0.18953,-3,-3
2.7295e+05,8.0382e+07,-1.4752e-06,-7.2714e-10,0,0.22177,0.30717,0.30717,0.07,NaN,0,0.18293,-4,-4
2.734e+05,8.0486e+07,-1.4752e-06,-8.9983e-10,0,0.22177,0.2997,0.2997,-0.07,NaN,0,0.17546,-4,-4
2.7382e+05,8.0589e+07,-1.4752e-06,-9.8692e-10,0,0.22177,0.29141,0.29141,-0.06,NaN,0,0.16716,-4,-4
2.7427e+05,8.0693e+07,-1.4752e-06,-8.5663e-10,0,0.22177,0.27978,0.27978,0.22,NaN,0,0.15553,-4,-4
2.7472e+05,8.0797e+07,-1.4752e-06,-7.6204e-10,0,0.22177,0.26975,0.26975,0.09,NaN,0,0.14551,-4,-4
2.7517e+05,8.09e+07,-1.4752e-06,-8.6015e-10,0,0.22177,0.26095,0.26095,0.27,NaN,0,0.13756,-4,-4
2.7562e+05,8.1005e+07,-1.4752e-06,-9.5417e-10,0,0.22177,0.25428,0.25428,0.08,NaN,0,0.13089,-5,-5
2.7607e+05,8.111e+07,-1.4752e-06,-1.0457e-09,0,0.22177,0.24713,0.24713,-0.41,NaN,0,0.12543,-5,-5
2.7648e+05,8.1214e+07,-1.4752e-06,-9.1063e-10,0,0.22177,0.23862,0.23862,0.01,NaN,0,0.11716,-5,-5
2.7693e+05,8.1317e+07,-1.4752e-06,-8.5151e-10,0,0.22177,0.22838,0.22838,0.19,NaN,0,0.10692,-5,-5
2.7738e+05,8.1422e+07,-1.4752e-06,-8.2321e-10,0,0.22177,0.21918,0.21918,0.09,NaN,0,0.097725,-5,-5
2.7783e+05,8.1527e+07,-1.4752e-06,-8.7107e-10,0,0.22177,0.20958,0.20958,-0.05,NaN,0,0.088129,-5,-5
2.7828e+05,8.1629e+07,-1.4752e-06,-7.0463e-10,0,0.22177,0.20186,0.20186,0.13,NaN,0,0.081249,-5,-5
2.7874e+05,8.1733e+07,-1.4752e-06,-7.7011e-10,0,0.22177,0.19349,0.19349,0.23,NaN,0,0.072874,-6,-6
2.7918e+05,8.1839e+07,-1.4752e-06,-7.4738e-10,0,0.22177,0.18707,0.18707,0.01,NaN,0,0.066457,-6,-6
2.7963e+05,8.1944e+07,-1.4752e-06,-6.8337e-10,0,0.22177,0.17976,0.17976,-0.07,NaN,0,0.060836,-6,-6
2.8008e+05,8.2046e+07,-1.4752e-06,-7.1589e-10,0,0.22177,0.17021,0.17021,0.01,NaN,0,0.051288,-6,-6
2.805e+05,8.2151e+07,-1.4752e-06,-6.2926e-10,0,0.22177,0.15973,0.15973,0.13,NaN,0,0.040809,-6,-6
2.8095e+05,8.2258e+07,-1.4752e-06,-7.3294e-10,0,0.22177,0.15223,0.15223,0.16,NaN,0,0.034151,-6,-6
2.8139e+05,8.2363e+07,-1.4752e-06,-7.1543e-10,0,0.22177,0.1458,0.1458,-0.06,NaN,0,0.027718,-6,-6
2.8184e+05,8.2467e+07,-1.4752e-06,-8.5868e-10,0,0.22177,0.14109,0.14109,-0.11,NaN,0,0.023006,-6,-6
2.8229e+05,8.2573e+07,-1.4752e-06,-9.3928e-10,0,0.22177,0.13402,0.13402,0.2,NaN,0,0.015945,-7,-7
