LineNo,TimeUS,Instance,RPM,RawRPM,Volt,Curr,Temp,CTot,MotTemp,Err
1615,1.5416e+07,4,0,0,15.85,0.03,29,0,0,0
2073,1.5525e+07,4,0,0,15.85,0.04,29,0,0,0
2494,1.5631e+07,4,0,0,15.84,0.04,29,0,0,0
2904,1.5732e+07,4,0,0,15.85,0.04,29,0,0,0
3355,1.5844e+07,4,0,0,15.85,0.03,29,0,0,0
3769,1.5949e+07,4,0,0,15.85,0.04,29,0,0,0
4180,1.6049e+07,4,0,0,15.85,0.04,29,0,0,0
5012,1.6263e+07,4,0,0,15.85,0.04,29,0,0,0
5422,1.6363e+07,4,0,0,15.85,0.04,29,0,0,0
5869,1.6474e+07,4,0,0,15.84,0.04,29,0,0,0
6282,1.6575e+07,4,0,0,15.85,0.04,29,0,0,0
6737,1.6688e+07,4,0,0,15.84,0.04,29,0,0,0
7146,1.6788e+07,4,0,0,15.85,0.04,29,0,0,0
7564,1.6894e+07,4,0,0,15.85,0.04,29,0,0,0
7974,1.6995e+07,4,0,0,15.85,0.04,29,0,0,0
8428,1.7105e+07,4,0,0,15.85,0.02,29,0,0,0
8839,1.7208e+07,4,5,400,15.83,0.07,29,0,0,0
9642,1.7426e+07,4,843,1171,15.82,0.14,29,0,0,0
10055,1.7529e+07,4,1174,1228,15.83,0.11,29,0,0,0
10468,1.7632e+07,4,1230,1271,15.83,0.11,29,0,0,0
10876,1.7733e+07,4,1271,1285,15.83,0.11,29,0,0,0
11334,1.7845e+07,4,1285,1300,15.83,0.11,29,0,0,0
11749,1.7948e+07,4,1300,1300,15.83,0.11,29,0,0,0
12131,1.805e+07,4,1300,1300,15.84,0.11,29,0,0,0
12587,1.8163e+07,4,1300,1300,15.83,0.1,29,0,0,0
12994,1.8264e+07,4,1300,1300,15.83,0.11,29,0,0,0
13443,1.8375e+07,4,1300,1300,15.83,0.11,29,0,0,0
13852,1.8478e+07,4,1300,1314,15.83,0.1,29,0,0,0
14306,1.8589e+07,4,1312,1300,15.83,0.11,29,0,0,0
14718,1.869e+07,4,1300,1300,15.83,0.11,29,0,0,0
15128,1.8793e+07,4,1300,1300,15.83,0.11,29,0,0,0
15541,1.8896e+07,4,1300,1300,15.83,0.1,29,0,0,0
15993,1.9007e+07,4,1300,1300,15.83,0.11,29,0,0,0
16401,1.9108e+07,4,1300,1300,15.83,0.11,29,0,0,0
16860,1.9225e+07,4,1300,1300,15.83,0.11,29,0,0,0
17236,1.9323e+07,4,1300,1300,15.83,0.1,29,0,0,0
17689,1.9436e+07,4,1300,1300,15.83,0.11,29,0,0,0
18106,1.9538e+07,4,1300,1300,15.83,0.1,29,0,0,0
18517,1.9642e+07,4,1300,1300,15.83,0.11,29,0,0,0
18968,1.9752e+07,4,1300,1300,15.83,0.11,29,0,0,0
19382,1.9855e+07,4,1300,1300,15.83,0.11,29,0,0,0
19795,1.9957e+07,4,1300,1300,15.83,0.11,29,0,0,0
20207,2.006e+07,4,1300,1300,15.83,0.11,29,0,0,0
21064,2.0272e+07,4,1300,1314,15.83,0.11,29,0,0,0
21480,2.0377e+07,4,1313,1300,15.83,0.11,29,0,0,0
21886,2.0478e+07,4,1300,1300,15.83,0.1,29,0,0,0
22341,2.0591e+07,4,1300,1300,15.83,0.11,29,0,0,0
22749,2.0691e+07,4,1300,1300,15.83,0.11,29,0,0,0
23199,2.0802e+07,4,1300,1300,15.83,0.11,29,0,0,0
23617,2.0904e+07,4,1300,1300,15.82,0.1,29,0,0,0
24033,2.1007e+07,4,1300,1300,15.83,0.11,29,0,0,0
24448,2.1112e+07,4,1300,1314,15.83,0.1,29,0,0,0
24904,2.1223e+07,4,1312,1300,15.83,0.1,29,0,0,0
25317,2.1326e+07,4,1300,1300,15.83,0.1,29,0,0,0
25732,2.1428e+07,4,1300,1300,15.82,0.1,29,0,0,0
26190,2.1542e+07,4,1301,1314,15.82,0.12,29,0,0,0
26603,2.1645e+07,4,1329,1557,15.78,0.24,29,0,0,0
27016,2.1748e+07,4,1579,2114,15.73,0.56,29,0,0,0
27470,2.1858e+07,4,2131,2314,15.77,0.41,29,0,0,0
27885,2.1961e+07,4,2318,2371,15.78,0.38,29,0,0,0
28294,2.2061e+07,4,2371,2385,15.77,0.37,29,0,0,0
28767,2.2178e+07,4,2388,2414,15.82,0.38,29,0,0,0
29211,2.2281e+07,4,2406,2328,15.76,0.45,29,0,0,0
29665,2.2385e+07,4,2334,2428,15.75,0.67,29,0,0,0
30116,2.249e+07,4,2452,2828,15.73,0.88,29,0,0,0
30571,2.2598e+07,4,2852,3228,15.61,1.17,29,0,0,0
31022,2.2702e+07,4,3238,3928,15.51,1.9,29,0,0,0
31516,2.2815e+07,4,3972,4614,15.36,2.47,29,0,0,0
31967,2.292e+07,4,4650,5142,15.23,3.06,29,0,0,0
32916,2.3138e+07,4,5182,6028,15.14,3.91,29,0,0,0
33366,2.3242e+07,4,6022,5942,15.22,3.3,29,0,0,0
33821,2.3347e+07,4,5932,5742,15.25,3,29,0,0,0
34284,2.3456e+07,4,5733,5600,15.25,2.5,29,1,0,0
34743,2.3568e+07,4,5586,5400,15.32,2.2,29,1,0,0
35197,2.3675e+07,4,5392,5300,15.23,2.44,29,1,0,0
35652,2.3781e+07,4,5294,5157,15.26,2.2,29,1,0,0
36104,2.3882e+07,4,5156,5114,15.26,2.09,29,1,0,0
36600,2.3993e+07,4,5109,5000,15.23,2.1,29,1,0,0
37044,2.4096e+07,4,4996,4814,15.32,1.42,29,1,0,0
37544,2.4211e+07,4,4800,4657,15.27,1.75,29,1,0,0
38441,2.4418e+07,4,4660,5071,15.17,2.41,29,1,0,0
38933,2.4532e+07,4,5078,5185,15.22,2.38,29,1,0,0
39382,2.4635e+07,4,5185,5200,15.25,2.5,29,1,0,0
39878,2.475e+07,4,5207,5314,15.25,2.57,29,1,0,0
40787,2.4961e+07,4,5314,5400,15.26,2.91,29,1,0,0
41240,2.5071e+07,4,5388,5228,15.27,2.51,29,2,0,0
41685,2.5176e+07,4,5233,5342,15.22,2.67,29,2,0,0
42132,2.5281e+07,4,5340,5257,15.23,2.53,29,2,0,0
42588,2.5391e+07,4,5257,5271,15.26,2.32,29,2,0,0
43082,2.5507e+07,4,5267,5228,15.22,2.27,29,2,0,0
43529,2.5612e+07,4,5230,5257,15.25,3.05,29,2,0,0
43983,2.5723e+07,4,5274,5457,15.17,2.72,29,2,0,0
44429,2.5831e+07,4,5446,5300,15.23,2.25,29,2,0,0
44885,2.5939e+07,4,5298,5285,15.25,2.3,30,2,0,0
45337,2.6043e+07,4,5284,5271,15.27,2.56,30,2,0,0
45790,2.6151e+07,4,5266,5171,15.2,1.78,29,2,0,0
46208,2.6259e+07,4,5169,5142,15.12,2.59,30,2,0,0
46656,2.6365e+07,4,5146,5471,15.2,3.19,30,2,0,0
47146,2.648e+07,4,5472,5485,15.24,2.42,30,3,0,0
47560,2.6584e+07,4,5481,5428,15.16,2.7,30,3,0,0
48009,2.6689e+07,4,5434,5571,15.18,3.16,30,3,0,0
48461,2.6795e+07,4,5565,5442,15.26,2.42,30,3,0,0
48907,2.6901e+07,4,5439,5371,15.21,2.43,30,3,0,0
49363,2.701e+07,4,5366,5300,15.22,2.25,30,3,0,0
49810,2.7117e+07,4,5291,5128,15.22,2.17,30,3,0,0
50262,2.7224e+07,4,5129,5157,15.19,1.97,30,3,0,0
50709,2.7329e+07,4,5159,5271,15.23,2.91,30,3,0,0
51160,2.7437e+07,4,5271,5285,15.21,2.37,30,3,0,0
51620,2.7549e+07,4,5280,5214,15.22,2.35,30,3,0,0
52026,2.7648e+07,4,5216,5371,15.1,2.49,30,3,0,0
52512,2.7758e+07,4,5361,5228,15.2,2.5,30,3,0,0
52957,2.7864e+07,4,5233,5328,15.2,2.47,30,3,0,0
53413,2.7975e+07,4,5326,5314,15.15,2.22,30,4,0,0
54311,2.8187e+07,4,5316,5400,15.1,2.8,30,4,0,0
54763,2.8299e+07,4,5421,5657,15.23,2.82,30,4,0,0
55657,2.8511e+07,4,5654,5285,15.24,2.52,30,4,0,0
56109,2.8619e+07,4,5282,5128,15.16,2.14,30,4,0,0
56560,2.8726e+07,4,5129,5257,15.26,2.65,30,4,0,0
57007,2.884e+07,4,5266,5442,15.23,2.47,30,4,0,0
57464,2.8942e+07,4,5427,5257,15.21,2.43,30,4,0,0
57946,2.906e+07,4,5262,5300,15.16,2.37,30,4,0,0
58398,2.9167e+07,4,5305,5371,15.23,2.61,30,4,0,0
58854,2.928e+07,4,5371,5371,15.23,2.79,30,4,0,0
59262,2.9374e+07,4,5371,5428,15.22,2.09,30,5,0,0
59711,2.9479e+07,4,5423,5100,15.2,2.24,30,5,0,0
60203,2.96e+07,4,5114,5357,15.21,2.58,30,5,0,0
60613,2.9693e+07,4,5353,5200,15.19,2.34,30,5,0,0
61065,2.9811e+07,4,5203,5257,15.19,2.38,30,5,0,0
61520,2.992e+07,4,5241,5100,15.14,2.33,30,5,0,0
61969,3.0025e+07,4,5113,5228,15.15,2.42,30,5,0,0
62868,3.0235e+07,4,5224,5142,15.15,2.29,30,5,0,0
63323,3.0345e+07,4,5149,5257,15.22,2.57,30,5,0,0
63730,3.0442e+07,4,5247,5085,15.13,2.19,30,5,0,0
64185,3.0552e+07,4,5100,5357,15.1,2.78,30,5,0,0
64639,3.0661e+07,4,5359,5385,15.16,2.42,30,5,0,0
65093,3.0771e+07,4,5369,5214,15.16,2.1,30,5,0,0
65541,3.0875e+07,4,5217,5271,15.2,2.17,30,5,0,0
65992,3.0985e+07,4,5268,5228,15.21,2.29,30,6,0,0
66442,3.1093e+07,4,5240,5428,15.19,2.42,30,6,0,0
66895,3.1201e+07,4,5412,5214,15.19,2.13,30,6,0,0
67306,3.1301e+07,4,5213,5200,15.19,2.24,30,6,0,0
67765,3.1414e+07,4,5211,5328,15.23,2.5,30,6,0,0
68214,3.152e+07,4,5337,5442,15.15,2.39,30,6,0,0
68664,3.1626e+07,4,5427,5271,15.1,2.4,30,6,0,0
69111,3.1732e+07,4,5283,5414,15.07,2.76,30,6,0,0
69557,3.1835e+07,4,5411,5357,15.1,2.16,30,6,0,0
70012,3.1945e+07,4,5356,5300,15.13,2.2,30,6,0,0
70498,3.2057e+07,4,5288,5114,15.07,2.21,30,6,0,0
70953,3.2165e+07,4,5118,5185,15.13,2.39,30,6,0,0
71407,3.2273e+07,4,5185,5185,15.09,2.26,30,6,0,0
71856,3.2379e+07,4,5185,5185,15.11,2.11,30,6,0,0
72308,3.2485e+07,4,5183,5157,15.13,2.44,30,7,0,0
72798,3.2601e+07,4,5165,5257,15.15,2.26,30,7,0,0
73207,3.2701e+07,4,5253,5171,15.11,2.14,30,7,0,0
73654,3.2807e+07,4,5166,4971,15.22,2.03,30,7,0,0
74151,3.2925e+07,4,4977,5057,15.2,2.28,30,7,0,0
75011,3.3134e+07,4,5058,5100,15.13,2.06,30,7,0,0
75461,3.324e+07,4,5102,5171,15.08,2.69,30,7,0,0
75916,3.3349e+07,4,5176,5542,15.1,3.01,30,7,0,0
76409,3.3466e+07,4,5539,5514,15.07,2.96,30,7,0,0
76819,3.3567e+07,4,5532,5785,15.03,3.24,30,7,0,0
77237,3.3674e+07,4,5782,5742,14.98,2.9,30,7,0,0
77687,3.3782e+07,4,5736,5600,15.03,2.61,30,7,0,0
78138,3.3887e+07,4,5611,5785,14.98,3.17,30,7,0,0
78589,3.3997e+07,4,5764,5357,15.02,1.89,30,8,0,0
79038,3.4109e+07,4,5370,5514,15.01,2.74,30,8,0,0
79493,3.4224e+07,4,5514,5514,15.01,2.61,30,8,0,0
80398,3.4434e+07,4,5508,5428,15.05,2.29,30,8,0,0
80879,3.4545e+07,4,5425,5400,15.01,2.67,30,8,0,0
81287,3.4645e+07,4,5408,5485,15.08,2.31,30,8,0,0
81740,3.4751e+07,4,5467,5257,15.08,2.62,30,8,0,0
82146,3.4855e+07,4,5264,5400,15.08,2.6,30,8,0,0
82646,3.4971e+07,4,5402,5428,15.14,2.33,30,8,0,0
83501,3.5182e+07,4,5412,5085,15.15,1.89,30,8,0,0
83948,3.5287e+07,4,5081,5028,15.18,1.88,30,8,0,0
84404,3.5398e+07,4,5038,5142,15.14,2.39,30,8,0,0
84856,3.5501e+07,4,5140,5042,15.16,2.04,30,9,0,0
85303,3.5612e+07,4,5051,5228,15.15,2.88,30,9,0,0
85761,3.5725e+07,4,5216,5085,15.14,1.8,30,9,0,0
86209,3.5831e+07,4,5085,5085,15.09,2.37,30,9,0,0
86663,3.5942e+07,4,5108,5357,15.07,2.6,30,9,0,0
87109,3.6047e+07,4,5353,5314,15.05,2.24,30,9,0,0
87520,3.6148e+07,4,5314,5357,15.04,2.63,30,9,0,0
88017,3.6267e+07,4,5391,5685,15.02,3.1,30,9,0,0
88425,3.6367e+07,4,5659,5414,15.04,2.23,30,9,0,0
88840,3.647e+07,4,5411,5371,15.02,3.29,30,9,0,0
89328,3.658e+07,4,5384,5685,14.94,3.3,30,9,0,0
89783,3.6689e+07,4,5660,5400,14.99,2.55,30,9,0,0
90231,3.6795e+07,4,5412,5528,14.96,3.08,30,9,0,0
90681,3.69e+07,4,5532,5614,15,2.88,30,10,0,0
91094,3.7002e+07,4,5610,5314,14.97,2.28,30,10,0,0
91587,3.7118e+07,4,5305,5214,14.96,2.52,30,10,0,0
92031,3.7225e+07,4,5224,5385,15.02,2.46,30,10,0,0
92441,3.7325e+07,4,5377,4914,15.06,1.61,30,10,0,0
92929,3.7436e+07,4,4914,4928,15.08,1.99,30,10,0,0
93390,3.7546e+07,4,4935,5042,15.08,2.1,30,10,0,0
93841,3.7655e+07,4,5038,4957,15.08,2.01,30,10,0,0
94250,3.7756e+07,4,4956,4928,15.08,2.07,30,10,0,0
94738,3.7867e+07,4,4929,4957,15.07,2.25,30,10,0,0
95189,3.7975e+07,4,4974,5157,15.04,2.46,30,10,0,0
95643,3.8085e+07,4,5147,5042,15.01,2.41,30,10,0,0
96092,3.8191e+07,4,5072,5385,15.08,2.77,30,10,0,0
96501,3.8294e+07,4,5368,5200,15,2.32,30,10,0,0
96952,3.8402e+07,4,5203,5242,15.06,2.5,30,11,0,0
97403,3.851e+07,4,5250,5342,14.96,2.67,30,11,0,0
97850,3.8615e+07,4,5335,5242,15.03,2.13,30,11,0,0
98301,3.8723e+07,4,5242,5257,15,2.44,30,11,0,0
98750,3.8832e+07,4,5249,5171,15.03,2.36,30,11,0,0
99169,3.8937e+07,4,5172,5185,14.97,2.33,30,11,0,0
99616,3.9044e+07,4,5182,5157,15.02,2.29,30,11,0,0
1.0052e+05,3.9256e+07,4,5158,5328,15.04,2.53,30,11,0,0
1.0097e+05,3.9365e+07,4,5327,5271,15,2.04,30,11,0,0
1.0145e+05,3.9474e+07,4,5273,5342,15.07,2.59,30,11,0,0
1.019e+05,3.9582e+07,4,5343,5371,15.03,2.73,30,11,0,0
1.0232e+05,3.9686e+07,4,5370,5357,15.05,2.72,30,11,0,0
1.0281e+05,3.9798e+07,4,5353,5314,15.11,2.14,30,11,0,0
1.0326e+05,3.9911e+07,4,5295,5142,15.05,2.21,30,12,0,0
1.0367e+05,4.0014e+07,4,5139,5085,15.04,2.19,30,12,0,0
1.0416e+05,4.0131e+07,4,5081,5028,15,2.22,30,12,0,0
1.0457e+05,4.023e+07,4,5035,5114,15.04,2.56,30,12,0,0
1.0505e+05,4.0341e+07,4,5117,5157,15.05,2.45,30,12,0,0
1.0547e+05,4.0446e+07,4,5157,5157,15.03,2.27,30,12,0,0
1.0592e+05,4.0557e+07,4,5164,5271,14.97,2.49,30,12,0,0
1.0637e+05,4.0664e+07,4,5271,5271,15.06,2.65,30,12,0,0
1.0678e+05,4.0762e+07,4,5271,5300,15.04,2.37,30,12,0,0
1.0727e+05,4.0881e+07,4,5300,5300,15.05,2.53,30,12,0,0
1.0772e+05,4.0987e+07,4,5312,5428,15,2.71,30,12,0,0
1.0817e+05,4.1092e+07,4,5412,5271,15.04,2.29,30,12,0,0
1.0857e+05,4.1193e+07,4,5270,5242,15.02,2.25,30,12,0,0
1.0951e+05,4.1414e+07,4,5233,5042,15.01,2.2,30,13,0,0
1.0996e+05,4.152e+07,4,5051,5157,15.01,2.28,30,13,0,0
1.1039e+05,4.162e+07,4,5155,5114,15.05,2.13,30,13,0,0
1.1085e+05,4.173e+07,4,5109,5014,14.99,2.08,30,13,0,0
1.113e+05,4.1838e+07,4,5014,5014,15,2.42,30,13,0,0
1.1175e+05,4.1944e+07,4,5019,5128,14.98,2.44,30,13,0,0
1.122e+05,4.2054e+07,4,5145,5328,15.02,2.52,30,13,0,0
1.1269e+05,4.2165e+07,4,5324,5285,15.06,2.36,30,13,0,0
1.1309e+05,4.2263e+07,4,5283,5228,15.01,2.39,30,13,0,0
1.1355e+05,4.2374e+07,4,5228,5242,15.01,2.66,30,13,0,0
1.14e+05,4.2484e+07,4,5250,5371,15.01,2.77,30,13,0,0
1.1441e+05,4.2587e+07,4,5371,5428,15.02,2.73,30,13,0,0
1.1486e+05,4.2695e+07,4,5427,5414,15.03,2.75,30,13,0,0
1.1531e+05,4.2803e+07,4,5414,5414,15.03,2.53,30,13,0,0
1.1577e+05,4.2915e+07,4,5410,5371,15.02,2.34,30,14,0,0
1.1618e+05,4.3015e+07,4,5364,5271,14.96,2.41,30,14,0,0
1.1662e+05,4.3123e+07,4,5271,5285,15.04,2.27,30,14,0,0
1.1708e+05,4.3231e+07,4,5285,5300,15.04,2.23,30,14,0,0
1.1757e+05,4.3343e+07,4,5277,5042,14.98,2,30,14,0,0
1.1797e+05,4.3441e+07,4,5041,4985,15.03,2.19,30,14,0,0
1.1846e+05,4.3556e+07,4,4994,5142,14.97,2.4,30,14,0,0
1.1891e+05,4.3663e+07,4,5139,5100,15,2.43,30,14,0,0
1.1932e+05,4.3764e+07,4,5101,5185,14.98,2.44,30,14,0,0
1.1981e+05,4.388e+07,4,5197,5328,14.95,2.41,30,14,0,0
1.2026e+05,4.3984e+07,4,5328,5342,14.91,2.35,30,14,0,0
1.2071e+05,4.4091e+07,4,5336,5257,14.94,3.01,30,14,0,0
1.2116e+05,4.4194e+07,4,5258,5371,14.93,2.46,30,14,0,0
1.2165e+05,4.4309e+07,4,5362,5271,15,2.41,30,14,0,0
1.2206e+05,4.441e+07,4,5269,5228,14.95,2.81,30,15,0,0
1.2254e+05,4.452e+07,4,5234,5328,14.98,2.57,30,15,0,0
1.2299e+05,4.4627e+07,4,5328,5328,15.02,2.31,30,15,0,0
1.2344e+05,4.4736e+07,4,5319,5228,14.96,2.5,30,15,0,0
1.2385e+05,4.4835e+07,4,5228,5257,15.04,2.47,30,15,0,0
1.243e+05,4.4943e+07,4,5258,5342,15,2.5,30,15,0,0
1.2475e+05,4.5052e+07,4,5347,5414,14.97,3,30,15,0,0
1.2523e+05,4.5166e+07,4,5401,5342,14.98,2.44,30,15,0,0
1.2565e+05,4.5263e+07,4,5340,5314,15.02,2.35,30,15,0,0
1.2607e+05,4.537e+07,4,5313,5300,15,2.55,30,15,0,0
1.27e+05,4.5596e+07,4,5298,5271,14.9,2.91,30,15,0,0
1.2741e+05,4.5702e+07,4,5278,5357,14.97,2.26,30,15,0,0
1.2786e+05,4.5806e+07,4,5342,5200,15.01,2.27,30,16,0,0
1.2876e+05,4.6021e+07,4,5197,5157,14.95,2.33,30,16,0,0
1.2921e+05,4.6126e+07,4,5154,5114,14.97,2.17,30,16,0,0
1.2966e+05,4.6238e+07,4,5117,5142,14.93,2.3,30,16,0,0
1.3011e+05,4.6347e+07,4,5147,5200,14.97,2.45,30,16,0,0
1.3052e+05,4.6447e+07,4,5197,5157,14.98,2.17,30,16,0,0
1.3097e+05,4.6553e+07,4,5145,5014,14.96,2.35,30,16,0,0
1.3221e+05,4.6873e+07,4,5263,5357,14.94,2.68,30,16,0,0
1.331e+05,4.7086e+07,4,5357,5371,14.95,2.7,30,16,0,0
1.3355e+05,4.7195e+07,4,5372,5400,14.93,2.61,30,16,0,0
1.3405e+05,4.7314e+07,4,5400,5400,14.96,2.68,30,17,0,0
1.3445e+05,4.7413e+07,4,5396,5357,14.99,2.64,30,17,0,0
1.349e+05,4.7517e+07,4,5354,5300,14.98,2.48,30,17,0,0
1.3534e+05,4.7625e+07,4,5310,5457,14.97,2.71,30,17,0,0
1.358e+05,4.7733e+07,4,5455,5428,14.9,2.35,30,17,0,0
1.3624e+05,4.784e+07,4,5428,5442,14.97,2.55,30,17,0,0
1.367e+05,4.7949e+07,4,5427,5271,15.01,2.1,30,17,0,0
1.3714e+05,4.8055e+07,4,5267,5157,15,2.3,30,17,0,0
1.376e+05,4.8164e+07,4,5159,5314,15.01,2.49,30,17,0,0
1.3804e+05,4.8269e+07,4,5303,5057,14.97,2.48,30,17,0,0
1.385e+05,4.838e+07,4,5062,5200,14.98,2.43,30,17,0,0
1.3894e+05,4.8485e+07,4,5203,5271,14.97,2.58,30,17,0,0
1.3939e+05,4.8592e+07,4,5269,5242,14.95,2.41,30,17,0,0
1.3984e+05,4.8703e+07,4,5235,5100,14.94,2.23,30,18,0,0
1.4029e+05,4.8812e+07,4,5105,5228,14.97,2.55,30,18,0,0
1.4074e+05,4.892e+07,4,5231,5314,14.97,2.64,30,18,0,0
1.4119e+05,4.9028e+07,4,5317,5400,15,2.81,30,18,0,0
1.4168e+05,4.9144e+07,4,5398,5385,14.96,2.59,30,18,0,0
1.4209e+05,4.9245e+07,4,5382,5314,14.89,2.61,30,18,0,0
1.4259e+05,4.9365e+07,4,5315,5328,14.95,2.67,30,18,0,0
1.4304e+05,4.9474e+07,4,5324,5285,15.02,2.56,30,18,0,0
1.4344e+05,4.9576e+07,4,5288,5371,15,2.33,30,18,0,0
1.4393e+05,4.9692e+07,4,5362,5271,14.97,2.53,30,18,0,0
1.4434e+05,4.9793e+07,4,5271,5285,15,2.37,30,18,0,0
1.4483e+05,4.9903e+07,4,5275,5142,15,2.33,30,18,0,0
1.4528e+05,5.0014e+07,4,5152,5285,14.97,2.74,30,18,0,0
1.4569e+05,5.0122e+07,4,5286,5300,14.91,2.54,30,19,0,0
1.4614e+05,5.0229e+07,4,5292,5242,14.88,2.49,30,19,0,0
1.4659e+05,5.0336e+07,4,5248,5300,14.91,2.63,30,19,0,0
1.47e+05,5.043e+07,4,5299,5271,14.93,2.56,30,19,0,0
1.4742e+05,5.0535e+07,4,5273,5400,14.96,2.62,30,19,0,0
1.4794e+05,5.0655e+07,4,5401,5414,14.95,2.6,30,19,0,0
1.4835e+05,5.0756e+07,4,5407,5342,15,2.62,30,19,0,0
1.4883e+05,5.0872e+07,4,5341,5328,14.99,2.57,30,19,0,0
1.4924e+05,5.0966e+07,4,5330,5385,14.94,2.53,30,19,0,0
1.4969e+05,5.1079e+07,4,5381,5342,14.96,2.48,30,19,0,0
1.5014e+05,5.1186e+07,4,5338,5300,14.94,2.65,30,19,0,0
1.5055e+05,5.129e+07,4,5306,5428,14.92,2.64,30,19,0,0
1.5108e+05,5.1409e+07,4,5410,5285,14.89,2.6,30,19,0,0
1.5148e+05,5.151e+07,4,5286,5300,14.94,2.38,30,20,0,0
1.5194e+05,5.1622e+07,4,5292,5228,14.96,2.65,30,20,0,0
1.5234e+05,5.1718e+07,4,5230,5414,14.97,2.49,30,20,0,0
1.528e+05,5.1824e+07,4,5410,5357,14.93,2.59,30,20,0,0
1.5328e+05,5.194e+07,4,5351,5300,14.95,2.5,30,20,0,0
1.5373e+05,5.2046e+07,4,5276,5071,14.9,2.24,30,20,0,0
1.5504e+05,5.236e+07,4,5071,5100,14.79,2.41,30,20,0,0
1.5557e+05,5.2482e+07,4,5114,5271,14.83,2.54,30,20,0,0
1.5594e+05,5.2581e+07,4,5267,5200,14.91,2.61,30,20,0,0
1.5638e+05,5.2684e+07,4,5201,5300,14.96,2.59,30,20,0,0
1.5684e+05,5.2792e+07,4,5298,5271,14.98,2.49,30,20,0,0
1.5733e+05,5.2908e+07,4,5276,5342,14.96,2.67,30,21,0,0
1.5777e+05,5.3015e+07,4,5351,5442,14.98,2.56,30,21,0,0
1.5818e+05,5.311e+07,4,5439,5328,14.97,2.5,30,21,0,0
1.5863e+05,5.3221e+07,4,5327,5271,14.97,2.63,30,21,0,0
1.5912e+05,5.3338e+07,4,5264,5200,14.98,2.35,30,21,0,0
1.5957e+05,5.3443e+07,4,5219,5428,14.98,3.07,30,21,0,0
1.6002e+05,5.3549e+07,4,5433,5571,14.86,2.88,30,21,0,0
1.6047e+05,5.3658e+07,4,5553,5371,14.85,2.69,30,21,0,0
1.6091e+05,5.3763e+07,4,5371,5385,14.94,2.52,30,21,0,0
1.6136e+05,5.3868e+07,4,5381,5300,14.89,2.52,30,21,0,0
1.6181e+05,5.3978e+07,4,5316,5485,14.82,2.79,30,21,0,0
1.6222e+05,5.4078e+07,4,5485,5500,14.84,2.75,30,21,0,0
1.6266e+05,5.4185e+07,4,5498,5414,14.83,2.91,30,21,0,0
1.6316e+05,5.4299e+07,4,5423,5528,14.88,2.95,30,22,0,0
1.6361e+05,5.4405e+07,4,5526,5514,14.94,2.62,30,22,0,0
1.6406e+05,5.4512e+07,4,5491,5257,14.89,2.46,30,22,0,0
1.6446e+05,5.4612e+07,4,5262,5385,14.93,2.84,30,22,0,0
1.6492e+05,5.4723e+07,4,5379,5300,14.89,2.77,30,22,0,0
1.6533e+05,5.4823e+07,4,5301,5428,14.85,2.71,30,22,0,0
1.6578e+05,5.4935e+07,4,5427,5414,14.88,2.6,30,22,0,0
1.6623e+05,5.5041e+07,4,5419,5571,14.96,2.8,30,22,0,0
1.6668e+05,5.5146e+07,4,5560,5285,14.98,2.32,30,22,0,0
1.6713e+05,5.5256e+07,4,5283,5257,14.92,2.31,30,22,0,0
1.6758e+05,5.5366e+07,4,5255,5214,14.94,2.66,30,22,0,0
1.6803e+05,5.547e+07,4,5219,5342,14.96,2.55,30,22,0,0
1.6848e+05,5.5582e+07,4,5343,5371,14.96,2.61,30,22,0,0
1.6893e+05,5.569e+07,4,5363,5285,14.96,2.59,30,23,0,0
1.6938e+05,5.5795e+07,4,5290,5385,15.02,2.43,30,23,0,0
1.6987e+05,5.5911e+07,4,5380,5328,14.94,2.7,30,23,0,0
1.7032e+05,5.6014e+07,4,5340,5514,14.9,2.76,30,23,0,0
1.7076e+05,5.6121e+07,4,5509,5442,14.92,2.65,30,23,0,0
1.7125e+05,5.6232e+07,4,5440,5428,14.93,2.48,30,23,0,0
1.717e+05,5.6337e+07,4,5413,5200,14.95,2.27,30,23,0,0
1.7215e+05,5.6445e+07,4,5202,5228,14.95,2.19,30,23,0,0
1.726e+05,5.655e+07,4,5220,5100,14.98,1.97,30,23,0,0
1.7304e+05,5.6659e+07,4,5104,5142,14.92,2.77,30,23,0,0
1.7349e+05,5.6763e+07,4,5149,5328,14.92,2.81,30,23,0,0
1.7394e+05,5.6875e+07,4,5331,5357,14.98,2.56,30,23,0,0
1.7438e+05,5.6974e+07,4,5356,5342,14.92,2.36,30,23,0,0
1.7483e+05,5.7085e+07,4,5343,5442,14.94,2.84,30,23,0,0
1.7536e+05,5.7204e+07,4,5434,5357,14.97,2.43,30,24,0,0
1.7577e+05,5.73e+07,4,5354,5300,15.05,2.3,30,24,0,0
1.7622e+05,5.7414e+07,4,5309,5385,15.05,2.25,30,24,0,0
1.7667e+05,5.7518e+07,4,5375,5271,15,2.55,30,24,0,0
1.7712e+05,5.7626e+07,4,5275,5385,14.94,2.51,30,24,0,0
1.7757e+05,5.7735e+07,4,5375,5271,15.01,2.4,30,24,0,0
1.7802e+05,5.7842e+07,4,5274,5328,14.98,2.04,30,24,0,0
1.7847e+05,5.7947e+07,4,5322,5214,15.01,2.16,30,24,0,0
1.7892e+05,5.8057e+07,4,5219,5300,14.98,2.24,30,24,0,0
1.7937e+05,5.8165e+07,4,5303,5357,14.95,2.3,30,24,0,0
1.7981e+05,5.827e+07,4,5350,5200,14.98,2.48,30,24,0,0
1.8026e+05,5.8381e+07,4,5207,5328,14.92,2.3,30,24,0,0
1.8071e+05,5.8488e+07,4,5327,5300,14.97,2.61,30,24,0,0
1.8117e+05,5.8594e+07,4,5303,5528,14.92,2.83,30,25,0,0
1.8161e+05,5.8701e+07,4,5528,5557,14.93,2.75,30,25,0,0
1.8211e+05,5.8821e+07,4,5540,5371,14.89,2.58,30,25,0,0
1.8247e+05,5.8916e+07,4,5368,5257,14.94,2.14,30,25,0,0
1.8297e+05,5.9031e+07,4,5240,5071,14.91,2.18,30,25,0,0
1.8342e+05,5.914e+07,4,5067,5028,14.94,2.01,30,25,0,0
1.8383e+05,5.9242e+07,4,5025,4971,14.94,2.23,30,25,0,0
1.8428e+05,5.9349e+07,4,4972,5085,14.88,2.44,30,25,0,0
1.8477e+05,5.9463e+07,4,5079,5000,14.97,2.04,30,25,0,0
1.8522e+05,5.9572e+07,4,5008,5128,14.95,2.26,30,25,0,0
1.8567e+05,5.9679e+07,4,5121,5028,14.95,2.13,30,25,0,0
1.8612e+05,5.9785e+07,4,5028,5028,14.89,2.49,30,25,0,0
1.8657e+05,5.9893e+07,4,5039,5214,14.92,2.59,30,25,0,0
1.8702e+05,6.0002e+07,4,5227,5414,14.95,2.77,30,25,0,0
1.8747e+05,6.0112e+07,4,5419,5471,14.91,2.55,30,26,0,0
1.8792e+05,6.0217e+07,4,5473,5514,14.95,2.59,30,26,0,0
1.8837e+05,6.0327e+07,4,5508,5442,14.91,2.52,30,26,0,0
1.8882e+05,6.0437e+07,4,5447,5500,14.95,2.6,30,26,0,0
1.8927e+05,6.0545e+07,4,5498,5485,14.9,2.64,30,26,0,0
1.8972e+05,6.065e+07,4,5492,5571,14.94,2.7,30,26,0,0
1.9014e+05,6.0757e+07,4,5565,5414,14.94,2.8,30,26,0,0
1.9058e+05,6.0867e+07,4,5421,5614,14.93,2.62,30,26,0,0
1.9103e+05,6.0973e+07,4,5602,5442,14.96,2.6,30,26,0,0
1.9148e+05,6.1085e+07,4,5448,5514,14.82,2.91,30,26,0,0
1.9238e+05,6.1301e+07,4,5519,5614,14.91,2.87,30,26,0,0
1.9283e+05,6.1406e+07,4,5614,5614,14.88,2.58,30,26,0,0
1.9328e+05,6.1515e+07,4,5603,5500,14.95,2.67,30,27,0,0
1.9371e+05,6.1617e+07,4,5498,5400,14.96,2.52,30,27,0,0
1.9413e+05,6.1719e+07,4,5398,5257,14.98,2.41,30,27,0,0
1.9458e+05,6.1835e+07,4,5259,5285,14.97,2.49,30,27,0,0
1.9504e+05,6.194e+07,4,5286,5300,14.97,2.39,30,27,0,0
1.9548e+05,6.2051e+07,4,5309,5385,14.95,2.98,30,27,0,0
1.959e+05,6.2155e+07,4,5383,5371,14.99,2.08,30,27,0,0
1.9632e+05,6.2257e+07,4,5348,5100,14.97,2.03,30,27,0,0
1.9721e+05,6.2474e+07,4,5108,5285,14.97,2.41,30,27,0,0
1.9766e+05,6.258e+07,4,5281,5214,14.95,2.43,30,27,0,0
1.9814e+05,6.2695e+07,4,5220,5285,14.95,2.45,30,27,0,0
1.9859e+05,6.2802e+07,4,5291,5385,14.92,2.57,30,27,0,0
1.99e+05,6.2905e+07,4,5387,5528,14.93,2.66,30,28,0,0
1.9945e+05,6.3014e+07,4,5526,5442,14.9,2.58,30,28,0,0
1.9994e+05,6.3129e+07,4,5460,5657,14.91,3.03,30,28,0,0
2.0036e+05,6.3233e+07,4,5651,5571,14.87,2.97,30,28,0,0
2.008e+05,6.3337e+07,4,5567,5471,14.93,2.55,30,28,0,0
2.0125e+05,6.3444e+07,4,5469,5342,14.95,2.35,30,28,0,0
2.0167e+05,6.3549e+07,4,5341,5285,15,2.28,30,28,0,0
2.0216e+05,6.3661e+07,4,5288,5357,14.89,2.6,30,28,0,0
2.0262e+05,6.3775e+07,4,5346,5228,15.01,2.56,30,28,0,0
2.0304e+05,6.3881e+07,4,5236,5328,14.95,2.46,30,28,0,0
2.0348e+05,6.3987e+07,4,5325,5257,14.95,2.46,30,28,0,0
2.0396e+05,6.4095e+07,4,5261,5328,14.93,2.68,30,28,0,0
2.0442e+05,6.4203e+07,4,5331,5385,14.94,2.68,30,28,0,0
2.0483e+05,6.4308e+07,4,5386,5414,14.98,2.63,30,29,0,0
2.0531e+05,6.4419e+07,4,5414,5414,14.95,2.74,30,29,0,0
2.0576e+05,6.4525e+07,4,5406,5300,14.96,2.4,30,29,0,0
2.0621e+05,6.4627e+07,4,5300,5328,14.96,2.39,30,29,0,0
2.0666e+05,6.4739e+07,4,5325,5285,14.89,2.41,30,29,0,0
2.0711e+05,6.4846e+07,4,5289,5357,14.93,2.34,30,29,0,0
2.076e+05,6.4958e+07,4,5350,5257,14.94,2.21,30,29,0,0
2.08e+05,6.5058e+07,4,5256,5242,14.95,2.52,30,29,0,0
2.0846e+05,6.5169e+07,4,5247,5328,14.89,2.82,30,29,0,0
2.0938e+05,6.539e+07,4,5325,5285,14.93,2.54,30,29,0,0
2.0987e+05,6.5505e+07,4,5294,5357,14.86,2.69,30,29,0,0
2.1028e+05,6.5605e+07,4,5353,5314,14.9,2.47,30,29,0,0
2.1077e+05,6.5717e+07,4,5317,5371,14.91,2.51,30,29,0,0
2.1166e+05,6.5932e+07,4,5380,5571,14.91,2.8,30,30,0,0
2.1211e+05,6.6036e+07,4,5570,5557,14.86,2.94,30,30,0,0
2.1255e+05,6.6144e+07,4,5573,5771,14.92,2.98,30,30,0,0
2.13e+05,6.6252e+07,4,5757,5571,14.83,3.13,30,30,0,0
2.1345e+05,6.6362e+07,4,5574,5614,14.84,2.85,30,30,0,0
2.1389e+05,6.6464e+07,4,5613,5585,14.89,2.86,30,30,0,0
2.1434e+05,6.6572e+07,4,5582,5528,14.9,2.74,30,30,0,0
2.1479e+05,6.6678e+07,4,5521,5385,14.91,2.58,30,30,0,0
2.1528e+05,6.6792e+07,4,5385,5385,14.91,2.68,30,30,0,0
2.1572e+05,6.6896e+07,4,5378,5285,14.93,2.31,30,30,0,0
2.1613e+05,6.6995e+07,4,5284,5271,14.92,2.12,30,30,0,0
2.1662e+05,6.711e+07,4,5265,5171,14.92,2.08,30,31,0,0
2.171e+05,6.7224e+07,4,5168,5142,14.93,2.3,30,31,0,0
2.1751e+05,6.7323e+07,4,5142,5214,14.97,2.4,30,31,0,0
2.1795e+05,6.7432e+07,4,5212,5114,14.96,2.33,30,31,0,0
2.1844e+05,6.7547e+07,4,5110,5085,14.95,2.38,30,31,0,0
2.1885e+05,6.7648e+07,4,5103,5371,14.97,2.81,30,31,0,0
2.193e+05,6.7759e+07,4,5365,5285,14.95,2.24,30,31,0,0
2.1979e+05,6.7871e+07,4,5270,5114,14.94,2.28,30,31,0,0
2.2019e+05,6.7971e+07,4,5113,5100,14.96,2.26,30,31,0,0
2.2069e+05,6.8087e+07,4,5093,5028,14.92,1.85,30,31,0,0
2.2113e+05,6.8195e+07,4,5020,4942,14.9,1.99,30,31,0,0
2.2158e+05,6.8297e+07,4,4944,5014,14.92,2.33,30,31,0,0
2.2202e+05,6.8399e+07,4,5013,4971,15,1.88,30,31,0,0
2.2251e+05,6.8516e+07,4,4954,4771,15.03,1.42,30,31,0,0
2.2296e+05,6.8623e+07,4,4737,3871,15.5,0.34,30,31,0,0
2.2344e+05,6.8741e+07,4,3816,3457,15.01,2.8,30,31,0,0
2.2389e+05,6.8848e+07,4,3409,2928,15.4,0.23,30,32,0,0
2.2433e+05,6.8955e+07,4,2878,2571,15.43,0.25,30,32,0,0
2.2473e+05,6.9049e+07,4,2564,2157,15.35,0.2,30,32,0,0
2.2522e+05,6.9167e+07,4,2149,2071,15.37,0.22,30,32,0,0
2.2606e+05,6.9372e+07,4,2070,2028,15.37,0.22,30,32,0,0
2.2655e+05,6.9484e+07,4,2026,2000,15.37,0.18,30,32,0,0
2.27e+05,6.9593e+07,4,2000,2014,15.38,0.22,30,32,0,0
2.2744e+05,6.9698e+07,4,2012,1971,15.38,0.21,30,32,0,0
2.2789e+05,6.9804e+07,4,1972,2000,15.38,0.21,30,32,0,0
2.2834e+05,6.9911e+07,4,2000,2000,15.39,0.19,30,32,0,0
2.2878e+05,7.0019e+07,4,1999,1985,15.38,0.22,30,32,0,0
2.2924e+05,7.0127e+07,4,1984,1971,15.38,0.19,30,32,0,0
2.2969e+05,7.0237e+07,4,1969,1957,15.37,0.22,30,32,0,0
2.3009e+05,7.0333e+07,4,1956,1942,15.39,0.19,30,32,0,0
2.3058e+05,7.045e+07,4,1943,1957,15.38,0.19,30,32,0,0
2.3102e+05,7.0555e+07,4,1955,1942,15.38,0.2,30,32,0,0
2.3147e+05,7.0661e+07,4,1934,1828,15.46,0.08,30,32,0,0
2.3192e+05,7.0774e+07,4,1807,1500,15.45,0.01,30,32,0,0
2.3237e+05,7.088e+07,4,1488,1314,15.44,0.07,30,32,0,0
2.3286e+05,7.0994e+07,4,1311,1285,15.44,0.09,30,32,0,0
2.3327e+05,7.1091e+07,4,1284,1271,15.44,0.09,30,32,0,0
2.3372e+05,7.1203e+07,4,1271,1271,15.44,0.1,30,32,0,0
2.3417e+05,7.1308e+07,4,1271,1271,15.45,0.1,30,32,0,0
2.3465e+05,7.1421e+07,4,1271,1271,15.44,0.1,30,32,0,0
2.351e+05,7.1526e+07,4,1270,1257,15.45,0.1,30,32,0,0
2.3554e+05,7.1633e+07,4,1257,1257,15.44,0.1,30,32,0,0
2.3598e+05,7.1741e+07,4,1257,1271,15.45,0.1,30,32,0,0
2.3648e+05,7.1857e+07,4,1269,1257,15.45,0.1,30,32,0,0
2.3692e+05,7.1963e+07,4,1258,1271,15.45,0.1,30,32,0,0
2.3737e+05,7.207e+07,4,1269,1257,15.45,0.1,30,32,0,0
2.3782e+05,7.2177e+07,4,1244,1100,15.48,0.06,30,32,0,0
2.3827e+05,7.2281e+07,4,1067,314,15.48,0,30,32,0,0
2.3873e+05,7.2391e+07,4,298,0,15.48,0,30,32,0,0
2.3922e+05,7.2505e+07,4,0,0,15.48,0.04,30,32,0,0
2.3967e+05,7.2609e+07,4,0,0,15.48,0.04,30,32,0,0
2.4012e+05,7.2714e+07,4,0,0,15.48,0.04,30,32,0,0
2.4062e+05,7.2832e+07,4,0,0,15.49,0.04,30,32,0,0
2.4107e+05,7.2936e+07,4,0,0,15.48,0.04,30,32,0,0
2.4152e+05,7.304e+07,4,0,0,15.49,0.04,30,32,0,0
2.4201e+05,7.3154e+07,4,0,0,15.49,0.04,30,32,0,0
2.425e+05,7.3269e+07,4,0,0,15.49,0.03,30,32,0,0
2.4292e+05,7.3369e+07,4,0,0,15.49,0.03,30,32,0,0
2.434e+05,7.3479e+07,4,0,0,15.5,0.03,30,32,0,0
2.4386e+05,7.3588e+07,4,0,0,15.49,0.03,30,32,0,0
2.4431e+05,7.3693e+07,4,0,0,15.5,0.03,30,32,0,0
2.448e+05,7.3806e+07,4,0,0,15.5,0.03,30,32,0,0
2.4525e+05,7.391e+07,4,0,0,15.5,0.03,30,32,0,0
2.4571e+05,7.402e+07,4,0,0,15.5,0.04,30,32,0,0
2.4616e+05,7.4125e+07,4,0,0,15.5,0.04,30,32,0,0
2.4665e+05,7.4239e+07,4,0,0,15.51,0.03,30,32,0,0
2.4707e+05,7.4338e+07,4,0,0,15.51,0.03,30,32,0,0
2.4756e+05,7.4455e+07,4,0,0,15.51,0.04,30,32,0,0
2.4797e+05,7.4554e+07,4,0,0,15.51,0.03,30,32,0,0
2.4847e+05,7.467e+07,4,0,0,15.51,0.03,30,32,0,0
2.4896e+05,7.4783e+07,4,0,0,15.51,0.03,30,32,0,0
2.4941e+05,7.4888e+07,4,0,0,15.51,0.03,30,32,0,0
2.4986e+05,7.4993e+07,4,0,0,15.51,0.03,30,32,0,0
2.5036e+05,7.5106e+07,4,0,0,15.51,0.03,30,32,0,0
2.5081e+05,7.5216e+07,4,0,0,15.52,0.03,30,32,0,0
2.5126e+05,7.532e+07,4,0,0,15.51,0.04,30,32,0,0
2.5171e+05,7.5427e+07,4,0,0,15.52,0.04,30,32,0,0
2.5216e+05,7.5538e+07,4,0,0,15.52,0.04,30,32,0,0
2.5266e+05,7.5653e+07,4,0,0,15.52,0.04,30,32,0,0
2.5307e+05,7.575e+07,4,0,0,15.52,0.04,30,32,0,0
2.5356e+05,7.5864e+07,4,0,0,15.52,0.04,30,32,0,0
2.5406e+05,7.5979e+07,4,0,0,15.52,0.03,30,32,0,0
2.5451e+05,7.6083e+07,4,0,0,15.52,0.03,30,32,0,0
2.5496e+05,7.619e+07,4,0,0,15.52,0.03,30,32,0,0
2.5546e+05,7.6302e+07,4,0,0,15.53,0.04,30,32,0,0
2.559e+05,7.6405e+07,4,0,0,15.53,0.04,30,32,0,0
2.5641e+05,7.652e+07,4,0,0,15.53,0.03,30,32,0,0
2.5686e+05,7.6627e+07,4,0,0,15.54,0.03,30,32,0,0
2.5731e+05,7.6731e+07,4,0,0,15.54,0.04,30,32,0,0
2.5776e+05,7.6837e+07,4,0,0,15.54,0.04,30,32,0,0
2.587e+05,7.7057e+07,4,0,0,15.54,0.03,30,32,0,0
2.592e+05,7.7175e+07,4,0,0,15.54,0.04,30,32,0,0
2.5965e+05,7.7277e+07,4,0,0,15.54,0.04,30,32,0,0
2.601e+05,7.7384e+07,4,0,0,15.54,0.04,30,32,0,0
2.606e+05,7.7498e+07,4,0,0,15.54,0.04,30,32,0,0
2.6105e+05,7.7606e+07,4,0,0,15.54,0.04,30,32,0,0
2.615e+05,7.7711e+07,4,0,0,15.55,0.04,30,32,0,0
2.6195e+05,7.782e+07,4,0,0,15.54,0.04,30,32,0,0
2.624e+05,7.7921e+07,4,0,0,15.54,0.04,30,32,0,0
2.629e+05,7.8039e+07,4,0,0,15.55,0.04,30,32,0,0
2.6335e+05,7.8142e+07,4,0,0,15.54,0.04,30,32,0,0
2.6384e+05,7.8259e+07,4,0,0,15.54,0.04,30,32,0,0
2.643e+05,7.8365e+07,4,0,0,15.55,0.04,30,32,0,0
2.6474e+05,7.847e+07,4,0,0,15.55,0.04,30,32,0,0
2.6524e+05,7.8586e+07,4,0,0,15.55,0.04,30,32,0,0
2.657e+05,7.8689e+07,4,0,0,15.55,0.04,30,32,0,0
2.6614e+05,7.8792e+07,4,0,0,15.55,0.04,30,32,0,0
2.6664e+05,7.8908e+07,4,0,0,15.55,0.04,30,32,0,0
2.671e+05,7.9015e+07,4,0,0,15.55,0.04,30,32,0,0
2.6755e+05,7.9119e+07,4,0,0,15.55,0.04,30,32,0,0
2.6804e+05,7.9236e+07,4,0,0,15.55,0.04,30,32,0,0
2.685e+05,7.9345e+07,4,0,0,15.56,0.04,30,32,0,0
2.6895e+05,7.9449e+07,4,0,0,15.56,0.04,30,32,0,0
2.694e+05,7.9554e+07,4,0,0,15.56,0.04,30,32,0,0
2.699e+05,7.9667e+07,4,0,0,15.56,0.04,30,32,0,0
2.7034e+05,7.9772e+07,4,0,0,15.56,0.04,30,32,0,0
2.7084e+05,7.9886e+07,4,0,0,15.57,0.04,30,32,0,0
2.7129e+05,7.9994e+07,4,0,0,15.57,0.04,30,32,0,0
2.7178e+05,8.0109e+07,4,0,0,15.56,0.04,30,32,0,0
2.7219e+05,8.021e+07,4,0,0,15.56,0.04,30,32,0,0
2.7269e+05,8.0324e+07,4,0,0,15.57,0.04,30,32,0,0
2.7318e+05,8.0434e+07,4,0,0,15.57,0.04,30,32,0,0
2.7363e+05,8.0537e+07,4,0,0,15.57,0.04,30,32,0,0
2.7408e+05,8.0644e+07,4,0,0,15.57,0.04,30,32,0,0
2.7453e+05,8.0753e+07,4,0,0,15.57,0.04,30,32,0,0
2.7503e+05,8.0868e+07,4,0,0,15.57,0.04,30,32,0,0
2.7548e+05,8.0971e+07,4,0,0,15.57,0.04,30,32,0,0
2.7597e+05,8.1087e+07,4,0,0,15.57,0.04,30,32,0,0
2.7638e+05,8.1187e+07,4,0,0,15.57,0.04,30,32,0,0
2.7688e+05,8.1299e+07,4,0,0,15.57,0.04,30,32,0,0
2.7733e+05,8.1409e+07,4,0,0,15.57,0.04,30,32,0,0
2.7779e+05,8.1515e+07,4,0,0,15.57,0.04,30,32,0,0
2.7828e+05,8.1626e+07,4,0,0,15.57,0.04,30,32,0,0
2.7873e+05,8.1731e+07,4,0,0,15.57,0.04,30,32,0,0
2.7918e+05,8.1839e+07,4,0,0,15.58,0.04,30,32,0,0
2.7963e+05,8.1944e+07,4,0,0,15.58,0.04,30,32,0,0
2.8013e+05,8.2057e+07,4,0,0,15.57,0.04,30,32,0,0
2.8058e+05,8.2165e+07,4,0,0,15.58,0.04,30,32,0,0
2.8103e+05,8.2272e+07,4,0,0,15.58,0.05,30,32,0,0
2.8148e+05,8.2376e+07,4,0,0,15.57,0.04,30,32,0,0
2.8197e+05,8.2491e+07,4,0,0,15.58,0.04,30,32,0,0
2.8242e+05,8.2599e+07,4,0,0,15.58,0.04,30,32,0,0
2.8292e+05,8.2714e+07,4,0,0,15.58,0.04,30,32,0,0
2.8337e+05,8.2816e+07,4,0,0,15.58,0.04,30,32,0,0
2.8386e+05,8.2931e+07,4,0,0,15.58,0.04,30,32,0,0
2.8432e+05,8.3041e+07,4,0,0,15.58,0.04,30,32,0,0
2.8477e+05,8.3146e+07,4,0,0,15.58,0.04,30,32,0,0
2.8522e+05,8.3252e+07,4,0,0,15.58,0.04,30,32,0,0
2.8613e+05,8.3467e+07,4,0,0,15.58,0.04,30,32,0,0
2.8657e+05,8.3572e+07,4,0,0,15.59,0.04,30,32,0,0
2.8707e+05,8.3685e+07,4,0,0,15.59,0.04,30,32,0,0
2.8756e+05,8.38e+07,4,0,0,15.59,0.04,30,32,0,0
2.8801e+05,8.3902e+07,4,0,0,15.59,0.04,30,32,0,0
2.8846e+05,8.401e+07,4,0,0,15.59,0.04,30,32,0,0
2.8896e+05,8.4123e+07,4,0,0,15.6,0.04,30,32,0,0
2.8941e+05,8.4228e+07,4,0,0,15.58,0.04,30,32,0,0
2.899e+05,8.4346e+07,4,0,0,15.59,0.04,30,32,0,0
2.9036e+05,8.4452e+07,4,0,0,15.59,0.04,30,32,0,0
2.9081e+05,8.456e+07,4,0,0,15.6,0.04,30,32,0,0
2.9126e+05,8.4663e+07,4,0,0,15.6,0.04,30,32,0,0
2.9167e+05,8.4761e+07,4,0,0,15.6,0.04,30,32,0,0
2.9217e+05,8.488e+07,4,0,0,15.6,0.04,30,32,0,0
2.9262e+05,8.4991e+07,4,0,0,15.6,0.04,30,32,0,0
2.9307e+05,8.5096e+07,4,0,0,15.59,0.04,30,32,0,0
2.9352e+05,8.5203e+07,4,0,0,15.6,0.04,30,32,0,0
2.9402e+05,8.5316e+07,4,0,0,15.6,0.04,30,32,0,0
2.9446e+05,8.5421e+07,4,0,0,15.6,0.04,30,32,0,0
2.9489e+05,8.5522e+07,4,0,0,15.6,0.04,30,32,0,0
2.9538e+05,8.5641e+07,4,0,0,15.6,0.04,30,32,0,0
2.9583e+05,8.5745e+07,4,0,0,15.6,0.04,30,32,0,0
2.9628e+05,8.585e+07,4,0,0,15.6,0.04,30,32,0,0
2.9677e+05,8.5967e+07,4,0,0,15.6,0.04,30,32,0,0
2.9768e+05,8.6178e+07,4,0,0,15.6,0.04,30,32,0,0
2.9817e+05,8.6292e+07,4,0,0,15.6,0.04,30,32,0,0
2.9907e+05,8.65e+07,4,0,0,15.6,0.04,30,32,0,0
2.9952e+05,8.6607e+07,4,0,0,15.6,0.04,30,32,0,0
2.9998e+05,8.6714e+07,4,0,0,15.6,0.04,30,32,0,0
3.0047e+05,8.6826e+07,4,0,0,15.61,0.04,30,32,0,0
3.0092e+05,8.6932e+07,4,0,0,15.61,0.04,30,32,0,0
3.0142e+05,8.7045e+07,4,0,0,15.6,0.04,30,32,0,0
