LineNo,TimeUS,Instance,RPM,RawRPM,Volt,Curr,Temp,CTot,MotTemp,Err
1859,15473273,1,0,0,16.06,0.04,26,0,0,0
2239,15568770,1,0,0,16.06,0.04,26,0,0,0
2696,15681999,1,0,0,16.06,0.04,26,0,0,0
3109,15782299,1,0,0,16.06,0.04,26,0,0,0
3566,15895555,1,0,0,16.06,0.04,26,0,0,0
3977,15999578,1,0,0,16.06,0.04,26,0,0,0
4390,16099645,1,0,0,16.06,0.04,26,0,0,0
4811,16210001,1,0,0,16.06,0.04,26,0,0,0
5222,16312858,1,0,0,16.06,0.04,26,0,0,0
5631,16412663,1,0,0,16.05,0.04,26,0,0,0
6080,16524156,1,0,0,16.06,0.04,26,0,0,0
6536,16635053,1,0,0,16.05,0.04,26,0,0,0
6948,16737805,1,0,0,16.05,0.04,26,0,0,0
7357,16838424,1,0,0,16.06,0.04,26,0,0,0
7772,16944249,1,0,0,16.05,0.04,26,0,0,0
8219,17055634,1,0,0,16.06,0.03,26,0,0,0
8632,17157451,1,14,242,16.05,0.05,26,0,0,0
9037,17258265,1,247,671,16.04,0.09999999,26,0,0,0
9391,17363881,1,677,1028,16.02,0.17,26,0,0,0
9805,17468333,1,1030,1200,16.04,0.12,26,0,0,0
10259,17581628,1,1203,1242,16.04,0.11,26,0,0,0
10668,17682044,1,1243,1271,16.04,0.11,26,0,0,0
11123,17795782,1,1272,1285,16.05,0.11,26,0,0,0
11540,17898808,1,1285,1285,16.05,0.11,26,0,0,0
11954,17999466,1,1285,1300,16.04,0.11,26,0,0,0
12381,18109561,1,1298,1285,16.04,0.11,26,0,0,0
12796,18213116,1,1285,1285,16.04,0.11,26,0,0,0
13245,18324164,1,1286,1300,16.04,0.11,26,0,0,0
13651,18424607,1,1299,1285,16.04,0.11,26,0,0,0
14065,18528221,1,1285,1300,16.04,0.11,26,0,0,0
14516,18638832,1,1300,1300,16.04,0.09999999,26,0,0,0
14929,18740040,1,1300,1300,16.04,0.11,26,0,0,0
15378,18855941,1,1300,1300,16.04,0.11,26,0,0,0
15790,18957037,1,1300,1300,16.04,0.11,26,0,0,0
16196,19057829,1,1300,1300,16.04,0.11,26,0,0,0
16652,19173081,1,1300,1300,16.04,0.11,26,0,0,0
17063,19278301,1,1300,1300,16.04,0.11,26,0,0,0
17439,19375260,1,1300,1300,16.04,0.11,26,0,0,0
17895,19488140,1,1300,1300,16.04,0.11,26,0,0,0
18307,19591323,1,1300,1300,16.05,0.11,26,0,0,0
18722,19696725,1,1300,1300,16.04,0.11,26,0,0,0
19168,19802603,1,1300,1300,16.04,0.11,26,0,0,0
19584,19904681,1,1300,1300,16.04,0.11,26,0,0,0
19999,20007291,1,1300,1300,16.05,0.11,26,0,0,0
20409,20109681,1,1300,1300,16.04,0.11,26,0,0,0
20861,20219924,1,1300,1300,16.05,0.11,26,0,0,0
21274,20322260,1,1300,1300,16.04,0.11,26,0,0,0
21688,20427338,1,1299,1285,16.05,0.11,26,0,0,0
22139,20538109,1,1286,1300,16.04,0.11,26,0,0,0
22550,20640840,1,1300,1300,16.04,0.11,26,0,0,0
23002,20751013,1,1298,1285,16.04,0.11,26,0,0,0
23409,20851715,1,1285,1300,16.04,0.11,26,0,0,0
23827,20954253,1,1299,1285,16.04,0.11,26,0,0,0
24279,21066561,1,1286,1300,16.04,0.11,26,0,0,0
24695,21172566,1,1300,1300,16.04,0.11,26,0,0,0
25105,21273569,1,1300,1300,16.04,0.11,26,0,0,0
25523,21378568,1,1299,1285,16.04,0.11,26,0,0,0
25938,21481633,1,1285,1300,16.04,0.11,26,0,0,0
26351,21584167,1,1300,1385,16.01,0.18,26,0,0,0
26801,21695571,1,1413,1842,15.9,0.5600000000000001,26,0,0,0
27218,21798533,1,1859,2228,15.95,0.62,26,0,0,0
27634,21900889,1,2229,2342,15.99,0.4,26,0,0,0
28085,22011627,1,2342,2342,15.98,0.34,26,0,0,0
28535,22122618,1,2340,2328,16,0.3,26,0,0,0
28947,22222057,1,2328,2328,15.99,0.37,26,0,0,0
29442,22334079,1,2330,2357,16.01,0.32,26,0,0,0
29893,22438040,1,2372,2585,15.88,0.93,26,0,0,0
30346,22541656,1,2597,2885,15.88,1.06,26,0,0,0
30800,22648840,1,2895,3514,15.78,1.48,26,0,0,0
31296,22763429,1,3581,4271,15.64,2.07,26,0,0,0
31746,22865088,1,4291,4800,15.55,2.64,26,0,0,0
32197,22970692,1,4809,5314,15.35,3.06,26,0,0,0
32688,23082667,1,5352,5742,15.29,3.51,26,0,0,0
33141,23191387,1,5747,5828,15.31,3.34,26,0,0,0
33635,23305500,1,5808,5585,15.51,2.6,26,0,0,0
34093,23411035,1,5551,5228,15.47,1.8,26,0,0,0
34506,23510918,1,5224,5185,15.49,2.31,26,0,0,0
34968,23623018,1,5181,5128,15.5,2.18,26,1,0,0
35421,23730248,1,5112,4957,15.48,1.97,26,1,0,0
35872,23831271,1,4957,5000,15.46,2.15,26,1,0,0
36369,23943138,1,4970,4685,15.46,1.52,26,1,0,0
37271,24150752,1,4679,4114,15.45,1.14,26,1,0,0
37761,24262510,1,4122,4242,15.47,1.43,26,1,0,0
38215,24365771,1,4246,4571,15.4,1.94,26,1,0,0
38712,24479043,1,4596,4842,15.45,2.22,26,1,0,0
39163,24583260,1,4850,5057,15.45,2.32,26,1,0,0
39655,24697180,1,5048,4957,15.35,2.05,26,1,0,0
40107,24801122,1,4964,5071,15.35,2.48,26,1,0,0
40601,24914788,1,5072,5085,15.42,2.16,26,1,0,0
41061,25021105,1,5074,4928,15.44,1.92,26,1,0,0
41469,25121868,1,4931,5014,15.33,2.18,26,1,0,0
41914,25226424,1,5014,5028,15.48,1.89,26,1,0,0
42412,25344907,1,5028,5042,15.47,2.07,26,1,0,0
42858,25453202,1,5056,5185,15.45,2.11,26,2,0,0
43311,25558710,1,5173,5057,15.47,1.85,26,2,0,0
43758,25672129,1,5025,4842,15.37,1.84,26,2,0,0
44654,25883554,1,4843,5171,15.32,2.83,26,2,0,0
45112,25990783,1,5209,5514,15.41,2.63,26,2,0,0
45559,26099559,1,5502,5257,15.39,2.08,26,2,0,0
45979,26208014,1,5276,5514,15.38,2.67,27,2,0,0
46426,26313639,1,5497,5185,15.35,1.47,26,2,0,0
46915,26424917,1,5168,4957,15.41,1.9,26,2,0,0
47331,26529545,1,4958,5042,15.35,1.97,26,2,0,0
47784,26637070,1,5040,4942,15.44,1.71,26,2,0,0
48276,26754349,1,4933,4842,15.42,1.55,26,2,0,0
48679,26849107,1,4844,4900,15.42,1.74,26,2,0,0
49133,26958934,1,4894,4814,15.4,1.43,27,2,0,0
49582,27065653,1,4814,4828,15.44,1.8,27,2,0,0
50035,27173845,1,4822,4742,15.4,1.59,26,2,0,0
50484,27276561,1,4745,4814,15.36,1.41,26,3,0,0
50932,27386476,1,4795,4371,15.42,0.93,26,3,0,0
51390,27498234,1,4380,4528,15.43,1.91,27,3,0,0
51797,27597844,1,4526,4500,15.38,1.57,26,3,0,0
52280,27705257,1,4506,4585,15.39,1.7,26,3,0,0
52728,27812637,1,4591,4657,15.39,1.53,27,3,0,0
53136,27913028,1,4656,4600,15.31,1.66,27,3,0,0
53631,28029007,1,4597,4571,15.44,1.45,27,3,0,0
54082,28136047,1,4576,4642,15.36,1.98,27,3,0,0
54535,28248126,1,4655,4800,15.35,1.65,27,3,0,0
54940,28345694,1,4799,4785,15.44,1.79,27,3,0,0
55427,28460852,1,4765,4471,15.44,1.03,27,3,0,0
55880,28569009,1,4469,4442,15.49,1.71,27,3,0,0
56332,28674810,1,4444,4485,15.44,1.23,27,3,0,0
56778,28780647,1,4479,4357,15.48,1.32,27,3,0,0
57232,28890472,1,4358,4371,15.42,1.45,27,3,0,0
57679,28994245,1,4378,4557,15.35,1.56,27,3,0,0
58178,29111670,1,4567,4671,15.35,1.64,27,3,0,0
58630,29220106,1,4662,4571,15.38,1.44,27,3,0,0
59038,29320094,1,4565,4171,15.45,0.84,27,3,0,0
59489,29427036,1,4176,4485,15.31,1.92,27,3,0,0
59982,29543648,1,4495,4600,15.41,1.41,27,3,0,0
60389,29640878,1,4600,4600,15.42,1.49,27,4,0,0
60844,29752470,1,4604,4671,15.39,1.76,27,4,0,0
61294,29861821,1,4661,4528,15.37,1.51,27,4,0,0
61707,29960899,1,4530,4671,15.41,1.53,27,4,0,0
62152,30065673,1,4667,4485,15.42,1.15,27,4,0,0
62649,30180906,1,4487,4514,15.41,1.4,27,4,0,0
63101,30287191,1,4516,4557,15.39,1.54,27,4,0,0
63507,30385749,1,4558,4614,15.33,1.6,27,4,0,0
63962,30495655,1,4616,4685,15.38,1.51,27,4,0,0
64414,30602050,1,4683,4657,15.4,1.48,27,4,0,0
64868,30711072,1,4650,4542,15.33,1.38,27,4,0,0
65322,30821888,1,4558,4728,15.35,1.58,27,4,0,0
65772,30926587,1,4726,4600,15.33,1.32,27,4,0,0
66221,31035757,1,4598,4557,15.41,1.01,27,4,0,0
66672,31144065,1,4550,4414,15.42,1.27,27,4,0,0
67129,31253623,1,4423,4571,15.36,1.53,27,4,0,0
67540,31353901,1,4569,4542,15.38,1.28,27,4,0,0
67994,31464243,1,4542,4557,15.3,1.55,27,4,0,0
68445,31570689,1,4559,4614,15.36,1.58,27,4,0,0
68893,31676827,1,4611,4571,15.27,1.61,27,4,0,0
69374,31789770,1,4605,4814,15.3,1.93,27,4,0,0
69829,31896674,1,4828,4971,15.32,1.84,27,4,0,0
70242,31996353,1,4968,4814,15.32,1.63,27,4,0,0
70724,32108720,1,4814,4828,15.33,1.62,27,5,0,0
71222,32231224,1,4819,4742,15.28,1.67,27,5,0,0
71626,32325578,1,4745,4800,15.32,1.76,27,5,0,0
72080,32434665,1,4797,4742,15.27,1.68,27,5,0,0
72569,32549094,1,4735,4671,15.32,1.54,27,5,0,0
72979,32645779,1,4671,4685,15.41,1.33,27,5,0,0
73427,32756679,1,4677,4514,15.34,1.47,27,5,0,0
73872,32861463,1,4511,4400,15.41,1.26,27,5,0,0
74340,32979640,1,4401,4414,15.41,1.22,27,5,0,0
74777,33075650,1,4416,4528,15.36,1.49,27,5,0,0
75234,33188581,1,4548,4857,15.32,2.09,27,5,0,0
75683,33297711,1,4862,5000,15.33,1.57,27,5,0,0
76136,33404907,1,4999,4985,15.3,1.95,27,5,0,0
76585,33513608,1,4990,5057,15.24,1.98,27,5,0,0
77007,33623051,1,5071,5228,15.19,1.95,27,5,0,0
77903,33835247,1,5220,5000,15.18,1.53,27,5,0,0
78360,33943586,1,4998,4971,15.16,2.03,27,5,0,0
78812,34055026,1,4982,5114,15.22,2.18,27,5,0,0
79266,34166306,1,5107,5042,15.22,1.6,27,5,0,0
79673,34264294,1,5043,5114,15.25,2.34,27,6,0,0
80162,34377189,1,5113,5100,15.18,2.21,27,6,0,0
80575,34476624,1,5108,5328,15.22,2.37,27,6,0,0
81062,34587302,1,5306,5000,15.26,1.43,27,6,0,0
81519,34697798,1,4989,4885,15.21,1.99,27,6,0,0
81968,34807029,1,4885,4885,15.21,1.97,27,6,0,0
82372,34905680,1,4885,4885,15.26,1.77,27,6,0,0
82831,35017169,1,4868,4700,15.31,1.67,27,6,0,0
83279,35125709,1,4709,4814,15.32,1.6,27,6,0,0
83730,35234312,1,4799,4642,15.33,1.55,27,6,0,0
84180,35339271,1,4630,4471,15.32,1.24,27,6,0,0
84634,35448590,1,4479,4600,15.34,1.46,27,6,0,0
85536,35664872,1,4594,4428,15.36,1.85,27,6,0,0
85990,35776070,1,4456,4785,15.3,1.79,27,6,0,0
86442,35885002,1,4774,4614,15.32,1.19,27,6,0,0
86892,35992588,1,4615,4628,15.27,1.64,27,6,0,0
87338,36097017,1,4631,4700,15.23,1.57,27,6,0,0
87749,36198819,1,4698,4642,15.27,1.38,27,6,0,0
88202,36306993,1,4645,4728,15.2,1.88,27,6,0,0
88657,36418113,1,4756,5171,15.17,2.7,27,7,0,0
89117,36530766,1,5146,4885,15.23,1.34,27,7,0,0
89562,36633319,1,4894,4985,15.13,2.67,27,7,0,0
90013,36739628,1,4998,5142,15.19,1.44,27,7,0,0
90461,36845268,1,5112,4671,15.21,1.2,27,7,0,0
90915,36961051,1,4671,4671,15.17,1.79,27,7,0,0
91367,37063817,1,4682,5000,15.16,2.14,27,7,0,0
92261,37280476,1,4993,4857,15.18,2.32,27,7,0,0
93203,37504646,1,4840,4657,15.24,1.76,27,7,0,0
93612,37603653,1,4658,4828,15.21,2.29,27,7,0,0
94098,37715650,1,4834,4885,15.25,2.05,27,7,0,0
94552,37825259,1,4898,5042,15.25,2.2,27,7,0,0
94958,37919581,1,5039,5000,15.26,1.78,27,7,0,0
95415,38030093,1,4990,4900,15.27,1.8,27,7,0,0
95867,38139875,1,4889,4771,15.25,1.82,27,7,0,0
96311,38248685,1,4776,4814,15.21,1.77,27,8,0,0
96721,38350656,1,4817,4857,15.29,1.87,27,8,0,0
97173,38459886,1,4865,4957,15.27,1.87,27,8,0,0
97575,38553704,1,4953,4714,15.2,1.56,27,8,0,0
98072,38671331,1,4736,4971,15.25,2.27,27,8,0,0
98474,38767681,1,4971,4971,15.19,2.04,27,8,0,0
98893,38876048,1,4974,5114,15.18,2.32,27,8,0,0
99387,38993146,1,5131,5314,15.23,2.4,27,8,0,0
99834,39099539,1,5296,5042,15.18,1.57,27,8,0,0
100284,39205845,1,5042,5057,15.21,2.2,27,8,0,0
100735,39312693,1,5057,5057,15.26,2.26,27,8,0,0
101224,39424269,1,5065,5185,15.23,1.76,27,8,0,0
101673,39531149,1,5165,4957,15.18,2.02,27,8,0,0
102122,39635637,1,4960,5028,15.21,1.85,27,8,0,0
102581,39747838,1,5020,4942,15.3,1.52,27,8,0,0
103032,39854319,1,4897,4557,15.29,1.03,27,8,0,0
103441,39955316,1,4558,4600,15.26,1.57,27,8,0,0
103889,40065272,1,4598,4571,15.2,1.71,27,8,0,0
104342,40173873,1,4578,4671,15.23,1.68,27,9,0,0
104796,40283891,1,4672,4685,15.22,1.42,27,9,0,0
105250,40391650,1,4693,4785,15.2,1.88,27,9,0,0
105739,40506131,1,4795,4914,15.21,2.03,27,9,0,0
106149,40607893,1,4910,4857,15.22,1.68,27,9,0,0
106600,40717170,1,4868,4985,15.22,1.92,27,9,0,0
107049,40825304,1,4988,5028,15.17,2.04,27,9,0,0
107452,40921872,1,5025,4928,15.18,1.86,27,9,0,0
107944,41036172,1,4940,5071,15.22,2.01,27,9,0,0
108352,41137824,1,5069,4971,15.25,1.74,27,9,0,0
108798,41243312,1,4970,4957,15.24,1.75,27,9,0,0
109250,41350686,1,4956,4914,15.23,1.63,27,9,0,0
109739,41464907,1,4900,4757,15.19,1.56,27,9,0,0
110673,41682680,1,4751,4614,15.22,1.82,27,9,0,0
111125,41793111,1,4634,4828,15.14,1.81,27,9,0,0
111575,41897861,1,4807,4585,15.16,1.38,27,9,0,0
112026,42013117,1,4580,4557,15.19,1.48,27,9,0,0
112433,42105468,1,4555,4528,15.25,1.43,27,9,0,0
112915,42218074,1,4538,4657,15.27,1.83,27,9,0,0
113371,42329071,1,4671,4785,15.21,1.8,27,10,0,0
113781,42427291,1,4793,4900,15.15,1.95,27,10,0,0
114234,42537245,1,4902,4928,15.19,1.86,27,10,0,0
114638,42637382,1,4927,4885,15.19,1.84,27,10,0,0
115089,42749737,1,4885,4885,15.19,1.73,27,10,0,0
115543,42859268,1,4877,4800,15.19,1.66,27,10,0,0
115996,42964598,1,4796,4742,15.23,1.52,27,10,0,0
116444,43078382,1,4735,4671,15.16,1.38,27,10,0,0
116894,43190081,1,4658,4571,15.23,1.2,27,10,0,0
117334,43289893,1,4544,4357,15.2,1.32,27,10,0,0
117792,43400912,1,4374,4571,15.17,1.8,27,10,0,0
118198,43492023,1,4571,4600,15.16,1.44,27,10,0,0
118683,43609871,1,4603,4657,15.17,1.51,27,10,0,0
119139,43723665,1,4659,4685,15.16,1.6,27,10,0,0
119585,43828804,1,4687,4714,15.17,1.68,27,10,0,0
120482,44040316,1,4716,4785,15.14,1.83,27,10,0,0
120929,44144023,1,4772,4600,15.17,1.59,27,10,0,0
121374,44248094,1,4611,4885,15.19,2.2,27,10,0,0
121828,44359117,1,4895,5000,15.19,1.95,27,10,0,0
122312,44468872,1,4980,4771,15.22,1.3,27,11,0,0
122759,44577063,1,4762,4671,15.24,1.42,27,11,0,0
123163,44673632,1,4671,4685,15.22,1.57,27,11,0,0
123621,44784029,1,4684,4671,15.18,1.74,27,11,0,0
124070,44892056,1,4676,4757,15.2,1.65,27,11,0,0
124521,44997158,1,4754,4685,15.23,1.45,27,11,0,0
124927,45096028,1,4683,4614,15.16,1.63,27,11,0,0
125415,45208897,1,4617,4671,15.17,1.73,27,11,0,0
125840,45318785,1,4681,4800,15.19,1.62,27,11,0,0
126286,45424615,1,4792,4685,15.13,1.44,27,11,0,0
126731,45530750,1,4686,4728,15.14,1.7,27,11,0,0
127174,45636235,1,4725,4614,15.14,1.65,27,11,0,0
127594,45742473,1,4614,4614,15.08,1.59,27,11,0,0
128091,45858694,1,4607,4542,15.19,1.42,27,11,0,0
128498,45956875,1,4539,4385,15.16,1.2,27,11,0,0
128989,46072148,1,4391,4457,15.17,1.46,27,11,0,0
129439,46181308,1,4464,4542,15.2,1.59,27,11,0,0
129848,46282151,1,4532,4342,15.18,1.02,27,11,0,0
130299,46390092,1,4337,4242,15.22,1.25,27,11,0,0
130746,46498570,1,4246,4314,15.17,1.5,27,11,0,0
131194,46603095,1,4318,4385,15.18,1.56,27,11,0,0
131640,46710620,1,4395,4542,15.18,1.68,27,11,0,0
131988,46817635,1,4526,4300,15.18,1.03,27,11,0,0
132433,46923631,1,4300,4328,15.21,1.21,27,12,0,0
132886,47032096,1,4335,4500,15.15,1.72,27,12,0,0
133333,47137247,1,4501,4628,15.17,1.42,27,12,0,0
133784,47248031,1,4637,4785,15.12,2,27,12,0,0
134680,47462891,1,4784,4771,15.21,1.58,27,12,0,0
135130,47570580,1,4758,4585,15.18,1.29,27,12,0,0
135574,47676414,1,4583,4542,15.16,1.49,27,12,0,0
136025,47785027,1,4544,4657,15.19,1.39,27,12,0,0
136472,47894100,1,4644,4400,15.2,1.26,27,12,0,0
136923,48002817,1,4404,4485,15.13,1.64,27,12,0,0
137405,48111174,1,4487,4528,15.19,1.25,27,12,0,0
137817,48219061,1,4524,4342,15.21,1.12,27,12,0,0
138314,48338746,1,4329,4200,15.19,1.05,27,12,0,0
138718,48431172,1,4205,4342,15.14,1.55,27,12,0,0
139162,48539802,1,4347,4471,15.19,1.35,27,12,0,0
139610,48650100,1,4467,4428,15.19,1.47,27,12,0,0
140063,48760477,1,4433,4514,15.17,1.47,27,12,0,0
140512,48869052,1,4514,4528,15.1,1.65,27,12,0,0
140963,48977815,1,4525,4485,15.16,1.3,27,12,0,0
141407,49082716,1,4485,4528,15.07,1.56,27,12,0,0
141862,49193164,1,4528,4542,15.18,1.5,27,12,0,0
142312,49301230,1,4542,4557,15.16,1.36,27,12,0,0
142760,49411009,1,4555,4485,15.15,1.38,27,13,0,0
143211,49522828,1,4480,4385,15.21,1.29,27,13,0,0
144116,49741609,1,4384,4357,15.16,1.08,27,13,0,0
144596,49850420,1,4354,4328,15.16,1.48,27,13,0,0
145053,49962565,1,4332,4385,15.16,1.58,27,13,0,0
145496,50067243,1,4389,4457,15.19,1.24,27,13,0,0
145914,50174306,1,4455,4442,15.18,1.43,27,13,0,0
146322,50272430,1,4444,4557,15.17,1.63,27,13,0,0
146774,50379135,1,4558,4585,15.15,1.46,27,13,0,0
147186,50483597,1,4584,4571,15.13,1.45,27,13,0,0
147632,50588624,1,4570,4542,15.15,1.57,27,13,0,0
148117,50699553,1,4540,4514,15.17,1.34,27,13,0,0
148566,50807269,1,4507,4400,15.2,1.3,27,13,0,0
149011,50912921,1,4398,4371,15.19,1.3,27,13,0,0
149462,51022557,1,4373,4414,15.16,1.45,27,13,0,0
149914,51131107,1,4414,4428,15.13,1.57,27,13,0,0
150371,51240707,1,4439,4557,15.1,1.62,27,13,0,0
150776,51341170,1,4555,4428,15.14,1.4,27,13,0,0
151264,51451834,1,4437,4571,15.13,1.36,27,13,0,0
151713,51560676,1,4564,4428,15.14,1.48,27,13,0,0
152124,51663042,1,4429,4528,15.14,1.45,27,13,0,0
152574,51769786,1,4528,4542,15.17,1.47,27,13,0,0
153023,51876497,1,4539,4471,15.17,1.37,27,14,0,0
153511,51990907,1,4471,4471,15.09,1.49,27,14,0,0
153957,52097451,1,4458,4285,15.15,0.8,27,14,0,0
154368,52199912,1,4274,4042,15.2,1.07,27,14,0,0
154860,52313867,1,4054,4185,15.08,1.68,27,14,0,0
155311,52422448,1,4200,4357,15.11,1.62,27,14,0,0
155797,52534926,1,4357,4357,15.13,1.32,27,14,0,0
156167,52630664,1,4357,4400,15.1,1.6,27,14,0,0
156662,52745574,1,4402,4428,15.16,1.4,27,14,0,0
157110,52853132,1,4438,4557,15.15,1.52,27,14,0,0
157556,52959739,1,4547,4400,15.2,1.2,27,14,0,0
158003,53065875,1,4402,4428,15.16,1.38,27,14,0,0
158453,53173835,1,4435,4514,15.14,1.53,27,14,0,0
158902,53282699,1,4508,4457,15.22,1.35,27,14,0,0
159352,53388602,1,4468,4600,15.16,1.55,27,14,0,0
159797,53493711,1,4590,4485,15.13,1.48,27,14,0,0
160245,53607327,1,4489,4528,15.13,1.63,27,14,0,0
160731,53718051,1,4534,4585,15.04,1.84,27,14,0,0
161180,53825582,1,4589,4642,15.08,1.58,27,14,0,0
161628,53934450,1,4646,4685,15.06,1.93,27,14,0,0
162069,54034687,1,4694,4785,15.06,1.82,27,14,0,0
162934,54246002,1,4779,4671,15.06,1.42,27,14,0,0
163381,54354569,1,4644,4400,15.16,1.13,27,15,0,0
163787,54447467,1,4398,4314,15.13,1.38,27,15,0,0
164278,54567922,1,4326,4457,15.13,1.59,27,15,0,0
164688,54670171,1,4471,4600,15.1,1.64,27,15,0,0
165147,54777377,1,4596,4571,15.09,1.5,27,15,0,0
165599,54893687,1,4568,4542,15.13,1.73,27,15,0,0
166002,54989126,1,4539,4500,15.16,1.44,27,15,0,0
166447,55094640,1,4495,4385,15.16,1.08,27,15,0,0
166900,55200038,1,4384,4342,15.18,1.44,27,15,0,0
167794,55416601,1,4344,4557,15.17,1.54,27,15,0,0
168250,55528579,1,4560,4642,15.17,1.42,27,15,0,0
168700,55638568,1,4628,4514,15.16,1.32,27,15,0,0
169150,55743456,1,4507,4400,15.19,1.13,27,15,0,0
169596,55848664,1,4396,4314,15.19,1.39,27,15,0,0
170090,55962151,1,4321,4400,15.15,1.49,27,15,0,0
170535,56070583,1,4414,4642,15.12,1.74,27,15,0,0
170976,56171823,1,4638,4571,15.16,1.43,27,15,0,0
171468,56285820,1,4562,4471,15.1,1.31,27,15,0,0
171918,56393210,1,4463,4385,15.1,1.36,27,15,0,0
172364,56498811,1,4385,4385,15.12,1.56,27,15,0,0
172812,56604330,1,4401,4628,15.2,1.66,27,15,0,0
173265,56712074,1,4605,4371,15.14,1.31,27,15,0,0
173712,56816217,1,4375,4442,15.13,1.53,27,16,0,0
174164,56925127,1,4471,4800,15.14,2.5,27,16,0,0
174655,57036625,1,4793,4728,15.15,1.13,27,16,0,0
175063,57136141,1,4723,4385,15.17,1.01,27,16,0,0
175549,57245697,1,4382,4342,15.22,1.23,27,16,0,0
176000,57354558,1,4333,4214,15.22,1.1,27,16,0,0
176452,57464889,1,4202,4085,15.2,1.47,27,16,0,0
176902,57570841,1,4099,4314,15.16,1.72,27,16,0,0
177352,57678014,1,4327,4514,15.19,1.62,27,16,0,0
177802,57785660,1,4512,4485,15.2,1.26,27,16,0,0
178248,57892425,1,4483,4457,15.2,1.33,27,16,0,0
178698,57999608,1,4457,4457,15.2,1.42,27,16,0,0
179146,58108273,1,4459,4642,15.25,1.53,27,16,0,0
179597,58215688,1,4641,4628,15.16,1.57,27,16,0,0
180089,58334134,1,4618,4542,15.17,1.32,27,16,0,0
180493,58432585,1,4541,4528,15.16,1.48,27,16,0,0
180987,58552666,1,4540,4628,15.16,1.76,27,16,0,0
181436,58656983,1,4633,4685,15.13,1.66,27,16,0,0
181881,58769150,1,4679,4642,15.1,1.56,27,16,0,0
182295,58875306,1,4638,4600,15.05,1.38,27,16,0,0
182745,58978695,1,4589,4500,15.13,1.41,27,16,0,0
183190,59084544,1,4496,4457,15.15,1.55,27,16,0,0
183601,59185819,1,4456,4400,15.14,1.13,27,16,0,0
184093,59308130,1,4386,4242,15.07,1.05,27,17,0,0
184544,59410802,1,4236,4185,15.13,1.11,27,17,0,0
184990,59520278,1,4185,4185,15.11,1.33,27,17,0,0
185437,59625654,1,4192,4357,15.12,1.77,27,17,0,0
185892,59732815,1,4362,4485,15.07,1.43,27,17,0,0
186340,59842016,1,4497,4671,15.13,1.73,27,17,0,0
186791,59950062,1,4683,4871,15.1,1.81,27,17,0,0
187197,60050813,1,4870,4842,15.16,1.7,27,17,0,0
187690,60166287,1,4844,4871,15.13,1.65,27,17,0,0
188138,60274281,1,4865,4785,15.12,1.59,27,17,0,0
188592,60386012,1,4788,4828,15.17,1.53,27,17,0,0
189042,60493500,1,4835,4914,15.12,1.65,27,17,0,0
189902,60705593,1,4910,4828,15.13,1.7,27,17,0,0
190357,60814254,1,4830,4857,15.14,1.53,27,17,0,0
190803,60921178,1,4852,4800,15.03,1.91,27,17,0,0
191253,61030114,1,4807,4928,15.1,1.8,27,17,0,0
191700,61139151,1,4934,5000,15.09,1.79,27,17,0,0
192149,61246474,1,4996,4957,15.06,1.99,27,17,0,0
192602,61354115,1,4960,5014,15.1,1.78,27,17,0,0
193003,61452672,1,5014,5042,15.1,1.98,27,18,0,0
193454,61560101,1,5040,4900,15.16,1.53,27,18,0,0
193901,61666577,1,4898,4800,15.17,1.69,27,18,0,0
194362,61778865,1,4810,4942,15.1,1.79,27,18,0,0
194814,61887773,1,4934,4857,15.17,1.62,27,18,0,0
195264,61995141,1,4846,4742,15.16,1.42,27,18,0,0
195668,62092820,1,4739,4700,15.15,1.57,27,18,0,0
196094,62204638,1,4694,4642,15.23,1.23,27,18,0,0
196539,62310245,1,4623,4357,15.18,0.9899999,27,18,0,0
196988,62418110,1,4356,4342,15.17,1.15,27,18,0,0
197435,62524448,1,4341,4328,15.08,1.4,27,18,0,0
197887,62631142,1,4330,4471,15.17,1.46,27,18,0,0
198375,62746050,1,4479,4614,15.13,1.68,27,18,0,0
198825,62856056,1,4622,4742,15.11,1.7,27,18,0,0
199276,62966779,1,4743,4757,15.13,1.74,27,18,0,0
199724,63074683,1,4769,4900,15.12,1.66,27,18,0,0
200173,63179876,1,4880,4685,15.13,1.31,27,18,0,0
200586,63284046,1,4684,4642,15.15,1.35,27,18,0,0
201074,63404897,1,4642,4642,15.13,1.41,27,18,0,0
201482,63494937,1,4642,4642,15.13,1.22,27,18,0,0
201976,63620040,1,4636,4585,15.18,1.14,27,18,0,0
202384,63721326,1,4571,4442,15.16,1.13,27,18,0,0
202837,63828041,1,4447,4514,15.16,1.49,27,18,0,0
203258,63933824,1,4515,4642,15.14,1.86,27,18,0,0
203735,64042630,1,4650,4742,15.1,1.64,27,19,0,0
204189,64152654,1,4744,4771,15.15,1.67,27,19,0,0
204634,64258296,1,4759,4628,15.13,1.46,27,19,0,0
205084,64365877,1,4625,4600,15.14,1.4,27,19,0,0
205987,64579249,1,4594,4471,15.13,1.5,27,19,0,0
206432,64686893,1,4482,4642,15.08,1.64,27,19,0,0
206884,64796018,1,4643,4657,15.13,1.51,27,19,0,0
207330,64902076,1,4658,4685,15.09,1.61,27,19,0,0
207776,65007879,1,4684,4671,15.07,1.48,27,19,0,0
208229,65117657,1,4669,4657,15.05,1.52,27,19,0,0
208676,65224877,1,4661,4771,15.16,1.67,27,19,0,0
209121,65329296,1,4767,4685,15.15,1.29,27,19,0,0
209565,65435642,1,4684,4628,15.09,1.53,27,19,0,0
210054,65551862,1,4629,4657,15.11,1.68,27,19,0,0
210502,65655900,1,4658,4700,15.12,1.52,27,19,0,0
210947,65761319,1,4701,4785,15.13,1.88,27,19,0,0
211442,65879617,1,4792,4871,15.14,1.77,27,19,0,0
211889,65984799,1,4871,4871,15.14,1.76,27,19,0,0
212333,66088010,1,4871,4871,15.09,1.94,27,19,0,0
212777,66195628,1,4877,4971,15.09,1.92,27,20,0,0
213225,66302045,1,4974,5071,15.07,2.01,27,20,0,0
213676,66411554,1,5068,5000,15.09,1.85,27,20,0,0
214168,66525755,1,5004,5057,15.11,1.95,27,20,0,0
214613,66632597,1,5053,5014,15.09,1.8,27,20,0,0
215067,66738126,1,5011,4985,15.1,1.88,27,20,0,0
215506,66843236,1,4978,4885,15.12,1.57,27,20,0,0
215948,66947328,1,4870,4728,15.17,1.44,27,20,0,0
216397,67057881,1,4721,4657,15.13,1.56,27,20,0,0
216875,67169798,1,4653,4614,15.07,1.52,27,20,0,0
217329,67282898,1,4628,4728,15.07,1.77,27,20,0,0
218175,67483302,1,4727,4671,15.13,1.61,27,20,0,0
218625,67597196,1,4669,4657,15.14,1.57,27,20,0,0
219073,67699668,1,4657,4657,15.14,1.55,27,20,0,0
219522,67809668,1,4657,4671,15.09,1.65,27,20,0,0
220011,67926447,1,4657,4528,15.15,1.35,27,20,0,0
220413,68026047,1,4526,4442,15.16,1.55,27,20,0,0
220907,68140278,1,4451,4571,15.18,1.54,27,20,0,0
221351,68247717,1,4576,4628,15.13,1.59,27,20,0,0
221789,68348640,1,4629,4671,15.16,1.8,27,21,0,0
222237,68454866,1,4672,4800,15.15,1.75,27,21,0,0
222728,68572394,1,4763,4357,15.5,0.46,27,21,0,0
223170,68674302,1,4298,2971,15.2,0.57,27,21,0,0
223614,68782909,1,2960,2200,15.56,0.45,27,21,0,0
224109,68899308,1,2186,2042,15.52,0.26,27,21,0,0
224555,69008268,1,2038,2000,15.6,0.14,27,21,0,0
224954,69102663,1,1998,1900,15.56,0.17,27,21,0,0
225446,69218674,1,1898,1885,15.57,0.15,27,21,0,0
225889,69322664,1,1883,1857,15.57,0.17,27,21,0,0
226336,69433037,1,1860,1900,15.57,0.19,27,21,0,0
227227,69644679,1,1899,1885,15.58,0.19,27,21,0,0
227672,69751317,1,1883,1842,15.58,0.16,27,21,0,0
228162,69865730,1,1844,1871,15.58,0.19,27,21,0,0
228563,69963556,1,1870,1857,15.59,0.18,27,21,0,0
229058,70078230,1,1859,1885,15.59,0.18,27,21,0,0
229466,70181866,1,1885,1885,15.59,0.18,27,21,0,0
229914,70287824,1,1887,1914,15.57,0.23,27,21,0,0
230359,70395469,1,1919,1971,15.58,0.24,27,21,0,0
230807,70500174,1,1971,1985,15.6,0.24,27,21,0,0
231251,70606094,1,1984,1971,15.69,0.17,27,21,0,0
231699,70713063,1,1958,1685,15.67,0.02,27,21,0,0
232152,70825075,1,1673,1371,15.66,0.02,27,21,0,0
232597,70934802,1,1370,1285,15.66,0.09,27,21,0,0
233089,71045907,1,1283,1271,15.65,0.09999999,27,21,0,0
233533,71156129,1,1269,1257,15.66,0.09999999,27,21,0,0
233942,71257825,1,1257,1257,15.65,0.09999999,27,21,0,0
234420,71368099,1,1257,1257,15.66,0.09999999,27,21,0,0
234868,71474026,1,1257,1257,15.66,0.09999999,27,21,0,0
235312,71580139,1,1257,1271,15.67,0.09999999,27,21,0,0
235762,71688820,1,1271,1271,15.67,0.09999999,27,21,0,0
236654,71901875,1,1270,1257,15.67,0.09999999,27,21,0,0
237099,72007934,1,1257,1257,15.67,0.09999999,27,21,0,0
237590,72123017,1,1257,1257,15.67,0.09999999,27,21,0,0
238044,72229599,1,1210,542,15.69,0.01,27,21,0,0
238500,72335045,1,528,228,15.69,0.02,27,21,0,0
238994,72452041,1,208,0,15.69,0.02,27,21,0,0
239444,72556647,1,0,0,15.69,0.03,27,21,0,0
239943,72669224,1,0,0,15.7,0.03,27,21,0,0
240845,72880902,1,0,0,15.7,0.03,26,21,0,0
241294,72988615,1,0,0,15.7,0.03,27,21,0,0
241791,73102037,1,0,0,15.7,0.03,27,21,0,0
242238,73205332,1,0,0,15.7,0.03,27,21,0,0
242735,73320760,1,0,0,15.7,0.03,27,21,0,0
243223,73438048,1,0,0,15.7,0.03,26,21,0,0
243679,73546986,1,0,0,15.71,0.03,27,21,0,0
244086,73641136,1,0,0,15.71,0.03,26,21,0,0
244575,73753600,1,0,0,15.71,0.03,26,21,0,0
245027,73857003,1,0,0,15.72,0.03,26,21,0,0
245480,73968804,1,0,0,15.71,0.03,26,21,0,0
245935,74072205,1,0,0,15.71,0.03,26,21,0,0
246382,74176830,1,0,0,15.72,0.03,26,21,0,0
246877,74291084,1,0,0,15.72,0.03,27,21,0,0
247291,74393677,1,0,0,15.72,0.03,26,21,0,0
247786,74506256,1,0,0,15.72,0.03,26,21,0,0
248198,74607863,1,0,0,15.72,0.04,27,21,0,0
248693,74721556,1,0,0,15.72,0.04,26,21,0,0
249182,74836120,1,0,0,15.73,0.03,26,21,0,0
249635,74941082,1,0,0,15.73,0.03,26,21,0,0
250084,75045846,1,0,0,15.73,0.03,26,21,0,0
250537,75154071,1,0,0,15.73,0.03,26,21,0,0
251032,75266887,1,0,0,15.73,0.04,26,21,0,0
251488,75375288,1,0,0,15.73,0.04,26,21,0,0
251942,75480800,1,0,0,15.73,0.03,26,21,0,0
252395,75591717,1,0,0,15.73,0.04,26,21,0,0
252891,75703666,1,0,0,15.74,0.04,26,21,0,0
253342,75810834,1,0,0,15.74,0.04,26,21,0,0
253794,75915631,1,0,0,15.74,0.04,26,21,0,0
254287,76031592,1,0,0,15.74,0.03,26,21,0,0
254738,76135124,1,0,0,15.75,0.03,26,21,0,0
255232,76250873,1,0,0,15.74,0.04,26,21,0,0
255678,76353774,1,0,0,15.75,0.04,26,21,0,0
256175,76467258,1,0,0,15.75,0.03,26,21,0,0
256628,76575100,1,0,0,15.75,0.03,26,21,0,0
257079,76678899,1,0,0,15.75,0.04,26,21,0,0
257531,76786865,1,0,0,15.75,0.04,26,21,0,0
257983,76891064,1,0,0,15.75,0.03,26,21,0,0
258473,77004679,1,0,0,15.75,0.03,26,21,0,0
258970,77118497,1,0,0,15.75,0.04,26,21,0,0
259421,77225561,1,0,0,15.75,0.04,26,21,0,0
259872,77328765,1,0,0,15.75,0.04,26,21,0,0
260368,77446056,1,0,0,15.75,0.04,26,21,0,0
261271,77657004,1,0,0,15.76,0.03,26,21,0,0
262181,77870777,1,0,0,15.76,0.03,26,21,0,0
262673,77984663,1,0,0,15.75,0.03,26,21,0,0
263126,78089084,1,0,0,15.76,0.03,26,21,0,0
263578,78196154,1,0,0,15.76,0.03,26,21,0,0
264073,78310314,1,0,0,15.76,0.03,26,21,0,0
264523,78418580,1,0,0,15.76,0.03,26,21,0,0
265022,78531113,1,0,0,15.76,0.04,26,21,0,0
265473,78638066,1,0,0,15.76,0.04,26,21,0,0
265924,78739470,1,0,0,15.77,0.04,26,21,0,0
266372,78845003,1,0,0,15.77,0.03,26,21,0,0
266867,78962579,1,0,0,15.76,0.04,26,21,0,0
267323,79066880,1,0,0,15.77,0.03,26,21,0,0
268268,79287061,1,0,0,15.77,0.03,26,21,0,0
268721,79396615,1,0,0,15.77,0.04,26,21,0,0
269173,79500824,1,0,0,15.77,0.03,26,21,0,0
269623,79605927,1,0,0,15.77,0.04,26,21,0,0
270118,79719719,1,0,0,15.77,0.04,26,21,0,0
270566,79824660,1,0,0,15.77,0.04,26,21,0,0
271057,79938585,1,0,0,15.77,0.03,26,21,0,0
271513,80045667,1,0,0,15.77,0.03,26,21,0,0
271969,80157800,1,0,0,15.77,0.04,26,21,0,0
272421,80262151,1,0,0,15.78,0.04,26,21,0,0
272908,80372139,1,0,0,15.77,0.03,26,21,0,0
273406,80485893,1,0,0,15.78,0.04,26,21,0,0
273858,80592700,1,0,0,15.78,0.04,26,21,0,0
274353,80705906,1,0,0,15.78,0.03,26,21,0,0
274804,80815687,1,0,0,15.78,0.04,26,21,0,0
275255,80919153,1,0,0,15.79,0.04,26,21,0,0
275705,81023820,1,0,0,15.79,0.03,26,21,0,0
276203,81139030,1,0,0,15.79,0.03,26,21,0,0
276654,81247234,1,0,0,15.79,0.04,26,21,0,0
277105,81355263,1,0,0,15.77,0.04,26,21,0,0
277558,81460270,1,0,0,15.79,0.03,26,21,0,0
278007,81566135,1,0,0,15.79,0.03,26,21,0,0
278506,81677933,1,0,0,15.78,0.03,26,21,0,0
278957,81787637,1,0,0,15.79,0.03,26,21,0,0
279409,81890315,1,0,0,15.79,0.04,26,21,0,0
279903,82006476,1,0,0,15.79,0.04,26,21,0,0
280354,82109652,1,0,0,15.79,0.03,26,21,0,0
280804,82218620,1,0,0,15.79,0.03,26,21,0,0
281254,82324130,1,0,0,15.79,0.04,26,21,0,0
281743,82439084,1,0,0,15.79,0.04,26,21,0,0
282201,82545723,1,0,0,15.79,0.04,26,21,0,0
282647,82651283,1,0,0,15.79,0.04,26,21,0,0
283142,82765797,1,0,0,15.79,0.04,26,21,0,0
283595,82869605,1,0,0,15.79,0.04,26,21,0,0
284050,82977853,1,0,0,15.8,0.04,26,21,0,0
284546,83092798,1,0,0,15.79,0.03,26,21,0,0
284996,83201661,1,0,0,15.8,0.04,26,21,0,0
285447,83304691,1,0,0,15.79,0.03,26,21,0,0
285900,83413233,1,0,0,15.79,0.04,26,21,0,0
286353,83519134,1,0,0,15.79,0.03,26,21,0,0
286843,83634238,1,0,0,15.8,0.04,26,21,0,0
287334,83747090,1,0,0,15.8,0.04,26,21,0,0
287786,83851901,1,0,0,15.8,0.04,26,21,0,0
288238,83958657,1,0,0,15.8,0.04,26,21,0,0
288734,84071720,1,0,0,15.8,0.03,26,21,0,0
289181,84176561,1,0,0,15.8,0.03,26,21,0,0
289632,84280527,1,0,0,15.8,0.03,26,21,0,0
290126,84397817,1,0,0,15.8,0.04,26,21,0,0
290580,84504062,1,0,0,15.8,0.04,26,21,0,0
291030,84611720,1,0,0,15.8,0.04,26,21,0,0
291482,84715320,1,0,0,15.8,0.03,26,21,0,0
291894,84817281,1,0,0,15.8,0.04,26,21,0,0
292390,84934435,1,0,0,15.8,0.04,26,21,0,0
292845,85042392,1,0,0,15.8,0.04,26,21,0,0
293291,85148593,1,0,0,15.8,0.04,26,21,0,0
294237,85369606,1,0,0,15.8,0.03,26,21,0,0
294658,85471301,1,0,0,15.81,0.03,26,21,0,0
295106,85576572,1,0,0,15.81,0.03,26,21,0,0
295605,85693457,1,0,0,15.81,0.03,26,21,0,0
296055,85797222,1,0,0,15.81,0.03,26,21,0,0
296507,85902291,1,0,0,15.81,0.03,26,21,0,0
297000,86017394,1,0,0,15.81,0.03,26,21,0,0
297450,86119553,1,0,0,15.81,0.03,26,21,0,0
297904,86230864,1,0,0,15.81,0.03,26,21,0,0
298401,86342695,1,0,0,15.81,0.03,26,21,0,0
298847,86447131,1,0,0,15.81,0.03,26,21,0,0
299295,86554098,1,0,0,15.82,0.03,26,21,0,0
300243,86776678,1,0,0,15.82,0.04,26,21,0,0
300697,86879788,1,0,0,15.82,0.03,26,21,0,0
301146,86984633,1,0,0,15.82,0.03,26,21,0,0
301642,87095758,1,0,0,15.82,0.03,26,21,0,0
