LineNo,TimeUS,Instance,RPM,RawRPM,Volt,Curr,Temp,CTot,MotTemp,Err
1859,1.5473e+07,1,0,0,16.06,0.04,26,0,0,0
2239,1.5569e+07,1,0,0,16.06,0.04,26,0,0,0
2696,1.5682e+07,1,0,0,16.06,0.04,26,0,0,0
3109,1.5782e+07,1,0,0,16.06,0.04,26,0,0,0
3566,1.5896e+07,1,0,0,16.06,0.04,26,0,0,0
3977,1.6e+07,1,0,0,16.06,0.04,26,0,0,0
4390,1.61e+07,1,0,0,16.06,0.04,26,0,0,0
4811,1.621e+07,1,0,0,16.06,0.04,26,0,0,0
5222,1.6313e+07,1,0,0,16.06,0.04,26,0,0,0
5631,1.6413e+07,1,0,0,16.05,0.04,26,0,0,0
6080,1.6524e+07,1,0,0,16.06,0.04,26,0,0,0
6536,1.6635e+07,1,0,0,16.05,0.04,26,0,0,0
6948,1.6738e+07,1,0,0,16.05,0.04,26,0,0,0
7357,1.6838e+07,1,0,0,16.06,0.04,26,0,0,0
7772,1.6944e+07,1,0,0,16.05,0.04,26,0,0,0
8219,1.7056e+07,1,0,0,16.06,0.03,26,0,0,0
8632,1.7157e+07,1,14,242,16.05,0.05,26,0,0,0
9037,1.7258e+07,1,247,671,16.04,0.1,26,0,0,0
9391,1.7364e+07,1,677,1028,16.02,0.17,26,0,0,0
9805,1.7468e+07,1,1030,1200,16.04,0.12,26,0,0,0
10259,1.7582e+07,1,1203,1242,16.04,0.11,26,0,0,0
10668,1.7682e+07,1,1243,1271,16.04,0.11,26,0,0,0
11123,1.7796e+07,1,1272,1285,16.05,0.11,26,0,0,0
11540,1.7899e+07,1,1285,1285,16.05,0.11,26,0,0,0
11954,1.7999e+07,1,1285,1300,16.04,0.11,26,0,0,0
12381,1.811e+07,1,1298,1285,16.04,0.11,26,0,0,0
12796,1.8213e+07,1,1285,1285,16.04,0.11,26,0,0,0
13245,1.8324e+07,1,1286,1300,16.04,0.11,26,0,0,0
13651,1.8425e+07,1,1299,1285,16.04,0.11,26,0,0,0
14065,1.8528e+07,1,1285,1300,16.04,0.11,26,0,0,0
14516,1.8639e+07,1,1300,1300,16.04,0.1,26,0,0,0
14929,1.874e+07,1,1300,1300,16.04,0.11,26,0,0,0
15378,1.8856e+07,1,1300,1300,16.04,0.11,26,0,0,0
15790,1.8957e+07,1,1300,1300,16.04,0.11,26,0,0,0
16196,1.9058e+07,1,1300,1300,16.04,0.11,26,0,0,0
16652,1.9173e+07,1,1300,1300,16.04,0.11,26,0,0,0
17063,1.9278e+07,1,1300,1300,16.04,0.11,26,0,0,0
17439,1.9375e+07,1,1300,1300,16.04,0.11,26,0,0,0
17895,1.9488e+07,1,1300,1300,16.04,0.11,26,0,0,0
18307,1.9591e+07,1,1300,1300,16.05,0.11,26,0,0,0
18722,1.9697e+07,1,1300,1300,16.04,0.11,26,0,0,0
19168,1.9803e+07,1,1300,1300,16.04,0.11,26,0,0,0
19584,1.9905e+07,1,1300,1300,16.04,0.11,26,0,0,0
19999,2.0007e+07,1,1300,1300,16.05,0.11,26,0,0,0
20409,2.011e+07,1,1300,1300,16.04,0.11,26,0,0,0
20861,2.022e+07,1,1300,1300,16.05,0.11,26,0,0,0
21274,2.0322e+07,1,1300,1300,16.04,0.11,26,0,0,0
21688,2.0427e+07,1,1299,1285,16.05,0.11,26,0,0,0
22139,2.0538e+07,1,1286,1300,16.04,0.11,26,0,0,0
22550,2.0641e+07,1,1300,1300,16.04,0.11,26,0,0,0
23002,2.0751e+07,1,1298,1285,16.04,0.11,26,0,0,0
23409,2.0852e+07,1,1285,1300,16.04,0.11,26,0,0,0
23827,2.0954e+07,1,1299,1285,16.04,0.11,26,0,0,0
24279,2.1067e+07,1,1286,1300,16.04,0.11,26,0,0,0
24695,2.1173e+07,1,1300,1300,16.04,0.11,26,0,0,0
25105,2.1274e+07,1,1300,1300,16.04,0.11,26,0,0,0
25523,2.1379e+07,1,1299,1285,16.04,0.11,26,0,0,0
25938,2.1482e+07,1,1285,1300,16.04,0.11,26,0,0,0
26351,2.1584e+07,1,1300,1385,16.01,0.18,26,0,0,0
26801,2.1696e+07,1,1413,1842,15.9,0.56,26,0,0,0
27218,2.1799e+07,1,1859,2228,15.95,0.62,26,0,0,0
27634,2.1901e+07,1,2229,2342,15.99,0.4,26,0,0,0
28085,2.2012e+07,1,2342,2342,15.98,0.34,26,0,0,0
28535,2.2123e+07,1,2340,2328,16,0.3,26,0,0,0
28947,2.2222e+07,1,2328,2328,15.99,0.37,26,0,0,0
29442,2.2334e+07,1,2330,2357,16.01,0.32,26,0,0,0
29893,2.2438e+07,1,2372,2585,15.88,0.93,26,0,0,0
30346,2.2542e+07,1,2597,2885,15.88,1.06,26,0,0,0
30800,2.2649e+07,1,2895,3514,15.78,1.48,26,0,0,0
31296,2.2763e+07,1,3581,4271,15.64,2.07,26,0,0,0
31746,2.2865e+07,1,4291,4800,15.55,2.64,26,0,0,0
32197,2.2971e+07,1,4809,5314,15.35,3.06,26,0,0,0
32688,2.3083e+07,1,5352,5742,15.29,3.51,26,0,0,0
33141,2.3191e+07,1,5747,5828,15.31,3.34,26,0,0,0
33635,2.3306e+07,1,5808,5585,15.51,2.6,26,0,0,0
34093,2.3411e+07,1,5551,5228,15.47,1.8,26,0,0,0
34506,2.3511e+07,1,5224,5185,15.49,2.31,26,0,0,0
34968,2.3623e+07,1,5181,5128,15.5,2.18,26,1,0,0
35421,2.373e+07,1,5112,4957,15.48,1.97,26,1,0,0
35872,2.3831e+07,1,4957,5000,15.46,2.15,26,1,0,0
36369,2.3943e+07,1,4970,4685,15.46,1.52,26,1,0,0
37271,2.4151e+07,1,4679,4114,15.45,1.14,26,1,0,0
37761,2.4263e+07,1,4122,4242,15.47,1.43,26,1,0,0
38215,2.4366e+07,1,4246,4571,15.4,1.94,26,1,0,0
38712,2.4479e+07,1,4596,4842,15.45,2.22,26,1,0,0
39163,2.4583e+07,1,4850,5057,15.45,2.32,26,1,0,0
39655,2.4697e+07,1,5048,4957,15.35,2.05,26,1,0,0
40107,2.4801e+07,1,4964,5071,15.35,2.48,26,1,0,0
40601,2.4915e+07,1,5072,5085,15.42,2.16,26,1,0,0
41061,2.5021e+07,1,5074,4928,15.44,1.92,26,1,0,0
41469,2.5122e+07,1,4931,5014,15.33,2.18,26,1,0,0
41914,2.5226e+07,1,5014,5028,15.48,1.89,26,1,0,0
42412,2.5345e+07,1,5028,5042,15.47,2.07,26,1,0,0
42858,2.5453e+07,1,5056,5185,15.45,2.11,26,2,0,0
43311,2.5559e+07,1,5173,5057,15.47,1.85,26,2,0,0
43758,2.5672e+07,1,5025,4842,15.37,1.84,26,2,0,0
44654,2.5884e+07,1,4843,5171,15.32,2.83,26,2,0,0
45112,2.5991e+07,1,5209,5514,15.41,2.63,26,2,0,0
45559,2.61e+07,1,5502,5257,15.39,2.08,26,2,0,0
45979,2.6208e+07,1,5276,5514,15.38,2.67,27,2,0,0
46426,2.6314e+07,1,5497,5185,15.35,1.47,26,2,0,0
46915,2.6425e+07,1,5168,4957,15.41,1.9,26,2,0,0
47331,2.653e+07,1,4958,5042,15.35,1.97,26,2,0,0
47784,2.6637e+07,1,5040,4942,15.44,1.71,26,2,0,0
48276,2.6754e+07,1,4933,4842,15.42,1.55,26,2,0,0
48679,2.6849e+07,1,4844,4900,15.42,1.74,26,2,0,0
49133,2.6959e+07,1,4894,4814,15.4,1.43,27,2,0,0
49582,2.7066e+07,1,4814,4828,15.44,1.8,27,2,0,0
50035,2.7174e+07,1,4822,4742,15.4,1.59,26,2,0,0
50484,2.7277e+07,1,4745,4814,15.36,1.41,26,3,0,0
50932,2.7386e+07,1,4795,4371,15.42,0.93,26,3,0,0
51390,2.7498e+07,1,4380,4528,15.43,1.91,27,3,0,0
51797,2.7598e+07,1,4526,4500,15.38,1.57,26,3,0,0
52280,2.7705e+07,1,4506,4585,15.39,1.7,26,3,0,0
52728,2.7813e+07,1,4591,4657,15.39,1.53,27,3,0,0
53136,2.7913e+07,1,4656,4600,15.31,1.66,27,3,0,0
53631,2.8029e+07,1,4597,4571,15.44,1.45,27,3,0,0
54082,2.8136e+07,1,4576,4642,15.36,1.98,27,3,0,0
54535,2.8248e+07,1,4655,4800,15.35,1.65,27,3,0,0
54940,2.8346e+07,1,4799,4785,15.44,1.79,27,3,0,0
55427,2.8461e+07,1,4765,4471,15.44,1.03,27,3,0,0
55880,2.8569e+07,1,4469,4442,15.49,1.71,27,3,0,0
56332,2.8675e+07,1,4444,4485,15.44,1.23,27,3,0,0
56778,2.8781e+07,1,4479,4357,15.48,1.32,27,3,0,0
57232,2.889e+07,1,4358,4371,15.42,1.45,27,3,0,0
57679,2.8994e+07,1,4378,4557,15.35,1.56,27,3,0,0
58178,2.9112e+07,1,4567,4671,15.35,1.64,27,3,0,0
58630,2.922e+07,1,4662,4571,15.38,1.44,27,3,0,0
59038,2.932e+07,1,4565,4171,15.45,0.84,27,3,0,0
59489,2.9427e+07,1,4176,4485,15.31,1.92,27,3,0,0
59982,2.9544e+07,1,4495,4600,15.41,1.41,27,3,0,0
60389,2.9641e+07,1,4600,4600,15.42,1.49,27,4,0,0
60844,2.9752e+07,1,4604,4671,15.39,1.76,27,4,0,0
61294,2.9862e+07,1,4661,4528,15.37,1.51,27,4,0,0
61707,2.9961e+07,1,4530,4671,15.41,1.53,27,4,0,0
62152,3.0066e+07,1,4667,4485,15.42,1.15,27,4,0,0
62649,3.0181e+07,1,4487,4514,15.41,1.4,27,4,0,0
63101,3.0287e+07,1,4516,4557,15.39,1.54,27,4,0,0
63507,3.0386e+07,1,4558,4614,15.33,1.6,27,4,0,0
63962,3.0496e+07,1,4616,4685,15.38,1.51,27,4,0,0
64414,3.0602e+07,1,4683,4657,15.4,1.48,27,4,0,0
64868,3.0711e+07,1,4650,4542,15.33,1.38,27,4,0,0
65322,3.0822e+07,1,4558,4728,15.35,1.58,27,4,0,0
65772,3.0927e+07,1,4726,4600,15.33,1.32,27,4,0,0
66221,3.1036e+07,1,4598,4557,15.41,1.01,27,4,0,0
66672,3.1144e+07,1,4550,4414,15.42,1.27,27,4,0,0
67129,3.1254e+07,1,4423,4571,15.36,1.53,27,4,0,0
67540,3.1354e+07,1,4569,4542,15.38,1.28,27,4,0,0
67994,3.1464e+07,1,4542,4557,15.3,1.55,27,4,0,0
68445,3.1571e+07,1,4559,4614,15.36,1.58,27,4,0,0
68893,3.1677e+07,1,4611,4571,15.27,1.61,27,4,0,0
69374,3.179e+07,1,4605,4814,15.3,1.93,27,4,0,0
69829,3.1897e+07,1,4828,4971,15.32,1.84,27,4,0,0
70242,3.1996e+07,1,4968,4814,15.32,1.63,27,4,0,0
70724,3.2109e+07,1,4814,4828,15.33,1.62,27,5,0,0
71222,3.2231e+07,1,4819,4742,15.28,1.67,27,5,0,0
71626,3.2326e+07,1,4745,4800,15.32,1.76,27,5,0,0
72080,3.2435e+07,1,4797,4742,15.27,1.68,27,5,0,0
72569,3.2549e+07,1,4735,4671,15.32,1.54,27,5,0,0
72979,3.2646e+07,1,4671,4685,15.41,1.33,27,5,0,0
73427,3.2757e+07,1,4677,4514,15.34,1.47,27,5,0,0
73872,3.2861e+07,1,4511,4400,15.41,1.26,27,5,0,0
74340,3.298e+07,1,4401,4414,15.41,1.22,27,5,0,0
74777,3.3076e+07,1,4416,4528,15.36,1.49,27,5,0,0
75234,3.3189e+07,1,4548,4857,15.32,2.09,27,5,0,0
75683,3.3298e+07,1,4862,5000,15.33,1.57,27,5,0,0
76136,3.3405e+07,1,4999,4985,15.3,1.95,27,5,0,0
76585,3.3514e+07,1,4990,5057,15.24,1.98,27,5,0,0
77007,3.3623e+07,1,5071,5228,15.19,1.95,27,5,0,0
77903,3.3835e+07,1,5220,5000,15.18,1.53,27,5,0,0
78360,3.3944e+07,1,4998,4971,15.16,2.03,27,5,0,0
78812,3.4055e+07,1,4982,5114,15.22,2.18,27,5,0,0
79266,3.4166e+07,1,5107,5042,15.22,1.6,27,5,0,0
79673,3.4264e+07,1,5043,5114,15.25,2.34,27,6,0,0
80162,3.4377e+07,1,5113,5100,15.18,2.21,27,6,0,0
80575,3.4477e+07,1,5108,5328,15.22,2.37,27,6,0,0
81062,3.4587e+07,1,5306,5000,15.26,1.43,27,6,0,0
81519,3.4698e+07,1,4989,4885,15.21,1.99,27,6,0,0
81968,3.4807e+07,1,4885,4885,15.21,1.97,27,6,0,0
82372,3.4906e+07,1,4885,4885,15.26,1.77,27,6,0,0
82831,3.5017e+07,1,4868,4700,15.31,1.67,27,6,0,0
83279,3.5126e+07,1,4709,4814,15.32,1.6,27,6,0,0
83730,3.5234e+07,1,4799,4642,15.33,1.55,27,6,0,0
84180,3.5339e+07,1,4630,4471,15.32,1.24,27,6,0,0
84634,3.5449e+07,1,4479,4600,15.34,1.46,27,6,0,0
85536,3.5665e+07,1,4594,4428,15.36,1.85,27,6,0,0
85990,3.5776e+07,1,4456,4785,15.3,1.79,27,6,0,0
86442,3.5885e+07,1,4774,4614,15.32,1.19,27,6,0,0
86892,3.5993e+07,1,4615,4628,15.27,1.64,27,6,0,0
87338,3.6097e+07,1,4631,4700,15.23,1.57,27,6,0,0
87749,3.6199e+07,1,4698,4642,15.27,1.38,27,6,0,0
88202,3.6307e+07,1,4645,4728,15.2,1.88,27,6,0,0
88657,3.6418e+07,1,4756,5171,15.17,2.7,27,7,0,0
89117,3.6531e+07,1,5146,4885,15.23,1.34,27,7,0,0
89562,3.6633e+07,1,4894,4985,15.13,2.67,27,7,0,0
90013,3.674e+07,1,4998,5142,15.19,1.44,27,7,0,0
90461,3.6845e+07,1,5112,4671,15.21,1.2,27,7,0,0
90915,3.6961e+07,1,4671,4671,15.17,1.79,27,7,0,0
91367,3.7064e+07,1,4682,5000,15.16,2.14,27,7,0,0
92261,3.728e+07,1,4993,4857,15.18,2.32,27,7,0,0
93203,3.7505e+07,1,4840,4657,15.24,1.76,27,7,0,0
93612,3.7604e+07,1,4658,4828,15.21,2.29,27,7,0,0
94098,3.7716e+07,1,4834,4885,15.25,2.05,27,7,0,0
94552,3.7825e+07,1,4898,5042,15.25,2.2,27,7,0,0
94958,3.792e+07,1,5039,5000,15.26,1.78,27,7,0,0
95415,3.803e+07,1,4990,4900,15.27,1.8,27,7,0,0
95867,3.814e+07,1,4889,4771,15.25,1.82,27,7,0,0
96311,3.8249e+07,1,4776,4814,15.21,1.77,27,8,0,0
96721,3.8351e+07,1,4817,4857,15.29,1.87,27,8,0,0
97173,3.846e+07,1,4865,4957,15.27,1.87,27,8,0,0
97575,3.8554e+07,1,4953,4714,15.2,1.56,27,8,0,0
98072,3.8671e+07,1,4736,4971,15.25,2.27,27,8,0,0
98474,3.8768e+07,1,4971,4971,15.19,2.04,27,8,0,0
98893,3.8876e+07,1,4974,5114,15.18,2.32,27,8,0,0
99387,3.8993e+07,1,5131,5314,15.23,2.4,27,8,0,0
99834,3.91e+07,1,5296,5042,15.18,1.57,27,8,0,0
1.0028e+05,3.9206e+07,1,5042,5057,15.21,2.2,27,8,0,0
1.0074e+05,3.9313e+07,1,5057,5057,15.26,2.26,27,8,0,0
1.0122e+05,3.9424e+07,1,5065,5185,15.23,1.76,27,8,0,0
1.0167e+05,3.9531e+07,1,5165,4957,15.18,2.02,27,8,0,0
1.0212e+05,3.9636e+07,1,4960,5028,15.21,1.85,27,8,0,0
1.0258e+05,3.9748e+07,1,5020,4942,15.3,1.52,27,8,0,0
1.0303e+05,3.9854e+07,1,4897,4557,15.29,1.03,27,8,0,0
1.0344e+05,3.9955e+07,1,4558,4600,15.26,1.57,27,8,0,0
1.0389e+05,4.0065e+07,1,4598,4571,15.2,1.71,27,8,0,0
1.0434e+05,4.0174e+07,1,4578,4671,15.23,1.68,27,9,0,0
1.048e+05,4.0284e+07,1,4672,4685,15.22,1.42,27,9,0,0
1.0525e+05,4.0392e+07,1,4693,4785,15.2,1.88,27,9,0,0
1.0574e+05,4.0506e+07,1,4795,4914,15.21,2.03,27,9,0,0
1.0615e+05,4.0608e+07,1,4910,4857,15.22,1.68,27,9,0,0
1.066e+05,4.0717e+07,1,4868,4985,15.22,1.92,27,9,0,0
1.0705e+05,4.0825e+07,1,4988,5028,15.17,2.04,27,9,0,0
1.0745e+05,4.0922e+07,1,5025,4928,15.18,1.86,27,9,0,0
1.0794e+05,4.1036e+07,1,4940,5071,15.22,2.01,27,9,0,0
1.0835e+05,4.1138e+07,1,5069,4971,15.25,1.74,27,9,0,0
1.088e+05,4.1243e+07,1,4970,4957,15.24,1.75,27,9,0,0
1.0925e+05,4.1351e+07,1,4956,4914,15.23,1.63,27,9,0,0
1.0974e+05,4.1465e+07,1,4900,4757,15.19,1.56,27,9,0,0
1.1067e+05,4.1683e+07,1,4751,4614,15.22,1.82,27,9,0,0
1.1112e+05,4.1793e+07,1,4634,4828,15.14,1.81,27,9,0,0
1.1158e+05,4.1898e+07,1,4807,4585,15.16,1.38,27,9,0,0
1.1203e+05,4.2013e+07,1,4580,4557,15.19,1.48,27,9,0,0
1.1243e+05,4.2105e+07,1,4555,4528,15.25,1.43,27,9,0,0
1.1292e+05,4.2218e+07,1,4538,4657,15.27,1.83,27,9,0,0
1.1337e+05,4.2329e+07,1,4671,4785,15.21,1.8,27,10,0,0
1.1378e+05,4.2427e+07,1,4793,4900,15.15,1.95,27,10,0,0
1.1423e+05,4.2537e+07,1,4902,4928,15.19,1.86,27,10,0,0
1.1464e+05,4.2637e+07,1,4927,4885,15.19,1.84,27,10,0,0
1.1509e+05,4.275e+07,1,4885,4885,15.19,1.73,27,10,0,0
1.1554e+05,4.2859e+07,1,4877,4800,15.19,1.66,27,10,0,0
1.16e+05,4.2965e+07,1,4796,4742,15.23,1.52,27,10,0,0
1.1644e+05,4.3078e+07,1,4735,4671,15.16,1.38,27,10,0,0
1.1689e+05,4.319e+07,1,4658,4571,15.23,1.2,27,10,0,0
1.1733e+05,4.329e+07,1,4544,4357,15.2,1.32,27,10,0,0
1.1779e+05,4.3401e+07,1,4374,4571,15.17,1.8,27,10,0,0
1.182e+05,4.3492e+07,1,4571,4600,15.16,1.44,27,10,0,0
1.1868e+05,4.361e+07,1,4603,4657,15.17,1.51,27,10,0,0
1.1914e+05,4.3724e+07,1,4659,4685,15.16,1.6,27,10,0,0
1.1958e+05,4.3829e+07,1,4687,4714,15.17,1.68,27,10,0,0
1.2048e+05,4.404e+07,1,4716,4785,15.14,1.83,27,10,0,0
1.2093e+05,4.4144e+07,1,4772,4600,15.17,1.59,27,10,0,0
1.2137e+05,4.4248e+07,1,4611,4885,15.19,2.2,27,10,0,0
1.2183e+05,4.4359e+07,1,4895,5000,15.19,1.95,27,10,0,0
1.2231e+05,4.4469e+07,1,4980,4771,15.22,1.3,27,11,0,0
1.2276e+05,4.4577e+07,1,4762,4671,15.24,1.42,27,11,0,0
1.2316e+05,4.4674e+07,1,4671,4685,15.22,1.57,27,11,0,0
1.2362e+05,4.4784e+07,1,4684,4671,15.18,1.74,27,11,0,0
1.2407e+05,4.4892e+07,1,4676,4757,15.2,1.65,27,11,0,0
1.2452e+05,4.4997e+07,1,4754,4685,15.23,1.45,27,11,0,0
1.2493e+05,4.5096e+07,1,4683,4614,15.16,1.63,27,11,0,0
1.2542e+05,4.5209e+07,1,4617,4671,15.17,1.73,27,11,0,0
1.2584e+05,4.5319e+07,1,4681,4800,15.19,1.62,27,11,0,0
1.2629e+05,4.5425e+07,1,4792,4685,15.13,1.44,27,11,0,0
1.2673e+05,4.5531e+07,1,4686,4728,15.14,1.7,27,11,0,0
1.2717e+05,4.5636e+07,1,4725,4614,15.14,1.65,27,11,0,0
1.2759e+05,4.5742e+07,1,4614,4614,15.08,1.59,27,11,0,0
1.2809e+05,4.5859e+07,1,4607,4542,15.19,1.42,27,11,0,0
1.285e+05,4.5957e+07,1,4539,4385,15.16,1.2,27,11,0,0
1.2899e+05,4.6072e+07,1,4391,4457,15.17,1.46,27,11,0,0
1.2944e+05,4.6181e+07,1,4464,4542,15.2,1.59,27,11,0,0
1.2985e+05,4.6282e+07,1,4532,4342,15.18,1.02,27,11,0,0
1.303e+05,4.639e+07,1,4337,4242,15.22,1.25,27,11,0,0
1.3075e+05,4.6499e+07,1,4246,4314,15.17,1.5,27,11,0,0
1.3119e+05,4.6603e+07,1,4318,4385,15.18,1.56,27,11,0,0
1.3164e+05,4.6711e+07,1,4395,4542,15.18,1.68,27,11,0,0
1.3199e+05,4.6818e+07,1,4526,4300,15.18,1.03,27,11,0,0
1.3243e+05,4.6924e+07,1,4300,4328,15.21,1.21,27,12,0,0
1.3289e+05,4.7032e+07,1,4335,4500,15.15,1.72,27,12,0,0
1.3333e+05,4.7137e+07,1,4501,4628,15.17,1.42,27,12,0,0
1.3378e+05,4.7248e+07,1,4637,4785,15.12,2,27,12,0,0
1.3468e+05,4.7463e+07,1,4784,4771,15.21,1.58,27,12,0,0
1.3513e+05,4.7571e+07,1,4758,4585,15.18,1.29,27,12,0,0
1.3557e+05,4.7676e+07,1,4583,4542,15.16,1.49,27,12,0,0
1.3602e+05,4.7785e+07,1,4544,4657,15.19,1.39,27,12,0,0
1.3647e+05,4.7894e+07,1,4644,4400,15.2,1.26,27,12,0,0
1.3692e+05,4.8003e+07,1,4404,4485,15.13,1.64,27,12,0,0
1.374e+05,4.8111e+07,1,4487,4528,15.19,1.25,27,12,0,0
1.3782e+05,4.8219e+07,1,4524,4342,15.21,1.12,27,12,0,0
1.3831e+05,4.8339e+07,1,4329,4200,15.19,1.05,27,12,0,0
1.3872e+05,4.8431e+07,1,4205,4342,15.14,1.55,27,12,0,0
1.3916e+05,4.854e+07,1,4347,4471,15.19,1.35,27,12,0,0
1.3961e+05,4.865e+07,1,4467,4428,15.19,1.47,27,12,0,0
1.4006e+05,4.876e+07,1,4433,4514,15.17,1.47,27,12,0,0
1.4051e+05,4.8869e+07,1,4514,4528,15.1,1.65,27,12,0,0
1.4096e+05,4.8978e+07,1,4525,4485,15.16,1.3,27,12,0,0
1.4141e+05,4.9083e+07,1,4485,4528,15.07,1.56,27,12,0,0
1.4186e+05,4.9193e+07,1,4528,4542,15.18,1.5,27,12,0,0
1.4231e+05,4.9301e+07,1,4542,4557,15.16,1.36,27,12,0,0
1.4276e+05,4.9411e+07,1,4555,4485,15.15,1.38,27,13,0,0
1.4321e+05,4.9523e+07,1,4480,4385,15.21,1.29,27,13,0,0
1.4412e+05,4.9742e+07,1,4384,4357,15.16,1.08,27,13,0,0
1.446e+05,4.985e+07,1,4354,4328,15.16,1.48,27,13,0,0
1.4505e+05,4.9963e+07,1,4332,4385,15.16,1.58,27,13,0,0
1.455e+05,5.0067e+07,1,4389,4457,15.19,1.24,27,13,0,0
1.4591e+05,5.0174e+07,1,4455,4442,15.18,1.43,27,13,0,0
1.4632e+05,5.0272e+07,1,4444,4557,15.17,1.63,27,13,0,0
1.4677e+05,5.0379e+07,1,4558,4585,15.15,1.46,27,13,0,0
1.4719e+05,5.0484e+07,1,4584,4571,15.13,1.45,27,13,0,0
1.4763e+05,5.0589e+07,1,4570,4542,15.15,1.57,27,13,0,0
1.4812e+05,5.07e+07,1,4540,4514,15.17,1.34,27,13,0,0
1.4857e+05,5.0807e+07,1,4507,4400,15.2,1.3,27,13,0,0
1.4901e+05,5.0913e+07,1,4398,4371,15.19,1.3,27,13,0,0
1.4946e+05,5.1023e+07,1,4373,4414,15.16,1.45,27,13,0,0
1.4991e+05,5.1131e+07,1,4414,4428,15.13,1.57,27,13,0,0
1.5037e+05,5.1241e+07,1,4439,4557,15.1,1.62,27,13,0,0
1.5078e+05,5.1341e+07,1,4555,4428,15.14,1.4,27,13,0,0
1.5126e+05,5.1452e+07,1,4437,4571,15.13,1.36,27,13,0,0
1.5171e+05,5.1561e+07,1,4564,4428,15.14,1.48,27,13,0,0
1.5212e+05,5.1663e+07,1,4429,4528,15.14,1.45,27,13,0,0
1.5257e+05,5.177e+07,1,4528,4542,15.17,1.47,27,13,0,0
1.5302e+05,5.1876e+07,1,4539,4471,15.17,1.37,27,14,0,0
1.5351e+05,5.1991e+07,1,4471,4471,15.09,1.49,27,14,0,0
1.5396e+05,5.2097e+07,1,4458,4285,15.15,0.8,27,14,0,0
1.5437e+05,5.22e+07,1,4274,4042,15.2,1.07,27,14,0,0
1.5486e+05,5.2314e+07,1,4054,4185,15.08,1.68,27,14,0,0
1.5531e+05,5.2422e+07,1,4200,4357,15.11,1.62,27,14,0,0
1.558e+05,5.2535e+07,1,4357,4357,15.13,1.32,27,14,0,0
1.5617e+05,5.2631e+07,1,4357,4400,15.1,1.6,27,14,0,0
1.5666e+05,5.2746e+07,1,4402,4428,15.16,1.4,27,14,0,0
1.5711e+05,5.2853e+07,1,4438,4557,15.15,1.52,27,14,0,0
1.5756e+05,5.296e+07,1,4547,4400,15.2,1.2,27,14,0,0
1.58e+05,5.3066e+07,1,4402,4428,15.16,1.38,27,14,0,0
1.5845e+05,5.3174e+07,1,4435,4514,15.14,1.53,27,14,0,0
1.589e+05,5.3283e+07,1,4508,4457,15.22,1.35,27,14,0,0
1.5935e+05,5.3389e+07,1,4468,4600,15.16,1.55,27,14,0,0
1.598e+05,5.3494e+07,1,4590,4485,15.13,1.48,27,14,0,0
1.6024e+05,5.3607e+07,1,4489,4528,15.13,1.63,27,14,0,0
1.6073e+05,5.3718e+07,1,4534,4585,15.04,1.84,27,14,0,0
1.6118e+05,5.3826e+07,1,4589,4642,15.08,1.58,27,14,0,0
1.6163e+05,5.3934e+07,1,4646,4685,15.06,1.93,27,14,0,0
1.6207e+05,5.4035e+07,1,4694,4785,15.06,1.82,27,14,0,0
1.6293e+05,5.4246e+07,1,4779,4671,15.06,1.42,27,14,0,0
1.6338e+05,5.4355e+07,1,4644,4400,15.16,1.13,27,15,0,0
1.6379e+05,5.4447e+07,1,4398,4314,15.13,1.38,27,15,0,0
1.6428e+05,5.4568e+07,1,4326,4457,15.13,1.59,27,15,0,0
1.6469e+05,5.467e+07,1,4471,4600,15.1,1.64,27,15,0,0
1.6515e+05,5.4777e+07,1,4596,4571,15.09,1.5,27,15,0,0
1.656e+05,5.4894e+07,1,4568,4542,15.13,1.73,27,15,0,0
1.66e+05,5.4989e+07,1,4539,4500,15.16,1.44,27,15,0,0
1.6645e+05,5.5095e+07,1,4495,4385,15.16,1.08,27,15,0,0
1.669e+05,5.52e+07,1,4384,4342,15.18,1.44,27,15,0,0
1.6779e+05,5.5417e+07,1,4344,4557,15.17,1.54,27,15,0,0
1.6825e+05,5.5529e+07,1,4560,4642,15.17,1.42,27,15,0,0
1.687e+05,5.5639e+07,1,4628,4514,15.16,1.32,27,15,0,0
1.6915e+05,5.5743e+07,1,4507,4400,15.19,1.13,27,15,0,0
1.696e+05,5.5849e+07,1,4396,4314,15.19,1.39,27,15,0,0
1.7009e+05,5.5962e+07,1,4321,4400,15.15,1.49,27,15,0,0
1.7054e+05,5.6071e+07,1,4414,4642,15.12,1.74,27,15,0,0
1.7098e+05,5.6172e+07,1,4638,4571,15.16,1.43,27,15,0,0
1.7147e+05,5.6286e+07,1,4562,4471,15.1,1.31,27,15,0,0
1.7192e+05,5.6393e+07,1,4463,4385,15.1,1.36,27,15,0,0
1.7236e+05,5.6499e+07,1,4385,4385,15.12,1.56,27,15,0,0
1.7281e+05,5.6604e+07,1,4401,4628,15.2,1.66,27,15,0,0
1.7326e+05,5.6712e+07,1,4605,4371,15.14,1.31,27,15,0,0
1.7371e+05,5.6816e+07,1,4375,4442,15.13,1.53,27,16,0,0
1.7416e+05,5.6925e+07,1,4471,4800,15.14,2.5,27,16,0,0
1.7466e+05,5.7037e+07,1,4793,4728,15.15,1.13,27,16,0,0
1.7506e+05,5.7136e+07,1,4723,4385,15.17,1.01,27,16,0,0
1.7555e+05,5.7246e+07,1,4382,4342,15.22,1.23,27,16,0,0
1.76e+05,5.7355e+07,1,4333,4214,15.22,1.1,27,16,0,0
1.7645e+05,5.7465e+07,1,4202,4085,15.2,1.47,27,16,0,0
1.769e+05,5.7571e+07,1,4099,4314,15.16,1.72,27,16,0,0
1.7735e+05,5.7678e+07,1,4327,4514,15.19,1.62,27,16,0,0
1.778e+05,5.7786e+07,1,4512,4485,15.2,1.26,27,16,0,0
1.7825e+05,5.7892e+07,1,4483,4457,15.2,1.33,27,16,0,0
1.787e+05,5.8e+07,1,4457,4457,15.2,1.42,27,16,0,0
1.7915e+05,5.8108e+07,1,4459,4642,15.25,1.53,27,16,0,0
1.796e+05,5.8216e+07,1,4641,4628,15.16,1.57,27,16,0,0
1.8009e+05,5.8334e+07,1,4618,4542,15.17,1.32,27,16,0,0
1.8049e+05,5.8433e+07,1,4541,4528,15.16,1.48,27,16,0,0
1.8099e+05,5.8553e+07,1,4540,4628,15.16,1.76,27,16,0,0
1.8144e+05,5.8657e+07,1,4633,4685,15.13,1.66,27,16,0,0
1.8188e+05,5.8769e+07,1,4679,4642,15.1,1.56,27,16,0,0
1.823e+05,5.8875e+07,1,4638,4600,15.05,1.38,27,16,0,0
1.8274e+05,5.8979e+07,1,4589,4500,15.13,1.41,27,16,0,0
1.8319e+05,5.9085e+07,1,4496,4457,15.15,1.55,27,16,0,0
1.836e+05,5.9186e+07,1,4456,4400,15.14,1.13,27,16,0,0
1.8409e+05,5.9308e+07,1,4386,4242,15.07,1.05,27,17,0,0
1.8454e+05,5.9411e+07,1,4236,4185,15.13,1.11,27,17,0,0
1.8499e+05,5.952e+07,1,4185,4185,15.11,1.33,27,17,0,0
1.8544e+05,5.9626e+07,1,4192,4357,15.12,1.77,27,17,0,0
1.8589e+05,5.9733e+07,1,4362,4485,15.07,1.43,27,17,0,0
1.8634e+05,5.9842e+07,1,4497,4671,15.13,1.73,27,17,0,0
1.8679e+05,5.995e+07,1,4683,4871,15.1,1.81,27,17,0,0
1.872e+05,6.0051e+07,1,4870,4842,15.16,1.7,27,17,0,0
1.8769e+05,6.0166e+07,1,4844,4871,15.13,1.65,27,17,0,0
1.8814e+05,6.0274e+07,1,4865,4785,15.12,1.59,27,17,0,0
1.8859e+05,6.0386e+07,1,4788,4828,15.17,1.53,27,17,0,0
1.8904e+05,6.0494e+07,1,4835,4914,15.12,1.65,27,17,0,0
1.899e+05,6.0706e+07,1,4910,4828,15.13,1.7,27,17,0,0
1.9036e+05,6.0814e+07,1,4830,4857,15.14,1.53,27,17,0,0
1.908e+05,6.0921e+07,1,4852,4800,15.03,1.91,27,17,0,0
1.9125e+05,6.103e+07,1,4807,4928,15.1,1.8,27,17,0,0
1.917e+05,6.1139e+07,1,4934,5000,15.09,1.79,27,17,0,0
1.9215e+05,6.1246e+07,1,4996,4957,15.06,1.99,27,17,0,0
1.926e+05,6.1354e+07,1,4960,5014,15.1,1.78,27,17,0,0
1.93e+05,6.1453e+07,1,5014,5042,15.1,1.98,27,18,0,0
1.9345e+05,6.156e+07,1,5040,4900,15.16,1.53,27,18,0,0
1.939e+05,6.1667e+07,1,4898,4800,15.17,1.69,27,18,0,0
1.9436e+05,6.1779e+07,1,4810,4942,15.1,1.79,27,18,0,0
1.9481e+05,6.1888e+07,1,4934,4857,15.17,1.62,27,18,0,0
1.9526e+05,6.1995e+07,1,4846,4742,15.16,1.42,27,18,0,0
1.9567e+05,6.2093e+07,1,4739,4700,15.15,1.57,27,18,0,0
1.9609e+05,6.2205e+07,1,4694,4642,15.23,1.23,27,18,0,0
1.9654e+05,6.231e+07,1,4623,4357,15.18,0.99,27,18,0,0
1.9699e+05,6.2418e+07,1,4356,4342,15.17,1.15,27,18,0,0
1.9744e+05,6.2524e+07,1,4341,4328,15.08,1.4,27,18,0,0
1.9789e+05,6.2631e+07,1,4330,4471,15.17,1.46,27,18,0,0
1.9838e+05,6.2746e+07,1,4479,4614,15.13,1.68,27,18,0,0
1.9882e+05,6.2856e+07,1,4622,4742,15.11,1.7,27,18,0,0
1.9928e+05,6.2967e+07,1,4743,4757,15.13,1.74,27,18,0,0
1.9972e+05,6.3075e+07,1,4769,4900,15.12,1.66,27,18,0,0
2.0017e+05,6.318e+07,1,4880,4685,15.13,1.31,27,18,0,0
2.0059e+05,6.3284e+07,1,4684,4642,15.15,1.35,27,18,0,0
2.0107e+05,6.3405e+07,1,4642,4642,15.13,1.41,27,18,0,0
2.0148e+05,6.3495e+07,1,4642,4642,15.13,1.22,27,18,0,0
2.0198e+05,6.362e+07,1,4636,4585,15.18,1.14,27,18,0,0
2.0238e+05,6.3721e+07,1,4571,4442,15.16,1.13,27,18,0,0
2.0284e+05,6.3828e+07,1,4447,4514,15.16,1.49,27,18,0,0
2.0326e+05,6.3934e+07,1,4515,4642,15.14,1.86,27,18,0,0
2.0374e+05,6.4043e+07,1,4650,4742,15.1,1.64,27,19,0,0
2.0419e+05,6.4153e+07,1,4744,4771,15.15,1.67,27,19,0,0
2.0463e+05,6.4258e+07,1,4759,4628,15.13,1.46,27,19,0,0
2.0508e+05,6.4366e+07,1,4625,4600,15.14,1.4,27,19,0,0
2.0599e+05,6.4579e+07,1,4594,4471,15.13,1.5,27,19,0,0
2.0643e+05,6.4687e+07,1,4482,4642,15.08,1.64,27,19,0,0
2.0688e+05,6.4796e+07,1,4643,4657,15.13,1.51,27,19,0,0
2.0733e+05,6.4902e+07,1,4658,4685,15.09,1.61,27,19,0,0
2.0778e+05,6.5008e+07,1,4684,4671,15.07,1.48,27,19,0,0
2.0823e+05,6.5118e+07,1,4669,4657,15.05,1.52,27,19,0,0
2.0868e+05,6.5225e+07,1,4661,4771,15.16,1.67,27,19,0,0
2.0912e+05,6.5329e+07,1,4767,4685,15.15,1.29,27,19,0,0
2.0956e+05,6.5436e+07,1,4684,4628,15.09,1.53,27,19,0,0
2.1005e+05,6.5552e+07,1,4629,4657,15.11,1.68,27,19,0,0
2.105e+05,6.5656e+07,1,4658,4700,15.12,1.52,27,19,0,0
2.1095e+05,6.5761e+07,1,4701,4785,15.13,1.88,27,19,0,0
2.1144e+05,6.588e+07,1,4792,4871,15.14,1.77,27,19,0,0
2.1189e+05,6.5985e+07,1,4871,4871,15.14,1.76,27,19,0,0
2.1233e+05,6.6088e+07,1,4871,4871,15.09,1.94,27,19,0,0
2.1278e+05,6.6196e+07,1,4877,4971,15.09,1.92,27,20,0,0
2.1322e+05,6.6302e+07,1,4974,5071,15.07,2.01,27,20,0,0
2.1368e+05,6.6412e+07,1,5068,5000,15.09,1.85,27,20,0,0
2.1417e+05,6.6526e+07,1,5004,5057,15.11,1.95,27,20,0,0
2.1461e+05,6.6633e+07,1,5053,5014,15.09,1.8,27,20,0,0
2.1507e+05,6.6738e+07,1,5011,4985,15.1,1.88,27,20,0,0
2.1551e+05,6.6843e+07,1,4978,4885,15.12,1.57,27,20,0,0
2.1595e+05,6.6947e+07,1,4870,4728,15.17,1.44,27,20,0,0
2.164e+05,6.7058e+07,1,4721,4657,15.13,1.56,27,20,0,0
2.1688e+05,6.717e+07,1,4653,4614,15.07,1.52,27,20,0,0
2.1733e+05,6.7283e+07,1,4628,4728,15.07,1.77,27,20,0,0
2.1818e+05,6.7483e+07,1,4727,4671,15.13,1.61,27,20,0,0
2.1862e+05,6.7597e+07,1,4669,4657,15.14,1.57,27,20,0,0
2.1907e+05,6.77e+07,1,4657,4657,15.14,1.55,27,20,0,0
2.1952e+05,6.781e+07,1,4657,4671,15.09,1.65,27,20,0,0
2.2001e+05,6.7926e+07,1,4657,4528,15.15,1.35,27,20,0,0
2.2041e+05,6.8026e+07,1,4526,4442,15.16,1.55,27,20,0,0
2.2091e+05,6.814e+07,1,4451,4571,15.18,1.54,27,20,0,0
2.2135e+05,6.8248e+07,1,4576,4628,15.13,1.59,27,20,0,0
2.2179e+05,6.8349e+07,1,4629,4671,15.16,1.8,27,21,0,0
2.2224e+05,6.8455e+07,1,4672,4800,15.15,1.75,27,21,0,0
2.2273e+05,6.8572e+07,1,4763,4357,15.5,0.46,27,21,0,0
2.2317e+05,6.8674e+07,1,4298,2971,15.2,0.57,27,21,0,0
2.2361e+05,6.8783e+07,1,2960,2200,15.56,0.45,27,21,0,0
2.2411e+05,6.8899e+07,1,2186,2042,15.52,0.26,27,21,0,0
2.2456e+05,6.9008e+07,1,2038,2000,15.6,0.14,27,21,0,0
2.2495e+05,6.9103e+07,1,1998,1900,15.56,0.17,27,21,0,0
2.2545e+05,6.9219e+07,1,1898,1885,15.57,0.15,27,21,0,0
2.2589e+05,6.9323e+07,1,1883,1857,15.57,0.17,27,21,0,0
2.2634e+05,6.9433e+07,1,1860,1900,15.57,0.19,27,21,0,0
2.2723e+05,6.9645e+07,1,1899,1885,15.58,0.19,27,21,0,0
2.2767e+05,6.9751e+07,1,1883,1842,15.58,0.16,27,21,0,0
2.2816e+05,6.9866e+07,1,1844,1871,15.58,0.19,27,21,0,0
2.2856e+05,6.9964e+07,1,1870,1857,15.59,0.18,27,21,0,0
2.2906e+05,7.0078e+07,1,1859,1885,15.59,0.18,27,21,0,0
2.2947e+05,7.0182e+07,1,1885,1885,15.59,0.18,27,21,0,0
2.2991e+05,7.0288e+07,1,1887,1914,15.57,0.23,27,21,0,0
2.3036e+05,7.0395e+07,1,1919,1971,15.58,0.24,27,21,0,0
2.3081e+05,7.05e+07,1,1971,1985,15.6,0.24,27,21,0,0
2.3125e+05,7.0606e+07,1,1984,1971,15.69,0.17,27,21,0,0
2.317e+05,7.0713e+07,1,1958,1685,15.67,0.02,27,21,0,0
2.3215e+05,7.0825e+07,1,1673,1371,15.66,0.02,27,21,0,0
2.326e+05,7.0935e+07,1,1370,1285,15.66,0.09,27,21,0,0
2.3309e+05,7.1046e+07,1,1283,1271,15.65,0.1,27,21,0,0
2.3353e+05,7.1156e+07,1,1269,1257,15.66,0.1,27,21,0,0
2.3394e+05,7.1258e+07,1,1257,1257,15.65,0.1,27,21,0,0
2.3442e+05,7.1368e+07,1,1257,1257,15.66,0.1,27,21,0,0
2.3487e+05,7.1474e+07,1,1257,1257,15.66,0.1,27,21,0,0
2.3531e+05,7.158e+07,1,1257,1271,15.67,0.1,27,21,0,0
2.3576e+05,7.1689e+07,1,1271,1271,15.67,0.1,27,21,0,0
2.3665e+05,7.1902e+07,1,1270,1257,15.67,0.1,27,21,0,0
2.371e+05,7.2008e+07,1,1257,1257,15.67,0.1,27,21,0,0
2.3759e+05,7.2123e+07,1,1257,1257,15.67,0.1,27,21,0,0
2.3804e+05,7.223e+07,1,1210,542,15.69,0.01,27,21,0,0
2.385e+05,7.2335e+07,1,528,228,15.69,0.02,27,21,0,0
2.3899e+05,7.2452e+07,1,208,0,15.69,0.02,27,21,0,0
2.3944e+05,7.2557e+07,1,0,0,15.69,0.03,27,21,0,0
2.3994e+05,7.2669e+07,1,0,0,15.7,0.03,27,21,0,0
2.4084e+05,7.2881e+07,1,0,0,15.7,0.03,26,21,0,0
2.4129e+05,7.2989e+07,1,0,0,15.7,0.03,27,21,0,0
2.4179e+05,7.3102e+07,1,0,0,15.7,0.03,27,21,0,0
2.4224e+05,7.3205e+07,1,0,0,15.7,0.03,27,21,0,0
2.4274e+05,7.3321e+07,1,0,0,15.7,0.03,27,21,0,0
2.4322e+05,7.3438e+07,1,0,0,15.7,0.03,26,21,0,0
2.4368e+05,7.3547e+07,1,0,0,15.71,0.03,27,21,0,0
2.4409e+05,7.3641e+07,1,0,0,15.71,0.03,26,21,0,0
2.4458e+05,7.3754e+07,1,0,0,15.71,0.03,26,21,0,0
2.4503e+05,7.3857e+07,1,0,0,15.72,0.03,26,21,0,0
2.4548e+05,7.3969e+07,1,0,0,15.71,0.03,26,21,0,0
2.4594e+05,7.4072e+07,1,0,0,15.71,0.03,26,21,0,0
2.4638e+05,7.4177e+07,1,0,0,15.72,0.03,26,21,0,0
2.4688e+05,7.4291e+07,1,0,0,15.72,0.03,27,21,0,0
2.4729e+05,7.4394e+07,1,0,0,15.72,0.03,26,21,0,0
2.4779e+05,7.4506e+07,1,0,0,15.72,0.03,26,21,0,0
2.482e+05,7.4608e+07,1,0,0,15.72,0.04,27,21,0,0
2.4869e+05,7.4722e+07,1,0,0,15.72,0.04,26,21,0,0
2.4918e+05,7.4836e+07,1,0,0,15.73,0.03,26,21,0,0
2.4964e+05,7.4941e+07,1,0,0,15.73,0.03,26,21,0,0
2.5008e+05,7.5046e+07,1,0,0,15.73,0.03,26,21,0,0
2.5054e+05,7.5154e+07,1,0,0,15.73,0.03,26,21,0,0
2.5103e+05,7.5267e+07,1,0,0,15.73,0.04,26,21,0,0
2.5149e+05,7.5375e+07,1,0,0,15.73,0.04,26,21,0,0
2.5194e+05,7.5481e+07,1,0,0,15.73,0.03,26,21,0,0
2.524e+05,7.5592e+07,1,0,0,15.73,0.04,26,21,0,0
2.5289e+05,7.5704e+07,1,0,0,15.74,0.04,26,21,0,0
2.5334e+05,7.5811e+07,1,0,0,15.74,0.04,26,21,0,0
2.5379e+05,7.5916e+07,1,0,0,15.74,0.04,26,21,0,0
2.5429e+05,7.6032e+07,1,0,0,15.74,0.03,26,21,0,0
2.5474e+05,7.6135e+07,1,0,0,15.75,0.03,26,21,0,0
2.5523e+05,7.6251e+07,1,0,0,15.74,0.04,26,21,0,0
2.5568e+05,7.6354e+07,1,0,0,15.75,0.04,26,21,0,0
2.5618e+05,7.6467e+07,1,0,0,15.75,0.03,26,21,0,0
2.5663e+05,7.6575e+07,1,0,0,15.75,0.03,26,21,0,0
2.5708e+05,7.6679e+07,1,0,0,15.75,0.04,26,21,0,0
2.5753e+05,7.6787e+07,1,0,0,15.75,0.04,26,21,0,0
2.5798e+05,7.6891e+07,1,0,0,15.75,0.03,26,21,0,0
2.5847e+05,7.7005e+07,1,0,0,15.75,0.03,26,21,0,0
2.5897e+05,7.7118e+07,1,0,0,15.75,0.04,26,21,0,0
2.5942e+05,7.7226e+07,1,0,0,15.75,0.04,26,21,0,0
2.5987e+05,7.7329e+07,1,0,0,15.75,0.04,26,21,0,0
2.6037e+05,7.7446e+07,1,0,0,15.75,0.04,26,21,0,0
2.6127e+05,7.7657e+07,1,0,0,15.76,0.03,26,21,0,0
2.6218e+05,7.7871e+07,1,0,0,15.76,0.03,26,21,0,0
2.6267e+05,7.7985e+07,1,0,0,15.75,0.03,26,21,0,0
2.6313e+05,7.8089e+07,1,0,0,15.76,0.03,26,21,0,0
2.6358e+05,7.8196e+07,1,0,0,15.76,0.03,26,21,0,0
2.6407e+05,7.831e+07,1,0,0,15.76,0.03,26,21,0,0
2.6452e+05,7.8419e+07,1,0,0,15.76,0.03,26,21,0,0
2.6502e+05,7.8531e+07,1,0,0,15.76,0.04,26,21,0,0
2.6547e+05,7.8638e+07,1,0,0,15.76,0.04,26,21,0,0
2.6592e+05,7.8739e+07,1,0,0,15.77,0.04,26,21,0,0
2.6637e+05,7.8845e+07,1,0,0,15.77,0.03,26,21,0,0
2.6687e+05,7.8963e+07,1,0,0,15.76,0.04,26,21,0,0
2.6732e+05,7.9067e+07,1,0,0,15.77,0.03,26,21,0,0
2.6827e+05,7.9287e+07,1,0,0,15.77,0.03,26,21,0,0
2.6872e+05,7.9397e+07,1,0,0,15.77,0.04,26,21,0,0
2.6917e+05,7.9501e+07,1,0,0,15.77,0.03,26,21,0,0
2.6962e+05,7.9606e+07,1,0,0,15.77,0.04,26,21,0,0
2.7012e+05,7.972e+07,1,0,0,15.77,0.04,26,21,0,0
2.7057e+05,7.9825e+07,1,0,0,15.77,0.04,26,21,0,0
2.7106e+05,7.9939e+07,1,0,0,15.77,0.03,26,21,0,0
2.7151e+05,8.0046e+07,1,0,0,15.77,0.03,26,21,0,0
2.7197e+05,8.0158e+07,1,0,0,15.77,0.04,26,21,0,0
2.7242e+05,8.0262e+07,1,0,0,15.78,0.04,26,21,0,0
2.7291e+05,8.0372e+07,1,0,0,15.77,0.03,26,21,0,0
2.7341e+05,8.0486e+07,1,0,0,15.78,0.04,26,21,0,0
2.7386e+05,8.0593e+07,1,0,0,15.78,0.04,26,21,0,0
2.7435e+05,8.0706e+07,1,0,0,15.78,0.03,26,21,0,0
2.748e+05,8.0816e+07,1,0,0,15.78,0.04,26,21,0,0
2.7526e+05,8.0919e+07,1,0,0,15.79,0.04,26,21,0,0
2.757e+05,8.1024e+07,1,0,0,15.79,0.03,26,21,0,0
2.762e+05,8.1139e+07,1,0,0,15.79,0.03,26,21,0,0
2.7665e+05,8.1247e+07,1,0,0,15.79,0.04,26,21,0,0
2.771e+05,8.1355e+07,1,0,0,15.77,0.04,26,21,0,0
2.7756e+05,8.146e+07,1,0,0,15.79,0.03,26,21,0,0
2.7801e+05,8.1566e+07,1,0,0,15.79,0.03,26,21,0,0
2.7851e+05,8.1678e+07,1,0,0,15.78,0.03,26,21,0,0
2.7896e+05,8.1788e+07,1,0,0,15.79,0.03,26,21,0,0
2.7941e+05,8.189e+07,1,0,0,15.79,0.04,26,21,0,0
2.799e+05,8.2006e+07,1,0,0,15.79,0.04,26,21,0,0
2.8035e+05,8.211e+07,1,0,0,15.79,0.03,26,21,0,0
2.808e+05,8.2219e+07,1,0,0,15.79,0.03,26,21,0,0
2.8125e+05,8.2324e+07,1,0,0,15.79,0.04,26,21,0,0
2.8174e+05,8.2439e+07,1,0,0,15.79,0.04,26,21,0,0
2.822e+05,8.2546e+07,1,0,0,15.79,0.04,26,21,0,0
2.8265e+05,8.2651e+07,1,0,0,15.79,0.04,26,21,0,0
2.8314e+05,8.2766e+07,1,0,0,15.79,0.04,26,21,0,0
2.836e+05,8.287e+07,1,0,0,15.79,0.04,26,21,0,0
2.8405e+05,8.2978e+07,1,0,0,15.8,0.04,26,21,0,0
2.8455e+05,8.3093e+07,1,0,0,15.79,0.03,26,21,0,0
2.85e+05,8.3202e+07,1,0,0,15.8,0.04,26,21,0,0
2.8545e+05,8.3305e+07,1,0,0,15.79,0.03,26,21,0,0
2.859e+05,8.3413e+07,1,0,0,15.79,0.04,26,21,0,0
2.8635e+05,8.3519e+07,1,0,0,15.79,0.03,26,21,0,0
2.8684e+05,8.3634e+07,1,0,0,15.8,0.04,26,21,0,0
2.8733e+05,8.3747e+07,1,0,0,15.8,0.04,26,21,0,0
2.8779e+05,8.3852e+07,1,0,0,15.8,0.04,26,21,0,0
2.8824e+05,8.3959e+07,1,0,0,15.8,0.04,26,21,0,0
2.8873e+05,8.4072e+07,1,0,0,15.8,0.03,26,21,0,0
2.8918e+05,8.4177e+07,1,0,0,15.8,0.03,26,21,0,0
2.8963e+05,8.4281e+07,1,0,0,15.8,0.03,26,21,0,0
2.9013e+05,8.4398e+07,1,0,0,15.8,0.04,26,21,0,0
2.9058e+05,8.4504e+07,1,0,0,15.8,0.04,26,21,0,0
2.9103e+05,8.4612e+07,1,0,0,15.8,0.04,26,21,0,0
2.9148e+05,8.4715e+07,1,0,0,15.8,0.03,26,21,0,0
2.9189e+05,8.4817e+07,1,0,0,15.8,0.04,26,21,0,0
2.9239e+05,8.4934e+07,1,0,0,15.8,0.04,26,21,0,0
2.9284e+05,8.5042e+07,1,0,0,15.8,0.04,26,21,0,0
2.9329e+05,8.5149e+07,1,0,0,15.8,0.04,26,21,0,0
2.9424e+05,8.537e+07,1,0,0,15.8,0.03,26,21,0,0
2.9466e+05,8.5471e+07,1,0,0,15.81,0.03,26,21,0,0
2.9511e+05,8.5577e+07,1,0,0,15.81,0.03,26,21,0,0
2.956e+05,8.5693e+07,1,0,0,15.81,0.03,26,21,0,0
2.9606e+05,8.5797e+07,1,0,0,15.81,0.03,26,21,0,0
2.9651e+05,8.5902e+07,1,0,0,15.81,0.03,26,21,0,0
2.97e+05,8.6017e+07,1,0,0,15.81,0.03,26,21,0,0
2.9745e+05,8.612e+07,1,0,0,15.81,0.03,26,21,0,0
2.979e+05,8.6231e+07,1,0,0,15.81,0.03,26,21,0,0
2.984e+05,8.6343e+07,1,0,0,15.81,0.03,26,21,0,0
2.9885e+05,8.6447e+07,1,0,0,15.81,0.03,26,21,0,0
2.993e+05,8.6554e+07,1,0,0,15.82,0.03,26,21,0,0
3.0024e+05,8.6777e+07,1,0,0,15.82,0.04,26,21,0,0
3.007e+05,8.688e+07,1,0,0,15.82,0.03,26,21,0,0
3.0115e+05,8.6985e+07,1,0,0,15.82,0.03,26,21,0,0
3.0164e+05,8.7096e+07,1,0,0,15.82,0.03,26,21,0,0
