LineNo,TimeUS,I,VDop,HAcc,VAcc,SAcc,YAcc,VV,SMS,Delta,Und
2116,1.554e+07,0,1.12,1.49,2.09,0.18,0,1,15510,200,-43.043
2944,1.5741e+07,0,1.12,1.47,2.07,0.2,0,1,15710,200,-43.044
3656,1.5923e+07,0,1.12,1.46,2.05,0.12,0,1,15910,200,-43.043
4479,1.613e+07,0,1.12,1.44,2.04,0.2,0,1,16110,200,-43.044
5298,1.633e+07,0,1.12,1.43,2.02,0.14,0,1,16310,200,-43.043
6089,1.6532e+07,0,1.12,1.42,2.01,0.19,0,1,16510,200,-43.044
6910,1.6733e+07,0,1.12,1.41,1.99,0.18,0,1,16710,200,-43.043
7731,1.6934e+07,0,1.12,1.39,1.97,0.15,0,1,16910,200,-43.044
8550,1.7135e+07,0,1.12,1.38,1.96,0.18,0,1,17110,200,-43.043
9278,1.7339e+07,0,1.12,1.37,1.95,0.19,0,1,17310,200,-43.043
10094,1.7539e+07,0,1.12,1.36,1.93,0.16,0,1,17510,200,-43.043
10884,1.774e+07,0,1.12,1.35,1.92,0.15,0,1,17710,200,-43.043
11708,1.7941e+07,0,1.12,1.34,1.9,0.2,0,1,17910,200,-43.043
12424,1.8123e+07,0,1.12,1.33,1.89,0.13,0,1,18110,200,-43.043
13241,1.8324e+07,0,1.12,1.32,1.88,0.19,0,1,18310,200,-43.043
14061,1.8528e+07,0,1.12,1.31,1.87,0.19,0,1,18510,200,-43.043
14884,1.873e+07,0,1.12,1.3,1.85,0.18,0,1,18710,200,-43.043
15707,1.8937e+07,0,1.12,1.29,1.84,0.14,0,1,18910,200,-43.043
16526,1.9138e+07,0,1.12,1.28,1.83,0.2,0,1,19110,200,-43.043
17239,1.9325e+07,0,1.12,1.27,1.82,0.14,0,1,19310,200,-43.043
18031,1.9526e+07,0,1.12,1.27,1.81,0.16,0,1,19510,200,-43.043
18848,1.9727e+07,0,1.12,1.26,1.8,0.19,0,1,19710,200,-43.043
19675,1.993e+07,0,1.12,1.25,1.79,0.19,0,1,19910,200,-43.043
20580,2.0152e+07,0,1.12,1.24,1.78,0.15,0,1,20110,200,-43.043
21313,2.0333e+07,0,1.12,1.23,1.77,0.17,0,1,20310,200,-43.043
22101,2.0533e+07,0,1.12,1.23,1.76,0.15,0,1,20510,200,-43.044
22919,2.0734e+07,0,1.12,1.22,1.75,0.18,0,1,20710,200,-43.043
23741,2.0934e+07,0,1.12,1.21,1.74,0.2,0,1,20910,200,-43.043
24542,2.114e+07,0,1.12,1.21,1.73,0.19,0,1,21110,200,-43.043
25363,2.1341e+07,0,1.12,1.2,1.72,0.15,0,1,21310,200,-43.043
26104,2.1522e+07,0,1.12,1.19,1.71,0.2,0,1,21510,200,-43.043
26895,2.1723e+07,0,1.12,1.19,1.7,0.14,0,1,21710,200,-43.044
27720,2.1923e+07,0,1.12,1.18,1.69,0.18,0,1,21910,200,-43.043
28546,2.213e+07,0,1.12,1.17,1.69,0.19,0,1,22108,198,-43.043
29447,2.2339e+07,0,1.12,1.17,1.68,0.18,0,1,22308,200,-43.043
30252,2.2524e+07,0,1.12,1.16,1.67,0.14,0,1,22508,200,-43.043
31117,2.2727e+07,0,1.12,1.16,1.66,0.2,0,1,22708,200,-43.043
32014,2.2933e+07,0,1.12,1.15,1.65,0.19,0,1,22908,200,-43.043
32912,2.3137e+07,0,1.12,1.14,1.65,0.18,0,1,23108,200,-43.043
33779,2.3344e+07,0,1.12,1.14,1.64,0.19,0,1,23308,200,-43.043
34562,2.3531e+07,0,1.12,1.13,1.63,0.2,0,1,23508,200,-43.043
35461,2.3738e+07,0,1.12,1.13,1.63,0.2,0,1,23708,200,-43.043
36362,2.394e+07,0,1.12,1.12,1.62,0.2,0,1,23908,200,-43.043
37174,2.4128e+07,0,1.12,1.12,1.61,0.2,0,1,24108,200,-43.043
38073,2.4332e+07,0,1.12,1.11,1.6,0.2,0,1,24308,200,-43.044
38976,2.4543e+07,0,1.12,1.1,1.6,0.19,0,1,24508,200,-43.043
39788,2.4728e+07,0,1.12,1.1,1.59,0.19,0,1,24708,200,-43.043
40659,2.4937e+07,0,1.12,1.1,1.58,0.2,0,1,24908,200,-43.043
41471,2.5124e+07,0,1.19,1.09,1.58,0.2,0,1,25108,200,-43.044
42364,2.5334e+07,0,1.12,1.09,1.57,0.21,0,1,25308,200,-43.044
43174,2.5528e+07,0,1.12,1.08,1.56,0.2,0,1,25508,200,-43.043
44075,2.5744e+07,0,1.12,1.08,1.56,0.2,0,1,25708,200,-43.043
44841,2.5936e+07,0,1.12,1.07,1.55,0.2,0,1,25908,200,-43.043
45653,2.6125e+07,0,1.12,1.07,1.54,0.18,0,1,26108,200,-43.043
46517,2.6336e+07,0,1.12,1.06,1.54,0.17,0,1,26308,200,-43.044
47327,2.6529e+07,0,1.12,1.06,1.53,0.16,0,1,26508,200,-43.043
48225,2.6742e+07,0,1.12,1.05,1.52,0.15,0,1,26708,200,-43.043
49003,2.693e+07,0,1.12,1.05,1.52,0.14,0,1,26908,200,-43.043
49818,2.7124e+07,0,1.12,1.04,1.51,0.14,0,1,27108,200,-43.043
50718,2.7336e+07,0,1.12,1.04,1.51,0.15,0,1,27308,200,-43.043
51527,2.7528e+07,0,1.12,1.03,1.5,0.14,0,1,27508,200,-43.043
52333,2.7723e+07,0,1.12,1.03,1.5,0.13,0,1,27708,200,-43.043
53232,2.7939e+07,0,1.19,1.03,1.49,0.14,0,1,27908,200,-43.043
54043,2.8133e+07,0,1.12,1.02,1.49,0.13,0,1,28108,200,-43.043
54849,2.8327e+07,0,1.12,1.02,1.48,0.11,0,1,28308,200,-43.043
55748,2.8543e+07,0,1.12,1.01,1.47,0.11,0,1,28508,200,-43.043
56565,2.8735e+07,0,1.12,1.01,1.47,0.11,0,1,28708,200,-43.043
57373,2.8924e+07,0,1.12,1.01,1.46,0.11,0,1,28908,200,-43.043
58275,2.9139e+07,0,1.12,1,1.46,0.11,0,1,29108,200,-43.043
59085,2.9334e+07,0,1.12,1,1.45,0.11,0,1,29308,200,-43.043
59892,2.9528e+07,0,1.12,0.99,1.45,0.11,0,1,29508,200,-43.043
60757,2.9739e+07,0,1.12,0.99,1.44,0.11,0,1,29708,200,-43.043
61563,2.9931e+07,0,1.12,0.99,1.44,0.12,0,1,29908,200,-43.044
62458,3.014e+07,0,1.12,0.98,1.43,0.14,0,1,30108,200,-43.043
63243,3.0328e+07,0,1.12,0.98,1.43,0.15,0,1,30308,200,-43.043
64102,3.0539e+07,0,1.12,0.98,1.42,0.21,0,1,30508,200,-43.043
65000,3.0746e+07,0,1.12,0.97,1.42,0.2,0,1,30708,200,-43.043
65812,3.0935e+07,0,1.12,0.97,1.41,0.18,0,1,30908,200,-43.043
66585,3.1129e+07,0,1.12,0.97,1.41,0.15,0,1,31108,200,-43.043
67452,3.1339e+07,0,1.12,0.96,1.41,0.16,0,1,31308,200,-43.043
68254,3.1528e+07,0,1.12,0.96,1.4,0.13,0,1,31508,200,-43.043
69154,3.1741e+07,0,1.12,0.96,1.4,0.13,0,1,31708,200,-43.044
69967,3.1937e+07,0,1.12,0.95,1.39,0.12,0,1,31908,200,-43.043
70777,3.2127e+07,0,1.12,0.95,1.39,0.13,0,1,32108,200,-43.043
71676,3.2342e+07,0,1.12,0.95,1.38,0.14,0,1,32308,200,-43.044
72486,3.2534e+07,0,1.12,0.94,1.38,0.13,0,1,32508,200,-43.043
73301,3.2727e+07,0,1.12,0.94,1.38,0.13,0,1,32708,200,-43.043
74198,3.2938e+07,0,1.12,0.94,1.37,0.13,0,1,32908,200,-43.043
74972,3.3131e+07,0,1.12,0.94,1.37,0.16,0,1,33108,200,-43.043
75871,3.3341e+07,0,1.12,0.93,1.36,0.15,0,1,33308,200,-43.043
76642,3.3533e+07,0,1.12,0.93,1.36,0.14,0,1,33508,200,-43.043
77504,3.3743e+07,0,1.12,0.93,1.36,0.12,0,1,33708,200,-43.043
78277,3.393e+07,0,1.12,0.92,1.35,0.12,0,1,33908,200,-43.044
79138,3.4143e+07,0,1.12,0.92,1.35,0.12,0,1,34108,200,-43.044
79948,3.4331e+07,0,1.12,0.92,1.34,0.13,0,1,34308,200,-43.043
80843,3.4543e+07,0,1.12,0.92,1.34,0.14,0,1,34508,200,-43.044
81657,3.4732e+07,0,1.12,0.91,1.34,0.15,0,1,34708,200,-43.043
82518,3.4943e+07,0,1.12,0.91,1.33,0.14,0,1,34908,200,-43.044
83322,3.5137e+07,0,1.12,0.91,1.33,0.15,0,1,35108,200,-43.043
84125,3.5326e+07,0,1.12,0.9,1.33,0.14,0,1,35308,200,-43.044
84995,3.5541e+07,0,1.12,0.9,1.32,0.14,0,1,35508,200,-43.043
85804,3.5735e+07,0,1.12,0.9,1.32,0.13,0,1,35708,200,-43.044
86577,3.5926e+07,0,1.12,0.9,1.32,0.13,0,1,35908,200,-43.043
87471,3.6136e+07,0,1.12,0.9,1.31,0.14,0,1,36108,200,-43.043
88332,3.6342e+07,0,1.12,0.89,1.31,0.14,0,1,36308,200,-43.044
89113,3.6531e+07,0,1.12,0.89,1.31,0.17,0,1,36508,200,-43.044
89924,3.6722e+07,0,1.12,0.89,1.3,0.15,0,1,36708,200,-43.043
90832,3.694e+07,0,1.12,0.89,1.3,0.13,0,1,36908,200,-43.043
91548,3.7116e+07,0,1.12,0.88,1.3,0.13,0,1,37108,200,-43.043
92443,3.7328e+07,0,1.12,0.88,1.3,0.14,0,1,37308,200,-43.043
93342,3.754e+07,0,1.12,0.88,1.29,0.14,0,1,37508,200,-43.043
94154,3.7735e+07,0,1.12,0.88,1.29,0.14,0,1,37708,200,-43.043
94967,3.7927e+07,0,1.12,0.87,1.29,0.15,0,1,37908,200,-43.044
95863,3.814e+07,0,1.12,0.87,1.28,0.14,0,1,38108,200,-43.043
96638,3.8335e+07,0,1.12,0.87,1.28,0.13,0,1,38308,200,-43.043
97529,3.8543e+07,0,1.12,0.87,1.28,0.13,0,1,38508,200,-43.044
98309,3.873e+07,0,1.12,0.87,1.27,0.11,0,1,38708,200,-43.043
99121,3.8926e+07,0,1.12,0.86,1.27,0.12,0,1,38908,200,-43.043
1.0002e+05,3.914e+07,0,1.12,0.86,1.27,0.12,0,1,39108,200,-43.043
1.0082e+05,3.9331e+07,0,1.12,0.86,1.27,0.13,0,1,39308,200,-43.043
1.0172e+05,3.9541e+07,0,1.12,0.86,1.26,0.12,0,1,39508,200,-43.043
1.0249e+05,3.9729e+07,0,1.12,0.86,1.26,0.14,0,1,39708,200,-43.043
1.0336e+05,3.9942e+07,0,1.12,0.85,1.26,0.12,0,1,39908,200,-43.043
1.0425e+05,4.0153e+07,0,1.12,0.85,1.26,0.11,0,1,40108,200,-43.043
1.0497e+05,4.0326e+07,0,1.12,0.85,1.25,0.12,0,1,40308,200,-43.043
1.0584e+05,4.0543e+07,0,1.12,0.85,1.25,0.12,0,1,40508,200,-43.043
1.0665e+05,4.0732e+07,0,1.12,0.85,1.25,0.12,0,1,40708,200,-43.043
1.0754e+05,4.0944e+07,0,1.12,0.85,1.25,0.11,0,1,40908,200,-43.043
1.0835e+05,4.1137e+07,0,1.12,0.84,1.24,0.11,0,1,41108,200,-43.043
1.0915e+05,4.133e+07,0,1.12,0.84,1.24,0.11,0,1,41308,200,-43.043
1.1004e+05,4.154e+07,0,1.12,0.84,1.24,0.11,0,1,41508,200,-43.043
1.1085e+05,4.173e+07,0,1.12,0.84,1.24,0.11,0,1,41708,200,-43.043
1.1172e+05,4.1941e+07,0,1.12,0.84,1.23,0.11,0,1,41908,200,-43.043
1.1252e+05,4.2131e+07,0,1.12,0.83,1.23,0.12,0,1,42108,200,-43.043
1.1333e+05,4.2325e+07,0,1.12,0.83,1.23,0.12,0,1,42308,200,-43.044
1.142e+05,4.2534e+07,0,1.12,0.83,1.23,0.12,0,1,42508,200,-43.043
1.15e+05,4.2727e+07,0,1.12,0.83,1.23,0.11,0,1,42708,200,-43.043
1.1586e+05,4.2939e+07,0,1.12,0.83,1.22,0.11,0,1,42908,200,-43.043
1.1667e+05,4.3134e+07,0,1.12,0.83,1.22,0.11,0,1,43108,200,-43.043
1.1748e+05,4.3329e+07,0,1.12,0.83,1.22,0.11,0,1,43308,200,-43.043
1.1838e+05,4.354e+07,0,1.12,0.82,1.22,0.11,0,1,43508,200,-43.043
1.1918e+05,4.3733e+07,0,1.12,0.82,1.21,0.1,0,1,43708,200,-43.043
1.1998e+05,4.3923e+07,0,1.12,0.82,1.21,0.12,0,1,43908,200,-43.044
1.2088e+05,4.4134e+07,0,1.12,0.82,1.21,0.13,0,1,44108,200,-43.044
1.2177e+05,4.4344e+07,0,1.12,0.82,1.21,0.13,0,1,44308,200,-43.043
1.2255e+05,4.4531e+07,0,1.12,0.82,1.21,0.13,0,1,44508,200,-43.044
1.2344e+05,4.4738e+07,0,1.12,0.82,1.21,0.13,0,1,44708,200,-43.043
1.2425e+05,4.4928e+07,0,1.12,0.81,1.2,0.12,0,1,44908,200,-43.043
1.2511e+05,4.5139e+07,0,1.12,0.81,1.2,0.12,0,1,45108,200,-43.043
1.2589e+05,4.5332e+07,0,1.12,0.81,1.2,0.11,0,1,45308,200,-43.044
1.2669e+05,4.5528e+07,0,1.12,0.81,1.2,0.12,0,1,45508,200,-43.043
1.2758e+05,4.5737e+07,0,1.12,0.81,1.2,0.12,0,1,45708,200,-43.043
1.2836e+05,4.5927e+07,0,1.12,0.81,1.19,0.13,0,1,45908,200,-43.043
1.2926e+05,4.6142e+07,0,1.12,0.81,1.19,0.13,0,1,46108,200,-43.043
1.3003e+05,4.6334e+07,0,1.12,0.8,1.19,0.12,0,1,46308,200,-43.043
1.3084e+05,4.6522e+07,0,1.12,0.8,1.19,0.1,0,1,46508,200,-43.044
1.3173e+05,4.6731e+07,0,1.12,0.8,1.19,0.11,0,1,46708,200,-43.043
1.3248e+05,4.6939e+07,0,1.12,0.8,1.19,0.12,0,1,46908,200,-43.043
1.3329e+05,4.713e+07,0,1.12,0.8,1.18,0.13,0,1,47108,200,-43.043
1.3415e+05,4.7341e+07,0,1.12,0.8,1.18,0.13,0,1,47308,200,-43.043
1.3495e+05,4.7532e+07,0,1.12,0.8,1.18,0.13,0,1,47508,200,-43.043
1.3575e+05,4.7725e+07,0,1.12,0.8,1.18,0.13,0,1,47708,200,-43.043
1.3665e+05,4.7937e+07,0,1.12,0.79,1.18,0.13,0,1,47908,200,-43.043
1.3746e+05,4.8133e+07,0,1.12,0.79,1.18,0.13,0,1,48108,200,-43.043
1.3826e+05,4.8326e+07,0,1.12,0.79,1.17,0.13,0,1,48308,200,-43.043
1.3912e+05,4.8537e+07,0,1.12,0.79,1.17,0.14,0,1,48508,200,-43.044
1.3993e+05,4.8728e+07,0,1.12,0.79,1.17,0.15,0,1,48708,200,-43.043
1.4083e+05,4.894e+07,0,1.12,0.79,1.17,0.14,0,1,48908,200,-43.043
1.416e+05,4.913e+07,0,1.12,0.79,1.17,0.15,0,1,49108,200,-43.043
1.424e+05,4.9323e+07,0,1.12,0.79,1.17,0.14,0,1,49308,200,-43.043
1.4326e+05,4.954e+07,0,1.12,0.79,1.17,0.14,0,1,49508,200,-43.043
1.4407e+05,4.9734e+07,0,1.12,0.79,1.17,0.14,0,1,49708,200,-43.043
1.4487e+05,4.9923e+07,0,1.12,0.78,1.16,0.14,0,1,49908,200,-43.043
1.4574e+05,5.0138e+07,0,1.12,0.78,1.16,0.13,0,1,50108,200,-43.043
1.4655e+05,5.0325e+07,0,1.12,0.78,1.16,0.13,0,1,50308,200,-43.043
1.4741e+05,5.0534e+07,0,1.12,0.78,1.16,0.13,0,1,50508,200,-43.043
1.4822e+05,5.0728e+07,0,1.12,0.78,1.16,0.14,0,1,50708,200,-43.043
1.4911e+05,5.0941e+07,0,1.12,0.78,1.16,0.13,0,1,50908,200,-43.043
1.4992e+05,5.1133e+07,0,1.12,0.78,1.16,0.14,0,1,51108,200,-43.043
1.5078e+05,5.1344e+07,0,1.12,0.78,1.15,0.14,0,1,51308,200,-43.043
1.5158e+05,5.1537e+07,0,1.12,0.78,1.15,0.13,0,1,51508,200,-43.043
1.5239e+05,5.1734e+07,0,1.12,0.77,1.15,0.13,0,1,51708,200,-43.043
1.532e+05,5.1925e+07,0,1.12,0.77,1.15,0.14,0,1,51908,200,-43.043
1.541e+05,5.2137e+07,0,1.2,0.77,1.15,0.14,0,1,52108,200,-43.044
1.549e+05,5.2324e+07,0,1.2,0.77,1.15,0.14,0,1,52308,200,-43.043
1.558e+05,5.2538e+07,0,1.2,0.77,1.15,0.15,0,1,52508,200,-43.043
1.5657e+05,5.2727e+07,0,1.2,0.77,1.15,0.15,0,1,52708,200,-43.043
1.5746e+05,5.294e+07,0,1.12,0.77,1.15,0.15,0,1,52908,200,-43.043
1.5823e+05,5.313e+07,0,1.12,0.77,1.15,0.15,0,1,53108,200,-43.043
1.5904e+05,5.3323e+07,0,1.12,0.77,1.15,0.15,0,1,53308,200,-43.043
1.5993e+05,5.3536e+07,0,1.12,0.77,1.15,0.16,0,1,53508,200,-43.044
1.6074e+05,5.3729e+07,0,1.12,0.77,1.14,0.15,0,1,53708,200,-43.043
1.6163e+05,5.3939e+07,0,1.2,0.77,1.14,0.14,0,1,53908,200,-43.043
1.6244e+05,5.4131e+07,0,1.2,0.77,1.14,0.13,0,1,54108,200,-43.044
1.6334e+05,5.4343e+07,0,1.12,0.77,1.14,0.13,0,1,54308,200,-43.044
1.6411e+05,5.453e+07,0,1.12,0.77,1.14,0.1,0,1,54508,200,-43.043
1.6492e+05,5.4723e+07,0,1.12,0.76,1.14,0.11,0,1,54708,200,-43.043
1.6578e+05,5.4937e+07,0,1.12,0.76,1.14,0.11,0,1,54908,200,-43.043
1.6659e+05,5.5133e+07,0,1.12,0.76,1.14,0.11,0,1,55108,200,-43.044
1.674e+05,5.5328e+07,0,1.12,0.76,1.14,0.11,0,1,55308,200,-43.043
1.683e+05,5.5542e+07,0,1.2,0.76,1.14,0.11,0,1,55508,200,-43.043
1.691e+05,5.5734e+07,0,1.12,0.76,1.14,0.12,0,1,55708,200,-43.043
1.7e+05,5.5942e+07,0,1.12,0.76,1.14,0.12,0,1,55908,200,-43.043
1.7081e+05,5.6133e+07,0,1.12,0.76,1.14,0.12,0,1,56108,200,-43.043
1.7162e+05,5.6324e+07,0,1.12,0.76,1.13,0.11,0,1,56308,200,-43.043
1.7251e+05,5.6537e+07,0,1.12,0.76,1.13,0.11,0,1,56508,200,-43.043
1.7332e+05,5.6727e+07,0,1.12,0.76,1.13,0.12,0,1,56708,200,-43.043
1.7421e+05,5.6938e+07,0,1.12,0.76,1.13,0.12,0,1,56908,200,-43.044
1.7501e+05,5.7126e+07,0,1.2,0.76,1.13,0.13,0,1,57108,200,-43.044
1.7591e+05,5.7339e+07,0,1.12,0.76,1.13,0.12,0,1,57308,200,-43.043
1.7671e+05,5.753e+07,0,1.12,0.76,1.13,0.11,0,1,57508,200,-43.043
1.7758e+05,5.774e+07,0,1.12,0.76,1.13,0.12,0,1,57708,200,-43.044
1.7838e+05,5.7932e+07,0,1.12,0.75,1.13,0.12,0,1,57908,200,-43.043
1.7927e+05,5.8144e+07,0,1.12,0.75,1.13,0.15,0,1,58108,200,-43.043
1.8008e+05,5.8332e+07,0,1.12,0.75,1.12,0.18,0,1,58308,200,-43.043
1.8094e+05,5.8541e+07,0,1.12,0.75,1.12,0.17,0,1,58508,200,-43.043
1.8172e+05,5.8731e+07,0,1.12,0.75,1.12,0.2,0,1,58708,200,-43.043
1.8252e+05,5.8925e+07,0,1.12,0.75,1.12,0.18,0,1,58908,200,-43.044
1.8338e+05,5.9137e+07,0,1.12,0.75,1.12,0.19,0,1,59108,200,-43.044
1.8418e+05,5.9328e+07,0,1.12,0.75,1.12,0.16,0,1,59308,200,-43.043
1.8508e+05,5.9541e+07,0,1.12,0.75,1.12,0.14,0,1,59508,200,-43.044
1.8585e+05,5.973e+07,0,1.12,0.75,1.12,0.16,0,1,59708,200,-43.043
1.8666e+05,5.9923e+07,0,1.12,0.75,1.12,0.15,0,1,59908,200,-43.043
1.8756e+05,6.0132e+07,0,1.12,0.75,1.12,0.14,0,1,60108,200,-43.043
1.8833e+05,6.0324e+07,0,1.12,0.75,1.12,0.13,0,1,60308,200,-43.043
1.8923e+05,6.0537e+07,0,1.12,0.74,1.11,0.13,0,1,60508,200,-43.043
1.9e+05,6.0729e+07,0,1.12,0.74,1.11,0.13,0,1,60708,200,-43.044
1.9081e+05,6.0926e+07,0,1.12,0.74,1.11,0.13,0,1,60908,200,-43.043
1.917e+05,6.1141e+07,0,1.12,0.74,1.11,0.12,0,1,61108,200,-43.043
1.9247e+05,6.133e+07,0,1.12,0.74,1.11,0.12,0,1,61308,200,-43.044
1.9328e+05,6.1521e+07,0,1.12,0.74,1.11,0.13,0,1,61508,200,-43.043
1.9414e+05,6.1734e+07,0,1.12,0.74,1.11,0.11,0,1,61708,200,-43.044
1.9504e+05,6.1942e+07,0,1.12,0.74,1.11,0.16,0,1,61908,200,-43.043
1.9581e+05,6.2131e+07,0,1.12,0.74,1.11,0.16,0,1,62108,200,-43.043
1.9667e+05,6.2345e+07,0,1.12,0.74,1.11,0.17,0,1,62308,200,-43.043
1.9748e+05,6.2534e+07,0,1.12,0.74,1.11,0.15,0,1,62508,200,-43.043
1.9828e+05,6.2726e+07,0,1.12,0.74,1.11,0.18,0,1,62708,200,-43.043
1.9905e+05,6.292e+07,0,1.12,0.74,1.11,0.19,0,1,62908,200,-43.043
1.9995e+05,6.3134e+07,0,1.12,0.74,1.11,0.19,0,1,63108,200,-43.044
2.0081e+05,6.3343e+07,0,1.12,0.74,1.11,0.2,0,1,63308,200,-43.043
2.0158e+05,6.3531e+07,0,1.12,0.74,1.11,0.21,0,1,63508,200,-43.043
2.0239e+05,6.3727e+07,0,1.12,0.74,1.1,0.21,0,1,63708,200,-43.044
2.0325e+05,6.3934e+07,0,1.12,0.74,1.1,0.21,0,1,63908,200,-43.043
2.0415e+05,6.4147e+07,0,1.12,0.74,1.1,0.21,0,1,64108,200,-43.043
2.0496e+05,6.4333e+07,0,1.12,0.73,1.1,0.21,0,1,64308,200,-43.044
2.0576e+05,6.4522e+07,0,1.12,0.73,1.1,0.2,0,1,64508,200,-43.043
2.0662e+05,6.4734e+07,0,1.12,0.73,1.1,0.21,0,1,64708,200,-43.043
2.0751e+05,6.4943e+07,0,1.12,0.73,1.1,0.21,0,1,64908,200,-43.043
2.0828e+05,6.5133e+07,0,1.2,0.73,1.1,0.21,0,1,65108,200,-43.043
2.0917e+05,6.5342e+07,0,1.2,0.73,1.1,0.2,0,1,65308,200,-43.043
2.0997e+05,6.5535e+07,0,1.12,0.73,1.1,0.21,0,1,65508,200,-43.044
2.1078e+05,6.5725e+07,0,1.12,0.73,1.1,0.2,0,1,65708,200,-43.043
2.1166e+05,6.5937e+07,0,1.12,0.73,1.1,0.21,0,1,65908,200,-43.043
2.1247e+05,6.6127e+07,0,1.12,0.73,1.1,0.21,0,1,66108,200,-43.044
2.1336e+05,6.6341e+07,0,1.12,0.73,1.1,0.22,0,1,66308,200,-43.043
2.1416e+05,6.6526e+07,0,1.12,0.73,1.1,0.21,0,1,66508,200,-43.043
2.1502e+05,6.6733e+07,0,1.12,0.73,1.1,0.23,0,1,66708,200,-43.043
2.1583e+05,6.6923e+07,0,1.12,0.73,1.1,0.19,0,1,66908,200,-43.043
2.1672e+05,6.7135e+07,0,1.2,0.73,1.1,0.19,0,1,67108,200,-43.043
2.1751e+05,6.7326e+07,0,1.2,0.73,1.1,0.21,0,1,67308,200,-43.043
2.1839e+05,6.7535e+07,0,1.2,0.73,1.1,0.21,0,1,67508,200,-43.043
2.1916e+05,6.7727e+07,0,1.2,0.73,1.1,0.22,0,1,67708,200,-43.043
2.2005e+05,6.7935e+07,0,1.12,0.73,1.1,0.22,0,1,67908,200,-43.043
2.2091e+05,6.8143e+07,0,1.12,0.73,1.1,0.22,0,1,68108,200,-43.043
2.2171e+05,6.8332e+07,0,1.12,0.73,1.09,0.2,0,1,68308,200,-43.044
2.226e+05,6.8543e+07,0,1.12,0.73,1.09,0.18,0,1,68508,200,-43.043
2.234e+05,6.8734e+07,0,1.12,0.73,1.09,0.12,0,1,68708,200,-43.044
2.2429e+05,6.8945e+07,0,1.12,0.73,1.09,0.14,0,1,68908,200,-43.043
2.251e+05,6.9138e+07,0,1.12,0.73,1.09,0.15,0,1,69108,200,-43.043
2.259e+05,6.933e+07,0,1.12,0.73,1.09,0.16,0,1,69308,200,-43.043
2.2678e+05,6.954e+07,0,1.12,0.73,1.09,0.11,0,1,69508,200,-43.043
2.2758e+05,6.9728e+07,0,1.12,0.73,1.09,0.15,0,1,69708,200,-43.043
2.2843e+05,6.9937e+07,0,1.12,0.73,1.09,0.19,0,1,69908,200,-43.043
2.2929e+05,7.0144e+07,0,1.12,0.73,1.09,0.13,0,1,70108,200,-43.043
2.3009e+05,7.0336e+07,0,1.12,0.73,1.09,0.19,0,1,70308,200,-43.044
2.3098e+05,7.0543e+07,0,1.12,0.73,1.09,0.13,0,1,70508,200,-43.043
2.3175e+05,7.0732e+07,0,1.12,0.73,1.09,0.2,0,1,70708,200,-43.043
2.326e+05,7.094e+07,0,1.12,0.73,1.09,0.17,0,1,70908,200,-43.044
2.3341e+05,7.1127e+07,0,1.12,0.73,1.09,0.16,0,1,71108,200,-43.044
2.343e+05,7.1339e+07,0,1.12,0.73,1.09,0.19,0,1,71308,200,-43.043
2.351e+05,7.1533e+07,0,1.12,0.73,1.09,0.17,0,1,71508,200,-43.044
2.359e+05,7.1724e+07,0,1.12,0.73,1.09,0.19,0,1,71709,201,-43.043
2.3679e+05,7.1935e+07,0,1.12,0.73,1.09,0.16,0,1,71909,200,-43.043
2.3768e+05,7.2143e+07,0,1.12,0.73,1.09,0.17,0,1,72109,200,-43.043
2.3864e+05,7.2371e+07,0,1.12,0.73,1.09,0.2,0,1,72309,200,-43.044
2.3936e+05,7.2539e+07,0,1.12,0.73,1.09,0.11,0,1,72509,200,-43.043
2.4017e+05,7.2724e+07,0,1.12,0.73,1.09,0.17,0,1,72709,200,-43.043
2.4106e+05,7.2932e+07,0,1.12,0.73,1.09,0.16,0,1,72909,200,-43.044
2.4196e+05,7.3139e+07,0,1.12,0.73,1.09,0.16,0,1,73109,200,-43.043
2.4274e+05,7.3328e+07,0,1.12,0.73,1.09,0.12,0,1,73309,200,-43.043
2.4364e+05,7.3537e+07,0,1.12,0.73,1.09,0.16,0,1,73509,200,-43.043
2.4445e+05,7.3726e+07,0,1.12,0.73,1.09,0.22,0,1,73709,200,-43.043
2.4535e+05,7.3936e+07,0,1.12,0.73,1.09,0.2,0,1,73909,200,-43.043
2.4616e+05,7.4125e+07,0,1.12,0.73,1.09,0.2,0,1,74109,200,-43.043
2.4703e+05,7.4332e+07,0,1.12,0.73,1.09,0.14,0,1,74309,200,-43.044
2.4793e+05,7.454e+07,0,1.12,0.73,1.09,0.16,0,1,74509,200,-43.044
2.4873e+05,7.4729e+07,0,1.12,0.73,1.09,0.19,0,1,74709,200,-43.043
2.4963e+05,7.4941e+07,0,1.12,0.73,1.09,0.13,0,1,74909,200,-43.043
2.5041e+05,7.5126e+07,0,1.12,0.73,1.09,0.19,0,1,75109,200,-43.043
2.5131e+05,7.5335e+07,0,1.12,0.73,1.09,0.17,0,1,75309,200,-43.043
2.5212e+05,7.5524e+07,0,1.12,0.73,1.09,0.13,0,1,75509,200,-43.043
2.5298e+05,7.5731e+07,0,1.12,0.73,1.09,0.17,0,1,75709,200,-43.043
2.5388e+05,7.5939e+07,0,1.12,0.73,1.1,0.22,0,1,75909,200,-43.044
2.547e+05,7.6127e+07,0,1.12,0.73,1.1,0.15,0,1,76109,200,-43.043
2.5559e+05,7.6332e+07,0,1.12,0.74,1.1,0.21,0,1,76309,200,-43.043
2.564e+05,7.652e+07,0,1.12,0.74,1.1,0.18,0,1,76509,200,-43.043
2.5727e+05,7.6728e+07,0,1.12,0.74,1.1,0.18,0,1,76709,200,-43.043
2.5817e+05,7.6937e+07,0,1.12,0.74,1.1,0.17,0,1,76909,200,-43.043
2.5898e+05,7.7124e+07,0,1.12,0.74,1.1,0.17,0,1,77109,200,-43.043
2.5987e+05,7.7331e+07,0,1.12,0.74,1.1,0.21,0,1,77309,200,-43.043
2.6078e+05,7.7541e+07,0,1.12,0.74,1.1,0.22,0,1,77509,200,-43.043
2.6155e+05,7.7726e+07,0,1.12,0.74,1.1,0.17,0,1,77709,200,-43.043
2.6245e+05,7.7932e+07,0,1.12,0.74,1.1,0.15,0,1,77909,200,-43.043
2.6335e+05,7.8142e+07,0,1.12,0.75,1.1,0.17,0,1,78109,200,-43.043
2.6416e+05,7.8329e+07,0,1.12,0.75,1.1,0.2,0,1,78309,200,-43.043
2.6503e+05,7.8537e+07,0,1.12,0.75,1.1,0.21,0,1,78509,200,-43.043
2.6593e+05,7.8743e+07,0,1.12,0.75,1.11,0.21,0,1,78709,200,-43.043
2.6674e+05,7.893e+07,0,1.12,0.75,1.11,0.23,0,1,78909,200,-43.043
2.676e+05,7.9136e+07,0,1.12,0.75,1.11,0.19,0,1,79109,200,-43.043
2.6841e+05,7.9323e+07,0,1.12,0.75,1.11,0.16,0,1,79309,200,-43.043
2.6931e+05,7.9532e+07,0,1.12,0.76,1.11,0.22,0,1,79509,200,-43.043
2.7021e+05,7.9741e+07,0,1.12,0.76,1.11,0.14,0,1,79709,200,-43.043
2.7102e+05,7.9927e+07,0,1.12,0.76,1.11,0.21,0,1,79909,200,-43.044
2.7188e+05,8.0138e+07,0,1.12,0.76,1.11,0.18,0,1,80109,200,-43.043
2.7269e+05,8.0326e+07,0,1.12,0.76,1.11,0.18,0,1,80309,200,-43.043
2.7359e+05,8.0535e+07,0,1.12,0.76,1.11,0.19,0,1,80509,200,-43.043
2.7449e+05,8.0742e+07,0,1.12,0.76,1.11,0.15,0,1,80709,200,-43.043
2.753e+05,8.0929e+07,0,1.12,0.76,1.11,0.21,0,1,80909,200,-43.043
2.762e+05,8.1139e+07,0,1.12,0.76,1.11,0.21,0,1,81109,200,-43.043
2.7707e+05,8.1345e+07,0,1.12,0.77,1.11,0.21,0,1,81309,200,-43.043
2.7788e+05,8.1535e+07,0,1.12,0.77,1.11,0.21,0,1,81509,200,-43.044
2.7878e+05,8.1741e+07,0,1.12,0.77,1.11,0.2,0,1,81709,200,-43.043
2.7955e+05,8.193e+07,0,1.12,0.77,1.11,0.19,0,1,81907,198,-43.043
2.8045e+05,8.2138e+07,0,1.12,0.77,1.11,0.18,0,1,82107,200,-43.043
2.8126e+05,8.233e+07,0,1.12,0.77,1.11,0.17,0,1,82307,200,-43.044
2.8216e+05,8.2539e+07,0,1.12,0.77,1.11,0.19,0,1,82507,200,-43.043
2.8297e+05,8.2727e+07,0,1.12,0.77,1.11,0.14,0,1,82707,200,-43.044
2.8387e+05,8.2933e+07,0,1.12,0.77,1.11,0.2,0,1,82907,200,-43.043
2.8473e+05,8.3143e+07,0,1.12,0.77,1.11,0.17,0,1,83107,200,-43.043
2.8554e+05,8.3328e+07,0,1.12,0.77,1.11,0.21,0,1,83307,200,-43.043
2.8644e+05,8.3539e+07,0,1.12,0.77,1.11,0.2,0,1,83507,200,-43.043
2.8725e+05,8.3725e+07,0,1.12,0.77,1.11,0.18,0,1,83707,200,-43.043
2.8815e+05,8.3933e+07,0,1.12,0.77,1.11,0.14,0,1,83907,200,-43.043
2.8901e+05,8.4141e+07,0,1.12,0.77,1.11,0.16,0,1,84107,200,-43.043
2.8982e+05,8.4329e+07,0,1.12,0.77,1.11,0.2,0,1,84307,200,-43.043
2.9072e+05,8.454e+07,0,1.12,0.77,1.11,0.18,0,1,84507,200,-43.043
2.9153e+05,8.4728e+07,0,1.12,0.77,1.11,0.2,0,1,84707,200,-43.043
2.924e+05,8.4942e+07,0,1.12,0.78,1.11,0.18,0,1,84907,200,-43.043
2.9321e+05,8.5131e+07,0,1.12,0.78,1.11,0.21,0,1,85107,200,-43.043
2.9411e+05,8.534e+07,0,1.12,0.78,1.11,0.19,0,1,85307,200,-43.043
2.9489e+05,8.5526e+07,0,1.12,0.78,1.11,0.17,0,1,85507,200,-43.043
2.9579e+05,8.5736e+07,0,1.12,0.78,1.11,0.21,0,1,85707,200,-43.043
2.966e+05,8.5926e+07,0,1.12,0.78,1.11,0.14,0,1,85907,200,-43.043
2.975e+05,8.6133e+07,0,1.12,0.78,1.11,0.2,0,1,86107,200,-43.043
2.9836e+05,8.634e+07,0,1.12,0.78,1.11,0.19,0,1,86307,200,-43.044
2.9917e+05,8.6529e+07,0,1.12,0.78,1.11,0.21,0,1,86507,200,-43.043
3.0007e+05,8.6738e+07,0,1.12,0.78,1.11,0.21,0,1,86707,200,-43.043
3.0088e+05,8.6924e+07,0,1.12,0.78,1.1,0.19,0,1,86907,200,-43.043
3.0178e+05,8.7129e+07,0,1.12,0.78,1.1,0.2,0,1,87107,200,-43.043
