LineNo,TimeUS,I,GyrX,GyrY,GyrZ,AccX,AccY,AccZ,EG,EA,T,GH,AH,GHz,AHz
187,15037020,2,0.0007416745,-0.003342959,-0.002606827,-0.1723803,0.1866358,-9.805695999999999,0,0,40.61849,1,1,7761,3880
218,15039579,2,0.000256208,-0.002746671,-0.002661696,-0.1727972,0.1863374,-9.809806999999999,0,0,40.61848,1,1,7761,3880
290,15071017,2,0.002161993,-0.0007200799,0.002032657,-0.1730679,0.1875498,-9.842299000000001,0,0,40.61806,1,1,7761,3880
321,15073159,2,-0.0002897377,-0.002140752,0.00179433,-0.1737031,0.1892829,-9.842796,0,0,40.61802,1,1,7761,3880
401,15090845,2,0.003663984,0.0003112101,0.001631395,-0.162369,0.2173352,-9.834991,0,0,40.61826,1,1,7761,3880
516,15112284,2,-0.0002901902,0.0009469673,0.003572828,-0.1708219,0.1908838,-9.811493,0,0,40.61917,1,1,7761,3880
632,15132723,2,0.0008446279,0.002313211,0.0002179871,-0.1557892,0.2071086,-9.827999,0,0,40.62035,1,1,7761,3880
745,15149017,2,-0.0003998308,0.001550091,-0.0008997182,-0.1711966,0.2064747,-9.846318999999999,0,0,40.62112,1,1,7761,3880
858,15164609,2,0.000667031,-0.000617141,-0.0009036219,-0.1573926,0.2218068,-9.839840000000001,0,0,40.62179,1,1,7761,3880
971,15182013,2,-0.0001235509,-0.001824117,-0.003583883,-0.1568996,0.2234454,-9.830769999999999,0,0,40.62243,1,1,7761,3880
1084,15203857,2,0.0006173935,-0.002076796,0.001232114,-0.1509212,0.1973996,-9.813981999999999,0,0,40.62304,1,1,7761,3880
1199,15256035,2,-0.0005204124,-0.0007464711,0.00257838,-0.1686223,0.1751066,-9.815415,0,0,40.62385,1,1,7761,3880
1202,15259852,2,0.001138203,-0.0003534085,0.00236675,-0.1722682,0.1772143,-9.802201,0,0,40.62395,1,1,7761,3880
1311,15329590,2,0.001693901,0.0006994542,-0.001357588,-0.1700029,0.2190342,-9.815448,0,0,40.62517,1,1,7761,3880
1405,15386314,2,-0.001595065,0.003016038,0.001089448,-0.1755709,0.1940659,-9.830037000000001,0,0,40.62445,1,1,7761,3880
1494,15400621,2,-0.0006842421,0.002115723,0.001415823,-0.172851,0.1824974,-9.816172,0,0,40.62418,1,1,7761,3880
1586,15415571,2,-0.0002542225,0.001038112,0.002453152,-0.1612068,0.1903894,-9.813977,0,0,40.62397,1,1,7761,3880
1618,15418088,2,-0.0008730841,0.001370629,0.002486216,-0.1623921,0.190139,-9.816666,0,0,40.62391,1,1,7761,3880
1658,15421315,2,-0.002178475,0.001298345,0.0005020323,-0.1685553,0.1882427,-9.820784,0,0,40.62383,1,1,7761,3880
1661,15423801,2,-0.002310161,0.001144222,-0.001125338,-0.1727401,0.1865813,-9.821770000000001,0,0,40.6238,1,1,7761,3880
1664,15425931,2,-0.001637071,0.0009045315,-0.002184375,-0.1746151,0.1848811,-9.821707999999999,0,0,40.62375,1,1,7761,3880
1696,15428680,2,-0.001455642,-0.0003842707,-0.002865139,-0.1745496,0.183766,-9.820786999999999,0,0,40.6237,1,1,7761,3880
1699,15431597,2,-0.001089332,-0.001660799,-0.001854798,-0.1748634,0.1841877,-9.820278,0,0,40.62362,1,1,7761,3880
1702,15433929,2,-0.0008237638,-0.001704635,-0.001497986,-0.1734858,0.1837068,-9.819485999999999,0,0,40.62356,1,1,7761,3880
1706,15436260,2,-0.0005637354,-0.0008928371,-0.0008544609,-0.1708115,0.1828224,-9.818440000000001,0,0,40.6235,1,1,7761,3880
1737,15438721,2,-0.0004692488,0.000291598,-0.0008944151,-0.1641027,0.181269,-9.818489,0,0,40.62344,1,1,7761,3880
1740,15441028,2,-0.0006538613,0.0006027609,-0.0002935424,-0.1555066,0.1809267,-9.823505000000001,0,0,40.62338,1,1,7761,3880
1743,15444052,2,-0.0006242061,-0.0001898423,-0.0004246798,-0.1496994,0.1802568,-9.828884,0,0,40.62334,1,1,7761,3880
1746,15446294,2,6.607276e-05,-0.001636164,-0.0005197461,-0.1411891,0.1788788,-9.836017,0,0,40.62328,1,1,7761,3880
1778,15448620,2,-0.0003508742,-0.001789083,3.961795e-05,-0.1385752,0.1789902,-9.837631999999999,0,0,40.62325,1,1,7761,3880
1781,15451006,2,-0.0006353764999999999,-0.001347379,0.0003106137,-0.1318787,0.1812451,-9.840412000000001,0,0,40.62323,1,1,7761,3880
1784,15453572,2,-0.0005268534,-0.0009616633,-0.000386798,-0.1296482,0.1841089,-9.842724,0,0,40.62323,1,1,7761,3880
1787,15459931,2,-0.001473127,-0.002198973,-0.001461176,-0.1317392,0.1950951,-9.844336999999999,0,0,40.62328,1,1,7761,3880
1818,15462160,2,-0.001336098,-0.002821213,0.0001426866,-0.1355137,0.20001,-9.837548,0,0,40.62334,1,1,7761,3880
1821,15464629,2,-0.0005898709,-0.003161593,0.000125883,-0.1373662,0.2032431,-9.831979,0,0,40.62338,1,1,7761,3880
1824,15467749,2,8.078716e-05,-0.002319514,-0.0001101536,-0.1392186,0.2043868,-9.825881000000001,0,0,40.62344,1,1,7761,3880
1827,15470926,2,0.0008406564,-0.001718431,0.0001020791,-0.1394853,0.2035954,-9.823226,0,0,40.62348,1,1,7761,3880
1830,15472270,2,0.001481359,-0.001256819,-8.499563e-05,-0.1390209,0.2005228,-9.823566,0,0,40.62354,1,1,7761,3880
1862,15474609,2,0.000882441,-0.001086056,-0.0004274079,-0.138999,0.1980714,-9.826390999999999,0,0,40.62358,1,1,7761,3880
1865,15477154,2,0.0006412276,-0.001343954,-0.001301482,-0.140272,0.1942438,-9.829628,0,0,40.62366,1,1,7761,3880
1869,15480293,2,0.0002502128,-0.001340281,-0.0005919245,-0.141215,0.1932578,-9.831258,0,0,40.62371,1,1,7761,3880
1872,15482694,2,-0.0005195651,-0.001461869,0.0006635939,-0.1449769,0.1920149,-9.835804,0,0,40.62382,1,1,7761,3880
1904,15484839,2,0.0004981101,-0.001670063,0.0009270033,-0.1500351,0.1921623,-9.836364,0,0,40.62389,1,1,7761,3880
1910,15487232,2,0.001387641,-0.001613937,0.00016494,-0.153254,0.192767,-9.835281,0,0,40.62393,1,1,7761,3880
1914,15489875,2,0.0005080827,-0.001350848,-0.0005013124,-0.1567008,0.1936791,-9.833349,0,0,40.624,1,1,7761,3880
1917,15492418,2,-0.0009653875,-0.0005519403,-0.0008415375,-0.162383,0.1964322,-9.827892,0,0,40.62407,1,1,7761,3880
1948,15495129,2,0.0002270594,-0.0004056567,-0.0007441012,-0.1669242,0.200274,-9.823817,0,0,40.62411,1,1,7761,3880
1951,15497699,2,0.002159743,-0.0007961731,0.0009794792,-0.1715977,0.206892,-9.820731,0,0,40.62418,1,1,7761,3880
1954,15499665,2,0.002313659,-0.0007638622,0.002158597,-0.1735339,0.21015,-9.822167,0,0,40.62422,1,1,7761,3880
1957,15502198,2,0.001747959,-0.0007703405,0.00165663,-0.1730227,0.2139635,-9.826248,0,0,40.62429,1,1,7761,3880
1989,15504665,2,0.001275941,-0.0002783789,0.001061321,-0.1712287,0.2145199,-9.828087999999999,0,0,40.62433,1,1,7761,3880
1992,15507825,2,0.001706969,0.0003390666,-0.0007549977,-0.1689672,0.2147943,-9.83337,0,0,40.62439,1,1,7761,3880
1995,15510018,2,0.00216805,0.0003831555,-0.002402851,-0.1672551,0.2141908,-9.837139000000001,0,0,40.62441,1,1,7761,3880
1998,15512587,2,0.001997943,-0.0003501232,-0.002325804,-0.1650001,0.2120546,-9.840458999999999,0,0,40.62445,1,1,7761,3880
2029,15514674,2,0.0009750457,-0.0004899113,-0.001103833,-0.1609874,0.2067658,-9.843389999999999,0,0,40.62449,1,1,7761,3880
2032,15517329,2,0.0003624759,-0.0004552198,-0.0003993843,-0.157965,0.2037229,-9.845765,0,0,40.62452,1,1,7761,3880
2035,15520125,2,0.0008309129,0.0001165726,0.0004833049,-0.1558826,0.2013353,-9.847294,0,0,40.62455,1,1,7761,3880
2039,15522782,2,0.002147955,0.000614837,0.001026055,-0.1548192,0.199068,-9.848865999999999,0,0,40.62458,1,1,7761,3880
2072,15524880,2,0.002211354,0.0002118658,8.118161e-05,-0.1569575,0.1984415,-9.848795000000001,0,0,40.62463,1,1,7761,3880
2076,15527368,2,0.001604133,-0.0008108186,4.679479e-05,-0.1589883,0.1985053,-9.846629999999999,0,0,40.62468,1,1,7761,3880
2079,15529632,2,0.001719945,-0.001171082,6.017853e-05,-0.1615513,0.2000825,-9.844360999999999,0,0,40.62473,1,1,7761,3880
2082,15536313,2,0.003280417,0.001521142,-4.45789e-05,-0.1703266,0.2057852,-9.846050999999999,0,0,40.62489,1,1,7761,3880
2085,15537825,2,0.001679388,0.001658631,-0.0002174062,-0.1717672,0.2060989,-9.849005,0,0,40.62493,1,1,7761,3880
2119,15540310,2,0.0009042444,0.0006150394,-0.0009604258,-0.1743178,0.2060333,-9.84985,0,0,40.625,1,1,7761,3880
2122,15543080,2,0.0003695494,-0.0003752208,-0.001852081,-0.1752203,0.2050798,-9.848217999999999,0,0,40.62506,1,1,7761,3880
2125,15545098,2,-0.0002839105,-0.0009539588,-0.001450811,-0.1752996,0.204667,-9.846875000000001,0,0,40.62515,1,1,7761,3880
2129,15547925,2,-0.0005156267,-0.0008829311,-0.001287856,-0.1745087,0.2051307,-9.844956,0,0,40.6252,1,1,7761,3880
2160,15550619,2,-0.001776427,-0.000497019,-0.001248565,-0.1737189,0.2054455,-9.840096000000001,0,0,40.62528,1,1,7761,3880
2163,15552933,2,-0.002058076,-8.401053e-05,-0.001836215,-0.1734577,0.2055194,-9.837407000000001,0,0,40.62534,1,1,7761,3880
2166,15555582,2,-0.001549322,-0.000475214,-0.00245086,-0.1732724,0.2055508,-9.833881999999999,0,0,40.62543,1,1,7761,3880
2169,15557884,2,-0.0009808175999999999,-0.001080901,-0.001992364,-0.1738057,0.2069576,-9.831564,0,0,40.62548,1,1,7761,3880
2201,15560783,2,-0.0005952616,-0.00151277,-0.001273426,-0.1729979,0.2081794,-9.828633999999999,0,0,40.62558,1,1,7761,3880
2204,15562683,2,-0.0004395544,-0.001605444,-0.0008912199,-0.1715892,0.2075881,-9.827450000000001,0,0,40.62566,1,1,7761,3880
2207,15565225,2,-0.0004694821,-0.002142808,-0.001343297,-0.169218,0.2067529,-9.82626,0,0,40.62573,1,1,7761,3880
2210,15567818,2,-0.000216513,-0.002176953,-0.001827272,-0.1673174,0.207325,-9.825502999999999,0,0,40.62577,1,1,7761,3880
2242,15570906,2,-0.0008060078,-0.002386415,-0.001505961,-0.1664416,0.207596,-9.829718,0,0,40.62584,1,1,7761,3880
2245,15573096,2,-0.002826568,-0.002946385,-0.001379433,-0.1669539,0.206665,-9.83325,0,0,40.62589,1,1,7761,3880
2248,15575016,2,-0.003986181,-0.003392454,-0.002779081,-0.1678804,0.2053768,-9.834963,0,0,40.62594,1,1,7761,3880
2251,15577936,2,-0.003705302,-0.003054089,-0.003730698,-0.1692825,0.2054085,-9.836282000000001,0,0,40.62595,1,1,7761,3880
2282,15580106,2,-0.00264572,-0.001151631,-0.003276702,-0.172689,0.2079597,-9.835231,0,0,40.62596,1,1,7761,3880
2285,15583082,2,-0.001281173,0.0002850499,-0.002293423,-0.1757615,0.2088867,-9.834191000000001,0,0,40.62597,1,1,7761,3880
2289,15585471,2,-3.233101e-05,0.0004593417,-0.001104852,-0.180764,0.2090664,-9.833593,0,0,40.62596,1,1,7761,3880
2295,15587967,2,-0.0005367149,-0.0003429826,-0.0008404857,-0.1814427,0.2079741,-9.834196,0,0,40.62595,1,1,7761,3880
2327,15590287,2,-0.0009151341,-0.001530934,-0.0008212747,-0.1801379,0.2063683,-9.840069,0,0,40.62594,1,1,7761,3880
2331,15593117,2,-0.0006347855,-0.001821964,-0.0007383198,-0.1782059,0.205481,-9.843707,0,0,40.62594,1,1,7761,3880
2334,15595624,2,0.0001141481,-0.001256858,-0.001072876,-0.1724715,0.2048129,-9.848231999999999,0,0,40.62594,1,1,7761,3880
2337,15598166,2,0.0006533376,-0.001186199,-0.001285056,-0.1693696,0.2030683,-9.853287,0,0,40.62594,1,1,7761,3880
2368,15600582,2,-0.0005464783,-0.0009821309,-0.0008188952,-0.1662813,0.1998789,-9.857265,0,0,40.62592,1,1,7761,3880
2372,15602933,2,-0.001106291,-0.0002404231,0.0004527956,-0.1651357,0.1976596,-9.856514000000001,0,0,40.6259,1,1,7761,3880
2375,15605336,2,-0.001298459,0.0004081983,0.001682169,-0.1643369,0.1960965,-9.853652,0,0,40.62588,1,1,7761,3880
2378,15608328,2,-0.001206335,-0.0002495446,0.001555235,-0.1645096,0.1960988,-9.84895,0,0,40.62585,1,1,7761,3880
2409,15611061,2,-0.001026854,-0.001429507,0.0008685432,-0.1663371,0.1994629,-9.839055,0,0,40.6258,1,1,7761,3880
2416,15613297,2,-0.001090563,-0.002005778,0.0005440199,-0.1692005,0.20353,-9.832390999999999,0,0,40.62578,1,1,7761,3880
2419,15615677,2,-0.001069283,-0.001409599,-6.964109e-05,-0.1742759,0.2108133,-9.823035000000001,0,0,40.62573,1,1,7761,3880
2422,15618338,2,0.0002311628,-0.0002837733,3.041679e-05,-0.177243,0.2139811,-9.816770999999999,0,0,40.6257,1,1,7761,3880
2453,15621169,2,0.003109736,0.0009206970000000001,-0.0001184283,-0.1803167,0.213672,-9.811771,0,0,40.62568,1,1,7761,3880
2456,15622891,2,0.004361719,1.558888e-05,0.0001578868,-0.1800385,0.2114395,-9.810555000000001,0,0,40.62566,1,1,7761,3880
2459,15625853,2,0.003699247,-0.0005668132,0.0004853243,-0.1786131,0.2059959,-9.812336999999999,0,0,40.62564,1,1,7761,3880
2462,15628020,2,0.003066029,-0.0003889511,0.0001904427,-0.1770647,0.202148,-9.814166,0,0,40.62561,1,1,7761,3880
2493,15630615,2,0.002902508,-0.0006731513,-0.0009298699,-0.1739055,0.1978363,-9.816466,0,0,40.62555,1,1,7761,3880
2497,15637169,2,0.002917551,0.0006804848,-0.001304602,-0.1705616,0.1917721,-9.814596999999999,0,0,40.62544,1,1,7761,3880
2500,15638774,2,0.004055517,0.002581027,-0.0008526401,-0.1679264,0.1884311,-9.811947999999999,0,0,40.62538,1,1,7761,3880
2531,15641301,2,0.003983025,0.002951201,9.407588e-05,-0.1654931,0.1862594,-9.812728999999999,0,0,40.62529,1,1,7761,3880
2536,15644147,2,0.003101241,0.002722721,0.0005424021999999999,-0.1649365,0.1846288,-9.814114999999999,0,0,40.62523,1,1,7761,3880
2539,15646054,2,0.001855918,0.001747904,-0.0001072143,-0.1647924,0.1817339,-9.817159999999999,0,0,40.62515,1,1,7761,3880
2543,15648848,2,0.00104598,0.001089648,-0.001370319,-0.1646692,0.1805663,-9.819463000000001,0,0,40.62511,1,1,7761,3880
2574,15651309,2,0.001129639,0.001403459,-0.001326137,-0.1658222,0.1832101,-9.823104000000001,0,0,40.62503,1,1,7761,3880
2577,15654221,2,0.002157733,0.002979041,-0.001409268,-0.1667061,0.1871959,-9.824140999999999,0,0,40.62494,1,1,7761,3880
2580,15656614,2,0.003104358,0.002701885,-0.001212069,-0.1666905,0.1922563,-9.821909,0,0,40.62487,1,1,7761,3880
2583,15658822,2,0.003124709,0.001136661,-0.001457086,-0.165913,0.1945452,-9.818568000000001,0,0,40.62482,1,1,7761,3880
2614,15661381,2,0.003618934,-0.0003022594,-0.000451906,-0.1631214,0.1971297,-9.815474999999999,0,0,40.62474,1,1,7761,3880
2618,15663658,2,0.004349828,-0.0003272202,-0.0001100276,-0.1610953,0.197643,-9.815702,0,0,40.62469,1,1,7761,3880
2621,15666641,2,0.004621136,0.0005770542,0.0001748636,-0.158892,0.1965552,-9.822145000000001,0,0,40.6246,1,1,7761,3880
2624,15668831,2,0.004014,0.001577193,-1.461047e-05,-0.1579028,0.196604,-9.825818999999999,0,0,40.62456,1,1,7761,3880
2655,15672019,2,0.003531327,0.00229141,-0.0004639014,-0.154115,0.1986076,-9.836748,0,0,40.62447,1,1,7761,3880
2658,15673569,2,0.002925128,0.002689446,-0.000819174,-0.1515596,0.1995779,-9.842597,0,0,40.62443,1,1,7761,3880
2661,15676067,2,0.002092838,0.002824036,-0.002469055,-0.1491316,0.2011275,-9.847867000000001,0,0,40.62434,1,1,7761,3880
2664,15678808,2,0.001386943,0.001661041,-0.002733406,-0.14835,0.2009045,-9.84722,0,0,40.62431,1,1,7761,3880
2695,15681824,2,0.001117708,-8.603917000000001e-05,-0.001335448,-0.1484655,0.1992242,-9.843309,0,0,40.62426,1,1,7761,3880
2699,15684113,2,0.001455726,-0.001600443,-0.0003851306,-0.1488779,0.1980373,-9.841443,0,0,40.62423,1,1,7761,3880
2702,15686242,2,0.00199267,-0.001463499,8.017590000000001e-05,-0.1494609,0.1987404,-9.839378,0,0,40.62416,1,1,7761,3880
2709,15688877,2,0.002126443,-0.0007854819,-8.40084e-05,-0.1496656,0.2003877,-9.839065,0,0,40.62413,1,1,7761,3880
2741,15691569,2,0.001364853,-0.0004719289,-0.0005511783,-0.152352,0.2050125,-9.834379999999999,0,0,40.62407,1,1,7761,3880
2744,15694088,2,0.0005537703,-0.0008392941,-0.0007901833,-0.1547242,0.2077596,-9.828870999999999,0,0,40.62406,1,1,7761,3880
2747,15696558,2,-0.0007188852,-0.0004386275,0.0006785382,-0.1565375,0.2116074,-9.822355,0,0,40.62403,1,1,7761,3880
2750,15698848,2,-0.0009562874,-0.0002012379,0.00147909,-0.157897,0.2138011,-9.820285999999999,0,0,40.62401,1,1,7761,3880
2781,15701269,2,-0.0001391893,-0.000773662,0.001237365,-0.1589233,0.2142054,-9.819889,0,0,40.62398,1,1,7761,3880
2785,15703601,2,0.0001600715,-0.00100384,0.0007492205,-0.1588336,0.2147989,-9.821115000000001,0,0,40.62396,1,1,7761,3880
2788,15706720,2,0.0002684178,-0.001248085,9.201564e-05,-0.1566063,0.2153291,-9.822818,0,0,40.62393,1,1,7761,3880
2791,15709226,2,-0.0003855636,-0.001288441,0.0004398013,-0.155609,0.2134358,-9.824325999999999,0,0,40.62392,1,1,7761,3880
2822,15711456,2,-0.0002885994,-0.0003581201,0.0007040945,-0.1557312,0.2092679,-9.824063000000001,0,0,40.62393,1,1,7761,3880
2826,15713618,2,0.0004722049,0.0002152079,0.0004546123,-0.1560717,0.2078388,-9.823193,0,0,40.62396,1,1,7761,3880
2829,15716083,2,0.000539783,-0.0003600084,0.0006581551,-0.1569961,0.2068899,-9.823479000000001,0,0,40.62398,1,1,7761,3880
2832,15718894,2,-0.0003742681,-0.0003909494,0.0005822145,-0.1584248,0.207499,-9.82347,0,0,40.62401,1,1,7761,3880
2863,15721919,2,-0.0007377218,-0.0006704248,0.001849,-0.1601133,0.2086443,-9.824351,0,0,40.62407,1,1,7761,3880
2866,15724014,2,-0.0009123866,-0.0009700898,0.002846029,-0.1599913,0.20739,-9.823976,0,0,40.62412,1,1,7761,3880
2869,15726616,2,-0.0008779533,-0.0007510645,0.0035303,-0.1591757,0.2012445,-9.824961999999999,0,0,40.62421,1,1,7761,3880
2872,15728920,2,-0.001179537,-0.0005462975,0.002835046,-0.1588187,0.199097,-9.824892,0,0,40.62426,1,1,7761,3880
2903,15731621,2,-0.001497694,-0.0002712744,0.002021199,-0.1581741,0.1939504,-9.821548,0,0,40.62436,1,1,7761,3880
2908,15735046,2,-0.003330763,-0.0001753988,0.0007783652,-0.159054,0.1919465,-9.820859,0,0,40.62446,1,1,7761,3880
2911,15736757,2,-0.003453448,-0.000131835,0.0003700533,-0.1613862,0.1936472,-9.820316999999999,0,0,40.62458,1,1,7761,3880
2914,15738788,2,-0.003574438,-0.0009302270000000001,0.001247492,-0.1618687,0.1976731,-9.822371,0,0,40.62469,1,1,7761,3880
2947,15741585,2,-0.003210967,-0.002328917,0.002876176,-0.1604982,0.2050693,-9.825003000000001,0,0,40.62479,1,1,7761,3880
2950,15743783,2,-0.002351544,-0.002455364,0.002814367,-0.1588212,0.2084358,-9.826032,0,0,40.62486,1,1,7761,3880
2953,15746605,2,-0.002312507,-0.001935528,0.001273265,-0.1577237,0.2127745,-9.826598000000001,0,0,40.625,1,1,7761,3880
2956,15748825,2,-0.002474135,-0.001581091,0.0003229817,-0.1575715,0.2156033,-9.826066000000001,0,0,40.62507,1,1,7761,3880
2987,15751609,2,-0.00162053,-0.001554604,-0.0006074072,-0.1563699,0.2184921,-9.825346,0,0,40.62521,1,1,7761,3880
2992,15756787,2,0.000477396,-0.001629602,-0.001153203,-0.1537511,0.2162343,-9.827439,0,0,40.62545,1,1,7761,3880
2995,15758927,2,-0.0003989985,-0.001786332,5.994727e-05,-0.1529868,0.2122941,-9.829556,0,0,40.62555,1,1,7761,3880
3026,15761842,2,-0.0009947979,-0.0008293475,0.0009830111,-0.1515454,0.2081774,-9.834524,0,0,40.62561,1,1,7761,3880
3030,15764447,2,-0.00114495,-0.0001565461,0.0008164358,-0.1502503,0.2046099,-9.842369,0,0,40.62576,1,1,7761,3880
3034,15766457,2,-0.001380511,0.0002640559,0.0005498684,-0.1505289,0.202692,-9.845034999999999,0,0,40.62582,1,1,7761,3880
3037,15769297,2,-0.00122248,0.0004697673,-0.0005285721,-0.1524558,0.1996508,-9.847697999999999,0,0,40.62591,1,1,7761,3880
3068,15772097,2,-0.001213026,-0.0008078139,-0.00135464,-0.1541346,0.197966,-9.851276,0,0,40.62598,1,1,7761,3880
3071,15774076,2,-0.001897471,-0.002799043,-0.00202791,-0.1565085,0.1969095,-9.855677,0,0,40.6261,1,1,7761,3880
3074,15776781,2,-0.002287415,-0.00280913,-0.0007953685,-0.1576219,0.1987557,-9.857697,0,0,40.62616,1,1,7761,3880
3077,15779240,2,-0.00149768,-0.0009915385999999999,0.001751016,-0.1599972,0.2030024,-9.856168,0,0,40.62629,1,1,7761,3880
3108,15782128,2,-0.0004506186,0.0002350518,0.003045295,-0.1616804,0.2045875,-9.855202999999999,0,0,40.62635,1,1,7761,3880
3112,15783933,2,0.000344139,0.0019257,0.00367542,-0.1607567,0.2067499,-9.853403999999999,0,0,40.62649,1,1,7761,3880
3115,15786476,2,0.001077747,0.002201267,0.003378894,-0.1572932,0.2067689,-9.85177,0,0,40.62655,1,1,7761,3880
3121,15789552,2,0.001932774,0.001170135,0.002156495,-0.1534581,0.2050373,-9.851296,0,0,40.6266,1,1,7761,3880
3155,15792115,2,0.001781351,0.0009854492000000001,0.0007610987,-0.1517148,0.2024712,-9.851727,0,0,40.62669,1,1,7761,3880
3159,15794893,2,0.0005904834,0.0009979068000000001,-0.0004429292,-0.1523644,0.1987944,-9.852138999999999,0,0,40.62683,1,1,7761,3880
3162,15797046,2,-0.0001087321,0.0009592717,0.0001542061,-0.153402,0.1960538,-9.852577,0,0,40.62691,1,1,7761,3880
3165,15799346,2,-0.000542354,0.0005201673,0.0008094694,-0.1550552,0.1941093,-9.854678,0,0,40.62704,1,1,7761,3880
3196,15802238,2,-0.0004088719,0.0004232028,0.001198888,-0.1563745,0.1932597,-9.853954999999999,0,0,40.62713,1,1,7761,3880
3200,15804242,2,-0.0002519055,0.001277244,0.001169643,-0.1594136,0.1912226,-9.849769999999999,0,0,40.62727,1,1,7761,3880
3203,15807267,2,2.413443e-05,0.0009055034999999999,0.001909065,-0.1623534,0.1901279,-9.844526999999999,0,0,40.62735,1,1,7761,3880
3206,15809455,2,0.0005346069,0.0005768322,0.0006213229,-0.1665981,0.1878863,-9.83813,0,0,40.62746,1,1,7761,3880
3237,15812027,2,0.0005573885,0.0007912944,-0.0006714884,-0.16871,0.1862617,-9.833662,0,0,40.62754,1,1,7761,3880
3241,15814729,2,0.0008865549,0.001038463,-0.00131529,-0.1694142,0.1841893,-9.826950999999999,0,0,40.62765,1,1,7761,3880
3244,15817013,2,0.000285783,0.001353315,-0.0007708718,-0.1688747,0.1833589,-9.822622000000001,0,0,40.62772,1,1,7761,3880
3247,15820056,2,-0.0006314337,0.001803992,0.001914311,-0.1676844,0.1826185,-9.818410999999999,0,0,40.62783,1,1,7761,3880
3278,15822554,2,-0.000667763,0.001467528,0.002939169,-0.1658361,0.1837504,-9.816117999999999,0,0,40.62798,1,1,7761,3880
3283,15825083,2,-0.0004045612,0.001203822,0.00186782,-0.1650953,0.1843756,-9.815889,0,0,40.62806,1,1,7761,3880
3286,15827264,2,0.0003014534,0.0007946196,0.0009570154,-0.1634942,0.1869763,-9.813514,0,0,40.62819,1,1,7761,3880
3289,15832675,2,0.001830735,-0.0006690914,-0.00178189,-0.1638935,0.1965088,-9.81564,0,0,40.6284,1,1,7761,3880
3320,15835274,2,0.001970344,-0.001205556,-0.001485124,-0.1639843,0.2014001,-9.818265999999999,0,0,40.62853,1,1,7761,3880
3323,15841055,2,0.003296015,-0.001532923,0.0006710002,-0.1667745,0.2049266,-9.819991999999999,0,0,40.62875,1,1,7761,3880
3326,15842938,2,0.003677262,-0.001254856,0.0008596067,-0.1710299,0.2034107,-9.820541,0,0,40.62883,1,1,7761,3880
3358,15845233,2,0.002176375,-0.002532809,0.0008821798,-0.1776417,0.1991002,-9.822495,0,0,40.62896,1,1,7761,3880
3361,15847929,2,0.0009139395,-0.00318295,0.0009477517,-0.1813283,0.1958744,-9.825063,0,0,40.62903,1,1,7761,3880
3364,15850730,2,0.001415967,-0.002913563,-0.0002904941,-0.1853941,0.1918122,-9.829981,0,0,40.62914,1,1,7761,3880
3368,15853284,2,0.002157617,-0.002285856,-0.0005537564,-0.1865568,0.1895554,-9.832989,0,0,40.62925,1,1,7761,3880
3400,15855280,2,0.001212931,-0.002485286,0.0006342147,-0.1863342,0.1874714,-9.833983,0,0,40.62936,1,1,7761,3880
3403,15857900,2,-0.0006142984,-0.002622218,0.0009934384000000001,-0.1848534,0.1832522,-9.830270000000001,0,0,40.62946,1,1,7761,3880
3406,15860553,2,-0.001950598,-0.002947005,0.0008141274,-0.1832824,0.1806665,-9.826013,0,0,40.62956,1,1,7761,3880
3409,15863448,2,-0.001878528,-0.00289451,4.989583e-05,-0.1807765,0.1810282,-9.821839000000001,0,0,40.62965,1,1,7761,3880
3440,15865913,2,-0.0003223052,-0.00248029,-0.0005907789,-0.1774914,0.1866643,-9.817589999999999,0,0,40.62975,1,1,7761,3880
3443,15867866,2,0.0009690602,-0.002222824,-0.0008712549,-0.1762387,0.1925998,-9.817928,0,0,40.62981,1,1,7761,3880
3446,15870230,2,0.001664054,-0.001802703,0.0002931773,-0.1759205,0.2031244,-9.817339,0,0,40.6299,1,1,7761,3880
3449,15872892,2,0.001160687,-0.002422399,0.0008818196,-0.1761199,0.2098764,-9.817004000000001,0,0,40.62996,1,1,7761,3880
3480,15875829,2,0.0003258327,-0.002510951,0.0003976716,-0.1776374,0.2168111,-9.817335999999999,0,0,40.63006,1,1,7761,3880
3484,15878237,2,0.0004585545,-0.002339616,-0.0002964818,-0.1791665,0.2188788,-9.818561000000001,0,0,40.63013,1,1,7761,3880
3487,15880291,2,0.001752853,-0.002327944,-0.001579624,-0.1816103,0.2178356,-9.821567999999999,0,0,40.63023,1,1,7761,3880
3490,15883288,2,0.002322384,-0.002349458,-0.001883575,-0.1823754,0.215072,-9.822369999999999,0,0,40.63034,1,1,7761,3880
3521,15885332,2,0.001802668,-0.001869534,-0.0009359891,-0.1820005,0.2107032,-9.819502,0,0,40.6305,1,1,7761,3880
3524,15888544,2,0.001224915,-0.001300556,0.0001770045,-0.1807192,0.2091127,-9.818916,0,0,40.63059,1,1,7761,3880
3530,15891017,2,0.001155379,-0.001239609,0.001310472,-0.1749382,0.2032701,-9.819046,0,0,40.63078,1,1,7761,3880
3534,15893091,2,0.001292395,-0.0007146029,0.002199052,-0.1712236,0.1995931,-9.820809000000001,0,0,40.63088,1,1,7761,3880
3565,15895147,2,0.0004474509,-7.330187e-05,0.001466713,-0.1673291,0.1971334,-9.82635,0,0,40.6311,1,1,7761,3880
3569,15897880,2,-0.000485181,0.0002538864,0.0001985288,-0.1651472,0.1974328,-9.830564000000001,0,0,40.63126,1,1,7761,3880
3572,15900845,2,-0.0009939272,0.0004910868,-0.001762547,-0.1628665,0.1993337,-9.834678,0,0,40.6314,1,1,7761,3880
3575,15903274,2,-0.0006102421999999999,0.0006561087,-0.002099203,-0.1627731,0.201572,-9.837982,0,0,40.63155,1,1,7761,3880
3606,15905538,2,-0.0003736977,0.0002157047,-0.002439409,-0.1635379,0.2082139,-9.842392,0,0,40.63172,1,1,7761,3880
3610,15908037,2,-0.0006240726,3.945139e-05,-0.002645171,-0.1630021,0.2128344,-9.843109999999999,0,0,40.63182,1,1,7761,3880
3614,15910603,2,-0.001323905,0.000465179,-0.002520837,-0.1615846,0.2189963,-9.838066,0,0,40.632,1,1,7761,3880
3617,15913166,2,-0.0005908767,0.0009993862,-0.003435073,-0.1604838,0.2220872,-9.832998999999999,0,0,40.63217,1,1,7761,3880
3648,15915840,2,9.309231e-05,0.0008767254,-0.004069305,-0.1593972,0.2249324,-9.827591,0,0,40.63235,1,1,7761,3880
3651,15917978,2,-0.0003552293,0.0007022855,-0.003069087,-0.157276,0.226965,-9.821752,0,0,40.63253,1,1,7761,3880
3654,15920601,2,-0.0008248875,0.0002892527,-0.00204763,-0.1559331,0.2265573,-9.823024,0,0,40.63272,1,1,7761,3880
3659,15923221,2,-0.0007760631,-0.0001633247,-0.001648942,-0.155066,0.2250216,-9.825141,0,0,40.63293,1,1,7761,3880
3690,15925860,2,-0.0002352009,0.0001983867,-0.001309357,-0.1546894,0.2201616,-9.826241,0,0,40.63314,1,1,7761,3880
3694,15930670,2,-0.00167373,0.001576401,-0.0003767193,-0.1549992,0.2138676,-9.828163,0,0,40.63356,1,1,7761,3880
3697,15933229,2,-0.002997932,0.001391437,-0.001350029,-0.1590546,0.2093213,-9.829983,0,0,40.63377,1,1,7761,3880
3728,15938283,2,-0.002549723,0.001607484,-0.001622749,-0.1672058,0.2054869,-9.827429,0,0,40.63428,1,1,7761,3880
3731,15941014,2,-0.002478984,0.001246282,-0.001989507,-0.1682291,0.2064856,-9.827171,0,0,40.63443,1,1,7761,3880
3734,15944089,2,-0.001307624,0.0002917756,-0.002017087,-0.1666441,0.2088399,-9.827242999999999,0,0,40.63472,1,1,7761,3880
3765,15946016,2,-0.0004267528,0.0006933368,-0.00180388,-0.1619754,0.2111226,-9.825568000000001,0,0,40.63502,1,1,7761,3880
3768,15949135,2,0.0001227272,0.001609085,-0.00136474,-0.1602256,0.2119982,-9.825150000000001,0,0,40.63517,1,1,7761,3880
3772,15951654,2,0.0007133853,0.002053856,-0.0007121654,-0.1555709,0.2138842,-9.823729,0,0,40.63548,1,1,7761,3879
3776,15954019,2,0.00148395,0.002145827,-0.0001640336,-0.1534837,0.2133137,-9.82283,0,0,40.63562,1,1,7758,3879
3807,15956620,2,0.001766631,0.001651699,0.0003988348,-0.1518708,0.2123661,-9.819119000000001,0,0,40.63583,1,1,7758,3879
3810,15958882,2,0.001382063,0.0007736478,-0.0002752383,-0.1515285,0.2132847,-9.815727000000001,0,0,40.63596,1,1,7758,3879
3814,15961297,2,0.000571709,0.0001984724,-0.0006259687,-0.1543234,0.2150709,-9.811714,0,0,40.63615,1,1,7758,3879
3817,15963917,2,0.0001992377,0.0003710817,-0.001389958,-0.1577954,0.2153261,-9.813196,0,0,40.63631,1,1,7758,3879
3848,15966595,2,0.000592054,0.0002104756,-0.001891395,-0.1637479,0.2130799,-9.819644,0,0,40.63651,1,1,7758,3879
3851,15968900,2,0.0002962908,-0.0006911225999999999,-0.001607161,-0.1669587,0.2095014,-9.826184,0,0,40.6366,1,1,7758,3879
3854,15971752,2,-0.0001784864,-0.001849943,-0.001415704,-0.1685552,0.2023915,-9.834766999999999,0,0,40.63675,1,1,7758,3879
3857,15974109,2,-0.0003783202,-0.002172383,-0.001233748,-0.1684177,0.1983734,-9.837282,0,0,40.63691,1,1,7758,3879
3888,15976634,2,-0.0002280013,-0.001666927,-0.001104521,-0.167981,0.1971714,-9.835654999999999,0,0,40.63712,1,1,7758,3879
3891,15979141,2,-0.0003541003,-0.001794084,-0.0003363884,-0.1666368,0.2002914,-9.834057,0,0,40.63721,1,1,7758,3879
3895,15981641,2,-4.872078e-05,-0.001464172,0.001102736,-0.1645713,0.2047449,-9.834346,0,0,40.63734,1,1,7758,3879
3898,15983700,2,0.0003581287,-0.001580465,0.001388665,-0.1622748,0.208641,-9.834011,0,0,40.63746,1,1,7758,3879
3929,15986610,2,0.001804673,-0.001850317,0.001024695,-0.1601416,0.2133595,-9.832053,0,0,40.63758,1,1,7758,3879
3932,15989034,2,0.001961772,-0.001374602,0.0003368045,-0.1586483,0.2148934,-9.833541,0,0,40.63767,1,1,7758,3879
3938,15992089,2,0.00177158,-0.002211634,-0.0009778516000000001,-0.1580351,0.2151899,-9.836853,0,0,40.6378,1,1,7758,3879
3942,15994117,2,0.001697121,-0.00322373,-0.0009424985,-0.1580023,0.2154243,-9.837806,0,0,40.63792,1,1,7758,3879
3973,15996156,2,0.003086751,-0.004050371,0.0006618309,-0.1569387,0.214371,-9.838647999999999,0,0,40.63806,1,1,7758,3879
3976,15998916,2,0.004373688,-0.003422481,0.001965149,-0.1567039,0.2113511,-9.838949,0,0,40.63812,1,1,7758,3879
3980,16001300,2,0.004756128,-0.002464466,0.003250629,-0.1556246,0.205673,-9.839083,0,0,40.6382,1,1,7758,3879
3983,16004133,2,0.004149712,-0.00130266,0.003689104,-0.1540943,0.2010874,-9.839853,0,0,40.63828,1,1,7758,3879
4014,16006777,2,0.003270162,-3.343265e-05,0.002676216,-0.1524443,0.1942136,-9.841316000000001,0,0,40.63836,1,1,7758,3879
4017,16008857,2,0.003378879,-4.664994e-05,0.001875777,-0.1520534,0.1909616,-9.842122,0,0,40.63841,1,1,7758,3879
4020,16011316,2,0.003717676,0.0001158104,0.001458889,-0.1515913,0.1884044,-9.844592,0,0,40.6385,1,1,7758,3879
4024,16013834,2,0.00366007,2.475181e-05,0.001966365,-0.1505617,0.1851804,-9.847396,0,0,40.63861,1,1,7758,3879
4057,16016849,2,0.004075581,-0.0001887761,0.002247992,-0.1515333,0.1823764,-9.846098,0,0,40.63875,1,1,7758,3879
4060,16019047,2,0.004167884,-0.0003059167,0.00256987,-0.1531903,0.1793097,-9.842949000000001,0,0,40.6388,1,1,7758,3879
4064,16021686,2,0.003542073,-0.0002334152,0.003415779,-0.1568509,0.176449,-9.837851000000001,0,0,40.63891,1,1,7758,3879
4067,16023718,2,0.003597813,-4.96333e-06,0.002745156,-0.1588016,0.1756748,-9.835715,0,0,40.63897,1,1,7758,3879
4098,16026093,2,0.003369195,0.0006950903,0.0007911204,-0.1604792,0.1742302,-9.833435,0,0,40.63902,1,1,7758,3879
4101,16029460,2,0.002889827,0.001599417,8.965302000000001e-05,-0.1600099,0.1741833,-9.830715,0,0,40.63906,1,1,7758,3879
4105,16031333,2,0.002667912,0.001659642,-0.0009126803,-0.1588033,0.1756975,-9.825049,0,0,40.6391,1,1,7758,3879
4108,16034011,2,0.002608088,0.0008972959,-0.0008409448,-0.1584097,0.1774647,-9.820505000000001,0,0,40.63915,1,1,7758,3879
4139,16036659,2,0.003288566,0.001214425,0.001109089,-0.1577594,0.1783201,-9.814565999999999,0,0,40.63921,1,1,7758,3879
4142,16039089,2,0.003363508,0.0014129,0.002982883,-0.1564692,0.1778578,-9.812676,0,0,40.63924,1,1,7758,3879
4145,16044079,2,0.002457569,0.002205592,0.001559833,-0.1535877,0.1743824,-9.809958,0,0,40.63932,1,1,7758,3879
4176,16046894,2,0.002524339,0.001970983,0.0003986914,-0.1514093,0.173282,-9.809583,0,0,40.63935,1,1,7758,3879
4179,16048843,2,0.002740921,0.001967341,0.0002005455,-0.1484709,0.1734514,-9.812052,0,0,40.63938,1,1,7758,3879
4184,16051129,2,0.002664119,0.001494333,-0.0004478506,-0.1469959,0.1754262,-9.816936999999999,0,0,40.63942,1,1,7758,3879
4187,16054074,2,0.001967954,0.0005455332999999999,-0.001015924,-0.1469661,0.176481,-9.818172000000001,0,0,40.63946,1,1,7758,3879
4218,16056076,2,0.0001631944,0.0003943153,1.797446e-05,-0.1483089,0.1771606,-9.816592,0,0,40.63953,1,1,7758,3879
4221,16058928,2,-0.0006319575,0.0003608374,0.0005440022,-0.1517208,0.178106,-9.815735,0,0,40.6396,1,1,7758,3879
4225,16061880,2,-0.0005894082,-0.0004027266,-0.0003200036,-0.1578973,0.1786833,-9.815892,0,0,40.63965,1,1,7758,3879
4228,16065052,2,-0.0006956851,-0.001480273,-0.001250806,-0.1625217,0.1800059,-9.816414999999999,0,0,40.63973,1,1,7758,3879
4231,16066742,2,-0.002099035,-0.002423255,-0.002029276,-0.1699879,0.1840296,-9.817895999999999,0,0,40.63984,1,1,7758,3879
4262,16068897,2,-0.003926355,-0.001751346,-0.001563367,-0.175264,0.1882844,-9.820881999999999,0,0,40.63992,1,1,7758,3879
4266,16071919,2,-0.003599036,-0.001189244,-0.001750583,-0.1761244,0.1911122,-9.820228,0,0,40.63998,1,1,7758,3879
4270,16074088,2,-0.002486278,-0.0007167252,-0.001623611,-0.174825,0.1947602,-9.819307999999999,0,0,40.64009,1,1,7758,3879
4273,16077059,2,-0.001880452,-0.001093518,-0.001560933,-0.1716023,0.198968,-9.819380000000001,0,0,40.64014,1,1,7758,3879
4304,16080103,2,-0.0003268622,-0.002300093,-0.001844695,-0.1641942,0.2055935,-9.822165,0,0,40.64024,1,1,7758,3879
4307,16081322,2,-0.0004530013,-0.002920619,-0.001686345,-0.1596774,0.2095299,-9.824406,0,0,40.64032,1,1,7758,3879
4310,16084297,2,-0.001553778,-0.003093988,-0.001357293,-0.1551443,0.2119611,-9.823359999999999,0,0,40.64039,1,1,7758,3879
4313,16086912,2,-0.002310961,-0.002556267,-0.001860287,-0.1530235,0.2102638,-9.82381,0,0,40.64045,1,1,7758,3879
4344,16089603,2,-0.002746088,-0.0009916687,-0.002831208,-0.1522514,0.2072482,-9.824529999999999,0,0,40.64049,1,1,7758,3879
4351,16092574,2,-0.002910391,-0.0003813289,-0.003183817,-0.1537649,0.2064083,-9.822129,0,0,40.64051,1,1,7758,3879
4355,16094638,2,-0.002341828,9.850094999999999e-05,-0.002295701,-0.1552949,0.2055855,-9.817287,0,0,40.64053,1,1,7758,3879
4358,16096667,2,-0.001737708,-5.125519e-06,-0.001924183,-0.1553542,0.2045213,-9.814946000000001,0,0,40.64056,1,1,7758,3879
4389,16099014,2,-0.0009140127,-0.001097954,-0.001983571,-0.1561407,0.2040067,-9.812760000000001,0,0,40.6406,1,1,7758,3879
4393,16102256,2,-0.001518229,-0.001912085,-0.001400521,-0.1597863,0.2047279,-9.810261000000001,0,0,40.64064,1,1,7758,3879
4396,16104575,2,-0.003000804,-0.002587126,-0.0005296398,-0.16264,0.205327,-9.810169,0,0,40.6407,1,1,7758,3879
4399,16106850,2,-0.003444995,-0.00144303,-0.0009648059,-0.1657913,0.2060225,-9.809153999999999,0,0,40.64071,1,1,7758,3879
4430,16108963,2,-0.003055443,-0.0006979977,-0.001976277,-0.170682,0.2077094,-9.809938000000001,0,0,40.64072,1,1,7758,3879
4433,16112123,2,-0.00315336,-0.0007942992,-0.002475897,-0.1731853,0.2094133,-9.813591000000001,0,0,40.64073,1,1,7758,3879
4436,16114597,2,-0.004073604,-0.0004395241,-0.002523002,-0.1736593,0.2120409,-9.822346,0,0,40.64074,1,1,7758,3879
4439,16117216,2,-0.003913683,-0.0006418831,-0.002096404,-0.1722882,0.2128824,-9.827856000000001,0,0,40.64075,1,1,7758,3879
4470,16119307,2,-0.002588009,-0.001158368,-0.0008497618,-0.1702185,0.2155234,-9.830587,0,0,40.64075,1,1,7758,3879
4474,16121936,2,-0.001999634,-0.001103916,-0.0003899135,-0.1696172,0.2184676,-9.831104,0,0,40.64077,1,1,7758,3879
4477,16124697,2,-0.001849649,-0.00116572,-0.0001125227,-0.1678155,0.2195199,-9.832915,0,0,40.64079,1,1,7758,3879
4482,16130274,2,-0.0007402239,-0.002025241,-0.002089316,-0.1651065,0.2119781,-9.830332,0,0,40.64083,1,1,7758,3879
4485,16132450,2,-0.000262159,-0.001406655,-0.002414483,-0.1645373,0.2095919,-9.830170000000001,0,0,40.64086,1,1,7758,3879
4516,16134292,2,-0.0003695049,-0.000637203,-0.001639724,-0.1629603,0.2049967,-9.829855999999999,0,0,40.6409,1,1,7758,3879
4519,16136853,2,-0.0006477244,-0.0002411731,-0.0005144425,-0.1630936,0.2048929,-9.829826000000001,0,0,40.64092,1,1,7758,3879
4522,16140567,2,-0.001557414,0.0004325468,0.0002844048,-0.1658141,0.2047297,-9.827781,0,0,40.64094,1,1,7758,3879
4525,16143164,2,-0.001926595,0.001106776,0.0004170188,-0.1683868,0.2049436,-9.826001,0,0,40.64095,1,1,7758,3879
4528,16144575,2,-0.001599078,0.001612848,0.0008965526,-0.171648,0.2051638,-9.825639000000001,0,0,40.64094,1,1,7758,3879
4559,16147092,2,-9.78121e-05,0.0004624579,0.001749055,-0.1738001,0.2058265,-9.824911999999999,0,0,40.6409,1,1,7758,3879
4562,16149775,2,0.000904031,-0.0001860173,0.001687601,-0.1742342,0.2067934,-9.823270000000001,0,0,40.64087,1,1,7758,3879
4565,16152726,2,0.0008680943,5.152345e-05,0.001295427,-0.1737389,0.2089177,-9.820824,0,0,40.64086,1,1,7758,3879
4568,16155118,2,9.694516e-05,0.001303864,0.0004400568,-0.1720349,0.2121715,-9.817378,0,0,40.64082,1,1,7758,3879
4599,16157201,2,0.0007344897,0.002179793,0.0008612921,-0.1708786,0.2144185,-9.816666,0,0,40.64078,1,1,7758,3879
4602,16159984,2,0.001698632,0.001163495,0.001231095,-0.1701227,0.2146892,-9.819205,0,0,40.64075,1,1,7758,3879
4606,16162332,2,0.002083993,-0.0006815903,0.001863931,-0.1674511,0.2118689,-9.824718000000001,0,0,40.64072,1,1,7758,3879
4609,16165240,2,0.001356743,-0.0004814705,0.001397484,-0.1661259,0.2094591,-9.827655999999999,0,0,40.64072,1,1,7758,3879
4640,16167881,2,0.001028167,0.0001755451,-2.494352e-05,-0.166119,0.2063975,-9.828738,0,0,40.6407,1,1,7758,3879
4643,16169820,2,0.0009019279,0.001538674,-0.0008556825,-0.1669026,0.2030764,-9.827353,0,0,40.64067,1,1,7758,3879
4648,16172600,2,0.0004460607,0.002213508,-0.0006915623000000001,-0.1678177,0.1982693,-9.822016,0,0,40.64064,1,1,7758,3879
4651,16175027,2,-3.385025e-05,0.002235268,-0.0003874172,-0.1685952,0.1952326,-9.817719,0,0,40.64062,1,1,7758,3879
4682,16177935,2,0.0009412141,0.001647324,0.000131776,-0.1693611,0.1912061,-9.814996000000001,0,0,40.64055,1,1,7758,3879
4685,16180140,2,0.002150206,0.001388158,0.0003406304,-0.1702732,0.1894185,-9.81382,0,0,40.6405,1,1,7758,3879
4688,16182709,2,0.004197473,0.0007457401,0.0002829121,-0.1695715,0.1881227,-9.810184,0,0,40.64036,1,1,7758,3879
4691,16184716,2,0.005096735,0.0001945059,-0.0006705077,-0.1681543,0.1880095,-9.80823,0,0,40.64025,1,1,7758,3879
4722,16187360,2,0.003993253,-0.001207432,-0.001548101,-0.1664263,0.1894425,-9.806927,0,0,40.64016,1,1,7758,3879
4725,16190149,2,0.003129116,-0.0011478,-0.00160918,-0.1664425,0.1920203,-9.806537000000001,0,0,40.64009,1,1,7758,3879
4732,16192866,2,0.002352027,-0.0002488528,-4.840507e-05,-0.1669995,0.1969312,-9.807558999999999,0,0,40.64,1,1,7758,3879
4736,16195247,2,0.002796051,-0.0003154607,4.978343e-05,-0.1680904,0.1999717,-9.809388,0,0,40.63995,1,1,7758,3879
4767,16197457,2,0.003061644,-0.001068386,-8.058501e-05,-0.1710511,0.2023786,-9.810307999999999,0,0,40.63984,1,1,7758,3879
4770,16200101,2,0.002788392,-0.001153709,-0.0004908879000000001,-0.1729584,0.2027457,-9.809699,0,0,40.63978,1,1,7758,3879
4773,16202837,2,0.001809009,0.0001806391,-0.003257955,-0.1785166,0.2046359,-9.810430999999999,0,0,40.63966,1,1,7758,3879
4776,16204850,2,0.001770722,6.781759000000001e-05,-0.003362285,-0.1790097,0.2043427,-9.811902,0,0,40.63961,1,1,7758,3879
4807,16207880,2,0.002002722,-0.0003609956,-0.003002157,-0.1797307,0.200488,-9.816084,0,0,40.63952,1,1,7758,3879
4810,16209733,2,0.00203327,-0.0002460406,-0.00197965,-0.179258,0.1970278,-9.817447,0,0,40.63944,1,1,7758,3879
4814,16212313,2,0.001989076,-0.001383936,-0.00107921,-0.1761765,0.191414,-9.818892,0,0,40.63932,1,1,7758,3879
4818,16215179,2,0.0009770460000000001,-0.001863882,-0.0006516629,-0.1727805,0.1870975,-9.820334000000001,0,0,40.63928,1,1,7758,3879
4849,16217219,2,-0.0007125843,-0.001831533,-0.0007767156,-0.1685711,0.1821458,-9.824192,0,0,40.63921,1,1,7758,3879
4852,16219901,2,-0.001387,-0.001888849,-0.0009664549,-0.1667804,0.1806614,-9.825236,0,0,40.63918,1,1,7758,3879
4855,16222663,2,-0.001530746,-0.002301138,-0.001524288,-0.1655086,0.1809537,-9.825961,0,0,40.63911,1,1,7758,3879
4858,16225254,2,-0.001612198,-0.00234318,-0.002272461,-0.1650605,0.1822682,-9.826695000000001,0,0,40.63908,1,1,7758,3879
4889,16228018,2,-0.0001856317,-0.0006314041,-0.002560904,-0.1661656,0.1844001,-9.827686999999999,0,0,40.63899,1,1,7758,3879
4892,16229776,2,0.0008258481,0.001132858,-0.003093854,-0.1684118,0.1871318,-9.827484999999999,0,0,40.63893,1,1,7758,3879
4896,16232306,2,0.001659656,0.001524121,-0.00377355,-0.1726432,0.1904487,-9.829610000000001,0,0,40.63881,1,1,7758,3879
4899,16235553,2,0.001995822,0.0007880488,-0.004215603,-0.174976,0.1915378,-9.831289,0,0,40.63871,1,1,7758,3879
4930,16237672,2,0.001671867,0.0008176231,-0.004452712,-0.1759122,0.1909752,-9.833963000000001,0,0,40.63858,1,1,7758,3879
4933,16242724,2,0.0003555932,0.001278985,-0.004917069,-0.1702976,0.1874452,-9.846048,0,0,40.63832,1,1,7758,3879
4937,16245069,2,0.000331974,0.001270476,-0.004519915,-0.1676755,0.1864844,-9.849228,0,0,40.63818,1,1,7758,3879
4968,16249784,2,0.0001716888,0.001499313,-0.004758126,-0.1648208,0.1826434,-9.847918999999999,0,0,40.63792,1,1,7758,3879
4971,16252731,2,0.0002972247,0.0003719756,-0.00533552,-0.1624648,0.1819432,-9.847671999999999,0,0,40.63781,1,1,7758,3879
4974,16255103,2,5.749092e-05,7.056471999999999e-05,-0.005174325,-0.1609287,0.182047,-9.847163,0,0,40.63772,1,1,7758,3879
5005,16257158,2,-0.00115413,-0.0005617909,-0.004751228,-0.1626993,0.185316,-9.843648,0,0,40.6376,1,1,7758,3879
5008,16260453,2,-0.002611814,-0.0003702658,-0.003567215,-0.1638558,0.186414,-9.841891,0,0,40.63752,1,1,7758,3879
5011,16262289,2,-0.00273227,0.0002856071,-0.001493503,-0.1681946,0.1892475,-9.836126999999999,0,0,40.63741,1,1,7758,3879
5016,16264866,2,-0.0008697968,0.0006918859,-0.001206269,-0.17115,0.1907595,-9.831448,0,0,40.6373,1,1,7758,3879
5047,16268054,2,0.0008908069,0.001032186,-0.0012658,-0.1768929,0.1912186,-9.827978999999999,0,0,40.63718,1,1,7758,3879
5050,16269896,2,0.001233959,0.001465739,-0.001141664,-0.17978,0.1911022,-9.826693000000001,0,0,40.63706,1,1,7758,3879
5054,16272576,2,0.0001517198,0.001839675,-0.0004889537,-0.1802924,0.1907961,-9.823873000000001,0,0,40.63694,1,1,7758,3879
5058,16275239,2,-0.0004469857,0.00116188,-0.000109669,-0.1770265,0.1886853,-9.821619,0,0,40.63686,1,1,7758,3879
5089,16277857,2,-0.002084288,0.0005639254,3.784469e-05,-0.1682402,0.1845216,-9.817045999999999,0,0,40.63673,1,1,7758,3879
5092,16279747,2,-0.002678498,0.001146514,0.000433328,-0.1620279,0.1822036,-9.815863,0,0,40.63661,1,1,7758,3879
5095,16282270,2,-0.002347811,0.001055646,0.001252854,-0.1526008,0.1819555,-9.813211000000001,0,0,40.63646,1,1,7758,3879
5098,16284787,2,-0.002425544,0.0001585057,0.001185226,-0.1471199,0.1841906,-9.810908,0,0,40.63638,1,1,7758,3879
5129,16288033,2,-0.003388614,-0.001156386,0.001898503,-0.1418613,0.1919426,-9.810407,0,0,40.63623,1,1,7758,3879
5132,16290175,2,-0.00332227,-0.001263688,0.001654797,-0.1393858,0.1993167,-9.813409999999999,0,0,40.63614,1,1,7758,3879
5138,16292808,2,-0.002725078,-0.002023086,0.0007447958,-0.1393877,0.2072401,-9.817837000000001,0,0,40.63607,1,1,7758,3879
5143,16294869,2,-0.003071411,-0.002603317,0.0007973298,-0.140721,0.2139083,-9.820790000000001,0,0,40.63604,1,1,7758,3879
5174,16298028,2,-0.003104614,-0.001981694,0.001223294,-0.143617,0.2195189,-9.823394,0,0,40.63599,1,1,7758,3879
5177,16299672,2,-0.002110713,-0.001299612,0.001413199,-0.1458009,0.2203039,-9.824844000000001,0,0,40.63596,1,1,7758,3879
5180,16302710,2,0.0001747451,-0.001689422,0.001787092,-0.149616,0.2201396,-9.827429,0,0,40.63591,1,1,7758,3879
5184,16304940,2,0.001318522,-0.001587354,0.00324143,-0.1530968,0.2202068,-9.830401999999999,0,0,40.63588,1,1,7758,3879
5215,16307257,2,0.002187059,-0.001596201,0.004753824,-0.1566902,0.2190976,-9.835426,0,0,40.63583,1,1,7758,3879
5218,16310165,2,0.002253601,-0.001789596,0.004977759,-0.1583475,0.2169978,-9.840033999999999,0,0,40.63579,1,1,7758,3879
5221,16312682,2,0.001173576,-0.001255823,0.004221204,-0.1624042,0.2119069,-9.842155,0,0,40.63574,1,1,7758,3879
5225,16315228,2,0.000941562,-0.001504178,0.003119876,-0.1635498,0.2086461,-9.840607,0,0,40.6357,1,1,7758,3879
5256,16317275,2,7.833033e-05,-0.002631048,0.001518424,-0.1614736,0.2068635,-9.837629,0,0,40.63565,1,1,7758,3879
5259,16319794,2,0.0003661707,-0.003700787,0.0001339307,-0.1591422,0.2082104,-9.83666,0,0,40.63559,1,1,7758,3879
5262,16322821,2,0.001088739,-0.003998502,-0.0002279518,-0.1561958,0.2110025,-9.8362,0,0,40.63552,1,1,7758,3879
5265,16324906,2,0.0004800216,-0.003178479,-0.0006540668,-0.1553276,0.2111408,-9.835423,0,0,40.63549,1,1,7758,3879
5296,16327860,2,0.0006924079,-0.002312524,0.0003960395,-0.1535653,0.2102327,-9.834606000000001,0,0,40.63543,1,1,7758,3879
5301,16330026,2,0.001300359,-0.001392713,0.001532863,-0.1517629,0.2087039,-9.833734,0,0,40.63539,1,1,7758,3879
5304,16332752,2,0.0006573148,-0.0008666365,0.001694807,-0.1485088,0.2054658,-9.834860000000001,0,0,40.63532,1,1,7758,3879
5308,16337245,2,0.0005658543,-0.002923023,0.001459068,-0.1469237,0.2033762,-9.838085,0,0,40.63523,1,1,7758,3879
5339,16342279,2,0.0005794502,-0.00146086,0.00059444,-0.1545525,0.2058122,-9.844158,0,0,40.63519,1,1,7758,3879
5342,16345301,2,0.001100631,5.200056e-06,0.000578117,-0.1584729,0.2048097,-9.844443,0,0,40.63517,1,1,7758,3879
5345,16347366,2,0.001379691,0.000668833,0.0003589198,-0.1635901,0.2020404,-9.839143999999999,0,0,40.63515,1,1,7758,3879
5376,16349809,2,0.000678411,0.0007463417,-0.0004815742,-0.1664505,0.1998726,-9.837666,0,0,40.63514,1,1,7758,3879
5379,16352319,2,0.0003918567,0.0006236186,-0.001738874,-0.168299,0.1955131,-9.836864,0,0,40.63509,1,1,7758,3879
5384,16355241,2,0.0005434829,0.0002882482,-0.001917048,-0.1687063,0.1915256,-9.837565,0,0,40.63505,1,1,7758,3879
5387,16358294,2,0.0006224893,-0.0002107382,-0.0002920263,-0.1675363,0.1873703,-9.838502,0,0,40.63498,1,1,7758,3879
5390,16359645,2,0.0006057526,-0.0004167886,0.0001443569,-0.1652589,0.1840585,-9.840182,0,0,40.63493,1,1,7758,3879
5421,16362276,2,0.0003600955,-0.0007600523,9.712638e-05,-0.1633174,0.1811035,-9.843434999999999,0,0,40.63485,1,1,7758,3879
5425,16364700,2,0.0005381937,-0.0006562687,-0.0002757159,-0.1647703,0.1808124,-9.844440000000001,0,0,40.63481,1,1,7758,3879
5428,16367818,2,0.00123269,0.0004757665,-0.001741584,-0.168907,0.1828594,-9.844419,0,0,40.63472,1,1,7758,3879
5431,16370260,2,0.002445996,0.0005107509,-0.002412379,-0.1707793,0.1851951,-9.844835,0,0,40.63467,1,1,7758,3879
5462,16372585,2,0.004676954,0.0007159910999999999,-0.002636607,-0.1730255,0.1906899,-9.843794000000001,0,0,40.63459,1,1,7758,3879
5465,16374884,2,0.005566029,0.0007824225,-0.002032452,-0.1741492,0.1953268,-9.842468999999999,0,0,40.63454,1,1,7758,3879
5468,16377474,2,0.004755365,0.001505468,-0.00124283,-0.1750149,0.1995731,-9.841377,0,0,40.63447,1,1,7758,3879
5471,16380269,2,0.004332654,0.002094434,-0.00108388,-0.1736801,0.1988822,-9.84098,0,0,40.63441,1,1,7758,3879
5502,16382906,2,0.004317015,0.002517457,-0.002199133,-0.1707025,0.1955691,-9.838201,0,0,40.63433,1,1,7758,3879
5506,16384771,2,0.003984932,0.002064798,-0.00426574,-0.1689447,0.1921407,-9.833987,0,0,40.63429,1,1,7758,3879
5510,16387304,2,0.002594219,0.001469446,-0.004236489,-0.1679469,0.1885243,-9.830963000000001,0,0,40.63423,1,1,7758,3879
5513,16389672,2,0.001318024,0.001227965,-0.003065628,-0.167751,0.1857744,-9.830634,0,0,40.63419,1,1,7758,3879
5547,16393009,2,0.001129269,0.0004364523,-0.002625114,-0.165783,0.1844953,-9.829814000000001,0,0,40.63413,1,1,7758,3879
5551,16395247,2,0.001410802,-0.0001637609,-0.002020206,-0.1655276,0.1826236,-9.828268,0,0,40.63409,1,1,7758,3879
5554,16397346,2,0.001490352,-0.0002190508,-0.001136218,-0.1690419,0.181412,-9.829442,0,0,40.63404,1,1,7758,3879
5557,16399814,2,0.001205054,0.0004464736,-0.00172254,-0.1729541,0.1823415,-9.832152000000001,0,0,40.63401,1,1,7758,3879
5588,16403119,2,0.00161523,0.0006854605,-0.003743434,-0.1785552,0.1836278,-9.833943,0,0,40.63398,1,1,7758,3879
5592,16404895,2,0.002753437,0.0005449305,-0.004047117,-0.1810058,0.1841716,-9.831136000000001,0,0,40.63397,1,1,7758,3879
5596,16407846,2,0.003326567,-0.000253547,-0.003117005,-0.183937,0.1854766,-9.823840000000001,0,0,40.63393,1,1,7758,3879
5599,16409924,2,0.003015605,0.0001494693,-0.001876508,-0.1848775,0.1853582,-9.820235,0,0,40.6339,1,1,7758,3879
5630,16412309,2,0.002233067,0.0001868829,-0.0002430921,-0.1844012,0.1843571,-9.821393,0,0,40.63387,1,1,7758,3879
5634,16415081,2,0.00127522,-0.0003964301,-0.0008208,-0.183376,0.1842687,-9.824477999999999,0,0,40.63384,1,1,7758,3879
5637,16417401,2,-0.0001119094,-0.001643037,-0.001229692,-0.1822585,0.1842873,-9.82681,0,0,40.63381,1,1,7758,3879
5640,16420019,2,-0.001031833,-0.00246845,-0.001776038,-0.1808697,0.1844185,-9.826657000000001,0,0,40.6338,1,1,7758,3879
5671,16422634,2,-0.000958241,-0.002329872,-0.002294966,-0.1801693,0.1849157,-9.824615,0,0,40.6338,1,1,7758,3879
5674,16425040,2,2.478185e-05,-0.001374238,-0.002394317,-0.1797781,0.1866695,-9.824731999999999,0,0,40.63381,1,1,7758,3879
5677,16427895,2,0.001741004,-0.0001027208,-0.002222039,-0.1793046,0.1898293,-9.821135999999999,0,0,40.63382,1,1,7758,3879
5680,16429695,2,0.001575939,6.320507999999999e-05,-0.001057366,-0.1802305,0.1912117,-9.816077999999999,0,0,40.63382,1,1,7758,3879
5711,16432330,2,0.0009394442,-0.0001522414,-0.0004228039,-0.1820452,0.1938674,-9.80986,0,0,40.63385,1,1,7758,3879
5715,16440065,2,-0.000963265,-0.0024258,0.0003821436,-0.1798951,0.1949847,-9.822927999999999,0,0,40.63394,1,1,7758,3879
5746,16442768,2,-0.0003858803,-0.002011361,0.0001111665,-0.178712,0.1931528,-9.825606000000001,0,0,40.63394,1,1,7758,3879
5749,16445222,2,0.0002904726,-0.001135786,0.001480369,-0.1774393,0.1891745,-9.82776,0,0,40.63393,1,1,7758,3879
5752,16448102,2,-5.187303e-05,-0.00143537,0.002561338,-0.1769148,0.1866315,-9.828485000000001,0,0,40.63392,1,1,7758,3879
5756,16450883,2,-0.0003012624,-0.0006401279,0.003377874,-0.1770536,0.1834051,-9.829179999999999,0,0,40.63391,1,1,7758,3879
5787,16453016,2,-0.001033981,0.0003581315,0.00293414,-0.1756652,0.1775108,-9.832157,0,0,40.63391,1,1,7758,3879
5791,16455696,2,-0.001061111,0.0004246509,0.002404621,-0.1752381,0.174531,-9.836307,0,0,40.63391,1,1,7758,3879
5794,16458290,2,-0.001593008,-0.000342088,0.0006396359,-0.1752025,0.1737788,-9.843743999999999,0,0,40.6339,1,1,7758,3879
5797,16461312,2,-0.002177206,-0.001623753,0.000699098,-0.1755724,0.1757127,-9.848382000000001,0,0,40.63389,1,1,7758,3879
5828,16463869,2,-0.002125271,-0.002076396,0.00198047,-0.1767111,0.1806564,-9.850004,0,0,40.6339,1,1,7758,3879
5831,16465736,2,-0.001275781,-0.001335053,0.002085421,-0.1765365,0.1834947,-9.847097,0,0,40.63391,1,1,7758,3879
5834,16468738,2,-0.001320507,-0.001068788,0.00193643,-0.1768851,0.1866301,-9.844156,0,0,40.63393,1,1,7758,3879
5837,16470901,2,-0.001897837,-0.0006465471,0.002501168,-0.176654,0.1896688,-9.844543,0,0,40.63394,1,1,7758,3879
5868,16473624,2,-0.001703607,0.0003344477,0.002584857,-0.1735682,0.1932493,-9.846514000000001,0,0,40.63398,1,1,7758,3879
5872,16476120,2,-0.0008476655,0.0008165028,0.001287793,-0.171399,0.1971161,-9.850749,0,0,40.63399,1,1,7758,3879
5876,16478375,2,-0.0003612639,0.0005269466,0.0008076518,-0.1681103,0.2048741,-9.855866000000001,0,0,40.63401,1,1,7758,3879
5879,16480694,2,-0.001635093,0.000379828,0.001315868,-0.1672933,0.2070737,-9.855975000000001,0,0,40.63403,1,1,7758,3879
5910,16483100,2,-0.002855378,0.0001491472,0.00133348,-0.1652959,0.2103512,-9.853368,0,0,40.63404,1,1,7758,3879
5914,16486056,2,-0.002583139,0.0003994005,0.0008990935,-0.1667017,0.2111026,-9.851513000000001,0,0,40.63404,1,1,7758,3879
5917,16488409,2,-0.002078344,0.001422081,-0.0007817255,-0.1723859,0.2133379,-9.845969,0,0,40.63404,1,1,7758,3879
5921,16491058,2,-0.002246478,0.001464582,-0.001275474,-0.1766394,0.2160749,-9.839862999999999,0,0,40.63401,1,1,7758,3879
5955,16493906,2,-0.003401346,0.001592741,-0.001393334,-0.1820074,0.2187054,-9.829772,0,0,40.63396,1,1,7758,3879
5959,16495921,2,-0.00359152,0.001360791,-0.0004849774,-0.1838338,0.2201727,-9.824512,0,0,40.63393,1,1,7758,3879
5962,16498878,2,-0.002552351,0.001066888,0.0002426336,-0.1863448,0.2223666,-9.818555999999999,0,0,40.63387,1,1,7758,3879
5965,16500889,2,-0.001473447,0.0006380091,0.0006177025,-0.1874394,0.2239661,-9.815991,0,0,40.63384,1,1,7758,3879
5996,16503292,2,0.0002756923,0.0003033865,0.0003543044,-0.1876611,0.2264411,-9.813947000000001,0,0,40.6338,1,1,7758,3879
6000,16506142,2,0.0007413597000000001,0.0009758523,0.0003963565,-0.1873704,0.2284322,-9.814385,0,0,40.63379,1,1,7758,3879
6003,16508433,2,0.0009989095,0.001569685,0.0003936453,-0.183521,0.2323007,-9.816058999999999,0,0,40.63379,1,1,7758,3879
6006,16511096,2,0.001778744,0.001481857,-0.0002175737,-0.18026,0.2340551,-9.819615000000001,0,0,40.6338,1,1,7758,3879
6039,16513757,2,0.003076287,0.001767998,-0.001372494,-0.1762106,0.2343536,-9.822979999999999,0,0,40.63381,1,1,7758,3879
6042,16516245,2,0.003062661,0.002201584,-0.00137141,-0.1696144,0.2328013,-9.823238,0,0,40.63385,1,1,7758,3879
6045,16518787,2,0.0026462,0.001706116,-0.0008167936,-0.1651317,0.2305385,-9.821896000000001,0,0,40.63388,1,1,7758,3879
6048,16521212,2,0.002891868,0.001047591,-0.001581196,-0.1606564,0.2278634,-9.821749000000001,0,0,40.63394,1,1,7758,3879
6079,16524030,2,0.003845347,0.001598644,-0.002473156,-0.1600047,0.2260005,-9.822846,0,0,40.63398,1,1,7758,3879
6083,16526086,2,0.004199773,0.002177591,-0.003651557,-0.1593353,0.2233764,-9.826165,0,0,40.63405,1,1,7758,3879
6086,16529234,2,0.00406408,0.002908963,-0.003045014,-0.1587334,0.2205569,-9.827442,0,0,40.63408,1,1,7758,3879
6092,16531860,2,0.004511696,0.002612531,-0.003145774,-0.1587709,0.2162321,-9.825813,0,0,40.63417,1,1,7758,3879
6123,16534009,2,0.004057457,0.002229846,-0.003398546,-0.1596211,0.2132736,-9.819374,0,0,40.63424,1,1,7758,3879
6126,16539695,2,0.004866662,0.00171998,-0.002322455,-0.1607581,0.2090756,-9.807209,0,0,40.63434,1,1,7758,3879
6129,16541845,2,0.005967406,0.001490809,-0.002272989,-0.161265,0.2081875,-9.804766000000001,0,0,40.63438,1,1,7758,3879
6160,16543916,2,0.00634495,0.001194566,-0.003751357,-0.1607681,0.207795,-9.805113,0,0,40.63446,1,1,7758,3879
6163,16546662,2,0.005947843,0.0006397406,-0.004353738,-0.1595466,0.2071644,-9.806948999999999,0,0,40.63451,1,1,7758,3879
6166,16549549,2,0.005333214,-0.0006591018,-0.003880881,-0.156651,0.2075649,-9.810112999999999,0,0,40.63458,1,1,7758,3879
6169,16551963,2,0.005047196,-0.001755647,-0.003133936,-0.1549878,0.2087238,-9.811145,0,0,40.63462,1,1,7758,3879
6200,16555116,2,0.004445538,-0.002634801,-0.003167099,-0.1525116,0.2091425,-9.812290000000001,0,0,40.63469,1,1,7758,3879
6203,16556591,2,0.005306788,-0.002990512,-0.002875736,-0.1523846,0.2088835,-9.813867999999999,0,0,40.63473,1,1,7758,3879
6206,16559448,2,0.005801266,-0.002560757,-0.0008456961,-0.1524282,0.2092926,-9.816525,0,0,40.6348,1,1,7758,3879
6209,16562256,2,0.005256505,-0.001946524,-0.0001875815,-0.152751,0.2085173,-9.816432000000001,0,0,40.63483,1,1,7758,3879
6240,16564260,2,0.003691202,-0.001737991,0.00144877,-0.1539498,0.2069534,-9.816725999999999,0,0,40.63489,1,1,7758,3879
6244,16568118,2,0.003031984,-0.001739302,0.002264757,-0.1556214,0.2050594,-9.819966000000001,0,0,40.63491,1,1,7758,3879
6247,16569308,2,0.003599998,-0.00178818,0.00230304,-0.1574723,0.2004005,-9.828218,0,0,40.63492,1,1,7758,3879
6250,16572193,2,0.003568667,-0.001863332,0.00177156,-0.1578825,0.1965499,-9.835243,0,0,40.63493,1,1,7758,3879
6281,16574867,2,0.0007571875,-0.003083422,0.002234024,-0.1575781,0.1927173,-9.841004,0,0,40.63493,1,1,7758,3879
6285,16577060,2,-0.002126225,-0.004000691,0.001260611,-0.156705,0.1889648,-9.845014000000001,0,0,40.63494,1,1,7758,3879
6288,16579863,2,-0.003395398,-0.004766886,0.0007236726,-0.1554845,0.1820712,-9.848822,0,0,40.63497,1,1,7758,3879
6291,16582212,2,-0.003090062,-0.00523396,0.0008366851999999999,-0.1541284,0.1778481,-9.851327,0,0,40.63501,1,1,7758,3879
6322,16584582,2,-0.002549094,-0.004520036,5.908647e-05,-0.1510991,0.1721177,-9.85284,0,0,40.63507,1,1,7758,3879
6325,16587428,2,-0.003109412,-0.003555065,-0.0002398357,-0.1503577,0.1697576,-9.852949000000001,0,0,40.63512,1,1,7758,3879
6329,16589661,2,-0.005117455,-0.002755641,4.629589e-05,-0.1510148,0.1694375,-9.85413,0,0,40.63516,1,1,7758,3879
6332,16592597,2,-0.00594074,-0.00163861,0.0002993281,-0.1523248,0.1714284,-9.854927,0,0,40.63518,1,1,7758,3879
6366,16594755,2,-0.005443073,-0.0006279809,-0.0002395503,-0.1534497,0.1776578,-9.853393000000001,0,0,40.63521,1,1,7758,3879
6371,16597458,2,-0.003599552,-0.0008085100999999999,-0.001004622,-0.1541486,0.1836971,-9.849748999999999,0,0,40.63525,1,1,7758,3879
6374,16600137,2,-0.002410358,-0.0008158918,-0.002003497,-0.1553805,0.1862967,-9.846698999999999,0,0,40.63529,1,1,7758,3879
6378,16602264,2,-0.003478051,-0.0005777201,-0.001678645,-0.1583641,0.1864991,-9.845252,0,0,40.63534,1,1,7758,3879
6412,16605464,2,-0.004914557,2.756117e-06,-0.0003804603,-0.1593949,0.1851921,-9.846142,0,0,40.63538,1,1,7758,3879
6415,16607603,2,-0.007124935,0.001051309,0.002469601,-0.1610008,0.1771879,-9.852641,0,0,40.63543,1,1,7758,3879
6418,16609701,2,-0.007505257,0.001293602,0.00271866,-0.1619045,0.1708146,-9.856673000000001,0,0,40.63544,1,1,7758,3879
6422,16612841,2,-0.008955065999999999,0.002225501,0.002356834,-0.1656318,0.1627876,-9.861891,0,0,40.63546,1,1,7758,3879
6453,16615208,2,-0.01088452,0.00241455,0.001327795,-0.1713295,0.1607786,-9.867156,0,0,40.63547,1,1,7758,3879
6457,16617853,2,-0.01188572,0.002111773,6.214272e-05,-0.1758157,0.1625308,-9.866906,0,0,40.63548,1,1,7758,3879
6460,16619751,2,-0.01252119,0.002127732,-0.001216536,-0.180265,0.1662946,-9.862278,0,0,40.6355,1,1,7758,3879
6463,16622684,2,-0.01171299,0.002358688,-0.000884291,-0.1835233,0.1735881,-9.851155,0,0,40.63555,1,1,7758,3879
6494,16624653,2,-0.01030634,0.002669919,-0.0003903932,-0.1836087,0.1794412,-9.844804999999999,0,0,40.6356,1,1,7758,3879
6497,16628193,2,-0.007933384,0.003469166,-0.0003212818,-0.1830684,0.1885684,-9.838222,0,0,40.63564,1,1,7758,3879
6500,16630132,2,-0.006350003,0.003355784,-0.0008866667,-0.1825235,0.1944976,-9.837218999999999,0,0,40.63568,1,1,7758,3879
6504,16632679,2,-0.005336464,0.002921868,-0.001674347,-0.181474,0.201782,-9.841623,0,0,40.63572,1,1,7758,3879
6535,16634799,2,-0.005504937,0.0023069,-0.001795994,-0.1801895,0.2058227,-9.843324000000001,0,0,40.63573,1,1,7758,3879
6539,16639719,2,-0.004536896,0.00116435,-0.0006644973,-0.1745031,0.2151014,-9.835671,0,0,40.63583,1,1,7758,3879
6542,16644869,2,-0.002316402,0.0009668396,0.00111043,-0.1649237,0.2173695,-9.823100999999999,0,0,40.63596,1,1,7758,3879
6574,16647428,2,-0.002543522,0.0001613902,0.001347658,-0.1618901,0.2162922,-9.821688,0,0,40.636,1,1,7758,3879
6577,16650148,2,-0.003101109,-0.0005684771,0.00160114,-0.1596814,0.2142165,-9.82077,0,0,40.63603,1,1,7758,3879
6580,16652651,2,-0.002981672,-0.001437659,0.001253633,-0.1551833,0.2097464,-9.821795,0,0,40.63609,1,1,7758,3879
6583,16655163,2,-0.002329142,-0.001415693,0.001019074,-0.1531791,0.2069673,-9.823304,0,0,40.63614,1,1,7758,3879
6614,16657218,2,-0.0006946062,-0.001435218,0.0008131431,-0.1513177,0.2037154,-9.822812000000001,0,0,40.63623,1,1,7758,3879
6617,16659743,2,0.0004050474,-0.001320192,0.000353117,-0.1503202,0.2018527,-9.823289000000001,0,0,40.63628,1,1,7758,3879
6620,16662900,2,0.002155616,4.621337e-05,-0.0006559224,-0.1498682,0.2010763,-9.821628,0,0,40.63637,1,1,7758,3879
6623,16665412,2,0.003340025,0.0005749707,-0.0009696301,-0.1505925,0.2025826,-9.818661000000001,0,0,40.63647,1,1,7758,3879
6654,16667669,2,0.004295013,6.879904000000001e-05,-0.002101324,-0.1522593,0.2069844,-9.816266000000001,0,0,40.6366,1,1,7758,3879
6658,16669753,2,0.003882231,-0.0008730298,-0.002568281,-0.1532538,0.2088483,-9.816171000000001,0,0,40.63667,1,1,7758,3879
6662,16672870,2,0.004416884,-0.002201482,-0.002456436,-0.1561389,0.2147965,-9.817410000000001,0,0,40.63679,1,1,7758,3879
6665,16675233,2,0.005172647,-0.003367389,-0.002234424,-0.1585862,0.2172138,-9.818839000000001,0,0,40.63686,1,1,7758,3879
6696,16678083,2,0.006439042,-0.004154402,-0.0007234521,-0.1621708,0.2176516,-9.822117,0,0,40.63697,1,1,7758,3879
6699,16679734,2,0.007306799,-0.00406586,0.0002229772,-0.1636934,0.2153689,-9.824203000000001,0,0,40.63705,1,1,7758,3879
6702,16682252,2,0.007918357000000001,-0.003671872,0.0003042616,-0.1656515,0.2091141,-9.826254,0,0,40.63721,1,1,7758,3879
6705,16684664,2,0.008443421,-0.004069789,-0.0007111643,-0.167481,0.2037023,-9.827754000000001,0,0,40.63729,1,1,7758,3879
6736,16688099,2,0.008841015000000001,-0.005336826,-0.001262787,-0.1726563,0.1956781,-9.82804,0,0,40.6374,1,1,7758,3879
6741,16690085,2,0.008492464,-0.005870069,-0.0006033142,-0.1747103,0.191734,-9.828568000000001,0,0,40.63746,1,1,7758,3879
6744,16692630,2,0.007326925,-0.005279345,-0.0003607449,-0.1755046,0.1880202,-9.833273999999999,0,0,40.63757,1,1,7758,3879
6750,16694935,2,0.006949195,-0.004977361,-0.0006178975,-0.1753041,0.1864393,-9.837861999999999,0,0,40.63765,1,1,7758,3879
6782,16697867,2,0.006993731,-0.004481528,-0.0007361555,-0.1746372,0.1853289,-9.841988000000001,0,0,40.63774,1,1,7758,3879
6786,16700234,2,0.007264211,-0.003893668,0.0002062817,-0.1738339,0.1842044,-9.841194,0,0,40.63781,1,1,7758,3879
6789,16702741,2,0.007409309,-0.002836347,0.0001230337,-0.1721748,0.1831484,-9.837256999999999,0,0,40.63791,1,1,7758,3879
6792,16704661,2,0.007409526,-0.002680269,7.301159e-06,-0.1707705,0.1830623,-9.832489000000001,0,0,40.63797,1,1,7758,3879
6823,16707314,2,0.007489757,-0.002791609,0.0007670709,-0.1682276,0.1850455,-9.826772,0,0,40.63804,1,1,7758,3879
6827,16709681,2,0.006505408,-0.003617352,0.001353363,-0.1673463,0.1868998,-9.824558,0,0,40.63809,1,1,7758,3879
6830,16712604,2,0.006274163,-0.003664784,0.00163271,-0.1673203,0.191014,-9.824551,0,0,40.63816,1,1,7758,3879
6833,16715054,2,0.006765795,-0.002983352,0.001904709,-0.1680705,0.1950668,-9.826243,0,0,40.6382,1,1,7758,3879
