LineNo,TimeUS,I,GyrX,GyrY,GyrZ,AccX,AccY,AccZ,EG,EA,T,GH,AH,GHz,AHz
186,1.5037e+07,1,-0.0022959,-0.0059619,0.0022343,-0.30132,0.071586,-9.7584,0,0,45.578,1,1,754,996
217,1.504e+07,1,-0.0011056,-0.0048033,0.00052379,-0.29473,0.059753,-9.7677,0,0,45.578,1,1,754,996
289,1.5071e+07,1,0.0042481,-0.00080095,-0.00019092,-0.31761,0.14295,-9.849,0,0,45.578,1,1,754,996
320,1.5073e+07,1,0.0029403,0.00064468,0.00017773,-0.29765,0.1311,-9.8374,0,0,45.578,1,1,754,996
400,1.5091e+07,1,0.0052177,-0.0062141,0.0051055,-0.2742,-0.00092623,-9.7784,0,0,45.578,1,1,754,996
515,1.5112e+07,1,-0.0037181,0.0010667,0.010147,-0.32291,0.062384,-9.7374,0,0,45.578,1,1,754,996
631,1.5133e+07,1,0.0056747,0.0035002,0.0036133,-0.26451,0.11075,-9.7771,0,0,45.578,1,1,754,996
744,1.5149e+07,1,-0.0031342,-0.0062299,0.0025724,-0.25485,0.18102,-9.754,0,0,45.578,1,1,754,996
857,1.5165e+07,1,0.0014514,-0.0055028,-0.0029879,-0.24749,0.12542,-9.7694,0,0,45.578,1,1,754,996
970,1.5182e+07,1,-0.00020356,0.0057377,-0.0016842,-0.24517,0.12799,-9.7879,0,0,45.578,1,1,754,996
1083,1.5204e+07,1,-2.8338e-05,0.00076961,0.0049968,-0.32211,0.087948,-9.7276,0,0,45.578,1,1,754,996
1198,1.5256e+07,1,-0.0025189,0.0012252,0.010154,-0.34532,0.084279,-9.8506,0,0,45.579,1,1,754,996
1201,1.526e+07,1,-0.0026323,-0.001791,0.014602,-0.32271,0.10867,-9.7779,0,0,45.579,1,1,754,996
1310,1.533e+07,1,-0.0075431,0.00013203,0.0043546,-0.30468,0.13699,-9.8074,0,0,45.58,1,1,754,996
1404,1.5386e+07,1,-0.0056673,0.0014295,0.0040452,-0.24581,0.10616,-9.7299,0,0,45.58,1,1,754,996
1493,1.5401e+07,1,0.0013304,-0.0032475,0.0038686,-0.25228,0.024659,-9.7754,0,0,45.58,1,1,754,996
1585,1.5416e+07,1,-0.0029938,-0.00011669,-0.0011325,-0.26391,0.12866,-9.7211,0,0,45.58,1,1,754,996
1617,1.5418e+07,1,-0.00021158,-0.0027415,0.002057,-0.24919,0.13875,-9.709,0,0,45.58,1,1,754,996
1657,1.5421e+07,1,0.0029341,-0.0051008,0.0039177,-0.24775,0.13772,-9.7209,0,0,45.58,1,1,754,996
1660,1.5424e+07,1,0.0038033,-0.0045202,0.0028646,-0.24583,0.13917,-9.7297,0,0,45.58,1,1,754,996
1663,1.5426e+07,1,0.0029551,-0.0026642,0.0011355,-0.24534,0.13918,-9.7315,0,0,45.58,1,1,754,996
1695,1.5429e+07,1,0.0011952,-0.00038349,0.0020278,-0.24675,0.13433,-9.7404,0,0,45.58,1,1,754,996
1698,1.5432e+07,1,-0.00054541,-0.00081013,0.0047322,-0.2572,0.12155,-9.7331,0,0,45.58,1,1,754,996
1701,1.5434e+07,1,-0.0012547,-0.0012253,0.0054789,-0.27212,0.1202,-9.7227,0,0,45.58,1,1,754,996
1705,1.5436e+07,1,-0.00022309,0.00049456,0.0035775,-0.29596,0.11761,-9.7187,0,0,45.58,1,1,754,996
1736,1.5439e+07,1,0.00066849,0.0014798,0.0015969,-0.30189,0.11977,-9.7262,0,0,45.58,1,1,754,996
1739,1.5441e+07,1,9.4887e-05,0.00091838,0.00095879,-0.31218,0.12027,-9.7335,0,0,45.58,1,1,754,996
1742,1.5444e+07,1,0.00045431,0.0011252,0.00019864,-0.31772,0.12048,-9.7253,0,0,45.58,1,1,754,996
1745,1.5446e+07,1,0.0034609,0.0023469,-0.0022003,-0.32486,0.12077,-9.7121,0,0,45.58,1,1,754,996
1777,1.5449e+07,1,0.0036742,0.0029936,-0.0011715,-0.33118,0.12346,-9.7108,0,0,45.58,1,1,754,996
1780,1.5451e+07,1,0.0027583,0.0039356,0.0020801,-0.34198,0.11825,-9.6985,0,0,45.581,1,1,754,996
1783,1.5454e+07,1,0.001826,0.0036119,0.0026013,-0.3409,0.11017,-9.6754,0,0,45.581,1,1,754,996
1786,1.546e+07,1,0.0019216,-0.00049002,-0.0016468,-0.3088,0.097335,-9.6345,0,0,45.581,1,1,754,996
1817,1.5462e+07,1,0.0027361,0.00070844,-0.0030597,-0.28094,0.11199,-9.6422,0,0,45.581,1,1,754,996
1820,1.5465e+07,1,0.0035767,0.0020374,-0.0033402,-0.25048,0.12396,-9.6696,0,0,45.581,1,1,754,996
1823,1.5468e+07,1,0.0030155,0.0028708,-0.0025083,-0.23808,0.12621,-9.6961,0,0,45.581,1,1,754,996
1826,1.5471e+07,1,-0.002381,0.0037246,-0.0023613,-0.2331,0.11037,-9.7286,0,0,45.581,1,1,754,996
1829,1.5472e+07,1,-0.0037839,0.0039762,-0.0046655,-0.2366,0.091121,-9.7453,0,0,45.581,1,1,754,996
1861,1.5475e+07,1,-0.0049228,0.0053806,-0.008114,-0.25254,0.061131,-9.7364,0,0,45.581,1,1,754,996
1864,1.5477e+07,1,-0.0053851,0.005264,-0.0077883,-0.26839,0.049898,-9.713,0,0,45.581,1,1,754,996
1868,1.548e+07,1,-0.0061638,0.0040613,-0.003939,-0.28427,0.040023,-9.6802,0,0,45.581,1,1,754,996
1871,1.5483e+07,1,-0.0039329,0.00062346,0.0028384,-0.28719,0.042312,-9.6511,0,0,45.581,1,1,754,996
1903,1.5485e+07,1,-0.00033734,-0.0050576,0.0080053,-0.27969,0.054064,-9.6235,0,0,45.581,1,1,754,996
1909,1.5487e+07,1,0.00096219,-0.0094681,0.0093075,-0.27074,0.057889,-9.6131,0,0,45.581,1,1,754,996
1913,1.549e+07,1,0.002071,-0.012176,0.008786,-0.25004,0.068932,-9.6126,0,0,45.581,1,1,754,996
1916,1.5492e+07,1,0.0027176,-0.012176,0.0080511,-0.23218,0.071071,-9.6085,0,0,45.581,1,1,754,996
1947,1.5495e+07,1,0.0051634,-0.0041871,0.0043947,-0.21392,0.078173,-9.599,0,0,45.581,1,1,754,996
1950,1.5498e+07,1,0.0061666,-9.6935e-06,0.0035313,-0.21039,0.089289,-9.6164,0,0,45.581,1,1,754,996
1953,1.55e+07,1,0.0084139,0.0059853,0.0020838,-0.21587,0.098687,-9.6493,0,0,45.581,1,1,754,996
1956,1.5502e+07,1,0.0093345,0.0077425,0.0021507,-0.23329,0.10757,-9.6638,0,0,45.581,1,1,754,996
1988,1.5505e+07,1,0.0080928,0.0080535,0.0039047,-0.25342,0.11579,-9.6851,0,0,45.581,1,1,754,996
1991,1.5508e+07,1,0.0056616,0.0077592,0.0061354,-0.25169,0.11343,-9.7022,0,0,45.581,1,1,754,996
1994,1.551e+07,1,0.0042675,0.0051523,0.0053846,-0.23717,0.099446,-9.7168,0,0,45.581,1,1,754,996
1997,1.5513e+07,1,0.0037182,0.0037609,0.0037568,-0.22327,0.092088,-9.7003,0,0,45.581,1,1,754,996
2028,1.5515e+07,1,0.0020456,0.001863,0.00043402,-0.19924,0.098839,-9.6791,0,0,45.581,1,1,754,996
2031,1.5517e+07,1,0.00084418,0.0012106,-0.0010705,-0.19027,0.10342,-9.6893,0,0,45.581,1,1,754,996
2034,1.552e+07,1,0.00056668,0.0014532,-0.0015933,-0.17554,0.10586,-9.7265,0,0,45.581,1,1,754,996
2038,1.5523e+07,1,0.0020496,0.0012352,0.00025101,-0.16209,0.10157,-9.7489,0,0,45.581,1,1,754,996
2071,1.5525e+07,1,0.0050096,-0.0001639,0.0024287,-0.15413,0.10549,-9.7813,0,0,45.581,1,1,754,996
2075,1.5527e+07,1,0.006937,0.0014363,0.0011831,-0.15373,0.1262,-9.8003,0,0,45.581,1,1,754,996
2078,1.553e+07,1,0.0045962,0.0037556,-0.00025726,-0.16738,0.15757,-9.8248,0,0,45.581,1,1,754,996
2081,1.5536e+07,1,0.0056056,0.0064272,-0.0014444,-0.21296,0.16089,-9.8291,0,0,45.581,1,1,754,996
2084,1.5538e+07,1,0.0067302,0.0049828,0.0028172,-0.21322,0.15407,-9.8172,0,0,45.581,1,1,754,996
2118,1.554e+07,1,0.0057799,0.0030976,0.003862,-0.21443,0.14993,-9.799,0,0,45.581,1,1,754,996
2121,1.5543e+07,1,0.0051824,0.001585,0.0021649,-0.22105,0.14146,-9.7764,0,0,45.581,1,1,754,996
2124,1.5545e+07,1,0.004232,-0.0014176,-0.0014185,-0.23252,0.13135,-9.7611,0,0,45.581,1,1,754,996
2128,1.5548e+07,1,0.0033808,-0.00061579,-0.0030082,-0.23566,0.12606,-9.7486,0,0,45.581,1,1,754,996
2159,1.5551e+07,1,0.002445,0.0027824,-0.0041047,-0.22995,0.11569,-9.7537,0,0,45.581,1,1,754,996
2162,1.5553e+07,1,0.00099157,0.0043926,-0.0040347,-0.23032,0.10663,-9.7673,0,0,45.581,1,1,754,996
2165,1.5556e+07,1,-0.0002945,0.0018503,-0.0044074,-0.23202,0.088981,-9.7698,0,0,45.581,1,1,754,996
2168,1.5558e+07,1,-0.00042984,-0.00015119,-0.0050211,-0.23041,0.084226,-9.756,0,0,45.581,1,1,754,996
2200,1.5561e+07,1,-0.0031208,-0.0033454,-0.0061955,-0.22618,0.070933,-9.7313,0,0,45.582,1,1,754,996
2203,1.5563e+07,1,-0.0046523,-0.0033954,-0.0058619,-0.22653,0.066709,-9.7134,0,0,45.582,1,1,754,996
2206,1.5565e+07,1,-0.0079303,-0.0020081,-0.00048639,-0.21891,0.069876,-9.691,0,0,45.582,1,1,754,996
2209,1.5568e+07,1,-0.0072161,-0.0021563,0.0017528,-0.2109,0.076405,-9.6711,0,0,45.582,1,1,754,996
2241,1.5571e+07,1,-0.0046939,-0.004791,0.0053192,-0.20804,0.095313,-9.65,0,0,45.582,1,1,754,996
2244,1.5573e+07,1,-0.0023733,-0.0048117,0.0074698,-0.21427,0.11435,-9.6599,0,0,45.582,1,1,754,996
2247,1.5575e+07,1,-0.0028076,-0.0046619,0.009672,-0.23039,0.15442,-9.6775,0,0,45.582,1,1,754,996
2250,1.5578e+07,1,-0.002445,-0.0065563,0.0089005,-0.23938,0.18821,-9.6858,0,0,45.582,1,1,754,996
2281,1.558e+07,1,-0.00018866,-0.0070941,0.0055818,-0.25672,0.22163,-9.6901,0,0,45.582,1,1,754,996
2284,1.5583e+07,1,0.00093073,-0.0066758,0.0043386,-0.26569,0.22844,-9.6987,0,0,45.582,1,1,754,996
2288,1.5585e+07,1,0.0025471,-0.0036004,0.0029559,-0.26647,0.23111,-9.7212,0,0,45.582,1,1,754,996
2294,1.5588e+07,1,0.0021026,-0.0030041,0.0030995,-0.27226,0.22787,-9.7276,0,0,45.582,1,1,754,996
2326,1.559e+07,1,-0.0033037,-0.004627,0.0014278,-0.28679,0.2121,-9.7374,0,0,45.582,1,1,754,996
2330,1.5593e+07,1,-0.0043098,-0.0047219,-0.00051335,-0.30282,0.21275,-9.7493,0,0,45.582,1,1,754,996
2333,1.5596e+07,1,-0.0035434,-0.0025907,-0.0027335,-0.32828,0.21715,-9.7865,0,0,45.582,1,1,754,996
2336,1.5598e+07,1,-0.0024448,-0.0007572,-0.00054549,-0.34611,0.22115,-9.8173,0,0,45.582,1,1,754,996
2367,1.5601e+07,1,-0.0022895,-0.00027841,0.00050517,-0.36632,0.22237,-9.843,0,0,45.582,1,1,754,996
2371,1.5603e+07,1,-0.0032354,0.0031778,-0.0024453,-0.38231,0.20691,-9.8581,0,0,45.582,1,1,754,996
2374,1.5605e+07,1,-0.0037863,0.0063682,-0.0019523,-0.39044,0.19243,-9.8739,0,0,45.582,1,1,754,996
2377,1.5608e+07,1,-0.0023559,0.0070597,0.0026069,-0.39093,0.16614,-9.8693,0,0,45.582,1,1,754,996
2408,1.5611e+07,1,-0.00067102,0.0035828,0.0048967,-0.37403,0.1477,-9.8416,0,0,45.582,1,1,754,996
2415,1.5613e+07,1,0.00021341,-0.0016162,0.0058117,-0.34287,0.11708,-9.8042,0,0,45.582,1,1,754,996
2418,1.5616e+07,1,-5.9868e-06,-0.00322,0.0062626,-0.32232,0.10803,-9.7906,0,0,45.583,1,1,754,996
2421,1.5618e+07,1,0.0022936,-0.0052209,0.0079753,-0.30155,0.11077,-9.7915,0,0,45.583,1,1,754,996
2452,1.5621e+07,1,0.0034966,-0.0053662,0.0079906,-0.29623,0.11532,-9.7911,0,0,45.583,1,1,754,996
2455,1.5623e+07,1,0.005808,-0.0044605,0.0051426,-0.27859,0.12418,-9.7773,0,0,45.583,1,1,754,996
2458,1.5626e+07,1,0.0070519,-0.0031217,-0.00061605,-0.2755,0.1324,-9.7631,0,0,45.583,1,1,754,996
2461,1.5628e+07,1,0.007624,-0.0031583,-0.0053212,-0.27896,0.14425,-9.7416,0,0,45.583,1,1,754,996
2492,1.5631e+07,1,0.0073798,0.00020529,-0.0067608,-0.28855,0.14659,-9.7401,0,0,45.583,1,1,754,996
2496,1.5637e+07,1,-0.0020752,0.0077327,-0.0016804,-0.30039,0.14137,-9.7633,0,0,45.583,1,1,754,996
2499,1.5639e+07,1,-0.0046818,0.0065486,0.001509,-0.30741,0.14045,-9.7856,0,0,45.583,1,1,754,996
2530,1.5641e+07,1,-0.0027608,0.0051328,0.0064172,-0.31657,0.13483,-9.8296,0,0,45.583,1,1,754,996
2535,1.5644e+07,1,-0.00076145,0.004116,0.008867,-0.31762,0.12375,-9.8411,0,0,45.583,1,1,754,996
2538,1.5646e+07,1,0.00049251,0.0013631,0.0089272,-0.30524,0.10691,-9.8236,0,0,45.583,1,1,754,996
2542,1.5649e+07,1,-0.00013707,0.00068638,0.0071078,-0.3014,0.11025,-9.805,0,0,45.583,1,1,754,996
2573,1.5651e+07,1,0.00032597,0.00068605,0.0026977,-0.31604,0.12139,-9.7755,0,0,45.584,1,1,754,996
2576,1.5654e+07,1,-0.00018545,0.0026555,-0.00018089,-0.32095,0.11818,-9.7562,0,0,45.584,1,1,754,996
2579,1.5657e+07,1,-0.00034749,0.003201,-0.00099309,-0.31137,0.099162,-9.7578,0,0,45.584,1,1,754,996
2582,1.5659e+07,1,0.0015623,0.002909,-7.3771e-05,-0.30202,0.096125,-9.7678,0,0,45.584,1,1,754,996
2613,1.5661e+07,1,0.0044518,0.0025298,0.0032598,-0.29924,0.097227,-9.8121,0,0,45.584,1,1,754,996
2617,1.5664e+07,1,0.0064448,0.002434,0.0050642,-0.29157,0.092164,-9.8589,0,0,45.584,1,1,754,996
2620,1.5667e+07,1,0.0075598,0.0036521,0.0067493,-0.26948,0.089006,-9.9159,0,0,45.584,1,1,754,996
2623,1.5669e+07,1,0.0072079,0.0040816,0.0073605,-0.25896,0.090113,-9.9359,0,0,45.584,1,1,754,996
2654,1.5672e+07,1,0.0035702,0.0019037,0.0020275,-0.27478,0.08424,-9.9565,0,0,45.585,1,1,754,996
2657,1.5674e+07,1,0.0031215,0.0014723,-0.0026793,-0.29003,0.074092,-9.9555,0,0,45.585,1,1,754,996
2660,1.5676e+07,1,0.0031552,0.0019485,-0.0042556,-0.28959,0.064257,-9.9309,0,0,45.585,1,1,754,996
2663,1.5679e+07,1,0.0025952,0.0036484,-0.0055373,-0.28153,0.066929,-9.8987,0,0,45.585,1,1,754,996
2694,1.5682e+07,1,0.0034813,0.0052341,-0.0026364,-0.2685,0.050993,-9.8526,0,0,45.585,1,1,754,996
2698,1.5684e+07,1,0.0055242,0.0045595,0.002122,-0.26359,0.028826,-9.8316,0,0,45.585,1,1,754,996
2701,1.5686e+07,1,0.0069161,0.0038143,0.0060225,-0.27634,-0.0083492,-9.8088,0,0,45.585,1,1,754,996
2708,1.5689e+07,1,0.0071869,0.0036398,0.0066806,-0.29312,-0.020804,-9.8009,0,0,45.585,1,1,754,996
2740,1.5692e+07,1,0.0073635,0.003733,0.0064813,-0.30452,-0.010947,-9.7915,0,0,45.585,1,1,754,996
2743,1.5694e+07,1,0.007605,0.0034401,0.0032902,-0.30194,0.0019421,-9.773,0,0,45.585,1,1,754,996
2746,1.5697e+07,1,0.0076909,0.0020158,-1.1057e-05,-0.30418,0.015178,-9.7298,0,0,45.586,1,1,754,996
2749,1.5699e+07,1,0.0076758,0.0015329,-0.00083679,-0.31022,0.023881,-9.6987,0,0,45.586,1,1,754,996
2780,1.5701e+07,1,0.0067924,0.0014032,-0.0004967,-0.29305,0.051562,-9.668,0,0,45.586,1,1,754,996
2784,1.5704e+07,1,0.0047607,0.0010991,0.0018102,-0.27421,0.067889,-9.6501,0,0,45.586,1,1,754,996
2787,1.5707e+07,1,0.0011897,0.0034778,0.0050057,-0.22971,0.082728,-9.6482,0,0,45.586,1,1,754,996
2790,1.5709e+07,1,-0.0005815,0.0070152,0.0043671,-0.20415,0.093037,-9.6598,0,0,45.586,1,1,754,996
2821,1.5711e+07,1,-0.00017727,0.0087998,0.0032799,-0.20812,0.12604,-9.6899,0,0,45.586,1,1,754,996
2825,1.5714e+07,1,-0.00048302,0.0092904,0.0016573,-0.21576,0.14895,-9.6923,0,0,45.586,1,1,754,996
2828,1.5716e+07,1,-0.0020462,0.0080138,-0.00067959,-0.23286,0.16782,-9.6896,0,0,45.587,1,1,754,996
2831,1.5719e+07,1,-0.0014735,0.0074007,-0.0018126,-0.24803,0.1761,-9.6928,0,0,45.587,1,1,754,996
2862,1.5722e+07,1,0.0015646,0.0062747,-0.0032393,-0.27107,0.16619,-9.6929,0,0,45.587,1,1,754,996
2865,1.5724e+07,1,0.0036203,0.0039276,-0.0018597,-0.28491,0.15013,-9.6896,0,0,45.587,1,1,754,996
2868,1.5727e+07,1,0.0049542,0.0031889,0.00089785,-0.2914,0.12233,-9.6933,0,0,45.587,1,1,754,996
2871,1.5729e+07,1,0.0047101,0.0035341,0.0021903,-0.29687,0.10516,-9.7031,0,0,45.587,1,1,754,996
2902,1.5732e+07,1,0.002773,0.0031217,0.0006342,-0.30739,0.086676,-9.6998,0,0,45.587,1,1,754,996
2907,1.5735e+07,1,0.00045429,0.0015469,-0.0028768,-0.31044,0.074227,-9.688,0,0,45.587,1,1,754,996
2910,1.5737e+07,1,-0.0033373,-0.0005587,-0.0051284,-0.31804,0.074877,-9.68,0,0,45.587,1,1,754,996
2913,1.5739e+07,1,-0.0044502,-0.00056928,-0.0042748,-0.32244,0.083606,-9.6859,0,0,45.587,1,1,754,996
2946,1.5742e+07,1,-0.0024706,-0.0017249,0.0010125,-0.32438,0.093654,-9.7095,0,0,45.587,1,1,754,996
2949,1.5744e+07,1,-0.00060203,-0.0017017,0.0022578,-0.32335,0.096321,-9.7266,0,0,45.587,1,1,754,996
2952,1.5747e+07,1,0.0029516,-0.00038084,0.0046274,-0.32238,0.088829,-9.7448,0,0,45.587,1,1,754,996
2955,1.5749e+07,1,0.005403,-0.00092528,0.0060237,-0.30902,0.078276,-9.7498,0,0,45.587,1,1,754,996
2986,1.5752e+07,1,0.0066013,-0.0019729,0.0045272,-0.27723,0.056913,-9.7629,0,0,45.588,1,1,754,996
2991,1.5757e+07,1,0.0041642,-0.0025084,0.00090731,-0.22356,0.023677,-9.7928,0,0,45.588,1,1,754,996
2994,1.5759e+07,1,0.0025445,-0.0015326,0.0004644,-0.21294,0.026421,-9.8221,0,0,45.588,1,1,754,996
3025,1.5762e+07,1,-0.0012806,0.00038308,-0.00053962,-0.21196,0.039141,-9.8506,0,0,45.588,1,1,754,996
3029,1.5764e+07,1,-0.0056624,0.00060125,0.00055078,-0.21219,0.069286,-9.8768,0,0,45.588,1,1,754,996
3033,1.5766e+07,1,-0.0071334,0.00093421,0.0020049,-0.21683,0.089897,-9.8825,0,0,45.588,1,1,754,996
3036,1.5769e+07,1,-0.0079088,0.0035821,0.0047424,-0.22283,0.091214,-9.8843,0,0,45.588,1,1,754,996
3067,1.5772e+07,1,-0.010261,0.0040411,0.0027074,-0.22012,0.082269,-9.8915,0,0,45.589,1,1,754,996
3070,1.5774e+07,1,-0.0091748,0.0028071,0.002137,-0.22211,0.086529,-9.9022,0,0,45.589,1,1,754,996
3073,1.5777e+07,1,-0.0074793,0.0024932,0.0021488,-0.22685,0.09363,-9.9032,0,0,45.589,1,1,754,996
3076,1.5779e+07,1,-0.0034538,0.003589,0.0025127,-0.21603,0.10648,-9.8892,0,0,45.589,1,1,754,996
3107,1.5782e+07,1,0.00053306,0.0047934,0.0032514,-0.20715,0.10423,-9.8822,0,0,45.589,1,1,754,996
3111,1.5784e+07,1,0.0015466,0.0046264,0.004625,-0.20036,0.087887,-9.8933,0,0,45.589,1,1,754,996
3114,1.5786e+07,1,0.0004316,0.00055087,0.0066551,-0.20109,0.082781,-9.9053,0,0,45.589,1,1,754,996
3120,1.579e+07,1,0.00042581,-0.0024581,0.0057629,-0.20912,0.086503,-9.9221,0,0,45.589,1,1,754,996
3154,1.5792e+07,1,0.0014821,-0.0016676,0.0043799,-0.22276,0.091321,-9.9073,0,0,45.589,1,1,754,996
3158,1.5795e+07,1,0.0020642,-0.0010833,0.0032573,-0.23186,0.092565,-9.8905,0,0,45.589,1,1,754,996
3161,1.5797e+07,1,0.0018376,-0.00061162,0.0029271,-0.24725,0.096237,-9.8783,0,0,45.589,1,1,754,996
3164,1.5799e+07,1,0.00011314,-0.0020693,0.0031509,-0.27185,0.093498,-9.8751,0,0,45.589,1,1,754,996
3195,1.5802e+07,1,-0.0016312,-0.0022556,0.0023118,-0.3056,0.084734,-9.8663,0,0,45.589,1,1,754,996
3199,1.5804e+07,1,-0.0013982,-0.0007949,0.0017369,-0.31943,0.091438,-9.8562,0,0,45.59,1,1,754,996
3202,1.5807e+07,1,0.00036104,0.0054923,-0.00079325,-0.33295,0.10432,-9.8575,0,0,45.59,1,1,754,996
3205,1.5809e+07,1,0.0014861,0.0095956,-0.0024439,-0.33192,0.10268,-9.846,0,0,45.59,1,1,754,996
3236,1.5812e+07,1,-0.0007249,0.0093344,-0.0015126,-0.3116,0.10174,-9.8155,0,0,45.59,1,1,754,996
3240,1.5815e+07,1,-0.0024486,0.0095374,0.00065555,-0.29317,0.10531,-9.8154,0,0,45.59,1,1,754,996
3243,1.5817e+07,1,-0.00018174,0.010188,0.0034371,-0.27309,0.10962,-9.8161,0,0,45.59,1,1,754,996
3246,1.582e+07,1,0.0013745,0.0079735,0.0052365,-0.26934,0.10756,-9.8227,0,0,45.59,1,1,754,996
3277,1.5823e+07,1,0.00030509,0.0041149,0.0064224,-0.26034,0.09548,-9.8398,0,0,45.59,1,1,754,996
3282,1.5825e+07,1,-0.0011604,-0.0005214,0.007292,-0.24694,0.10879,-9.8528,0,0,45.59,1,1,754,996
3285,1.5827e+07,1,-0.0029349,-0.0025902,0.0055811,-0.23976,0.11674,-9.8648,0,0,45.59,1,1,754,996
3288,1.5833e+07,1,-0.0018106,-0.00091897,0.0058224,-0.20756,0.1324,-9.8961,0,0,45.59,1,1,754,996
3319,1.5835e+07,1,0.00041598,-4.8322e-05,0.0055799,-0.19971,0.13604,-9.9234,0,0,45.59,1,1,754,996
3322,1.5841e+07,1,0.0019686,0.00082212,-0.0001895,-0.22984,0.15092,-9.9713,0,0,45.591,1,1,754,996
3325,1.5843e+07,1,0.0010622,0.0017749,-0.0025454,-0.23472,0.14506,-9.9441,0,0,45.591,1,1,754,996
3357,1.5845e+07,1,0.00041269,0.00053371,-0.0025221,-0.23398,0.13734,-9.9196,0,0,45.591,1,1,754,996
3360,1.5848e+07,1,-0.00056156,-0.0032577,-0.0010573,-0.22043,0.1188,-9.8866,0,0,45.591,1,1,754,996
3363,1.5851e+07,1,-0.00040381,-0.003847,-0.00035162,-0.21558,0.10908,-9.8688,0,0,45.591,1,1,754,996
3367,1.5853e+07,1,0.00023313,-0.00092444,0.0019062,-0.23272,0.11339,-9.8407,0,0,45.591,1,1,754,996
3399,1.5855e+07,1,-0.00023587,0.0011378,0.0028954,-0.2405,0.11525,-9.8277,0,0,45.591,1,1,754,996
3402,1.5858e+07,1,-3.7438e-05,-0.00019408,0.0030434,-0.25844,0.11332,-9.7866,0,0,45.591,1,1,754,996
3405,1.5861e+07,1,0.00052009,-0.0020716,0.0039096,-0.26495,0.10984,-9.7744,0,0,45.591,1,1,754,996
3408,1.5863e+07,1,0.0016899,-0.0048111,0.0050617,-0.2647,0.10676,-9.7726,0,0,45.591,1,1,754,996
3439,1.5866e+07,1,0.0014492,-0.0037291,0.0032485,-0.26166,0.10104,-9.7615,0,0,45.591,1,1,754,996
3442,1.5868e+07,1,-0.0041944,-0.00080547,0.00020077,-0.26753,0.093373,-9.7539,0,0,45.591,1,1,754,996
3445,1.587e+07,1,-0.0054594,-8.2513e-05,0.00034996,-0.26907,0.098366,-9.7539,0,0,45.591,1,1,754,996
3448,1.5873e+07,1,-0.0035252,-0.00018392,0.001303,-0.26172,0.10589,-9.7557,0,0,45.592,1,1,754,996
3479,1.5876e+07,1,0.0015791,-0.0025415,0.0016807,-0.26446,0.11136,-9.7661,0,0,45.592,1,1,754,996
3483,1.5878e+07,1,0.0047691,-0.0032475,0.00045728,-0.26685,0.12428,-9.7929,0,0,45.592,1,1,754,996
3486,1.588e+07,1,0.0053636,-0.0031337,-0.0021939,-0.26846,0.12974,-9.8001,0,0,45.592,1,1,754,996
3489,1.5883e+07,1,0.0051182,-0.003173,-0.0047008,-0.27682,0.1176,-9.7879,0,0,45.592,1,1,754,996
3520,1.5885e+07,1,0.0049429,-0.002323,-0.0042472,-0.2783,0.11089,-9.7924,0,0,45.592,1,1,754,996
3523,1.5889e+07,1,0.0052337,0.00045527,0.0002473,-0.27289,0.10538,-9.8103,0,0,45.592,1,1,754,996
3529,1.5891e+07,1,0.0052143,0.00071214,0.0011081,-0.26418,0.091545,-9.8099,0,0,45.592,1,1,754,996
3533,1.5893e+07,1,0.0038882,0.0015747,0.0030218,-0.24468,0.081905,-9.7928,0,0,45.592,1,1,754,996
3564,1.5895e+07,1,0.0034464,0.0039815,0.0026539,-0.23594,0.081796,-9.7861,0,0,45.592,1,1,754,996
3568,1.5898e+07,1,0.0010341,0.005325,0.0022205,-0.22484,0.068925,-9.7739,0,0,45.592,1,1,754,996
3571,1.5901e+07,1,-0.0020296,0.0057946,0.00050736,-0.22182,0.056161,-9.7573,0,0,45.592,1,1,754,996
3574,1.5903e+07,1,-0.0015293,0.0044354,4.8025e-05,-0.22384,0.029466,-9.7382,0,0,45.592,1,1,754,996
3605,1.5906e+07,1,-0.00099304,0.0033906,0.00033017,-0.22579,0.013397,-9.7362,0,0,45.593,1,1,754,996
3609,1.5908e+07,1,-0.0015538,-0.0020201,0.0037264,-0.22867,0.0026994,-9.7458,0,0,45.593,1,1,754,996
3613,1.5911e+07,1,-0.0021571,-0.0023975,0.0056005,-0.22895,-0.0039908,-9.7442,0,0,45.593,1,1,754,996
3616,1.5913e+07,1,-0.00096186,0.0023583,0.0075199,-0.23935,-0.0083464,-9.705,0,0,45.593,1,1,754,996
3647,1.5916e+07,1,-0.00018508,0.0035183,0.0062239,-0.2488,-0.010984,-9.6826,0,0,45.593,1,1,754,996
3650,1.5918e+07,1,0.00083705,0.0060842,0.0030514,-0.25262,-0.0048389,-9.6525,0,0,45.593,1,1,754,996
3653,1.5921e+07,1,0.0011261,0.0068106,0.00044521,-0.24759,-0.0016816,-9.6329,0,0,45.593,1,1,754,996
3658,1.5923e+07,1,-0.00081207,0.0055865,0.0017206,-0.22491,-0.011187,-9.6058,0,0,45.593,1,1,754,996
3689,1.5926e+07,1,-0.0017807,0.003557,0.0055868,-0.21068,-0.01627,-9.6011,0,0,45.593,1,1,754,996
3693,1.5931e+07,1,0.0031651,0.0040794,0.0077957,-0.19201,0.0046132,-9.6538,0,0,45.593,1,1,754,996
3696,1.5933e+07,1,0.001133,0.0049939,0.0095069,-0.19201,0.009322,-9.7061,0,0,45.593,1,1,754,996
3727,1.5938e+07,1,-0.0053277,0.0053314,0.0069605,-0.21342,0.0013277,-9.8078,0,0,45.594,1,1,754,996
3730,1.5941e+07,1,-0.0076683,0.0019215,0.0012908,-0.22741,0.031198,-9.8398,0,0,45.594,1,1,754,996
3733,1.5944e+07,1,-0.0079205,0.00074859,0.00052887,-0.2363,0.054143,-9.8529,0,0,45.594,1,1,754,996
3764,1.5946e+07,1,-0.0070189,-0.0014028,0.0010371,-0.23339,0.073004,-9.8533,0,0,45.594,1,1,754,996
3767,1.5949e+07,1,-0.0068085,-0.0012194,0.00098742,-0.22773,0.082497,-9.8462,0,0,45.594,1,1,754,996
3771,1.5952e+07,1,-0.007566,0.0020624,-0.0010413,-0.22199,0.095664,-9.8362,0,0,45.594,1,1,754,996
3775,1.5954e+07,1,-0.008563,0.0075034,-0.0043497,-0.2119,0.11,-9.8101,0,0,45.594,1,1,754,996
3806,1.5957e+07,1,-0.0087768,0.0076005,-0.0045703,-0.20874,0.11516,-9.791,0,0,45.594,1,1,754,996
3809,1.5959e+07,1,-0.0089161,0.0057992,-0.0037458,-0.21504,0.11066,-9.7712,0,0,45.594,1,1,754,996
3813,1.5961e+07,1,-0.0070561,0.002896,-0.0022056,-0.23357,0.10926,-9.7512,0,0,45.594,1,1,754,996
3816,1.5964e+07,1,-0.002347,0.0027145,-0.0012363,-0.24802,0.11978,-9.7506,0,0,45.594,1,1,754,996
3847,1.5967e+07,1,0.0032868,0.0039231,-0.00089716,-0.2745,0.13295,-9.7612,0,0,45.594,1,1,754,996
3850,1.5969e+07,1,0.0053898,0.0048188,-0.0013575,-0.28783,0.1418,-9.7694,0,0,45.594,1,1,754,996
3853,1.5972e+07,1,0.0059889,0.0070786,-0.0036243,-0.29543,0.14309,-9.7841,0,0,45.594,1,1,754,996
3856,1.5974e+07,1,0.0023619,0.0039882,-0.0065716,-0.29201,0.13541,-9.8039,0,0,45.594,1,1,754,996
3887,1.5977e+07,1,0.0022155,0.001507,-0.0061006,-0.28622,0.13366,-9.8033,0,0,45.594,1,1,754,996
3890,1.5979e+07,1,0.0029597,-0.0028564,-0.0030792,-0.28313,0.13703,-9.8044,0,0,45.594,1,1,754,996
3894,1.5982e+07,1,0.0033201,-0.0037205,0.00028757,-0.28502,0.15728,-9.8168,0,0,45.594,1,1,754,996
3897,1.5984e+07,1,0.00034459,-0.0017045,0.0036401,-0.27584,0.15744,-9.8589,0,0,45.594,1,1,754,996
3928,1.5987e+07,1,-0.0035891,0.00075627,0.0056631,-0.26808,0.14758,-9.8667,0,0,45.594,1,1,754,996
3931,1.5989e+07,1,-0.0053247,0.0016084,0.0061632,-0.26291,0.13384,-9.8655,0,0,45.594,1,1,754,996
3937,1.5992e+07,1,-0.0042244,0.0010765,0.0056979,-0.26761,0.099834,-9.8372,0,0,45.594,1,1,754,996
3941,1.5994e+07,1,-0.0021342,-0.0030127,0.0024331,-0.26835,0.073678,-9.8254,0,0,45.595,1,1,754,996
3972,1.5996e+07,1,-0.0010344,-0.0042823,0.0021494,-0.26316,0.059152,-9.8371,0,0,45.595,1,1,754,996
3975,1.5999e+07,1,0.0023526,-0.0035912,0.0051988,-0.25982,0.045202,-9.8465,0,0,45.595,1,1,754,996
3979,1.6001e+07,1,0.0042363,-0.0023912,0.0081957,-0.25809,0.032156,-9.8492,0,0,45.595,1,1,754,996
3982,1.6004e+07,1,0.004771,-0.00044285,0.0075003,-0.26263,0.029074,-9.8109,0,0,45.595,1,1,754,996
4013,1.6007e+07,1,0.0041097,0.000998,0.0070072,-0.26323,0.023324,-9.767,0,0,45.595,1,1,754,996
4016,1.6009e+07,1,0.0039795,0.001787,0.0073894,-0.26152,0.011572,-9.724,0,0,45.595,1,1,754,996
4019,1.6011e+07,1,0.0035302,0.0014971,0.0063782,-0.26179,-0.0081476,-9.6865,0,0,45.595,1,1,754,996
4023,1.6014e+07,1,0.0036634,-0.00064335,0.0052849,-0.26203,-0.011805,-9.6809,0,0,45.595,1,1,754,996
4056,1.6017e+07,1,0.0039488,-0.0005015,0.0059667,-0.25803,-0.0070367,-9.6836,0,0,45.595,1,1,754,996
4059,1.6019e+07,1,0.0050009,0.0007889,0.0068849,-0.25213,0.0028828,-9.6796,0,0,45.595,1,1,754,996
4063,1.6022e+07,1,0.0051613,0.0010125,0.0051918,-0.23865,0.021051,-9.6768,0,0,45.595,1,1,754,996
4066,1.6024e+07,1,0.0046096,0.00038483,0.0030925,-0.23254,0.058859,-9.6944,0,0,45.595,1,1,754,996
4097,1.6026e+07,1,0.0038902,-0.00088897,0.003118,-0.23751,0.078472,-9.7086,0,0,45.595,1,1,754,996
4100,1.6029e+07,1,0.0033122,-0.0011654,0.0027734,-0.24612,0.084807,-9.7122,0,0,45.595,1,1,754,996
4104,1.6031e+07,1,0.0018725,0.00037903,0.00082399,-0.26232,0.074734,-9.703,0,0,45.595,1,1,754,996
4107,1.6034e+07,1,0.00078959,0.0020494,-7.2501e-05,-0.26232,0.066891,-9.6662,0,0,45.595,1,1,754,996
4138,1.6037e+07,1,0.00078665,0.00198,0.00040857,-0.26303,0.062675,-9.6528,0,0,45.595,1,1,754,996
4141,1.6039e+07,1,0.001677,0.001025,0.0029254,-0.26037,0.052797,-9.6414,0,0,45.596,1,1,754,996
4144,1.6044e+07,1,0.0016546,-0.0017084,0.0058167,-0.2199,0.076675,-9.6738,0,0,45.596,1,1,754,996
4175,1.6047e+07,1,0.0012174,-0.0011956,0.0048217,-0.2158,0.088282,-9.7005,0,0,45.596,1,1,754,996
4178,1.6049e+07,1,0.001891,0.00087187,0.0022843,-0.21066,0.094204,-9.7264,0,0,45.596,1,1,754,996
4183,1.6051e+07,1,0.0019932,0.0021837,-0.00036321,-0.20616,0.089978,-9.7466,0,0,45.596,1,1,754,996
4186,1.6054e+07,1,0.0010434,0.0023797,0.00052308,-0.21064,0.068842,-9.7598,0,0,45.596,1,1,754,996
4217,1.6056e+07,1,0.00057265,0.0044132,0.0029842,-0.21931,0.054286,-9.7729,0,0,45.596,1,1,754,996
4220,1.6059e+07,1,0.00098989,0.0050762,0.0035523,-0.23067,0.048257,-9.7866,0,0,45.596,1,1,754,996
4224,1.6062e+07,1,0.002027,0.0048559,0.0033509,-0.24415,0.04517,-9.7919,0,0,45.596,1,1,754,996
4227,1.6065e+07,1,0.001559,0.0025634,-0.0012705,-0.25479,0.051962,-9.7735,0,0,45.596,1,1,754,996
4230,1.6067e+07,1,0.0012026,0.00074195,-0.0032561,-0.26163,0.058792,-9.7536,0,0,45.596,1,1,754,996
4261,1.6069e+07,1,0.0014291,0.0025885,-0.0066623,-0.27421,0.082949,-9.7273,0,0,45.596,1,1,754,996
4265,1.6072e+07,1,0.00088027,0.0052953,-0.0069552,-0.28068,0.094758,-9.715,0,0,45.596,1,1,754,996
4269,1.6074e+07,1,-0.0015754,0.0082342,-0.0067979,-0.29292,0.10074,-9.7098,0,0,45.596,1,1,754,996
4272,1.6077e+07,1,-0.0027179,0.0068258,-0.0039052,-0.30003,0.090948,-9.7092,0,0,45.596,1,1,754,996
4303,1.608e+07,1,-0.0014713,0.0041292,0.00066401,-0.3014,0.052415,-9.6955,0,0,45.596,1,1,754,996
4306,1.6081e+07,1,-0.0023947,0.0014404,0.0030724,-0.26643,0.020182,-9.7006,0,0,45.597,1,1,754,996
4309,1.6084e+07,1,-0.003316,0.00027668,0.0031967,-0.24169,0.0062596,-9.7013,0,0,45.597,1,1,754,996
4312,1.6087e+07,1,-0.0033518,-0.0014019,0.0035428,-0.22989,6.1124e-05,-9.7021,0,0,45.597,1,1,754,996
4343,1.609e+07,1,-0.002539,-0.0041463,0.003908,-0.22028,-0.0040063,-9.7165,0,0,45.597,1,1,754,996
4350,1.6093e+07,1,-0.0020479,-0.0042923,0.0038241,-0.22949,0.0046175,-9.7469,0,0,45.597,1,1,754,996
4354,1.6095e+07,1,-0.0028806,-0.0036866,0.0031624,-0.2603,0.016381,-9.8182,0,0,45.597,1,1,754,996
4357,1.6097e+07,1,-0.0046888,-0.0011043,0.0021756,-0.2853,0.03134,-9.8514,0,0,45.597,1,1,754,996
4388,1.6099e+07,1,-0.0044881,0.0014326,0.0020978,-0.31509,0.050451,-9.8831,0,0,45.597,1,1,754,996
4392,1.6102e+07,1,-0.0030558,0.0024644,0.0043086,-0.33802,0.054778,-9.9098,0,0,45.597,1,1,754,996
4395,1.6105e+07,1,-0.00028074,-0.0012382,0.0062132,-0.35067,0.067972,-9.9488,0,0,45.597,1,1,754,996
4398,1.6107e+07,1,0.00077669,-0.0041112,0.0063523,-0.33778,0.06995,-9.9712,0,0,45.597,1,1,754,996
4429,1.6109e+07,1,0.0022957,-0.0069832,0.0050832,-0.30762,0.072025,-9.9741,0,0,45.597,1,1,754,996
4432,1.6112e+07,1,0.002653,-0.005824,0.0050136,-0.28309,0.076386,-9.9681,0,0,45.597,1,1,754,996
4435,1.6115e+07,1,0.0020184,-0.0043157,0.0055697,-0.25574,0.086859,-9.9544,0,0,45.597,1,1,754,996
4438,1.6117e+07,1,-0.00059131,-0.0023954,0.0056485,-0.24975,0.09175,-9.9413,0,0,45.597,1,1,754,996
4469,1.6119e+07,1,-0.0035641,-0.0019402,0.002691,-0.2504,0.099611,-9.9158,0,0,45.597,1,1,754,996
4473,1.6122e+07,1,-0.0064347,1.0541e-06,-0.0038706,-0.25873,0.09559,-9.8992,0,0,45.597,1,1,754,996
4476,1.6125e+07,1,-0.0073337,0.0010758,-0.0045814,-0.25911,0.091391,-9.8928,0,0,45.597,1,1,754,996
4481,1.613e+07,1,-0.00076886,0.003151,0.0021043,-0.25064,0.067408,-9.8922,0,0,45.597,1,1,754,996
4484,1.6132e+07,1,0.0013719,0.0024548,0.002936,-0.24969,0.064833,-9.8742,0,0,45.597,1,1,754,996
4515,1.6134e+07,1,0.0040428,0.0014053,0.0031551,-0.2522,0.059276,-9.8395,0,0,45.597,1,1,754,996
4518,1.6137e+07,1,0.0034128,0.0016444,0.002474,-0.26092,0.053809,-9.7822,0,0,45.597,1,1,754,996
4521,1.6141e+07,1,0.0030523,0.0016875,0.0018684,-0.26928,0.057198,-9.7535,0,0,45.597,1,1,754,996
4524,1.6143e+07,1,0.0030114,0.0032125,0.0022946,-0.29436,0.087284,-9.7072,0,0,45.597,1,1,754,996
4527,1.6145e+07,1,0.0034781,0.0043567,0.0035124,-0.30905,0.10737,-9.6792,0,0,45.597,1,1,754,996
4558,1.6147e+07,1,0.0049561,0.0051129,0.0055338,-0.31835,0.12101,-9.6408,0,0,45.597,1,1,754,996
4561,1.615e+07,1,0.0047054,0.0054352,0.0067274,-0.3212,0.12408,-9.6192,0,0,45.597,1,1,754,996
4564,1.6153e+07,1,0.0011944,0.004128,0.0079798,-0.32643,0.11501,-9.6204,0,0,45.597,1,1,754,996
4567,1.6155e+07,1,-0.0037074,0.0027854,0.0057192,-0.32259,0.10363,-9.6482,0,0,45.597,1,1,754,996
4598,1.6157e+07,1,-0.0069771,0.0010485,0.0025465,-0.30116,0.095349,-9.696,0,0,45.597,1,1,754,996
4601,1.616e+07,1,-0.0042729,-0.000728,0.002346,-0.28005,0.083415,-9.7431,0,0,45.597,1,1,754,996
4605,1.6162e+07,1,-0.0002118,-0.00023414,0.0016679,-0.27493,0.075362,-9.7571,0,0,45.597,1,1,754,996
4608,1.6165e+07,1,0.0031222,0.0002875,0.0014622,-0.26733,0.067703,-9.7687,0,0,45.597,1,1,754,996
4639,1.6168e+07,1,0.0028308,0.0012173,0.00094539,-0.26562,0.06722,-9.7708,0,0,45.597,1,1,754,996
4642,1.617e+07,1,0.0016682,0.0040869,0.0014418,-0.27234,0.064622,-9.7892,0,0,45.597,1,1,754,996
4647,1.6173e+07,1,0.001471,0.0051559,0.0016014,-0.28319,0.06659,-9.8022,0,0,45.597,1,1,754,996
4650,1.6175e+07,1,0.0010319,0.0072184,0.00053274,-0.29239,0.076812,-9.809,0,0,45.597,1,1,754,996
4681,1.6178e+07,1,0.0010153,0.0072883,0.0013967,-0.29296,0.083567,-9.8115,0,0,45.597,1,1,754,996
4684,1.618e+07,1,0.0026449,0.0061107,0.0038181,-0.28316,0.094179,-9.8276,0,0,45.597,1,1,754,996
4687,1.6183e+07,1,0.0035781,0.0060778,0.0055019,-0.26969,0.091979,-9.8408,0,0,45.597,1,1,754,996
4690,1.6185e+07,1,0.0014868,0.0055434,0.0058951,-0.24784,0.0812,-9.8663,0,0,45.597,1,1,754,996
4721,1.6187e+07,1,0.0005603,0.0049605,0.007116,-0.24011,0.079321,-9.8681,0,0,45.597,1,1,754,996
4724,1.619e+07,1,0.0015192,0.0038839,0.0085455,-0.24721,0.085735,-9.854,0,0,45.597,1,1,754,996
4731,1.6193e+07,1,0.0018063,0.0025303,0.0076404,-0.25642,0.092219,-9.8485,0,0,45.597,1,1,754,996
4735,1.6195e+07,1,0.0020931,0.0019669,0.0024947,-0.27241,0.097215,-9.8517,0,0,45.597,1,1,754,996
4766,1.6197e+07,1,0.0021891,0.0028165,0.0032303,-0.2841,0.1069,-9.8436,0,0,45.597,1,1,754,996
4769,1.62e+07,1,0.0030496,0.0044493,0.0072877,-0.29469,0.11928,-9.8232,0,0,45.597,1,1,754,996
4772,1.6203e+07,1,0.0050663,0.0059496,0.0073394,-0.28917,0.12423,-9.8101,0,0,45.597,1,1,754,996
4775,1.6205e+07,1,0.0058328,0.004863,0.0042814,-0.28066,0.12362,-9.7988,0,0,45.597,1,1,754,996
4806,1.6208e+07,1,0.0047286,0.0024626,0.0023125,-0.27512,0.10998,-9.7851,0,0,45.597,1,1,754,996
4809,1.621e+07,1,0.0027892,0.00034079,0.0010569,-0.27409,0.077473,-9.7726,0,0,45.597,1,1,754,996
4813,1.6212e+07,1,0.00089604,-0.00098687,-0.00018969,-0.27912,0.060864,-9.7658,0,0,45.597,1,1,754,996
4817,1.6215e+07,1,0.00041304,-0.0011314,-0.00033025,-0.28292,0.052566,-9.7646,0,0,45.597,1,1,754,996
4848,1.6217e+07,1,0.0006705,-0.0013822,-0.00082468,-0.28133,0.053436,-9.7698,0,0,45.597,1,1,754,996
4851,1.622e+07,1,0.00081512,0.00091499,-0.0037008,-0.28471,0.059808,-9.7633,0,0,45.597,1,1,754,996
4854,1.6223e+07,1,0.0005389,0.0011397,-0.0038654,-0.2815,0.061683,-9.7646,0,0,45.597,1,1,754,996
4857,1.6225e+07,1,0.00062808,0.00052163,-0.00097932,-0.27708,0.060615,-9.7688,0,0,45.598,1,1,754,996
4888,1.6228e+07,1,0.00091354,0.0016446,0.0011371,-0.28221,0.059224,-9.778,0,0,45.598,1,1,754,996
4891,1.623e+07,1,-0.00038337,0.0041749,-0.00056694,-0.29087,0.055226,-9.7846,0,0,45.598,1,1,754,996
4895,1.6232e+07,1,-0.00089358,0.0060684,-0.0017182,-0.29487,0.058515,-9.7671,0,0,45.598,1,1,754,996
4898,1.6236e+07,1,-0.00096444,0.0072975,-0.0028608,-0.2924,0.068284,-9.7358,0,0,45.598,1,1,754,996
4929,1.6238e+07,1,-0.00050232,0.0073338,-0.0027451,-0.29108,0.071623,-9.725,0,0,45.598,1,1,754,996
4932,1.6243e+07,1,0.00088125,0.0016984,-0.0025254,-0.28853,0.083436,-9.7074,0,0,45.598,1,1,754,996
4936,1.6245e+07,1,0.0020615,-0.00072732,-0.0053173,-0.29031,0.10271,-9.715,0,0,45.598,1,1,754,996
4967,1.625e+07,1,0.0030386,-0.00058002,-0.0083809,-0.30031,0.14011,-9.7311,0,0,45.598,1,1,754,996
4970,1.6253e+07,1,0.002571,-0.0024321,-0.0050053,-0.30638,0.14858,-9.7464,0,0,45.598,1,1,754,996
4973,1.6255e+07,1,0.0018822,-0.00089551,-0.0028744,-0.31893,0.15818,-9.7494,0,0,45.598,1,1,754,996
5004,1.6257e+07,1,0.00070615,0.0004516,-0.0016341,-0.32652,0.16752,-9.7415,0,0,45.598,1,1,754,996
5007,1.626e+07,1,0.0011438,-0.0017748,-0.0022749,-0.34675,0.16895,-9.736,0,0,45.598,1,1,754,996
5010,1.6262e+07,1,0.0012451,-0.0021767,-0.002312,-0.35885,0.16586,-9.7275,0,0,45.598,1,1,754,996
5015,1.6265e+07,1,0.0030839,-0.00071527,-0.0011781,-0.36352,0.17133,-9.7358,0,0,45.598,1,1,754,996
5046,1.6268e+07,1,0.0042413,0.00036287,-0.0011236,-0.35004,0.17448,-9.7583,0,0,45.598,1,1,754,996
5049,1.627e+07,1,0.0056043,0.0029181,-0.00062175,-0.31551,0.16727,-9.7953,0,0,45.598,1,1,754,996
5053,1.6273e+07,1,0.0031505,0.0052138,0.0020125,-0.29993,0.16014,-9.8151,0,0,45.598,1,1,754,996
5057,1.6275e+07,1,-0.00077309,0.0078255,0.0043659,-0.28201,0.13927,-9.8428,0,0,45.598,1,1,754,996
5088,1.6278e+07,1,-0.001824,0.0068755,0.0051608,-0.2732,0.12294,-9.8527,0,0,45.598,1,1,754,996
5091,1.628e+07,1,-0.0020234,0.0042657,0.0036462,-0.26254,0.098903,-9.8263,0,0,45.598,1,1,754,996
5094,1.6282e+07,1,-0.0025755,0.003533,0.0030527,-0.25866,0.076802,-9.7945,0,0,45.598,1,1,754,996
5097,1.6285e+07,1,-0.0030424,0.0020131,0.0044091,-0.25611,0.069362,-9.7542,0,0,45.598,1,1,754,996
5128,1.6288e+07,1,-0.0033637,0.0015021,0.0056458,-0.2623,0.081646,-9.7428,0,0,45.598,1,1,754,996
5131,1.629e+07,1,-0.0044586,-0.0015998,0.0061815,-0.27416,0.10194,-9.7407,0,0,45.598,1,1,754,996
5137,1.6293e+07,1,-0.003475,-0.002755,0.0049803,-0.28588,0.13831,-9.7275,0,0,45.598,1,1,754,996
5142,1.6295e+07,1,-0.0012608,-0.001562,0.0036148,-0.30182,0.16646,-9.6989,0,0,45.598,1,1,754,996
5173,1.6298e+07,1,0.00097328,0.00075738,0.0065223,-0.30501,0.18173,-9.6848,0,0,45.598,1,1,754,996
5176,1.63e+07,1,0.00057857,0.00070349,0.0094268,-0.30643,0.19244,-9.6841,0,0,45.598,1,1,754,996
5179,1.6303e+07,1,0.00084995,-0.0025704,0.01032,-0.3112,0.19053,-9.6976,0,0,45.598,1,1,754,996
5183,1.6305e+07,1,0.0028291,-0.0043928,0.011487,-0.31897,0.16656,-9.7398,0,0,45.598,1,1,754,996
5214,1.6307e+07,1,0.0033719,-0.0042414,0.011975,-0.3269,0.14753,-9.7769,0,0,45.598,1,1,754,996
5217,1.631e+07,1,0.00077427,-0.0029935,0.011873,-0.33024,0.11084,-9.8218,0,0,45.598,1,1,754,996
5220,1.6313e+07,1,-0.00092018,-0.0026558,0.010804,-0.33932,0.087564,-9.8361,0,0,45.598,1,1,754,996
5224,1.6315e+07,1,-0.0022522,-0.0012124,0.008713,-0.35076,0.072901,-9.8459,0,0,45.598,1,1,754,996
5255,1.6317e+07,1,-0.0013712,-0.0032249,0.0074904,-0.35252,0.071449,-9.854,0,0,45.598,1,1,754,996
5258,1.632e+07,1,0.0007486,-0.0042488,0.0049905,-0.35917,0.070352,-9.8873,0,0,45.598,1,1,754,996
5261,1.6323e+07,1,0.0029162,-0.0022808,0.0023636,-0.35629,0.060379,-9.9264,0,0,45.598,1,1,754,996
5264,1.6325e+07,1,0.0052335,0.00025856,0.00027655,-0.34081,0.039763,-9.975,0,0,45.598,1,1,754,996
5295,1.6328e+07,1,0.0051462,0.0011946,7.7092e-05,-0.32189,0.021992,-9.984,0,0,45.598,1,1,754,996
5300,1.633e+07,1,0.0022777,0.00093224,0.0030693,-0.29356,0.0020158,-9.9871,0,0,45.598,1,1,754,996
5303,1.6333e+07,1,0.001369,-0.00010901,0.0046263,-0.27045,-0.005355,-9.9811,0,0,45.598,1,1,754,996
5307,1.6337e+07,1,-0.00098231,-0.0040845,0.0042825,-0.22982,0.023009,-9.9356,0,0,45.598,1,1,754,996
5338,1.6342e+07,1,-6.5893e-05,0.00085316,-0.00146,-0.24376,0.11072,-9.9029,0,0,45.598,1,1,754,996
5341,1.6345e+07,1,0.0012144,0.004561,-0.0013782,-0.26258,0.15148,-9.8938,0,0,45.598,1,1,754,996
5344,1.6347e+07,1,0.0035666,0.004805,0.002549,-0.27174,0.16538,-9.8766,0,0,45.598,1,1,754,996
5375,1.635e+07,1,0.0048897,0.0035188,0.0068242,-0.28397,0.17085,-9.8398,0,0,45.598,1,1,754,996
5378,1.6352e+07,1,0.0051685,0.0035967,0.0073132,-0.29258,0.16389,-9.8026,0,0,45.598,1,1,754,996
5383,1.6355e+07,1,0.0034169,0.0063748,0.0035185,-0.29387,0.13284,-9.7465,0,0,45.598,1,1,754,996
5386,1.6358e+07,1,0.0030723,0.0049608,0.002785,-0.289,0.11197,-9.7114,0,0,45.598,1,1,754,996
5389,1.636e+07,1,0.0034586,-0.00050984,0.0032348,-0.28391,0.08336,-9.691,0,0,45.598,1,1,754,996
5420,1.6362e+07,1,0.0044024,-0.0038595,0.0047203,-0.27872,0.061985,-9.6861,0,0,45.598,1,1,754,996
5424,1.6365e+07,1,0.0046172,-0.0034599,0.0035243,-0.28411,0.043946,-9.686,0,0,45.598,1,1,754,996
5427,1.6368e+07,1,0.0043999,-0.0019084,0.0026956,-0.28665,0.037517,-9.6951,0,0,45.598,1,1,754,996
5430,1.637e+07,1,0.0047087,-0.0022392,0.0040854,-0.28911,0.031428,-9.7221,0,0,45.598,1,1,754,996
5461,1.6373e+07,1,0.0049644,-0.0034396,0.0042643,-0.29027,0.030982,-9.7342,0,0,45.598,1,1,754,996
5464,1.6375e+07,1,0.0052393,-0.0044406,0.0020223,-0.2917,0.038809,-9.7457,0,0,45.598,1,1,754,996
5467,1.6377e+07,1,0.0052711,-0.0022966,0.00075789,-0.28802,0.040432,-9.7408,0,0,45.598,1,1,754,996
5470,1.638e+07,1,0.0062349,0.0039989,-0.0019644,-0.27198,0.043697,-9.7441,0,0,45.598,1,1,754,996
5501,1.6383e+07,1,0.0063708,0.0090417,-0.0034123,-0.26016,0.054701,-9.7395,0,0,45.598,1,1,754,996
5505,1.6385e+07,1,0.0050323,0.011753,-0.0019366,-0.24217,0.074376,-9.7531,0,0,45.598,1,1,754,996
5509,1.6387e+07,1,0.0030573,0.0093499,-0.00023769,-0.23412,0.078574,-9.7621,0,0,45.598,1,1,754,996
5512,1.639e+07,1,0.0014133,0.0041344,-0.00074042,-0.24089,0.06256,-9.7892,0,0,45.598,1,1,754,996
5546,1.6393e+07,1,-0.00038334,0.0018879,-0.00032356,-0.2537,0.049535,-9.8016,0,0,45.598,1,1,754,996
5550,1.6395e+07,1,-0.0019404,0.0016713,0.00061814,-0.27452,0.041752,-9.804,0,0,45.598,1,1,754,996
5553,1.6397e+07,1,-0.0030849,0.00099518,0.00015852,-0.28797,0.037474,-9.8036,0,0,45.598,1,1,754,996
5556,1.64e+07,1,-0.0033908,-0.0010229,-0.0033615,-0.30452,0.036217,-9.7955,0,0,45.598,1,1,754,996
5587,1.6403e+07,1,-0.0027539,-0.0003459,-0.0042362,-0.30321,0.036951,-9.7991,0,0,45.598,1,1,754,996
5591,1.6405e+07,1,0.00022475,0.00037314,-0.0041158,-0.28806,0.031609,-9.8089,0,0,45.598,1,1,754,996
5595,1.6408e+07,1,0.0030492,-0.00017225,-0.0023012,-0.27437,0.028686,-9.7965,0,0,45.598,1,1,754,996
5598,1.641e+07,1,0.0043886,-0.0018277,-0.00014266,-0.26773,0.040245,-9.7692,0,0,45.598,1,1,754,996
5629,1.6412e+07,1,0.0050308,-0.0019934,0.001878,-0.26624,0.041537,-9.7602,0,0,45.598,1,1,754,996
5633,1.6415e+07,1,0.0050369,-0.00072056,0.0032418,-0.26065,0.056699,-9.7883,0,0,45.598,1,1,754,996
5636,1.6417e+07,1,0.0053037,-0.00017174,0.0039288,-0.25714,0.065936,-9.8163,0,0,45.598,1,1,754,996
5639,1.642e+07,1,0.0059675,-0.00039468,0.0031668,-0.25523,0.080302,-9.8514,0,0,45.598,1,1,754,996
5670,1.6423e+07,1,0.0054756,-0.00023346,0.0027642,-0.25837,0.095101,-9.8601,0,0,45.598,1,1,754,996
5673,1.6425e+07,1,0.0045771,0.0006265,0.00083123,-0.27155,0.1049,-9.8595,0,0,45.598,1,1,754,996
5676,1.6428e+07,1,0.0046663,0.00028545,0.0016179,-0.28797,0.098525,-9.8695,0,0,45.598,1,1,754,996
5679,1.643e+07,1,0.0042914,-0.00031881,0.003684,-0.32349,0.085015,-9.8702,0,0,45.598,1,1,754,996
5710,1.6432e+07,1,0.0034197,-0.00062229,0.0022127,-0.34188,0.068892,-9.8633,0,0,45.598,1,1,754,996
5714,1.644e+07,1,0.0042264,-0.00095041,-0.00021567,-0.36285,0.05297,-9.8386,0,0,45.598,1,1,754,996
5745,1.6443e+07,1,0.0051305,0.00062153,0.0011186,-0.33396,0.070358,-9.8152,0,0,45.598,1,1,754,996
5748,1.6445e+07,1,0.0074217,0.0022487,0.0019082,-0.31913,0.092787,-9.8042,0,0,45.598,1,1,754,996
5751,1.6448e+07,1,0.0084686,0.0025413,0.0039225,-0.2979,0.12839,-9.7802,0,0,45.598,1,1,754,996
5755,1.6451e+07,1,0.0085162,0.0019285,0.0053709,-0.27963,0.15524,-9.7685,0,0,45.598,1,1,754,996
5786,1.6453e+07,1,0.0064588,-0.0011202,0.0083045,-0.2499,0.16631,-9.7712,0,0,45.598,1,1,754,996
5790,1.6456e+07,1,0.0013037,-0.0014047,0.0075235,-0.22092,0.14756,-9.7668,0,0,45.598,1,1,754,996
5793,1.6458e+07,1,-0.0018769,-0.0014542,0.0062033,-0.2125,0.12658,-9.7654,0,0,45.598,1,1,754,996
5796,1.6461e+07,1,-0.0095498,0.00067011,0.00085099,-0.22216,0.098269,-9.776,0,0,45.598,1,1,754,996
5827,1.6464e+07,1,-0.009594,0.00093374,-0.00055368,-0.24143,0.085116,-9.7788,0,0,45.598,1,1,754,996
5830,1.6466e+07,1,-0.0045406,-0.00012218,0.00058973,-0.27479,0.078847,-9.7748,0,0,45.598,1,1,754,996
5833,1.6469e+07,1,-0.0022425,-0.00055323,0.0020651,-0.29038,0.074975,-9.7611,0,0,45.598,1,1,754,996
5836,1.6471e+07,1,0.0015346,0.00072091,0.0043188,-0.30096,0.064705,-9.7414,0,0,45.598,1,1,754,996
5867,1.6474e+07,1,0.0024464,0.0030139,0.0059532,-0.30211,0.056926,-9.729,0,0,45.598,1,1,754,996
5871,1.6476e+07,1,0.0013084,0.0019426,0.0080989,-0.29479,0.051539,-9.7441,0,0,45.598,1,1,754,996
5875,1.6478e+07,1,0.00017814,0.0017622,0.0084234,-0.2899,0.05839,-9.7493,0,0,45.598,1,1,754,996
5878,1.6481e+07,1,-0.0027616,0.0029647,0.0070933,-0.27648,0.086968,-9.7368,0,0,45.598,1,1,754,996
5909,1.6483e+07,1,-0.005037,0.002269,0.0051691,-0.26398,0.1013,-9.736,0,0,45.598,1,1,754,996
5913,1.6486e+07,1,-0.0045326,-0.00039271,-0.0031278,-0.25135,0.10476,-9.7467,0,0,45.598,1,1,754,996
5916,1.6488e+07,1,-0.0022512,-0.0007474,-0.005804,-0.24454,0.1058,-9.7526,0,0,45.598,1,1,754,996
5920,1.6491e+07,1,0.0015819,-8.6918e-05,-0.0081912,-0.24961,0.11304,-9.7566,0,0,45.598,1,1,754,996
5954,1.6494e+07,1,0.0027912,-0.0014585,-0.0066125,-0.257,0.11559,-9.7699,0,0,45.598,1,1,754,996
5958,1.6496e+07,1,0.0038243,-0.0030075,-0.00367,-0.26856,0.11342,-9.8066,0,0,45.598,1,1,754,996
5961,1.6499e+07,1,0.0044233,-0.0014086,0.00026039,-0.27343,0.11124,-9.8143,0,0,45.598,1,1,754,996
5964,1.6501e+07,1,0.0045077,0.0027596,0.0037575,-0.28028,0.10321,-9.8303,0,0,45.598,1,1,754,996
5995,1.6503e+07,1,0.0034203,0.004481,0.0052946,-0.28137,0.091335,-9.8457,0,0,45.598,1,1,754,996
5999,1.6506e+07,1,-0.0016574,0.0060903,0.0068429,-0.27029,0.0789,-9.8476,0,0,45.598,1,1,754,996
6002,1.6508e+07,1,-0.0019568,0.0064319,0.0076725,-0.25662,0.073704,-9.8435,0,0,45.598,1,1,754,996
6005,1.6511e+07,1,0.001215,0.0084781,0.0058363,-0.24652,0.074212,-9.8533,0,0,45.598,1,1,754,996
6038,1.6514e+07,1,0.0020966,0.0073773,0.0048501,-0.24532,0.086187,-9.869,0,0,45.598,1,1,754,996
6041,1.6516e+07,1,0.0032354,0.0045515,0.0047007,-0.24257,0.10498,-9.8719,0,0,45.598,1,1,754,996
6044,1.6519e+07,1,0.0027069,0.0033248,0.0050279,-0.2354,0.11089,-9.8594,0,0,45.598,1,1,754,996
6047,1.6521e+07,1,-0.00045364,0.0047551,0.0048704,-0.23988,0.10573,-9.855,0,0,45.598,1,1,754,996
6078,1.6524e+07,1,-0.0026442,0.0055342,0.002645,-0.24978,0.093316,-9.8543,0,0,45.599,1,1,754,996
6082,1.6526e+07,1,-7.2752e-05,0.0056022,-0.00067047,-0.25012,0.085264,-9.852,0,0,45.599,1,1,754,996
6085,1.6529e+07,1,0.0019958,0.005727,-0.002226,-0.25267,0.073335,-9.8541,0,0,45.599,1,1,754,996
6091,1.6532e+07,1,0.0074915,0.0038047,-0.0002746,-0.25628,0.068839,-9.8699,0,0,45.599,1,1,754,996
6122,1.6534e+07,1,0.0094995,0.0044425,0.0039925,-0.25385,0.078966,-9.885,0,0,45.599,1,1,754,996
6125,1.654e+07,1,0.011107,0.0066363,0.0042411,-0.26326,0.074853,-9.9015,0,0,45.599,1,1,754,996
6128,1.6542e+07,1,0.0098332,0.0053073,0.0040955,-0.2661,0.074101,-9.8947,0,0,45.599,1,1,754,996
6159,1.6544e+07,1,0.0066707,-0.00081745,0.0052604,-0.26135,0.08623,-9.883,0,0,45.599,1,1,754,996
6162,1.6547e+07,1,0.0057327,-0.0046476,0.0063947,-0.26145,0.095626,-9.8764,0,0,45.599,1,1,754,996
6165,1.655e+07,1,0.0059544,-0.0031901,0.0055313,-0.27157,0.11495,-9.8597,0,0,45.599,1,1,754,996
6168,1.6552e+07,1,0.0067378,-0.00028442,0.0034258,-0.27828,0.13077,-9.8485,0,0,45.599,1,1,754,996
6199,1.6555e+07,1,0.0066586,0.0023549,0.0046224,-0.27792,0.15206,-9.8402,0,0,45.599,1,1,754,996
6202,1.6557e+07,1,0.0073822,0.0053542,0.0037262,-0.27089,0.15415,-9.8415,0,0,45.599,1,1,754,996
6205,1.6559e+07,1,0.0090129,0.0068703,0.0010508,-0.27134,0.1457,-9.8465,0,0,45.599,1,1,754,996
6208,1.6562e+07,1,0.0094844,0.0059432,-0.00083715,-0.28,0.13385,-9.8509,0,0,45.599,1,1,754,996
6239,1.6564e+07,1,0.0080237,0.0022679,-0.0053079,-0.29379,0.11528,-9.8488,0,0,45.599,1,1,754,996
6243,1.6568e+07,1,0.0054009,0.0024934,-0.0059778,-0.3044,0.083217,-9.8205,0,0,45.599,1,1,754,996
6246,1.6569e+07,1,0.0049017,0.0020075,-0.004012,-0.30343,0.059831,-9.7945,0,0,45.599,1,1,754,996
6249,1.6572e+07,1,0.0065584,-0.0011422,-0.00031265,-0.29825,0.028302,-9.7589,0,0,45.599,1,1,754,996
6280,1.6575e+07,1,0.0068134,-0.0037913,0.0009438,-0.30021,0.012145,-9.7384,0,0,45.599,1,1,754,996
6284,1.6577e+07,1,0.006061,-0.0071018,0.0017903,-0.30153,0.0025998,-9.7195,0,0,45.599,1,1,754,996
6287,1.658e+07,1,0.0042926,-0.0054526,0.00016015,-0.30855,0.0010105,-9.7204,0,0,45.599,1,1,754,996
6290,1.6582e+07,1,0.0019647,-0.002635,-0.0015195,-0.32577,0.013128,-9.7413,0,0,45.599,1,1,754,996
6321,1.6585e+07,1,0.0012321,-0.0010977,-0.0010219,-0.32848,0.021252,-9.7593,0,0,45.599,1,1,754,996
6324,1.6587e+07,1,0.0021517,-0.0025086,0.002205,-0.32518,0.023055,-9.7803,0,0,45.599,1,1,754,996
6328,1.659e+07,1,-0.0008447,-0.0027525,0.0053482,-0.32243,0.030074,-9.7934,0,0,45.599,1,1,754,996
6331,1.6593e+07,1,-0.0067857,0.00017028,0.0039615,-0.32925,0.050262,-9.8115,0,0,45.599,1,1,754,996
6365,1.6595e+07,1,-0.010394,0.00086906,0.0018649,-0.34438,0.066888,-9.852,0,0,45.599,1,1,754,996
6370,1.6597e+07,1,-0.008767,0.00099377,0.00077787,-0.34782,0.078177,-9.8903,0,0,45.599,1,1,754,996
6373,1.66e+07,1,-0.0086623,0.0019342,0.001595,-0.34448,0.090439,-9.9208,0,0,45.599,1,1,754,996
6377,1.6602e+07,1,-0.0093663,0.0016931,0.0021256,-0.33985,0.095744,-9.9254,0,0,45.599,1,1,754,996
6411,1.6605e+07,1,-0.010775,0.00094882,0.00016722,-0.34365,0.092727,-9.9286,0,0,45.599,1,1,754,996
6414,1.6608e+07,1,-0.01101,0.0011765,-0.0015987,-0.34446,0.082256,-9.9244,0,0,45.599,1,1,754,996
6417,1.661e+07,1,-0.011839,0.0013965,-0.004998,-0.32738,0.057131,-9.9008,0,0,45.599,1,1,754,996
6421,1.6613e+07,1,-0.012065,0.0027934,-0.0071286,-0.31887,0.040509,-9.8869,0,0,45.599,1,1,754,996
6452,1.6615e+07,1,-0.01109,0.0024866,-0.0048057,-0.30587,0.025333,-9.8804,0,0,45.599,1,1,754,996
6456,1.6618e+07,1,-0.012124,0.0014382,-4.5474e-06,-0.29678,0.0193,-9.8645,0,0,45.599,1,1,754,996
6459,1.662e+07,1,-0.013599,0.00367,0.0027167,-0.28501,0.017786,-9.8291,0,0,45.599,1,1,754,996
6462,1.6623e+07,1,-0.014192,0.0054425,0.0033671,-0.27433,0.022126,-9.8049,0,0,45.599,1,1,754,996
6493,1.6625e+07,1,-0.014582,0.0083085,0.003599,-0.26692,0.026663,-9.7763,0,0,45.599,1,1,754,996
6496,1.6628e+07,1,-0.013947,0.0094824,0.0040928,-0.26993,0.029209,-9.7659,0,0,45.599,1,1,754,996
6499,1.663e+07,1,-0.0127,0.010624,0.00086347,-0.27026,0.058706,-9.7514,0,0,45.599,1,1,754,996
6503,1.6633e+07,1,-0.011644,0.0096087,-0.0033363,-0.26356,0.08706,-9.7421,0,0,45.599,1,1,754,996
6534,1.6635e+07,1,-0.010297,0.0051873,-0.0049645,-0.26437,0.11913,-9.723,0,0,45.599,1,1,754,996
6538,1.664e+07,1,-0.0051729,0.0028273,-0.005433,-0.28982,0.14277,-9.7227,0,0,45.599,1,1,754,996
6541,1.6645e+07,1,-0.0027231,0.010296,-0.00074866,-0.30787,0.11854,-9.7024,0,0,45.6,1,1,754,996
6573,1.6647e+07,1,-0.0016548,0.010067,-0.0008105,-0.31284,0.094125,-9.6855,0,0,45.6,1,1,754,996
6576,1.665e+07,1,0.0028211,0.0046164,-0.0014076,-0.31119,0.077178,-9.657,0,0,45.6,1,1,754,996
6579,1.6653e+07,1,0.004286,0.0028629,-0.0011028,-0.30228,0.086932,-9.6501,0,0,45.6,1,1,754,996
6582,1.6655e+07,1,0.0062938,-0.0027451,8.3573e-05,-0.27588,0.097838,-9.6553,0,0,45.6,1,1,754,996
6613,1.6657e+07,1,0.0036549,-0.0066337,0.0017237,-0.25363,0.096961,-9.6594,0,0,45.6,1,1,754,996
6616,1.666e+07,1,0.0028736,-0.0053528,0.0021852,-0.21722,0.091675,-9.6687,0,0,45.6,1,1,754,996
6619,1.6663e+07,1,0.0040088,-0.0031166,-8.5407e-05,-0.19536,0.096097,-9.6761,0,0,45.6,1,1,754,996
6622,1.6665e+07,1,0.0040198,-0.0015646,-0.0021978,-0.17033,0.0893,-9.6866,0,0,45.6,1,1,754,996
6653,1.6668e+07,1,0.0039824,-0.0010676,-0.0022096,-0.16569,0.082044,-9.697,0,0,45.6,1,1,754,996
6657,1.667e+07,1,0.0031405,-0.0023558,0.00043719,-0.1805,0.080479,-9.7219,0,0,45.6,1,1,754,996
6661,1.6673e+07,1,0.0014235,-0.0036087,0.00077041,-0.20591,0.076365,-9.7395,0,0,45.6,1,1,754,996
6664,1.6675e+07,1,-0.0015631,-0.0099584,-0.00081217,-0.24755,0.078623,-9.7707,0,0,45.6,1,1,754,996
6695,1.6678e+07,1,-0.00052681,-0.010621,-0.00090769,-0.27133,0.073355,-9.7939,0,0,45.6,1,1,754,996
6698,1.668e+07,1,0.0021692,-0.0095525,0.00066007,-0.29085,0.067522,-9.8102,0,0,45.6,1,1,754,996
6701,1.6682e+07,1,0.0020688,-0.0076196,0.00079845,-0.29627,0.066877,-9.823,0,0,45.6,1,1,754,996
6704,1.6685e+07,1,0.0024119,-0.0046513,0.0013386,-0.28937,0.064768,-9.8232,0,0,45.6,1,1,754,996
6735,1.6688e+07,1,0.0032229,-0.0019645,0.0020657,-0.28609,0.072128,-9.8156,0,0,45.6,1,1,754,996
6740,1.669e+07,1,0.0031575,-2.6221e-05,0.0023216,-0.27721,0.07862,-9.7973,0,0,45.6,1,1,754,996
6743,1.6693e+07,1,0.0034219,0.00062043,0.0029435,-0.26925,0.08666,-9.785,0,0,45.6,1,1,754,996
6749,1.6695e+07,1,0.0049017,-0.0039791,0.0066404,-0.26641,0.09688,-9.7955,0,0,45.6,1,1,754,996
6781,1.6698e+07,1,0.0063955,-0.0056394,0.0069674,-0.26767,0.098465,-9.8133,0,0,45.6,1,1,754,996
6785,1.67e+07,1,0.0094455,-0.0042665,0.0047941,-0.26968,0.095106,-9.8345,0,0,45.6,1,1,754,996
6788,1.6703e+07,1,0.012441,-0.00059176,-0.00018163,-0.2735,0.08096,-9.8402,0,0,45.6,1,1,754,996
6791,1.6705e+07,1,0.014703,0.0025452,-0.0042288,-0.27045,0.05958,-9.818,0,0,45.6,1,1,754,996
6822,1.6707e+07,1,0.013758,0.0035459,-0.0045995,-0.26388,0.050719,-9.7908,0,0,45.6,1,1,754,996
6826,1.671e+07,1,0.011046,0.0036867,-0.0011813,-0.26128,0.057315,-9.7579,0,0,45.601,1,1,754,996
6829,1.6713e+07,1,0.0095471,0.0025319,0.0010385,-0.26179,0.07323,-9.7368,0,0,45.601,1,1,754,996
6832,1.6715e+07,1,0.004828,-0.0044828,0.0031666,-0.27897,0.092357,-9.7332,0,0,45.601,1,1,754,996
6863,1.6718e+07,1,0.0041818,-0.0048273,0.0018134,-0.28978,0.090846,-9.7171,0,0,45.601,1,1,754,996
6867,1.672e+07,1,0.00524,-0.0022084,-1.4478e-05,-0.28611,0.085316,-9.7053,0,0,45.601,1,1,754,996
6870,1.6722e+07,1,0.0066193,-0.00019585,-0.0001505,-0.27984,0.08148,-9.697,0,0,45.601,1,1,754,996
6873,1.6725e+07,1,0.0056674,0.00035678,0.00054394,-0.28025,0.07612,-9.6785,0,0,45.601,1,1,754,996
6904,1.6728e+07,1,0.0038819,0.0013647,0.0011698,-0.28563,0.077697,-9.671,0,0,45.601,1,1,754,996
6907,1.673e+07,1,0.0018315,0.0023401,0.00078733,-0.29028,0.074526,-9.6612,0,0,45.601,1,1,754,996
6912,1.6733e+07,1,0.00031694,0.0022254,0.0011045,-0.29212,0.070807,-9.6539,0,0,45.601,1,1,754,996
6915,1.6735e+07,1,-2.6508e-05,0.0011222,0.0030312,-0.29701,0.056162,-9.6513,0,0,45.601,1,1,754,996
6946,1.6737e+07,1,-0.00075788,0.0013044,0.0043853,-0.30371,0.052274,-9.6489,0,0,45.601,1,1,754,996
6950,1.6745e+07,1,-0.0036674,0.0053657,0.0033938,-0.29221,0.051398,-9.7067,0,0,45.601,1,1,754,996
6981,1.6748e+07,1,-0.0019903,0.0055957,0.0042493,-0.30086,0.05454,-9.728,0,0,45.601,1,1,754,996
6984,1.675e+07,1,-0.0019016,0.0063294,0.0055689,-0.30724,0.062514,-9.7378,0,0,45.601,1,1,754,996
6987,1.6753e+07,1,-0.0017308,0.0068944,0.0076535,-0.32389,0.06645,-9.7389,0,0,45.601,1,1,754,996
6990,1.6756e+07,1,-0.0026622,0.0041186,0.0083686,-0.34561,0.067444,-9.7218,0,0,45.601,1,1,754,996
7021,1.6758e+07,1,-0.0030114,0.0024907,0.0067796,-0.36525,0.068503,-9.7139,0,0,45.601,1,1,754,996
7025,1.676e+07,1,-0.0022889,0.0046841,0.0024767,-0.36651,0.078021,-9.7085,0,0,45.601,1,1,754,996
7028,1.6763e+07,1,-0.0016406,0.0057043,0.00025186,-0.35111,0.099358,-9.7044,0,0,45.601,1,1,754,996
7031,1.6765e+07,1,2.5283e-05,0.0053774,-0.00086815,-0.31337,0.11786,-9.6974,0,0,45.601,1,1,754,996
7062,1.6768e+07,1,0.00042784,0.0040413,0.00037362,-0.29486,0.11254,-9.7064,0,0,45.602,1,1,754,996
7066,1.6771e+07,1,-0.00043114,0.00349,0.0025095,-0.28166,0.098021,-9.7269,0,0,45.602,1,1,754,996
7069,1.6773e+07,1,-0.0027515,0.0064475,0.0041017,-0.27991,0.086252,-9.7429,0,0,45.602,1,1,754,996
7072,1.6775e+07,1,-0.006093,0.0091844,0.006287,-0.2869,0.063553,-9.7631,0,0,45.602,1,1,754,996
7103,1.6778e+07,1,-0.0092586,0.0093608,0.006027,-0.29261,0.054428,-9.7741,0,0,45.602,1,1,754,996
7107,1.6781e+07,1,-0.0097188,0.0073888,0.0056724,-0.29762,0.043527,-9.7838,0,0,45.602,1,1,754,996
7110,1.6783e+07,1,-0.0096272,0.0048099,0.0052086,-0.28618,0.030115,-9.7865,0,0,45.602,1,1,754,996
7113,1.6785e+07,1,-0.0090374,0.0026682,0.0044881,-0.26883,0.017549,-9.803,0,0,45.602,1,1,754,996
7144,1.6788e+07,1,-0.0087804,0.00048671,0.0038742,-0.27022,0.020021,-9.8081,0,0,45.602,1,1,754,996
7148,1.679e+07,1,-0.0091022,0.00020713,0.0030512,-0.27415,0.026737,-9.8065,0,0,45.602,1,1,754,996
7152,1.6793e+07,1,-0.008531,-0.00031309,-0.0010305,-0.27799,0.035718,-9.7936,0,0,45.602,1,1,754,996
7158,1.6796e+07,1,-0.0068918,-0.0026264,-0.0019716,-0.27922,0.052737,-9.7508,0,0,45.602,1,1,754,996
7192,1.6799e+07,1,-0.0067046,-0.0040858,0.0013915,-0.28028,0.061916,-9.705,0,0,45.602,1,1,754,996
7195,1.68e+07,1,-0.005356,-0.0047149,0.005085,-0.28314,0.062461,-9.6801,0,0,45.602,1,1,754,996
7198,1.6803e+07,1,-0.0034649,-0.0036658,0.0052026,-0.28949,0.066043,-9.6776,0,0,45.602,1,1,754,996
7201,1.6805e+07,1,-0.0017233,-0.0022929,0.0018315,-0.29921,0.089008,-9.7042,0,0,45.602,1,1,754,996
7232,1.6808e+07,1,-0.0022326,-0.0038353,-0.0010808,-0.30662,0.10108,-9.728,0,0,45.602,1,1,754,996
7237,1.6811e+07,1,-0.0043648,-0.0065371,-0.0020674,-0.32061,0.11091,-9.772,0,0,45.602,1,1,754,996
7240,1.6813e+07,1,-0.0057218,-0.0076929,-0.0020507,-0.33325,0.11758,-9.7981,0,0,45.602,1,1,754,996
7243,1.6815e+07,1,-0.0066616,-0.0090872,-0.0014612,-0.33501,0.11179,-9.809,0,0,45.602,1,1,754,996
7274,1.6818e+07,1,-0.0036909,-0.008864,0.00069252,-0.33796,0.10703,-9.8101,0,0,45.602,1,1,754,996
7278,1.6821e+07,1,-0.0023697,-0.0080152,0.0012314,-0.33534,0.10031,-9.7837,0,0,45.602,1,1,754,996
7281,1.6823e+07,1,-0.00090954,-0.0056466,0.00065262,-0.32903,0.1028,-9.77,0,0,45.603,1,1,754,996
7284,1.6826e+07,1,0.00045392,-0.0026091,-0.0015337,-0.31555,0.092991,-9.7666,0,0,45.603,1,1,754,996
7315,1.6828e+07,1,0.0035986,-0.00020251,-0.0031219,-0.29421,0.091018,-9.7641,0,0,45.603,1,1,754,996
7318,1.6831e+07,1,0.0064792,0.0017834,-0.0038356,-0.28215,0.088734,-9.7625,0,0,45.603,1,1,754,996
7321,1.6833e+07,1,0.007268,0.0022912,-0.0029322,-0.28022,0.081817,-9.7601,0,0,45.603,1,1,754,996
7324,1.6836e+07,1,0.0078965,0.0027456,0.0011667,-0.28036,0.069149,-9.7725,0,0,45.603,1,1,754,996
7355,1.6838e+07,1,0.0053096,0.0032338,0.0068674,-0.28245,0.061034,-9.7995,0,0,45.603,1,1,754,996
7359,1.684e+07,1,0.0045776,0.002935,0.007739,-0.29624,0.064416,-9.8006,0,0,45.603,1,1,754,996
7362,1.6843e+07,1,0.0045857,0.0026916,0.0055712,-0.31215,0.063447,-9.7982,0,0,45.603,1,1,754,996
7365,1.6845e+07,1,0.0053097,0.0029565,0.0027497,-0.34296,0.057965,-9.8056,0,0,45.603,1,1,754,996
7396,1.6849e+07,1,0.0057225,0.0033487,0.00089997,-0.36532,0.056923,-9.8157,0,0,45.603,1,1,754,996
7399,1.6853e+07,1,0.002348,0.004195,0.00022412,-0.41687,0.074424,-9.7787,0,0,45.603,1,1,754,996
7402,1.6856e+07,1,0.0029245,0.004892,0.00072263,-0.43578,0.078744,-9.7673,0,0,45.603,1,1,754,996
7433,1.6858e+07,1,0.0060188,0.0061453,0.0012732,-0.44542,0.093126,-9.7677,0,0,45.603,1,1,754,996
7436,1.6862e+07,1,0.0070141,0.0057349,0.0020398,-0.44128,0.11057,-9.7617,0,0,45.603,1,1,754,996
7439,1.6864e+07,1,0.0084065,0.0056447,0.0029781,-0.40803,0.12512,-9.759,0,0,45.603,1,1,754,996
7443,1.6866e+07,1,0.0090093,0.0071515,0.002747,-0.37479,0.1217,-9.756,0,0,45.603,1,1,754,996
7475,1.6868e+07,1,0.0094619,0.0076675,0.0023198,-0.32806,0.12707,-9.7658,0,0,45.604,1,1,754,996
7478,1.6871e+07,1,0.010379,0.008439,0.0026276,-0.29952,0.13354,-9.7565,0,0,45.604,1,1,754,996
7481,1.6874e+07,1,0.010899,0.0077798,0.0030163,-0.26191,0.12617,-9.7182,0,0,45.604,1,1,754,996
7485,1.6876e+07,1,0.0094524,0.0061864,0.00061701,-0.2443,0.11983,-9.6909,0,0,45.604,1,1,754,996
7516,1.6879e+07,1,0.0067119,0.0048141,-0.0003727,-0.23216,0.11803,-9.6753,0,0,45.604,1,1,754,996
7519,1.6881e+07,1,0.0035274,0.003424,0.00020812,-0.24126,0.1171,-9.6836,0,0,45.604,1,1,754,996
7522,1.6884e+07,1,0.0022448,0.0020061,0.00074599,-0.25524,0.11658,-9.7072,0,0,45.604,1,1,754,996
7525,1.6886e+07,1,0.0023933,0.0017681,0.0034143,-0.26944,0.13301,-9.7333,0,0,45.604,1,1,754,996
7556,1.6889e+07,1,0.0028157,0.0024519,0.0034348,-0.27479,0.13915,-9.7331,0,0,45.604,1,1,754,996
7559,1.6891e+07,1,0.0049398,0.0084424,-0.00075482,-0.29089,0.13516,-9.7284,0,0,45.604,1,1,754,996
7562,1.6894e+07,1,0.0059944,0.0087552,-0.0016028,-0.303,0.12775,-9.7395,0,0,45.604,1,1,754,996
7569,1.6896e+07,1,0.010264,0.006336,-0.0038703,-0.3141,0.1156,-9.7726,0,0,45.604,1,1,754,996
7601,1.6899e+07,1,0.011369,0.0053795,-0.0046112,-0.32348,0.11103,-9.7913,0,0,45.604,1,1,754,996
7604,1.6901e+07,1,0.012017,0.0042287,-0.0053924,-0.33395,0.11517,-9.7875,0,0,45.604,1,1,754,996
7608,1.6903e+07,1,0.0076897,0.0048731,-0.0022004,-0.34231,0.11875,-9.7691,0,0,45.604,1,1,754,996
7611,1.6906e+07,1,0.00051286,0.0050408,0.00090069,-0.35452,0.12788,-9.7483,0,0,45.604,1,1,754,996
7642,1.6909e+07,1,-0.0035811,0.0033266,0.0020571,-0.35696,0.13199,-9.7355,0,0,45.604,1,1,754,996
7645,1.6911e+07,1,-0.0029767,0.00089827,0.0003652,-0.34381,0.13158,-9.7315,0,0,45.604,1,1,754,996
7649,1.6914e+07,1,-0.00095141,-0.00026029,-0.0013039,-0.33458,0.12562,-9.7478,0,0,45.604,1,1,754,996
7653,1.6916e+07,1,0.0025339,-0.00012521,-0.0025591,-0.3261,0.12031,-9.7683,0,0,45.604,1,1,754,996
7684,1.6919e+07,1,0.0024813,0.00037508,-0.00094409,-0.32751,0.11391,-9.7855,0,0,45.604,1,1,754,996
7687,1.6921e+07,1,0.00034873,-0.00011147,0.001582,-0.34011,0.10143,-9.8165,0,0,45.604,1,1,754,996
7690,1.6924e+07,1,-0.0039788,-0.00047741,-0.00029195,-0.35038,0.094673,-9.8303,0,0,45.604,1,1,754,996
7694,1.6926e+07,1,-0.0044806,0.0028343,-0.0035022,-0.35377,0.11309,-9.8336,0,0,45.604,1,1,754,996
7725,1.6929e+07,1,-0.002572,0.007175,-0.0049814,-0.34463,0.13032,-9.812,0,0,45.604,1,1,754,996
7728,1.6931e+07,1,-0.0023866,0.006265,-0.004595,-0.31816,0.13641,-9.7538,0,0,45.604,1,1,754,996
7733,1.6934e+07,1,-0.0051738,0.0048143,-0.0039448,-0.29996,0.1387,-9.7281,0,0,45.604,1,1,754,996
7736,1.6939e+07,1,-0.0071964,0.0065696,-0.0056564,-0.27818,0.14237,-9.7385,0,0,45.604,1,1,754,996
7767,1.6941e+07,1,-0.0092529,0.0042147,-0.0071379,-0.28403,0.15543,-9.7914,0,0,45.604,1,1,754,996
7770,1.6944e+07,1,-0.013111,0.002295,-0.010321,-0.29567,0.16524,-9.8255,0,0,45.604,1,1,753,995
7774,1.6947e+07,1,-0.014011,0.0010363,-0.011722,-0.29758,0.17108,-9.8327,0,0,45.604,1,1,753,995
7777,1.6949e+07,1,-0.0086256,-0.0012839,-0.01023,-0.30066,0.16865,-9.829,0,0,45.604,1,1,753,995
7808,1.6954e+07,1,-0.0062929,0.0014813,-0.0034412,-0.26688,0.16099,-9.78,0,0,45.604,1,1,753,995
7811,1.6956e+07,1,-0.0051772,0.0062056,-0.00082025,-0.27333,0.15363,-9.7608,0,0,45.604,1,1,753,995
7814,1.6959e+07,1,-0.0035075,0.0076716,-0.00038718,-0.28576,0.14223,-9.7436,0,0,45.604,1,1,753,995
7845,1.6962e+07,1,-0.0027075,0.0059741,0.00032578,-0.29902,0.12374,-9.7354,0,0,45.604,1,1,753,995
7848,1.6965e+07,1,-0.0024161,0.0034784,0.0015053,-0.29723,0.10538,-9.7301,0,0,45.604,1,1,753,995
7853,1.6967e+07,1,-0.002736,0.0030459,0.0012168,-0.29319,0.087349,-9.7384,0,0,45.604,1,1,753,995
7856,1.6969e+07,1,-0.0017711,0.00542,0.00077751,-0.29757,0.073935,-9.7564,0,0,45.604,1,1,753,995
7887,1.6971e+07,1,-0.0019958,0.006125,0.0017474,-0.30142,0.056045,-9.7769,0,0,45.604,1,1,753,995
7890,1.6974e+07,1,-0.0047753,0.0064782,0.0029081,-0.30714,0.051928,-9.7703,0,0,45.604,1,1,753,995
7893,1.6977e+07,1,-0.0048514,0.0060937,0.0031978,-0.3144,0.049348,-9.7673,0,0,45.604,1,1,753,995
7896,1.6979e+07,1,-0.0019426,0.0046022,0.0033592,-0.31857,0.058154,-9.761,0,0,45.604,1,1,753,995
7927,1.6982e+07,1,0.00075128,0.003253,0.0034549,-0.31847,0.086171,-9.7702,0,0,45.604,1,1,753,995
