LineNo,TimeUS,I,GyrX,GyrY,GyrZ,AccX,AccY,AccZ,EG,EA,T,GH,AH,GHz,AHz
186,15037020,1,-0.002295911,-0.005961876,0.002234342,-0.3013192,0.07158558,-9.758362999999999,0,0,45.57775,1,1,754,996
217,15039579,1,-0.001105558,-0.004803337,0.0005237909,-0.2947325,0.05975291,-9.767664,0,0,45.57775,1,1,754,996
289,15071017,1,0.004248066,-0.0008009496,-0.0001909212,-0.3176127,0.1429489,-9.849002,0,0,45.57774,1,1,754,996
320,15073159,1,0.002940332,0.0006446797999999999,0.0001777313,-0.2976466,0.1311024,-9.837350000000001,0,0,45.57774,1,1,754,996
400,15090845,1,0.005217727,-0.00621415,0.005105482,-0.2742043,-0.0009262332,-9.77844,0,0,45.57777,1,1,754,996
515,15112284,1,-0.003718072,0.001066709,0.01014688,-0.3229081,0.06238428,-9.737363999999999,0,0,45.57777,1,1,754,996
631,15132723,1,0.005674698,0.003500202,0.003613312,-0.2645123,0.1107451,-9.777087,0,0,45.57784,1,1,754,996
744,15149017,1,-0.003134208,-0.006229931,0.002572434,-0.2548485,0.1810245,-9.754001000000001,0,0,45.57788,1,1,754,996
857,15164609,1,0.001451446,-0.005502793,-0.002987941,-0.2474907,0.1254242,-9.769446,0,0,45.578,1,1,754,996
970,15182013,1,-0.0002035586,0.005737652,-0.001684243,-0.2451696,0.1279859,-9.787944,0,0,45.57807,1,1,754,996
1083,15203857,1,-2.833829e-05,0.0007696074,0.004996828,-0.322111,0.08794821999999999,-9.727563,0,0,45.57825,1,1,754,996
1198,15256035,1,-0.002518935,0.001225185,0.01015357,-0.3453245,0.08427861,-9.850621,0,0,45.57886,1,1,754,996
1201,15259852,1,-0.002632267,-0.001790998,0.01460176,-0.3227144,0.1086673,-9.777855000000001,0,0,45.57886,1,1,754,996
1310,15329590,1,-0.007543098,0.000132029,0.004354634,-0.3046761,0.1369863,-9.807357,0,0,45.57967,1,1,754,996
1404,15386314,1,-0.005667263,0.001429514,0.00404519,-0.2458142,0.1061552,-9.729893000000001,0,0,45.58017,1,1,754,996
1493,15400621,1,0.001330428,-0.003247538,0.003868617,-0.252283,0.0246594,-9.775415000000001,0,0,45.58021,1,1,754,996
1585,15415571,1,-0.002993826,-0.0001166908,-0.001132463,-0.2639125,0.1286636,-9.721067,0,0,45.58026,1,1,754,996
1617,15418088,1,-0.0002115825,-0.0027415,0.002056961,-0.249192,0.1387516,-9.708971999999999,0,0,45.58031,1,1,754,996
1657,15421315,1,0.002934122,-0.005100844,0.003917731,-0.2477506,0.137717,-9.720893999999999,0,0,45.58031,1,1,754,996
1660,15423801,1,0.003803347,-0.004520161,0.00286464,-0.2458348,0.1391698,-9.72973,0,0,45.58031,1,1,754,996
1663,15425931,1,0.002955052,-0.002664169,0.001135494,-0.2453374,0.1391775,-9.731488000000001,0,0,45.58031,1,1,754,996
1695,15428680,1,0.001195172,-0.0003834864,0.002027752,-0.2467519,0.134326,-9.740418,0,0,45.58038,1,1,754,996
1698,15431597,1,-0.0005454102,-0.0008101299,0.004732248,-0.2572013,0.1215486,-9.733143999999999,0,0,45.58038,1,1,754,996
1701,15433929,1,-0.001254749,-0.001225329,0.005478894,-0.272122,0.1201976,-9.722742,0,0,45.58038,1,1,754,996
1705,15436260,1,-0.0002230946,0.0004945569,0.003577536,-0.2959609,0.1176137,-9.718743999999999,0,0,45.58038,1,1,754,996
1736,15438721,1,0.0006684856,0.001479784,0.001596865,-0.3018947,0.1197732,-9.726240000000001,0,0,45.58038,1,1,754,996
1739,15441028,1,9.488693e-05,0.0009183841,0.0009587895,-0.3121805,0.1202692,-9.73352,0,0,45.58044,1,1,754,996
1742,15444052,1,0.0004543118,0.001125226,0.0001986353,-0.3177228,0.1204842,-9.725331000000001,0,0,45.58044,1,1,754,996
1745,15446294,1,0.003460928,0.002346899,-0.002200331,-0.3248626,0.1207736,-9.712078,0,0,45.58044,1,1,754,996
1777,15448620,1,0.003674204,0.002993566,-0.001171541,-0.3311804,0.1234551,-9.710777999999999,0,0,45.58044,1,1,754,996
1780,15451006,1,0.002758311,0.003935554,0.002080059,-0.3419755,0.1182515,-9.698482,0,0,45.5805,1,1,754,996
1783,15453572,1,0.001825957,0.003611921,0.002601296,-0.3409042,0.1101707,-9.675390999999999,0,0,45.5805,1,1,754,996
1786,15459931,1,0.001921614,-0.0004900179,-0.001646751,-0.3087997,0.09733538999999999,-9.634518999999999,0,0,45.5805,1,1,754,996
1817,15462160,1,0.002736139,0.0007084443,-0.003059666,-0.2809404,0.1119927,-9.642153,0,0,45.58054,1,1,754,996
1820,15464629,1,0.003576707,0.002037395,-0.003340243,-0.2504811,0.1239577,-9.669598000000001,0,0,45.58054,1,1,754,996
1823,15467749,1,0.003015468,0.002870848,-0.002508298,-0.2380812,0.126206,-9.696099999999999,0,0,45.58054,1,1,754,996
1826,15470926,1,-0.002380997,0.003724559,-0.00236125,-0.2331029,0.1103729,-9.728598,0,0,45.58054,1,1,754,996
1829,15472270,1,-0.00378387,0.00397621,-0.004665503,-0.236596,0.09112097,-9.745343999999999,0,0,45.58059,1,1,754,996
1861,15474609,1,-0.004922777,0.005380559,-0.008113964,-0.2525361,0.06113106,-9.736378999999999,0,0,45.58059,1,1,754,996
1864,15477154,1,-0.005385105,0.005264025,-0.007788258,-0.2683931,0.04989838,-9.713028,0,0,45.58059,1,1,754,996
1868,15480293,1,-0.006163767,0.004061277,-0.003939048,-0.2842722,0.04002256,-9.680206,0,0,45.58059,1,1,754,996
1871,15482694,1,-0.003932883,0.0006234648,0.002838445,-0.2871879,0.04231209,-9.651107,0,0,45.58059,1,1,754,996
1903,15484839,1,-0.0003373371,-0.005057568,0.008005276,-0.2796874,0.05406381,-9.623483999999999,0,0,45.58064,1,1,754,996
1909,15487232,1,0.0009621859,-0.009468117,0.009307549,-0.2707406,0.05788919,-9.613097,0,0,45.58064,1,1,754,996
1913,15489875,1,0.002071035,-0.01217632,0.008786011,-0.2500446,0.06893225,-9.612557000000001,0,0,45.58064,1,1,754,996
1916,15492418,1,0.002717641,-0.01217608,0.008051071999999999,-0.2321845,0.07107140000000001,-9.608459,0,0,45.58064,1,1,754,996
1947,15495129,1,0.005163361,-0.004187053,0.004394651,-0.2139232,0.07817296999999999,-9.599007,0,0,45.58072,1,1,754,996
1950,15497699,1,0.006166559,-9.693505e-06,0.003531266,-0.2103888,0.08928946,-9.616448999999999,0,0,45.58072,1,1,754,996
1953,15499665,1,0.00841392,0.005985283,0.002083809,-0.215874,0.09868668999999999,-9.649319999999999,0,0,45.58072,1,1,754,996
1956,15502198,1,0.009334531,0.007742525,0.002150715,-0.2332887,0.1075684,-9.663793,0,0,45.58072,1,1,754,996
1988,15504665,1,0.008092781,0.008053516,0.00390466,-0.2534204,0.1157904,-9.685069,0,0,45.58072,1,1,754,996
1991,15507825,1,0.005661577,0.007759239,0.006135396,-0.2516864,0.1134316,-9.702229000000001,0,0,45.58082,1,1,754,996
1994,15510018,1,0.004267527,0.005152321,0.005384639,-0.2371671,0.0994464,-9.716831000000001,0,0,45.58082,1,1,754,996
1997,15512587,1,0.003718199,0.003760925,0.003756847,-0.223266,0.09208813,-9.700302000000001,0,0,45.58082,1,1,754,996
2028,15514674,1,0.002045611,0.001862961,0.0004340211,-0.1992363,0.09883905,-9.67906,0,0,45.58082,1,1,754,996
2031,15517329,1,0.0008441755,0.001210628,-0.0010705,-0.1902744,0.1034154,-9.689264,0,0,45.58094,1,1,754,996
2034,15520125,1,0.0005666768,0.001453151,-0.001593278,-0.1755359,0.105855,-9.726523,0,0,45.58094,1,1,754,996
2038,15522782,1,0.002049647,0.001235231,0.0002510079,-0.1620875,0.1015705,-9.748906,0,0,45.58094,1,1,754,996
2071,15524880,1,0.005009592,-0.0001638952,0.00242873,-0.1541318,0.1054877,-9.781306000000001,0,0,45.58094,1,1,754,996
2075,15527368,1,0.006936959,0.001436307,0.001183122,-0.1537319,0.1262003,-9.8003,0,0,45.58105,1,1,754,996
2078,15529632,1,0.00459621,0.003755555,-0.0002572637,-0.1673774,0.1575735,-9.824828,0,0,45.58105,1,1,754,996
2081,15536313,1,0.005605607,0.006427249,-0.001444365,-0.2129614,0.1608866,-9.829086999999999,0,0,45.58105,1,1,754,996
2084,15537825,1,0.006730231,0.004982803,0.002817241,-0.2132241,0.1540671,-9.817181,0,0,45.58119,1,1,754,996
2118,15540310,1,0.005779898,0.003097643,0.003862008,-0.2144259,0.14993,-9.799045,0,0,45.58119,1,1,754,996
2121,15543080,1,0.005182413,0.001585044,0.002164872,-0.221047,0.1414626,-9.776396,0,0,45.58119,1,1,754,996
2124,15545098,1,0.004232026,-0.001417639,-0.001418514,-0.2325187,0.1313479,-9.761107000000001,0,0,45.58119,1,1,754,996
2128,15547925,1,0.003380819,-0.0006157857,-0.003008217,-0.2356634,0.1260623,-9.748635,0,0,45.58119,1,1,754,996
2159,15550619,1,0.002445009,0.002782394,-0.004104663,-0.2299534,0.1156938,-9.753738999999999,0,0,45.58134,1,1,754,996
2162,15552933,1,0.0009915665000000001,0.0043926,-0.004034655,-0.2303162,0.106626,-9.767258,0,0,45.58134,1,1,754,996
2165,15555582,1,-0.0002944976,0.001850342,-0.004407412,-0.2320247,0.08898093999999999,-9.76976,0,0,45.58134,1,1,754,996
2168,15557884,1,-0.0004298359,-0.0001511917,-0.005021091,-0.2304099,0.08422609,-9.756046,0,0,45.58134,1,1,754,996
2200,15560783,1,-0.003120817,-0.003345383,-0.0061955,-0.226183,0.07093257,-9.731285,0,0,45.58152,1,1,754,996
2203,15562683,1,-0.004652325,-0.003395354,-0.005861938,-0.2265326,0.06670874,-9.713381999999999,0,0,45.58152,1,1,754,996
2206,15565225,1,-0.007930309999999999,-0.00200806,-0.000486392,-0.2189114,0.0698759,-9.690969000000001,0,0,45.58152,1,1,754,996
2209,15567818,1,-0.007216119,-0.002156322,0.001752753,-0.2108977,0.07640497,-9.671066,0,0,45.58152,1,1,754,996
2241,15570906,1,-0.004693873,-0.004790963,0.005319216,-0.2080375,0.09531341,-9.649982,0,0,45.58152,1,1,754,996
2244,15573096,1,-0.002373338,-0.00481172,0.007469807,-0.2142709,0.1143482,-9.659890000000001,0,0,45.58171,1,1,754,996
2247,15575016,1,-0.002807622,-0.004661928,0.009671997,-0.2303915,0.1544184,-9.677519,0,0,45.58171,1,1,754,996
2250,15577936,1,-0.002445039,-0.006556257,0.008900464,-0.239382,0.188208,-9.685805,0,0,45.58171,1,1,754,996
2281,15580106,1,-0.0001886606,-0.007094057,0.005581799,-0.256718,0.2216268,-9.690129000000001,0,0,45.58171,1,1,754,996
2284,15583082,1,0.0009307268,-0.006675771,0.004338586,-0.2656872,0.2284352,-9.698689999999999,0,0,45.58191,1,1,754,996
2288,15585471,1,0.002547086,-0.00360044,0.002955938,-0.2664723,0.2311089,-9.721154,0,0,45.58191,1,1,754,996
2294,15587967,1,0.002102571,-0.003004069,0.003099485,-0.272258,0.2278668,-9.727562000000001,0,0,45.58191,1,1,754,996
2326,15590287,1,-0.003303685,-0.004626974,0.001427813,-0.2867872,0.2121017,-9.737427,0,0,45.58191,1,1,754,996
2330,15593117,1,-0.00430982,-0.00472186,-0.0005133547,-0.3028223,0.2127487,-9.749336,0,0,45.58191,1,1,754,996
2333,15595624,1,-0.003543351,-0.002590739,-0.002733533,-0.3282807,0.2171538,-9.786536,0,0,45.58213,1,1,754,996
2336,15598166,1,-0.002444797,-0.0007571994,-0.0005454945000000001,-0.346107,0.2211485,-9.817332,0,0,45.58213,1,1,754,996
2367,15600582,1,-0.002289488,-0.0002784073,0.0005051651000000001,-0.3663229,0.222373,-9.842991,0,0,45.58213,1,1,754,996
2371,15602933,1,-0.003235366,0.003177768,-0.002445274,-0.3823075,0.206909,-9.858067999999999,0,0,45.58213,1,1,754,996
2374,15605336,1,-0.003786253,0.006368155,-0.001952346,-0.3904365,0.1924276,-9.873899,0,0,45.5824,1,1,754,996
2377,15608328,1,-0.002355931,0.007059741,0.00260693,-0.390925,0.1661369,-9.869317000000001,0,0,45.5824,1,1,754,996
2408,15611061,1,-0.0006710247,0.003582798,0.004896699,-0.3740252,0.1476976,-9.841551000000001,0,0,45.5824,1,1,754,996
2415,15613297,1,0.0002134081,-0.001616198,0.00581172,-0.3428683,0.117084,-9.804216,0,0,45.5824,1,1,754,996
2418,15615677,1,-5.986819e-06,-0.003220041,0.006262559,-0.322323,0.1080348,-9.790552,0,0,45.58271,1,1,754,996
2421,15618338,1,0.002293589,-0.005220909,0.007975339,-0.3015458,0.1107697,-9.791461,0,0,45.58271,1,1,754,996
2452,15621169,1,0.003496636,-0.005366195,0.007990613000000001,-0.2962318,0.1153175,-9.791052000000001,0,0,45.58271,1,1,754,996
2455,15622891,1,0.005808042,-0.004460484,0.005142597,-0.2785912,0.1241835,-9.777323000000001,0,0,45.58271,1,1,754,996
2458,15625853,1,0.007051898,-0.003121697,-0.00061605,-0.2755029,0.1324015,-9.763088,0,0,45.58271,1,1,754,996
2461,15628020,1,0.007623994,-0.00315833,-0.005321233,-0.278963,0.14425,-9.741617,0,0,45.58304,1,1,754,996
2492,15630615,1,0.007379841,0.0002052861,-0.006760772,-0.2885483,0.1465898,-9.740069,0,0,45.58304,1,1,754,996
2496,15637169,1,-0.002075195,0.007732651,-0.001680378,-0.3003937,0.1413719,-9.763339999999999,0,0,45.58304,1,1,754,996
2499,15638774,1,-0.004681787,0.006548638,0.001509031,-0.3074063,0.1404452,-9.785557000000001,0,0,45.58341,1,1,754,996
2530,15641301,1,-0.002760769,0.005132786,0.006417168,-0.3165742,0.1348265,-9.829580999999999,0,0,45.58341,1,1,754,996
2535,15644147,1,-0.0007614459,0.004115994,0.008866976,-0.3176229,0.1237457,-9.841142,0,0,45.58341,1,1,754,996
2538,15646054,1,0.0004925055999999999,0.00136306,0.008927216,-0.3052399,0.1069125,-9.823636,0,0,45.58341,1,1,754,996
2542,15648848,1,-0.0001370722,0.000686379,0.007107753,-0.3014012,0.1102526,-9.804992,0,0,45.58341,1,1,754,996
2573,15651309,1,0.0003259695,0.0006860463,0.002697747,-0.3160365,0.1213883,-9.775473,0,0,45.58381,1,1,754,996
2576,15654221,1,-0.0001854463,0.002655488,-0.0001808946,-0.3209485,0.1181849,-9.756213000000001,0,0,45.58381,1,1,754,996
2579,15656614,1,-0.0003474933,0.003201046,-0.0009930920000000001,-0.3113726,0.09916162000000001,-9.757816999999999,0,0,45.58381,1,1,754,996
2582,15658822,1,0.001562295,0.00290897,-7.377061e-05,-0.3020206,0.09612466,-9.767842,0,0,45.58381,1,1,754,996
2613,15661381,1,0.004451807,0.002529822,0.003259834,-0.299241,0.09722741999999999,-9.812087,0,0,45.58424,1,1,754,996
2617,15663658,1,0.006444834,0.002433951,0.005064202,-0.2915746,0.09216367,-9.858858,0,0,45.58424,1,1,754,996
2620,15666641,1,0.007559801,0.003652146,0.006749318,-0.2694779,0.08900573000000001,-9.915882999999999,0,0,45.58424,1,1,754,996
2623,15668831,1,0.007207923,0.004081612,0.007360505,-0.2589619,0.09011336,-9.935933,0,0,45.58424,1,1,754,996
2654,15672019,1,0.003570236,0.00190368,0.002027521,-0.2747775,0.08424047,-9.956474999999999,0,0,45.58471,1,1,754,996
2657,15673569,1,0.003121476,0.001472276,-0.002679333,-0.2900337,0.07409166,-9.955493000000001,0,0,45.58471,1,1,754,996
2660,15676067,1,0.00315519,0.001948484,-0.004255591,-0.2895884,0.0642572,-9.930861,0,0,45.58471,1,1,754,996
2663,15678808,1,0.002595227,0.003648449,-0.005537257,-0.2815261,0.06692882999999999,-9.898704,0,0,45.58471,1,1,754,996
2694,15681824,1,0.003481297,0.005234136,-0.002636392,-0.2685019,0.05099348,-9.85258,0,0,45.58471,1,1,754,996
2698,15684113,1,0.00552419,0.004559455,0.002121991,-0.2635902,0.02882586,-9.831597,0,0,45.58519,1,1,754,996
2701,15686242,1,0.006916073,0.003814348,0.006022543,-0.276343,-0.008349186999999999,-9.808752,0,0,45.58519,1,1,754,996
2708,15688877,1,0.007186893,0.00363979,0.006680564,-0.293117,-0.02080408,-9.800943,0,0,45.58519,1,1,754,996
2740,15691569,1,0.007363538,0.00373302,0.006481328,-0.3045174,-0.01094693,-9.791546,0,0,45.58519,1,1,754,996
2743,15694088,1,0.007605015,0.003440052,0.003290245,-0.3019424,0.001942121,-9.773046000000001,0,0,45.58519,1,1,754,996
2746,15696558,1,0.007690867,0.002015847,-1.105722e-05,-0.3041793,0.01517804,-9.729759,0,0,45.58567,1,1,754,996
2749,15698848,1,0.007675813,0.001532911,-0.0008367858,-0.310224,0.023881,-9.698669000000001,0,0,45.58567,1,1,754,996
2780,15701269,1,0.00679238,0.001403248,-0.0004966989,-0.2930487,0.05156209,-9.668035,0,0,45.58567,1,1,754,996
2784,15703601,1,0.004760663,0.001099115,0.001810241,-0.2742143,0.067889,-9.650128,0,0,45.58567,1,1,754,996
2787,15706720,1,0.001189681,0.003477771,0.005005747,-0.2297136,0.08272834,-9.648205000000001,0,0,45.58612,1,1,754,996
2790,15709226,1,-0.0005814999,0.007015209,0.004367143,-0.2041524,0.09303652,-9.65978,0,0,45.58612,1,1,754,996
2821,15711456,1,-0.0001772722,0.008799822000000001,0.003279923,-0.208123,0.1260392,-9.68994,0,0,45.58612,1,1,754,996
2825,15713618,1,-0.0004830156,0.009290415999999999,0.00165725,-0.2157642,0.1489543,-9.692278999999999,0,0,45.58612,1,1,754,996
2828,15716083,1,-0.002046214,0.008013777,-0.0006795914,-0.2328629,0.1678167,-9.689622999999999,0,0,45.58656,1,1,754,996
2831,15718894,1,-0.001473451,0.007400732,-0.001812622,-0.2480282,0.1761048,-9.69276,0,0,45.58656,1,1,754,996
2862,15721919,1,0.001564572,0.006274749,-0.003239319,-0.2710707,0.1661853,-9.692905,0,0,45.58656,1,1,754,996
2865,15724014,1,0.003620327,0.003927594,-0.001859651,-0.2849102,0.1501312,-9.689608,0,0,45.58656,1,1,754,996
2868,15726616,1,0.004954203,0.003188904,0.0008978543,-0.2913988,0.1223305,-9.693312000000001,0,0,45.58656,1,1,754,996
2871,15728920,1,0.004710105,0.003534077,0.002190297,-0.2968681,0.1051642,-9.703110000000001,0,0,45.58698,1,1,754,996
2902,15731621,1,0.002773025,0.003121695,0.0006342029,-0.3073931,0.08667647000000001,-9.699786,0,0,45.58698,1,1,754,996
2907,15735046,1,0.0004542852,0.001546915,-0.002876842,-0.3104414,0.07422711999999999,-9.687999,0,0,45.58698,1,1,754,996
2910,15736757,1,-0.003337314,-0.0005586959,-0.005128406,-0.3180406,0.07487737,-9.679955,0,0,45.58698,1,1,754,996
2913,15738788,1,-0.004450166,-0.0005692826,-0.004274842,-0.3224433,0.08360608999999999,-9.685942000000001,0,0,45.58739,1,1,754,996
2946,15741585,1,-0.002470628,-0.001724861,0.001012538,-0.3243825,0.09365372,-9.709496,0,0,45.58739,1,1,754,996
2949,15743783,1,-0.0006020251,-0.001701673,0.002257772,-0.3233524,0.09632099,-9.726649,0,0,45.58739,1,1,754,996
2952,15746605,1,0.002951648,-0.0003808433,0.004627355,-0.3223751,0.08882853,-9.744828,0,0,45.58739,1,1,754,996
2955,15748825,1,0.005403041,-0.0009252756,0.006023708,-0.3090216,0.07827571,-9.749763,0,0,45.58739,1,1,754,996
2986,15751609,1,0.006601253,-0.001972943,0.0045272,-0.2772273,0.05691325,-9.762935000000001,0,0,45.58779,1,1,754,996
2991,15756787,1,0.00416418,-0.002508363,0.0009073124,-0.2235639,0.02367673,-9.792804,0,0,45.58779,1,1,754,996
2994,15758927,1,0.002544526,-0.00153265,0.0004643993,-0.2129368,0.02642139,-9.822129,0,0,45.58779,1,1,754,996
3025,15761842,1,-0.001280552,0.0003830802,-0.0005396204,-0.2119632,0.03914114,-9.850598,0,0,45.58819,1,1,754,996
3029,15764447,1,-0.005662388,0.0006012467,0.0005507751,-0.2121887,0.06928624,-9.876772000000001,0,0,45.58819,1,1,754,996
3033,15766457,1,-0.00713343,0.0009342129,0.002004856,-0.2168289,0.08989662,-9.882469,0,0,45.58819,1,1,754,996
3036,15769297,1,-0.007908846000000001,0.003582063,0.004742426,-0.2228291,0.09121353,-9.884259,0,0,45.58819,1,1,754,996
3067,15772097,1,-0.01026102,0.00404111,0.002707411,-0.2201198,0.08226894,-9.891500000000001,0,0,45.58856,1,1,754,996
3070,15774076,1,-0.00917479,0.002807059,0.00213702,-0.2221073,0.0865287,-9.902210999999999,0,0,45.58856,1,1,754,996
3073,15776781,1,-0.007479258,0.002493188,0.002148798,-0.2268538,0.09362951999999999,-9.90321,0,0,45.58856,1,1,754,996
3076,15779240,1,-0.003453787,0.003589025,0.002512675,-0.2160311,0.1064771,-9.889165,0,0,45.58856,1,1,754,996
3107,15782128,1,0.0005330571,0.004793413,0.003251371,-0.2071489,0.104231,-9.882182999999999,0,0,45.58856,1,1,754,996
3111,15783933,1,0.001546636,0.004626427,0.004624954,-0.2003648,0.08788718,-9.893250999999999,0,0,45.58891,1,1,754,996
3114,15786476,1,0.0004316036,0.0005508726,0.006655115,-0.2010885,0.0827806,-9.905345000000001,0,0,45.58891,1,1,754,996
3120,15789552,1,0.0004258106,-0.002458115,0.005762935,-0.2091249,0.08650304,-9.922098,0,0,45.58891,1,1,754,996
3154,15792115,1,0.001482138,-0.001667637,0.00437987,-0.2227613,0.09132111,-9.907268,0,0,45.58891,1,1,754,996
3158,15794893,1,0.002064168,-0.001083296,0.003257341,-0.2318577,0.09256473,-9.890485999999999,0,0,45.58924,1,1,754,996
3161,15797046,1,0.001837641,-0.0006116217,0.002927142,-0.2472478,0.09623651,-9.878346000000001,0,0,45.58924,1,1,754,996
3164,15799346,1,0.0001131421,-0.002069323,0.003150859,-0.271851,0.09349829,-9.875076999999999,0,0,45.58924,1,1,754,996
3195,15802238,1,-0.001631221,-0.002255649,0.00231185,-0.3055979,0.08473372,-9.866269000000001,0,0,45.58924,1,1,754,996
3199,15804242,1,-0.001398211,-0.0007949017,0.001736894,-0.3194315,0.09143823,-9.856232,0,0,45.58958,1,1,754,996
3202,15807267,1,0.0003610376,0.005492298,-0.0007932485,-0.3329548,0.1043167,-9.857529,0,0,45.58958,1,1,754,996
3205,15809455,1,0.001486117,0.009595648999999999,-0.002443923,-0.3319209,0.1026789,-9.845952,0,0,45.58958,1,1,754,996
3236,15812027,1,-0.0007249013,0.009334392,-0.001512627,-0.3115972,0.1017377,-9.815505999999999,0,0,45.58958,1,1,754,996
3240,15814729,1,-0.002448626,0.009537446999999999,0.0006555538,-0.2931684,0.1053149,-9.8154,0,0,45.58958,1,1,754,996
3243,15817013,1,-0.000181743,0.01018752,0.003437082,-0.2730888,0.1096223,-9.816060999999999,0,0,45.58991,1,1,754,996
3246,15820056,1,0.001374471,0.007973516999999999,0.005236516,-0.2693408,0.107558,-9.82267,0,0,45.58991,1,1,754,996
3277,15822554,1,0.000305087,0.004114915,0.006422429,-0.2603428,0.09547976,-9.839842000000001,0,0,45.58991,1,1,754,996
3282,15825083,1,-0.001160383,-0.0005214011,0.007291997,-0.2469364,0.1087901,-9.852798,0,0,45.58991,1,1,754,996
3285,15827264,1,-0.002934918,-0.002590179,0.00558113,-0.2397568,0.1167377,-9.864812000000001,0,0,45.59024,1,1,754,996
3288,15832675,1,-0.001810605,-0.0009189723,0.005822412,-0.2075648,0.1323966,-9.896115999999999,0,0,45.59024,1,1,754,996
3319,15835274,1,0.0004159757,-4.832203e-05,0.00557988,-0.1997076,0.1360416,-9.923389999999999,0,0,45.59024,1,1,754,996
3322,15841055,1,0.001968647,0.0008221249,-0.0001894962,-0.2298378,0.1509154,-9.971273999999999,0,0,45.59058,1,1,754,996
3325,15842938,1,0.001062225,0.001774856,-0.002545444,-0.2347204,0.1450593,-9.944146999999999,0,0,45.59058,1,1,754,996
3357,15845233,1,0.0004126948,0.0005337061,-0.002522109,-0.233979,0.1373376,-9.919612000000001,0,0,45.59058,1,1,754,996
3360,15847929,1,-0.0005615597,-0.003257697,-0.001057329,-0.2204333,0.1188042,-9.886581,0,0,45.59093,1,1,754,996
3363,15850730,1,-0.0004038148,-0.003847005,-0.0003516221,-0.2155754,0.1090825,-9.868831,0,0,45.59093,1,1,754,996
3367,15853284,1,0.0002331295,-0.0009244407,0.001906238,-0.232725,0.1133855,-9.840699000000001,0,0,45.59093,1,1,754,996
3399,15855280,1,-0.0002358664,0.001137808,0.002895354,-0.2405035,0.115249,-9.827681999999999,0,0,45.59093,1,1,754,996
3402,15857900,1,-3.743824e-05,-0.0001940826,0.003043394,-0.2584356,0.1133228,-9.786587000000001,0,0,45.59093,1,1,754,996
3405,15860553,1,0.0005200948,-0.002071585,0.003909604,-0.2649493,0.1098402,-9.774380000000001,0,0,45.59128,1,1,754,996
3408,15863448,1,0.00168986,-0.004811134,0.005061687,-0.2646984,0.1067594,-9.772643,0,0,45.59128,1,1,754,996
3439,15865913,1,0.00144918,-0.003729126,0.003248526,-0.2616563,0.1010365,-9.761486,0,0,45.59128,1,1,754,996
3442,15867866,1,-0.004194367,-0.0008054668,0.0002007713,-0.2675321,0.09337328,-9.753894000000001,0,0,45.59128,1,1,754,996
3445,15870230,1,-0.005459371,-8.251269000000001e-05,0.0003499629,-0.2690693,0.09836565999999999,-9.753890999999999,0,0,45.59128,1,1,754,996
3448,15872892,1,-0.003525152,-0.0001839203,0.001303,-0.2617207,0.1058876,-9.755742,0,0,45.59162,1,1,754,996
3479,15875829,1,0.00157913,-0.002541544,0.0016807,-0.264464,0.1113589,-9.766068000000001,0,0,45.59162,1,1,754,996
3483,15878237,1,0.004769092,-0.003247545,0.0004572837,-0.2668508,0.1242774,-9.792925,0,0,45.59162,1,1,754,996
3486,15880291,1,0.005363636,-0.003133743,-0.002193923,-0.2684601,0.1297404,-9.800115,0,0,45.59162,1,1,754,996
3489,15883288,1,0.00511824,-0.003173034,-0.004700818,-0.2768233,0.1175976,-9.787933000000001,0,0,45.59196,1,1,754,996
3520,15885332,1,0.004942919,-0.00232299,-0.00424723,-0.2783016,0.1108886,-9.792401,0,0,45.59196,1,1,754,996
3523,15888544,1,0.005233683,0.0004552664,0.0002472954,-0.2728876,0.1053769,-9.810257999999999,0,0,45.59196,1,1,754,996
3529,15891017,1,0.005214297,0.0007121418,0.001108139,-0.2641825,0.0915446,-9.809855000000001,0,0,45.59196,1,1,754,996
3533,15893091,1,0.003888196,0.001574678,0.003021797,-0.2446849,0.08190532,-9.792821,0,0,45.5923,1,1,754,996
3564,15895147,1,0.003446379,0.003981471,0.00265389,-0.2359352,0.08179636999999999,-9.786139,0,0,45.5923,1,1,754,996
3568,15897880,1,0.001034103,0.005325029,0.002220539,-0.2248392,0.0689251,-9.77389,0,0,45.5923,1,1,754,996
3571,15900845,1,-0.002029615,0.005794554,0.0005073628,-0.2218169,0.05616136,-9.757334999999999,0,0,45.5923,1,1,754,996
3574,15903274,1,-0.001529348,0.004435395,4.802527e-05,-0.2238381,0.02946592,-9.738151999999999,0,0,45.5923,1,1,754,996
3605,15905538,1,-0.0009930352,0.003390553,0.0003301658,-0.2257857,0.0133972,-9.736205999999999,0,0,45.59263,1,1,754,996
3609,15908037,1,-0.001553765,-0.002020098,0.003726433,-0.2286651,0.002699373,-9.745761,0,0,45.59263,1,1,754,996
3613,15910603,1,-0.002157069,-0.002397507,0.005600543,-0.2289518,-0.003990807,-9.744232999999999,0,0,45.59263,1,1,754,996
3616,15913166,1,-0.0009618594,0.002358318,0.007519864,-0.2393491,-0.008346401999999999,-9.705012999999999,0,0,45.59263,1,1,754,996
3647,15915840,1,-0.0001850841,0.003518322,0.006223903,-0.2487982,-0.01098436,-9.682589999999999,0,0,45.59295,1,1,754,996
3650,15917978,1,0.0008370518,0.006084236,0.003051449,-0.2526188,-0.004838855,-9.652520000000001,0,0,45.59295,1,1,754,996
3653,15920601,1,0.001126131,0.006810564,0.0004452148,-0.2475901,-0.001681595,-9.63288,0,0,45.59295,1,1,754,996
3658,15923221,1,-0.0008120681,0.005586541,0.001720591,-0.2249098,-0.01118693,-9.6058,0,0,45.59295,1,1,754,996
3689,15925860,1,-0.001780741,0.003557037,0.005586796,-0.2106809,-0.01627035,-9.601084,0,0,45.59295,1,1,754,996
3693,15930670,1,0.003165099,0.004079382,0.007795665,-0.1920135,0.004613212,-9.653822999999999,0,0,45.59325,1,1,754,996
3696,15933229,1,0.001133014,0.004993921,0.009506931,-0.1920125,0.009321980000000001,-9.706139,0,0,45.59325,1,1,754,996
3727,15938283,1,-0.005327688,0.005331448,0.006960547,-0.2134233,0.001327749,-9.807836999999999,0,0,45.59356,1,1,754,996
3730,15941014,1,-0.007668299,0.001921488,0.001290809,-0.2274077,0.03119849,-9.839831999999999,0,0,45.59356,1,1,754,996
3733,15944089,1,-0.007920547999999999,0.0007485921,0.0005288687,-0.2362995,0.05414336,-9.852903,0,0,45.59356,1,1,754,996
3764,15946016,1,-0.007018892,-0.001402782,0.001037143,-0.2333894,0.07300387,-9.853338000000001,0,0,45.59356,1,1,754,996
3767,15949135,1,-0.006808516,-0.001219442,0.0009874238999999999,-0.2277279,0.08249708,-9.846237,0,0,45.59383,1,1,754,996
3771,15951654,1,-0.007565962,0.002062441,-0.001041324,-0.221994,0.09566371,-9.836214,0,0,45.59383,1,1,754,996
3775,15954019,1,-0.008563022,0.007503359,-0.004349661,-0.2119028,0.1100015,-9.810119,0,0,45.59383,1,1,754,996
3806,15956620,1,-0.008776834000000001,0.007600453,-0.004570301,-0.2087427,0.1151636,-9.79096,0,0,45.59383,1,1,754,996
3809,15958882,1,-0.008916053,0.005799225,-0.0037458,-0.2150407,0.110658,-9.771239,0,0,45.59383,1,1,754,996
3813,15961297,1,-0.007056112,0.002896042,-0.002205569,-0.2335746,0.1092567,-9.751245000000001,0,0,45.59408,1,1,754,996
3816,15963917,1,-0.002346983,0.002714528,-0.001236326,-0.2480244,0.1197837,-9.750603999999999,0,0,45.59408,1,1,754,996
3847,15966595,1,0.003286767,0.003923106,-0.0008971611,-0.2745019,0.1329475,-9.761246999999999,0,0,45.59408,1,1,754,996
3850,15968900,1,0.005389794,0.004818822,-0.001357469,-0.2878336,0.1418021,-9.769428,0,0,45.59408,1,1,754,996
3853,15971752,1,0.00598885,0.007078604,-0.003624307,-0.29543,0.1430902,-9.784063,0,0,45.5943,1,1,754,996
3856,15974109,1,0.002361905,0.003988212,-0.006571616,-0.2920053,0.1354115,-9.803855,0,0,45.5943,1,1,754,996
3887,15976634,1,0.002215462,0.001507047,-0.006100556,-0.2862152,0.1336649,-9.803324,0,0,45.5943,1,1,754,996
3890,15979141,1,0.002959731,-0.002856411,-0.003079233,-0.2831314,0.1370342,-9.804364,0,0,45.5943,1,1,754,996
3894,15981641,1,0.003320112,-0.003720507,0.0002875744,-0.2850201,0.157281,-9.816832,0,0,45.59449,1,1,754,996
3897,15983700,1,0.0003445863,-0.001704516,0.003640147,-0.2758366,0.1574392,-9.858904000000001,0,0,45.59449,1,1,754,996
3928,15986610,1,-0.003589135,0.0007562662,0.00566315,-0.2680793,0.1475796,-9.866713000000001,0,0,45.59449,1,1,754,996
3931,15989034,1,-0.00532475,0.001608358,0.006163152,-0.262913,0.1338394,-9.865529,0,0,45.59449,1,1,754,996
3937,15992089,1,-0.004224433,0.001076535,0.005697921,-0.2676075,0.09983392000000001,-9.837229000000001,0,0,45.59449,1,1,754,996
3941,15994117,1,-0.002134191,-0.003012663,0.002433139,-0.268354,0.07367772,-9.825443,0,0,45.59467,1,1,754,996
3972,15996156,1,-0.001034394,-0.004282308,0.00214939,-0.263157,0.05915163,-9.837051000000001,0,0,45.59467,1,1,754,996
3975,15998916,1,0.002352576,-0.003591153,0.005198755,-0.2598204,0.04520185,-9.846508999999999,0,0,45.59467,1,1,754,996
3979,16001300,1,0.004236284,-0.002391216,0.008195709000000001,-0.2580944,0.03215648,-9.849171,0,0,45.59467,1,1,754,996
3982,16004133,1,0.004771029,-0.0004428464,0.007500299,-0.2626344,0.0290743,-9.810855999999999,0,0,45.59487,1,1,754,996
4013,16006777,1,0.004109688,0.0009980016999999999,0.007007212,-0.2632312,0.02332435,-9.766978999999999,0,0,45.59487,1,1,754,996
4016,16008857,1,0.003979501,0.00178698,0.007389449,-0.2615159,0.01157205,-9.724024999999999,0,0,45.59487,1,1,754,996
4019,16011316,1,0.00353018,0.001497146,0.006378236,-0.2617873,-0.008147557,-9.68647,0,0,45.59487,1,1,754,996
4023,16013834,1,0.00366342,-0.0006433488,0.005284923,-0.2620266,-0.01180504,-9.680939,0,0,45.59487,1,1,754,996
4056,16016849,1,0.003948824,-0.0005014963,0.005966701,-0.2580337,-0.007036741,-9.683565,0,0,45.5951,1,1,754,996
4059,16019047,1,0.005000934,0.0007889027,0.006884936,-0.2521337,0.002882782,-9.679569000000001,0,0,45.5951,1,1,754,996
4063,16021686,1,0.005161305,0.001012455,0.005191758,-0.238652,0.02105095,-9.676754000000001,0,0,45.5951,1,1,754,996
4066,16023718,1,0.004609624,0.0003848281,0.003092513,-0.2325438,0.0588591,-9.694421,0,0,45.5951,1,1,754,996
4097,16026093,1,0.003890175,-0.0008889658,0.003117996,-0.2375123,0.07847216999999999,-9.708644,0,0,45.59538,1,1,754,996
4100,16029460,1,0.003312176,-0.001165354,0.002773398,-0.2461156,0.08480658000000001,-9.712247,0,0,45.59538,1,1,754,996
4104,16031333,1,0.001872528,0.0003790259,0.0008239936,-0.262322,0.07473444,-9.702956,0,0,45.59538,1,1,754,996
4107,16034011,1,0.0007895852000000001,0.002049355,-7.250109e-05,-0.2623152,0.06689051,-9.666162,0,0,45.59538,1,1,754,996
4138,16036659,1,0.0007866492,0.001980004,0.0004085692,-0.2630309,0.06267473,-9.652751,0,0,45.59538,1,1,754,996
4141,16039089,1,0.001676962,0.001024998,0.002925417,-0.2603726,0.05279657,-9.641444,0,0,45.59566,1,1,754,996
4144,16044079,1,0.001654608,-0.00170842,0.005816675,-0.2199003,0.07667464,-9.673765,0,0,45.59566,1,1,754,996
4175,16046894,1,0.001217424,-0.001195649,0.004821717,-0.2158029,0.08828158,-9.700488999999999,0,0,45.59566,1,1,754,996
4178,16048843,1,0.001890983,0.0008718732,0.002284331,-0.210665,0.09420399,-9.726367,0,0,45.59593,1,1,754,996
4183,16051129,1,0.001993244,0.002183712,-0.0003632121,-0.2061589,0.08997794000000001,-9.746577,0,0,45.59593,1,1,754,996
4186,16054074,1,0.001043369,0.002379656,0.0005230842,-0.2106377,0.06884208999999999,-9.759801,0,0,45.59593,1,1,754,996
4217,16056076,1,0.0005726526,0.004413228,0.002984161,-0.2193102,0.0542859,-9.772943,0,0,45.59593,1,1,754,996
4220,16058928,1,0.0009898858000000001,0.005076224,0.003552264,-0.2306698,0.04825717,-9.786555999999999,0,0,45.59593,1,1,754,996
4224,16061880,1,0.002026962,0.004855865,0.003350888,-0.244148,0.04517001,-9.791899000000001,0,0,45.59618,1,1,754,996
4227,16065052,1,0.001558985,0.002563439,-0.001270473,-0.2547889,0.05196168,-9.773522,0,0,45.59618,1,1,754,996
4230,16066742,1,0.001202634,0.0007419497,-0.003256059,-0.2616323,0.05879223,-9.753567,0,0,45.59618,1,1,754,996
4261,16068897,1,0.001429065,0.002588465,-0.006662272,-0.2742074,0.08294923999999999,-9.727349999999999,0,0,45.59618,1,1,754,996
4265,16071919,1,0.0008802707,0.005295268,-0.006955191,-0.2806812,0.09475815,-9.714956000000001,0,0,45.59639,1,1,754,996
4269,16074088,1,-0.001575425,0.008234244999999999,-0.006797912,-0.2929245,0.1007402,-9.709825,0,0,45.59639,1,1,754,996
4272,16077059,1,-0.002717881,0.00682581,-0.003905217,-0.3000313,0.09094801,-9.70917,0,0,45.59639,1,1,754,996
4303,16080103,1,-0.001471338,0.004129234,0.000664014,-0.3014049,0.05241454,-9.695494999999999,0,0,45.59639,1,1,754,996
4306,16081322,1,-0.002394674,0.001440448,0.003072435,-0.2664281,0.02018237,-9.700585999999999,0,0,45.59658,1,1,754,996
4309,16084297,1,-0.003315953,0.0002766806,0.003196684,-0.2416918,0.006259645,-9.701328,0,0,45.59658,1,1,754,996
4312,16086912,1,-0.003351834,-0.001401906,0.003542769,-0.2298877,6.112354e-05,-9.702133999999999,0,0,45.59658,1,1,754,996
4343,16089603,1,-0.002538975,-0.004146255,0.003907986,-0.2202843,-0.004006295,-9.716455,0,0,45.59658,1,1,754,996
4350,16092574,1,-0.002047899,-0.004292325,0.00382413,-0.2294853,0.004617481,-9.746880000000001,0,0,45.59658,1,1,754,996
4354,16094638,1,-0.002880566,-0.003686602,0.003162354,-0.2602961,0.016381,-9.818232999999999,0,0,45.59674,1,1,754,996
4357,16096667,1,-0.004688781,-0.001104313,0.002175558,-0.2853026,0.03134007,-9.85139,0,0,45.59674,1,1,754,996
4388,16099014,1,-0.004488138,0.001432634,0.002097757,-0.3150924,0.05045106,-9.883137,0,0,45.59674,1,1,754,996
4392,16102256,1,-0.003055839,0.002464355,0.004308605,-0.3380224,0.05477769,-9.909753,0,0,45.59674,1,1,754,996
4395,16104575,1,-0.0002807391,-0.001238209,0.006213152,-0.3506661,0.06797228,-9.94882,0,0,45.59689,1,1,754,996
4398,16106850,1,0.0007766858,-0.004111229,0.006352304,-0.3377776,0.06994984,-9.971169,0,0,45.59689,1,1,754,996
4429,16108963,1,0.002295664,-0.006983232,0.005083187,-0.3076153,0.07202457,-9.974078,0,0,45.59689,1,1,754,996
4432,16112123,1,0.002653042,-0.005823976,0.005013572,-0.2830897,0.07638589,-9.968089000000001,0,0,45.59689,1,1,754,996
4435,16114597,1,0.002018358,-0.004315659,0.005569686,-0.2557437,0.08685853,-9.954418,0,0,45.59703,1,1,754,996
4438,16117216,1,-0.0005913106,-0.002395419,0.005648495,-0.2497466,0.09175008,-9.941314999999999,0,0,45.59703,1,1,754,996
4469,16119307,1,-0.003564121,-0.001940242,0.002690995,-0.2504021,0.09961142000000001,-9.915794999999999,0,0,45.59703,1,1,754,996
4473,16121936,1,-0.006434687,1.054066e-06,-0.003870561,-0.2587296,0.09559028999999999,-9.899194,0,0,45.59703,1,1,754,996
4476,16124697,1,-0.007333674,0.00107583,-0.00458141,-0.2591076,0.09139083000000001,-9.892830999999999,0,0,45.59703,1,1,754,996
4481,16130274,1,-0.0007688639,0.003151007,0.002104303,-0.2506355,0.06740806000000001,-9.892175,0,0,45.59715,1,1,754,996
4484,16132450,1,0.001371855,0.002454808,0.002936021,-0.2496864,0.0648334,-9.874237000000001,0,0,45.59715,1,1,754,996
4515,16134292,1,0.004042764,0.001405326,0.003155084,-0.2522011,0.05927596,-9.839535,0,0,45.59715,1,1,754,996
4518,16136853,1,0.003412836,0.001644376,0.002474048,-0.2609201,0.05380861,-9.782211,0,0,45.59726,1,1,754,996
4521,16140567,1,0.003052261,0.001687477,0.001868414,-0.2692756,0.05719817,-9.753511,0,0,45.59726,1,1,754,996
4524,16143164,1,0.003011423,0.003212501,0.002294584,-0.294363,0.0872843,-9.707158,0,0,45.59726,1,1,754,996
4527,16144575,1,0.003478145,0.004356665,0.003512397,-0.3090542,0.1073688,-9.679205,0,0,45.59726,1,1,754,996
4558,16147092,1,0.004956147,0.005112924,0.005533842,-0.3183496,0.1210123,-9.640763,0,0,45.59735,1,1,754,996
4561,16149775,1,0.004705439,0.005435179,0.006727415,-0.3212009,0.1240823,-9.61919,0,0,45.59735,1,1,754,996
4564,16152726,1,0.001194376,0.004127985,0.007979808,-0.3264277,0.115012,-9.620404000000001,0,0,45.59735,1,1,754,996
4567,16155118,1,-0.003707437,0.002785431,0.005719172,-0.3225938,0.1036272,-9.648235,0,0,45.59735,1,1,754,996
4598,16157201,1,-0.006977149,0.001048463,0.002546496,-0.3011638,0.09534906999999999,-9.696014999999999,0,0,45.59735,1,1,754,996
4601,16159984,1,-0.004272908,-0.0007280047,0.002346015,-0.2800501,0.08341533,-9.743062999999999,0,0,45.59742,1,1,754,996
4605,16162332,1,-0.0002118047,-0.0002341438,0.001667904,-0.2749298,0.07536182,-9.757125,0,0,45.59742,1,1,754,996
4608,16165240,1,0.003122245,0.0002875039,0.001462192,-0.2673295,0.06770331,-9.768656,0,0,45.59742,1,1,754,996
4639,16167881,1,0.00283081,0.001217341,0.0009453906,-0.2656184,0.06722045,-9.770844,0,0,45.59742,1,1,754,996
4642,16169820,1,0.001668168,0.004086949,0.001441794,-0.2723446,0.06462179,-9.789239,0,0,45.59747,1,1,754,996
4647,16172600,1,0.001470977,0.005155868,0.001601403,-0.2831907,0.06658991,-9.802152,0,0,45.59747,1,1,754,996
4650,16175027,1,0.001031878,0.007218407,0.0005327389,-0.2923925,0.07681194,-9.809029000000001,0,0,45.59747,1,1,754,996
4681,16177935,1,0.001015289,0.007288259,0.001396743,-0.2929597,0.08356659,-9.811477999999999,0,0,45.59747,1,1,754,996
4684,16180140,1,0.002644859,0.006110703,0.003818084,-0.283159,0.09417948,-9.827616000000001,0,0,45.59748,1,1,754,996
4687,16182709,1,0.003578145,0.006077832,0.005501936,-0.2696891,0.09197927,-9.840824,0,0,45.59748,1,1,754,996
4690,16184716,1,0.001486808,0.005543373,0.005895108,-0.2478408,0.08119961000000001,-9.866277999999999,0,0,45.59748,1,1,754,996
4721,16187360,1,0.0005602985,0.004960541,0.007115991,-0.2401059,0.07932069999999999,-9.868073000000001,0,0,45.59748,1,1,754,996
4724,16190149,1,0.001519191,0.003883922,0.008545508,-0.2472143,0.08573478,-9.853982999999999,0,0,45.59748,1,1,754,996
4731,16192866,1,0.001806291,0.00253026,0.007640405,-0.2564241,0.09221891,-9.848502999999999,0,0,45.59749,1,1,754,996
4735,16195247,1,0.002093114,0.001966926,0.0024947,-0.2724149,0.09721476,-9.851716,0,0,45.59749,1,1,754,996
4766,16197457,1,0.002189134,0.002816542,0.003230337,-0.2840982,0.1069007,-9.843589,0,0,45.59749,1,1,754,996
4769,16200101,1,0.00304956,0.004449276,0.007287712,-0.2946897,0.1192837,-9.823226,0,0,45.59749,1,1,754,996
4772,16202837,1,0.005066297,0.005949594,0.0073394,-0.289168,0.1242327,-9.810086,0,0,45.5975,1,1,754,996
4775,16204850,1,0.00583277,0.004863014,0.004281443,-0.2806582,0.1236156,-9.798795,0,0,45.5975,1,1,754,996
4806,16207880,1,0.004728613,0.00246262,0.002312529,-0.2751208,0.1099769,-9.785114999999999,0,0,45.5975,1,1,754,996
4809,16209733,1,0.002789228,0.0003407864,0.00105687,-0.2740915,0.0774726,-9.772615,0,0,45.5975,1,1,754,996
4813,16212313,1,0.0008960392,-0.0009868692999999999,-0.0001896931,-0.2791187,0.06086411,-9.765834999999999,0,0,45.5975,1,1,754,996
4817,16215179,1,0.0004130374,-0.001131389,-0.0003302479,-0.2829168,0.0525663,-9.764602,0,0,45.5975,1,1,754,996
4848,16217219,1,0.0006705017,-0.001382183,-0.0008246764,-0.2813295,0.05343573,-9.769821,0,0,45.5975,1,1,754,996
4851,16219901,1,0.0008151159,0.0009149851,-0.003700801,-0.2847101,0.05980816,-9.763254,0,0,45.5975,1,1,754,996
4854,16222663,1,0.0005388976,0.001139718,-0.003865381,-0.2814955,0.06168317,-9.764552,0,0,45.5975,1,1,754,996
4857,16225254,1,0.0006280754,0.0005216332,-0.0009793239999999999,-0.2770824,0.06061532,-9.768774000000001,0,0,45.59751,1,1,754,996
4888,16228018,1,0.000913545,0.001644612,0.001137057,-0.282215,0.05922369,-9.777950000000001,0,0,45.59751,1,1,754,996
4891,16229776,1,-0.000383368,0.0041749,-0.0005669363,-0.2908719,0.05522623,-9.784566999999999,0,0,45.59751,1,1,754,996
4895,16232306,1,-0.0008935782,0.006068351,-0.001718223,-0.2948657,0.05851498,-9.767116,0,0,45.59751,1,1,754,996
4898,16235553,1,-0.0009644377,0.007297526,-0.002860831,-0.2924002,0.06828391,-9.735828,0,0,45.59756,1,1,754,996
4929,16237672,1,-0.0005023233,0.007333823,-0.00274509,-0.2910833,0.07162341,-9.725040999999999,0,0,45.59756,1,1,754,996
4932,16242724,1,0.0008812528,0.001698432,-0.002525416,-0.2885269,0.08343576,-9.707352,0,0,45.59756,1,1,754,996
4936,16245069,1,0.002061523,-0.0007273181000000001,-0.005317321,-0.2903109,0.1027148,-9.714953,0,0,45.59756,1,1,754,996
4967,16249784,1,0.003038632,-0.0005800202,-0.008380901,-0.3003102,0.1401132,-9.731125,0,0,45.59765,1,1,754,996
4970,16252731,1,0.002570969,-0.002432136,-0.005005347,-0.3063776,0.1485841,-9.746403000000001,0,0,45.59765,1,1,754,996
4973,16255103,1,0.001882158,-0.0008955054,-0.002874382,-0.3189348,0.158181,-9.749397999999999,0,0,45.59765,1,1,754,996
5004,16257158,1,0.0007061459,0.0004516045,-0.001634134,-0.3265165,0.1675183,-9.741471000000001,0,0,45.59773,1,1,754,996
5007,16260453,1,0.001143774,-0.001774809,-0.002274931,-0.3467525,0.1689527,-9.735996,0,0,45.59773,1,1,754,996
5010,16262289,1,0.001245085,-0.002176727,-0.002311993,-0.3588515,0.1658579,-9.727510000000001,0,0,45.59773,1,1,754,996
5015,16264866,1,0.00308389,-0.0007152727,-0.001178125,-0.3635153,0.171327,-9.735753000000001,0,0,45.59773,1,1,754,996
5046,16268054,1,0.004241346,0.0003628741,-0.001123577,-0.350044,0.1744778,-9.758343,0,0,45.59773,1,1,754,996
5049,16269896,1,0.005604311,0.002918061,-0.000621755,-0.3155124,0.1672679,-9.79528,0,0,45.59779,1,1,754,996
5053,16272576,1,0.003150452,0.005213782,0.002012507,-0.2999329,0.1601401,-9.815083,0,0,45.59779,1,1,754,996
5057,16275239,1,-0.0007730937,0.007825510000000001,0.00436593,-0.2820087,0.1392686,-9.842843,0,0,45.59779,1,1,754,996
5088,16277857,1,-0.001824037,0.006875526,0.005160783,-0.2732005,0.1229399,-9.852691999999999,0,0,45.59779,1,1,754,996
5091,16279747,1,-0.002023401,0.004265676,0.003646232,-0.262535,0.09890276000000001,-9.826283999999999,0,0,45.59784,1,1,754,996
5094,16282270,1,-0.002575541,0.003533002,0.003052672,-0.2586572,0.07680177000000001,-9.794465000000001,0,0,45.59784,1,1,754,996
5097,16284787,1,-0.003042409,0.002013052,0.004409066,-0.2561103,0.06936222,-9.754196,0,0,45.59784,1,1,754,996
5128,16288033,1,-0.003363654,0.001502093,0.005645819,-0.2623032,0.08164638,-9.742839999999999,0,0,45.59784,1,1,754,996
5131,16290175,1,-0.004458585,-0.00159981,0.006181512,-0.2741576,0.1019406,-9.740732,0,0,45.59784,1,1,754,996
5137,16292808,1,-0.003475026,-0.002755015,0.004980288,-0.2858815,0.1383147,-9.727479000000001,0,0,45.59789,1,1,754,996
5142,16294869,1,-0.001260804,-0.001561967,0.00361484,-0.3018193,0.1664554,-9.698880000000001,0,0,45.59789,1,1,754,996
5173,16298028,1,0.0009732764000000001,0.0007573803,0.006522254,-0.3050074,0.1817326,-9.684763,0,0,45.59789,1,1,754,996
5176,16299672,1,0.0005785737,0.000703493,0.009426845999999999,-0.3064302,0.1924426,-9.684056999999999,0,0,45.59789,1,1,754,996
5179,16302710,1,0.0008499545,-0.002570404,0.01031991,-0.3112045,0.1905252,-9.697647999999999,0,0,45.59795,1,1,754,996
5183,16304940,1,0.002829103,-0.004392796,0.0114869,-0.3189746,0.1665642,-9.739793000000001,0,0,45.59795,1,1,754,996
5214,16307257,1,0.003371884,-0.004241413,0.0119747,-0.3268993,0.1475301,-9.776915000000001,0,0,45.59795,1,1,754,996
5217,16310165,1,0.0007742657,-0.002993496,0.0118728,-0.3302447,0.1108372,-9.821840999999999,0,0,45.59795,1,1,754,996
5220,16312682,1,-0.0009201799,-0.00265583,0.01080352,-0.3393192,0.08756372,-9.836141,0,0,45.59795,1,1,754,996
5224,16315228,1,-0.00225222,-0.001212392,0.008712991,-0.350762,0.07290101,-9.845946,0,0,45.59801,1,1,754,996
5255,16317275,1,-0.001371152,-0.003224913,0.007490443,-0.3525248,0.07144947,-9.854048000000001,0,0,45.59801,1,1,754,996
5258,16319794,1,0.0007485955,-0.004248837,0.004990499,-0.3591665,0.07035197,-9.887346000000001,0,0,45.59801,1,1,754,996
5261,16322821,1,0.002916181,-0.002280759,0.002363631,-0.3562873,0.06037942,-9.926434,0,0,45.59801,1,1,754,996
5264,16324906,1,0.00523352,0.0002585616,0.0002765515,-0.3408138,0.03976326,-9.974999,0,0,45.59809,1,1,754,996
5295,16327860,1,0.00514622,0.001194642,7.70918e-05,-0.3218921,0.02199201,-9.984029,0,0,45.59809,1,1,754,996
5300,16330026,1,0.002277692,0.0009322408,0.003069337,-0.2935609,0.002015844,-9.987080000000001,0,0,45.59809,1,1,754,996
5303,16332752,1,0.001369036,-0.0001090147,0.004626314,-0.2704509,-0.005354977,-9.981070000000001,0,0,45.59809,1,1,754,996
5307,16337245,1,-0.0009823117000000001,-0.004084548,0.004282501,-0.2298217,0.02300883,-9.935563,0,0,45.59815,1,1,754,996
5338,16342279,1,-6.589325e-05,0.0008531619,-0.001460047,-0.2437575,0.1107242,-9.902869000000001,0,0,45.59815,1,1,754,996
5341,16345301,1,0.001214392,0.004560983,-0.001378204,-0.2625802,0.1514766,-9.893782,0,0,45.59815,1,1,754,996
5344,16347366,1,0.003566572,0.004805041,0.002549009,-0.2717412,0.1653754,-9.876590999999999,0,0,45.5982,1,1,754,996
5375,16349809,1,0.00488973,0.00351876,0.006824166,-0.2839738,0.1708503,-9.839846,0,0,45.5982,1,1,754,996
5378,16352319,1,0.005168482,0.003596719,0.007313154,-0.2925765,0.1638938,-9.802586,0,0,45.5982,1,1,754,996
5383,16355241,1,0.003416925,0.006374808,0.003518548,-0.2938742,0.1328442,-9.746489,0,0,45.5982,1,1,754,996
5386,16358294,1,0.003072276,0.004960776,0.002784992,-0.2890023,0.1119666,-9.711392,0,0,45.59822,1,1,754,996
5389,16359645,1,0.003458552,-0.0005098354,0.003234829,-0.2839105,0.08335979,-9.691015,0,0,45.59822,1,1,754,996
5420,16362276,1,0.004402383,-0.003859484,0.00472032,-0.2787237,0.06198481,-9.686128999999999,0,0,45.59822,1,1,754,996
5424,16364700,1,0.004617208,-0.003459926,0.003524322,-0.2841107,0.04394646,-9.686002999999999,0,0,45.59822,1,1,754,996
5427,16367818,1,0.004399877,-0.001908444,0.002695593,-0.2866465,0.03751727,-9.69505,0,0,45.59822,1,1,754,996
5430,16370260,1,0.00470873,-0.002239188,0.004085384,-0.289114,0.03142812,-9.722063,0,0,45.59822,1,1,754,996
5461,16372585,1,0.004964412,-0.003439619,0.004264299,-0.2902741,0.03098241,-9.73419,0,0,45.59822,1,1,754,996
5464,16374884,1,0.00523934,-0.004440634,0.002022345,-0.2916988,0.03880883,-9.745653000000001,0,0,45.59822,1,1,754,996
5467,16377474,1,0.005271122,-0.002296582,0.0007578945,-0.2880188,0.0404316,-9.740802,0,0,45.59822,1,1,754,996
5470,16380269,1,0.006234899,0.003998906,-0.001964405,-0.2719752,0.04369727,-9.744089000000001,0,0,45.5982,1,1,754,996
5501,16382906,1,0.006370849,0.009041683,-0.003412263,-0.2601641,0.05470122,-9.739451000000001,0,0,45.5982,1,1,754,996
5505,16384771,1,0.005032263,0.01175277,-0.001936584,-0.242174,0.07437568,-9.753114,0,0,45.5982,1,1,754,996
5509,16387304,1,0.003057265,0.009349939,-0.0002376928,-0.2341229,0.07857433,-9.762126,0,0,45.5982,1,1,754,996
5512,16389672,1,0.001413287,0.004134424,-0.0007404201,-0.2408882,0.0625595,-9.789192999999999,0,0,45.59819,1,1,754,996
5546,16393009,1,-0.000383341,0.001887879,-0.0003235644,-0.2537021,0.04953464,-9.801553,0,0,45.59819,1,1,754,996
5550,16395247,1,-0.001940376,0.001671307,0.0006181404,-0.2745209,0.04175188,-9.804029,0,0,45.59819,1,1,754,996
5553,16397346,1,-0.003084947,0.0009951812,0.0001585229,-0.2879696,0.03747446,-9.803561999999999,0,0,45.59819,1,1,754,996
5556,16399814,1,-0.003390844,-0.001022854,-0.003361524,-0.304517,0.03621744,-9.795534,0,0,45.59819,1,1,754,996
5587,16403119,1,-0.002753892,-0.0003458962,-0.004236173,-0.3032074,0.03695051,-9.799102,0,0,45.59818,1,1,754,996
5591,16404895,1,0.0002247534,0.0003731443,-0.004115819,-0.2880552,0.03160936,-9.808878999999999,0,0,45.59818,1,1,754,996
5595,16407846,1,0.003049209,-0.0001722532,-0.002301154,-0.2743669,0.02868589,-9.796514999999999,0,0,45.59818,1,1,754,996
5598,16409924,1,0.00438859,-0.001827743,-0.0001426576,-0.2677341,0.04024485,-9.769211,0,0,45.59818,1,1,754,996
5629,16412309,1,0.00503085,-0.001993409,0.001877958,-0.2662448,0.04153734,-9.760202,0,0,45.59817,1,1,754,996
5633,16415081,1,0.005036931,-0.0007205632,0.003241764,-0.2606493,0.05669862,-9.788295,0,0,45.59817,1,1,754,996
5636,16417401,1,0.005303727,-0.0001717386,0.00392883,-0.2571428,0.06593570999999999,-9.816345999999999,0,0,45.59817,1,1,754,996
5639,16420019,1,0.005967534,-0.000394679,0.003166753,-0.2552332,0.0803024,-9.851405,0,0,45.59817,1,1,754,996
5670,16422634,1,0.0054756,-0.0002334584,0.002764185,-0.2583736,0.09510125,-9.860116,0,0,45.59817,1,1,754,996
5673,16425040,1,0.004577104,0.0006265033,0.0008312342,-0.2715535,0.1048994,-9.859508999999999,0,0,45.59816,1,1,754,996
5676,16427895,1,0.004666255,0.0002854515,0.001617932,-0.2879664,0.09852519999999999,-9.869486,0,0,45.59816,1,1,754,996
5679,16429695,1,0.004291381,-0.0003188141,0.003683988,-0.323489,0.08501481,-9.87018,0,0,45.59816,1,1,754,996
5710,16432330,1,0.003419709,-0.0006222941,0.002212737,-0.341879,0.06889188,-9.863256,0,0,45.59816,1,1,754,996
5714,16440065,1,0.004226351,-0.0009504093,-0.0002156704,-0.3628514,0.05296987,-9.838642999999999,0,0,45.59818,1,1,754,996
5745,16442768,1,0.005130519,0.000621535,0.001118583,-0.3339607,0.07035781000000001,-9.815227,0,0,45.59818,1,1,754,996
5748,16445222,1,0.007421667,0.00224865,0.001908166,-0.3191282,0.09278695000000001,-9.804176999999999,0,0,45.5982,1,1,754,996
5751,16448102,1,0.008468623999999999,0.002541343,0.003922456,-0.297901,0.1283918,-9.780248,0,0,45.5982,1,1,754,996
5755,16450883,1,0.008516179,0.001928468,0.00537089,-0.2796312,0.1552399,-9.768478,0,0,45.5982,1,1,754,996
5786,16453016,1,0.006458796,-0.001120231,0.008304466,-0.2498957,0.1663076,-9.771204000000001,0,0,45.5982,1,1,754,996
5790,16455696,1,0.001303667,-0.001404732,0.007523454,-0.2209152,0.1475551,-9.766774,0,0,45.59822,1,1,754,996
5793,16458290,1,-0.001876851,-0.001454239,0.006203311,-0.2125042,0.1265837,-9.765434000000001,0,0,45.59822,1,1,754,996
5796,16461312,1,-0.009549791,0.0006701096,0.0008509863,-0.2221628,0.09826929,-9.776017,0,0,45.59822,1,1,754,996
5827,16463869,1,-0.009593983,0.0009337384,-0.0005536781,-0.2414277,0.08511589,-9.778784,0,0,45.59822,1,1,754,996
5830,16465736,1,-0.00454058,-0.0001221838,0.0005897260000000001,-0.274789,0.07884650999999999,-9.774768999999999,0,0,45.59822,1,1,754,996
5833,16468738,1,-0.002242495,-0.0005532322,0.002065134,-0.2903823,0.07497479999999999,-9.761096,0,0,45.59827,1,1,754,996
5836,16470901,1,0.00153459,0.0007209086,0.004318842,-0.3009615,0.06470495,-9.741409000000001,0,0,45.59827,1,1,754,996
5867,16473624,1,0.002446434,0.003013881,0.005953244,-0.3021052,0.05692634,-9.729020999999999,0,0,45.59827,1,1,754,996
5871,16476120,1,0.001308351,0.001942632,0.008098854000000001,-0.2947938,0.0515388,-9.744138,0,0,45.59827,1,1,754,996
5875,16478375,1,0.0001781397,0.001762191,0.008423359,-0.2898993,0.0583904,-9.749316,0,0,45.59827,1,1,754,996
5878,16480694,1,-0.002761642,0.002964665,0.007093268,-0.2764753,0.08696774,-9.736770999999999,0,0,45.59834,1,1,754,996
5909,16483100,1,-0.005036986,0.002269,0.005169061,-0.2639777,0.1013013,-9.736022999999999,0,0,45.59834,1,1,754,996
5913,16486056,1,-0.004532626,-0.0003927096,-0.003127787,-0.2513488,0.1047574,-9.746705,0,0,45.59834,1,1,754,996
5916,16488409,1,-0.002251231,-0.0007473975,-0.005803965,-0.2445444,0.1058016,-9.752606,0,0,45.59834,1,1,754,996
5920,16491058,1,0.001581874,-8.691756999999999e-05,-0.008191169,-0.2496146,0.1130359,-9.756596999999999,0,0,45.5984,1,1,754,996
5954,16493906,1,0.002791219,-0.001458543,-0.006612468,-0.2570044,0.1155868,-9.769947999999999,0,0,45.5984,1,1,754,996
5958,16495921,1,0.003824311,-0.003007509,-0.003669974,-0.2685643,0.1134199,-9.806639000000001,0,0,45.5984,1,1,754,996
5961,16498878,1,0.004423275,-0.001408597,0.0002603933,-0.2734254,0.1112442,-9.814311999999999,0,0,45.5984,1,1,754,996
5964,16500889,1,0.00450774,0.002759597,0.003757474,-0.2802813,0.1032091,-9.830279000000001,0,0,45.59844,1,1,754,996
5995,16503292,1,0.003420317,0.004481044,0.005294597,-0.2813713,0.09133533000000001,-9.845694999999999,0,0,45.59844,1,1,754,996
5999,16506142,1,-0.001657392,0.00609031,0.006842877,-0.2702859,0.07889983,-9.847631,0,0,45.59844,1,1,754,996
6002,16508433,1,-0.001956847,0.006431876,0.007672533,-0.2566202,0.07370365,-9.843458999999999,0,0,45.59844,1,1,754,996
6005,16511096,1,0.001214968,0.008478113000000001,0.005836277,-0.2465172,0.07421175000000001,-9.853308,0,0,45.59844,1,1,754,996
6038,16513757,1,0.002096632,0.007377309,0.00485006,-0.2453248,0.08618686,-9.868966,0,0,45.59847,1,1,754,996
6041,16516245,1,0.003235391,0.004551501,0.004700667,-0.2425691,0.10498,-9.871858,0,0,45.59847,1,1,754,996
6044,16518787,1,0.002706903,0.003324833,0.005027872,-0.2354038,0.110886,-9.859413,0,0,45.59847,1,1,754,996
6047,16521212,1,-0.0004536386,0.004755086,0.004870357,-0.2398814,0.1057322,-9.855034,0,0,45.59847,1,1,754,996
6078,16524030,1,-0.002644229,0.005534239,0.002644988,-0.2497776,0.0933161,-9.854329999999999,0,0,45.5985,1,1,754,996
6082,16526086,1,-7.275232000000001e-05,0.005602248,-0.0006704736,-0.2501183,0.08526415,-9.851988,0,0,45.5985,1,1,754,996
6085,16529234,1,0.001995845,0.005726995,-0.002225968,-0.2526686,0.07333481,-9.854118,0,0,45.5985,1,1,754,996
6091,16531860,1,0.007491537,0.003804688,-0.0002745974,-0.2562783,0.06883936,-9.869885999999999,0,0,45.5985,1,1,754,996
6122,16534009,1,0.009499508,0.004442526,0.003992451,-0.2538493,0.07896639,-9.884968000000001,0,0,45.59853,1,1,754,996
6125,16539695,1,0.01110732,0.006636319,0.00424109,-0.2632602,0.07485343,-9.901536999999999,0,0,45.59853,1,1,754,996
6128,16541845,1,0.009833232000000001,0.005307337,0.0040955,-0.2661022,0.07410052,-9.894686,0,0,45.59853,1,1,754,996
6159,16543916,1,0.006670713,-0.0008174524,0.005260393,-0.2613546,0.08623015000000001,-9.882974000000001,0,0,45.59853,1,1,754,996
6162,16546662,1,0.005732687,-0.004647576,0.006394676,-0.2614453,0.09562590999999999,-9.876407,0,0,45.59858,1,1,754,996
6165,16549549,1,0.005954434,-0.003190059,0.005531295,-0.2715745,0.1149461,-9.859691,0,0,45.59858,1,1,754,996
6168,16551963,1,0.006737769,-0.0002844156,0.003425751,-0.278276,0.1307707,-9.848471999999999,0,0,45.59858,1,1,754,996
6199,16555116,1,0.006658591,0.002354905,0.004622407,-0.277923,0.1520639,-9.840210000000001,0,0,45.59858,1,1,754,996
6202,16556591,1,0.007382247,0.005354205,0.003726225,-0.2708867,0.1541506,-9.841491,0,0,45.59863,1,1,754,996
6205,16559448,1,0.009012891,0.006870343,0.00105084,-0.2713354,0.1457031,-9.846470999999999,0,0,45.59863,1,1,754,996
6208,16562256,1,0.009484387,0.005943176,-0.0008371518,-0.2800048,0.1338523,-9.850899999999999,0,0,45.59863,1,1,754,996
6239,16564260,1,0.008023702000000001,0.002267852,-0.005307861,-0.2937927,0.1152754,-9.848801,0,0,45.59863,1,1,754,996
6243,16568118,1,0.005400866,0.002493361,-0.005977845,-0.3043972,0.08321679,-9.820484,0,0,45.5987,1,1,754,996
6246,16569308,1,0.004901741,0.002007461,-0.004011994,-0.3034326,0.05983131,-9.794523999999999,0,0,45.5987,1,1,754,996
6249,16572193,1,0.006558393,-0.001142204,-0.0003126509,-0.2982506,0.02830154,-9.758943,0,0,45.5987,1,1,754,996
6280,16574867,1,0.006813438,-0.003791254,0.0009438015,-0.3002141,0.01214486,-9.738436999999999,0,0,45.5987,1,1,754,996
6284,16577060,1,0.006061011,-0.007101816,0.001790264,-0.3015259,0.002599766,-9.71946,0,0,45.5987,1,1,754,996
6287,16579863,1,0.004292649,-0.005452567,0.0001601467,-0.3085522,0.001010499,-9.720438,0,0,45.59876,1,1,754,996
6290,16582212,1,0.001964659,-0.002635025,-0.001519527,-0.3257733,0.01312766,-9.741312000000001,0,0,45.59876,1,1,754,996
6321,16584582,1,0.001232111,-0.001097743,-0.001021865,-0.3284844,0.02125247,-9.759256000000001,0,0,45.59876,1,1,754,996
6324,16587428,1,0.002151651,-0.002508602,0.002204963,-0.3251837,0.02305533,-9.780334,0,0,45.59876,1,1,754,996
6328,16589661,1,-0.0008447029,-0.0027525,0.005348151,-0.3224274,0.03007369,-9.793385000000001,0,0,45.59884,1,1,754,996
6331,16592597,1,-0.006785681,0.0001702835,0.003961463,-0.3292518,0.05026222,-9.811537,0,0,45.59884,1,1,754,996
6365,16594755,1,-0.010394,0.0008690558,0.001864877,-0.3443817,0.06688789000000001,-9.852043,0,0,45.59884,1,1,754,996
6370,16597458,1,-0.008767024,0.0009937672000000001,0.0007778694,-0.3478218,0.07817712,-9.890283999999999,0,0,45.59884,1,1,754,996
6373,16600137,1,-0.008662278000000001,0.001934181,0.001594998,-0.3444785,0.09043878,-9.920806000000001,0,0,45.59895,1,1,754,996
6377,16602264,1,-0.009366298,0.001693148,0.002125563,-0.3398468,0.09574448000000001,-9.925383,0,0,45.59895,1,1,754,996
6411,16605464,1,-0.01077483,0.0009488202,0.0001672164,-0.3436482,0.09272692,-9.928606,0,0,45.59895,1,1,754,996
6414,16607603,1,-0.0110097,0.001176472,-0.001598726,-0.3444602,0.08225601,-9.924376000000001,0,0,45.59895,1,1,754,996
6417,16609701,1,-0.01183878,0.001396538,-0.004997955,-0.3273799,0.05713086,-9.900827,0,0,45.59895,1,1,754,996
6421,16612841,1,-0.01206532,0.002793446,-0.007128596,-0.3188741,0.04050912,-9.886944,0,0,45.59908,1,1,754,996
6452,16615208,1,-0.01109038,0.002486593,-0.004805687,-0.3058721,0.02533262,-9.880369,0,0,45.59908,1,1,754,996
6456,16617853,1,-0.01212386,0.001438166,-4.547352e-06,-0.2967815,0.01929996,-9.864466999999999,0,0,45.59908,1,1,754,996
6459,16619751,1,-0.01359881,0.003669995,0.00271667,-0.2850127,0.01778611,-9.829083000000001,0,0,45.59908,1,1,754,996
6462,16622684,1,-0.01419153,0.005442471,0.003367107,-0.2743256,0.02212645,-9.804940999999999,0,0,45.59922,1,1,754,996
6493,16624653,1,-0.01458198,0.00830851,0.00359895,-0.2669213,0.02666332,-9.776287999999999,0,0,45.59922,1,1,754,996
6496,16628193,1,-0.01394693,0.009482411,0.004092776,-0.2699332,0.02920851,-9.765919999999999,0,0,45.59922,1,1,754,996
6499,16630132,1,-0.01269956,0.01062417,0.0008634721,-0.2702566,0.05870557,-9.75137,0,0,45.59922,1,1,754,996
6503,16632679,1,-0.0116439,0.009608725,-0.003336266,-0.2635562,0.08705967000000001,-9.742127999999999,0,0,45.59922,1,1,754,996
6534,16634799,1,-0.01029711,0.005187336,-0.004964514,-0.2643691,0.1191262,-9.723017,0,0,45.59936,1,1,754,996
6538,16639719,1,-0.005172862,0.002827275,-0.005433007,-0.2898206,0.1427699,-9.722670000000001,0,0,45.59936,1,1,754,996
6541,16644869,1,-0.002723076,0.01029601,-0.0007486566,-0.3078704,0.1185388,-9.702432,0,0,45.59952,1,1,754,996
6573,16647428,1,-0.001654825,0.01006713,-0.0008105048,-0.312839,0.09412516999999999,-9.685489,0,0,45.59952,1,1,754,996
6576,16650148,1,0.002821111,0.004616437,-0.001407614,-0.3111921,0.07717797999999999,-9.657045,0,0,45.59952,1,1,754,996
6579,16652651,1,0.004286041,0.002862914,-0.001102795,-0.3022752,0.08693239,-9.650135000000001,0,0,45.59952,1,1,754,996
6582,16655163,1,0.006293755,-0.002745103,8.357298000000001e-05,-0.2758816,0.09783827,-9.655271000000001,0,0,45.59967,1,1,754,996
6613,16657218,1,0.003654885,-0.00663373,0.001723662,-0.2536258,0.09696132,-9.659380000000001,0,0,45.59967,1,1,754,996
6616,16659743,1,0.002873622,-0.005352814,0.00218518,-0.2172217,0.09167498,-9.668725,0,0,45.59967,1,1,754,996
6619,16662900,1,0.004008768,-0.003116563,-8.540728e-05,-0.1953622,0.09609692,-9.676068000000001,0,0,45.59967,1,1,754,996
6622,16665412,1,0.004019806,-0.001564633,-0.002197828,-0.1703344,0.08930041,-9.686631,0,0,45.59967,1,1,754,996
6653,16667669,1,0.003982383,-0.001067558,-0.002209616,-0.165688,0.08204432,-9.697029000000001,0,0,45.59983,1,1,754,996
6657,16669753,1,0.003140503,-0.002355841,0.000437188,-0.1804998,0.08047875,-9.721876,0,0,45.59983,1,1,754,996
6661,16672870,1,0.001423483,-0.003608703,0.0007704096,-0.205915,0.07636535999999999,-9.739468,0,0,45.59983,1,1,754,996
6664,16675233,1,-0.001563065,-0.009958379999999999,-0.0008121723,-0.2475463,0.07862282,-9.770695999999999,0,0,45.59983,1,1,754,996
6695,16678083,1,-0.0005268077,-0.01062108,-0.0009076883999999999,-0.2713299,0.07335519,-9.793882999999999,0,0,45.59999,1,1,754,996
6698,16679734,1,0.002169171,-0.009552493,0.0006600702,-0.2908513,0.06752244,-9.810249000000001,0,0,45.59999,1,1,754,996
6701,16682252,1,0.002068789,-0.007619626,0.0007984462,-0.2962669,0.06687715,-9.823036999999999,0,0,45.59999,1,1,754,996
6704,16684664,1,0.002411918,-0.004651292,0.001338557,-0.2893677,0.06476835,-9.823154000000001,0,0,45.59999,1,1,754,996
6735,16688099,1,0.003222946,-0.001964495,0.002065652,-0.286094,0.07212826,-9.815617,0,0,45.59999,1,1,754,996
6740,16690085,1,0.003157466,-2.622127e-05,0.002321595,-0.2772102,0.07861955,-9.797318000000001,0,0,45.60016,1,1,754,996
6743,16692630,1,0.003421913,0.0006204281000000001,0.002943476,-0.2692499,0.08666024,-9.784976,0,0,45.60016,1,1,754,996
6749,16694935,1,0.004901737,-0.003979126,0.006640413,-0.2664106,0.09687986,-9.795529999999999,0,0,45.60016,1,1,754,996
6781,16697867,1,0.00639552,-0.005639433,0.006967395,-0.2676659,0.09846491,-9.813261000000001,0,0,45.60016,1,1,754,996
6785,16700234,1,0.009445530000000001,-0.004266479,0.004794076,-0.2696842,0.09510631999999999,-9.834512999999999,0,0,45.60035,1,1,754,996
6788,16702741,1,0.01244071,-0.0005917642,-0.0001816297,-0.2734977,0.08096033,-9.840171,0,0,45.60035,1,1,754,996
6791,16704661,1,0.01470295,0.002545214,-0.004228752,-0.2704486,0.0595804,-9.818034000000001,0,0,45.60035,1,1,754,996
6822,16707314,1,0.01375787,0.003545926,-0.004599504,-0.2638807,0.05071922,-9.790754,0,0,45.60035,1,1,754,996
6826,16709681,1,0.01104631,0.003686738,-0.001181335,-0.2612769,0.05731519,-9.757918,0,0,45.60055,1,1,754,996
6829,16712604,1,0.009547145999999999,0.002531914,0.001038501,-0.2617862,0.07323041,-9.736833000000001,0,0,45.60055,1,1,754,996
6832,16715054,1,0.004827979,-0.004482763,0.003166581,-0.2789741,0.0923572,-9.733166000000001,0,0,45.60055,1,1,754,996
6863,16718148,1,0.004181823,-0.004827277,0.001813377,-0.2897804,0.09084646,-9.717133,0,0,45.60055,1,1,754,996
6867,16719710,1,0.005240041,-0.002208367,-1.447816e-05,-0.2861082,0.08531563,-9.705257,0,0,45.60055,1,1,754,996
6870,16722255,1,0.006619293,-0.0001958507,-0.0001504965,-0.2798416,0.08147977000000001,-9.696989,0,0,45.60075,1,1,754,996
6873,16724747,1,0.005667388,0.0003567767,0.0005439445,-0.2802533,0.07612041999999999,-9.678501000000001,0,0,45.60075,1,1,754,996
6904,16728018,1,0.003881945,0.001364671,0.001169802,-0.2856326,0.07769694000000001,-9.670999,0,0,45.60075,1,1,754,996
