LineNo,TimeUS,I,GyrX,GyrY,GyrZ,AccX,AccY,AccZ,EG,EA,T,GH,AH,GHz,AHz
187,1.5037e+07,2,0.00074167,-0.003343,-0.0026068,-0.17238,0.18664,-9.8057,0,0,40.618,1,1,7761,3880
218,1.504e+07,2,0.00025621,-0.0027467,-0.0026617,-0.1728,0.18634,-9.8098,0,0,40.618,1,1,7761,3880
290,1.5071e+07,2,0.002162,-0.00072008,0.0020327,-0.17307,0.18755,-9.8423,0,0,40.618,1,1,7761,3880
321,1.5073e+07,2,-0.00028974,-0.0021408,0.0017943,-0.1737,0.18928,-9.8428,0,0,40.618,1,1,7761,3880
401,1.5091e+07,2,0.003664,0.00031121,0.0016314,-0.16237,0.21734,-9.835,0,0,40.618,1,1,7761,3880
516,1.5112e+07,2,-0.00029019,0.00094697,0.0035728,-0.17082,0.19088,-9.8115,0,0,40.619,1,1,7761,3880
632,1.5133e+07,2,0.00084463,0.0023132,0.00021799,-0.15579,0.20711,-9.828,0,0,40.62,1,1,7761,3880
745,1.5149e+07,2,-0.00039983,0.0015501,-0.00089972,-0.1712,0.20647,-9.8463,0,0,40.621,1,1,7761,3880
858,1.5165e+07,2,0.00066703,-0.00061714,-0.00090362,-0.15739,0.22181,-9.8398,0,0,40.622,1,1,7761,3880
971,1.5182e+07,2,-0.00012355,-0.0018241,-0.0035839,-0.1569,0.22345,-9.8308,0,0,40.622,1,1,7761,3880
1084,1.5204e+07,2,0.00061739,-0.0020768,0.0012321,-0.15092,0.1974,-9.814,0,0,40.623,1,1,7761,3880
1199,1.5256e+07,2,-0.00052041,-0.00074647,0.0025784,-0.16862,0.17511,-9.8154,0,0,40.624,1,1,7761,3880
1202,1.526e+07,2,0.0011382,-0.00035341,0.0023667,-0.17227,0.17721,-9.8022,0,0,40.624,1,1,7761,3880
1311,1.533e+07,2,0.0016939,0.00069945,-0.0013576,-0.17,0.21903,-9.8154,0,0,40.625,1,1,7761,3880
1405,1.5386e+07,2,-0.0015951,0.003016,0.0010894,-0.17557,0.19407,-9.83,0,0,40.624,1,1,7761,3880
1494,1.5401e+07,2,-0.00068424,0.0021157,0.0014158,-0.17285,0.1825,-9.8162,0,0,40.624,1,1,7761,3880
1586,1.5416e+07,2,-0.00025422,0.0010381,0.0024532,-0.16121,0.19039,-9.814,0,0,40.624,1,1,7761,3880
1618,1.5418e+07,2,-0.00087308,0.0013706,0.0024862,-0.16239,0.19014,-9.8167,0,0,40.624,1,1,7761,3880
1658,1.5421e+07,2,-0.0021785,0.0012983,0.00050203,-0.16856,0.18824,-9.8208,0,0,40.624,1,1,7761,3880
1661,1.5424e+07,2,-0.0023102,0.0011442,-0.0011253,-0.17274,0.18658,-9.8218,0,0,40.624,1,1,7761,3880
1664,1.5426e+07,2,-0.0016371,0.00090453,-0.0021844,-0.17462,0.18488,-9.8217,0,0,40.624,1,1,7761,3880
1696,1.5429e+07,2,-0.0014556,-0.00038427,-0.0028651,-0.17455,0.18377,-9.8208,0,0,40.624,1,1,7761,3880
1699,1.5432e+07,2,-0.0010893,-0.0016608,-0.0018548,-0.17486,0.18419,-9.8203,0,0,40.624,1,1,7761,3880
1702,1.5434e+07,2,-0.00082376,-0.0017046,-0.001498,-0.17349,0.18371,-9.8195,0,0,40.624,1,1,7761,3880
1706,1.5436e+07,2,-0.00056374,-0.00089284,-0.00085446,-0.17081,0.18282,-9.8184,0,0,40.623,1,1,7761,3880
1737,1.5439e+07,2,-0.00046925,0.0002916,-0.00089442,-0.1641,0.18127,-9.8185,0,0,40.623,1,1,7761,3880
1740,1.5441e+07,2,-0.00065386,0.00060276,-0.00029354,-0.15551,0.18093,-9.8235,0,0,40.623,1,1,7761,3880
1743,1.5444e+07,2,-0.00062421,-0.00018984,-0.00042468,-0.1497,0.18026,-9.8289,0,0,40.623,1,1,7761,3880
1746,1.5446e+07,2,6.6073e-05,-0.0016362,-0.00051975,-0.14119,0.17888,-9.836,0,0,40.623,1,1,7761,3880
1778,1.5449e+07,2,-0.00035087,-0.0017891,3.9618e-05,-0.13858,0.17899,-9.8376,0,0,40.623,1,1,7761,3880
1781,1.5451e+07,2,-0.00063538,-0.0013474,0.00031061,-0.13188,0.18125,-9.8404,0,0,40.623,1,1,7761,3880
1784,1.5454e+07,2,-0.00052685,-0.00096166,-0.0003868,-0.12965,0.18411,-9.8427,0,0,40.623,1,1,7761,3880
1787,1.546e+07,2,-0.0014731,-0.002199,-0.0014612,-0.13174,0.1951,-9.8443,0,0,40.623,1,1,7761,3880
1818,1.5462e+07,2,-0.0013361,-0.0028212,0.00014269,-0.13551,0.20001,-9.8375,0,0,40.623,1,1,7761,3880
1821,1.5465e+07,2,-0.00058987,-0.0031616,0.00012588,-0.13737,0.20324,-9.832,0,0,40.623,1,1,7761,3880
1824,1.5468e+07,2,8.0787e-05,-0.0023195,-0.00011015,-0.13922,0.20439,-9.8259,0,0,40.623,1,1,7761,3880
1827,1.5471e+07,2,0.00084066,-0.0017184,0.00010208,-0.13949,0.2036,-9.8232,0,0,40.623,1,1,7761,3880
1830,1.5472e+07,2,0.0014814,-0.0012568,-8.4996e-05,-0.13902,0.20052,-9.8236,0,0,40.624,1,1,7761,3880
1862,1.5475e+07,2,0.00088244,-0.0010861,-0.00042741,-0.139,0.19807,-9.8264,0,0,40.624,1,1,7761,3880
1865,1.5477e+07,2,0.00064123,-0.001344,-0.0013015,-0.14027,0.19424,-9.8296,0,0,40.624,1,1,7761,3880
1869,1.548e+07,2,0.00025021,-0.0013403,-0.00059192,-0.14122,0.19326,-9.8313,0,0,40.624,1,1,7761,3880
1872,1.5483e+07,2,-0.00051957,-0.0014619,0.00066359,-0.14498,0.19201,-9.8358,0,0,40.624,1,1,7761,3880
1904,1.5485e+07,2,0.00049811,-0.0016701,0.000927,-0.15004,0.19216,-9.8364,0,0,40.624,1,1,7761,3880
1910,1.5487e+07,2,0.0013876,-0.0016139,0.00016494,-0.15325,0.19277,-9.8353,0,0,40.624,1,1,7761,3880
1914,1.549e+07,2,0.00050808,-0.0013508,-0.00050131,-0.1567,0.19368,-9.8333,0,0,40.624,1,1,7761,3880
1917,1.5492e+07,2,-0.00096539,-0.00055194,-0.00084154,-0.16238,0.19643,-9.8279,0,0,40.624,1,1,7761,3880
1948,1.5495e+07,2,0.00022706,-0.00040566,-0.0007441,-0.16692,0.20027,-9.8238,0,0,40.624,1,1,7761,3880
1951,1.5498e+07,2,0.0021597,-0.00079617,0.00097948,-0.1716,0.20689,-9.8207,0,0,40.624,1,1,7761,3880
1954,1.55e+07,2,0.0023137,-0.00076386,0.0021586,-0.17353,0.21015,-9.8222,0,0,40.624,1,1,7761,3880
1957,1.5502e+07,2,0.001748,-0.00077034,0.0016566,-0.17302,0.21396,-9.8262,0,0,40.624,1,1,7761,3880
1989,1.5505e+07,2,0.0012759,-0.00027838,0.0010613,-0.17123,0.21452,-9.8281,0,0,40.624,1,1,7761,3880
1992,1.5508e+07,2,0.001707,0.00033907,-0.000755,-0.16897,0.21479,-9.8334,0,0,40.624,1,1,7761,3880
1995,1.551e+07,2,0.002168,0.00038316,-0.0024029,-0.16726,0.21419,-9.8371,0,0,40.624,1,1,7761,3880
1998,1.5513e+07,2,0.0019979,-0.00035012,-0.0023258,-0.165,0.21205,-9.8405,0,0,40.624,1,1,7761,3880
2029,1.5515e+07,2,0.00097505,-0.00048991,-0.0011038,-0.16099,0.20677,-9.8434,0,0,40.624,1,1,7761,3880
2032,1.5517e+07,2,0.00036248,-0.00045522,-0.00039938,-0.15796,0.20372,-9.8458,0,0,40.625,1,1,7761,3880
2035,1.552e+07,2,0.00083091,0.00011657,0.0004833,-0.15588,0.20134,-9.8473,0,0,40.625,1,1,7761,3880
2039,1.5523e+07,2,0.002148,0.00061484,0.0010261,-0.15482,0.19907,-9.8489,0,0,40.625,1,1,7761,3880
2072,1.5525e+07,2,0.0022114,0.00021187,8.1182e-05,-0.15696,0.19844,-9.8488,0,0,40.625,1,1,7761,3880
2076,1.5527e+07,2,0.0016041,-0.00081082,4.6795e-05,-0.15899,0.19851,-9.8466,0,0,40.625,1,1,7761,3880
2079,1.553e+07,2,0.0017199,-0.0011711,6.0179e-05,-0.16155,0.20008,-9.8444,0,0,40.625,1,1,7761,3880
2082,1.5536e+07,2,0.0032804,0.0015211,-4.4579e-05,-0.17033,0.20579,-9.8461,0,0,40.625,1,1,7761,3880
2085,1.5538e+07,2,0.0016794,0.0016586,-0.00021741,-0.17177,0.2061,-9.849,0,0,40.625,1,1,7761,3880
2119,1.554e+07,2,0.00090424,0.00061504,-0.00096043,-0.17432,0.20603,-9.8498,0,0,40.625,1,1,7761,3880
2122,1.5543e+07,2,0.00036955,-0.00037522,-0.0018521,-0.17522,0.20508,-9.8482,0,0,40.625,1,1,7761,3880
2125,1.5545e+07,2,-0.00028391,-0.00095396,-0.0014508,-0.1753,0.20467,-9.8469,0,0,40.625,1,1,7761,3880
2129,1.5548e+07,2,-0.00051563,-0.00088293,-0.0012879,-0.17451,0.20513,-9.845,0,0,40.625,1,1,7761,3880
2160,1.5551e+07,2,-0.0017764,-0.00049702,-0.0012486,-0.17372,0.20545,-9.8401,0,0,40.625,1,1,7761,3880
2163,1.5553e+07,2,-0.0020581,-8.4011e-05,-0.0018362,-0.17346,0.20552,-9.8374,0,0,40.625,1,1,7761,3880
2166,1.5556e+07,2,-0.0015493,-0.00047521,-0.0024509,-0.17327,0.20555,-9.8339,0,0,40.625,1,1,7761,3880
2169,1.5558e+07,2,-0.00098082,-0.0010809,-0.0019924,-0.17381,0.20696,-9.8316,0,0,40.625,1,1,7761,3880
2201,1.5561e+07,2,-0.00059526,-0.0015128,-0.0012734,-0.173,0.20818,-9.8286,0,0,40.626,1,1,7761,3880
2204,1.5563e+07,2,-0.00043955,-0.0016054,-0.00089122,-0.17159,0.20759,-9.8275,0,0,40.626,1,1,7761,3880
2207,1.5565e+07,2,-0.00046948,-0.0021428,-0.0013433,-0.16922,0.20675,-9.8263,0,0,40.626,1,1,7761,3880
2210,1.5568e+07,2,-0.00021651,-0.002177,-0.0018273,-0.16732,0.20733,-9.8255,0,0,40.626,1,1,7761,3880
2242,1.5571e+07,2,-0.00080601,-0.0023864,-0.001506,-0.16644,0.2076,-9.8297,0,0,40.626,1,1,7761,3880
2245,1.5573e+07,2,-0.0028266,-0.0029464,-0.0013794,-0.16695,0.20666,-9.8332,0,0,40.626,1,1,7761,3880
2248,1.5575e+07,2,-0.0039862,-0.0033925,-0.0027791,-0.16788,0.20538,-9.835,0,0,40.626,1,1,7761,3880
2251,1.5578e+07,2,-0.0037053,-0.0030541,-0.0037307,-0.16928,0.20541,-9.8363,0,0,40.626,1,1,7761,3880
2282,1.558e+07,2,-0.0026457,-0.0011516,-0.0032767,-0.17269,0.20796,-9.8352,0,0,40.626,1,1,7761,3880
2285,1.5583e+07,2,-0.0012812,0.00028505,-0.0022934,-0.17576,0.20889,-9.8342,0,0,40.626,1,1,7761,3880
2289,1.5585e+07,2,-3.2331e-05,0.00045934,-0.0011049,-0.18076,0.20907,-9.8336,0,0,40.626,1,1,7761,3880
2295,1.5588e+07,2,-0.00053671,-0.00034298,-0.00084049,-0.18144,0.20797,-9.8342,0,0,40.626,1,1,7761,3880
2327,1.559e+07,2,-0.00091513,-0.0015309,-0.00082127,-0.18014,0.20637,-9.8401,0,0,40.626,1,1,7761,3880
2331,1.5593e+07,2,-0.00063479,-0.001822,-0.00073832,-0.17821,0.20548,-9.8437,0,0,40.626,1,1,7761,3880
2334,1.5596e+07,2,0.00011415,-0.0012569,-0.0010729,-0.17247,0.20481,-9.8482,0,0,40.626,1,1,7761,3880
2337,1.5598e+07,2,0.00065334,-0.0011862,-0.0012851,-0.16937,0.20307,-9.8533,0,0,40.626,1,1,7761,3880
2368,1.5601e+07,2,-0.00054648,-0.00098213,-0.0008189,-0.16628,0.19988,-9.8573,0,0,40.626,1,1,7761,3880
2372,1.5603e+07,2,-0.0011063,-0.00024042,0.0004528,-0.16514,0.19766,-9.8565,0,0,40.626,1,1,7761,3880
2375,1.5605e+07,2,-0.0012985,0.0004082,0.0016822,-0.16434,0.1961,-9.8537,0,0,40.626,1,1,7761,3880
2378,1.5608e+07,2,-0.0012063,-0.00024954,0.0015552,-0.16451,0.1961,-9.849,0,0,40.626,1,1,7761,3880
2409,1.5611e+07,2,-0.0010269,-0.0014295,0.00086854,-0.16634,0.19946,-9.8391,0,0,40.626,1,1,7761,3880
2416,1.5613e+07,2,-0.0010906,-0.0020058,0.00054402,-0.1692,0.20353,-9.8324,0,0,40.626,1,1,7761,3880
2419,1.5616e+07,2,-0.0010693,-0.0014096,-6.9641e-05,-0.17428,0.21081,-9.823,0,0,40.626,1,1,7761,3880
2422,1.5618e+07,2,0.00023116,-0.00028377,3.0417e-05,-0.17724,0.21398,-9.8168,0,0,40.626,1,1,7761,3880
2453,1.5621e+07,2,0.0031097,0.0009207,-0.00011843,-0.18032,0.21367,-9.8118,0,0,40.626,1,1,7761,3880
2456,1.5623e+07,2,0.0043617,1.5589e-05,0.00015789,-0.18004,0.21144,-9.8106,0,0,40.626,1,1,7761,3880
2459,1.5626e+07,2,0.0036992,-0.00056681,0.00048532,-0.17861,0.206,-9.8123,0,0,40.626,1,1,7761,3880
2462,1.5628e+07,2,0.003066,-0.00038895,0.00019044,-0.17706,0.20215,-9.8142,0,0,40.626,1,1,7761,3880
2493,1.5631e+07,2,0.0029025,-0.00067315,-0.00092987,-0.17391,0.19784,-9.8165,0,0,40.626,1,1,7761,3880
2497,1.5637e+07,2,0.0029176,0.00068048,-0.0013046,-0.17056,0.19177,-9.8146,0,0,40.625,1,1,7761,3880
2500,1.5639e+07,2,0.0040555,0.002581,-0.00085264,-0.16793,0.18843,-9.8119,0,0,40.625,1,1,7761,3880
2531,1.5641e+07,2,0.003983,0.0029512,9.4076e-05,-0.16549,0.18626,-9.8127,0,0,40.625,1,1,7761,3880
2536,1.5644e+07,2,0.0031012,0.0027227,0.0005424,-0.16494,0.18463,-9.8141,0,0,40.625,1,1,7761,3880
2539,1.5646e+07,2,0.0018559,0.0017479,-0.00010721,-0.16479,0.18173,-9.8172,0,0,40.625,1,1,7761,3880
2543,1.5649e+07,2,0.001046,0.0010896,-0.0013703,-0.16467,0.18057,-9.8195,0,0,40.625,1,1,7761,3880
2574,1.5651e+07,2,0.0011296,0.0014035,-0.0013261,-0.16582,0.18321,-9.8231,0,0,40.625,1,1,7761,3880
2577,1.5654e+07,2,0.0021577,0.002979,-0.0014093,-0.16671,0.1872,-9.8241,0,0,40.625,1,1,7761,3880
2580,1.5657e+07,2,0.0031044,0.0027019,-0.0012121,-0.16669,0.19226,-9.8219,0,0,40.625,1,1,7761,3880
2583,1.5659e+07,2,0.0031247,0.0011367,-0.0014571,-0.16591,0.19455,-9.8186,0,0,40.625,1,1,7761,3880
2614,1.5661e+07,2,0.0036189,-0.00030226,-0.00045191,-0.16312,0.19713,-9.8155,0,0,40.625,1,1,7761,3880
2618,1.5664e+07,2,0.0043498,-0.00032722,-0.00011003,-0.1611,0.19764,-9.8157,0,0,40.625,1,1,7761,3880
2621,1.5667e+07,2,0.0046211,0.00057705,0.00017486,-0.15889,0.19656,-9.8221,0,0,40.625,1,1,7761,3880
2624,1.5669e+07,2,0.004014,0.0015772,-1.461e-05,-0.1579,0.1966,-9.8258,0,0,40.625,1,1,7761,3880
2655,1.5672e+07,2,0.0035313,0.0022914,-0.0004639,-0.15412,0.19861,-9.8367,0,0,40.624,1,1,7761,3880
2658,1.5674e+07,2,0.0029251,0.0026894,-0.00081917,-0.15156,0.19958,-9.8426,0,0,40.624,1,1,7761,3880
2661,1.5676e+07,2,0.0020928,0.002824,-0.0024691,-0.14913,0.20113,-9.8479,0,0,40.624,1,1,7761,3880
2664,1.5679e+07,2,0.0013869,0.001661,-0.0027334,-0.14835,0.2009,-9.8472,0,0,40.624,1,1,7761,3880
2695,1.5682e+07,2,0.0011177,-8.6039e-05,-0.0013354,-0.14847,0.19922,-9.8433,0,0,40.624,1,1,7761,3880
2699,1.5684e+07,2,0.0014557,-0.0016004,-0.00038513,-0.14888,0.19804,-9.8414,0,0,40.624,1,1,7761,3880
2702,1.5686e+07,2,0.0019927,-0.0014635,8.0176e-05,-0.14946,0.19874,-9.8394,0,0,40.624,1,1,7761,3880
2709,1.5689e+07,2,0.0021264,-0.00078548,-8.4008e-05,-0.14967,0.20039,-9.8391,0,0,40.624,1,1,7761,3880
2741,1.5692e+07,2,0.0013649,-0.00047193,-0.00055118,-0.15235,0.20501,-9.8344,0,0,40.624,1,1,7761,3880
2744,1.5694e+07,2,0.00055377,-0.00083929,-0.00079018,-0.15472,0.20776,-9.8289,0,0,40.624,1,1,7761,3880
2747,1.5697e+07,2,-0.00071889,-0.00043863,0.00067854,-0.15654,0.21161,-9.8224,0,0,40.624,1,1,7761,3880
2750,1.5699e+07,2,-0.00095629,-0.00020124,0.0014791,-0.1579,0.2138,-9.8203,0,0,40.624,1,1,7761,3880
2781,1.5701e+07,2,-0.00013919,-0.00077366,0.0012374,-0.15892,0.21421,-9.8199,0,0,40.624,1,1,7761,3880
2785,1.5704e+07,2,0.00016007,-0.0010038,0.00074922,-0.15883,0.2148,-9.8211,0,0,40.624,1,1,7761,3880
2788,1.5707e+07,2,0.00026842,-0.0012481,9.2016e-05,-0.15661,0.21533,-9.8228,0,0,40.624,1,1,7761,3880
2791,1.5709e+07,2,-0.00038556,-0.0012884,0.0004398,-0.15561,0.21344,-9.8243,0,0,40.624,1,1,7761,3880
2822,1.5711e+07,2,-0.0002886,-0.00035812,0.00070409,-0.15573,0.20927,-9.8241,0,0,40.624,1,1,7761,3880
2826,1.5714e+07,2,0.0004722,0.00021521,0.00045461,-0.15607,0.20784,-9.8232,0,0,40.624,1,1,7761,3880
2829,1.5716e+07,2,0.00053978,-0.00036001,0.00065816,-0.157,0.20689,-9.8235,0,0,40.624,1,1,7761,3880
2832,1.5719e+07,2,-0.00037427,-0.00039095,0.00058221,-0.15842,0.2075,-9.8235,0,0,40.624,1,1,7761,3880
2863,1.5722e+07,2,-0.00073772,-0.00067042,0.001849,-0.16011,0.20864,-9.8244,0,0,40.624,1,1,7761,3880
2866,1.5724e+07,2,-0.00091239,-0.00097009,0.002846,-0.15999,0.20739,-9.824,0,0,40.624,1,1,7761,3880
2869,1.5727e+07,2,-0.00087795,-0.00075106,0.0035303,-0.15918,0.20124,-9.825,0,0,40.624,1,1,7761,3880
2872,1.5729e+07,2,-0.0011795,-0.0005463,0.002835,-0.15882,0.1991,-9.8249,0,0,40.624,1,1,7761,3880
2903,1.5732e+07,2,-0.0014977,-0.00027127,0.0020212,-0.15817,0.19395,-9.8215,0,0,40.624,1,1,7761,3880
2908,1.5735e+07,2,-0.0033308,-0.0001754,0.00077837,-0.15905,0.19195,-9.8209,0,0,40.624,1,1,7761,3880
2911,1.5737e+07,2,-0.0034534,-0.00013183,0.00037005,-0.16139,0.19365,-9.8203,0,0,40.625,1,1,7761,3880
2914,1.5739e+07,2,-0.0035744,-0.00093023,0.0012475,-0.16187,0.19767,-9.8224,0,0,40.625,1,1,7761,3880
2947,1.5742e+07,2,-0.003211,-0.0023289,0.0028762,-0.1605,0.20507,-9.825,0,0,40.625,1,1,7761,3880
2950,1.5744e+07,2,-0.0023515,-0.0024554,0.0028144,-0.15882,0.20844,-9.826,0,0,40.625,1,1,7761,3880
2953,1.5747e+07,2,-0.0023125,-0.0019355,0.0012733,-0.15772,0.21277,-9.8266,0,0,40.625,1,1,7761,3880
2956,1.5749e+07,2,-0.0024741,-0.0015811,0.00032298,-0.15757,0.2156,-9.8261,0,0,40.625,1,1,7761,3880
2987,1.5752e+07,2,-0.0016205,-0.0015546,-0.00060741,-0.15637,0.21849,-9.8253,0,0,40.625,1,1,7761,3880
2992,1.5757e+07,2,0.0004774,-0.0016296,-0.0011532,-0.15375,0.21623,-9.8274,0,0,40.625,1,1,7761,3880
2995,1.5759e+07,2,-0.000399,-0.0017863,5.9947e-05,-0.15299,0.21229,-9.8296,0,0,40.626,1,1,7761,3880
3026,1.5762e+07,2,-0.0009948,-0.00082935,0.00098301,-0.15155,0.20818,-9.8345,0,0,40.626,1,1,7761,3880
3030,1.5764e+07,2,-0.001145,-0.00015655,0.00081644,-0.15025,0.20461,-9.8424,0,0,40.626,1,1,7761,3880
3034,1.5766e+07,2,-0.0013805,0.00026406,0.00054987,-0.15053,0.20269,-9.845,0,0,40.626,1,1,7761,3880
3037,1.5769e+07,2,-0.0012225,0.00046977,-0.00052857,-0.15246,0.19965,-9.8477,0,0,40.626,1,1,7761,3880
3068,1.5772e+07,2,-0.001213,-0.00080781,-0.0013546,-0.15413,0.19797,-9.8513,0,0,40.626,1,1,7761,3880
3071,1.5774e+07,2,-0.0018975,-0.002799,-0.0020279,-0.15651,0.19691,-9.8557,0,0,40.626,1,1,7761,3880
3074,1.5777e+07,2,-0.0022874,-0.0028091,-0.00079537,-0.15762,0.19876,-9.8577,0,0,40.626,1,1,7761,3880
3077,1.5779e+07,2,-0.0014977,-0.00099154,0.001751,-0.16,0.203,-9.8562,0,0,40.626,1,1,7761,3880
3108,1.5782e+07,2,-0.00045062,0.00023505,0.0030453,-0.16168,0.20459,-9.8552,0,0,40.626,1,1,7761,3880
3112,1.5784e+07,2,0.00034414,0.0019257,0.0036754,-0.16076,0.20675,-9.8534,0,0,40.626,1,1,7761,3880
3115,1.5786e+07,2,0.0010777,0.0022013,0.0033789,-0.15729,0.20677,-9.8518,0,0,40.627,1,1,7761,3880
3121,1.579e+07,2,0.0019328,0.0011701,0.0021565,-0.15346,0.20504,-9.8513,0,0,40.627,1,1,7761,3880
3155,1.5792e+07,2,0.0017814,0.00098545,0.0007611,-0.15171,0.20247,-9.8517,0,0,40.627,1,1,7761,3880
3159,1.5795e+07,2,0.00059048,0.00099791,-0.00044293,-0.15236,0.19879,-9.8521,0,0,40.627,1,1,7761,3880
3162,1.5797e+07,2,-0.00010873,0.00095927,0.00015421,-0.1534,0.19605,-9.8526,0,0,40.627,1,1,7761,3880
3165,1.5799e+07,2,-0.00054235,0.00052017,0.00080947,-0.15506,0.19411,-9.8547,0,0,40.627,1,1,7761,3880
3196,1.5802e+07,2,-0.00040887,0.0004232,0.0011989,-0.15637,0.19326,-9.854,0,0,40.627,1,1,7761,3880
3200,1.5804e+07,2,-0.00025191,0.0012772,0.0011696,-0.15941,0.19122,-9.8498,0,0,40.627,1,1,7761,3880
3203,1.5807e+07,2,2.4134e-05,0.0009055,0.0019091,-0.16235,0.19013,-9.8445,0,0,40.627,1,1,7761,3880
3206,1.5809e+07,2,0.00053461,0.00057683,0.00062132,-0.1666,0.18789,-9.8381,0,0,40.627,1,1,7761,3880
3237,1.5812e+07,2,0.00055739,0.00079129,-0.00067149,-0.16871,0.18626,-9.8337,0,0,40.628,1,1,7761,3880
3241,1.5815e+07,2,0.00088655,0.0010385,-0.0013153,-0.16941,0.18419,-9.827,0,0,40.628,1,1,7761,3880
3244,1.5817e+07,2,0.00028578,0.0013533,-0.00077087,-0.16887,0.18336,-9.8226,0,0,40.628,1,1,7761,3880
3247,1.582e+07,2,-0.00063143,0.001804,0.0019143,-0.16768,0.18262,-9.8184,0,0,40.628,1,1,7761,3880
3278,1.5823e+07,2,-0.00066776,0.0014675,0.0029392,-0.16584,0.18375,-9.8161,0,0,40.628,1,1,7761,3880
3283,1.5825e+07,2,-0.00040456,0.0012038,0.0018678,-0.1651,0.18438,-9.8159,0,0,40.628,1,1,7761,3880
3286,1.5827e+07,2,0.00030145,0.00079462,0.00095702,-0.16349,0.18698,-9.8135,0,0,40.628,1,1,7761,3880
3289,1.5833e+07,2,0.0018307,-0.00066909,-0.0017819,-0.16389,0.19651,-9.8156,0,0,40.628,1,1,7761,3880
3320,1.5835e+07,2,0.0019703,-0.0012056,-0.0014851,-0.16398,0.2014,-9.8183,0,0,40.629,1,1,7761,3880
3323,1.5841e+07,2,0.003296,-0.0015329,0.000671,-0.16677,0.20493,-9.82,0,0,40.629,1,1,7761,3880
3326,1.5843e+07,2,0.0036773,-0.0012549,0.00085961,-0.17103,0.20341,-9.8205,0,0,40.629,1,1,7761,3880
3358,1.5845e+07,2,0.0021764,-0.0025328,0.00088218,-0.17764,0.1991,-9.8225,0,0,40.629,1,1,7761,3880
3361,1.5848e+07,2,0.00091394,-0.0031829,0.00094775,-0.18133,0.19587,-9.8251,0,0,40.629,1,1,7761,3880
3364,1.5851e+07,2,0.001416,-0.0029136,-0.00029049,-0.18539,0.19181,-9.83,0,0,40.629,1,1,7761,3880
3368,1.5853e+07,2,0.0021576,-0.0022859,-0.00055376,-0.18656,0.18956,-9.833,0,0,40.629,1,1,7761,3880
3400,1.5855e+07,2,0.0012129,-0.0024853,0.00063421,-0.18633,0.18747,-9.834,0,0,40.629,1,1,7761,3880
3403,1.5858e+07,2,-0.0006143,-0.0026222,0.00099344,-0.18485,0.18325,-9.8303,0,0,40.629,1,1,7761,3880
3406,1.5861e+07,2,-0.0019506,-0.002947,0.00081413,-0.18328,0.18067,-9.826,0,0,40.63,1,1,7761,3880
3409,1.5863e+07,2,-0.0018785,-0.0028945,4.9896e-05,-0.18078,0.18103,-9.8218,0,0,40.63,1,1,7761,3880
3440,1.5866e+07,2,-0.00032231,-0.0024803,-0.00059078,-0.17749,0.18666,-9.8176,0,0,40.63,1,1,7761,3880
3443,1.5868e+07,2,0.00096906,-0.0022228,-0.00087125,-0.17624,0.1926,-9.8179,0,0,40.63,1,1,7761,3880
3446,1.587e+07,2,0.0016641,-0.0018027,0.00029318,-0.17592,0.20312,-9.8173,0,0,40.63,1,1,7761,3880
3449,1.5873e+07,2,0.0011607,-0.0024224,0.00088182,-0.17612,0.20988,-9.817,0,0,40.63,1,1,7761,3880
3480,1.5876e+07,2,0.00032583,-0.002511,0.00039767,-0.17764,0.21681,-9.8173,0,0,40.63,1,1,7761,3880
3484,1.5878e+07,2,0.00045855,-0.0023396,-0.00029648,-0.17917,0.21888,-9.8186,0,0,40.63,1,1,7761,3880
3487,1.588e+07,2,0.0017529,-0.0023279,-0.0015796,-0.18161,0.21784,-9.8216,0,0,40.63,1,1,7761,3880
3490,1.5883e+07,2,0.0023224,-0.0023495,-0.0018836,-0.18238,0.21507,-9.8224,0,0,40.63,1,1,7761,3880
3521,1.5885e+07,2,0.0018027,-0.0018695,-0.00093599,-0.182,0.2107,-9.8195,0,0,40.63,1,1,7761,3880
3524,1.5889e+07,2,0.0012249,-0.0013006,0.000177,-0.18072,0.20911,-9.8189,0,0,40.631,1,1,7761,3880
3530,1.5891e+07,2,0.0011554,-0.0012396,0.0013105,-0.17494,0.20327,-9.819,0,0,40.631,1,1,7761,3880
3534,1.5893e+07,2,0.0012924,-0.0007146,0.0021991,-0.17122,0.19959,-9.8208,0,0,40.631,1,1,7761,3880
3565,1.5895e+07,2,0.00044745,-7.3302e-05,0.0014667,-0.16733,0.19713,-9.8263,0,0,40.631,1,1,7761,3880
3569,1.5898e+07,2,-0.00048518,0.00025389,0.00019853,-0.16515,0.19743,-9.8306,0,0,40.631,1,1,7761,3880
3572,1.5901e+07,2,-0.00099393,0.00049109,-0.0017625,-0.16287,0.19933,-9.8347,0,0,40.631,1,1,7761,3880
3575,1.5903e+07,2,-0.00061024,0.00065611,-0.0020992,-0.16277,0.20157,-9.838,0,0,40.632,1,1,7761,3880
3606,1.5906e+07,2,-0.0003737,0.0002157,-0.0024394,-0.16354,0.20821,-9.8424,0,0,40.632,1,1,7761,3880
3610,1.5908e+07,2,-0.00062407,3.9451e-05,-0.0026452,-0.163,0.21283,-9.8431,0,0,40.632,1,1,7761,3880
3614,1.5911e+07,2,-0.0013239,0.00046518,-0.0025208,-0.16158,0.219,-9.8381,0,0,40.632,1,1,7761,3880
3617,1.5913e+07,2,-0.00059088,0.00099939,-0.0034351,-0.16048,0.22209,-9.833,0,0,40.632,1,1,7761,3880
3648,1.5916e+07,2,9.3092e-05,0.00087673,-0.0040693,-0.1594,0.22493,-9.8276,0,0,40.632,1,1,7761,3880
3651,1.5918e+07,2,-0.00035523,0.00070229,-0.0030691,-0.15728,0.22697,-9.8218,0,0,40.633,1,1,7761,3880
3654,1.5921e+07,2,-0.00082489,0.00028925,-0.0020476,-0.15593,0.22656,-9.823,0,0,40.633,1,1,7761,3880
3659,1.5923e+07,2,-0.00077606,-0.00016332,-0.0016489,-0.15507,0.22502,-9.8251,0,0,40.633,1,1,7761,3880
3690,1.5926e+07,2,-0.0002352,0.00019839,-0.0013094,-0.15469,0.22016,-9.8262,0,0,40.633,1,1,7761,3880
3694,1.5931e+07,2,-0.0016737,0.0015764,-0.00037672,-0.155,0.21387,-9.8282,0,0,40.634,1,1,7761,3880
3697,1.5933e+07,2,-0.0029979,0.0013914,-0.00135,-0.15905,0.20932,-9.83,0,0,40.634,1,1,7761,3880
3728,1.5938e+07,2,-0.0025497,0.0016075,-0.0016227,-0.16721,0.20549,-9.8274,0,0,40.634,1,1,7761,3880
3731,1.5941e+07,2,-0.002479,0.0012463,-0.0019895,-0.16823,0.20649,-9.8272,0,0,40.634,1,1,7761,3880
3734,1.5944e+07,2,-0.0013076,0.00029178,-0.0020171,-0.16664,0.20884,-9.8272,0,0,40.635,1,1,7761,3880
3765,1.5946e+07,2,-0.00042675,0.00069334,-0.0018039,-0.16198,0.21112,-9.8256,0,0,40.635,1,1,7761,3880
3768,1.5949e+07,2,0.00012273,0.0016091,-0.0013647,-0.16023,0.212,-9.8252,0,0,40.635,1,1,7761,3880
3772,1.5952e+07,2,0.00071339,0.0020539,-0.00071217,-0.15557,0.21388,-9.8237,0,0,40.635,1,1,7761,3879
3776,1.5954e+07,2,0.0014839,0.0021458,-0.00016403,-0.15348,0.21331,-9.8228,0,0,40.636,1,1,7758,3879
3807,1.5957e+07,2,0.0017666,0.0016517,0.00039883,-0.15187,0.21237,-9.8191,0,0,40.636,1,1,7758,3879
3810,1.5959e+07,2,0.0013821,0.00077365,-0.00027524,-0.15153,0.21328,-9.8157,0,0,40.636,1,1,7758,3879
3814,1.5961e+07,2,0.00057171,0.00019847,-0.00062597,-0.15432,0.21507,-9.8117,0,0,40.636,1,1,7758,3879
3817,1.5964e+07,2,0.00019924,0.00037108,-0.00139,-0.1578,0.21533,-9.8132,0,0,40.636,1,1,7758,3879
3848,1.5967e+07,2,0.00059205,0.00021048,-0.0018914,-0.16375,0.21308,-9.8196,0,0,40.637,1,1,7758,3879
3851,1.5969e+07,2,0.00029629,-0.00069112,-0.0016072,-0.16696,0.2095,-9.8262,0,0,40.637,1,1,7758,3879
3854,1.5972e+07,2,-0.00017849,-0.0018499,-0.0014157,-0.16856,0.20239,-9.8348,0,0,40.637,1,1,7758,3879
3857,1.5974e+07,2,-0.00037832,-0.0021724,-0.0012337,-0.16842,0.19837,-9.8373,0,0,40.637,1,1,7758,3879
3888,1.5977e+07,2,-0.000228,-0.0016669,-0.0011045,-0.16798,0.19717,-9.8357,0,0,40.637,1,1,7758,3879
3891,1.5979e+07,2,-0.0003541,-0.0017941,-0.00033639,-0.16664,0.20029,-9.8341,0,0,40.637,1,1,7758,3879
3895,1.5982e+07,2,-4.8721e-05,-0.0014642,0.0011027,-0.16457,0.20474,-9.8343,0,0,40.637,1,1,7758,3879
3898,1.5984e+07,2,0.00035813,-0.0015805,0.0013887,-0.16227,0.20864,-9.834,0,0,40.637,1,1,7758,3879
3929,1.5987e+07,2,0.0018047,-0.0018503,0.0010247,-0.16014,0.21336,-9.8321,0,0,40.638,1,1,7758,3879
3932,1.5989e+07,2,0.0019618,-0.0013746,0.0003368,-0.15865,0.21489,-9.8335,0,0,40.638,1,1,7758,3879
3938,1.5992e+07,2,0.0017716,-0.0022116,-0.00097785,-0.15804,0.21519,-9.8369,0,0,40.638,1,1,7758,3879
3942,1.5994e+07,2,0.0016971,-0.0032237,-0.0009425,-0.158,0.21542,-9.8378,0,0,40.638,1,1,7758,3879
3973,1.5996e+07,2,0.0030868,-0.0040504,0.00066183,-0.15694,0.21437,-9.8386,0,0,40.638,1,1,7758,3879
3976,1.5999e+07,2,0.0043737,-0.0034225,0.0019651,-0.1567,0.21135,-9.8389,0,0,40.638,1,1,7758,3879
3980,1.6001e+07,2,0.0047561,-0.0024645,0.0032506,-0.15562,0.20567,-9.8391,0,0,40.638,1,1,7758,3879
3983,1.6004e+07,2,0.0041497,-0.0013027,0.0036891,-0.15409,0.20109,-9.8399,0,0,40.638,1,1,7758,3879
4014,1.6007e+07,2,0.0032702,-3.3433e-05,0.0026762,-0.15244,0.19421,-9.8413,0,0,40.638,1,1,7758,3879
4017,1.6009e+07,2,0.0033789,-4.665e-05,0.0018758,-0.15205,0.19096,-9.8421,0,0,40.638,1,1,7758,3879
4020,1.6011e+07,2,0.0037177,0.00011581,0.0014589,-0.15159,0.1884,-9.8446,0,0,40.639,1,1,7758,3879
4024,1.6014e+07,2,0.0036601,2.4752e-05,0.0019664,-0.15056,0.18518,-9.8474,0,0,40.639,1,1,7758,3879
4057,1.6017e+07,2,0.0040756,-0.00018878,0.002248,-0.15153,0.18238,-9.8461,0,0,40.639,1,1,7758,3879
4060,1.6019e+07,2,0.0041679,-0.00030592,0.0025699,-0.15319,0.17931,-9.8429,0,0,40.639,1,1,7758,3879
4064,1.6022e+07,2,0.0035421,-0.00023342,0.0034158,-0.15685,0.17645,-9.8379,0,0,40.639,1,1,7758,3879
4067,1.6024e+07,2,0.0035978,-4.9633e-06,0.0027452,-0.1588,0.17567,-9.8357,0,0,40.639,1,1,7758,3879
4098,1.6026e+07,2,0.0033692,0.00069509,0.00079112,-0.16048,0.17423,-9.8334,0,0,40.639,1,1,7758,3879
4101,1.6029e+07,2,0.0028898,0.0015994,8.9653e-05,-0.16001,0.17418,-9.8307,0,0,40.639,1,1,7758,3879
4105,1.6031e+07,2,0.0026679,0.0016596,-0.00091268,-0.1588,0.1757,-9.825,0,0,40.639,1,1,7758,3879
4108,1.6034e+07,2,0.0026081,0.0008973,-0.00084094,-0.15841,0.17746,-9.8205,0,0,40.639,1,1,7758,3879
4139,1.6037e+07,2,0.0032886,0.0012144,0.0011091,-0.15776,0.17832,-9.8146,0,0,40.639,1,1,7758,3879
4142,1.6039e+07,2,0.0033635,0.0014129,0.0029829,-0.15647,0.17786,-9.8127,0,0,40.639,1,1,7758,3879
4145,1.6044e+07,2,0.0024576,0.0022056,0.0015598,-0.15359,0.17438,-9.81,0,0,40.639,1,1,7758,3879
4176,1.6047e+07,2,0.0025243,0.001971,0.00039869,-0.15141,0.17328,-9.8096,0,0,40.639,1,1,7758,3879
4179,1.6049e+07,2,0.0027409,0.0019673,0.00020055,-0.14847,0.17345,-9.8121,0,0,40.639,1,1,7758,3879
4184,1.6051e+07,2,0.0026641,0.0014943,-0.00044785,-0.147,0.17543,-9.8169,0,0,40.639,1,1,7758,3879
4187,1.6054e+07,2,0.001968,0.00054553,-0.0010159,-0.14697,0.17648,-9.8182,0,0,40.639,1,1,7758,3879
4218,1.6056e+07,2,0.00016319,0.00039432,1.7974e-05,-0.14831,0.17716,-9.8166,0,0,40.64,1,1,7758,3879
4221,1.6059e+07,2,-0.00063196,0.00036084,0.000544,-0.15172,0.17811,-9.8157,0,0,40.64,1,1,7758,3879
4225,1.6062e+07,2,-0.00058941,-0.00040273,-0.00032,-0.1579,0.17868,-9.8159,0,0,40.64,1,1,7758,3879
4228,1.6065e+07,2,-0.00069569,-0.0014803,-0.0012508,-0.16252,0.18001,-9.8164,0,0,40.64,1,1,7758,3879
4231,1.6067e+07,2,-0.002099,-0.0024233,-0.0020293,-0.16999,0.18403,-9.8179,0,0,40.64,1,1,7758,3879
4262,1.6069e+07,2,-0.0039264,-0.0017513,-0.0015634,-0.17526,0.18828,-9.8209,0,0,40.64,1,1,7758,3879
4266,1.6072e+07,2,-0.003599,-0.0011892,-0.0017506,-0.17612,0.19111,-9.8202,0,0,40.64,1,1,7758,3879
4270,1.6074e+07,2,-0.0024863,-0.00071673,-0.0016236,-0.17483,0.19476,-9.8193,0,0,40.64,1,1,7758,3879
4273,1.6077e+07,2,-0.0018805,-0.0010935,-0.0015609,-0.1716,0.19897,-9.8194,0,0,40.64,1,1,7758,3879
4304,1.608e+07,2,-0.00032686,-0.0023001,-0.0018447,-0.16419,0.20559,-9.8222,0,0,40.64,1,1,7758,3879
4307,1.6081e+07,2,-0.000453,-0.0029206,-0.0016863,-0.15968,0.20953,-9.8244,0,0,40.64,1,1,7758,3879
4310,1.6084e+07,2,-0.0015538,-0.003094,-0.0013573,-0.15514,0.21196,-9.8234,0,0,40.64,1,1,7758,3879
4313,1.6087e+07,2,-0.002311,-0.0025563,-0.0018603,-0.15302,0.21026,-9.8238,0,0,40.64,1,1,7758,3879
4344,1.609e+07,2,-0.0027461,-0.00099167,-0.0028312,-0.15225,0.20725,-9.8245,0,0,40.64,1,1,7758,3879
4351,1.6093e+07,2,-0.0029104,-0.00038133,-0.0031838,-0.15376,0.20641,-9.8221,0,0,40.641,1,1,7758,3879
4355,1.6095e+07,2,-0.0023418,9.8501e-05,-0.0022957,-0.15529,0.20559,-9.8173,0,0,40.641,1,1,7758,3879
4358,1.6097e+07,2,-0.0017377,-5.1255e-06,-0.0019242,-0.15535,0.20452,-9.8149,0,0,40.641,1,1,7758,3879
4389,1.6099e+07,2,-0.00091401,-0.001098,-0.0019836,-0.15614,0.20401,-9.8128,0,0,40.641,1,1,7758,3879
4393,1.6102e+07,2,-0.0015182,-0.0019121,-0.0014005,-0.15979,0.20473,-9.8103,0,0,40.641,1,1,7758,3879
4396,1.6105e+07,2,-0.0030008,-0.0025871,-0.00052964,-0.16264,0.20533,-9.8102,0,0,40.641,1,1,7758,3879
4399,1.6107e+07,2,-0.003445,-0.001443,-0.00096481,-0.16579,0.20602,-9.8092,0,0,40.641,1,1,7758,3879
4430,1.6109e+07,2,-0.0030554,-0.000698,-0.0019763,-0.17068,0.20771,-9.8099,0,0,40.641,1,1,7758,3879
4433,1.6112e+07,2,-0.0031534,-0.0007943,-0.0024759,-0.17319,0.20941,-9.8136,0,0,40.641,1,1,7758,3879
4436,1.6115e+07,2,-0.0040736,-0.00043952,-0.002523,-0.17366,0.21204,-9.8223,0,0,40.641,1,1,7758,3879
4439,1.6117e+07,2,-0.0039137,-0.00064188,-0.0020964,-0.17229,0.21288,-9.8279,0,0,40.641,1,1,7758,3879
4470,1.6119e+07,2,-0.002588,-0.0011584,-0.00084976,-0.17022,0.21552,-9.8306,0,0,40.641,1,1,7758,3879
4474,1.6122e+07,2,-0.0019996,-0.0011039,-0.00038991,-0.16962,0.21847,-9.8311,0,0,40.641,1,1,7758,3879
4477,1.6125e+07,2,-0.0018496,-0.0011657,-0.00011252,-0.16782,0.21952,-9.8329,0,0,40.641,1,1,7758,3879
4482,1.613e+07,2,-0.00074022,-0.0020252,-0.0020893,-0.16511,0.21198,-9.8303,0,0,40.641,1,1,7758,3879
4485,1.6132e+07,2,-0.00026216,-0.0014067,-0.0024145,-0.16454,0.20959,-9.8302,0,0,40.641,1,1,7758,3879
4516,1.6134e+07,2,-0.0003695,-0.0006372,-0.0016397,-0.16296,0.205,-9.8299,0,0,40.641,1,1,7758,3879
4519,1.6137e+07,2,-0.00064772,-0.00024117,-0.00051444,-0.16309,0.20489,-9.8298,0,0,40.641,1,1,7758,3879
4522,1.6141e+07,2,-0.0015574,0.00043255,0.0002844,-0.16581,0.20473,-9.8278,0,0,40.641,1,1,7758,3879
4525,1.6143e+07,2,-0.0019266,0.0011068,0.00041702,-0.16839,0.20494,-9.826,0,0,40.641,1,1,7758,3879
4528,1.6145e+07,2,-0.0015991,0.0016128,0.00089655,-0.17165,0.20516,-9.8256,0,0,40.641,1,1,7758,3879
4559,1.6147e+07,2,-9.7812e-05,0.00046246,0.0017491,-0.1738,0.20583,-9.8249,0,0,40.641,1,1,7758,3879
4562,1.615e+07,2,0.00090403,-0.00018602,0.0016876,-0.17423,0.20679,-9.8233,0,0,40.641,1,1,7758,3879
4565,1.6153e+07,2,0.00086809,5.1523e-05,0.0012954,-0.17374,0.20892,-9.8208,0,0,40.641,1,1,7758,3879
4568,1.6155e+07,2,9.6945e-05,0.0013039,0.00044006,-0.17203,0.21217,-9.8174,0,0,40.641,1,1,7758,3879
4599,1.6157e+07,2,0.00073449,0.0021798,0.00086129,-0.17088,0.21442,-9.8167,0,0,40.641,1,1,7758,3879
4602,1.616e+07,2,0.0016986,0.0011635,0.0012311,-0.17012,0.21469,-9.8192,0,0,40.641,1,1,7758,3879
4606,1.6162e+07,2,0.002084,-0.00068159,0.0018639,-0.16745,0.21187,-9.8247,0,0,40.641,1,1,7758,3879
4609,1.6165e+07,2,0.0013567,-0.00048147,0.0013975,-0.16613,0.20946,-9.8277,0,0,40.641,1,1,7758,3879
4640,1.6168e+07,2,0.0010282,0.00017555,-2.4944e-05,-0.16612,0.2064,-9.8287,0,0,40.641,1,1,7758,3879
4643,1.617e+07,2,0.00090193,0.0015387,-0.00085568,-0.1669,0.20308,-9.8274,0,0,40.641,1,1,7758,3879
4648,1.6173e+07,2,0.00044606,0.0022135,-0.00069156,-0.16782,0.19827,-9.822,0,0,40.641,1,1,7758,3879
4651,1.6175e+07,2,-3.385e-05,0.0022353,-0.00038742,-0.1686,0.19523,-9.8177,0,0,40.641,1,1,7758,3879
4682,1.6178e+07,2,0.00094121,0.0016473,0.00013178,-0.16936,0.19121,-9.815,0,0,40.641,1,1,7758,3879
4685,1.618e+07,2,0.0021502,0.0013882,0.00034063,-0.17027,0.18942,-9.8138,0,0,40.641,1,1,7758,3879
4688,1.6183e+07,2,0.0041975,0.00074574,0.00028291,-0.16957,0.18812,-9.8102,0,0,40.64,1,1,7758,3879
4691,1.6185e+07,2,0.0050967,0.00019451,-0.00067051,-0.16815,0.18801,-9.8082,0,0,40.64,1,1,7758,3879
4722,1.6187e+07,2,0.0039933,-0.0012074,-0.0015481,-0.16643,0.18944,-9.8069,0,0,40.64,1,1,7758,3879
4725,1.619e+07,2,0.0031291,-0.0011478,-0.0016092,-0.16644,0.19202,-9.8065,0,0,40.64,1,1,7758,3879
4732,1.6193e+07,2,0.002352,-0.00024885,-4.8405e-05,-0.167,0.19693,-9.8076,0,0,40.64,1,1,7758,3879
4736,1.6195e+07,2,0.0027961,-0.00031546,4.9783e-05,-0.16809,0.19997,-9.8094,0,0,40.64,1,1,7758,3879
4767,1.6197e+07,2,0.0030616,-0.0010684,-8.0585e-05,-0.17105,0.20238,-9.8103,0,0,40.64,1,1,7758,3879
4770,1.62e+07,2,0.0027884,-0.0011537,-0.00049089,-0.17296,0.20275,-9.8097,0,0,40.64,1,1,7758,3879
4773,1.6203e+07,2,0.001809,0.00018064,-0.003258,-0.17852,0.20464,-9.8104,0,0,40.64,1,1,7758,3879
4776,1.6205e+07,2,0.0017707,6.7818e-05,-0.0033623,-0.17901,0.20434,-9.8119,0,0,40.64,1,1,7758,3879
4807,1.6208e+07,2,0.0020027,-0.000361,-0.0030022,-0.17973,0.20049,-9.8161,0,0,40.64,1,1,7758,3879
4810,1.621e+07,2,0.0020333,-0.00024604,-0.0019796,-0.17926,0.19703,-9.8174,0,0,40.639,1,1,7758,3879
4814,1.6212e+07,2,0.0019891,-0.0013839,-0.0010792,-0.17618,0.19141,-9.8189,0,0,40.639,1,1,7758,3879
4818,1.6215e+07,2,0.00097705,-0.0018639,-0.00065166,-0.17278,0.1871,-9.8203,0,0,40.639,1,1,7758,3879
4849,1.6217e+07,2,-0.00071258,-0.0018315,-0.00077672,-0.16857,0.18215,-9.8242,0,0,40.639,1,1,7758,3879
4852,1.622e+07,2,-0.001387,-0.0018888,-0.00096645,-0.16678,0.18066,-9.8252,0,0,40.639,1,1,7758,3879
4855,1.6223e+07,2,-0.0015307,-0.0023011,-0.0015243,-0.16551,0.18095,-9.826,0,0,40.639,1,1,7758,3879
4858,1.6225e+07,2,-0.0016122,-0.0023432,-0.0022725,-0.16506,0.18227,-9.8267,0,0,40.639,1,1,7758,3879
4889,1.6228e+07,2,-0.00018563,-0.0006314,-0.0025609,-0.16617,0.1844,-9.8277,0,0,40.639,1,1,7758,3879
4892,1.623e+07,2,0.00082585,0.0011329,-0.0030939,-0.16841,0.18713,-9.8275,0,0,40.639,1,1,7758,3879
4896,1.6232e+07,2,0.0016597,0.0015241,-0.0037736,-0.17264,0.19045,-9.8296,0,0,40.639,1,1,7758,3879
4899,1.6236e+07,2,0.0019958,0.00078805,-0.0042156,-0.17498,0.19154,-9.8313,0,0,40.639,1,1,7758,3879
4930,1.6238e+07,2,0.0016719,0.00081762,-0.0044527,-0.17591,0.19098,-9.834,0,0,40.639,1,1,7758,3879
4933,1.6243e+07,2,0.00035559,0.001279,-0.0049171,-0.1703,0.18745,-9.846,0,0,40.638,1,1,7758,3879
4937,1.6245e+07,2,0.00033197,0.0012705,-0.0045199,-0.16768,0.18648,-9.8492,0,0,40.638,1,1,7758,3879
4968,1.625e+07,2,0.00017169,0.0014993,-0.0047581,-0.16482,0.18264,-9.8479,0,0,40.638,1,1,7758,3879
4971,1.6253e+07,2,0.00029722,0.00037198,-0.0053355,-0.16246,0.18194,-9.8477,0,0,40.638,1,1,7758,3879
4974,1.6255e+07,2,5.7491e-05,7.0565e-05,-0.0051743,-0.16093,0.18205,-9.8472,0,0,40.638,1,1,7758,3879
5005,1.6257e+07,2,-0.0011541,-0.00056179,-0.0047512,-0.1627,0.18532,-9.8436,0,0,40.638,1,1,7758,3879
5008,1.626e+07,2,-0.0026118,-0.00037027,-0.0035672,-0.16386,0.18641,-9.8419,0,0,40.638,1,1,7758,3879
5011,1.6262e+07,2,-0.0027323,0.00028561,-0.0014935,-0.16819,0.18925,-9.8361,0,0,40.637,1,1,7758,3879
5016,1.6265e+07,2,-0.0008698,0.00069189,-0.0012063,-0.17115,0.19076,-9.8314,0,0,40.637,1,1,7758,3879
5047,1.6268e+07,2,0.00089081,0.0010322,-0.0012658,-0.17689,0.19122,-9.828,0,0,40.637,1,1,7758,3879
5050,1.627e+07,2,0.001234,0.0014657,-0.0011417,-0.17978,0.1911,-9.8267,0,0,40.637,1,1,7758,3879
5054,1.6273e+07,2,0.00015172,0.0018397,-0.00048895,-0.18029,0.1908,-9.8239,0,0,40.637,1,1,7758,3879
5058,1.6275e+07,2,-0.00044699,0.0011619,-0.00010967,-0.17703,0.18869,-9.8216,0,0,40.637,1,1,7758,3879
5089,1.6278e+07,2,-0.0020843,0.00056393,3.7845e-05,-0.16824,0.18452,-9.817,0,0,40.637,1,1,7758,3879
5092,1.628e+07,2,-0.0026785,0.0011465,0.00043333,-0.16203,0.1822,-9.8159,0,0,40.637,1,1,7758,3879
5095,1.6282e+07,2,-0.0023478,0.0010556,0.0012529,-0.1526,0.18196,-9.8132,0,0,40.636,1,1,7758,3879
5098,1.6285e+07,2,-0.0024255,0.00015851,0.0011852,-0.14712,0.18419,-9.8109,0,0,40.636,1,1,7758,3879
5129,1.6288e+07,2,-0.0033886,-0.0011564,0.0018985,-0.14186,0.19194,-9.8104,0,0,40.636,1,1,7758,3879
5132,1.629e+07,2,-0.0033223,-0.0012637,0.0016548,-0.13939,0.19932,-9.8134,0,0,40.636,1,1,7758,3879
5138,1.6293e+07,2,-0.0027251,-0.0020231,0.0007448,-0.13939,0.20724,-9.8178,0,0,40.636,1,1,7758,3879
5143,1.6295e+07,2,-0.0030714,-0.0026033,0.00079733,-0.14072,0.21391,-9.8208,0,0,40.636,1,1,7758,3879
5174,1.6298e+07,2,-0.0031046,-0.0019817,0.0012233,-0.14362,0.21952,-9.8234,0,0,40.636,1,1,7758,3879
5177,1.63e+07,2,-0.0021107,-0.0012996,0.0014132,-0.1458,0.2203,-9.8248,0,0,40.636,1,1,7758,3879
5180,1.6303e+07,2,0.00017475,-0.0016894,0.0017871,-0.14962,0.22014,-9.8274,0,0,40.636,1,1,7758,3879
5184,1.6305e+07,2,0.0013185,-0.0015874,0.0032414,-0.1531,0.22021,-9.8304,0,0,40.636,1,1,7758,3879
5215,1.6307e+07,2,0.0021871,-0.0015962,0.0047538,-0.15669,0.2191,-9.8354,0,0,40.636,1,1,7758,3879
5218,1.631e+07,2,0.0022536,-0.0017896,0.0049778,-0.15835,0.217,-9.84,0,0,40.636,1,1,7758,3879
5221,1.6313e+07,2,0.0011736,-0.0012558,0.0042212,-0.1624,0.21191,-9.8422,0,0,40.636,1,1,7758,3879
5225,1.6315e+07,2,0.00094156,-0.0015042,0.0031199,-0.16355,0.20865,-9.8406,0,0,40.636,1,1,7758,3879
5256,1.6317e+07,2,7.833e-05,-0.002631,0.0015184,-0.16147,0.20686,-9.8376,0,0,40.636,1,1,7758,3879
5259,1.632e+07,2,0.00036617,-0.0037008,0.00013393,-0.15914,0.20821,-9.8367,0,0,40.636,1,1,7758,3879
5262,1.6323e+07,2,0.0010887,-0.0039985,-0.00022795,-0.1562,0.211,-9.8362,0,0,40.636,1,1,7758,3879
5265,1.6325e+07,2,0.00048002,-0.0031785,-0.00065407,-0.15533,0.21114,-9.8354,0,0,40.635,1,1,7758,3879
5296,1.6328e+07,2,0.00069241,-0.0023125,0.00039604,-0.15357,0.21023,-9.8346,0,0,40.635,1,1,7758,3879
5301,1.633e+07,2,0.0013004,-0.0013927,0.0015329,-0.15176,0.2087,-9.8337,0,0,40.635,1,1,7758,3879
5304,1.6333e+07,2,0.00065731,-0.00086664,0.0016948,-0.14851,0.20547,-9.8349,0,0,40.635,1,1,7758,3879
5308,1.6337e+07,2,0.00056585,-0.002923,0.0014591,-0.14692,0.20338,-9.8381,0,0,40.635,1,1,7758,3879
5339,1.6342e+07,2,0.00057945,-0.0014609,0.00059444,-0.15455,0.20581,-9.8442,0,0,40.635,1,1,7758,3879
5342,1.6345e+07,2,0.0011006,5.2001e-06,0.00057812,-0.15847,0.20481,-9.8444,0,0,40.635,1,1,7758,3879
5345,1.6347e+07,2,0.0013797,0.00066883,0.00035892,-0.16359,0.20204,-9.8391,0,0,40.635,1,1,7758,3879
5376,1.635e+07,2,0.00067841,0.00074634,-0.00048157,-0.16645,0.19987,-9.8377,0,0,40.635,1,1,7758,3879
5379,1.6352e+07,2,0.00039186,0.00062362,-0.0017389,-0.1683,0.19551,-9.8369,0,0,40.635,1,1,7758,3879
5384,1.6355e+07,2,0.00054348,0.00028825,-0.001917,-0.16871,0.19153,-9.8376,0,0,40.635,1,1,7758,3879
5387,1.6358e+07,2,0.00062249,-0.00021074,-0.00029203,-0.16754,0.18737,-9.8385,0,0,40.635,1,1,7758,3879
5390,1.636e+07,2,0.00060575,-0.00041679,0.00014436,-0.16526,0.18406,-9.8402,0,0,40.635,1,1,7758,3879
5421,1.6362e+07,2,0.0003601,-0.00076005,9.7126e-05,-0.16332,0.1811,-9.8434,0,0,40.635,1,1,7758,3879
5425,1.6365e+07,2,0.00053819,-0.00065627,-0.00027572,-0.16477,0.18081,-9.8444,0,0,40.635,1,1,7758,3879
5428,1.6368e+07,2,0.0012327,0.00047577,-0.0017416,-0.16891,0.18286,-9.8444,0,0,40.635,1,1,7758,3879
5431,1.637e+07,2,0.002446,0.00051075,-0.0024124,-0.17078,0.1852,-9.8448,0,0,40.635,1,1,7758,3879
5462,1.6373e+07,2,0.004677,0.00071599,-0.0026366,-0.17303,0.19069,-9.8438,0,0,40.635,1,1,7758,3879
5465,1.6375e+07,2,0.005566,0.00078242,-0.0020325,-0.17415,0.19533,-9.8425,0,0,40.635,1,1,7758,3879
5468,1.6377e+07,2,0.0047554,0.0015055,-0.0012428,-0.17501,0.19957,-9.8414,0,0,40.634,1,1,7758,3879
5471,1.638e+07,2,0.0043327,0.0020944,-0.0010839,-0.17368,0.19888,-9.841,0,0,40.634,1,1,7758,3879
5502,1.6383e+07,2,0.004317,0.0025175,-0.0021991,-0.1707,0.19557,-9.8382,0,0,40.634,1,1,7758,3879
5506,1.6385e+07,2,0.0039849,0.0020648,-0.0042657,-0.16894,0.19214,-9.834,0,0,40.634,1,1,7758,3879
5510,1.6387e+07,2,0.0025942,0.0014694,-0.0042365,-0.16795,0.18852,-9.831,0,0,40.634,1,1,7758,3879
5513,1.639e+07,2,0.001318,0.001228,-0.0030656,-0.16775,0.18577,-9.8306,0,0,40.634,1,1,7758,3879
5547,1.6393e+07,2,0.0011293,0.00043645,-0.0026251,-0.16578,0.1845,-9.8298,0,0,40.634,1,1,7758,3879
5551,1.6395e+07,2,0.0014108,-0.00016376,-0.0020202,-0.16553,0.18262,-9.8283,0,0,40.634,1,1,7758,3879
5554,1.6397e+07,2,0.0014904,-0.00021905,-0.0011362,-0.16904,0.18141,-9.8294,0,0,40.634,1,1,7758,3879
5557,1.64e+07,2,0.0012051,0.00044647,-0.0017225,-0.17295,0.18234,-9.8322,0,0,40.634,1,1,7758,3879
5588,1.6403e+07,2,0.0016152,0.00068546,-0.0037434,-0.17856,0.18363,-9.8339,0,0,40.634,1,1,7758,3879
5592,1.6405e+07,2,0.0027534,0.00054493,-0.0040471,-0.18101,0.18417,-9.8311,0,0,40.634,1,1,7758,3879
5596,1.6408e+07,2,0.0033266,-0.00025355,-0.003117,-0.18394,0.18548,-9.8238,0,0,40.634,1,1,7758,3879
5599,1.641e+07,2,0.0030156,0.00014947,-0.0018765,-0.18488,0.18536,-9.8202,0,0,40.634,1,1,7758,3879
5630,1.6412e+07,2,0.0022331,0.00018688,-0.00024309,-0.1844,0.18436,-9.8214,0,0,40.634,1,1,7758,3879
5634,1.6415e+07,2,0.0012752,-0.00039643,-0.0008208,-0.18338,0.18427,-9.8245,0,0,40.634,1,1,7758,3879
5637,1.6417e+07,2,-0.00011191,-0.001643,-0.0012297,-0.18226,0.18429,-9.8268,0,0,40.634,1,1,7758,3879
5640,1.642e+07,2,-0.0010318,-0.0024685,-0.001776,-0.18087,0.18442,-9.8267,0,0,40.634,1,1,7758,3879
5671,1.6423e+07,2,-0.00095824,-0.0023299,-0.002295,-0.18017,0.18492,-9.8246,0,0,40.634,1,1,7758,3879
5674,1.6425e+07,2,2.4782e-05,-0.0013742,-0.0023943,-0.17978,0.18667,-9.8247,0,0,40.634,1,1,7758,3879
5677,1.6428e+07,2,0.001741,-0.00010272,-0.002222,-0.1793,0.18983,-9.8211,0,0,40.634,1,1,7758,3879
5680,1.643e+07,2,0.0015759,6.3205e-05,-0.0010574,-0.18023,0.19121,-9.8161,0,0,40.634,1,1,7758,3879
5711,1.6432e+07,2,0.00093944,-0.00015224,-0.0004228,-0.18205,0.19387,-9.8099,0,0,40.634,1,1,7758,3879
5715,1.644e+07,2,-0.00096327,-0.0024258,0.00038214,-0.1799,0.19498,-9.8229,0,0,40.634,1,1,7758,3879
5746,1.6443e+07,2,-0.00038588,-0.0020114,0.00011117,-0.17871,0.19315,-9.8256,0,0,40.634,1,1,7758,3879
5749,1.6445e+07,2,0.00029047,-0.0011358,0.0014804,-0.17744,0.18917,-9.8278,0,0,40.634,1,1,7758,3879
5752,1.6448e+07,2,-5.1873e-05,-0.0014354,0.0025613,-0.17691,0.18663,-9.8285,0,0,40.634,1,1,7758,3879
5756,1.6451e+07,2,-0.00030126,-0.00064013,0.0033779,-0.17705,0.18341,-9.8292,0,0,40.634,1,1,7758,3879
5787,1.6453e+07,2,-0.001034,0.00035813,0.0029341,-0.17567,0.17751,-9.8322,0,0,40.634,1,1,7758,3879
5791,1.6456e+07,2,-0.0010611,0.00042465,0.0024046,-0.17524,0.17453,-9.8363,0,0,40.634,1,1,7758,3879
5794,1.6458e+07,2,-0.001593,-0.00034209,0.00063964,-0.1752,0.17378,-9.8437,0,0,40.634,1,1,7758,3879
5797,1.6461e+07,2,-0.0021772,-0.0016238,0.0006991,-0.17557,0.17571,-9.8484,0,0,40.634,1,1,7758,3879
5828,1.6464e+07,2,-0.0021253,-0.0020764,0.0019805,-0.17671,0.18066,-9.85,0,0,40.634,1,1,7758,3879
5831,1.6466e+07,2,-0.0012758,-0.0013351,0.0020854,-0.17654,0.18349,-9.8471,0,0,40.634,1,1,7758,3879
5834,1.6469e+07,2,-0.0013205,-0.0010688,0.0019364,-0.17689,0.18663,-9.8442,0,0,40.634,1,1,7758,3879
5837,1.6471e+07,2,-0.0018978,-0.00064655,0.0025012,-0.17665,0.18967,-9.8445,0,0,40.634,1,1,7758,3879
5868,1.6474e+07,2,-0.0017036,0.00033445,0.0025849,-0.17357,0.19325,-9.8465,0,0,40.634,1,1,7758,3879
5872,1.6476e+07,2,-0.00084767,0.0008165,0.0012878,-0.1714,0.19712,-9.8507,0,0,40.634,1,1,7758,3879
5876,1.6478e+07,2,-0.00036126,0.00052695,0.00080765,-0.16811,0.20487,-9.8559,0,0,40.634,1,1,7758,3879
5879,1.6481e+07,2,-0.0016351,0.00037983,0.0013159,-0.16729,0.20707,-9.856,0,0,40.634,1,1,7758,3879
5910,1.6483e+07,2,-0.0028554,0.00014915,0.0013335,-0.1653,0.21035,-9.8534,0,0,40.634,1,1,7758,3879
5914,1.6486e+07,2,-0.0025831,0.0003994,0.00089909,-0.1667,0.2111,-9.8515,0,0,40.634,1,1,7758,3879
5917,1.6488e+07,2,-0.0020783,0.0014221,-0.00078173,-0.17239,0.21334,-9.846,0,0,40.634,1,1,7758,3879
5921,1.6491e+07,2,-0.0022465,0.0014646,-0.0012755,-0.17664,0.21607,-9.8399,0,0,40.634,1,1,7758,3879
5955,1.6494e+07,2,-0.0034013,0.0015927,-0.0013933,-0.18201,0.21871,-9.8298,0,0,40.634,1,1,7758,3879
5959,1.6496e+07,2,-0.0035915,0.0013608,-0.00048498,-0.18383,0.22017,-9.8245,0,0,40.634,1,1,7758,3879
5962,1.6499e+07,2,-0.0025524,0.0010669,0.00024263,-0.18634,0.22237,-9.8186,0,0,40.634,1,1,7758,3879
5965,1.6501e+07,2,-0.0014734,0.00063801,0.0006177,-0.18744,0.22397,-9.816,0,0,40.634,1,1,7758,3879
5996,1.6503e+07,2,0.00027569,0.00030339,0.0003543,-0.18766,0.22644,-9.8139,0,0,40.634,1,1,7758,3879
6000,1.6506e+07,2,0.00074136,0.00097585,0.00039636,-0.18737,0.22843,-9.8144,0,0,40.634,1,1,7758,3879
6003,1.6508e+07,2,0.00099891,0.0015697,0.00039365,-0.18352,0.2323,-9.8161,0,0,40.634,1,1,7758,3879
6006,1.6511e+07,2,0.0017787,0.0014819,-0.00021757,-0.18026,0.23406,-9.8196,0,0,40.634,1,1,7758,3879
6039,1.6514e+07,2,0.0030763,0.001768,-0.0013725,-0.17621,0.23435,-9.823,0,0,40.634,1,1,7758,3879
6042,1.6516e+07,2,0.0030627,0.0022016,-0.0013714,-0.16961,0.2328,-9.8232,0,0,40.634,1,1,7758,3879
6045,1.6519e+07,2,0.0026462,0.0017061,-0.00081679,-0.16513,0.23054,-9.8219,0,0,40.634,1,1,7758,3879
6048,1.6521e+07,2,0.0028919,0.0010476,-0.0015812,-0.16066,0.22786,-9.8217,0,0,40.634,1,1,7758,3879
6079,1.6524e+07,2,0.0038453,0.0015986,-0.0024732,-0.16,0.226,-9.8228,0,0,40.634,1,1,7758,3879
6083,1.6526e+07,2,0.0041998,0.0021776,-0.0036516,-0.15934,0.22338,-9.8262,0,0,40.634,1,1,7758,3879
6086,1.6529e+07,2,0.0040641,0.002909,-0.003045,-0.15873,0.22056,-9.8274,0,0,40.634,1,1,7758,3879
6092,1.6532e+07,2,0.0045117,0.0026125,-0.0031458,-0.15877,0.21623,-9.8258,0,0,40.634,1,1,7758,3879
6123,1.6534e+07,2,0.0040575,0.0022298,-0.0033985,-0.15962,0.21327,-9.8194,0,0,40.634,1,1,7758,3879
6126,1.654e+07,2,0.0048667,0.00172,-0.0023225,-0.16076,0.20908,-9.8072,0,0,40.634,1,1,7758,3879
6129,1.6542e+07,2,0.0059674,0.0014908,-0.002273,-0.16126,0.20819,-9.8048,0,0,40.634,1,1,7758,3879
6160,1.6544e+07,2,0.006345,0.0011946,-0.0037514,-0.16077,0.2078,-9.8051,0,0,40.634,1,1,7758,3879
6163,1.6547e+07,2,0.0059478,0.00063974,-0.0043537,-0.15955,0.20716,-9.8069,0,0,40.635,1,1,7758,3879
6166,1.655e+07,2,0.0053332,-0.0006591,-0.0038809,-0.15665,0.20756,-9.8101,0,0,40.635,1,1,7758,3879
6169,1.6552e+07,2,0.0050472,-0.0017556,-0.0031339,-0.15499,0.20872,-9.8111,0,0,40.635,1,1,7758,3879
6200,1.6555e+07,2,0.0044455,-0.0026348,-0.0031671,-0.15251,0.20914,-9.8123,0,0,40.635,1,1,7758,3879
6203,1.6557e+07,2,0.0053068,-0.0029905,-0.0028757,-0.15238,0.20888,-9.8139,0,0,40.635,1,1,7758,3879
6206,1.6559e+07,2,0.0058013,-0.0025608,-0.0008457,-0.15243,0.20929,-9.8165,0,0,40.635,1,1,7758,3879
6209,1.6562e+07,2,0.0052565,-0.0019465,-0.00018758,-0.15275,0.20852,-9.8164,0,0,40.635,1,1,7758,3879
6240,1.6564e+07,2,0.0036912,-0.001738,0.0014488,-0.15395,0.20695,-9.8167,0,0,40.635,1,1,7758,3879
6244,1.6568e+07,2,0.003032,-0.0017393,0.0022648,-0.15562,0.20506,-9.82,0,0,40.635,1,1,7758,3879
6247,1.6569e+07,2,0.0036,-0.0017882,0.002303,-0.15747,0.2004,-9.8282,0,0,40.635,1,1,7758,3879
6250,1.6572e+07,2,0.0035687,-0.0018633,0.0017716,-0.15788,0.19655,-9.8352,0,0,40.635,1,1,7758,3879
6281,1.6575e+07,2,0.00075719,-0.0030834,0.002234,-0.15758,0.19272,-9.841,0,0,40.635,1,1,7758,3879
6285,1.6577e+07,2,-0.0021262,-0.0040007,0.0012606,-0.15671,0.18896,-9.845,0,0,40.635,1,1,7758,3879
6288,1.658e+07,2,-0.0033954,-0.0047669,0.00072367,-0.15548,0.18207,-9.8488,0,0,40.635,1,1,7758,3879
6291,1.6582e+07,2,-0.0030901,-0.005234,0.00083669,-0.15413,0.17785,-9.8513,0,0,40.635,1,1,7758,3879
6322,1.6585e+07,2,-0.0025491,-0.00452,5.9086e-05,-0.1511,0.17212,-9.8528,0,0,40.635,1,1,7758,3879
6325,1.6587e+07,2,-0.0031094,-0.0035551,-0.00023984,-0.15036,0.16976,-9.8529,0,0,40.635,1,1,7758,3879
6329,1.659e+07,2,-0.0051175,-0.0027556,4.6296e-05,-0.15101,0.16944,-9.8541,0,0,40.635,1,1,7758,3879
6332,1.6593e+07,2,-0.0059407,-0.0016386,0.00029933,-0.15232,0.17143,-9.8549,0,0,40.635,1,1,7758,3879
6366,1.6595e+07,2,-0.0054431,-0.00062798,-0.00023955,-0.15345,0.17766,-9.8534,0,0,40.635,1,1,7758,3879
6371,1.6597e+07,2,-0.0035996,-0.00080851,-0.0010046,-0.15415,0.1837,-9.8497,0,0,40.635,1,1,7758,3879
6374,1.66e+07,2,-0.0024104,-0.00081589,-0.0020035,-0.15538,0.1863,-9.8467,0,0,40.635,1,1,7758,3879
6378,1.6602e+07,2,-0.0034781,-0.00057772,-0.0016786,-0.15836,0.1865,-9.8453,0,0,40.635,1,1,7758,3879
6412,1.6605e+07,2,-0.0049146,2.7561e-06,-0.00038046,-0.15939,0.18519,-9.8461,0,0,40.635,1,1,7758,3879
6415,1.6608e+07,2,-0.0071249,0.0010513,0.0024696,-0.161,0.17719,-9.8526,0,0,40.635,1,1,7758,3879
6418,1.661e+07,2,-0.0075053,0.0012936,0.0027187,-0.1619,0.17081,-9.8567,0,0,40.635,1,1,7758,3879
6422,1.6613e+07,2,-0.0089551,0.0022255,0.0023568,-0.16563,0.16279,-9.8619,0,0,40.635,1,1,7758,3879
6453,1.6615e+07,2,-0.010885,0.0024146,0.0013278,-0.17133,0.16078,-9.8672,0,0,40.635,1,1,7758,3879
6457,1.6618e+07,2,-0.011886,0.0021118,6.2143e-05,-0.17582,0.16253,-9.8669,0,0,40.635,1,1,7758,3879
6460,1.662e+07,2,-0.012521,0.0021277,-0.0012165,-0.18027,0.16629,-9.8623,0,0,40.636,1,1,7758,3879
6463,1.6623e+07,2,-0.011713,0.0023587,-0.00088429,-0.18352,0.17359,-9.8512,0,0,40.636,1,1,7758,3879
6494,1.6625e+07,2,-0.010306,0.0026699,-0.00039039,-0.18361,0.17944,-9.8448,0,0,40.636,1,1,7758,3879
6497,1.6628e+07,2,-0.0079334,0.0034692,-0.00032128,-0.18307,0.18857,-9.8382,0,0,40.636,1,1,7758,3879
6500,1.663e+07,2,-0.00635,0.0033558,-0.00088667,-0.18252,0.1945,-9.8372,0,0,40.636,1,1,7758,3879
6504,1.6633e+07,2,-0.0053365,0.0029219,-0.0016743,-0.18147,0.20178,-9.8416,0,0,40.636,1,1,7758,3879
6535,1.6635e+07,2,-0.0055049,0.0023069,-0.001796,-0.18019,0.20582,-9.8433,0,0,40.636,1,1,7758,3879
6539,1.664e+07,2,-0.0045369,0.0011643,-0.0006645,-0.1745,0.2151,-9.8357,0,0,40.636,1,1,7758,3879
6542,1.6645e+07,2,-0.0023164,0.00096684,0.0011104,-0.16492,0.21737,-9.8231,0,0,40.636,1,1,7758,3879
6574,1.6647e+07,2,-0.0025435,0.00016139,0.0013477,-0.16189,0.21629,-9.8217,0,0,40.636,1,1,7758,3879
6577,1.665e+07,2,-0.0031011,-0.00056848,0.0016011,-0.15968,0.21422,-9.8208,0,0,40.636,1,1,7758,3879
6580,1.6653e+07,2,-0.0029817,-0.0014377,0.0012536,-0.15518,0.20975,-9.8218,0,0,40.636,1,1,7758,3879
6583,1.6655e+07,2,-0.0023291,-0.0014157,0.0010191,-0.15318,0.20697,-9.8233,0,0,40.636,1,1,7758,3879
6614,1.6657e+07,2,-0.00069461,-0.0014352,0.00081314,-0.15132,0.20372,-9.8228,0,0,40.636,1,1,7758,3879
6617,1.666e+07,2,0.00040505,-0.0013202,0.00035312,-0.15032,0.20185,-9.8233,0,0,40.636,1,1,7758,3879
6620,1.6663e+07,2,0.0021556,4.6213e-05,-0.00065592,-0.14987,0.20108,-9.8216,0,0,40.636,1,1,7758,3879
6623,1.6665e+07,2,0.00334,0.00057497,-0.00096963,-0.15059,0.20258,-9.8187,0,0,40.636,1,1,7758,3879
6654,1.6668e+07,2,0.004295,6.8799e-05,-0.0021013,-0.15226,0.20698,-9.8163,0,0,40.637,1,1,7758,3879
6658,1.667e+07,2,0.0038822,-0.00087303,-0.0025683,-0.15325,0.20885,-9.8162,0,0,40.637,1,1,7758,3879
6662,1.6673e+07,2,0.0044169,-0.0022015,-0.0024564,-0.15614,0.2148,-9.8174,0,0,40.637,1,1,7758,3879
6665,1.6675e+07,2,0.0051726,-0.0033674,-0.0022344,-0.15859,0.21721,-9.8188,0,0,40.637,1,1,7758,3879
6696,1.6678e+07,2,0.006439,-0.0041544,-0.00072345,-0.16217,0.21765,-9.8221,0,0,40.637,1,1,7758,3879
6699,1.668e+07,2,0.0073068,-0.0040659,0.00022298,-0.16369,0.21537,-9.8242,0,0,40.637,1,1,7758,3879
6702,1.6682e+07,2,0.0079184,-0.0036719,0.00030426,-0.16565,0.20911,-9.8263,0,0,40.637,1,1,7758,3879
6705,1.6685e+07,2,0.0084434,-0.0040698,-0.00071116,-0.16748,0.2037,-9.8278,0,0,40.637,1,1,7758,3879
6736,1.6688e+07,2,0.008841,-0.0053368,-0.0012628,-0.17266,0.19568,-9.828,0,0,40.637,1,1,7758,3879
6741,1.669e+07,2,0.0084925,-0.0058701,-0.00060331,-0.17471,0.19173,-9.8286,0,0,40.637,1,1,7758,3879
6744,1.6693e+07,2,0.0073269,-0.0052793,-0.00036074,-0.1755,0.18802,-9.8333,0,0,40.638,1,1,7758,3879
6750,1.6695e+07,2,0.0069492,-0.0049774,-0.0006179,-0.1753,0.18644,-9.8379,0,0,40.638,1,1,7758,3879
6782,1.6698e+07,2,0.0069937,-0.0044815,-0.00073616,-0.17464,0.18533,-9.842,0,0,40.638,1,1,7758,3879
6786,1.67e+07,2,0.0072642,-0.0038937,0.00020628,-0.17383,0.1842,-9.8412,0,0,40.638,1,1,7758,3879
6789,1.6703e+07,2,0.0074093,-0.0028363,0.00012303,-0.17217,0.18315,-9.8373,0,0,40.638,1,1,7758,3879
6792,1.6705e+07,2,0.0074095,-0.0026803,7.3012e-06,-0.17077,0.18306,-9.8325,0,0,40.638,1,1,7758,3879
6823,1.6707e+07,2,0.0074898,-0.0027916,0.00076707,-0.16823,0.18505,-9.8268,0,0,40.638,1,1,7758,3879
6827,1.671e+07,2,0.0065054,-0.0036174,0.0013534,-0.16735,0.1869,-9.8246,0,0,40.638,1,1,7758,3879
6830,1.6713e+07,2,0.0062742,-0.0036648,0.0016327,-0.16732,0.19101,-9.8246,0,0,40.638,1,1,7758,3879
6833,1.6715e+07,2,0.0067658,-0.0029834,0.0019047,-0.16807,0.19507,-9.8262,0,0,40.638,1,1,7758,3879
6864,1.6718e+07,2,0.0068053,-0.002021,5.2394e-05,-0.17024,0.1999,-9.8329,0,0,40.638,1,1,7758,3879
6868,1.672e+07,2,0.0058015,-0.00063032,-0.001143,-0.17163,0.20222,-9.835,0,0,40.638,1,1,7758,3879
6871,1.6722e+07,2,0.0052424,0.0012821,-0.0019589,-0.1714,0.20324,-9.8324,0,0,40.638,1,1,7758,3879
6874,1.6725e+07,2,0.004882,0.0010291,-0.0019873,-0.16989,0.20184,-9.8291,0,0,40.638,1,1,7758,3879
6905,1.6728e+07,2,0.0056121,0.0020155,-0.0008413,-0.16962,0.1986,-9.8285,0,0,40.638,1,1,7758,3879
6908,1.673e+07,2,0.0057767,0.0031199,0.00018932,-0.17091,0.19486,-9.8309,0,0,40.639,1,1,7758,3879
6913,1.6733e+07,2,0.0049342,0.0041792,0.00095497,-0.17309,0.18921,-9.8337,0,0,40.639,1,1,7758,3879
6916,1.6735e+07,2,0.0038627,0.0037231,0.00044086,-0.17586,0.18171,-9.8364,0,0,40.639,1,1,7758,3879
6947,1.6737e+07,2,0.0019628,0.0027718,-0.00016524,-0.18045,0.17092,-9.8434,0,0,40.639,1,1,7758,3879
6951,1.6745e+07,2,-0.0026369,0.0030823,-0.0022955,-0.19282,0.15548,-9.8424,0,0,40.639,1,1,7758,3879
6982,1.6748e+07,2,-0.0030522,0.0034808,-0.0017201,-0.19391,0.15824,-9.8376,0,0,40.639,1,1,7758,3879
6985,1.675e+07,2,-0.0031375,0.0045754,0.00021949,-0.19343,0.16635,-9.8326,0,0,40.639,1,1,7758,3879
6988,1.6753e+07,2,-0.003352,0.0055494,0.0014408,-0.19221,0.17413,-9.8317,0,0,40.639,1,1,7758,3879
6991,1.6756e+07,2,-0.0030553,0.0050446,0.0010469,-0.18746,0.18618,-9.8301,0,0,40.639,1,1,7758,3879
7022,1.6758e+07,2,-0.0027321,0.0042974,0.00041758,-0.18294,0.19279,-9.8299,0,0,40.639,1,1,7758,3879
7026,1.676e+07,2,-0.0041918,0.0031555,-0.00047576,-0.17845,0.1992,-9.8302,0,0,40.639,1,1,7758,3879
7029,1.6763e+07,2,-0.0043871,0.0023277,-0.0017549,-0.17417,0.20469,-9.8284,0,0,40.639,1,1,7758,3879
7032,1.6765e+07,2,-0.0038756,0.0014126,-0.002702,-0.16817,0.21035,-9.8246,0,0,40.64,1,1,7758,3879
7063,1.6768e+07,2,-0.0034994,0.0014761,-0.0031459,-0.16565,0.21364,-9.8221,0,0,40.64,1,1,7758,3879
7067,1.6771e+07,2,-0.0029973,0.0029789,-0.0023829,-0.16426,0.21525,-9.8211,0,0,40.64,1,1,7758,3879
7070,1.6773e+07,2,-0.0031286,0.0028742,-0.0011148,-0.16394,0.21277,-9.8216,0,0,40.64,1,1,7758,3879
7073,1.6775e+07,2,-0.0034438,0.0012842,0.00025984,-0.16371,0.20721,-9.8212,0,0,40.64,1,1,7758,3879
7104,1.6778e+07,2,-0.0039723,4.1467e-05,0.00044782,-0.16481,0.2028,-9.8231,0,0,40.64,1,1,7758,3879
7108,1.6781e+07,2,-0.0038763,-0.00065365,0.00040796,-0.16775,0.19659,-9.8277,0,0,40.64,1,1,7758,3879
7111,1.6783e+07,2,-0.0036874,-0.00096934,-0.00046377,-0.1705,0.19425,-9.8306,0,0,40.64,1,1,7758,3879
7114,1.6785e+07,2,-0.0050383,-0.0015026,-3.8789e-05,-0.17377,0.19527,-9.8345,0,0,40.64,1,1,7758,3879
7145,1.6788e+07,2,-0.0052306,-0.0015331,0.00068341,-0.17387,0.1976,-9.8373,0,0,40.64,1,1,7758,3879
7149,1.679e+07,2,-0.0050765,-0.0013802,0.0012818,-0.17061,0.19874,-9.8401,0,0,40.64,1,1,7758,3879
7153,1.6793e+07,2,-0.0045777,-0.00097986,0.0009655,-0.16916,0.19877,-9.8399,0,0,40.639,1,1,7758,3879
7159,1.6796e+07,2,-0.0039908,-0.0010289,0.00047974,-0.16337,0.20012,-9.8361,0,0,40.639,1,1,7758,3879
7193,1.6799e+07,2,-0.0039493,-0.00084138,0.0002656,-0.15659,0.20297,-9.8359,0,0,40.639,1,1,7758,3879
7196,1.68e+07,2,-0.0039412,-0.0009879,-0.00057711,-0.15331,0.20609,-9.8382,0,0,40.639,1,1,7758,3879
7199,1.6803e+07,2,-0.0040915,-0.0014299,-0.0010287,-0.15058,0.20983,-9.8388,0,0,40.639,1,1,7758,3879
7202,1.6805e+07,2,-0.0035105,-0.0022218,-0.0020393,-0.14784,0.21534,-9.836,0,0,40.639,1,1,7758,3879
7233,1.6808e+07,2,-0.0028262,-0.002585,-0.0016537,-0.14711,0.21817,-9.8345,0,0,40.639,1,1,7758,3879
7238,1.6811e+07,2,-0.001793,-0.0029637,-0.0012,-0.14649,0.22053,-9.8323,0,0,40.639,1,1,7758,3879
7241,1.6813e+07,2,-0.002242,-0.0029582,-0.00044988,-0.14733,0.21964,-9.8312,0,0,40.639,1,1,7758,3879
7244,1.6815e+07,2,-0.0034811,-0.0023362,0.00049021,-0.14742,0.21674,-9.8317,0,0,40.64,1,1,7758,3879
7275,1.6818e+07,2,-0.0037725,-0.0019662,0.00065982,-0.14839,0.21543,-9.8327,0,0,40.64,1,1,7758,3879
7279,1.6821e+07,2,-0.0029006,-0.002525,-0.00088223,-0.15012,0.21524,-9.8327,0,0,40.64,1,1,7758,3879
7282,1.6823e+07,2,-0.0027182,-0.0026115,-0.0010385,-0.15093,0.21504,-9.8308,0,0,40.64,1,1,7758,3879
7285,1.6826e+07,2,-0.0024914,-0.0027253,-0.00054211,-0.15191,0.21596,-9.8264,0,0,40.64,1,1,7758,3879
7316,1.6828e+07,2,-0.0017524,-0.0025417,-0.00043288,-0.15264,0.21897,-9.8194,0,0,40.639,1,1,7758,3879
7319,1.6831e+07,2,-0.00024625,-0.0023819,-0.00033208,-0.15193,0.22446,-9.8074,0,0,40.639,1,1,7758,3879
7322,1.6833e+07,2,0.0016862,-0.0012207,0.00043782,-0.14975,0.22725,-9.8019,0,0,40.639,1,1,7758,3879
7325,1.6836e+07,2,0.0035063,0.00044655,0.001102,-0.1456,0.23117,-9.7988,0,0,40.639,1,1,7758,3879
7356,1.6838e+07,2,0.0045381,0.0011107,0.00049591,-0.14391,0.23296,-9.7963,0,0,40.639,1,1,7758,3879
7360,1.684e+07,2,0.0064102,0.0019026,0.00014038,-0.14414,0.23195,-9.7997,0,0,40.639,1,1,7758,3879
7363,1.6843e+07,2,0.0068929,0.002061,-0.00069561,-0.14523,0.23176,-9.8057,0,0,40.639,1,1,7758,3879
7366,1.6845e+07,2,0.0065082,0.001576,-0.0022253,-0.14526,0.23028,-9.8172,0,0,40.639,1,1,7758,3879
7397,1.6849e+07,2,0.0061966,0.00073536,-0.0019836,-0.14561,0.22756,-9.8259,0,0,40.639,1,1,7758,3879
7400,1.6853e+07,2,0.0063595,0.0013976,0.0018987,-0.14905,0.21501,-9.8405,0,0,40.639,1,1,7758,3879
7403,1.6856e+07,2,0.0075274,0.0019693,0.001964,-0.14811,0.21016,-9.8428,0,0,40.639,1,1,7758,3879
7434,1.6858e+07,2,0.0072238,0.0018193,0.00016441,-0.14668,0.20582,-9.8433,0,0,40.639,1,1,7758,3879
7437,1.6862e+07,2,0.0065628,0.001597,-0.00045196,-0.14528,0.20366,-9.8409,0,0,40.639,1,1,7758,3879
7440,1.6864e+07,2,0.0045491,0.00079747,-0.0010155,-0.14319,0.20265,-9.8368,0,0,40.639,1,1,7758,3879
7444,1.6866e+07,2,0.0042153,0.00019099,-0.00060309,-0.14247,0.20162,-9.8344,0,0,40.639,1,1,7758,3879
7476,1.6868e+07,2,0.0052758,0.0015411,6.2387e-05,-0.14014,0.1989,-9.8328,0,0,40.638,1,1,7758,3879
7479,1.6871e+07,2,0.0056849,0.0027258,-4.9226e-05,-0.13659,0.19679,-9.8316,0,0,40.638,1,1,7758,3879
7482,1.6874e+07,2,0.0066636,0.0025483,-0.00063011,-0.13183,0.19393,-9.829,0,0,40.638,1,1,7758,3879
7486,1.6876e+07,2,0.0065604,0.0018392,-0.0012728,-0.12917,0.19287,-9.8276,0,0,40.638,1,1,7758,3879
7517,1.6879e+07,2,0.0054316,0.0017204,-0.0019132,-0.12606,0.19143,-9.8243,0,0,40.638,1,1,7758,3879
7520,1.6881e+07,2,0.0049557,0.0020569,-0.0022138,-0.12622,0.18945,-9.8227,0,0,40.638,1,1,7758,3879
7523,1.6884e+07,2,0.0045987,0.0019229,-0.002531,-0.13169,0.18569,-9.8213,0,0,40.638,1,1,7758,3879
7526,1.6886e+07,2,0.0029218,2.8179e-05,-0.0020503,-0.13953,0.18023,-9.8214,0,0,40.638,1,1,7758,3879
7557,1.6889e+07,2,0.0015166,-0.00057449,-0.00076132,-0.14249,0.17802,-9.8225,0,0,40.638,1,1,7758,3879
7560,1.6891e+07,2,0.00028551,-0.00049692,0.00048382,-0.15132,0.17281,-9.8252,0,0,40.638,1,1,7758,3879
7563,1.6894e+07,2,5.6182e-05,-0.00048443,0.00048403,-0.15573,0.17121,-9.825,0,0,40.638,1,1,7758,3879
7570,1.6896e+07,2,3.798e-05,-0.00039503,5.1964e-05,-0.1605,0.17138,-9.8199,0,0,40.638,1,1,7758,3879
7602,1.6899e+07,2,-0.00025675,-0.0011447,-0.00089334,-0.16304,0.17226,-9.817,0,0,40.638,1,1,7758,3879
7605,1.6901e+07,2,-0.00039382,-0.002301,-0.0014092,-0.16479,0.17386,-9.8229,0,0,40.638,1,1,7758,3879
7609,1.6903e+07,2,-0.00068828,-0.002835,-0.00094344,-0.16505,0.17477,-9.8284,0,0,40.638,1,1,7758,3879
7612,1.6906e+07,2,-0.00046299,-0.0033928,-0.0007737,-0.16468,0.1753,-9.8323,0,0,40.638,1,1,7758,3879
7643,1.6909e+07,2,-0.00017684,-0.0042446,-0.00020021,-0.16237,0.17736,-9.8355,0,0,40.638,1,1,7758,3879
7646,1.6911e+07,2,-0.00036307,-0.005042,0.00025533,-0.15907,0.1782,-9.8366,0,0,40.638,1,1,7758,3879
7650,1.6914e+07,2,-0.00096646,-0.0050395,-0.00098792,-0.15566,0.17835,-9.8372,0,0,40.638,1,1,7758,3879
7654,1.6916e+07,2,-0.00094724,-0.0050369,-0.0018527,-0.15393,0.1771,-9.8371,0,0,40.638,1,1,7758,3879
7685,1.6919e+07,2,-0.0011713,-0.0044833,-0.00044532,-0.15369,0.17542,-9.8365,0,0,40.638,1,1,7758,3879
7688,1.6921e+07,2,-0.0018474,-0.0038995,0.00051232,-0.15527,0.17138,-9.838,0,0,40.638,1,1,7758,3879
7691,1.6924e+07,2,-0.0027271,-0.0036334,0.00042577,-0.15635,0.16858,-9.8417,0,0,40.638,1,1,7758,3879
7695,1.6926e+07,2,-0.0048481,-0.0031437,0.00018385,-0.15921,0.16429,-9.8453,0,0,40.638,1,1,7758,3879
7726,1.6929e+07,2,-0.0062221,-0.0038825,-0.00018889,-0.16178,0.1608,-9.8437,0,0,40.638,1,1,7758,3879
7729,1.6931e+07,2,-0.0077599,-0.0049298,-0.00073318,-0.16385,0.15526,-9.839,0,0,40.638,1,1,7758,3879
7734,1.6934e+07,2,-0.0078285,-0.005368,7.7114e-05,-0.16547,0.1538,-9.8348,0,0,40.638,1,1,7758,3879
7737,1.6939e+07,2,-0.004829,-0.0038568,0.00065946,-0.17513,0.16134,-9.8235,0,0,40.638,1,1,7758,3879
7768,1.6941e+07,2,-0.0036505,-0.0033982,0.00084342,-0.18069,0.17314,-9.8229,0,0,40.637,1,1,7758,3879
