LineNo,TimeUS,I,MagX,MagY,MagZ,OfsX,OfsY,OfsZ,MOX,MOY,MOZ,Health,S
1906,1.5487e+07,1,146,-4,291,47,-57,-99,0,0,0,1,1.5487e+07
2291,1.5588e+07,1,148,-3,292,47,-57,-99,0,0,0,1,1.5588e+07
2705,1.5689e+07,1,145,-5,289,47,-57,-99,0,0,0,1,1.5689e+07
3117,1.5789e+07,1,146,-5,290,47,-57,-99,0,0,0,1,1.5789e+07
3526,1.5891e+07,1,147,-6,288,47,-57,-99,0,0,0,1,1.5891e+07
3934,1.5992e+07,1,145,-8,287,47,-57,-99,0,0,0,1,1.5992e+07
4347,1.6092e+07,1,146,-3,287,47,-57,-99,0,0,0,1,1.6092e+07
4728,1.6193e+07,1,145,-7,289,47,-57,-99,0,0,0,1,1.6193e+07
5134,1.6293e+07,1,146,-6,293,47,-57,-99,0,0,0,1,1.6293e+07
5543,1.6393e+07,1,146,-7,290,47,-57,-99,0,0,0,1,1.6393e+07
5951,1.6494e+07,1,146,-5,290,47,-57,-99,0,0,0,1,1.6494e+07
6362,1.6595e+07,1,146,-4,289,47,-57,-99,0,0,0,1,1.6595e+07
6746,1.6695e+07,1,146,-8,290,47,-57,-99,0,0,0,1,1.6695e+07
7155,1.6796e+07,1,146,-5,290,47,-57,-99,0,0,0,1,1.6796e+07
7566,1.6896e+07,1,145,-5,292,47,-57,-99,0,0,0,1,1.6896e+07
7976,1.6997e+07,1,146,-5,293,47,-57,-99,0,0,0,1,1.6996e+07
8385,1.7097e+07,1,145,-8,291,47,-57,-99,0,0,0,1,1.7097e+07
8793,1.7198e+07,1,144,-6,299,47,-57,-99,0,0,0,1,1.7197e+07
9197,1.7299e+07,1,144,-8,298,47,-57,-99,0,0,0,1,1.7299e+07
9518,1.7398e+07,1,143,-12,296,47,-57,-99,0,0,0,1,1.7398e+07
9925,1.7498e+07,1,144,-10,292,47,-57,-99,0,0,0,1,1.7498e+07
10335,1.7599e+07,1,145,-10,293,47,-57,-99,0,0,0,1,1.7599e+07
10716,1.7699e+07,1,145,-9,297,47,-57,-99,0,0,0,1,1.7699e+07
11129,1.78e+07,1,144,-7,295,47,-57,-99,0,0,0,1,1.78e+07
11542,1.7901e+07,1,146,-6,296,47,-57,-99,0,0,0,1,1.7901e+07
11956,1.8002e+07,1,144,-12,294,47,-57,-99,0,0,0,1,1.8002e+07
12338,1.8102e+07,1,144,-9,293,47,-57,-99,0,0,0,1,1.8102e+07
12750,1.8203e+07,1,145,-9,294,47,-57,-99,0,0,0,1,1.8203e+07
13156,1.8304e+07,1,145,-11,292,47,-57,-99,0,0,0,1,1.8304e+07
13565,1.8404e+07,1,145,-10,292,47,-57,-99,0,0,0,1,1.8404e+07
13972,1.8505e+07,1,145,-12,293,47,-57,-99,0,0,0,1,1.8505e+07
14356,1.8606e+07,1,145,-9,296,47,-57,-99,0,0,0,1,1.8606e+07
14767,1.8707e+07,1,144,-8,293,47,-57,-99,0,0,0,1,1.8707e+07
15174,1.8808e+07,1,145,-7,292,47,-57,-99,0,0,0,1,1.8808e+07
15584,1.8909e+07,1,144,-9,296,47,-57,-99,0,0,0,1,1.8909e+07
15995,1.901e+07,1,144,-6,296,47,-57,-99,0,0,0,1,1.901e+07
16403,1.911e+07,1,145,-5,296,47,-57,-99,0,0,0,1,1.911e+07
16783,1.9212e+07,1,144,-6,296,47,-57,-99,0,0,0,1,1.9211e+07
17190,1.9312e+07,1,144,-9,296,47,-57,-99,0,0,0,1,1.9312e+07
17571,1.9413e+07,1,144,-9,297,47,-57,-99,0,0,0,1,1.9413e+07
17982,1.9513e+07,1,145,-6,298,47,-57,-99,0,0,0,1,1.9513e+07
18393,1.9614e+07,1,144,-7,296,47,-57,-99,0,0,0,1,1.9614e+07
18801,1.9715e+07,1,144,-6,298,47,-57,-99,0,0,0,1,1.9715e+07
19212,1.9815e+07,1,145,-8,291,47,-57,-99,0,0,0,1,1.9815e+07
19596,1.9914e+07,1,144,-7,295,47,-57,-99,0,0,0,1,1.9914e+07
20007,2.0014e+07,1,145,-7,294,47,-57,-99,0,0,0,1,2.0014e+07
20415,2.0114e+07,1,144,-7,299,47,-57,-99,0,0,0,1,2.0114e+07
20821,2.0214e+07,1,145,-7,293,47,-57,-99,0,0,0,1,2.0214e+07
21231,2.0314e+07,1,144,-8,293,47,-57,-99,0,0,0,1,2.0314e+07
21639,2.0415e+07,1,143,-9,297,47,-57,-99,0,0,0,1,2.0415e+07
22046,2.0516e+07,1,145,-8,295,47,-57,-99,0,0,0,1,2.0516e+07
22429,2.0616e+07,1,144,-8,296,47,-57,-99,0,0,0,1,2.0616e+07
22837,2.0716e+07,1,144,-6,297,47,-57,-99,0,0,0,1,2.0716e+07
23245,2.0817e+07,1,144,-5,294,47,-57,-99,0,0,0,1,2.0817e+07
23659,2.0916e+07,1,146,-7,294,47,-57,-99,0,0,0,1,2.0916e+07
24073,2.1017e+07,1,144,-6,293,47,-57,-99,0,0,0,1,2.1017e+07
24453,2.1117e+07,1,144,-7,295,47,-57,-99,0,0,0,1,2.1117e+07
24864,2.1218e+07,1,144,-6,296,47,-57,-99,0,0,0,1,2.1218e+07
25274,2.1318e+07,1,145,-7,297,47,-57,-99,0,0,0,1,2.1318e+07
25685,2.1419e+07,1,145,-6,298,47,-57,-99,0,0,0,1,2.1419e+07
26070,2.1519e+07,1,143,-6,298,47,-57,-99,0,0,0,1,2.1519e+07
26481,2.162e+07,1,143,-9,302,47,-57,-99,0,0,0,1,2.162e+07
26889,2.172e+07,1,139,-19,319,47,-57,-99,0,0,0,1,2.172e+07
27303,2.182e+07,1,142,-16,312,47,-57,-99,0,0,0,1,2.182e+07
27713,2.192e+07,1,144,-11,305,47,-57,-99,0,0,0,1,2.192e+07
28124,2.2021e+07,1,141,-13,309,47,-57,-99,0,0,0,1,2.2021e+07
28530,2.2122e+07,1,139,-16,310,47,-57,-99,0,0,0,1,2.2122e+07
28949,2.2224e+07,1,143,-10,305,47,-57,-99,0,0,0,1,2.2224e+07
29394,2.2326e+07,1,144,-13,314,47,-57,-99,0,0,0,1,2.2326e+07
29842,2.2427e+07,1,137,-31,322,47,-57,-99,0,0,0,1,2.2427e+07
30260,2.2528e+07,1,138,-33,329,47,-57,-99,0,0,0,1,2.2528e+07
30709,2.2631e+07,1,130,-49,354,47,-57,-99,0,0,0,1,2.2631e+07
31157,2.2732e+07,1,123,-67,382,47,-57,-99,0,0,0,1,2.2732e+07
31603,2.2834e+07,1,112,-90,416,47,-57,-99,0,0,0,1,2.2834e+07
32054,2.2937e+07,1,114,-102,431,47,-57,-99,0,0,0,1,2.2937e+07
32503,2.3039e+07,1,103,-122,461,47,-57,-99,0,0,0,1,2.3039e+07
32921,2.3143e+07,1,96,-136,480,47,-57,-99,0,0,0,1,2.3143e+07
33368,2.3244e+07,1,100,-119,464,47,-57,-99,0,0,0,1,2.3244e+07
33816,2.3347e+07,1,103,-107,443,47,-57,-99,0,0,0,1,2.3347e+07
34237,2.3448e+07,1,103,-112,441,47,-57,-99,0,0,0,1,2.3448e+07
34655,2.3553e+07,1,98,-131,444,47,-57,-99,0,0,0,1,2.3553e+07
35106,2.3656e+07,1,95,-136,438,47,-57,-99,0,0,0,1,2.3656e+07
35553,2.3758e+07,1,98,-146,435,47,-57,-99,0,0,0,1,2.3758e+07
36003,2.386e+07,1,96,-146,435,47,-57,-99,0,0,0,1,2.386e+07
36453,2.396e+07,1,97,-143,443,47,-57,-99,0,0,0,1,2.396e+07
36899,2.4063e+07,1,95,-139,443,47,-57,-99,0,0,0,1,2.4063e+07
37317,2.4163e+07,1,101,-116,436,47,-57,-99,0,0,0,1,2.4163e+07
37763,2.4265e+07,1,96,-115,443,47,-57,-99,0,0,0,1,2.4265e+07
38217,2.4368e+07,1,97,-115,446,47,-57,-99,0,0,0,1,2.4368e+07
38665,2.4471e+07,1,100,-123,438,47,-57,-99,0,0,0,1,2.4471e+07
39113,2.4573e+07,1,95,-134,443,47,-57,-99,0,0,0,1,2.4573e+07
39560,2.4677e+07,1,89,-130,447,47,-57,-99,0,0,0,1,2.4677e+07
40011,2.478e+07,1,93,-132,441,47,-57,-99,0,0,0,1,2.478e+07
40458,2.4884e+07,1,100,-132,440,47,-57,-99,0,0,0,1,2.4884e+07
40886,2.4987e+07,1,106,-125,436,47,-57,-99,0,0,0,1,2.4987e+07
41332,2.5094e+07,1,116,-114,430,47,-57,-99,0,0,0,1,2.5094e+07
41778,2.5197e+07,1,117,-115,425,47,-57,-99,0,0,0,1,2.5197e+07
42223,2.5303e+07,1,120,-110,423,47,-57,-99,0,0,0,1,2.5303e+07
42672,2.5408e+07,1,120,-111,421,47,-57,-99,0,0,0,1,2.5408e+07
43122,2.5515e+07,1,121,-116,424,47,-57,-99,0,0,0,1,2.5515e+07
43537,2.562e+07,1,125,-106,414,47,-57,-99,0,0,0,1,2.562e+07
43985,2.5725e+07,1,125,-119,417,47,-57,-99,0,0,0,1,2.5725e+07
44431,2.5833e+07,1,121,-144,421,47,-57,-99,0,0,0,1,2.5833e+07
44878,2.5938e+07,1,104,-171,432,47,-57,-99,0,0,0,1,2.5938e+07
45300,2.6042e+07,1,99,-178,427,47,-57,-99,0,0,0,1,2.6042e+07
45749,2.6147e+07,1,95,-178,422,47,-57,-99,0,0,0,1,2.6147e+07
46196,2.6253e+07,1,102,-172,423,47,-57,-99,0,0,0,1,2.6253e+07
46644,2.636e+07,1,106,-135,432,47,-57,-99,0,0,0,1,2.636e+07
47060,2.6466e+07,1,121,-110,421,47,-57,-99,0,0,0,1,2.6466e+07
47510,2.6574e+07,1,127,-107,418,47,-57,-99,0,0,0,1,2.6574e+07
47958,2.6679e+07,1,123,-100,425,47,-57,-99,0,0,0,1,2.6679e+07
48408,2.6783e+07,1,123,-102,423,47,-57,-99,0,0,0,1,2.6783e+07
48820,2.6888e+07,1,124,-112,417,47,-57,-99,0,0,0,1,2.6888e+07
49273,2.6995e+07,1,110,-126,423,47,-57,-99,0,0,0,1,2.6995e+07
49722,2.7101e+07,1,108,-153,421,47,-57,-99,0,0,0,1,2.7101e+07
50171,2.7205e+07,1,100,-164,426,47,-57,-99,0,0,0,1,2.7205e+07
50617,2.731e+07,1,105,-167,423,47,-57,-99,0,0,0,1,2.731e+07
51033,2.7416e+07,1,116,-154,413,47,-57,-99,0,0,0,1,2.7416e+07
51481,2.752e+07,1,122,-166,412,47,-57,-99,0,0,0,1,2.752e+07
51926,2.7625e+07,1,117,-166,417,47,-57,-99,0,0,0,1,2.7625e+07
52376,2.773e+07,1,115,-174,418,47,-57,-99,0,0,0,1,2.773e+07
52820,2.7836e+07,1,112,-171,420,47,-57,-99,0,0,0,1,2.7836e+07
53271,2.7942e+07,1,112,-170,417,47,-57,-99,0,0,0,1,2.7942e+07
53687,2.8047e+07,1,106,-166,417,47,-57,-99,0,0,0,1,2.8047e+07
54135,2.8154e+07,1,105,-166,422,47,-57,-99,0,0,0,1,2.8154e+07
54582,2.8261e+07,1,90,-180,447,47,-57,-99,0,0,0,1,2.8261e+07
55032,2.8369e+07,1,109,-151,408,47,-57,-99,0,0,0,1,2.8369e+07
55478,2.8476e+07,1,104,-131,408,47,-57,-99,0,0,0,1,2.8476e+07
55927,2.8581e+07,1,109,-110,413,47,-57,-99,0,0,0,1,2.8581e+07
56375,2.8685e+07,1,110,-95,412,47,-57,-99,0,0,0,1,2.8685e+07
56821,2.879e+07,1,112,-73,414,47,-57,-99,0,0,0,1,2.879e+07
57237,2.8895e+07,1,117,-62,410,47,-57,-99,0,0,0,1,2.8895e+07
57688,2.9001e+07,1,116,-68,415,47,-57,-99,0,0,0,1,2.9001e+07
58135,2.9108e+07,1,109,-70,428,47,-57,-99,0,0,0,1,2.9108e+07
58586,2.9215e+07,1,106,-76,432,47,-57,-99,0,0,0,1,2.9215e+07
59033,2.932e+07,1,103,-74,426,47,-57,-99,0,0,0,1,2.932e+07
59484,2.9427e+07,1,112,-93,410,47,-57,-99,0,0,0,1,2.9427e+07
59932,2.9533e+07,1,109,-110,418,47,-57,-99,0,0,0,1,2.9533e+07
60348,2.9638e+07,1,106,-117,416,47,-57,-99,0,0,0,1,2.9638e+07
60797,2.9744e+07,1,107,-114,414,47,-57,-99,0,0,0,1,2.9744e+07
61243,2.9851e+07,1,105,-110,413,47,-57,-99,0,0,0,1,2.9851e+07
61695,2.9955e+07,1,107,-106,416,47,-57,-99,0,0,0,1,2.9955e+07
62140,3.006e+07,1,105,-92,417,47,-57,-99,0,0,0,1,3.006e+07
62558,3.0165e+07,1,109,-78,417,47,-57,-99,0,0,0,1,3.0165e+07
63009,3.0269e+07,1,111,-79,412,47,-57,-99,0,0,0,1,3.0269e+07
63424,3.0375e+07,1,107,-85,422,47,-57,-99,0,0,0,1,3.0374e+07
63873,3.0479e+07,1,110,-84,425,47,-57,-99,0,0,0,1,3.0479e+07
64322,3.0585e+07,1,121,-78,415,47,-57,-99,0,0,0,1,3.0585e+07
64737,3.0689e+07,1,136,-77,396,47,-57,-99,0,0,0,1,3.0689e+07
65186,3.0793e+07,1,137,-83,404,47,-57,-99,0,0,0,1,3.0793e+07
65634,3.0898e+07,1,133,-82,403,47,-57,-99,0,0,0,1,3.0898e+07
66080,3.1005e+07,1,131,-82,402,47,-57,-99,0,0,0,1,3.1005e+07
66494,3.111e+07,1,134,-82,396,47,-57,-99,0,0,0,1,3.111e+07
66945,3.1215e+07,1,144,-87,382,47,-57,-99,0,0,0,1,3.1215e+07
67361,3.132e+07,1,144,-108,392,47,-57,-99,0,0,0,1,3.132e+07
67813,3.1426e+07,1,146,-114,384,47,-57,-99,0,0,0,1,3.1426e+07
68259,3.153e+07,1,151,-117,387,47,-57,-99,0,0,0,1,3.153e+07
68707,3.1636e+07,1,148,-119,389,47,-57,-99,0,0,0,1,3.1636e+07
69156,3.1741e+07,1,139,-131,411,47,-57,-99,0,0,0,1,3.1741e+07
69603,3.1847e+07,1,135,-138,408,47,-57,-99,0,0,0,1,3.1847e+07
70053,3.1953e+07,1,136,-146,403,47,-57,-99,0,0,0,1,3.1953e+07
70500,3.2059e+07,1,132,-153,412,47,-57,-99,0,0,0,1,3.2059e+07
70948,3.2165e+07,1,126,-144,408,47,-57,-99,0,0,0,1,3.2165e+07
71396,3.2269e+07,1,131,-148,405,47,-57,-99,0,0,0,1,3.2269e+07
71847,3.2375e+07,1,125,-143,412,47,-57,-99,0,0,0,1,3.2375e+07
72264,3.248e+07,1,129,-138,409,47,-57,-99,0,0,0,1,3.248e+07
72712,3.2587e+07,1,128,-133,404,47,-57,-99,0,0,0,1,3.2587e+07
73160,3.2693e+07,1,132,-116,392,47,-57,-99,0,0,0,1,3.2693e+07
73607,3.2799e+07,1,136,-119,389,47,-57,-99,0,0,0,1,3.2799e+07
74054,3.2905e+07,1,140,-110,382,47,-57,-99,0,0,0,1,3.2905e+07
74472,3.301e+07,1,138,-115,389,47,-57,-99,0,0,0,1,3.301e+07
74918,3.3115e+07,1,137,-114,388,47,-57,-99,0,0,0,1,3.3115e+07
75366,3.322e+07,1,139,-121,399,47,-57,-99,0,0,0,1,3.322e+07
75814,3.3325e+07,1,135,-122,411,47,-57,-99,0,0,0,1,3.3325e+07
76233,3.3432e+07,1,145,-109,406,47,-57,-99,0,0,0,1,3.3432e+07
76683,3.3539e+07,1,146,-114,416,47,-57,-99,0,0,0,1,3.3539e+07
77097,3.3643e+07,1,140,-122,429,47,-57,-99,0,0,0,1,3.3643e+07
77544,3.3749e+07,1,135,-123,427,47,-57,-99,0,0,0,1,3.3749e+07
77958,3.3852e+07,1,129,-116,432,47,-57,-99,0,0,0,1,3.3852e+07
78406,3.3956e+07,1,125,-128,432,47,-57,-99,0,0,0,1,3.3956e+07
78820,3.4063e+07,1,117,-154,432,47,-57,-99,0,0,0,1,3.4063e+07
79269,3.4168e+07,1,115,-162,427,47,-57,-99,0,0,0,1,3.4168e+07
79717,3.4274e+07,1,113,-187,431,47,-57,-99,0,0,0,1,3.4274e+07
80164,3.438e+07,1,103,-188,438,47,-57,-99,0,0,0,1,3.4379e+07
80615,3.4484e+07,1,97,-187,442,47,-57,-99,0,0,0,1,3.4484e+07
81064,3.459e+07,1,91,-154,445,47,-57,-99,0,0,0,1,3.459e+07
81478,3.4695e+07,1,98,-129,432,47,-57,-99,0,0,0,1,3.4695e+07
81924,3.4802e+07,1,90,-120,450,47,-57,-99,0,0,0,1,3.4802e+07
82374,3.4908e+07,1,94,-111,445,47,-57,-99,0,0,0,1,3.4908e+07
82822,3.5015e+07,1,101,-99,431,47,-57,-99,0,0,0,1,3.5015e+07
83234,3.512e+07,1,107,-112,422,47,-57,-99,0,0,0,1,3.512e+07
83683,3.5226e+07,1,106,-118,417,47,-57,-99,0,0,0,1,3.5226e+07
84133,3.5331e+07,1,107,-126,411,47,-57,-99,0,0,0,1,3.5331e+07
84582,3.5437e+07,1,107,-120,417,47,-57,-99,0,0,0,1,3.5437e+07
85032,3.5544e+07,1,104,-121,419,47,-57,-99,0,0,0,1,3.5544e+07
85446,3.5649e+07,1,103,-107,422,47,-57,-99,0,0,0,1,3.5649e+07
85895,3.5756e+07,1,101,-132,422,47,-57,-99,0,0,0,1,3.5756e+07
86310,3.5862e+07,1,82,-129,441,47,-57,-99,0,0,0,1,3.5862e+07
86758,3.5967e+07,1,81,-116,443,47,-57,-99,0,0,0,1,3.5967e+07
87205,3.6071e+07,1,74,-122,451,47,-57,-99,0,0,0,1,3.6071e+07
87650,3.6176e+07,1,73,-119,457,47,-57,-99,0,0,0,1,3.6176e+07
88066,3.6279e+07,1,75,-116,458,47,-57,-99,0,0,0,1,3.6279e+07
88513,3.6385e+07,1,82,-129,454,47,-57,-99,0,0,0,1,3.6385e+07
88927,3.649e+07,1,84,-122,453,47,-57,-99,0,0,0,1,3.649e+07
89379,3.6594e+07,1,97,-112,454,47,-57,-99,0,0,0,1,3.6594e+07
89827,3.6699e+07,1,113,-95,445,47,-57,-99,0,0,0,1,3.6699e+07
90275,3.6804e+07,1,108,-82,455,47,-57,-99,0,0,0,1,3.6804e+07
90692,3.691e+07,1,109,-59,448,47,-57,-99,0,0,0,1,3.691e+07
91140,3.7015e+07,1,115,-70,443,47,-57,-99,0,0,0,1,3.7015e+07
91589,3.7121e+07,1,105,-90,452,47,-57,-99,0,0,0,1,3.7121e+07
92033,3.7227e+07,1,103,-112,450,47,-57,-99,0,0,0,1,3.7227e+07
92483,3.7333e+07,1,114,-125,429,47,-57,-99,0,0,0,1,3.7333e+07
92931,3.7438e+07,1,102,-126,430,47,-57,-99,0,0,0,1,3.7438e+07
93379,3.7543e+07,1,105,-138,427,47,-57,-99,0,0,0,1,3.7543e+07
93828,3.765e+07,1,94,-147,432,47,-57,-99,0,0,0,1,3.765e+07
94245,3.7756e+07,1,84,-149,438,47,-57,-99,0,0,0,1,3.7756e+07
94692,3.7861e+07,1,83,-156,447,47,-57,-99,0,0,0,1,3.7861e+07
95142,3.7967e+07,1,90,-133,440,47,-57,-99,0,0,0,1,3.7967e+07
95558,3.8072e+07,1,103,-112,435,47,-57,-99,0,0,0,1,3.8072e+07
96003,3.8176e+07,1,125,-85,415,47,-57,-99,0,0,0,1,3.8176e+07
96448,3.8281e+07,1,130,-77,414,47,-57,-99,0,0,0,1,3.8281e+07
96864,3.8386e+07,1,130,-81,418,47,-57,-99,0,0,0,1,3.8386e+07
97306,3.849e+07,1,131,-80,414,47,-57,-99,0,0,0,1,3.849e+07
97753,3.8594e+07,1,121,-95,423,47,-57,-99,0,0,0,1,3.8594e+07
98171,3.8699e+07,1,117,-108,427,47,-57,-99,0,0,0,1,3.8699e+07
98616,3.8806e+07,1,106,-126,432,47,-57,-99,0,0,0,1,3.8806e+07
99065,3.8911e+07,1,108,-134,427,47,-57,-99,0,0,0,1,3.8911e+07
99482,3.9019e+07,1,108,-158,432,47,-57,-99,0,0,0,1,3.9019e+07
99929,3.9124e+07,1,98,-146,437,47,-57,-99,0,0,0,1,3.9124e+07
1.0038e+05,3.9228e+07,1,108,-139,432,47,-57,-99,0,0,0,1,3.9228e+07
1.0082e+05,3.9333e+07,1,109,-135,431,47,-57,-99,0,0,0,1,3.9333e+07
1.0127e+05,3.9438e+07,1,109,-121,428,47,-57,-99,0,0,0,1,3.9438e+07
1.0172e+05,3.9544e+07,1,107,-109,433,47,-57,-99,0,0,0,1,3.9544e+07
1.0217e+05,3.9648e+07,1,109,-96,431,47,-57,-99,0,0,0,1,3.9648e+07
1.0259e+05,3.9753e+07,1,111,-86,423,47,-57,-99,0,0,0,1,3.9753e+07
1.0303e+05,3.9857e+07,1,113,-74,420,47,-57,-99,0,0,0,1,3.9857e+07
1.0345e+05,3.9963e+07,1,121,-79,416,47,-57,-99,0,0,0,1,3.9963e+07
1.0389e+05,4.0068e+07,1,119,-88,421,47,-57,-99,0,0,0,1,4.0068e+07
1.0434e+05,4.0173e+07,1,118,-85,427,47,-57,-99,0,0,0,1,4.0173e+07
1.0478e+05,4.0279e+07,1,110,-88,431,47,-57,-99,0,0,0,1,4.0279e+07
1.052e+05,4.0384e+07,1,113,-97,425,47,-57,-99,0,0,0,1,4.0384e+07
1.0565e+05,4.0489e+07,1,108,-105,430,47,-57,-99,0,0,0,1,4.0489e+07
1.0606e+05,4.0595e+07,1,111,-111,428,47,-57,-99,0,0,0,1,4.0595e+07
1.0651e+05,4.0701e+07,1,109,-108,426,47,-57,-99,0,0,0,1,4.0701e+07
1.0696e+05,4.0807e+07,1,113,-113,428,47,-57,-99,0,0,0,1,4.0807e+07
1.074e+05,4.0913e+07,1,107,-107,432,47,-57,-99,0,0,0,1,4.0913e+07
1.0785e+05,4.1018e+07,1,108,-114,435,47,-57,-99,0,0,0,1,4.1018e+07
1.083e+05,4.1125e+07,1,108,-121,428,47,-57,-99,0,0,0,1,4.1125e+07
1.0874e+05,4.123e+07,1,106,-122,422,47,-57,-99,0,0,0,1,4.123e+07
1.0919e+05,4.1336e+07,1,103,-139,422,47,-57,-99,0,0,0,1,4.1336e+07
1.0964e+05,4.144e+07,1,99,-148,427,47,-57,-99,0,0,0,1,4.144e+07
1.1005e+05,4.1544e+07,1,100,-152,426,47,-57,-99,0,0,0,1,4.1544e+07
1.105e+05,4.1649e+07,1,101,-143,426,47,-57,-99,0,0,0,1,4.1649e+07
1.1094e+05,4.1755e+07,1,111,-151,417,47,-57,-99,0,0,0,1,4.1755e+07
1.1139e+05,4.186e+07,1,101,-141,432,47,-57,-99,0,0,0,1,4.186e+07
1.1184e+05,4.1964e+07,1,104,-138,438,47,-57,-99,0,0,0,1,4.1964e+07
1.1229e+05,4.2069e+07,1,96,-126,440,47,-57,-99,0,0,0,1,4.2069e+07
1.1273e+05,4.2175e+07,1,106,-114,425,47,-57,-99,0,0,0,1,4.2175e+07
1.1315e+05,4.2279e+07,1,106,-110,425,47,-57,-99,0,0,0,1,4.2279e+07
1.136e+05,4.2386e+07,1,108,-125,433,47,-57,-99,0,0,0,1,4.2386e+07
1.1401e+05,4.2491e+07,1,102,-120,430,47,-57,-99,0,0,0,1,4.2491e+07
1.1445e+05,4.2597e+07,1,103,-128,434,47,-57,-99,0,0,0,1,4.2597e+07
1.149e+05,4.2703e+07,1,102,-132,437,47,-57,-99,0,0,0,1,4.2703e+07
1.1532e+05,4.2808e+07,1,102,-126,437,47,-57,-99,0,0,0,1,4.2808e+07
1.1576e+05,4.2915e+07,1,101,-122,440,47,-57,-99,0,0,0,1,4.2915e+07
1.1618e+05,4.302e+07,1,96,-120,436,47,-57,-99,0,0,0,1,4.302e+07
1.1662e+05,4.3125e+07,1,102,-119,431,47,-57,-99,0,0,0,1,4.3125e+07
1.1707e+05,4.323e+07,1,104,-124,429,47,-57,-99,0,0,0,1,4.323e+07
1.1752e+05,4.3334e+07,1,107,-126,427,47,-57,-99,0,0,0,1,4.3334e+07
1.1796e+05,4.3439e+07,1,108,-140,429,47,-57,-99,0,0,0,1,4.3439e+07
1.1838e+05,4.3543e+07,1,99,-147,439,47,-57,-99,0,0,0,1,4.3543e+07
1.1882e+05,4.3648e+07,1,96,-141,440,47,-57,-99,0,0,0,1,4.3648e+07
1.1927e+05,4.3754e+07,1,95,-128,440,47,-57,-99,0,0,0,1,4.3754e+07
1.1972e+05,4.3859e+07,1,97,-137,439,47,-57,-99,0,0,0,1,4.3859e+07
1.2016e+05,4.3964e+07,1,97,-126,436,47,-57,-99,0,0,0,1,4.3964e+07
1.2061e+05,4.4067e+07,1,102,-135,436,47,-57,-99,0,0,0,1,4.4067e+07
1.2106e+05,4.4172e+07,1,103,-129,432,47,-57,-99,0,0,0,1,4.4172e+07
1.2147e+05,4.4276e+07,1,101,-144,434,47,-57,-99,0,0,0,1,4.4276e+07
1.2192e+05,4.4382e+07,1,100,-153,438,47,-57,-99,0,0,0,1,4.4382e+07
1.2236e+05,4.4487e+07,1,105,-140,424,47,-57,-99,0,0,0,1,4.4487e+07
1.2281e+05,4.4592e+07,1,115,-128,408,47,-57,-99,0,0,0,1,4.4592e+07
1.2325e+05,4.4696e+07,1,118,-126,408,47,-57,-99,0,0,0,1,4.4696e+07
1.237e+05,4.48e+07,1,117,-130,416,47,-57,-99,0,0,0,1,4.48e+07
1.2412e+05,4.4904e+07,1,120,-134,415,47,-57,-99,0,0,0,1,4.4904e+07
1.2457e+05,4.501e+07,1,116,-133,422,47,-57,-99,0,0,0,1,4.501e+07
1.2501e+05,4.5114e+07,1,112,-135,418,47,-57,-99,0,0,0,1,4.5113e+07
1.2546e+05,4.5219e+07,1,107,-143,427,47,-57,-99,0,0,0,1,4.5219e+07
1.2584e+05,4.5324e+07,1,102,-144,425,47,-57,-99,0,0,0,1,4.5324e+07
1.2629e+05,4.5429e+07,1,97,-149,435,47,-57,-99,0,0,0,1,4.5429e+07
1.2674e+05,4.5535e+07,1,95,-142,434,47,-57,-99,0,0,0,1,4.5535e+07
1.2718e+05,4.564e+07,1,89,-148,447,47,-57,-99,0,0,0,1,4.564e+07
1.276e+05,4.5745e+07,1,89,-150,443,47,-57,-99,0,0,0,1,4.5745e+07
1.2804e+05,4.585e+07,1,91,-152,434,47,-57,-99,0,0,0,1,4.585e+07
1.2849e+05,4.5957e+07,1,91,-152,428,47,-57,-99,0,0,0,1,4.5956e+07
1.2894e+05,4.6062e+07,1,94,-157,427,47,-57,-99,0,0,0,1,4.6062e+07
1.2935e+05,4.6167e+07,1,98,-166,434,47,-57,-99,0,0,0,1,4.6167e+07
1.298e+05,4.6274e+07,1,96,-165,435,47,-57,-99,0,0,0,1,4.6274e+07
1.3025e+05,4.6379e+07,1,98,-149,431,47,-57,-99,0,0,0,1,4.6379e+07
1.3069e+05,4.6485e+07,1,105,-145,423,47,-57,-99,0,0,0,1,4.6485e+07
1.3111e+05,4.659e+07,1,105,-149,426,47,-57,-99,0,0,0,1,4.659e+07
1.3155e+05,4.6695e+07,1,98,-150,429,47,-57,-99,0,0,0,1,4.6695e+07
1.319e+05,4.68e+07,1,95,-122,430,47,-57,-99,0,0,0,1,4.68e+07
1.3234e+05,4.6903e+07,1,99,-111,424,47,-57,-99,0,0,0,1,4.6903e+07
1.3278e+05,4.7009e+07,1,95,-113,429,47,-57,-99,0,0,0,1,4.7008e+07
1.3323e+05,4.7115e+07,1,91,-113,440,47,-57,-99,0,0,0,1,4.7115e+07
1.3365e+05,4.722e+07,1,91,-119,445,47,-57,-99,0,0,0,1,4.722e+07
1.341e+05,4.7326e+07,1,85,-133,449,47,-57,-99,0,0,0,1,4.7326e+07
1.3454e+05,4.7432e+07,1,81,-129,451,47,-57,-99,0,0,0,1,4.7432e+07
1.3496e+05,4.7536e+07,1,85,-136,446,47,-57,-99,0,0,0,1,4.7536e+07
1.354e+05,4.7642e+07,1,79,-131,440,47,-57,-99,0,0,0,1,4.7642e+07
1.3584e+05,4.7748e+07,1,83,-133,439,47,-57,-99,0,0,0,1,4.7748e+07
1.3629e+05,4.7852e+07,1,91,-125,427,47,-57,-99,0,0,0,1,4.7852e+07
1.3674e+05,4.7958e+07,1,97,-120,426,47,-57,-99,0,0,0,1,4.7958e+07
1.3718e+05,4.8063e+07,1,95,-120,431,47,-57,-99,0,0,0,1,4.8063e+07
1.376e+05,4.8169e+07,1,104,-110,428,47,-57,-99,0,0,0,1,4.8169e+07
1.3805e+05,4.8273e+07,1,105,-106,430,47,-57,-99,0,0,0,1,4.8273e+07
1.3849e+05,4.8379e+07,1,105,-99,428,47,-57,-99,0,0,0,1,4.8379e+07
1.3894e+05,4.8485e+07,1,108,-115,430,47,-57,-99,0,0,0,1,4.8485e+07
1.3938e+05,4.8592e+07,1,98,-117,426,47,-57,-99,0,0,0,1,4.8592e+07
1.398e+05,4.8699e+07,1,93,-133,426,47,-57,-99,0,0,0,1,4.8699e+07
1.4025e+05,4.8806e+07,1,90,-143,428,47,-57,-99,0,0,0,1,4.8806e+07
1.4069e+05,4.8912e+07,1,86,-145,435,47,-57,-99,0,0,0,1,4.8912e+07
1.4114e+05,4.9018e+07,1,82,-150,439,47,-57,-99,0,0,0,1,4.9018e+07
1.4158e+05,4.9122e+07,1,85,-139,440,47,-57,-99,0,0,0,1,4.9122e+07
1.42e+05,4.9229e+07,1,89,-141,436,47,-57,-99,0,0,0,1,4.9229e+07
1.4245e+05,4.9336e+07,1,88,-139,438,47,-57,-99,0,0,0,1,4.9336e+07
1.429e+05,4.9443e+07,1,91,-138,437,47,-57,-99,0,0,0,1,4.9442e+07
1.4331e+05,4.955e+07,1,97,-135,426,47,-57,-99,0,0,0,1,4.955e+07
1.4375e+05,4.9655e+07,1,92,-145,430,47,-57,-99,0,0,0,1,4.9655e+07
1.442e+05,4.9762e+07,1,92,-135,422,47,-57,-99,0,0,0,1,4.9762e+07
1.4465e+05,4.9867e+07,1,96,-127,419,47,-57,-99,0,0,0,1,4.9867e+07
1.451e+05,4.9972e+07,1,95,-140,428,47,-57,-99,0,0,0,1,4.9972e+07
1.4551e+05,5.0076e+07,1,100,-130,428,47,-57,-99,0,0,0,1,5.0076e+07
1.4595e+05,5.0181e+07,1,97,-132,433,47,-57,-99,0,0,0,1,5.0181e+07
1.4637e+05,5.0287e+07,1,100,-131,437,47,-57,-99,0,0,0,1,5.0287e+07
1.4682e+05,5.0392e+07,1,96,-132,435,47,-57,-99,0,0,0,1,5.0392e+07
1.4723e+05,5.0496e+07,1,94,-134,443,47,-57,-99,0,0,0,1,5.0496e+07
1.4768e+05,5.0602e+07,1,94,-131,432,47,-57,-99,0,0,0,1,5.0602e+07
1.4812e+05,5.0707e+07,1,91,-127,428,47,-57,-99,0,0,0,1,5.0707e+07
1.4857e+05,5.0812e+07,1,97,-125,421,47,-57,-99,0,0,0,1,5.0812e+07
1.4902e+05,5.0917e+07,1,97,-127,419,47,-57,-99,0,0,0,1,5.0917e+07
1.4946e+05,5.1025e+07,1,101,-142,425,47,-57,-99,0,0,0,1,5.1024e+07
1.4988e+05,5.113e+07,1,103,-145,434,47,-57,-99,0,0,0,1,5.113e+07
1.5032e+05,5.1236e+07,1,99,-140,437,47,-57,-99,0,0,0,1,5.1236e+07
1.5077e+05,5.1341e+07,1,97,-139,441,47,-57,-99,0,0,0,1,5.1341e+07
1.5122e+05,5.1446e+07,1,95,-140,441,47,-57,-99,0,0,0,1,5.1446e+07
1.5167e+05,5.1552e+07,1,95,-140,438,47,-57,-99,0,0,0,1,5.1552e+07
1.5211e+05,5.1658e+07,1,85,-142,440,47,-57,-99,0,0,0,1,5.1658e+07
1.5253e+05,5.1764e+07,1,83,-138,441,47,-57,-99,0,0,0,1,5.1764e+07
1.5298e+05,5.1869e+07,1,86,-129,433,47,-57,-99,0,0,0,1,5.1869e+07
1.5342e+05,5.1975e+07,1,85,-125,436,47,-57,-99,0,0,0,1,5.1975e+07
1.5387e+05,5.2081e+07,1,97,-126,429,47,-57,-99,0,0,0,1,5.2081e+07
1.5431e+05,5.2187e+07,1,115,-107,419,47,-57,-99,0,0,0,1,5.2187e+07
1.5476e+05,5.229e+07,1,137,-112,399,47,-57,-99,0,0,0,1,5.229e+07
1.5521e+05,5.2396e+07,1,126,-127,420,47,-57,-99,0,0,0,1,5.2396e+07
1.5562e+05,5.2502e+07,1,126,-138,417,47,-57,-99,0,0,0,1,5.2502e+07
1.5607e+05,5.2608e+07,1,119,-133,419,47,-57,-99,0,0,0,1,5.2608e+07
1.5652e+05,5.2712e+07,1,116,-132,416,47,-57,-99,0,0,0,1,5.2712e+07
1.5693e+05,5.2818e+07,1,118,-121,412,47,-57,-99,0,0,0,1,5.2818e+07
1.5738e+05,5.2923e+07,1,116,-123,411,47,-57,-99,0,0,0,1,5.2923e+07
1.5782e+05,5.3029e+07,1,116,-113,411,47,-57,-99,0,0,0,1,5.3029e+07
1.5827e+05,5.3136e+07,1,125,-115,410,47,-57,-99,0,0,0,1,5.3136e+07
1.5872e+05,5.3241e+07,1,120,-120,417,47,-57,-99,0,0,0,1,5.3241e+07
1.5916e+05,5.3348e+07,1,117,-115,418,47,-57,-99,0,0,0,1,5.3348e+07
1.5961e+05,5.3453e+07,1,112,-121,426,47,-57,-99,0,0,0,1,5.3453e+07
1.6006e+05,5.3558e+07,1,105,-141,435,47,-57,-99,0,0,0,1,5.3558e+07
1.605e+05,5.3663e+07,1,91,-160,433,47,-57,-99,0,0,0,1,5.3663e+07
1.6092e+05,5.377e+07,1,85,-181,432,47,-57,-99,0,0,0,1,5.377e+07
1.6136e+05,5.3875e+07,1,80,-191,437,47,-57,-99,0,0,0,1,5.3875e+07
1.6181e+05,5.3981e+07,1,82,-204,439,47,-57,-99,0,0,0,1,5.3981e+07
1.6226e+05,5.4086e+07,1,81,-205,444,47,-57,-99,0,0,0,1,5.4086e+07
1.627e+05,5.4191e+07,1,91,-204,444,47,-57,-99,0,0,0,1,5.4191e+07
1.6312e+05,5.4296e+07,1,98,-184,433,47,-57,-99,0,0,0,1,5.4296e+07
1.6357e+05,5.4399e+07,1,113,-164,413,47,-57,-99,0,0,0,1,5.4399e+07
1.6401e+05,5.4504e+07,1,124,-171,405,47,-57,-99,0,0,0,1,5.4504e+07
1.6446e+05,5.4611e+07,1,122,-177,402,47,-57,-99,0,0,0,1,5.4611e+07
1.6488e+05,5.4715e+07,1,123,-173,399,47,-57,-99,0,0,0,1,5.4715e+07
1.6532e+05,5.482e+07,1,120,-170,399,47,-57,-99,0,0,0,1,5.482e+07
1.6574e+05,5.4926e+07,1,122,-167,398,47,-57,-99,0,0,0,1,5.4926e+07
1.6618e+05,5.5033e+07,1,119,-160,399,47,-57,-99,0,0,0,1,5.5033e+07
1.6663e+05,5.5138e+07,1,130,-141,390,47,-57,-99,0,0,0,1,5.5138e+07
1.6708e+05,5.5245e+07,1,132,-144,390,47,-57,-99,0,0,0,1,5.5245e+07
1.6753e+05,5.5351e+07,1,130,-155,401,47,-57,-99,0,0,0,1,5.5351e+07
1.6794e+05,5.5456e+07,1,127,-155,401,47,-57,-99,0,0,0,1,5.5456e+07
1.6839e+05,5.5564e+07,1,128,-145,398,47,-57,-99,0,0,0,1,5.5563e+07
1.6883e+05,5.5669e+07,1,125,-144,386,47,-57,-99,0,0,0,1,5.5669e+07
1.6928e+05,5.5775e+07,1,128,-136,385,47,-57,-99,0,0,0,1,5.5775e+07
1.6973e+05,5.5879e+07,1,126,-128,382,47,-57,-99,0,0,0,1,5.5879e+07
1.7018e+05,5.5983e+07,1,122,-142,389,47,-57,-99,0,0,0,1,5.5983e+07
1.7062e+05,5.6088e+07,1,117,-155,414,47,-57,-99,0,0,0,1,5.6088e+07
1.7106e+05,5.6191e+07,1,105,-149,419,47,-57,-99,0,0,0,1,5.6191e+07
1.7151e+05,5.6296e+07,1,102,-153,410,47,-57,-99,0,0,0,1,5.6296e+07
1.7196e+05,5.6401e+07,1,98,-162,418,47,-57,-99,0,0,0,1,5.6401e+07
1.7237e+05,5.6506e+07,1,100,-165,416,47,-57,-99,0,0,0,1,5.6506e+07
1.7282e+05,5.6611e+07,1,99,-166,410,47,-57,-99,0,0,0,1,5.6611e+07
1.7327e+05,5.6717e+07,1,99,-153,413,47,-57,-99,0,0,0,1,5.6717e+07
1.7372e+05,5.6821e+07,1,102,-145,410,47,-57,-99,0,0,0,1,5.6821e+07
1.7416e+05,5.6925e+07,1,109,-139,408,47,-57,-99,0,0,0,1,5.6925e+07
1.7461e+05,5.7029e+07,1,100,-131,421,47,-57,-99,0,0,0,1,5.7029e+07
1.7505e+05,5.7134e+07,1,95,-102,427,47,-57,-99,0,0,0,1,5.7134e+07
1.755e+05,5.7239e+07,1,103,-67,412,47,-57,-99,0,0,0,1,5.7239e+07
1.7595e+05,5.7343e+07,1,101,-50,413,47,-57,-99,0,0,0,1,5.7343e+07
1.764e+05,5.7449e+07,1,107,-42,406,47,-57,-99,0,0,0,1,5.7449e+07
1.7681e+05,5.7555e+07,1,107,-48,409,47,-57,-99,0,0,0,1,5.7555e+07
1.7726e+05,5.766e+07,1,97,-59,415,47,-57,-99,0,0,0,1,5.766e+07
1.7771e+05,5.7765e+07,1,98,-59,408,47,-57,-99,0,0,0,1,5.7765e+07
1.7815e+05,5.787e+07,1,94,-68,410,47,-57,-99,0,0,0,1,5.787e+07
1.7856e+05,5.7974e+07,1,95,-60,409,47,-57,-99,0,0,0,1,5.7974e+07
1.7901e+05,5.808e+07,1,99,-64,405,47,-57,-99,0,0,0,1,5.808e+07
1.7946e+05,5.8184e+07,1,107,-70,408,47,-57,-99,0,0,0,1,5.8184e+07
1.799e+05,5.829e+07,1,106,-86,415,47,-57,-99,0,0,0,1,5.829e+07
1.8031e+05,5.8396e+07,1,105,-77,413,47,-57,-99,0,0,0,1,5.8396e+07
1.8076e+05,5.85e+07,1,104,-83,417,47,-57,-99,0,0,0,1,5.85e+07
1.8121e+05,5.8605e+07,1,104,-93,418,47,-57,-99,0,0,0,1,5.8605e+07
1.8162e+05,5.871e+07,1,106,-91,416,47,-57,-99,0,0,0,1,5.871e+07
1.8207e+05,5.8818e+07,1,109,-103,423,47,-57,-99,0,0,0,1,5.8818e+07
1.8251e+05,5.8923e+07,1,104,-103,421,47,-57,-99,0,0,0,1,5.8923e+07
1.8293e+05,5.9028e+07,1,105,-103,423,47,-57,-99,0,0,0,1,5.9028e+07
1.8337e+05,5.9134e+07,1,108,-120,431,47,-57,-99,0,0,0,1,5.9134e+07
1.8382e+05,5.9242e+07,1,105,-123,432,47,-57,-99,0,0,0,1,5.9242e+07
1.8427e+05,5.9346e+07,1,105,-120,436,47,-57,-99,0,0,0,1,5.9346e+07
1.8468e+05,5.945e+07,1,107,-106,424,47,-57,-99,0,0,0,1,5.945e+07
1.8513e+05,5.9555e+07,1,107,-107,422,47,-57,-99,0,0,0,1,5.9555e+07
1.8558e+05,5.966e+07,1,105,-113,418,47,-57,-99,0,0,0,1,5.966e+07
1.8603e+05,5.9766e+07,1,104,-107,421,47,-57,-99,0,0,0,1,5.9766e+07
1.8647e+05,5.9872e+07,1,110,-105,418,47,-57,-99,0,0,0,1,5.9872e+07
1.8689e+05,5.9978e+07,1,113,-100,417,47,-57,-99,0,0,0,1,5.9978e+07
1.8733e+05,6.0083e+07,1,113,-97,419,47,-57,-99,0,0,0,1,6.0083e+07
1.8778e+05,6.0189e+07,1,123,-81,419,47,-57,-99,0,0,0,1,6.0189e+07
1.8822e+05,6.0294e+07,1,121,-77,418,47,-57,-99,0,0,0,1,6.0294e+07
1.8864e+05,6.0401e+07,1,114,-67,424,47,-57,-99,0,0,0,1,6.0401e+07
1.8909e+05,6.0506e+07,1,119,-74,423,47,-57,-99,0,0,0,1,6.0506e+07
1.8953e+05,6.0611e+07,1,114,-75,419,47,-57,-99,0,0,0,1,6.0611e+07
1.8995e+05,6.0719e+07,1,111,-75,420,47,-57,-99,0,0,0,1,6.0719e+07
1.904e+05,6.0825e+07,1,114,-91,418,47,-57,-99,0,0,0,1,6.0825e+07
1.9085e+05,6.0931e+07,1,113,-105,423,47,-57,-99,0,0,0,1,6.0931e+07
1.9126e+05,6.1038e+07,1,115,-115,420,47,-57,-99,0,0,0,1,6.1038e+07
1.9171e+05,6.1144e+07,1,126,-125,424,47,-57,-99,0,0,0,1,6.1144e+07
1.9215e+05,6.1249e+07,1,131,-129,419,47,-57,-99,0,0,0,1,6.1249e+07
1.926e+05,6.1354e+07,1,130,-134,417,47,-57,-99,0,0,0,1,6.1354e+07
1.9304e+05,6.146e+07,1,127,-136,418,47,-57,-99,0,0,0,1,6.146e+07
1.9349e+05,6.1565e+07,1,128,-130,407,47,-57,-99,0,0,0,1,6.1565e+07
1.939e+05,6.1669e+07,1,130,-128,394,47,-57,-99,0,0,0,1,6.1669e+07
1.9432e+05,6.1775e+07,1,128,-130,394,47,-57,-99,0,0,0,1,6.1775e+07
1.9477e+05,6.1879e+07,1,126,-118,392,47,-57,-99,0,0,0,1,6.1879e+07
1.9521e+05,6.1985e+07,1,125,-120,393,47,-57,-99,0,0,0,1,6.1985e+07
1.9563e+05,6.2089e+07,1,129,-112,398,47,-57,-99,0,0,0,1,6.2089e+07
1.9604e+05,6.2194e+07,1,125,-116,404,47,-57,-99,0,0,0,1,6.2194e+07
1.9649e+05,6.23e+07,1,112,-108,417,47,-57,-99,0,0,0,1,6.23e+07
1.9694e+05,6.2405e+07,1,111,-98,421,47,-57,-99,0,0,0,1,6.2405e+07
1.9738e+05,6.2511e+07,1,112,-86,422,47,-57,-99,0,0,0,1,6.2511e+07
1.9783e+05,6.2616e+07,1,109,-100,424,47,-57,-99,0,0,0,1,6.2616e+07
1.9824e+05,6.2721e+07,1,100,-95,424,47,-57,-99,0,0,0,1,6.2721e+07
1.9869e+05,6.2827e+07,1,98,-101,429,47,-57,-99,0,0,0,1,6.2827e+07
1.9913e+05,6.2934e+07,1,97,-100,433,47,-57,-99,0,0,0,1,6.2934e+07
1.9955e+05,6.3039e+07,1,95,-101,432,47,-57,-99,0,0,0,1,6.3039e+07
2e+05,6.3144e+07,1,96,-92,446,47,-57,-99,0,0,0,1,6.3144e+07
2.0044e+05,6.3248e+07,1,98,-75,439,47,-57,-99,0,0,0,1,6.3248e+07
2.0086e+05,6.3352e+07,1,105,-71,432,47,-57,-99,0,0,0,1,6.3352e+07
2.013e+05,6.3457e+07,1,107,-72,427,47,-57,-99,0,0,0,1,6.3456e+07
2.0172e+05,6.3562e+07,1,105,-80,424,47,-57,-99,0,0,0,1,6.3561e+07
2.0216e+05,6.3667e+07,1,105,-77,414,47,-57,-99,0,0,0,1,6.3667e+07
2.0261e+05,6.3775e+07,1,108,-82,411,47,-57,-99,0,0,0,1,6.3775e+07
2.0302e+05,6.3879e+07,1,112,-86,413,47,-57,-99,0,0,0,1,6.3878e+07
2.0347e+05,6.3984e+07,1,112,-99,419,47,-57,-99,0,0,0,1,6.3983e+07
2.0392e+05,6.4087e+07,1,101,-100,428,47,-57,-99,0,0,0,1,6.4087e+07
2.0437e+05,6.4193e+07,1,103,-98,433,47,-57,-99,0,0,0,1,6.4193e+07
2.0478e+05,6.4297e+07,1,103,-90,429,47,-57,-99,0,0,0,1,6.4297e+07
2.0523e+05,6.4403e+07,1,109,-87,426,47,-57,-99,0,0,0,1,6.4403e+07
2.0567e+05,6.4507e+07,1,111,-92,423,47,-57,-99,0,0,0,1,6.4507e+07
2.0612e+05,6.4612e+07,1,106,-88,423,47,-57,-99,0,0,0,1,6.4612e+07
2.0653e+05,6.4716e+07,1,105,-97,421,47,-57,-99,0,0,0,1,6.4716e+07
2.0698e+05,6.4821e+07,1,102,-95,420,47,-57,-99,0,0,0,1,6.4821e+07
2.0742e+05,6.4924e+07,1,103,-98,419,47,-57,-99,0,0,0,1,6.4924e+07
2.0786e+05,6.5028e+07,1,97,-104,426,47,-57,-99,0,0,0,1,6.5028e+07
2.0828e+05,6.5133e+07,1,98,-99,434,47,-57,-99,0,0,0,1,6.5133e+07
2.0872e+05,6.5237e+07,1,99,-112,432,47,-57,-99,0,0,0,1,6.5237e+07
2.0917e+05,6.5342e+07,1,100,-103,434,47,-57,-99,0,0,0,1,6.5342e+07
2.0961e+05,6.5448e+07,1,105,-97,424,47,-57,-99,0,0,0,1,6.5448e+07
2.1006e+05,6.5554e+07,1,98,-100,434,47,-57,-99,0,0,0,1,6.5554e+07
2.105e+05,6.5658e+07,1,95,-106,428,47,-57,-99,0,0,0,1,6.5658e+07
2.1095e+05,6.5763e+07,1,98,-102,426,47,-57,-99,0,0,0,1,6.5763e+07
2.1139e+05,6.5867e+07,1,91,-93,427,47,-57,-99,0,0,0,1,6.5867e+07
2.1183e+05,6.5971e+07,1,90,-88,433,47,-57,-99,0,0,0,1,6.5971e+07
2.1225e+05,6.6075e+07,1,99,-85,432,47,-57,-99,0,0,0,1,6.6075e+07
2.1269e+05,6.6179e+07,1,108,-82,432,47,-57,-99,0,0,0,1,6.6179e+07
2.1313e+05,6.6284e+07,1,107,-98,446,47,-57,-99,0,0,0,1,6.6284e+07
2.1358e+05,6.6388e+07,1,106,-97,441,47,-57,-99,0,0,0,1,6.6388e+07
2.1402e+05,6.6492e+07,1,107,-91,441,47,-57,-99,0,0,0,1,6.6492e+07
2.1444e+05,6.6596e+07,1,105,-95,437,47,-57,-99,0,0,0,1,6.6596e+07
2.1488e+05,6.67e+07,1,102,-101,432,47,-57,-99,0,0,0,1,6.67e+07
2.1532e+05,6.6804e+07,1,98,-101,435,47,-57,-99,0,0,0,1,6.6804e+07
2.1577e+05,6.6908e+07,1,101,-99,425,47,-57,-99,0,0,0,1,6.6908e+07
2.1621e+05,6.7013e+07,1,101,-89,416,47,-57,-99,0,0,0,1,6.7013e+07
2.1666e+05,6.7117e+07,1,110,-86,420,47,-57,-99,0,0,0,1,6.7117e+07
2.171e+05,6.7224e+07,1,109,-102,427,47,-57,-99,0,0,0,1,6.7224e+07
2.1755e+05,6.7329e+07,1,106,-98,426,47,-57,-99,0,0,0,1,6.7329e+07
2.1795e+05,6.7434e+07,1,117,-100,416,47,-57,-99,0,0,0,1,6.7434e+07
2.184e+05,6.7537e+07,1,112,-100,419,47,-57,-99,0,0,0,1,6.7537e+07
2.1881e+05,6.7642e+07,1,113,-85,407,47,-57,-99,0,0,0,1,6.7642e+07
2.1925e+05,6.7748e+07,1,118,-80,404,47,-57,-99,0,0,0,1,6.7748e+07
2.197e+05,6.7851e+07,1,127,-83,400,47,-57,-99,0,0,0,1,6.7851e+07
2.201e+05,6.7956e+07,1,124,-86,396,47,-57,-99,0,0,0,1,6.7956e+07
2.2055e+05,6.806e+07,1,128,-81,395,47,-57,-99,0,0,0,1,6.806e+07
2.2099e+05,6.8165e+07,1,120,-89,410,47,-57,-99,0,0,0,1,6.8165e+07
2.2144e+05,6.8267e+07,1,109,-96,420,47,-57,-99,0,0,0,1,6.8267e+07
2.2188e+05,6.8371e+07,1,112,-91,418,47,-57,-99,0,0,0,1,6.8371e+07
2.2232e+05,6.8475e+07,1,113,-91,405,47,-57,-99,0,0,0,1,6.8475e+07
2.2277e+05,6.858e+07,1,104,-70,389,47,-57,-99,0,0,0,1,6.858e+07
2.2321e+05,6.8684e+07,1,124,-9,314,47,-57,-99,0,0,0,1,6.8684e+07
2.2365e+05,6.8791e+07,1,96,-38,391,47,-57,-99,0,0,0,1,6.8791e+07
2.2407e+05,6.8894e+07,1,131,27,305,47,-57,-99,0,0,0,1,6.8894e+07
2.2451e+05,6.9001e+07,1,139,35,290,47,-57,-99,0,0,0,1,6.9001e+07
2.2496e+05,6.9105e+07,1,132,28,311,47,-57,-99,0,0,0,1,6.9105e+07
2.254e+05,6.9211e+07,1,134,24,315,47,-57,-99,0,0,0,1,6.9211e+07
2.2584e+05,6.9315e+07,1,136,26,316,47,-57,-99,0,0,0,1,6.9315e+07
2.2628e+05,6.942e+07,1,133,24,319,47,-57,-99,0,0,0,1,6.942e+07
2.2673e+05,6.9525e+07,1,137,24,316,47,-57,-99,0,0,0,1,6.9525e+07
2.2714e+05,6.9629e+07,1,130,21,314,47,-57,-99,0,0,0,1,6.9629e+07
2.2758e+05,6.9738e+07,1,130,21,311,47,-57,-99,0,0,0,1,6.9738e+07
2.2803e+05,6.9842e+07,1,130,22,312,47,-57,-99,0,0,0,1,6.9842e+07
2.2848e+05,6.9946e+07,1,131,22,313,47,-57,-99,0,0,0,1,6.9946e+07
2.2892e+05,7.005e+07,1,132,22,314,47,-57,-99,0,0,0,1,7.005e+07
2.2934e+05,7.0158e+07,1,136,25,320,47,-57,-99,0,0,0,1,7.0158e+07
2.2978e+05,7.0262e+07,1,136,24,314,47,-57,-99,0,0,0,1,7.0262e+07
2.3022e+05,7.0367e+07,1,135,24,322,47,-57,-99,0,0,0,1,7.0367e+07
2.3067e+05,7.0469e+07,1,135,26,317,47,-57,-99,0,0,0,1,7.0469e+07
2.3108e+05,7.0574e+07,1,132,23,313,47,-57,-99,0,0,0,1,7.0574e+07
2.3152e+05,7.0679e+07,1,134,34,300,47,-57,-99,0,0,0,1,7.0679e+07
2.3197e+05,7.0784e+07,1,134,37,297,47,-57,-99,0,0,0,1,7.0784e+07
2.3241e+05,7.0887e+07,1,134,31,301,47,-57,-99,0,0,0,1,7.0887e+07
2.3282e+05,7.0993e+07,1,133,29,299,47,-57,-99,0,0,0,1,7.0993e+07
2.3327e+05,7.1095e+07,1,137,33,309,47,-57,-99,0,0,0,1,7.1095e+07
2.3372e+05,7.1203e+07,1,138,31,306,47,-57,-99,0,0,0,1,7.1203e+07
2.3416e+05,7.1306e+07,1,138,30,308,47,-57,-99,0,0,0,1,7.1306e+07
2.346e+05,7.141e+07,1,138,34,304,47,-57,-99,0,0,0,1,7.141e+07
2.3505e+05,7.1515e+07,1,139,34,307,47,-57,-99,0,0,0,1,7.1515e+07
2.3549e+05,7.1622e+07,1,134,29,300,47,-57,-99,0,0,0,1,7.1622e+07
2.3591e+05,7.1728e+07,1,132,27,300,47,-57,-99,0,0,0,1,7.1728e+07
2.3634e+05,7.1831e+07,1,133,27,302,47,-57,-99,0,0,0,1,7.1831e+07
2.3679e+05,7.1935e+07,1,133,26,299,47,-57,-99,0,0,0,1,7.1935e+07
2.3723e+05,7.2039e+07,1,133,29,301,47,-57,-99,0,0,0,1,7.2039e+07
2.3768e+05,7.2143e+07,1,138,32,305,47,-57,-99,0,0,0,1,7.2143e+07
2.381e+05,7.2246e+07,1,141,36,298,47,-57,-99,0,0,0,1,7.2246e+07
2.3855e+05,7.2351e+07,1,140,33,299,47,-57,-99,0,0,0,1,7.2351e+07
2.39e+05,7.2454e+07,1,141,35,301,47,-57,-99,0,0,0,1,7.2454e+07
2.3945e+05,7.2559e+07,1,138,30,300,47,-57,-99,0,0,0,1,7.2559e+07
2.399e+05,7.2661e+07,1,134,31,295,47,-57,-99,0,0,0,1,7.2661e+07
2.4034e+05,7.2767e+07,1,132,29,292,47,-57,-99,0,0,0,1,7.2767e+07
2.4079e+05,7.2869e+07,1,133,30,295,47,-57,-99,0,0,0,1,7.2869e+07
2.4124e+05,7.2972e+07,1,134,30,293,47,-57,-99,0,0,0,1,7.2972e+07
2.4169e+05,7.3076e+07,1,134,27,298,47,-57,-99,0,0,0,1,7.3076e+07
2.421e+05,7.3179e+07,1,139,33,301,47,-57,-99,0,0,0,1,7.3179e+07
2.4256e+05,7.3283e+07,1,139,28,297,47,-57,-99,0,0,0,1,7.3283e+07
2.43e+05,7.3389e+07,1,139,29,298,47,-57,-99,0,0,0,1,7.3389e+07
2.4345e+05,7.3494e+07,1,139,29,295,47,-57,-99,0,0,0,1,7.3494e+07
2.439e+05,7.3598e+07,1,137,31,294,47,-57,-99,0,0,0,1,7.3598e+07
2.4435e+05,7.3703e+07,1,133,27,292,47,-57,-99,0,0,0,1,7.3703e+07
2.448e+05,7.3809e+07,1,132,31,296,47,-57,-99,0,0,0,1,7.3808e+07
2.4525e+05,7.3913e+07,1,133,29,294,47,-57,-99,0,0,0,1,7.3913e+07
2.457e+05,7.4017e+07,1,133,29,296,47,-57,-99,0,0,0,1,7.4017e+07
2.4615e+05,7.4122e+07,1,138,30,299,47,-57,-99,0,0,0,1,7.4122e+07
2.4657e+05,7.4226e+07,1,138,28,297,47,-57,-99,0,0,0,1,7.4226e+07
2.4702e+05,7.4329e+07,1,138,35,300,47,-57,-99,0,0,0,1,7.4329e+07
2.4747e+05,7.4435e+07,1,139,30,300,47,-57,-99,0,0,0,1,7.4435e+07
2.4792e+05,7.4537e+07,1,140,30,300,47,-57,-99,0,0,0,1,7.4537e+07
2.4834e+05,7.4644e+07,1,133,28,293,47,-57,-99,0,0,0,1,7.4644e+07
2.4878e+05,7.4748e+07,1,133,28,294,47,-57,-99,0,0,0,1,7.4748e+07
2.4924e+05,7.4853e+07,1,133,28,294,47,-57,-99,0,0,0,1,7.4853e+07
2.4968e+05,7.4959e+07,1,133,29,292,47,-57,-99,0,0,0,1,7.4959e+07
2.5014e+05,7.5063e+07,1,137,29,292,47,-57,-99,0,0,0,1,7.5063e+07
2.5058e+05,7.5167e+07,1,138,29,297,47,-57,-99,0,0,0,1,7.5167e+07
2.5103e+05,7.5269e+07,1,139,31,295,47,-57,-99,0,0,0,1,7.5269e+07
2.5148e+05,7.5375e+07,1,139,31,296,47,-57,-99,0,0,0,1,7.5375e+07
2.519e+05,7.5477e+07,1,139,31,299,47,-57,-99,0,0,0,1,7.5477e+07
2.5235e+05,7.5584e+07,1,137,31,296,47,-57,-99,0,0,0,1,7.5584e+07
2.528e+05,7.5686e+07,1,133,33,296,47,-57,-99,0,0,0,1,7.5686e+07
2.5325e+05,7.5791e+07,1,134,33,296,47,-57,-99,0,0,0,1,7.5791e+07
2.537e+05,7.5893e+07,1,132,30,298,47,-57,-99,0,0,0,1,7.5893e+07
2.5415e+05,7.5999e+07,1,133,32,298,47,-57,-99,0,0,0,1,7.5999e+07
2.546e+05,7.6104e+07,1,136,30,297,47,-57,-99,0,0,0,1,7.6104e+07
2.5504e+05,7.6207e+07,1,139,34,303,47,-57,-99,0,0,0,1,7.6207e+07
2.555e+05,7.6309e+07,1,137,34,305,47,-57,-99,0,0,0,1,7.6309e+07
2.5591e+05,7.6412e+07,1,136,31,304,47,-57,-99,0,0,0,1,7.6412e+07
2.5636e+05,7.6516e+07,1,136,35,305,47,-57,-99,0,0,0,1,7.6516e+07
2.5681e+05,7.6622e+07,1,133,32,303,47,-57,-99,0,0,0,1,7.6622e+07
2.5726e+05,7.6725e+07,1,130,33,300,47,-57,-99,0,0,0,1,7.6725e+07
2.5771e+05,7.683e+07,1,131,31,301,47,-57,-99,0,0,0,1,7.683e+07
2.5816e+05,7.6934e+07,1,132,33,297,47,-57,-99,0,0,0,1,7.6934e+07
2.5861e+05,7.7039e+07,1,130,31,301,47,-57,-99,0,0,0,1,7.7039e+07
2.5906e+05,7.7142e+07,1,137,38,305,47,-57,-99,0,0,0,1,7.7142e+07
2.5951e+05,7.7246e+07,1,136,37,305,47,-57,-99,0,0,0,1,7.7246e+07
2.5992e+05,7.7349e+07,1,136,38,306,47,-57,-99,0,0,0,1,7.7349e+07
2.6038e+05,7.7453e+07,1,137,34,305,47,-57,-99,0,0,0,1,7.7453e+07
2.6082e+05,7.756e+07,1,138,38,306,47,-57,-99,0,0,0,1,7.756e+07
2.6128e+05,7.7662e+07,1,131,35,303,47,-57,-99,0,0,0,1,7.7662e+07
2.6172e+05,7.7766e+07,1,132,32,302,47,-57,-99,0,0,0,1,7.7766e+07
2.6217e+05,7.7868e+07,1,131,36,302,47,-57,-99,0,0,0,1,7.7868e+07
2.6262e+05,7.7972e+07,1,131,35,303,47,-57,-99,0,0,0,1,7.7972e+07
2.6307e+05,7.8076e+07,1,133,36,303,47,-57,-99,0,0,0,1,7.8076e+07
2.6349e+05,7.818e+07,1,136,36,306,47,-57,-99,0,0,0,1,7.818e+07
2.6394e+05,7.8284e+07,1,135,36,308,47,-57,-99,0,0,0,1,7.8284e+07
2.6439e+05,7.8389e+07,1,136,33,308,47,-57,-99,0,0,0,1,7.8389e+07
2.6484e+05,7.8493e+07,1,135,32,307,47,-57,-99,0,0,0,1,7.8493e+07
2.6529e+05,7.8596e+07,1,132,28,303,47,-57,-99,0,0,0,1,7.8596e+07
2.6574e+05,7.8699e+07,1,134,27,298,47,-57,-99,0,0,0,1,7.8699e+07
2.6619e+05,7.8803e+07,1,134,27,303,47,-57,-99,0,0,0,1,7.8803e+07
2.6664e+05,7.8907e+07,1,136,30,304,47,-57,-99,0,0,0,1,7.8907e+07
2.6706e+05,7.901e+07,1,134,27,303,47,-57,-99,0,0,0,1,7.901e+07
2.6751e+05,7.9113e+07,1,139,28,307,47,-57,-99,0,0,0,1,7.9113e+07
2.6795e+05,7.9218e+07,1,140,32,308,47,-57,-99,0,0,0,1,7.9218e+07
2.684e+05,7.932e+07,1,141,31,308,47,-57,-99,0,0,0,1,7.932e+07
2.6885e+05,7.9426e+07,1,139,30,309,47,-57,-99,0,0,0,1,7.9426e+07
2.693e+05,7.9529e+07,1,139,25,307,47,-57,-99,0,0,0,1,7.9529e+07
2.6975e+05,7.9634e+07,1,135,27,303,47,-57,-99,0,0,0,1,7.9634e+07
2.702e+05,7.9738e+07,1,134,27,305,47,-57,-99,0,0,0,1,7.9738e+07
2.7065e+05,7.9842e+07,1,136,27,306,47,-57,-99,0,0,0,1,7.9842e+07
2.7106e+05,7.9945e+07,1,135,24,304,47,-57,-99,0,0,0,1,7.9945e+07
2.7152e+05,8.005e+07,1,136,28,305,47,-57,-99,0,0,0,1,8.005e+07
2.7196e+05,8.0157e+07,1,140,31,310,47,-57,-99,0,0,0,1,8.0157e+07
2.7242e+05,8.0261e+07,1,140,30,310,47,-57,-99,0,0,0,1,8.0261e+07
2.7286e+05,8.0366e+07,1,141,32,309,47,-57,-99,0,0,0,1,8.0366e+07
2.7332e+05,8.047e+07,1,141,32,308,47,-57,-99,0,0,0,1,8.047e+07
2.7377e+05,8.0574e+07,1,138,32,307,47,-57,-99,0,0,0,1,8.0574e+07
2.7422e+05,8.0678e+07,1,135,32,304,47,-57,-99,0,0,0,1,8.0678e+07
2.7466e+05,8.0782e+07,1,137,31,304,47,-57,-99,0,0,0,1,8.0782e+07
2.7511e+05,8.0885e+07,1,135,28,305,47,-57,-99,0,0,0,1,8.0885e+07
2.7553e+05,8.0989e+07,1,134,28,305,47,-57,-99,0,0,0,1,8.0989e+07
2.7598e+05,8.1094e+07,1,139,33,308,47,-57,-99,0,0,0,1,8.1094e+07
2.7643e+05,8.1199e+07,1,140,33,311,47,-57,-99,0,0,0,1,8.1199e+07
2.7688e+05,8.1302e+07,1,141,32,311,47,-57,-99,0,0,0,1,8.1302e+07
2.7729e+05,8.1405e+07,1,140,31,308,47,-57,-99,0,0,0,1,8.1405e+07
2.7775e+05,8.1511e+07,1,139,30,310,47,-57,-99,0,0,0,1,8.1511e+07
2.782e+05,8.1613e+07,1,136,28,305,47,-57,-99,0,0,0,1,8.1613e+07
2.7865e+05,8.1717e+07,1,136,29,304,47,-57,-99,0,0,0,1,8.1717e+07
2.791e+05,8.1823e+07,1,135,27,304,47,-57,-99,0,0,0,1,8.1823e+07
2.7955e+05,8.1927e+07,1,134,29,304,47,-57,-99,0,0,0,1,8.1927e+07
2.8e+05,8.2031e+07,1,134,28,304,47,-57,-99,0,0,0,1,8.2031e+07
2.8045e+05,8.2135e+07,1,139,27,304,47,-57,-99,0,0,0,1,8.2135e+07
2.809e+05,8.2241e+07,1,141,28,308,47,-57,-99,0,0,0,1,8.2241e+07
2.8134e+05,8.2349e+07,1,139,30,308,47,-57,-99,0,0,0,1,8.2349e+07
2.8179e+05,8.2451e+07,1,139,28,307,47,-57,-99,0,0,0,1,8.2451e+07
2.8224e+05,8.2557e+07,1,139,30,307,47,-57,-99,0,0,0,1,8.2557e+07
2.8269e+05,8.2661e+07,1,135,29,305,47,-57,-99,0,0,0,1,8.2661e+07
2.8314e+05,8.2765e+07,1,133,27,303,47,-57,-99,0,0,0,1,8.2765e+07
2.8359e+05,8.2869e+07,1,134,27,305,47,-57,-99,0,0,0,1,8.2869e+07
2.8401e+05,8.2972e+07,1,134,28,301,47,-57,-99,0,0,0,1,8.2972e+07
2.8446e+05,8.3077e+07,1,136,28,304,47,-57,-99,0,0,0,1,8.3077e+07
2.849e+05,8.3182e+07,1,139,31,308,47,-57,-99,0,0,0,1,8.3182e+07
2.8535e+05,8.3284e+07,1,139,30,306,47,-57,-99,0,0,0,1,8.3284e+07
2.858e+05,8.3388e+07,1,139,30,306,47,-57,-99,0,0,0,1,8.3388e+07
2.8625e+05,8.3493e+07,1,139,31,307,47,-57,-99,0,0,0,1,8.3493e+07
2.867e+05,8.3598e+07,1,137,29,304,47,-57,-99,0,0,0,1,8.3598e+07
2.8715e+05,8.3701e+07,1,134,27,302,47,-57,-99,0,0,0,1,8.3701e+07
2.8757e+05,8.3807e+07,1,134,28,302,47,-57,-99,0,0,0,1,8.3807e+07
2.8802e+05,8.3909e+07,1,133,27,303,47,-57,-99,0,0,0,1,8.3909e+07
2.8847e+05,8.4015e+07,1,135,28,304,47,-57,-99,0,0,0,1,8.4015e+07
2.8892e+05,8.4117e+07,1,139,30,306,47,-57,-99,0,0,0,1,8.4117e+07
2.8936e+05,8.4223e+07,1,140,31,305,47,-57,-99,0,0,0,1,8.4223e+07
2.8982e+05,8.4327e+07,1,139,29,309,47,-57,-99,0,0,0,1,8.4326e+07
2.9026e+05,8.4432e+07,1,140,28,306,47,-57,-99,0,0,0,1,8.4432e+07
2.9072e+05,8.4537e+07,1,140,29,306,47,-57,-99,0,0,0,1,8.4537e+07
2.9116e+05,8.4641e+07,1,134,28,300,47,-57,-99,0,0,0,1,8.4641e+07
2.9158e+05,8.4747e+07,1,134,29,302,47,-57,-99,0,0,0,1,8.4747e+07
2.9203e+05,8.4853e+07,1,133,26,304,47,-57,-99,0,0,0,1,8.4853e+07
2.9248e+05,8.4963e+07,1,136,29,302,47,-57,-99,0,0,0,1,8.4963e+07
2.9294e+05,8.5066e+07,1,136,28,305,47,-57,-99,0,0,0,1,8.5066e+07
2.9338e+05,8.5171e+07,1,139,29,306,47,-57,-99,0,0,0,1,8.5171e+07
2.9383e+05,8.5276e+07,1,140,30,306,47,-57,-99,0,0,0,1,8.5276e+07
2.9425e+05,8.5378e+07,1,142,31,307,47,-57,-99,0,0,0,1,8.5378e+07
2.947e+05,8.5481e+07,1,139,30,309,47,-57,-99,0,0,0,1,8.5481e+07
2.9515e+05,8.5587e+07,1,136,29,301,47,-57,-99,0,0,0,1,8.5587e+07
2.956e+05,8.5693e+07,1,134,28,301,47,-57,-99,0,0,0,1,8.5693e+07
2.9605e+05,8.5797e+07,1,133,27,302,47,-57,-99,0,0,0,1,8.5797e+07
2.965e+05,8.5902e+07,1,136,29,302,47,-57,-99,0,0,0,1,8.5902e+07
2.9695e+05,8.6008e+07,1,134,27,301,47,-57,-99,0,0,0,1,8.6008e+07
2.974e+05,8.6109e+07,1,139,31,306,47,-57,-99,0,0,0,1,8.6109e+07
2.9782e+05,8.6214e+07,1,140,31,306,47,-57,-99,0,0,0,1,8.6214e+07
2.9827e+05,8.6316e+07,1,141,30,310,47,-57,-99,0,0,0,1,8.6316e+07
2.9871e+05,8.6422e+07,1,139,31,309,47,-57,-99,0,0,0,1,8.6422e+07
2.9917e+05,8.6527e+07,1,139,31,305,47,-57,-99,0,0,0,1,8.6527e+07
2.9961e+05,8.663e+07,1,135,28,297,47,-57,-99,0,0,0,1,8.663e+07
3.0006e+05,8.6734e+07,1,134,28,302,47,-57,-99,0,0,0,1,8.6734e+07
3.0051e+05,8.6836e+07,1,135,29,303,47,-57,-99,0,0,0,1,8.6836e+07
3.0096e+05,8.6942e+07,1,134,29,301,47,-57,-99,0,0,0,1,8.6942e+07
3.0141e+05,8.7045e+07,1,135,27,304,47,-57,-99,0,0,0,1,8.7045e+07
3.0183e+05,8.7147e+07,1,140,27,307,47,-57,-99,0,0,0,1,8.7147e+07
