LineNo,TimeUS,I,MagX,MagY,MagZ,OfsX,OfsY,OfsZ,MOX,MOY,MOZ,Health,S
1907,1.5487e+07,2,128,-39,384,-399,44,42,0,0,0,1,1.5487e+07
2292,1.5588e+07,2,133,-44,384,-399,44,42,0,0,0,1,1.5588e+07
2706,1.5689e+07,2,134,-35,378,-399,44,42,0,0,0,1,1.5689e+07
3118,1.5789e+07,2,130,-45,378,-399,44,42,0,0,0,1,1.5789e+07
3527,1.5891e+07,2,123,-46,392,-399,44,42,0,0,0,1,1.5891e+07
3935,1.5992e+07,2,127,-43,379,-399,44,42,0,0,0,1,1.5992e+07
4348,1.6092e+07,2,131,-39,378,-399,44,42,0,0,0,1,1.6092e+07
4729,1.6193e+07,2,123,-41,386,-399,44,42,0,0,0,1,1.6193e+07
5135,1.6293e+07,2,135,-43,391,-399,44,42,0,0,0,1,1.6293e+07
5544,1.6393e+07,2,122,-39,384,-399,44,42,0,0,0,1,1.6393e+07
5952,1.6494e+07,2,133,-38,386,-399,44,42,0,0,0,1,1.6494e+07
6363,1.6595e+07,2,130,-43,380,-399,44,42,0,0,0,1,1.6595e+07
6747,1.6695e+07,2,130,-39,379,-399,44,42,0,0,0,1,1.6695e+07
7156,1.6796e+07,2,130,-36,373,-399,44,42,0,0,0,1,1.6796e+07
7567,1.6896e+07,2,129,-35,381,-399,44,42,0,0,0,1,1.6896e+07
7977,1.6997e+07,2,129,-42,378,-399,44,42,0,0,0,1,1.6997e+07
8386,1.7097e+07,2,126,-43,378,-399,44,42,0,0,0,1,1.7097e+07
8794,1.7198e+07,2,127,-37,383,-399,44,42,0,0,0,1,1.7198e+07
9198,1.7299e+07,2,134,-40,383,-399,44,42,0,0,0,1,1.7299e+07
9519,1.7398e+07,2,125,-45,387,-399,44,42,0,0,0,1,1.7398e+07
9926,1.7498e+07,2,125,-48,384,-399,44,42,0,0,0,1,1.7498e+07
10336,1.7599e+07,2,126,-49,389,-399,44,42,0,0,0,1,1.7599e+07
10717,1.7699e+07,2,123,-45,384,-399,44,42,0,0,0,1,1.7699e+07
11130,1.78e+07,2,122,-44,376,-399,44,42,0,0,0,1,1.78e+07
11543,1.7901e+07,2,129,-49,389,-399,44,42,0,0,0,1,1.7901e+07
11957,1.8002e+07,2,129,-41,378,-399,44,42,0,0,0,1,1.8002e+07
12339,1.8102e+07,2,131,-44,387,-399,44,42,0,0,0,1,1.8102e+07
12751,1.8203e+07,2,129,-48,387,-399,44,42,0,0,0,1,1.8203e+07
13157,1.8304e+07,2,129,-42,382,-399,44,42,0,0,0,1,1.8304e+07
13566,1.8404e+07,2,127,-48,384,-399,44,42,0,0,0,1,1.8404e+07
13973,1.8505e+07,2,131,-43,386,-399,44,42,0,0,0,1,1.8505e+07
14357,1.8606e+07,2,128,-45,388,-399,44,42,0,0,0,1,1.8606e+07
14768,1.8707e+07,2,130,-41,386,-399,44,42,0,0,0,1,1.8707e+07
15175,1.8808e+07,2,129,-45,382,-399,44,42,0,0,0,1,1.8808e+07
15585,1.8909e+07,2,131,-42,377,-399,44,42,0,0,0,1,1.8909e+07
15996,1.901e+07,2,134,-42,377,-399,44,42,0,0,0,1,1.901e+07
16404,1.911e+07,2,135,-42,376,-399,44,42,0,0,0,1,1.911e+07
16784,1.9212e+07,2,134,-37,375,-399,44,42,0,0,0,1,1.9212e+07
17191,1.9312e+07,2,128,-40,388,-399,44,42,0,0,0,1,1.9312e+07
17572,1.9413e+07,2,126,-44,378,-399,44,42,0,0,0,1,1.9413e+07
17983,1.9513e+07,2,140,-41,381,-399,44,42,0,0,0,1,1.9513e+07
18394,1.9614e+07,2,136,-44,382,-399,44,42,0,0,0,1,1.9614e+07
18802,1.9715e+07,2,128,-41,372,-399,44,42,0,0,0,1,1.9715e+07
19213,1.9815e+07,2,124,-43,375,-399,44,42,0,0,0,1,1.9815e+07
19597,1.9914e+07,2,129,-39,383,-399,44,42,0,0,0,1,1.9914e+07
20008,2.0014e+07,2,138,-40,382,-399,44,42,0,0,0,1,2.0014e+07
20416,2.0114e+07,2,133,-40,377,-399,44,42,0,0,0,1,2.0114e+07
20822,2.0214e+07,2,129,-42,386,-399,44,42,0,0,0,1,2.0214e+07
21232,2.0314e+07,2,125,-43,382,-399,44,42,0,0,0,1,2.0314e+07
21640,2.0415e+07,2,124,-39,375,-399,44,42,0,0,0,1,2.0415e+07
22047,2.0516e+07,2,131,-37,381,-399,44,42,0,0,0,1,2.0516e+07
22430,2.0616e+07,2,137,-39,382,-399,44,42,0,0,0,1,2.0616e+07
22838,2.0716e+07,2,131,-38,378,-399,44,42,0,0,0,1,2.0716e+07
23246,2.0817e+07,2,125,-40,378,-399,44,42,0,0,0,1,2.0817e+07
23660,2.0916e+07,2,129,-47,388,-399,44,42,0,0,0,1,2.0916e+07
24074,2.1017e+07,2,127,-45,375,-399,44,42,0,0,0,1,2.1017e+07
24454,2.1117e+07,2,124,-37,380,-399,44,42,0,0,0,1,2.1117e+07
24865,2.1218e+07,2,130,-43,380,-399,44,42,0,0,0,1,2.1218e+07
25275,2.1318e+07,2,129,-36,381,-399,44,42,0,0,0,1,2.1318e+07
25686,2.1419e+07,2,130,-40,382,-399,44,42,0,0,0,1,2.1419e+07
26071,2.1519e+07,2,136,-42,375,-399,44,42,0,0,0,1,2.1519e+07
26482,2.162e+07,2,133,-48,377,-399,44,42,0,0,0,1,2.162e+07
26890,2.172e+07,2,125,-47,392,-399,44,42,0,0,0,1,2.172e+07
27304,2.182e+07,2,122,-49,391,-399,44,42,0,0,0,1,2.182e+07
27714,2.192e+07,2,131,-47,391,-399,44,42,0,0,0,1,2.192e+07
28125,2.2021e+07,2,127,-44,384,-399,44,42,0,0,0,1,2.2021e+07
28531,2.2122e+07,2,130,-50,390,-399,44,42,0,0,0,1,2.2122e+07
28950,2.2224e+07,2,129,-39,387,-399,44,42,0,0,0,1,2.2224e+07
29395,2.2326e+07,2,131,-49,395,-399,44,42,0,0,0,1,2.2326e+07
29843,2.2427e+07,2,117,-53,397,-399,44,42,0,0,0,1,2.2427e+07
30261,2.2528e+07,2,114,-58,403,-399,44,42,0,0,0,1,2.2528e+07
30710,2.2631e+07,2,104,-66,418,-399,44,42,0,0,0,1,2.2631e+07
31158,2.2732e+07,2,93,-84,435,-399,44,42,0,0,0,1,2.2732e+07
31604,2.2834e+07,2,78,-103,462,-399,44,42,0,0,0,1,2.2834e+07
32055,2.2937e+07,2,74,-117,469,-399,44,42,0,0,0,1,2.2937e+07
32504,2.3039e+07,2,51,-128,488,-399,44,42,0,0,0,1,2.3039e+07
32922,2.3143e+07,2,44,-142,502,-399,44,42,0,0,0,1,2.3143e+07
33369,2.3244e+07,2,45,-131,492,-399,44,42,0,0,0,1,2.3244e+07
33817,2.3347e+07,2,64,-124,478,-399,44,42,0,0,0,1,2.3347e+07
34238,2.3448e+07,2,58,-124,473,-399,44,42,0,0,0,1,2.3448e+07
34656,2.3553e+07,2,59,-144,476,-399,44,42,0,0,0,1,2.3553e+07
35107,2.3656e+07,2,56,-151,476,-399,44,42,0,0,0,1,2.3656e+07
35554,2.3758e+07,2,55,-154,471,-399,44,42,0,0,0,1,2.3758e+07
36004,2.386e+07,2,55,-155,470,-399,44,42,0,0,0,1,2.386e+07
36454,2.396e+07,2,49,-161,486,-399,44,42,0,0,0,1,2.396e+07
36900,2.4063e+07,2,49,-151,480,-399,44,42,0,0,0,1,2.4063e+07
37318,2.4163e+07,2,58,-128,469,-399,44,42,0,0,0,1,2.4163e+07
37764,2.4265e+07,2,54,-129,469,-399,44,42,0,0,0,1,2.4265e+07
38218,2.4368e+07,2,51,-136,481,-399,44,42,0,0,0,1,2.4368e+07
38666,2.4471e+07,2,56,-139,473,-399,44,42,0,0,0,1,2.4471e+07
39114,2.4573e+07,2,46,-149,483,-399,44,42,0,0,0,1,2.4573e+07
39561,2.4677e+07,2,58,-141,470,-399,44,42,0,0,0,1,2.4677e+07
40012,2.478e+07,2,57,-151,471,-399,44,42,0,0,0,1,2.478e+07
40459,2.4884e+07,2,60,-146,479,-399,44,42,0,0,0,1,2.4884e+07
40887,2.4987e+07,2,57,-129,469,-399,44,42,0,0,0,1,2.4987e+07
41333,2.5094e+07,2,75,-129,462,-399,44,42,0,0,0,1,2.5094e+07
41779,2.5197e+07,2,78,-127,458,-399,44,42,0,0,0,1,2.5197e+07
42224,2.5303e+07,2,79,-118,461,-399,44,42,0,0,0,1,2.5303e+07
42673,2.5408e+07,2,83,-118,452,-399,44,42,0,0,0,1,2.5408e+07
43123,2.5515e+07,2,83,-135,450,-399,44,42,0,0,0,1,2.5515e+07
43538,2.562e+07,2,93,-130,444,-399,44,42,0,0,0,1,2.562e+07
43986,2.5725e+07,2,88,-129,450,-399,44,42,0,0,0,1,2.5725e+07
44432,2.5833e+07,2,83,-160,452,-399,44,42,0,0,0,1,2.5833e+07
44879,2.5938e+07,2,66,-175,461,-399,44,42,0,0,0,1,2.5938e+07
45301,2.6042e+07,2,58,-190,466,-399,44,42,0,0,0,1,2.6042e+07
45750,2.6147e+07,2,54,-189,455,-399,44,42,0,0,0,1,2.6147e+07
46197,2.6253e+07,2,59,-180,459,-399,44,42,0,0,0,1,2.6253e+07
46645,2.636e+07,2,62,-153,465,-399,44,42,0,0,0,1,2.636e+07
47061,2.6466e+07,2,88,-128,451,-399,44,42,0,0,0,1,2.6466e+07
47511,2.6574e+07,2,89,-118,453,-399,44,42,0,0,0,1,2.6574e+07
47959,2.6679e+07,2,80,-118,457,-399,44,42,0,0,0,1,2.6679e+07
48409,2.6783e+07,2,87,-113,450,-399,44,42,0,0,0,1,2.6783e+07
48821,2.6888e+07,2,80,-129,454,-399,44,42,0,0,0,1,2.6888e+07
49274,2.6995e+07,2,69,-150,462,-399,44,42,0,0,0,1,2.6995e+07
49723,2.7101e+07,2,68,-164,459,-399,44,42,0,0,0,1,2.7101e+07
50172,2.7205e+07,2,58,-185,462,-399,44,42,0,0,0,1,2.7205e+07
50618,2.731e+07,2,66,-179,456,-399,44,42,0,0,0,1,2.731e+07
51034,2.7416e+07,2,71,-169,456,-399,44,42,0,0,0,1,2.7416e+07
51482,2.752e+07,2,87,-179,446,-399,44,42,0,0,0,1,2.752e+07
51927,2.7625e+07,2,78,-185,452,-399,44,42,0,0,0,1,2.7625e+07
52377,2.773e+07,2,79,-189,455,-399,44,42,0,0,0,1,2.773e+07
52821,2.7836e+07,2,69,-189,455,-399,44,42,0,0,0,1,2.7836e+07
53272,2.7942e+07,2,67,-184,459,-399,44,42,0,0,0,1,2.7942e+07
53688,2.8047e+07,2,63,-179,448,-399,44,42,0,0,0,1,2.8047e+07
54136,2.8154e+07,2,92,-188,457,-399,44,42,0,0,0,1,2.8154e+07
54583,2.8261e+07,2,43,-190,480,-399,44,42,0,0,0,1,2.8261e+07
55033,2.8369e+07,2,63,-173,460,-399,44,42,0,0,0,1,2.8369e+07
55479,2.8476e+07,2,64,-143,457,-399,44,42,0,0,0,1,2.8476e+07
55928,2.8581e+07,2,71,-119,452,-399,44,42,0,0,0,1,2.8581e+07
56376,2.8685e+07,2,63,-109,462,-399,44,42,0,0,0,1,2.8685e+07
56822,2.879e+07,2,64,-90,457,-399,44,42,0,0,0,1,2.879e+07
57238,2.8895e+07,2,66,-78,457,-399,44,42,0,0,0,1,2.8895e+07
57689,2.9001e+07,2,69,-80,467,-399,44,42,0,0,0,1,2.9001e+07
58136,2.9108e+07,2,62,-89,466,-399,44,42,0,0,0,1,2.9108e+07
58587,2.9215e+07,2,51,-90,475,-399,44,42,0,0,0,1,2.9215e+07
59034,2.932e+07,2,40,-92,471,-399,44,42,0,0,0,1,2.932e+07
59485,2.9427e+07,2,62,-102,469,-399,44,42,0,0,0,1,2.9427e+07
59933,2.9533e+07,2,46,-127,479,-399,44,42,0,0,0,1,2.9533e+07
60349,2.9638e+07,2,46,-131,472,-399,44,42,0,0,0,1,2.9638e+07
60798,2.9744e+07,2,53,-126,471,-399,44,42,0,0,0,1,2.9744e+07
61244,2.9851e+07,2,43,-125,473,-399,44,42,0,0,0,1,2.9851e+07
61696,2.9955e+07,2,48,-123,469,-399,44,42,0,0,0,1,2.9955e+07
62141,3.006e+07,2,41,-110,475,-399,44,42,0,0,0,1,3.006e+07
62559,3.0165e+07,2,59,-96,465,-399,44,42,0,0,0,1,3.0165e+07
63010,3.0269e+07,2,57,-99,473,-399,44,42,0,0,0,1,3.0269e+07
63425,3.0375e+07,2,49,-97,485,-399,44,42,0,0,0,1,3.0375e+07
63874,3.0479e+07,2,57,-94,469,-399,44,42,0,0,0,1,3.0479e+07
64323,3.0585e+07,2,63,-94,470,-399,44,42,0,0,0,1,3.0585e+07
64738,3.0689e+07,2,72,-96,463,-399,44,42,0,0,0,1,3.0689e+07
65187,3.0793e+07,2,78,-91,455,-399,44,42,0,0,0,1,3.0793e+07
65635,3.0898e+07,2,78,-103,465,-399,44,42,0,0,0,1,3.0898e+07
66081,3.1005e+07,2,71,-99,459,-399,44,42,0,0,0,1,3.1005e+07
66495,3.111e+07,2,80,-97,454,-399,44,42,0,0,0,1,3.111e+07
66946,3.1215e+07,2,92,-103,444,-399,44,42,0,0,0,1,3.1215e+07
67362,3.132e+07,2,94,-124,447,-399,44,42,0,0,0,1,3.132e+07
67814,3.1426e+07,2,97,-129,438,-399,44,42,0,0,0,1,3.1426e+07
68260,3.153e+07,2,93,-133,449,-399,44,42,0,0,0,1,3.153e+07
68708,3.1636e+07,2,92,-129,449,-399,44,42,0,0,0,1,3.1636e+07
69157,3.1741e+07,2,83,-143,449,-399,44,42,0,0,0,1,3.1741e+07
69604,3.1847e+07,2,82,-151,451,-399,44,42,0,0,0,1,3.1847e+07
70054,3.1953e+07,2,84,-168,453,-399,44,42,0,0,0,1,3.1953e+07
70501,3.2059e+07,2,86,-168,462,-399,44,42,0,0,0,1,3.2059e+07
70949,3.2165e+07,2,81,-156,453,-399,44,42,0,0,0,1,3.2165e+07
71397,3.2269e+07,2,73,-162,454,-399,44,42,0,0,0,1,3.2269e+07
71848,3.2375e+07,2,78,-157,450,-399,44,42,0,0,0,1,3.2375e+07
72265,3.248e+07,2,80,-153,455,-399,44,42,0,0,0,1,3.248e+07
72713,3.2587e+07,2,87,-149,451,-399,44,42,0,0,0,1,3.2587e+07
73161,3.2693e+07,2,85,-134,448,-399,44,42,0,0,0,1,3.2693e+07
73608,3.2799e+07,2,91,-132,438,-399,44,42,0,0,0,1,3.2799e+07
74055,3.2905e+07,2,97,-129,433,-399,44,42,0,0,0,1,3.2905e+07
74473,3.301e+07,2,101,-126,434,-399,44,42,0,0,0,1,3.301e+07
74919,3.3115e+07,2,93,-124,435,-399,44,42,0,0,0,1,3.3115e+07
75367,3.322e+07,2,90,-127,451,-399,44,42,0,0,0,1,3.322e+07
75815,3.3325e+07,2,75,-135,463,-399,44,42,0,0,0,1,3.3325e+07
76234,3.3432e+07,2,97,-123,444,-399,44,42,0,0,0,1,3.3432e+07
76684,3.3539e+07,2,86,-122,452,-399,44,42,0,0,0,1,3.3539e+07
77098,3.3643e+07,2,78,-138,467,-399,44,42,0,0,0,1,3.3643e+07
77545,3.3749e+07,2,77,-131,471,-399,44,42,0,0,0,1,3.3749e+07
77959,3.3852e+07,2,79,-125,459,-399,44,42,0,0,0,1,3.3852e+07
78407,3.3956e+07,2,75,-145,468,-399,44,42,0,0,0,1,3.3956e+07
78821,3.4063e+07,2,59,-168,474,-399,44,42,0,0,0,1,3.4063e+07
79270,3.4168e+07,2,58,-173,469,-399,44,42,0,0,0,1,3.4168e+07
79718,3.4274e+07,2,57,-195,472,-399,44,42,0,0,0,1,3.4274e+07
80165,3.438e+07,2,61,-197,470,-399,44,42,0,0,0,1,3.438e+07
80616,3.4484e+07,2,44,-197,478,-399,44,42,0,0,0,1,3.4484e+07
81065,3.459e+07,2,38,-166,480,-399,44,42,0,0,0,1,3.459e+07
81479,3.4695e+07,2,47,-140,477,-399,44,42,0,0,0,1,3.4695e+07
81925,3.4802e+07,2,40,-129,484,-399,44,42,0,0,0,1,3.4802e+07
82375,3.4908e+07,2,45,-123,477,-399,44,42,0,0,0,1,3.4908e+07
82823,3.5015e+07,2,55,-117,471,-399,44,42,0,0,0,1,3.5015e+07
83235,3.512e+07,2,64,-118,464,-399,44,42,0,0,0,1,3.512e+07
83684,3.5226e+07,2,65,-126,458,-399,44,42,0,0,0,1,3.5226e+07
84134,3.5331e+07,2,62,-138,461,-399,44,42,0,0,0,1,3.5331e+07
84583,3.5437e+07,2,68,-139,459,-399,44,42,0,0,0,1,3.5437e+07
85033,3.5544e+07,2,59,-137,459,-399,44,42,0,0,0,1,3.5544e+07
85447,3.5649e+07,2,63,-122,457,-399,44,42,0,0,0,1,3.5649e+07
85896,3.5756e+07,2,61,-146,471,-399,44,42,0,0,0,1,3.5756e+07
86311,3.5862e+07,2,40,-133,475,-399,44,42,0,0,0,1,3.5862e+07
86759,3.5967e+07,2,38,-138,482,-399,44,42,0,0,0,1,3.5967e+07
87206,3.6071e+07,2,25,-141,494,-399,44,42,0,0,0,1,3.6071e+07
87651,3.6176e+07,2,25,-133,498,-399,44,42,0,0,0,1,3.6176e+07
88067,3.6279e+07,2,28,-125,484,-399,44,42,0,0,0,1,3.6279e+07
88514,3.6385e+07,2,30,-143,499,-399,44,42,0,0,0,1,3.6385e+07
88928,3.649e+07,2,40,-137,492,-399,44,42,0,0,0,1,3.649e+07
89380,3.6594e+07,2,38,-125,488,-399,44,42,0,0,0,1,3.6594e+07
89828,3.6699e+07,2,63,-108,484,-399,44,42,0,0,0,1,3.6699e+07
90276,3.6804e+07,2,48,-90,489,-399,44,42,0,0,0,1,3.6804e+07
90693,3.691e+07,2,50,-75,484,-399,44,42,0,0,0,1,3.691e+07
91141,3.7015e+07,2,52,-80,479,-399,44,42,0,0,0,1,3.7015e+07
91590,3.7121e+07,2,54,-115,483,-399,44,42,0,0,0,1,3.7121e+07
92034,3.7227e+07,2,54,-120,480,-399,44,42,0,0,0,1,3.7227e+07
92484,3.7333e+07,2,66,-144,476,-399,44,42,0,0,0,1,3.7333e+07
92932,3.7438e+07,2,63,-149,457,-399,44,42,0,0,0,1,3.7438e+07
93380,3.7543e+07,2,58,-150,475,-399,44,42,0,0,0,1,3.7543e+07
93829,3.765e+07,2,48,-168,477,-399,44,42,0,0,0,1,3.765e+07
94246,3.7756e+07,2,42,-168,465,-399,44,42,0,0,0,1,3.7756e+07
94693,3.7861e+07,2,47,-165,490,-399,44,42,0,0,0,1,3.7861e+07
95143,3.7967e+07,2,45,-146,473,-399,44,42,0,0,0,1,3.7967e+07
95559,3.8072e+07,2,60,-126,472,-399,44,42,0,0,0,1,3.8072e+07
96004,3.8176e+07,2,74,-99,464,-399,44,42,0,0,0,1,3.8176e+07
96449,3.8281e+07,2,87,-97,455,-399,44,42,0,0,0,1,3.8281e+07
96865,3.8386e+07,2,89,-88,453,-399,44,42,0,0,0,1,3.8386e+07
97307,3.849e+07,2,77,-93,457,-399,44,42,0,0,0,1,3.849e+07
97754,3.8594e+07,2,75,-110,466,-399,44,42,0,0,0,1,3.8594e+07
98172,3.8699e+07,2,76,-127,472,-399,44,42,0,0,0,1,3.8699e+07
98617,3.8806e+07,2,59,-141,432,-399,44,42,0,0,0,1,3.8806e+07
99066,3.8911e+07,2,51,-162,483,-399,44,42,0,0,0,1,3.8911e+07
99483,3.9019e+07,2,62,-164,480,-399,44,42,0,0,0,1,3.9019e+07
99930,3.9124e+07,2,56,-154,477,-399,44,42,0,0,0,1,3.9124e+07
1.0038e+05,3.9228e+07,2,59,-160,470,-399,44,42,0,0,0,1,3.9228e+07
1.0082e+05,3.9333e+07,2,60,-148,471,-399,44,42,0,0,0,1,3.9333e+07
1.0127e+05,3.9438e+07,2,60,-126,471,-399,44,42,0,0,0,1,3.9438e+07
1.0172e+05,3.9544e+07,2,53,-123,473,-399,44,42,0,0,0,1,3.9544e+07
1.0217e+05,3.9648e+07,2,64,-112,472,-399,44,42,0,0,0,1,3.9648e+07
1.0259e+05,3.9753e+07,2,69,-104,464,-399,44,42,0,0,0,1,3.9753e+07
1.0304e+05,3.9857e+07,2,71,-99,456,-399,44,42,0,0,0,1,3.9857e+07
1.0345e+05,3.9963e+07,2,71,-93,460,-399,44,42,0,0,0,1,3.9963e+07
1.0389e+05,4.0068e+07,2,81,-93,455,-399,44,42,0,0,0,1,4.0068e+07
1.0434e+05,4.0173e+07,2,74,-105,464,-399,44,42,0,0,0,1,4.0173e+07
1.0478e+05,4.0279e+07,2,57,-99,471,-399,44,42,0,0,0,1,4.0279e+07
1.052e+05,4.0384e+07,2,59,-116,469,-399,44,42,0,0,0,1,4.0384e+07
1.0565e+05,4.0489e+07,2,70,-122,463,-399,44,42,0,0,0,1,4.0489e+07
1.0606e+05,4.0595e+07,2,64,-131,469,-399,44,42,0,0,0,1,4.0595e+07
1.0651e+05,4.0701e+07,2,63,-120,466,-399,44,42,0,0,0,1,4.0701e+07
1.0696e+05,4.0807e+07,2,64,-114,472,-399,44,42,0,0,0,1,4.0807e+07
1.0741e+05,4.0913e+07,2,63,-124,472,-399,44,42,0,0,0,1,4.0913e+07
1.0785e+05,4.1018e+07,2,62,-121,465,-399,44,42,0,0,0,1,4.1018e+07
1.083e+05,4.1125e+07,2,54,-119,474,-399,44,42,0,0,0,1,4.1125e+07
1.0874e+05,4.123e+07,2,59,-139,466,-399,44,42,0,0,0,1,4.123e+07
1.0919e+05,4.1336e+07,2,66,-153,466,-399,44,42,0,0,0,1,4.1336e+07
1.0964e+05,4.144e+07,2,54,-164,463,-399,44,42,0,0,0,1,4.144e+07
1.1005e+05,4.1544e+07,2,57,-157,467,-399,44,42,0,0,0,1,4.1544e+07
1.105e+05,4.1649e+07,2,57,-160,467,-399,44,42,0,0,0,1,4.1649e+07
1.1095e+05,4.1755e+07,2,67,-168,469,-399,44,42,0,0,0,1,4.1755e+07
1.114e+05,4.186e+07,2,57,-165,468,-399,44,42,0,0,0,1,4.186e+07
1.1184e+05,4.1964e+07,2,54,-148,473,-399,44,42,0,0,0,1,4.1964e+07
1.1229e+05,4.2069e+07,2,50,-140,475,-399,44,42,0,0,0,1,4.2069e+07
1.1273e+05,4.2175e+07,2,65,-126,468,-399,44,42,0,0,0,1,4.2175e+07
1.1315e+05,4.2279e+07,2,60,-130,470,-399,44,42,0,0,0,1,4.2279e+07
1.136e+05,4.2386e+07,2,52,-135,472,-399,44,42,0,0,0,1,4.2386e+07
1.1401e+05,4.2491e+07,2,63,-130,470,-399,44,42,0,0,0,1,4.2491e+07
1.1445e+05,4.2597e+07,2,57,-140,475,-399,44,42,0,0,0,1,4.2597e+07
1.149e+05,4.2703e+07,2,58,-134,476,-399,44,42,0,0,0,1,4.2703e+07
1.1532e+05,4.2808e+07,2,54,-135,476,-399,44,42,0,0,0,1,4.2808e+07
1.1576e+05,4.2915e+07,2,51,-136,479,-399,44,42,0,0,0,1,4.2915e+07
1.1618e+05,4.302e+07,2,51,-132,473,-399,44,42,0,0,0,1,4.302e+07
1.1663e+05,4.3125e+07,2,53,-132,468,-399,44,42,0,0,0,1,4.3125e+07
1.1707e+05,4.323e+07,2,54,-139,469,-399,44,42,0,0,0,1,4.323e+07
1.1752e+05,4.3334e+07,2,67,-147,468,-399,44,42,0,0,0,1,4.3334e+07
1.1797e+05,4.3439e+07,2,65,-155,466,-399,44,42,0,0,0,1,4.3439e+07
1.1838e+05,4.3543e+07,2,50,-143,474,-399,44,42,0,0,0,1,4.3543e+07
1.1883e+05,4.3648e+07,2,49,-145,485,-399,44,42,0,0,0,1,4.3648e+07
1.1927e+05,4.3754e+07,2,49,-148,477,-399,44,42,0,0,0,1,4.3754e+07
1.1972e+05,4.3859e+07,2,43,-149,479,-399,44,42,0,0,0,1,4.3859e+07
1.2017e+05,4.3964e+07,2,47,-148,471,-399,44,42,0,0,0,1,4.3964e+07
1.2061e+05,4.4067e+07,2,54,-151,472,-399,44,42,0,0,0,1,4.4067e+07
1.2106e+05,4.4172e+07,2,47,-146,480,-399,44,42,0,0,0,1,4.4172e+07
1.2147e+05,4.4276e+07,2,58,-162,473,-399,44,42,0,0,0,1,4.4276e+07
1.2192e+05,4.4382e+07,2,51,-174,477,-399,44,42,0,0,0,1,4.4382e+07
1.2237e+05,4.4487e+07,2,59,-157,467,-399,44,42,0,0,0,1,4.4487e+07
1.2281e+05,4.4592e+07,2,75,-139,444,-399,44,42,0,0,0,1,4.4592e+07
1.2326e+05,4.4696e+07,2,80,-137,451,-399,44,42,0,0,0,1,4.4696e+07
1.237e+05,4.48e+07,2,76,-133,455,-399,44,42,0,0,0,1,4.48e+07
1.2412e+05,4.4904e+07,2,70,-149,454,-399,44,42,0,0,0,1,4.4904e+07
1.2457e+05,4.501e+07,2,68,-147,456,-399,44,42,0,0,0,1,4.501e+07
1.2501e+05,4.5114e+07,2,64,-143,470,-399,44,42,0,0,0,1,4.5114e+07
1.2546e+05,4.5219e+07,2,58,-158,472,-399,44,42,0,0,0,1,4.5219e+07
1.2585e+05,4.5324e+07,2,54,-154,474,-399,44,42,0,0,0,1,4.5324e+07
1.2629e+05,4.5429e+07,2,42,-154,474,-399,44,42,0,0,0,1,4.5429e+07
1.2674e+05,4.5535e+07,2,53,-156,477,-399,44,42,0,0,0,1,4.5535e+07
1.2718e+05,4.564e+07,2,34,-164,488,-399,44,42,0,0,0,1,4.564e+07
1.276e+05,4.5745e+07,2,49,-163,474,-399,44,42,0,0,0,1,4.5745e+07
1.2804e+05,4.585e+07,2,41,-168,473,-399,44,42,0,0,0,1,4.585e+07
1.2849e+05,4.5957e+07,2,36,-168,476,-399,44,42,0,0,0,1,4.5956e+07
1.2894e+05,4.6062e+07,2,35,-172,473,-399,44,42,0,0,0,1,4.6062e+07
1.2936e+05,4.6167e+07,2,58,-181,480,-399,44,42,0,0,0,1,4.6167e+07
1.298e+05,4.6274e+07,2,52,-177,481,-399,44,42,0,0,0,1,4.6274e+07
1.3025e+05,4.6379e+07,2,63,-174,475,-399,44,42,0,0,0,1,4.6379e+07
1.3069e+05,4.6485e+07,2,66,-159,473,-399,44,42,0,0,0,1,4.6485e+07
1.3111e+05,4.659e+07,2,50,-157,470,-399,44,42,0,0,0,1,4.659e+07
1.3155e+05,4.6695e+07,2,50,-152,457,-399,44,42,0,0,0,1,4.6695e+07
1.319e+05,4.68e+07,2,39,-139,467,-399,44,42,0,0,0,1,4.68e+07
1.3234e+05,4.6903e+07,2,52,-116,460,-399,44,42,0,0,0,1,4.6903e+07
1.3278e+05,4.7009e+07,2,49,-121,461,-399,44,42,0,0,0,1,4.7009e+07
1.3323e+05,4.7115e+07,2,44,-125,484,-399,44,42,0,0,0,1,4.7115e+07
1.3365e+05,4.722e+07,2,44,-137,494,-399,44,42,0,0,0,1,4.722e+07
1.341e+05,4.7326e+07,2,52,-141,494,-399,44,42,0,0,0,1,4.7326e+07
1.3454e+05,4.7432e+07,2,34,-152,492,-399,44,42,0,0,0,1,4.7432e+07
1.3496e+05,4.7536e+07,2,27,-152,489,-399,44,42,0,0,0,1,4.7536e+07
1.354e+05,4.7642e+07,2,30,-143,470,-399,44,42,0,0,0,1,4.7642e+07
1.3585e+05,4.7748e+07,2,27,-141,475,-399,44,42,0,0,0,1,4.7748e+07
1.3629e+05,4.7852e+07,2,29,-138,467,-399,44,42,0,0,0,1,4.7852e+07
1.3674e+05,4.7958e+07,2,40,-133,463,-399,44,42,0,0,0,1,4.7958e+07
1.3718e+05,4.8063e+07,2,59,-134,471,-399,44,42,0,0,0,1,4.8063e+07
1.376e+05,4.8169e+07,2,47,-130,489,-399,44,42,0,0,0,1,4.8169e+07
1.3805e+05,4.8273e+07,2,61,-121,477,-399,44,42,0,0,0,1,4.8273e+07
1.3849e+05,4.8379e+07,2,61,-115,474,-399,44,42,0,0,0,1,4.8379e+07
1.3894e+05,4.8485e+07,2,60,-128,477,-399,44,42,0,0,0,1,4.8485e+07
1.3938e+05,4.8592e+07,2,51,-137,472,-399,44,42,0,0,0,1,4.8592e+07
1.398e+05,4.8699e+07,2,39,-135,465,-399,44,42,0,0,0,1,4.8699e+07
1.4025e+05,4.8806e+07,2,35,-147,462,-399,44,42,0,0,0,1,4.8806e+07
1.4069e+05,4.8912e+07,2,30,-154,472,-399,44,42,0,0,0,1,4.8912e+07
1.4114e+05,4.9018e+07,2,22,-164,469,-399,44,42,0,0,0,1,4.9018e+07
1.4158e+05,4.9122e+07,2,31,-157,486,-399,44,42,0,0,0,1,4.9122e+07
1.42e+05,4.9229e+07,2,37,-166,497,-399,44,42,0,0,0,1,4.9229e+07
1.4245e+05,4.9336e+07,2,39,-161,494,-399,44,42,0,0,0,1,4.9336e+07
1.429e+05,4.9443e+07,2,43,-151,489,-399,44,42,0,0,0,1,4.9443e+07
1.4331e+05,4.955e+07,2,47,-157,487,-399,44,42,0,0,0,1,4.955e+07
1.4376e+05,4.9655e+07,2,39,-152,462,-399,44,42,0,0,0,1,4.9655e+07
1.442e+05,4.9762e+07,2,30,-151,471,-399,44,42,0,0,0,1,4.9762e+07
1.4465e+05,4.9867e+07,2,40,-139,462,-399,44,42,0,0,0,1,4.9867e+07
1.451e+05,4.9972e+07,2,39,-149,469,-399,44,42,0,0,0,1,4.9972e+07
1.4551e+05,5.0076e+07,2,37,-156,487,-399,44,42,0,0,0,1,5.0076e+07
1.4596e+05,5.0181e+07,2,55,-144,481,-399,44,42,0,0,0,1,5.0181e+07
1.4637e+05,5.0287e+07,2,50,-144,484,-399,44,42,0,0,0,1,5.0287e+07
1.4682e+05,5.0392e+07,2,43,-150,491,-399,44,42,0,0,0,1,5.0392e+07
1.4723e+05,5.0496e+07,2,44,-144,492,-399,44,42,0,0,0,1,5.0496e+07
1.4768e+05,5.0602e+07,2,39,-142,479,-399,44,42,0,0,0,1,5.0602e+07
1.4813e+05,5.0707e+07,2,33,-136,469,-399,44,42,0,0,0,1,5.0707e+07
1.4857e+05,5.0812e+07,2,46,-144,465,-399,44,42,0,0,0,1,5.0812e+07
1.4902e+05,5.0917e+07,2,39,-135,466,-399,44,42,0,0,0,1,5.0917e+07
1.4946e+05,5.1025e+07,2,44,-153,467,-399,44,42,0,0,0,1,5.1024e+07
1.4988e+05,5.113e+07,2,47,-160,492,-399,44,42,0,0,0,1,5.113e+07
1.5033e+05,5.1236e+07,2,51,-153,495,-399,44,42,0,0,0,1,5.1236e+07
1.5077e+05,5.1341e+07,2,49,-154,488,-399,44,42,0,0,0,1,5.1341e+07
1.5122e+05,5.1446e+07,2,45,-152,493,-399,44,42,0,0,0,1,5.1446e+07
1.5167e+05,5.1552e+07,2,36,-164,492,-399,44,42,0,0,0,1,5.1552e+07
1.5211e+05,5.1658e+07,2,24,-149,470,-399,44,42,0,0,0,1,5.1658e+07
1.5253e+05,5.1764e+07,2,25,-140,476,-399,44,42,0,0,0,1,5.1764e+07
1.5298e+05,5.1869e+07,2,23,-141,475,-399,44,42,0,0,0,1,5.1869e+07
1.5342e+05,5.1975e+07,2,34,-136,474,-399,44,42,0,0,0,1,5.1975e+07
1.5387e+05,5.2081e+07,2,40,-136,484,-399,44,42,0,0,0,1,5.2081e+07
1.5432e+05,5.2187e+07,2,70,-121,469,-399,44,42,0,0,0,1,5.2187e+07
1.5476e+05,5.229e+07,2,93,-124,459,-399,44,42,0,0,0,1,5.229e+07
1.5521e+05,5.2396e+07,2,79,-145,476,-399,44,42,0,0,0,1,5.2396e+07
1.5562e+05,5.2502e+07,2,72,-146,470,-399,44,42,0,0,0,1,5.2502e+07
1.5607e+05,5.2608e+07,2,61,-148,469,-399,44,42,0,0,0,1,5.2608e+07
1.5652e+05,5.2712e+07,2,58,-134,458,-399,44,42,0,0,0,1,5.2712e+07
1.5693e+05,5.2818e+07,2,66,-128,455,-399,44,42,0,0,0,1,5.2818e+07
1.5738e+05,5.2923e+07,2,63,-126,452,-399,44,42,0,0,0,1,5.2923e+07
1.5783e+05,5.3029e+07,2,60,-124,462,-399,44,42,0,0,0,1,5.3029e+07
1.5827e+05,5.3136e+07,2,78,-129,470,-399,44,42,0,0,0,1,5.3136e+07
1.5872e+05,5.3241e+07,2,68,-141,475,-399,44,42,0,0,0,1,5.3241e+07
1.5917e+05,5.3348e+07,2,69,-130,473,-399,44,42,0,0,0,1,5.3348e+07
1.5961e+05,5.3453e+07,2,54,-137,475,-399,44,42,0,0,0,1,5.3453e+07
1.6006e+05,5.3558e+07,2,48,-152,489,-399,44,42,0,0,0,1,5.3558e+07
1.6051e+05,5.3663e+07,2,18,-159,476,-399,44,42,0,0,0,1,5.3663e+07
1.6092e+05,5.377e+07,2,25,-188,479,-399,44,42,0,0,0,1,5.377e+07
1.6136e+05,5.3875e+07,2,18,-206,474,-399,44,42,0,0,0,1,5.3875e+07
1.6181e+05,5.3981e+07,2,10,-216,488,-399,44,42,0,0,0,1,5.3981e+07
1.6226e+05,5.4086e+07,2,10,-217,500,-399,44,42,0,0,0,1,5.4086e+07
1.627e+05,5.4191e+07,2,37,-214,501,-399,44,42,0,0,0,1,5.4191e+07
1.6312e+05,5.4296e+07,2,44,-203,487,-399,44,42,0,0,0,1,5.4296e+07
1.6357e+05,5.4399e+07,2,55,-181,475,-399,44,42,0,0,0,1,5.4399e+07
1.6401e+05,5.4504e+07,2,67,-186,473,-399,44,42,0,0,0,1,5.4504e+07
1.6446e+05,5.4611e+07,2,49,-180,464,-399,44,42,0,0,0,1,5.4611e+07
1.6488e+05,5.4715e+07,2,45,-182,461,-399,44,42,0,0,0,1,5.4715e+07
1.6532e+05,5.482e+07,2,44,-183,457,-399,44,42,0,0,0,1,5.482e+07
1.6574e+05,5.4926e+07,2,54,-182,458,-399,44,42,0,0,0,1,5.4926e+07
1.6618e+05,5.5033e+07,2,51,-170,454,-399,44,42,0,0,0,1,5.5033e+07
1.6663e+05,5.5138e+07,2,72,-154,461,-399,44,42,0,0,0,1,5.5138e+07
1.6708e+05,5.5245e+07,2,80,-155,465,-399,44,42,0,0,0,1,5.5245e+07
1.6753e+05,5.5351e+07,2,70,-172,478,-399,44,42,0,0,0,1,5.5351e+07
1.6794e+05,5.5456e+07,2,68,-169,480,-399,44,42,0,0,0,1,5.5456e+07
1.6839e+05,5.5564e+07,2,68,-160,470,-399,44,42,0,0,0,1,5.5564e+07
1.6883e+05,5.5669e+07,2,60,-151,450,-399,44,42,0,0,0,1,5.5669e+07
1.6928e+05,5.5775e+07,2,61,-148,443,-399,44,42,0,0,0,1,5.5775e+07
1.6973e+05,5.5879e+07,2,76,-137,454,-399,44,42,0,0,0,1,5.5879e+07
1.7018e+05,5.5983e+07,2,67,-149,441,-399,44,42,0,0,0,1,5.5983e+07
1.7062e+05,5.6088e+07,2,51,-166,471,-399,44,42,0,0,0,1,5.6088e+07
1.7107e+05,5.6191e+07,2,48,-167,490,-399,44,42,0,0,0,1,5.6191e+07
1.7151e+05,5.6296e+07,2,33,-175,492,-399,44,42,0,0,0,1,5.6296e+07
1.7196e+05,5.6401e+07,2,40,-184,484,-399,44,42,0,0,0,1,5.6401e+07
1.7237e+05,5.6506e+07,2,38,-188,491,-399,44,42,0,0,0,1,5.6506e+07
1.7282e+05,5.6611e+07,2,27,-178,472,-399,44,42,0,0,0,1,5.6611e+07
1.7327e+05,5.6717e+07,2,33,-159,464,-399,44,42,0,0,0,1,5.6717e+07
1.7372e+05,5.6821e+07,2,30,-155,471,-399,44,42,0,0,0,1,5.6821e+07
1.7416e+05,5.6925e+07,2,32,-157,474,-399,44,42,0,0,0,1,5.6925e+07
1.7461e+05,5.7029e+07,2,27,-142,475,-399,44,42,0,0,0,1,5.7029e+07
1.7506e+05,5.7134e+07,2,28,-112,495,-399,44,42,0,0,0,1,5.7134e+07
1.755e+05,5.7239e+07,2,37,-92,496,-399,44,42,0,0,0,1,5.7239e+07
1.7595e+05,5.7343e+07,2,39,-70,487,-399,44,42,0,0,0,1,5.7343e+07
1.764e+05,5.7449e+07,2,34,-70,486,-399,44,42,0,0,0,1,5.7449e+07
1.7681e+05,5.7555e+07,2,38,-50,480,-399,44,42,0,0,0,1,5.7555e+07
1.7726e+05,5.766e+07,2,18,-63,525,-399,44,42,0,0,0,1,5.766e+07
1.7771e+05,5.7765e+07,2,16,-74,444,-399,44,42,0,0,0,1,5.7765e+07
1.7815e+05,5.787e+07,2,18,-73,477,-399,44,42,0,0,0,1,5.787e+07
1.7857e+05,5.7974e+07,2,13,-77,478,-399,44,42,0,0,0,1,5.7974e+07
1.7901e+05,5.808e+07,2,30,-79,479,-399,44,42,0,0,0,1,5.808e+07
1.7946e+05,5.8184e+07,2,39,-91,491,-399,44,42,0,0,0,1,5.8184e+07
1.799e+05,5.829e+07,2,35,-102,499,-399,44,42,0,0,0,1,5.829e+07
1.8032e+05,5.8396e+07,2,34,-102,501,-399,44,42,0,0,0,1,5.8396e+07
1.8076e+05,5.85e+07,2,32,-98,493,-399,44,42,0,0,0,1,5.85e+07
1.8121e+05,5.8605e+07,2,29,-107,491,-399,44,42,0,0,0,1,5.8605e+07
1.8162e+05,5.871e+07,2,30,-99,482,-399,44,42,0,0,0,1,5.871e+07
1.8207e+05,5.8818e+07,2,30,-110,483,-399,44,42,0,0,0,1,5.8818e+07
1.8252e+05,5.8923e+07,2,29,-109,477,-399,44,42,0,0,0,1,5.8923e+07
1.8293e+05,5.9028e+07,2,31,-118,485,-399,44,42,0,0,0,1,5.9028e+07
1.8337e+05,5.9134e+07,2,38,-132,503,-399,44,42,0,0,0,1,5.9134e+07
1.8382e+05,5.9242e+07,2,39,-139,497,-399,44,42,0,0,0,1,5.9242e+07
1.8427e+05,5.9346e+07,2,36,-132,499,-399,44,42,0,0,0,1,5.9346e+07
1.8468e+05,5.945e+07,2,40,-127,492,-399,44,42,0,0,0,1,5.945e+07
1.8513e+05,5.9555e+07,2,41,-134,484,-399,44,42,0,0,0,1,5.9555e+07
1.8558e+05,5.966e+07,2,44,-117,465,-399,44,42,0,0,0,1,5.966e+07
1.8603e+05,5.9766e+07,2,41,-125,470,-399,44,42,0,0,0,1,5.9766e+07
1.8647e+05,5.9872e+07,2,55,-109,467,-399,44,42,0,0,0,1,5.9872e+07
1.8689e+05,5.9978e+07,2,53,-108,463,-399,44,42,0,0,0,1,5.9978e+07
1.8733e+05,6.0083e+07,2,65,-101,467,-399,44,42,0,0,0,1,6.0083e+07
1.8778e+05,6.0189e+07,2,74,-96,473,-399,44,42,0,0,0,1,6.0189e+07
1.8823e+05,6.0294e+07,2,69,-96,483,-399,44,42,0,0,0,1,6.0294e+07
1.8864e+05,6.0401e+07,2,67,-89,474,-399,44,42,0,0,0,1,6.0401e+07
1.8909e+05,6.0506e+07,2,72,-86,475,-399,44,42,0,0,0,1,6.0506e+07
1.8954e+05,6.0611e+07,2,46,-91,468,-399,44,42,0,0,0,1,6.0611e+07
1.8995e+05,6.0719e+07,2,60,-87,455,-399,44,42,0,0,0,1,6.0719e+07
1.904e+05,6.0825e+07,2,55,-98,456,-399,44,42,0,0,0,1,6.0825e+07
1.9085e+05,6.0931e+07,2,60,-120,457,-399,44,42,0,0,0,1,6.0931e+07
1.9126e+05,6.1038e+07,2,70,-123,448,-399,44,42,0,0,0,1,6.1038e+07
1.9171e+05,6.1144e+07,2,84,-139,461,-399,44,42,0,0,0,1,6.1144e+07
1.9215e+05,6.1249e+07,2,90,-148,471,-399,44,42,0,0,0,1,6.1249e+07
1.926e+05,6.1354e+07,2,91,-146,465,-399,44,42,0,0,0,1,6.1354e+07
1.9304e+05,6.146e+07,2,88,-151,462,-399,44,42,0,0,0,1,6.146e+07
1.9349e+05,6.1565e+07,2,83,-146,449,-399,44,42,0,0,0,1,6.1565e+07
1.939e+05,6.1669e+07,2,86,-132,426,-399,44,42,0,0,0,1,6.1669e+07
1.9432e+05,6.1775e+07,2,84,-137,436,-399,44,42,0,0,0,1,6.1775e+07
1.9477e+05,6.1879e+07,2,90,-136,432,-399,44,42,0,0,0,1,6.1879e+07
1.9522e+05,6.1985e+07,2,82,-125,438,-399,44,42,0,0,0,1,6.1985e+07
1.9563e+05,6.2089e+07,2,84,-127,448,-399,44,42,0,0,0,1,6.2089e+07
1.9604e+05,6.2194e+07,2,89,-124,459,-399,44,42,0,0,0,1,6.2194e+07
1.9649e+05,6.23e+07,2,74,-123,471,-399,44,42,0,0,0,1,6.23e+07
1.9694e+05,6.2405e+07,2,71,-114,472,-399,44,42,0,0,0,1,6.2405e+07
1.9738e+05,6.2511e+07,2,77,-106,465,-399,44,42,0,0,0,1,6.2511e+07
1.9783e+05,6.2616e+07,2,65,-111,464,-399,44,42,0,0,0,1,6.2616e+07
1.9824e+05,6.2721e+07,2,50,-114,455,-399,44,42,0,0,0,1,6.2721e+07
1.9869e+05,6.2827e+07,2,43,-107,461,-399,44,42,0,0,0,1,6.2827e+07
1.9913e+05,6.2934e+07,2,45,-112,462,-399,44,42,0,0,0,1,6.2934e+07
1.9955e+05,6.3039e+07,2,44,-112,469,-399,44,42,0,0,0,1,6.3039e+07
2e+05,6.3144e+07,2,18,-101,481,-399,44,42,0,0,0,1,6.3144e+07
2.0044e+05,6.3248e+07,2,55,-97,485,-399,44,42,0,0,0,1,6.3248e+07
2.0086e+05,6.3352e+07,2,61,-88,481,-399,44,42,0,0,0,1,6.3352e+07
2.013e+05,6.3457e+07,2,72,-93,471,-399,44,42,0,0,0,1,6.3457e+07
2.0172e+05,6.3562e+07,2,64,-94,465,-399,44,42,0,0,0,1,6.3561e+07
2.0216e+05,6.3667e+07,2,60,-86,456,-399,44,42,0,0,0,1,6.3667e+07
2.0261e+05,6.3775e+07,2,62,-98,446,-399,44,42,0,0,0,1,6.3775e+07
2.0302e+05,6.3879e+07,2,71,-93,439,-399,44,42,0,0,0,1,6.3878e+07
2.0347e+05,6.3984e+07,2,62,-110,455,-399,44,42,0,0,0,1,6.3984e+07
2.0392e+05,6.4087e+07,2,63,-111,461,-399,44,42,0,0,0,1,6.4087e+07
2.0437e+05,6.4193e+07,2,59,-116,478,-399,44,42,0,0,0,1,6.4193e+07
2.0478e+05,6.4297e+07,2,61,-106,477,-399,44,42,0,0,0,1,6.4297e+07
2.0523e+05,6.4403e+07,2,71,-105,476,-399,44,42,0,0,0,1,6.4403e+07
2.0567e+05,6.4507e+07,2,61,-110,478,-399,44,42,0,0,0,1,6.4507e+07
2.0612e+05,6.4612e+07,2,60,-104,463,-399,44,42,0,0,0,1,6.4612e+07
2.0653e+05,6.4716e+07,2,48,-113,468,-399,44,42,0,0,0,1,6.4716e+07
2.0698e+05,6.4821e+07,2,48,-110,459,-399,44,42,0,0,0,1,6.4821e+07
2.0742e+05,6.4924e+07,2,49,-111,455,-399,44,42,0,0,0,1,6.4924e+07
2.0786e+05,6.5028e+07,2,35,-117,466,-399,44,42,0,0,0,1,6.5028e+07
2.0828e+05,6.5133e+07,2,45,-119,489,-399,44,42,0,0,0,1,6.5133e+07
2.0872e+05,6.5237e+07,2,45,-120,493,-399,44,42,0,0,0,1,6.5237e+07
2.0917e+05,6.5342e+07,2,56,-125,486,-399,44,42,0,0,0,1,6.5342e+07
2.0961e+05,6.5448e+07,2,58,-112,479,-399,44,42,0,0,0,1,6.5448e+07
2.1006e+05,6.5554e+07,2,52,-125,483,-399,44,42,0,0,0,1,6.5554e+07
2.105e+05,6.5658e+07,2,44,-107,463,-399,44,42,0,0,0,1,6.5658e+07
2.1095e+05,6.5763e+07,2,33,-109,468,-399,44,42,0,0,0,1,6.5763e+07
2.1139e+05,6.5867e+07,2,37,-108,468,-399,44,42,0,0,0,1,6.5867e+07
2.1184e+05,6.5971e+07,2,38,-102,473,-399,44,42,0,0,0,1,6.5971e+07
2.1225e+05,6.6075e+07,2,48,-91,476,-399,44,42,0,0,0,1,6.6075e+07
2.1269e+05,6.6179e+07,2,56,-91,486,-399,44,42,0,0,0,1,6.6179e+07
2.1313e+05,6.6284e+07,2,53,-112,498,-399,44,42,0,0,0,1,6.6284e+07
2.1358e+05,6.6388e+07,2,50,-109,494,-399,44,42,0,0,0,1,6.6388e+07
2.1402e+05,6.6492e+07,2,49,-106,492,-399,44,42,0,0,0,1,6.6492e+07
2.1444e+05,6.6596e+07,2,54,-100,476,-399,44,42,0,0,0,1,6.6596e+07
2.1488e+05,6.67e+07,2,45,-110,473,-399,44,42,0,0,0,1,6.67e+07
2.1533e+05,6.6804e+07,2,44,-108,467,-399,44,42,0,0,0,1,6.6804e+07
2.1577e+05,6.6908e+07,2,50,-103,463,-399,44,42,0,0,0,1,6.6908e+07
2.1621e+05,6.7013e+07,2,49,-99,464,-399,44,42,0,0,0,1,6.7013e+07
2.1666e+05,6.7117e+07,2,66,-113,469,-399,44,42,0,0,0,1,6.7117e+07
2.171e+05,6.7224e+07,2,68,-115,476,-399,44,42,0,0,0,1,6.7224e+07
2.1755e+05,6.7329e+07,2,68,-118,477,-399,44,42,0,0,0,1,6.7329e+07
2.1795e+05,6.7434e+07,2,61,-119,482,-399,44,42,0,0,0,1,6.7434e+07
2.184e+05,6.7537e+07,2,72,-113,472,-399,44,42,0,0,0,1,6.7537e+07
2.1881e+05,6.7642e+07,2,60,-98,452,-399,44,42,0,0,0,1,6.7642e+07
2.1925e+05,6.7748e+07,2,69,-93,445,-399,44,42,0,0,0,1,6.7748e+07
2.197e+05,6.7851e+07,2,72,-97,439,-399,44,42,0,0,0,1,6.7851e+07
2.201e+05,6.7956e+07,2,76,-104,444,-399,44,42,0,0,0,1,6.7956e+07
2.2055e+05,6.806e+07,2,86,-99,448,-399,44,42,0,0,0,1,6.806e+07
2.21e+05,6.8165e+07,2,79,-117,458,-399,44,42,0,0,0,1,6.8165e+07
2.2144e+05,6.8267e+07,2,65,-113,478,-399,44,42,0,0,0,1,6.8267e+07
2.2188e+05,6.8371e+07,2,67,-116,466,-399,44,42,0,0,0,1,6.8371e+07
2.2232e+05,6.8475e+07,2,69,-115,477,-399,44,42,0,0,0,1,6.8475e+07
2.2277e+05,6.858e+07,2,66,-93,450,-399,44,42,0,0,0,1,6.858e+07
2.2321e+05,6.8684e+07,2,104,-38,392,-399,44,42,0,0,0,1,6.8684e+07
2.2366e+05,6.8791e+07,2,49,-56,432,-399,44,42,0,0,0,1,6.8791e+07
2.2407e+05,6.8894e+07,2,107,-7,388,-399,44,42,0,0,0,1,6.8894e+07
2.2451e+05,6.9001e+07,2,121,6,378,-399,44,42,0,0,0,1,6.9001e+07
2.2496e+05,6.9105e+07,2,106,-10,400,-399,44,42,0,0,0,1,6.9105e+07
2.254e+05,6.9211e+07,2,116,-12,408,-399,44,42,0,0,0,1,6.9211e+07
2.2584e+05,6.9315e+07,2,118,-6,400,-399,44,42,0,0,0,1,6.9315e+07
2.2628e+05,6.942e+07,2,114,-15,408,-399,44,42,0,0,0,1,6.942e+07
2.2673e+05,6.9525e+07,2,106,-12,413,-399,44,42,0,0,0,1,6.9525e+07
2.2714e+05,6.9629e+07,2,110,-6,389,-399,44,42,0,0,0,1,6.9629e+07
2.2759e+05,6.9738e+07,2,104,-6,385,-399,44,42,0,0,0,1,6.9738e+07
2.2803e+05,6.9842e+07,2,94,-13,389,-399,44,42,0,0,0,1,6.9842e+07
2.2848e+05,6.9946e+07,2,108,-9,387,-399,44,42,0,0,0,1,6.9946e+07
2.2892e+05,7.005e+07,2,108,-6,388,-399,44,42,0,0,0,1,7.005e+07
2.2934e+05,7.0158e+07,2,109,-14,421,-399,44,42,0,0,0,1,7.0158e+07
2.2978e+05,7.0262e+07,2,124,-15,407,-399,44,42,0,0,0,1,7.0262e+07
2.3022e+05,7.0367e+07,2,116,-13,408,-399,44,42,0,0,0,1,7.0367e+07
2.3067e+05,7.0469e+07,2,117,-5,404,-399,44,42,0,0,0,1,7.0469e+07
2.3108e+05,7.0574e+07,2,112,-4,396,-399,44,42,0,0,0,1,7.0574e+07
2.3152e+05,7.0679e+07,2,115,11,376,-399,44,42,0,0,0,1,7.0679e+07
2.3197e+05,7.0784e+07,2,115,1,380,-399,44,42,0,0,0,1,7.0784e+07
2.3241e+05,7.0887e+07,2,106,1,383,-399,44,42,0,0,0,1,7.0887e+07
2.3282e+05,7.0993e+07,2,108,6,382,-399,44,42,0,0,0,1,7.0993e+07
2.3327e+05,7.1095e+07,2,116,-1,386,-399,44,42,0,0,0,1,7.1095e+07
2.3372e+05,7.1203e+07,2,113,0,399,-399,44,42,0,0,0,1,7.1203e+07
2.3416e+05,7.1306e+07,2,115,-4,408,-399,44,42,0,0,0,1,7.1306e+07
2.346e+05,7.141e+07,2,119,-7,406,-399,44,42,0,0,0,1,7.141e+07
2.3505e+05,7.1515e+07,2,111,-2,406,-399,44,42,0,0,0,1,7.1515e+07
2.3549e+05,7.1622e+07,2,104,2,389,-399,44,42,0,0,0,1,7.1622e+07
2.3591e+05,7.1728e+07,2,103,-3,387,-399,44,42,0,0,0,1,7.1728e+07
2.3634e+05,7.1831e+07,2,108,0,386,-399,44,42,0,0,0,1,7.1831e+07
2.3679e+05,7.1935e+07,2,102,0,389,-399,44,42,0,0,0,1,7.1935e+07
2.3723e+05,7.2039e+07,2,97,-6,391,-399,44,42,0,0,0,1,7.2039e+07
2.3768e+05,7.2143e+07,2,111,-5,404,-399,44,42,0,0,0,1,7.2143e+07
2.381e+05,7.2246e+07,2,117,-4,396,-399,44,42,0,0,0,1,7.2246e+07
2.3855e+05,7.2351e+07,2,113,-9,410,-399,44,42,0,0,0,1,7.2351e+07
2.39e+05,7.2454e+07,2,119,-2,403,-399,44,42,0,0,0,1,7.2454e+07
2.3945e+05,7.2559e+07,2,124,-4,396,-399,44,42,0,0,0,1,7.2559e+07
2.399e+05,7.2661e+07,2,100,-4,383,-399,44,42,0,0,0,1,7.2661e+07
2.4034e+05,7.2767e+07,2,101,0,392,-399,44,42,0,0,0,1,7.2767e+07
2.4079e+05,7.2869e+07,2,101,0,382,-399,44,42,0,0,0,1,7.2869e+07
2.4124e+05,7.2972e+07,2,95,-8,390,-399,44,42,0,0,0,1,7.2972e+07
2.4169e+05,7.3076e+07,2,104,4,381,-399,44,42,0,0,0,1,7.3076e+07
2.4211e+05,7.3179e+07,2,119,-5,407,-399,44,42,0,0,0,1,7.3179e+07
2.4256e+05,7.3283e+07,2,110,-9,405,-399,44,42,0,0,0,1,7.3283e+07
2.43e+05,7.3389e+07,2,110,-3,404,-399,44,42,0,0,0,1,7.3389e+07
2.4345e+05,7.3494e+07,2,112,-9,404,-399,44,42,0,0,0,1,7.3494e+07
2.439e+05,7.3598e+07,2,103,-4,400,-399,44,42,0,0,0,1,7.3598e+07
2.4435e+05,7.3703e+07,2,103,-7,383,-399,44,42,0,0,0,1,7.3703e+07
2.448e+05,7.3809e+07,2,96,-2,381,-399,44,42,0,0,0,1,7.3809e+07
2.4525e+05,7.3913e+07,2,103,-9,385,-399,44,42,0,0,0,1,7.3913e+07
2.457e+05,7.4017e+07,2,98,0,383,-399,44,42,0,0,0,1,7.4017e+07
2.4616e+05,7.4122e+07,2,110,-7,394,-399,44,42,0,0,0,1,7.4122e+07
2.4657e+05,7.4226e+07,2,103,-9,406,-399,44,42,0,0,0,1,7.4226e+07
2.4702e+05,7.4329e+07,2,121,-1,397,-399,44,42,0,0,0,1,7.4329e+07
2.4747e+05,7.4435e+07,2,113,-9,409,-399,44,42,0,0,0,1,7.4435e+07
2.4792e+05,7.4537e+07,2,112,-7,406,-399,44,42,0,0,0,1,7.4537e+07
2.4834e+05,7.4644e+07,2,104,0,391,-399,44,42,0,0,0,1,7.4644e+07
2.4878e+05,7.4748e+07,2,101,6,381,-399,44,42,0,0,0,1,7.4748e+07
2.4924e+05,7.4853e+07,2,92,-1,387,-399,44,42,0,0,0,1,7.4853e+07
2.4968e+05,7.4959e+07,2,98,0,383,-399,44,42,0,0,0,1,7.4959e+07
2.5014e+05,7.5063e+07,2,99,-7,394,-399,44,42,0,0,0,1,7.5063e+07
2.5058e+05,7.5167e+07,2,106,-3,408,-399,44,42,0,0,0,1,7.5167e+07
2.5104e+05,7.5269e+07,2,112,-2,404,-399,44,42,0,0,0,1,7.5269e+07
2.5148e+05,7.5375e+07,2,106,-6,408,-399,44,42,0,0,0,1,7.5375e+07
2.519e+05,7.5477e+07,2,110,-5,408,-399,44,42,0,0,0,1,7.5477e+07
2.5235e+05,7.5584e+07,2,110,-7,395,-399,44,42,0,0,0,1,7.5584e+07
2.528e+05,7.5686e+07,2,92,-4,388,-399,44,42,0,0,0,1,7.5686e+07
2.5325e+05,7.5791e+07,2,94,-2,390,-399,44,42,0,0,0,1,7.5791e+07
2.537e+05,7.5893e+07,2,109,3,378,-399,44,42,0,0,0,1,7.5893e+07
2.5415e+05,7.5999e+07,2,105,5,380,-399,44,42,0,0,0,1,7.5999e+07
2.546e+05,7.6104e+07,2,115,-4,390,-399,44,42,0,0,0,1,7.6104e+07
2.5505e+05,7.6207e+07,2,120,-6,405,-399,44,42,0,0,0,1,7.6207e+07
2.555e+05,7.6309e+07,2,122,-7,394,-399,44,42,0,0,0,1,7.6309e+07
2.5591e+05,7.6412e+07,2,121,-6,402,-399,44,42,0,0,0,1,7.6412e+07
2.5636e+05,7.6516e+07,2,125,-5,395,-399,44,42,0,0,0,1,7.6516e+07
2.5681e+05,7.6622e+07,2,114,-6,391,-399,44,42,0,0,0,1,7.6622e+07
2.5726e+05,7.6725e+07,2,115,5,371,-399,44,42,0,0,0,1,7.6725e+07
2.5771e+05,7.683e+07,2,110,2,373,-399,44,42,0,0,0,1,7.683e+07
2.5816e+05,7.6934e+07,2,104,1,380,-399,44,42,0,0,0,1,7.6934e+07
2.5861e+05,7.7039e+07,2,106,5,382,-399,44,42,0,0,0,1,7.7039e+07
2.5906e+05,7.7142e+07,2,125,1,397,-399,44,42,0,0,0,1,7.7142e+07
2.5951e+05,7.7246e+07,2,121,2,397,-399,44,42,0,0,0,1,7.7246e+07
2.5992e+05,7.7349e+07,2,120,4,398,-399,44,42,0,0,0,1,7.7349e+07
2.6038e+05,7.7453e+07,2,128,-3,390,-399,44,42,0,0,0,1,7.7453e+07
2.6082e+05,7.756e+07,2,127,0,389,-399,44,42,0,0,0,1,7.756e+07
2.6128e+05,7.7662e+07,2,116,9,373,-399,44,42,0,0,0,1,7.7662e+07
2.6172e+05,7.7766e+07,2,114,5,377,-399,44,42,0,0,0,1,7.7766e+07
2.6217e+05,7.7868e+07,2,109,3,370,-399,44,42,0,0,0,1,7.7868e+07
2.6262e+05,7.7972e+07,2,116,10,373,-399,44,42,0,0,0,1,7.7972e+07
2.6308e+05,7.8076e+07,2,119,-2,388,-399,44,42,0,0,0,1,7.8076e+07
2.6349e+05,7.818e+07,2,128,-1,396,-399,44,42,0,0,0,1,7.818e+07
2.6394e+05,7.8284e+07,2,127,0,392,-399,44,42,0,0,0,1,7.8284e+07
2.6439e+05,7.8389e+07,2,129,-3,396,-399,44,42,0,0,0,1,7.8389e+07
2.6484e+05,7.8493e+07,2,132,-2,394,-399,44,42,0,0,0,1,7.8493e+07
2.6529e+05,7.8596e+07,2,116,-3,382,-399,44,42,0,0,0,1,7.8596e+07
2.6574e+05,7.8699e+07,2,121,3,372,-399,44,42,0,0,0,1,7.8699e+07
2.6619e+05,7.8803e+07,2,121,2,371,-399,44,42,0,0,0,1,7.8803e+07
2.6664e+05,7.8907e+07,2,116,0,375,-399,44,42,0,0,0,1,7.8907e+07
2.6706e+05,7.901e+07,2,118,3,378,-399,44,42,0,0,0,1,7.901e+07
2.6751e+05,7.9113e+07,2,133,-4,387,-399,44,42,0,0,0,1,7.9113e+07
2.6796e+05,7.9218e+07,2,134,-7,397,-399,44,42,0,0,0,1,7.9218e+07
2.6841e+05,7.932e+07,2,136,-5,393,-399,44,42,0,0,0,1,7.932e+07
2.6885e+05,7.9426e+07,2,135,-6,391,-399,44,42,0,0,0,1,7.9426e+07
2.693e+05,7.9529e+07,2,130,-12,393,-399,44,42,0,0,0,1,7.9529e+07
2.6975e+05,7.9634e+07,2,120,-4,374,-399,44,42,0,0,0,1,7.9634e+07
2.702e+05,7.9738e+07,2,114,-1,375,-399,44,42,0,0,0,1,7.9738e+07
2.7065e+05,7.9842e+07,2,121,-5,378,-399,44,42,0,0,0,1,7.9842e+07
2.7107e+05,7.9945e+07,2,121,-3,376,-399,44,42,0,0,0,1,7.9945e+07
2.7152e+05,8.005e+07,2,111,-11,389,-399,44,42,0,0,0,1,8.005e+07
2.7196e+05,8.0157e+07,2,136,1,397,-399,44,42,0,0,0,1,8.0157e+07
2.7242e+05,8.0261e+07,2,137,-6,394,-399,44,42,0,0,0,1,8.0261e+07
2.7287e+05,8.0366e+07,2,140,-5,395,-399,44,42,0,0,0,1,8.0366e+07
2.7332e+05,8.047e+07,2,135,-6,398,-399,44,42,0,0,0,1,8.047e+07
2.7377e+05,8.0574e+07,2,130,0,385,-399,44,42,0,0,0,1,8.0574e+07
2.7422e+05,8.0678e+07,2,123,0,372,-399,44,42,0,0,0,1,8.0678e+07
2.7466e+05,8.0782e+07,2,120,-2,376,-399,44,42,0,0,0,1,8.0782e+07
2.7511e+05,8.0885e+07,2,120,0,375,-399,44,42,0,0,0,1,8.0885e+07
2.7553e+05,8.0989e+07,2,121,-2,379,-399,44,42,0,0,0,1,8.0989e+07
2.7598e+05,8.1094e+07,2,128,-12,395,-399,44,42,0,0,0,1,8.1094e+07
2.7643e+05,8.1199e+07,2,130,-7,396,-399,44,42,0,0,0,1,8.1199e+07
2.7688e+05,8.1302e+07,2,129,-6,399,-399,44,42,0,0,0,1,8.1302e+07
2.773e+05,8.1405e+07,2,136,-3,393,-399,44,42,0,0,0,1,8.1405e+07
2.7775e+05,8.1511e+07,2,138,-10,396,-399,44,42,0,0,0,1,8.1511e+07
2.782e+05,8.1613e+07,2,112,-11,378,-399,44,42,0,0,0,1,8.1613e+07
2.7865e+05,8.1717e+07,2,121,-4,377,-399,44,42,0,0,0,1,8.1717e+07
2.791e+05,8.1823e+07,2,123,-6,375,-399,44,42,0,0,0,1,8.1823e+07
2.7955e+05,8.1927e+07,2,116,-6,379,-399,44,42,0,0,0,1,8.1927e+07
2.8e+05,8.2031e+07,2,115,-4,373,-399,44,42,0,0,0,1,8.2031e+07
2.8045e+05,8.2135e+07,2,130,-6,393,-399,44,42,0,0,0,1,8.2135e+07
2.809e+05,8.2241e+07,2,133,-11,397,-399,44,42,0,0,0,1,8.2241e+07
2.8134e+05,8.2349e+07,2,133,-4,391,-399,44,42,0,0,0,1,8.2349e+07
2.8179e+05,8.2451e+07,2,134,-7,387,-399,44,42,0,0,0,1,8.2451e+07
2.8224e+05,8.2557e+07,2,129,-2,392,-399,44,42,0,0,0,1,8.2557e+07
2.8269e+05,8.2661e+07,2,114,-7,373,-399,44,42,0,0,0,1,8.2661e+07
2.8314e+05,8.2765e+07,2,121,-1,370,-399,44,42,0,0,0,1,8.2765e+07
2.8359e+05,8.2869e+07,2,117,-4,375,-399,44,42,0,0,0,1,8.2869e+07
2.8401e+05,8.2972e+07,2,111,2,374,-399,44,42,0,0,0,1,8.2972e+07
2.8446e+05,8.3077e+07,2,119,-6,380,-399,44,42,0,0,0,1,8.3077e+07
2.849e+05,8.3182e+07,2,133,-4,391,-399,44,42,0,0,0,1,8.3182e+07
2.8535e+05,8.3284e+07,2,127,-10,394,-399,44,42,0,0,0,1,8.3284e+07
2.858e+05,8.3388e+07,2,132,-2,398,-399,44,42,0,0,0,1,8.3388e+07
2.8625e+05,8.3493e+07,2,136,-6,390,-399,44,42,0,0,0,1,8.3493e+07
2.867e+05,8.3598e+07,2,123,-1,384,-399,44,42,0,0,0,1,8.3598e+07
2.8715e+05,8.3701e+07,2,116,-7,371,-399,44,42,0,0,0,1,8.3701e+07
2.8757e+05,8.3807e+07,2,116,0,375,-399,44,42,0,0,0,1,8.3807e+07
2.8802e+05,8.3909e+07,2,120,2,371,-399,44,42,0,0,0,1,8.3909e+07
2.8847e+05,8.4015e+07,2,123,-4,374,-399,44,42,0,0,0,1,8.4015e+07
2.8892e+05,8.4117e+07,2,124,-7,394,-399,44,42,0,0,0,1,8.4117e+07
2.8937e+05,8.4223e+07,2,129,-7,400,-399,44,42,0,0,0,1,8.4223e+07
2.8982e+05,8.4327e+07,2,133,-4,393,-399,44,42,0,0,0,1,8.4326e+07
2.9026e+05,8.4432e+07,2,126,-2,394,-399,44,42,0,0,0,1,8.4432e+07
2.9072e+05,8.4537e+07,2,127,-9,399,-399,44,42,0,0,0,1,8.4537e+07
2.9116e+05,8.4641e+07,2,114,-4,376,-399,44,42,0,0,0,1,8.4641e+07
2.9158e+05,8.4747e+07,2,118,-6,378,-399,44,42,0,0,0,1,8.4747e+07
2.9203e+05,8.4853e+07,2,115,-3,382,-399,44,42,0,0,0,1,8.4853e+07
2.9249e+05,8.4963e+07,2,115,-6,375,-399,44,42,0,0,0,1,8.4963e+07
2.9294e+05,8.5066e+07,2,115,-12,383,-399,44,42,0,0,0,1,8.5066e+07
2.9338e+05,8.5171e+07,2,128,-9,403,-399,44,42,0,0,0,1,8.5171e+07
2.9383e+05,8.5276e+07,2,124,1,396,-399,44,42,0,0,0,1,8.5276e+07
2.9425e+05,8.5378e+07,2,125,-5,401,-399,44,42,0,0,0,1,8.5378e+07
2.947e+05,8.5481e+07,2,128,-8,392,-399,44,42,0,0,0,1,8.5481e+07
2.9515e+05,8.5587e+07,2,122,-3,380,-399,44,42,0,0,0,1,8.5587e+07
2.956e+05,8.5693e+07,2,112,-5,378,-399,44,42,0,0,0,1,8.5693e+07
2.9605e+05,8.5797e+07,2,116,0,380,-399,44,42,0,0,0,1,8.5797e+07
2.965e+05,8.5902e+07,2,117,-7,380,-399,44,42,0,0,0,1,8.5902e+07
2.9695e+05,8.6008e+07,2,114,-2,376,-399,44,42,0,0,0,1,8.6008e+07
2.974e+05,8.6109e+07,2,133,-6,385,-399,44,42,0,0,0,1,8.6109e+07
2.9782e+05,8.6214e+07,2,133,-6,394,-399,44,42,0,0,0,1,8.6214e+07
2.9827e+05,8.6316e+07,2,128,-8,397,-399,44,42,0,0,0,1,8.6316e+07
2.9871e+05,8.6422e+07,2,127,-5,396,-399,44,42,0,0,0,1,8.6422e+07
2.9917e+05,8.6527e+07,2,125,-7,397,-399,44,42,0,0,0,1,8.6527e+07
2.9961e+05,8.663e+07,2,111,-8,376,-399,44,42,0,0,0,1,8.663e+07
3.0006e+05,8.6734e+07,2,108,-12,382,-399,44,42,0,0,0,1,8.6734e+07
3.0051e+05,8.6836e+07,2,118,0,382,-399,44,42,0,0,0,1,8.6836e+07
3.0096e+05,8.6942e+07,2,114,-5,377,-399,44,42,0,0,0,1,8.6942e+07
3.0141e+05,8.7045e+07,2,122,-2,385,-399,44,42,0,0,0,1,8.7045e+07
3.0183e+05,8.7147e+07,2,129,-7,398,-399,44,42,0,0,0,1,8.7147e+07
