LineNo,TimeUS,LiftMax,BatVolt,ThLimit,ThrAvMx,FailFlags
209,1.5038e+07,0.90123,0.93792,1,0.020911,2
312,1.5072e+07,0.90124,0.93792,1,0.020911,2
654,1.5134e+07,0.90124,0.93792,1,0.020911,2
767,1.515e+07,0.90123,0.93791,1,0.020911,2
880,1.5165e+07,0.9012,0.93789,1,0.020911,2
993,1.5183e+07,0.90117,0.93788,1,0.020911,2
1224,1.5261e+07,0.90107,0.93782,1,0.020911,2
1608,1.5416e+07,0.9009,0.93771,1,0.020911,2
1686,1.5427e+07,0.90088,0.93769,1,0.020911,2
1728,1.5437e+07,0.90086,0.93768,1,0.020911,2
1768,1.5447e+07,0.90084,0.93766,1,0.020911,2
1809,1.5461e+07,0.90081,0.93764,1,0.020911,2
1852,1.5473e+07,0.90079,0.93763,1,0.020911,2
1894,1.5484e+07,0.90077,0.93762,1,0.020911,2
1939,1.5493e+07,0.90075,0.9376,1,0.020911,2
1979,1.5503e+07,0.90073,0.93759,1,0.020911,2
2020,1.5513e+07,0.90072,0.93758,1,0.020911,2
2063,1.5524e+07,0.9007,0.93757,1,0.020911,2
2107,1.5539e+07,0.90068,0.93756,1,0.020911,2
2151,1.5549e+07,0.90066,0.93755,1,0.020911,2
2191,1.5559e+07,0.90065,0.93754,1,0.020911,2
2232,1.5569e+07,0.90064,0.93753,1,0.020911,2
2273,1.5579e+07,0.90062,0.93752,1,0.020911,2
2317,1.5589e+07,0.90061,0.93752,1,0.020911,2
2359,1.5599e+07,0.90058,0.9375,1,0.020911,2
2400,1.5609e+07,0.90055,0.93748,1,0.020911,2
2444,1.5619e+07,0.90052,0.93746,1,0.020911,2
2484,1.5629e+07,0.90049,0.93744,1,0.020911,2
2522,1.564e+07,0.90046,0.93742,1,0.020911,2
2565,1.565e+07,0.90044,0.9374,1,0.020911,2
2605,1.566e+07,0.90041,0.93739,1,0.020911,2
2646,1.567e+07,0.90038,0.93737,1,0.020911,2
2686,1.568e+07,0.90036,0.93735,1,0.020911,2
2731,1.569e+07,0.90034,0.93734,1,0.020911,2
2772,1.57e+07,0.90033,0.93733,1,0.020911,2
2813,1.571e+07,0.90032,0.93733,1,0.020911,2
2854,1.572e+07,0.90032,0.93733,1,0.020911,2
2894,1.573e+07,0.90031,0.93732,1,0.020911,2
2936,1.574e+07,0.9003,0.93732,1,0.020911,2
2978,1.575e+07,0.9003,0.93731,1,0.020911,2
3017,1.576e+07,0.90029,0.93731,1,0.020911,2
3059,1.577e+07,0.90029,0.93731,1,0.020911,2
3099,1.578e+07,0.90028,0.9373,1,0.020911,2
3145,1.579e+07,0.90028,0.9373,1,0.020911,2
3187,1.58e+07,0.90027,0.9373,1,0.020911,2
3228,1.581e+07,0.90027,0.93729,1,0.020911,2
3269,1.5821e+07,0.90026,0.93729,1,0.020911,2
3311,1.5834e+07,0.90026,0.93729,1,0.020911,2
3348,1.5844e+07,0.90025,0.93728,1,0.020911,2
3390,1.5854e+07,0.90025,0.93728,1,0.020911,2
3431,1.5864e+07,0.90024,0.93728,1,0.020911,2
3471,1.5874e+07,0.90024,0.93728,1,0.020911,2
3512,1.5884e+07,0.90024,0.93727,1,0.020911,2
3556,1.5894e+07,0.90023,0.93727,1,0.020911,2
3597,1.5904e+07,0.90021,0.93726,1,0.020911,2
3639,1.5914e+07,0.90019,0.93724,1,0.020911,2
3681,1.5924e+07,0.90017,0.93723,1,0.020911,2
3719,1.5934e+07,0.90015,0.93722,1,0.020911,2
3756,1.5945e+07,0.90013,0.93721,1,0.020911,2
3798,1.5955e+07,0.90012,0.9372,1,0.020911,2
3839,1.5965e+07,0.9001,0.93719,1,0.020911,2
3879,1.5975e+07,0.90008,0.93718,1,0.020911,2
3920,1.5985e+07,0.90007,0.93717,1,0.020911,2
3964,1.5995e+07,0.90006,0.93716,1,0.020911,2
4005,1.6005e+07,0.90005,0.93716,1,0.020911,2
4048,1.6015e+07,0.90005,0.93716,1,0.020911,2
4089,1.6025e+07,0.90005,0.93715,1,0.020911,2
4130,1.6035e+07,0.90005,0.93715,1,0.020911,2
4167,1.6045e+07,0.90005,0.93715,1,0.020911,2
4209,1.6055e+07,0.90004,0.93715,1,0.020911,2
4253,1.6068e+07,0.90004,0.93715,1,0.020911,2
4295,1.6078e+07,0.90004,0.93715,1,0.020911,2
4335,1.6088e+07,0.90004,0.93715,1,0.020911,2
4380,1.6097e+07,0.90004,0.93714,1,0.020911,2
4421,1.6108e+07,0.90003,0.93714,1,0.020911,2
4461,1.6118e+07,0.90003,0.93714,1,0.020911,2
4507,1.6133e+07,0.90002,0.93714,1,0.020911,2
4550,1.6145e+07,0.90002,0.93714,1,0.020911,2
4590,1.6156e+07,0.90002,0.93713,1,0.020911,2
4631,1.6166e+07,0.90002,0.93713,1,0.020911,2
4673,1.6176e+07,0.90001,0.93713,1,0.020911,2
4713,1.6186e+07,0.90001,0.93713,1,0.020911,2
4758,1.6196e+07,0.90001,0.93713,1,0.020911,2
4798,1.6206e+07,0.90001,0.93713,1,0.020911,2
4840,1.6216e+07,0.90001,0.93713,1,0.020911,2
4880,1.6226e+07,0.90001,0.93713,1,0.020911,2
4921,1.6236e+07,0.90001,0.93713,1,0.020911,2
4959,1.6246e+07,0.90001,0.93713,1,0.020911,2
4996,1.6256e+07,0.90001,0.93713,1,0.020911,2
5038,1.6266e+07,0.90001,0.93713,1,0.020911,2
5080,1.6276e+07,0.90001,0.93713,1,0.020911,2
5120,1.6286e+07,0.90001,0.93713,1,0.020911,2
5165,1.6296e+07,0.90001,0.93713,1,0.020911,2
5206,1.6306e+07,0.9,0.93712,1,0.020911,2
5247,1.6316e+07,0.9,0.93712,1,0.020911,2
5287,1.6326e+07,0.89999,0.93712,1,0.020911,2
5330,1.6338e+07,0.89998,0.93711,1,0.020911,2
5367,1.6348e+07,0.89998,0.93711,1,0.020911,2
5412,1.636e+07,0.89997,0.9371,1,0.020911,2
5453,1.6371e+07,0.89996,0.9371,1,0.020911,2
5493,1.6381e+07,0.89996,0.9371,1,0.020911,2
5535,1.6391e+07,0.89995,0.93709,1,0.020911,2
5579,1.6401e+07,0.89996,0.93709,1,0.020911,2
5621,1.6411e+07,0.89997,0.9371,1,0.020911,2
5662,1.6421e+07,0.89997,0.9371,1,0.020911,2
5702,1.6431e+07,0.89998,0.93711,1,0.020911,2
5737,1.6441e+07,0.89999,0.93711,1,0.020911,2
5778,1.6452e+07,0.89999,0.93712,1,0.020911,2
5819,1.6462e+07,0.9,0.93712,1,0.020911,2
5859,1.6472e+07,0.90001,0.93713,1,0.020911,2
5901,1.6481e+07,0.90001,0.93713,1,0.020911,2
5943,1.6492e+07,0.90002,0.93713,1,0.020911,2
5987,1.6502e+07,0.90002,0.93714,1,0.020911,2
6030,1.6512e+07,0.90002,0.93714,1,0.020911,2
6070,1.6522e+07,0.90003,0.93714,1,0.020911,2
6114,1.6533e+07,0.90003,0.93714,1,0.020911,2
6151,1.6543e+07,0.90003,0.93714,1,0.020911,2
6191,1.6553e+07,0.90003,0.93714,1,0.020911,2
6231,1.6563e+07,0.90004,0.93715,1,0.020911,2
6272,1.6573e+07,0.90004,0.93715,1,0.020911,2
6313,1.6583e+07,0.90004,0.93715,1,0.020911,2
6354,1.6593e+07,0.90004,0.93715,1,0.020911,2
6402,1.6603e+07,0.90004,0.93715,1,0.020911,2
6444,1.6614e+07,0.90003,0.93714,1,0.020911,2
6485,1.6623e+07,0.90003,0.93714,1,0.020911,2
6526,1.6634e+07,0.90002,0.93714,1,0.020911,2
6564,1.6646e+07,0.90002,0.93713,1,0.020911,2
6605,1.6656e+07,0.90001,0.93713,1,0.020911,2
6645,1.6666e+07,0.9,0.93713,1,0.020911,2
6687,1.6676e+07,0.9,0.93712,1,0.020911,2
6727,1.6685e+07,0.9,0.93712,1,0.020911,2
6772,1.6696e+07,0.89999,0.93712,1,0.020911,2
6814,1.6705e+07,0.9,0.93712,1,0.020911,2
6855,1.6716e+07,0.9,0.93712,1,0.020911,2
6896,1.6726e+07,0.90001,0.93713,1,0.020911,2
6938,1.6735e+07,0.90001,0.93713,1,0.020911,2
6973,1.6746e+07,0.90002,0.93713,1,0.020911,2
7013,1.6756e+07,0.90002,0.93714,1,0.020911,2
7054,1.6766e+07,0.90003,0.93714,1,0.020911,2
7095,1.6776e+07,0.90003,0.93714,1,0.020911,2
7136,1.6786e+07,0.90004,0.93715,1,0.020911,2
7183,1.6797e+07,0.90004,0.93715,1,0.020911,2
7224,1.6806e+07,0.90003,0.93714,1,0.020911,2
7266,1.6816e+07,0.90002,0.93713,1,0.020911,2
7307,1.6826e+07,0.90001,0.93713,1,0.020911,2
7347,1.6836e+07,0.9,0.93712,1,0.020911,2
7388,1.6846e+07,0.89999,0.93711,1,0.020911,2
7425,1.6856e+07,0.89998,0.93711,1,0.020911,2
7466,1.6866e+07,0.89997,0.9371,1,0.020911,2
7508,1.6877e+07,0.89996,0.9371,1,0.020911,2
7548,1.6887e+07,0.89995,0.93709,1,0.020911,2
7592,1.6897e+07,0.89994,0.93708,1,0.020911,2
7634,1.6907e+07,0.89995,0.93709,1,0.020911,2
7676,1.6917e+07,0.89996,0.9371,1,0.020911,2
7717,1.6927e+07,0.89997,0.9371,1,0.020911,2
7759,1.694e+07,0.89998,0.93711,1,0.020911,2
7800,1.695e+07,0.89999,0.93712,1,0.020911,2
7837,1.696e+07,0.9,0.93712,1,0.020911,2
7879,1.697e+07,0.90001,0.93713,1,0.020911,2
7919,1.698e+07,0.90002,0.93714,1,0.020911,2
7960,1.699e+07,0.90003,0.93714,1,0.020911,2
8006,1.7e+07,0.90003,0.93714,1,0.020911,2
8050,1.701e+07,0.90001,0.93713,1,0.020911,2
8091,1.702e+07,0.9,0.93712,1,0.020911,2
8131,1.703e+07,0.89998,0.93711,1,0.020911,2
8169,1.704e+07,0.89997,0.9371,1,0.020911,2
8206,1.7051e+07,0.89995,0.93709,1,0.020911,2
8247,1.7061e+07,0.89994,0.93708,1,0.020911,2
8287,1.7071e+07,0.89992,0.93707,1,0.020911,2
8329,1.7081e+07,0.89991,0.93706,1,0.020911,2
8371,1.7091e+07,0.8999,0.93706,1,0.020911,2
8415,1.7101e+07,0.89988,0.93704,1,0.020911,2
8456,1.7111e+07,0.89984,0.93702,1,0.020911,2
8498,1.7121e+07,0.89981,0.937,1,0.020911,2
8539,1.7131e+07,0.89977,0.93698,1,0.020911,2
8579,1.7141e+07,0.89974,0.93695,1,0.020911,2
8619,1.7153e+07,0.8997,0.93693,1,0.020911,2
8660,1.7164e+07,0.89967,0.93691,1,0.020911,2
8700,1.7173e+07,0.89964,0.93689,1,0.020911,2
8741,1.7183e+07,0.89961,0.93687,1,0.020911,2
8782,1.7193e+07,0.89958,0.93685,1,0.020911,2
8826,1.7204e+07,0.89953,0.93682,1,0.020911,2
8867,1.7214e+07,0.89947,0.93678,1,0.020911,2
8907,1.7224e+07,0.89941,0.93674,1,0.020911,2
8949,1.7233e+07,0.89935,0.93671,1,0.020911,2
8986,1.7244e+07,0.8993,0.93667,1,0.020911,2
9024,1.7254e+07,0.89924,0.93663,1,0.020911,2
9065,1.7264e+07,0.89919,0.9366,1,0.020911,2
9105,1.7274e+07,0.89914,0.93657,1,0.020911,2
9146,1.7284e+07,0.89909,0.93653,1,0.020911,2
9186,1.7294e+07,0.89904,0.9365,1,0.020911,2
9231,1.7304e+07,0.89897,0.93646,1,0.020911,2
9266,1.7334e+07,0.89871,0.93629,1,0.020911,2
9309,1.7344e+07,0.89862,0.93623,1,0.020911,2
9346,1.7354e+07,0.89854,0.93618,1,0.020911,2
9384,1.7364e+07,0.89847,0.93613,1,0.020911,2
9425,1.7374e+07,0.89839,0.93608,1,0.020911,2
9465,1.7384e+07,0.89832,0.93604,1,0.020911,2
9507,1.7394e+07,0.89825,0.93599,1,0.020911,2
9551,1.7404e+07,0.89815,0.93593,1,0.020911,2
9592,1.7414e+07,0.89803,0.93585,1,0.020911,2
9632,1.7424e+07,0.89792,0.93578,1,0.020911,2
9675,1.7434e+07,0.89781,0.93571,1,0.020911,2
9716,1.7444e+07,0.8977,0.93564,1,0.020911,2
9753,1.7454e+07,0.8976,0.93557,1,0.020911,2
9795,1.7466e+07,0.89747,0.93549,1,0.020911,2
9836,1.7477e+07,0.89737,0.93543,1,0.020911,2
9876,1.7487e+07,0.89728,0.93537,1,0.020911,2
9917,1.7497e+07,0.89719,0.93531,1,0.020911,2
9963,1.7507e+07,0.89715,0.93528,1,0.020911,2
10005,1.7517e+07,0.89712,0.93527,1,0.020911,2
10045,1.7526e+07,0.8971,0.93525,1,0.020911,2
10086,1.7537e+07,0.89708,0.93524,1,0.020911,2
10125,1.7547e+07,0.89706,0.93522,1,0.020911,2
10164,1.7557e+07,0.89704,0.93521,1,0.020911,2
10205,1.7567e+07,0.89702,0.9352,1,0.020911,2
10245,1.7577e+07,0.897,0.93518,1,0.020911,2
10287,1.7587e+07,0.89698,0.93517,1,0.020911,2
10327,1.7597e+07,0.89696,0.93516,1,0.020911,2
10373,1.7607e+07,0.89695,0.93516,1,0.020911,2
10414,1.7617e+07,0.89695,0.93515,1,0.020911,2
10454,1.7627e+07,0.89695,0.93515,1,0.020911,2
10496,1.7637e+07,0.89695,0.93515,1,0.020911,2
10533,1.765e+07,0.89695,0.93515,1,0.020911,2
10575,1.766e+07,0.89695,0.93515,1,0.020911,2
10617,1.767e+07,0.89695,0.93515,1,0.020911,2
10658,1.768e+07,0.89694,0.93515,1,0.020911,2
10699,1.769e+07,0.89694,0.93515,1,0.020911,2
10742,1.7701e+07,0.89694,0.93515,1,0.020911,2
10785,1.7711e+07,0.89694,0.93515,1,0.020911,2
10825,1.7721e+07,0.89693,0.93514,1,0.020911,2
10866,1.7731e+07,0.89693,0.93514,1,0.020911,2
10909,1.7741e+07,0.89693,0.93514,1,0.020911,2
10949,1.7754e+07,0.89692,0.93514,1,0.020911,2
10992,1.7764e+07,0.89692,0.93513,1,0.020911,2
11032,1.7774e+07,0.89692,0.93513,1,0.020911,2
11073,1.7784e+07,0.89691,0.93513,1,0.020911,2
11113,1.7794e+07,0.89691,0.93513,1,0.020911,2
11161,1.7804e+07,0.89691,0.93513,1,0.020911,2
11202,1.7814e+07,0.89692,0.93514,1,0.020911,2
11242,1.7824e+07,0.89693,0.93514,1,0.020911,2
11284,1.7834e+07,0.89694,0.93515,1,0.020911,2
11324,1.7844e+07,0.89695,0.93516,1,0.020911,2
11362,1.7854e+07,0.89696,0.93516,1,0.020911,2
11403,1.7864e+07,0.89697,0.93517,1,0.020911,2
11447,1.7877e+07,0.89698,0.93517,1,0.020911,2
11488,1.7887e+07,0.89699,0.93518,1,0.020911,2
11530,1.7896e+07,0.897,0.93519,1,0.020911,2
11575,1.7906e+07,0.89701,0.93519,1,0.020911,2
11616,1.7916e+07,0.89701,0.93519,1,0.020911,2
11656,1.7927e+07,0.89702,0.9352,1,0.020911,2
11697,1.7937e+07,0.89702,0.9352,1,0.020911,2
11739,1.7946e+07,0.89703,0.9352,1,0.020911,2
11777,1.7957e+07,0.89703,0.93521,1,0.020911,2
11818,1.7967e+07,0.89703,0.93521,1,0.020911,2
11861,1.7977e+07,0.89704,0.93521,1,0.020911,2
11902,1.7988e+07,0.89704,0.93521,1,0.020911,2
11944,1.7997e+07,0.89705,0.93522,1,0.020911,2
11989,1.8007e+07,0.89706,0.93522,1,0.020911,2
12029,1.8017e+07,0.89707,0.93523,1,0.020911,2
12071,1.8027e+07,0.89708,0.93524,1,0.020911,2
12115,1.8043e+07,0.8971,0.93525,1,0.020911,2
12156,1.8053e+07,0.89712,0.93526,1,0.020911,2
12196,1.8063e+07,0.89713,0.93527,1,0.020911,2
12239,1.8073e+07,0.89714,0.93528,1,0.020911,2
12279,1.8083e+07,0.89715,0.93528,1,0.020911,2
12321,1.8093e+07,0.89716,0.93529,1,0.020911,2
12364,1.8103e+07,0.89717,0.9353,1,0.020911,2
12406,1.8113e+07,0.89719,0.93531,1,0.020911,2
12452,1.8125e+07,0.8972,0.93532,1,0.020911,2
12492,1.8135e+07,0.89721,0.93532,1,0.020911,2
12537,1.8148e+07,0.89723,0.93534,1,0.020911,2
12574,1.8159e+07,0.89724,0.93534,1,0.020911,2
12615,1.8169e+07,0.89725,0.93535,1,0.020911,2
12656,1.8179e+07,0.89726,0.93536,1,0.020911,2
12698,1.8189e+07,0.89728,0.93536,1,0.020911,2
12739,1.8199e+07,0.89729,0.93537,1,0.020911,2
12783,1.8209e+07,0.89729,0.93537,1,0.020911,2
12824,1.8219e+07,0.89729,0.93537,1,0.020911,2
12864,1.8229e+07,0.89728,0.93537,1,0.020911,2
12906,1.8239e+07,0.89728,0.93537,1,0.020911,2
12944,1.8249e+07,0.89728,0.93536,1,0.020911,2
12981,1.8259e+07,0.89727,0.93536,1,0.020911,2
13022,1.8269e+07,0.89727,0.93536,1,0.020911,2
13063,1.828e+07,0.89727,0.93536,1,0.020911,2
13105,1.8289e+07,0.89726,0.93536,1,0.020911,2
13145,1.8299e+07,0.89726,0.93535,1,0.020911,2
13190,1.831e+07,0.89726,0.93535,1,0.020911,2
13230,1.8319e+07,0.89726,0.93536,1,0.020911,2
13273,1.8329e+07,0.89727,0.93536,1,0.020911,2
13314,1.834e+07,0.89727,0.93536,1,0.020911,2
13352,1.8352e+07,0.89727,0.93536,1,0.020911,2
13392,1.8362e+07,0.89727,0.93536,1,0.020911,2
13433,1.8373e+07,0.89728,0.93536,1,0.020911,2
13475,1.8382e+07,0.89728,0.93537,1,0.020911,2
13515,1.8393e+07,0.89728,0.93537,1,0.020911,2
13557,1.8403e+07,0.89728,0.93537,1,0.020911,2
13601,1.8413e+07,0.89728,0.93537,1,0.020911,2
13641,1.8423e+07,0.89727,0.93536,1,0.020911,2
13682,1.8433e+07,0.89727,0.93536,1,0.020911,2
13723,1.8443e+07,0.89726,0.93536,1,0.020911,2
13761,1.8453e+07,0.89726,0.93535,1,0.020911,2
13801,1.8463e+07,0.89726,0.93535,1,0.020911,2
13839,1.8473e+07,0.89725,0.93535,1,0.020911,2
13880,1.8483e+07,0.89725,0.93535,1,0.020911,2
13922,1.8493e+07,0.89724,0.93534,1,0.020911,2
13964,1.8503e+07,0.89724,0.93534,1,0.020911,2
14009,1.8514e+07,0.89724,0.93534,1,0.020911,2
14050,1.8523e+07,0.89725,0.93535,1,0.020911,2
14093,1.8533e+07,0.89725,0.93535,1,0.020911,2
14133,1.8544e+07,0.89726,0.93535,1,0.020911,2
14174,1.8556e+07,0.89727,0.93536,1,0.020911,2
14215,1.8567e+07,0.89727,0.93536,1,0.020911,2
14256,1.8577e+07,0.89728,0.93537,1,0.020911,2
14296,1.8586e+07,0.89728,0.93537,1,0.020911,2
14338,1.8597e+07,0.89729,0.93537,1,0.020911,2
14382,1.8606e+07,0.89729,0.93537,1,0.020911,2
14425,1.8616e+07,0.8973,0.93538,1,0.020911,2
14466,1.8627e+07,0.8973,0.93538,1,0.020911,2
14506,1.8637e+07,0.89731,0.93538,1,0.020911,2
14548,1.8647e+07,0.89731,0.93539,1,0.020911,2
14585,1.8657e+07,0.89731,0.93539,1,0.020911,2
14627,1.8668e+07,0.89732,0.93539,1,0.020911,2
14668,1.8678e+07,0.89732,0.93539,1,0.020911,2
14708,1.8688e+07,0.89732,0.9354,1,0.020911,2
14749,1.8697e+07,0.89733,0.9354,1,0.020911,2
14793,1.8708e+07,0.89733,0.9354,1,0.020911,2
14835,1.8718e+07,0.89735,0.93541,1,0.020911,2
14876,1.8728e+07,0.89736,0.93542,1,0.020911,2
14919,1.8739e+07,0.89737,0.93543,1,0.020911,2
14961,1.8748e+07,0.89739,0.93544,1,0.020911,2
14995,1.8758e+07,0.8974,0.93544,1,0.020911,2
15035,1.8768e+07,0.89741,0.93545,1,0.020911,2
15075,1.8779e+07,0.89742,0.93546,1,0.020911,2
15115,1.8789e+07,0.89744,0.93547,1,0.020911,2
15157,1.8799e+07,0.89745,0.93548,1,0.020911,2
15202,1.8809e+07,0.89746,0.93548,1,0.020911,2
15245,1.8819e+07,0.89747,0.93549,1,0.020911,2
15286,1.8829e+07,0.89748,0.9355,1,0.020911,2
15328,1.8839e+07,0.8975,0.93551,1,0.020911,2
15368,1.8849e+07,0.89751,0.93551,1,0.020911,2
15403,1.8859e+07,0.89752,0.93552,1,0.020911,2
15444,1.8869e+07,0.89753,0.93553,1,0.020911,2
15484,1.8879e+07,0.89754,0.93554,1,0.020911,2
15525,1.8889e+07,0.89755,0.93554,1,0.020911,2
15567,1.89e+07,0.89756,0.93555,1,0.020911,2
15610,1.891e+07,0.89757,0.93556,1,0.020911,2
15652,1.892e+07,0.89755,0.93554,1,0.020911,2
15692,1.893e+07,0.89754,0.93553,1,0.020911,2
15736,1.894e+07,0.89752,0.93552,1,0.020911,2
15777,1.8953e+07,0.8975,0.93551,1,0.020911,2
15818,1.8963e+07,0.89748,0.9355,1,0.020911,2
15855,1.8973e+07,0.89747,0.93549,1,0.020911,2
15896,1.8983e+07,0.89746,0.93548,1,0.020911,2
15939,1.8993e+07,0.89744,0.93547,1,0.020911,2
15979,1.9003e+07,0.89743,0.93546,1,0.020911,2
16025,1.9013e+07,0.89742,0.93546,1,0.020911,2
16065,1.9023e+07,0.89742,0.93546,1,0.020911,2
16106,1.9033e+07,0.89743,0.93546,1,0.020911,2
16149,1.9043e+07,0.89744,0.93547,1,0.020911,2
16186,1.9055e+07,0.89744,0.93547,1,0.020911,2
16227,1.9066e+07,0.89745,0.93548,1,0.020911,2
16267,1.9076e+07,0.89745,0.93548,1,0.020911,2
16308,1.9085e+07,0.89746,0.93548,1,0.020911,2
16350,1.9095e+07,0.89746,0.93549,1,0.020911,2
16391,1.9106e+07,0.89747,0.93549,1,0.020911,2
16436,1.9116e+07,0.89747,0.93549,1,0.020911,2
16476,1.9126e+07,0.89747,0.93549,1,0.020911,2
16518,1.9136e+07,0.89747,0.93549,1,0.020911,2
16561,1.9146e+07,0.89747,0.93549,1,0.020911,2
16602,1.9161e+07,0.89748,0.93549,1,0.020911,2
16642,1.9172e+07,0.89748,0.93549,1,0.020911,2
16684,1.9182e+07,0.89748,0.9355,1,0.020911,2
16725,1.9192e+07,0.89748,0.9355,1,0.020911,2
16765,1.9202e+07,0.89748,0.9355,1,0.020911,2
16809,1.9212e+07,0.89748,0.9355,1,0.020911,2
16850,1.9222e+07,0.8975,0.93551,1,0.020911,2
16892,1.9233e+07,0.89751,0.93552,1,0.020911,2
16933,1.9243e+07,0.89753,0.93553,1,0.020911,2
16973,1.9253e+07,0.89754,0.93553,1,0.020911,2
17011,1.9266e+07,0.89756,0.93554,1,0.020911,2
17056,1.9278e+07,0.89757,0.93556,1,0.020911,2
17097,1.9288e+07,0.89758,0.93556,1,0.020911,2
17138,1.9298e+07,0.8976,0.93557,1,0.020911,2
17178,1.9308e+07,0.89761,0.93558,1,0.020911,2
17226,1.9321e+07,0.8976,0.93558,1,0.020911,2
17270,1.9331e+07,0.89759,0.93557,1,0.020911,2
17310,1.9341e+07,0.89758,0.93556,1,0.020911,2
17351,1.9354e+07,0.89757,0.93556,1,0.020911,2
17388,1.9364e+07,0.89756,0.93555,1,0.020911,2
17429,1.9374e+07,0.89755,0.93554,1,0.020911,2
17472,1.9383e+07,0.89754,0.93554,1,0.020911,2
17512,1.9393e+07,0.89754,0.93553,1,0.020911,2
17554,1.9404e+07,0.89753,0.93553,1,0.020911,2
17597,1.9414e+07,0.89752,0.93552,1,0.020911,2
17639,1.9423e+07,0.89752,0.93552,1,0.020911,2
17679,1.9434e+07,0.89753,0.93553,1,0.020911,2
17720,1.9444e+07,0.89754,0.93553,1,0.020911,2
17761,1.9456e+07,0.89754,0.93554,1,0.020911,2
17802,1.9467e+07,0.89755,0.93554,1,0.020911,2
17843,1.9477e+07,0.89755,0.93554,1,0.020911,2
17885,1.9486e+07,0.89756,0.93555,1,0.020911,2
17927,1.9496e+07,0.89756,0.93555,1,0.020911,2
17968,1.9506e+07,0.89757,0.93555,1,0.020911,2
18013,1.9517e+07,0.89757,0.93555,1,0.020911,2
18056,1.9527e+07,0.89757,0.93556,1,0.020911,2
18096,1.9536e+07,0.89758,0.93556,1,0.020911,2
18137,1.9547e+07,0.89758,0.93556,1,0.020911,2
18177,1.956e+07,0.89759,0.93557,1,0.020911,2
18219,1.957e+07,0.89759,0.93557,1,0.020911,2
18260,1.958e+07,0.89759,0.93557,1,0.020911,2
18297,1.959e+07,0.8976,0.93557,1,0.020911,2
18339,1.96e+07,0.8976,0.93557,1,0.020911,2
18380,1.961e+07,0.8976,0.93558,1,0.020911,2
18426,1.962e+07,0.89761,0.93558,1,0.020911,2
18467,1.963e+07,0.89761,0.93558,1,0.020911,2
18507,1.964e+07,0.89761,0.93558,1,0.020911,2
18548,1.965e+07,0.89761,0.93558,1,0.020911,2
18588,1.966e+07,0.89761,0.93558,1,0.020911,2
18624,1.967e+07,0.89761,0.93558,1,0.020911,2
18666,1.968e+07,0.89761,0.93558,1,0.020911,2
18706,1.969e+07,0.89761,0.93558,1,0.020911,2
18747,1.97e+07,0.89761,0.93558,1,0.020911,2
18790,1.971e+07,0.89761,0.93558,1,0.020911,2
18834,1.972e+07,0.89761,0.93558,1,0.020911,2
18876,1.973e+07,0.89761,0.93558,1,0.020911,2
18917,1.974e+07,0.89761,0.93558,1,0.020911,2
18957,1.975e+07,0.89761,0.93558,1,0.020911,2
18999,1.976e+07,0.89761,0.93558,1,0.020911,2
19037,1.977e+07,0.89761,0.93558,1,0.020911,2
19077,1.978e+07,0.89761,0.93558,1,0.020911,2
19118,1.9791e+07,0.89761,0.93558,1,0.020911,2
19158,1.98e+07,0.89761,0.93558,1,0.020911,2
19201,1.9811e+07,0.89761,0.93558,1,0.020911,2
19247,1.9821e+07,0.89761,0.93558,1,0.020911,2
19288,1.983e+07,0.8976,0.93557,1,0.020911,2
19329,1.9841e+07,0.89759,0.93557,1,0.020911,2
19369,1.985e+07,0.89758,0.93556,1,0.020911,2
19411,1.9863e+07,0.89757,0.93555,1,0.020911,2
19451,1.9873e+07,0.89756,0.93555,1,0.020911,2
19492,1.9883e+07,0.89755,0.93554,1,0.020911,2
19533,1.9893e+07,0.89755,0.93554,1,0.020911,2
19574,1.9903e+07,0.89754,0.93553,1,0.020911,2
19622,1.9915e+07,0.89753,0.93553,1,0.020911,2
19663,1.9925e+07,0.89754,0.93553,1,0.020911,2
19706,1.9935e+07,0.89754,0.93554,1,0.020911,2
19747,1.9945e+07,0.89755,0.93554,1,0.020911,2
19785,1.9955e+07,0.89755,0.93554,1,0.020911,2
19823,1.9965e+07,0.89756,0.93555,1,0.020911,2
19864,1.9976e+07,0.89756,0.93555,1,0.020911,2
19907,1.9985e+07,0.89756,0.93555,1,0.020911,2
19947,1.9996e+07,0.89757,0.93555,1,0.020911,2
19989,2.0005e+07,0.89757,0.93556,1,0.020911,2
20033,2.0015e+07,0.89758,0.93556,1,0.020911,2
20075,2.0026e+07,0.89756,0.93555,1,0.020911,2
20116,2.0035e+07,0.89754,0.93554,1,0.020911,2
20156,2.0046e+07,0.89753,0.93553,1,0.020911,2
20197,2.0055e+07,0.89751,0.93551,1,0.020911,2
20232,2.0065e+07,0.89749,0.9355,1,0.020911,2
20273,2.0075e+07,0.89748,0.93549,1,0.020911,2
20314,2.0085e+07,0.89746,0.93548,1,0.020911,2
20354,2.0096e+07,0.89745,0.93548,1,0.020911,2
20396,2.0105e+07,0.89743,0.93547,1,0.020911,2
20441,2.0115e+07,0.89742,0.93546,1,0.020911,2
20482,2.0126e+07,0.89742,0.93546,1,0.020911,2
20524,2.0135e+07,0.89743,0.93546,1,0.020911,2
20564,2.0145e+07,0.89743,0.93546,1,0.020911,2
20608,2.0158e+07,0.89743,0.93546,1,0.020911,2
20645,2.0168e+07,0.89743,0.93547,1,0.020911,2
20685,2.0178e+07,0.89744,0.93547,1,0.020911,2
20725,2.0188e+07,0.89744,0.93547,1,0.020911,2
20766,2.0198e+07,0.89744,0.93547,1,0.020911,2
20807,2.0207e+07,0.89744,0.93547,1,0.020911,2
20851,2.0218e+07,0.89744,0.93547,1,0.020911,2
20893,2.0228e+07,0.89742,0.93546,1,0.020911,2
20934,2.0238e+07,0.8974,0.93544,1,0.020911,2
20975,2.0248e+07,0.89737,0.93543,1,0.020911,2
21016,2.026e+07,0.89735,0.93541,1,0.020911,2
21054,2.0271e+07,0.89733,0.9354,1,0.020911,2
21095,2.028e+07,0.89731,0.93539,1,0.020911,2
21135,2.029e+07,0.89729,0.93538,1,0.020911,2
21177,2.0301e+07,0.89728,0.93536,1,0.020911,2
21217,2.031e+07,0.89726,0.93535,1,0.020911,2
21264,2.0321e+07,0.89726,0.93535,1,0.020911,2
21305,2.033e+07,0.89726,0.93536,1,0.020911,2
21347,2.034e+07,0.89727,0.93536,1,0.020911,2
21390,2.035e+07,0.89728,0.93537,1,0.020911,2
21427,2.036e+07,0.89729,0.93537,1,0.020911,2
21464,2.037e+07,0.89729,0.93538,1,0.020911,2
21505,2.0381e+07,0.8973,0.93538,1,0.020911,2
21545,2.039e+07,0.89731,0.93539,1,0.020911,2
21586,2.0401e+07,0.89732,0.93539,1,0.020911,2
21627,2.0411e+07,0.89732,0.93539,1,0.020911,2
21672,2.042e+07,0.89733,0.9354,1,0.020911,2
21713,2.0431e+07,0.89732,0.9354,1,0.020911,2
21753,2.0441e+07,0.89732,0.9354,1,0.020911,2
21796,2.0451e+07,0.89732,0.9354,1,0.020911,2
21833,2.0463e+07,0.89732,0.9354,1,0.020911,2
21873,2.0474e+07,0.89732,0.93539,1,0.020911,2
21916,2.0484e+07,0.89732,0.93539,1,0.020911,2
21956,2.0494e+07,0.89732,0.93539,1,0.020911,2
21998,2.0503e+07,0.89732,0.93539,1,0.020911,2
22038,2.0514e+07,0.89732,0.93539,1,0.020911,2
22084,2.0524e+07,0.89732,0.9354,1,0.020911,2
22126,2.0534e+07,0.89733,0.9354,1,0.020911,2
22167,2.0544e+07,0.89733,0.9354,1,0.020911,2
22208,2.0554e+07,0.89733,0.9354,1,0.020911,2
22250,2.0566e+07,0.89734,0.93541,1,0.020911,2
22288,2.0576e+07,0.89734,0.93541,1,0.020911,2
22328,2.0587e+07,0.89734,0.93541,1,0.020911,2
22369,2.0596e+07,0.89735,0.93541,1,0.020911,2
22409,2.0606e+07,0.89735,0.93541,1,0.020911,2
22455,2.0617e+07,0.89735,0.93541,1,0.020911,2
22497,2.0627e+07,0.89736,0.93542,1,0.020911,2
22537,2.0636e+07,0.89736,0.93542,1,0.020911,2
22578,2.0646e+07,0.89736,0.93542,1,0.020911,2
22620,2.0657e+07,0.89736,0.93542,1,0.020911,2
22661,2.0667e+07,0.89737,0.93542,1,0.020911,2
22698,2.0676e+07,0.89737,0.93542,1,0.020911,2
22736,2.0686e+07,0.89737,0.93543,1,0.020911,2
22778,2.0696e+07,0.89737,0.93543,1,0.020911,2
22818,2.0707e+07,0.89737,0.93543,1,0.020911,2
22863,2.0717e+07,0.89738,0.93543,1,0.020911,2
22904,2.0727e+07,0.89738,0.93543,1,0.020911,2
22948,2.0737e+07,0.89738,0.93543,1,0.020911,2
22988,2.0747e+07,0.89739,0.93544,1,0.020911,2
23030,2.076e+07,0.89739,0.93544,1,0.020911,2
23071,2.077e+07,0.8974,0.93544,1,0.020911,2
23108,2.078e+07,0.8974,0.93544,1,0.020911,2
23149,2.079e+07,0.8974,0.93545,1,0.020911,2
23189,2.08e+07,0.89741,0.93545,1,0.020911,2
23231,2.081e+07,0.89741,0.93545,1,0.020911,2
23277,2.082e+07,0.89741,0.93545,1,0.020911,2
23318,2.083e+07,0.89742,0.93546,1,0.020911,2
23359,2.084e+07,0.89743,0.93546,1,0.020911,2
23399,2.085e+07,0.89743,0.93546,1,0.020911,2
23442,2.086e+07,0.89744,0.93547,1,0.020911,2
23482,2.0872e+07,0.89744,0.93547,1,0.020911,2
23523,2.0882e+07,0.89745,0.93548,1,0.020911,2
23564,2.0892e+07,0.89745,0.93548,1,0.020911,2
23607,2.0903e+07,0.89746,0.93548,1,0.020911,2
23648,2.0912e+07,0.89746,0.93549,1,0.020911,2
23692,2.0922e+07,0.89746,0.93548,1,0.020911,2
23733,2.0932e+07,0.89745,0.93547,1,0.020911,2
23775,2.0942e+07,0.89743,0.93546,1,0.020911,2
23817,2.0952e+07,0.89742,0.93546,1,0.020911,2
23858,2.0962e+07,0.8974,0.93545,1,0.020911,2
23899,2.0972e+07,0.89739,0.93544,1,0.020911,2
23942,2.0984e+07,0.89738,0.93543,1,0.020911,2
23982,2.0995e+07,0.89736,0.93542,1,0.020911,2
24023,2.1005e+07,0.89735,0.93541,1,0.020911,2
24065,2.1014e+07,0.89734,0.93541,1,0.020911,2
24109,2.1024e+07,0.89735,0.93541,1,0.020911,2
24150,2.1035e+07,0.89735,0.93541,1,0.020911,2
24191,2.1044e+07,0.89736,0.93542,1,0.020911,2
24232,2.1055e+07,0.89737,0.93542,1,0.020911,2
24269,2.1064e+07,0.89738,0.93543,1,0.020911,2
24314,2.108e+07,0.89739,0.93544,1,0.020911,2
24355,2.109e+07,0.89739,0.93544,1,0.020911,2
24396,2.11e+07,0.8974,0.93544,1,0.020911,2
24438,2.111e+07,0.89741,0.93545,1,0.020911,2
24483,2.112e+07,0.89741,0.93545,1,0.020911,2
24523,2.113e+07,0.89741,0.93545,1,0.020911,2
24567,2.114e+07,0.89741,0.93545,1,0.020911,2
24607,2.115e+07,0.89741,0.93545,1,0.020911,2
24648,2.116e+07,0.89741,0.93545,1,0.020911,2
24685,2.117e+07,0.89742,0.93545,1,0.020911,2
24726,2.118e+07,0.89742,0.93545,1,0.020911,2
24768,2.1191e+07,0.89742,0.93546,1,0.020911,2
24808,2.1201e+07,0.89742,0.93546,1,0.020911,2
24850,2.1211e+07,0.89742,0.93546,1,0.020911,2
24894,2.1221e+07,0.89742,0.93546,1,0.020911,2
24935,2.1231e+07,0.89742,0.93546,1,0.020911,2
24975,2.1241e+07,0.89742,0.93546,1,0.020911,2
25017,2.1251e+07,0.89742,0.93546,1,0.020911,2
25058,2.1261e+07,0.89742,0.93546,1,0.020911,2
25098,2.1273e+07,0.89742,0.93546,1,0.020911,2
25140,2.1284e+07,0.89742,0.93546,1,0.020911,2
25181,2.1294e+07,0.89742,0.93546,1,0.020911,2
25222,2.1304e+07,0.89742,0.93546,1,0.020911,2
25263,2.1314e+07,0.89742,0.93546,1,0.020911,2
25307,2.1324e+07,0.89743,0.93546,1,0.020911,2
25349,2.1334e+07,0.89744,0.93547,1,0.020911,2
25391,2.1344e+07,0.89744,0.93547,1,0.020911,2
25432,2.1354e+07,0.89745,0.93548,1,0.020911,2
25475,2.1366e+07,0.89746,0.93549,1,0.020911,2
25513,2.1377e+07,0.89747,0.93549,1,0.020911,2
25554,2.1387e+07,0.89748,0.93549,1,0.020911,2
25596,2.1397e+07,0.89748,0.9355,1,0.020911,2
25637,2.1407e+07,0.89749,0.9355,1,0.020911,2
25677,2.1417e+07,0.8975,0.93551,1,0.020911,2
25722,2.1426e+07,0.89749,0.93551,1,0.020911,2
25764,2.1437e+07,0.89749,0.9355,1,0.020911,2
25804,2.1446e+07,0.89748,0.9355,1,0.020911,2
25848,2.1459e+07,0.89747,0.93549,1,0.020911,2
25888,2.147e+07,0.89746,0.93549,1,0.020911,2
25928,2.148e+07,0.89746,0.93548,1,0.020911,2
25970,2.149e+07,0.89745,0.93548,1,0.020911,2
26011,2.15e+07,0.89745,0.93547,1,0.020911,2
26052,2.151e+07,0.89744,0.93547,1,0.020911,2
26096,2.152e+07,0.89744,0.93547,1,0.020911,2
26140,2.153e+07,0.89744,0.93547,1,0.020911,2
26180,2.154e+07,0.89744,0.93547,1,0.020911,2
26221,2.155e+07,0.89744,0.93547,1,0.020911,2
26262,2.156e+07,0.89744,0.93547,1,0.020911,2
26302,2.157e+07,0.89744,0.93547,1,0.020911,2
26341,2.1582e+07,0.89744,0.93547,1,0.020911,2
26382,2.1593e+07,0.89744,0.93547,1,0.020911,2
26422,2.1603e+07,0.89744,0.93547,1,0.020911,2
26466,2.1613e+07,0.89744,0.93547,1,0.020911,2
26511,2.1623e+07,0.8974,0.93545,1,0.020911,2
26553,2.1633e+07,0.89728,0.93537,1,0.020911,2
26593,2.1643e+07,0.89716,0.93529,1,0.020911,2
26634,2.1653e+07,0.89704,0.93521,1,0.020911,2
26674,2.1663e+07,0.89693,0.93514,1,0.020911,2
26712,2.1673e+07,0.89682,0.93507,1,0.020911,2
26750,2.1683e+07,0.89671,0.935,1,0.020911,2
26791,2.1694e+07,0.8966,0.93493,1,0.020911,2
26832,2.1704e+07,0.8965,0.93487,1,0.020911,2
26874,2.1714e+07,0.89641,0.9348,1,0.020911,2
26924,2.1726e+07,0.89612,0.93462,1,0.020911,2
26964,2.1736e+07,0.8957,0.93435,1,0.020911,2
27005,2.1746e+07,0.8953,0.93409,1,0.020911,2
27047,2.1756e+07,0.89491,0.93383,1,0.020911,2
27087,2.1766e+07,0.89453,0.93359,1,0.020911,2
27129,2.1776e+07,0.89416,0.93335,1,0.020911,2
27167,2.1786e+07,0.8938,0.93312,1,0.020911,2
27208,2.1796e+07,0.89346,0.9329,1,0.020911,2
27249,2.1806e+07,0.89312,0.93268,1,0.020911,2
27290,2.1816e+07,0.8928,0.93247,1,0.020911,2
27338,2.1826e+07,0.8925,0.93228,1,0.020911,2
27378,2.1836e+07,0.89222,0.9321,1,0.020911,2
27420,2.1846e+07,0.89195,0.93192,1,0.020911,2
27460,2.1856e+07,0.89169,0.93175,1,0.020911,2
27501,2.1866e+07,0.89144,0.93159,1,0.020911,2
27542,2.1876e+07,0.89119,0.93143,1,0.020911,2
27579,2.1886e+07,0.89096,0.93128,1,0.020911,2
27621,2.1896e+07,0.89073,0.93113,1,0.020911,2
27662,2.1906e+07,0.8905,0.93098,1,0.020911,2
27702,2.1916e+07,0.89029,0.93084,1,0.020911,2
27750,2.1927e+07,0.89016,0.93076,1,0.020911,2
27790,2.1936e+07,0.89013,0.93074,1,0.020911,2
27831,2.1946e+07,0.89009,0.93072,1,0.020911,2
27872,2.1957e+07,0.89006,0.9307,1,0.020911,2
27910,2.1969e+07,0.89002,0.93067,1,0.020911,2
27952,2.1979e+07,0.88999,0.93065,1,0.020911,2
27993,2.199e+07,0.88996,0.93063,1,0.020911,2
28034,2.2e+07,0.88993,0.93061,1,0.020911,2
28075,2.2009e+07,0.8899,0.93059,1,0.020911,2
28116,2.2019e+07,0.88987,0.93057,1,0.020911,2
28161,2.203e+07,0.88983,0.93055,1,0.020911,2
28202,2.2039e+07,0.88979,0.93052,1,0.020911,2
28242,2.205e+07,0.88975,0.93049,1,0.020911,2
28284,2.2059e+07,0.8897,0.93047,1,0.020911,2
28322,2.2069e+07,0.88967,0.93044,1,0.020911,2
28362,2.2079e+07,0.88963,0.93042,1,0.020911,2
28400,2.209e+07,0.88959,0.93039,1,0.020911,2
28440,2.21e+07,0.88955,0.93037,1,0.020911,2
28482,2.211e+07,0.88952,0.93035,1,0.020911,2
28522,2.212e+07,0.88949,0.93032,1,0.020911,2
28571,2.2131e+07,0.88945,0.9303,1,0.020911,2
28621,2.214e+07,0.8894,0.93027,1,0.020911,2
28665,2.2151e+07,0.88936,0.93024,1,0.020911,2
28710,2.2164e+07,0.88932,0.93021,1,0.020911,2
28757,2.2177e+07,0.88927,0.93018,1,0.020911,2
28802,2.2187e+07,0.88923,0.93016,1,0.020911,2
28848,2.2197e+07,0.8892,0.93014,1,0.020911,2
28889,2.2207e+07,0.88917,0.93012,1,0.020911,2
28934,2.2217e+07,0.88913,0.9301,1,0.020911,2
28983,2.2227e+07,0.88912,0.93009,1,0.020911,2
29028,2.2238e+07,0.88916,0.93011,1,0.020911,2
29074,2.2248e+07,0.8892,0.93014,1,0.020911,2
29118,2.2258e+07,0.88924,0.93017,1,0.020911,2
29163,2.2268e+07,0.88928,0.93019,1,0.020911,2
29201,2.2279e+07,0.88932,0.93022,1,0.020911,2
29249,2.2291e+07,0.88937,0.93025,1,0.020911,2
29293,2.2302e+07,0.8894,0.93027,1,0.020911,2
29338,2.2312e+07,0.88944,0.93029,1,0.020911,2
29383,2.2322e+07,0.88947,0.93031,1,0.020911,2
29432,2.2333e+07,0.88944,0.9303,1,0.024286,2
29480,2.2343e+07,0.88936,0.93024,1,0.028786,2
29524,2.2353e+07,0.88928,0.93019,1,0.033286,2
29569,2.2363e+07,0.8892,0.93014,1,0.037786,2
29611,2.2373e+07,0.88913,0.93009,1,0.042286,2
29655,2.2383e+07,0.88906,0.93005,1,0.046786,2
29697,2.2393e+07,0.88899,0.93,1,0.051286,2
29741,2.2403e+07,0.88892,0.92996,1,0.055786,2
29789,2.2415e+07,0.88884,0.9299,1,0.061412,2
29834,2.2426e+07,0.88877,0.92986,1,0.065912,2
29883,2.2436e+07,0.88843,0.92964,1,0.070412,2
29928,2.2446e+07,0.88801,0.92936,1,0.074912,2
29972,2.2456e+07,0.88759,0.9291,1,0.079412,2
30014,2.2466e+07,0.88719,0.92884,1,0.083913,2
30060,2.2478e+07,0.88671,0.92852,1,0.088413,2
30106,2.2489e+07,0.88634,0.92828,1,0.092913,2
30151,2.2499e+07,0.88598,0.92805,1,0.097412,2
30195,2.2509e+07,0.88563,0.92782,1,0.10191,2
30241,2.252e+07,0.88529,0.9276,1,0.10641,2
30290,2.253e+07,0.88497,0.92739,1,0.11091,2
30336,2.254e+07,0.88455,0.92712,1,0.11541,2
30381,2.255e+07,0.88414,0.92686,1,0.11991,2
30425,2.256e+07,0.88375,0.9266,1,0.12441,2
30470,2.2573e+07,0.88328,0.92629,1,0.12891,2
30514,2.2583e+07,0.88291,0.92606,1,0.13229,2
30558,2.2593e+07,0.88256,0.92583,1,0.13679,2
30603,2.2603e+07,0.88222,0.9256,1,0.14129,2
30647,2.2614e+07,0.88189,0.92539,1,0.14579,2
30693,2.2624e+07,0.88156,0.92518,1,0.15029,2
30743,2.2634e+07,0.88112,0.92488,1,0.15479,2
30787,2.2644e+07,0.88028,0.92434,1,0.15929,2
30832,2.2654e+07,0.87948,0.92382,1,0.16379,2
30876,2.2664e+07,0.8787,0.92331,1,0.16829,2
30921,2.2677e+07,0.87776,0.92269,1,0.17279,2
30964,2.2687e+07,0.87703,0.92222,1,0.17616,2
31009,2.2697e+07,0.87632,0.92176,1,0.18066,2
31054,2.2708e+07,0.87564,0.92131,1,0.18517,2
31098,2.2718e+07,0.87498,0.92088,1,0.18966,2
31149,2.2731e+07,0.87418,0.92036,1,0.19529,2
31197,2.274e+07,0.8731,0.91965,1,0.19979,2
31242,2.2751e+07,0.8719,0.91887,1,0.20429,2
31286,2.2761e+07,0.87073,0.9181,1,0.20879,2
31331,2.2771e+07,0.86961,0.91736,1,0.21376,2
31370,2.2782e+07,0.86851,0.91665,1,0.21625,2
31414,2.2793e+07,0.86746,0.91595,1,0.22125,2
31459,2.2803e+07,0.86643,0.91528,1,0.22625,2
31506,2.2813e+07,0.86544,0.91463,1,0.23125,2
31551,2.2823e+07,0.86448,0.914,1,0.23625,2
31595,2.2833e+07,0.86354,0.91339,1,0.24125,2
31646,2.2843e+07,0.86213,0.91245,1,0.24626,2
31691,2.2853e+07,0.86058,0.91144,1,0.25126,2
31736,2.2863e+07,0.85909,0.91045,1,0.25625,2
31781,2.2874e+07,0.85764,0.9095,1,0.26125,2
31822,2.2884e+07,0.85624,0.90857,1,0.265,2
31867,2.2894e+07,0.85488,0.90767,1,0.27,2
31909,2.2905e+07,0.85356,0.9068,1,0.275,2
31954,2.2915e+07,0.85229,0.90596,1,0.28,2
32000,2.2925e+07,0.85105,0.90514,1,0.28501,2
32046,2.2935e+07,0.84986,0.90435,1,0.29,2
32095,2.2946e+07,0.8483,0.90332,1,0.29501,2
32139,2.2956e+07,0.84667,0.90224,1,0.30001,2
32184,2.2966e+07,0.84508,0.90118,1,0.30501,2
32232,2.2976e+07,0.84355,0.90016,1,0.31001,2
32270,2.2987e+07,0.84206,0.89917,1,0.31376,2
32316,2.2997e+07,0.84062,0.89822,1,0.31876,2
32360,2.3007e+07,0.83923,0.89729,1,0.32377,2
32406,2.3017e+07,0.83788,0.89639,1,0.32877,2
32450,2.3027e+07,0.83657,0.89552,1,0.33378,2
32495,2.3037e+07,0.8353,0.89467,1,0.33565,2
32543,2.3047e+07,0.83359,0.89353,1,0.33299,2
32589,2.3057e+07,0.83177,0.89231,1,0.33583,2
32634,2.3068e+07,0.83001,0.89113,1,0.33077,2
32678,2.3081e+07,0.82789,0.88971,1,0.32887,2
32723,2.3092e+07,0.82625,0.88861,1,0.32081,2
32766,2.3103e+07,0.82466,0.88754,1,0.31156,2
32810,2.3113e+07,0.82313,0.88651,1,0.3112,2
32857,2.3123e+07,0.82164,0.88551,1,0.31194,2
32901,2.3133e+07,0.8202,0.88454,1,0.31054,2
32955,2.3145e+07,0.81835,0.88329,1,0.30627,2
33000,2.3155e+07,0.81656,0.88209,1,0.29946,2
33044,2.3166e+07,0.81483,0.88092,1,0.29315,2
33089,2.3176e+07,0.81315,0.87978,1,0.28983,2
33131,2.3189e+07,0.81113,0.87841,1,0.28402,2
33176,2.3199e+07,0.80957,0.87736,1,0.27734,2
33220,2.3209e+07,0.80806,0.87633,1,0.26947,2
33265,2.3219e+07,0.80659,0.87534,1,0.26644,2
33311,2.323e+07,0.80518,0.87438,1,0.26493,2
33356,2.324e+07,0.8038,0.87344,1,0.26687,2
33405,2.325e+07,0.80267,0.87267,1,0.25893,2
33449,2.326e+07,0.80175,0.87205,1,0.26396,2
33495,2.327e+07,0.80086,0.87144,1,0.26243,2
33540,2.328e+07,0.80001,0.87086,1,0.2586,2
33581,2.3294e+07,0.79897,0.87015,1,0.26388,2
33625,2.3304e+07,0.79817,0.86961,1,0.26486,2
33670,2.3314e+07,0.79739,0.86908,1,0.26144,2
33715,2.3324e+07,0.79664,0.86857,1,0.27048,2
33759,2.3334e+07,0.79592,0.86807,1,0.26533,2
33808,2.3345e+07,0.79521,0.86759,1,0.25891,2
33857,2.3355e+07,0.79492,0.86739,1,0.25746,2
33901,2.3365e+07,0.79477,0.86728,1,0.25555,2
33946,2.3375e+07,0.79461,0.86718,1,0.26103,2
33991,2.3386e+07,0.79447,0.86708,1,0.25512,2
34039,2.3398e+07,0.79429,0.86696,1,0.2594,2
34086,2.3411e+07,0.79412,0.86684,1,0.26133,2
34131,2.3421e+07,0.79399,0.86675,1,0.26307,2
34176,2.3431e+07,0.79386,0.86666,1,0.27019,2
34221,2.3441e+07,0.79374,0.86658,1,0.26572,2
34274,2.3454e+07,0.79361,0.86649,1,0.26693,2
34319,2.3465e+07,0.79352,0.86643,1,0.26991,2
34365,2.3475e+07,0.79343,0.86637,1,0.2677,2
34410,2.3485e+07,0.79335,0.86632,1,0.26652,2
34454,2.3498e+07,0.79326,0.86625,1,0.26368,2
34499,2.3511e+07,0.79316,0.86618,1,0.25805,2
34545,2.3521e+07,0.79309,0.86613,1,0.2628,2
34591,2.3532e+07,0.79302,0.86609,1,0.26246,2
34637,2.3543e+07,0.79295,0.86604,1,0.25936,2
34689,2.3555e+07,0.79285,0.86597,1,0.26173,2
34733,2.3566e+07,0.79272,0.86588,1,0.26415,2
34778,2.3576e+07,0.7926,0.8658,1,0.25807,2
34823,2.3587e+07,0.79248,0.86572,1,0.2622,2
34868,2.3597e+07,0.79236,0.86564,1,0.26075,2
34913,2.3608e+07,0.79225,0.86556,1,0.25638,2
34954,2.3619e+07,0.79214,0.86548,1,0.26013,2
35000,2.3629e+07,0.79203,0.86541,1,0.25101,2
35044,2.3639e+07,0.79193,0.86534,1,0.25342,2
35091,2.3649e+07,0.79183,0.86527,1,0.25541,2
35143,2.3662e+07,0.79174,0.86521,1,0.24874,2
35187,2.3672e+07,0.7917,0.86518,1,0.24866,2
35232,2.3682e+07,0.79166,0.86516,1,0.24767,2
35276,2.3692e+07,0.79162,0.86513,1,0.25078,2
35321,2.3703e+07,0.79159,0.86511,1,0.25581,2
35360,2.3713e+07,0.79155,0.86508,1,0.25163,2
35405,2.3723e+07,0.79152,0.86506,1,0.25528,2
35450,2.3734e+07,0.79149,0.86504,1,0.25241,2
35497,2.3744e+07,0.79145,0.86501,1,0.25589,2
35542,2.3754e+07,0.79142,0.86499,1,0.25996,2
35591,2.3764e+07,0.79143,0.865,1,0.25439,2
35636,2.3774e+07,0.79147,0.86502,1,0.25652,2
35681,2.3784e+07,0.79151,0.86505,1,0.25736,2
35725,2.3794e+07,0.79154,0.86508,1,0.25798,2
35770,2.3804e+07,0.79158,0.8651,1,0.25648,2
35814,2.3814e+07,0.79162,0.86513,1,0.25887,2
35859,2.3824e+07,0.79165,0.86515,1,0.25489,2
35901,2.3835e+07,0.79168,0.86517,1,0.25694,2
35945,2.3845e+07,0.79172,0.86519,1,0.25868,2
35991,2.3855e+07,0.79175,0.86522,1,0.25532,2
36042,2.3865e+07,0.79174,0.86521,1,0.25804,2
36088,2.3875e+07,0.79169,0.86518,1,0.25737,2
36133,2.3885e+07,0.79164,0.86515,1,0.25535,2
36177,2.3895e+07,0.7916,0.86512,1,0.25858,2
36223,2.3905e+07,0.79156,0.86509,1,0.26048,2
36261,2.3916e+07,0.79152,0.86506,1,0.2618,2
36307,2.3925e+07,0.79148,0.86503,1,0.26149,2
36351,2.3936e+07,0.79144,0.865,1,0.26119,2
36398,2.3946e+07,0.7914,0.86498,1,0.25708,2
36442,2.3956e+07,0.79136,0.86495,1,0.26109,2
36494,2.3966e+07,0.79128,0.86489,1,0.25897,2
36539,2.3977e+07,0.79115,0.8648,1,0.25815,2
36584,2.3986e+07,0.79102,0.86472,1,0.25502,2
36629,2.3997e+07,0.79089,0.86463,1,0.25211,2
36670,2.4007e+07,0.79078,0.86455,1,0.25191,2
36714,2.4017e+07,0.79066,0.86447,1,0.25198,2
36755,2.4029e+07,0.79055,0.86439,1,0.25175,2
36800,2.4039e+07,0.79044,0.86432,1,0.24853,2
36844,2.4049e+07,0.79033,0.86425,1,0.24874,2
36888,2.4059e+07,0.79023,0.86418,1,0.24275,2
36937,2.4069e+07,0.79014,0.86411,1,0.24336,2
36981,2.4079e+07,0.79005,0.86405,1,0.23918,2
37028,2.4089e+07,0.78997,0.864,1,0.23974,2
37073,2.4099e+07,0.78989,0.86394,1,0.23835,2
37117,2.4111e+07,0.78979,0.86388,1,0.23823,2
37166,2.4124e+07,0.7897,0.86381,1,0.23757,2
37209,2.4134e+07,0.78963,0.86376,1,0.2416,2
37255,2.4144e+07,0.78956,0.86371,1,0.24033,2
37300,2.4154e+07,0.78949,0.86367,1,0.24501,2
37347,2.4164e+07,0.78942,0.86362,1,0.2488,2
37393,2.4174e+07,0.78953,0.8637,1,0.24979,2
37437,2.4184e+07,0.78964,0.86377,1,0.25226,2
37482,2.4194e+07,0.78975,0.86385,1,0.25731,2
37527,2.4204e+07,0.78985,0.86392,1,0.25523,2
37573,2.4217e+07,0.78997,0.864,1,0.25525,2
37615,2.4227e+07,0.79007,0.86407,1,0.25621,2
37659,2.4237e+07,0.79016,0.86413,1,0.25409,2
37704,2.4248e+07,0.79025,0.86419,1,0.25399,2
37748,2.4258e+07,0.79034,0.86425,1,0.25723,2
37798,2.4268e+07,0.7904,0.86429,1,0.25601,2
37842,2.4278e+07,0.79037,0.86427,1,0.25674,2
37887,2.4289e+07,0.79035,0.86426,1,0.25391,2
37932,2.4299e+07,0.79033,0.86424,1,0.25459,2
37977,2.431e+07,0.7903,0.86423,1,0.25633,2
38021,2.432e+07,0.79028,0.86421,1,0.255,2
38065,2.433e+07,0.79026,0.8642,1,0.25601,2
38112,2.4341e+07,0.79024,0.86419,1,0.25472,2
38156,2.4351e+07,0.79022,0.86417,1,0.25793,2
38202,2.4362e+07,0.79021,0.86416,1,0.25368,2
38251,2.4372e+07,0.79016,0.86413,1,0.25599,2
38295,2.4382e+07,0.79002,0.86403,1,0.25796,2
38340,2.4392e+07,0.78988,0.86394,1,0.25604,2
38384,2.4402e+07,0.78975,0.86385,1,0.25716,2
38431,2.4413e+07,0.78962,0.86376,1,0.25804,2
38473,2.4423e+07,0.7895,0.86367,1,0.25621,2
38514,2.4433e+07,0.78938,0.86359,1,0.26092,2
38559,2.4444e+07,0.78926,0.86351,1,0.25897,2
38603,2.4454e+07,0.78915,0.86343,1,0.25804,2
38651,2.4464e+07,0.78904,0.86336,1,0.25966,2
38699,2.4474e+07,0.78894,0.86329,1,0.25641,2
38744,2.4484e+07,0.78888,0.86325,1,0.26093,2
38788,2.4495e+07,0.78882,0.86321,1,0.25845,2
38834,2.4505e+07,0.78876,0.86317,1,0.2576,2
38878,2.4514e+07,0.7887,0.86313,1,0.25909,2
38917,2.4525e+07,0.78865,0.86309,1,0.25867,2
38962,2.4535e+07,0.7886,0.86306,1,0.2602,2
39009,2.4546e+07,0.78855,0.86302,1,0.26247,2
39053,2.4556e+07,0.7885,0.86299,1,0.25994,2
39099,2.4566e+07,0.78845,0.86296,1,0.26285,2
39147,2.4576e+07,0.7884,0.86292,1,0.26093,2
39192,2.4587e+07,0.78835,0.86289,1,0.25824,2
39236,2.4596e+07,0.7883,0.86285,1,0.25874,2
39282,2.4607e+07,0.78825,0.86282,1,0.25865,2
39327,2.4619e+07,0.78819,0.86278,1,0.2553,2
39369,2.4631e+07,0.78814,0.86274,1,0.25606,2
39414,2.4641e+07,0.7881,0.86271,1,0.25694,2
39459,2.4652e+07,0.78805,0.86268,1,0.25636,2
39504,2.4662e+07,0.78801,0.86265,1,0.25884,2
39549,2.4672e+07,0.78797,0.86263,1,0.25958,2
39598,2.4682e+07,0.78791,0.86258,1,0.25621,2
39642,2.4693e+07,0.78783,0.86253,1,0.25839,2
39687,2.4703e+07,0.78775,0.86248,1,0.25647,2
39735,2.4716e+07,0.78766,0.86241,1,0.25558,2
39780,2.4727e+07,0.78759,0.86237,1,0.25656,2
39824,2.4737e+07,0.78752,0.86232,1,0.25524,2
39868,2.4748e+07,0.78745,0.86227,1,0.25403,2
39913,2.4758e+07,0.78739,0.86223,1,0.25439,2
39958,2.4769e+07,0.78733,0.86218,1,0.25284,2
40003,2.4778e+07,0.78727,0.86214,1,0.25242,2
40053,2.4789e+07,0.78723,0.86212,1,0.25325,2
40097,2.4799e+07,0.78721,0.8621,1,0.25644,2
40142,2.4809e+07,0.78718,0.86209,1,0.25357,2
40186,2.4819e+07,0.78716,0.86207,1,0.25289,2
40226,2.4831e+07,0.78714,0.86205,1,0.25338,2
40270,2.4841e+07,0.78712,0.86204,1,0.25365,2
40317,2.4851e+07,0.78709,0.86203,1,0.25393,2
40361,2.4862e+07,0.78707,0.86201,1,0.25346,2
40405,2.4872e+07,0.78705,0.862,1,0.25256,2
40450,2.4882e+07,0.78704,0.86198,1,0.25273,2
40500,2.4893e+07,0.78701,0.86196,1,0.25198,2
40546,2.4903e+07,0.78697,0.86194,1,0.25252,2
40591,2.4913e+07,0.78694,0.86192,1,0.24936,2
40636,2.4923e+07,0.78691,0.8619,1,0.25114,2
40688,2.494e+07,0.78686,0.86187,1,0.24848,2
40732,2.495e+07,0.78684,0.86185,1,0.24838,2
40780,2.496e+07,0.78681,0.86183,1,0.24711,2
40825,2.497e+07,0.78678,0.86181,1,0.24585,2
40871,2.498e+07,0.78676,0.86179,1,0.24748,2
40920,2.499e+07,0.78675,0.86179,1,0.24772,2
40964,2.5001e+07,0.78681,0.86183,1,0.2487,2
41009,2.5011e+07,0.78687,0.86187,1,0.2524,2
41054,2.5021e+07,0.78693,0.86191,1,0.2515,2
41099,2.5032e+07,0.78699,0.86195,1,0.25359,2
41141,2.5048e+07,0.78706,0.862,1,0.25305,2
41186,2.5059e+07,0.78711,0.86204,1,0.25243,2
41230,2.5069e+07,0.78716,0.86207,1,0.25191,2
41276,2.508e+07,0.78721,0.86211,1,0.25053,2
41320,2.509e+07,0.78726,0.86214,1,0.25305,2
41369,2.5099e+07,0.78732,0.86218,1,0.25367,2
41414,2.511e+07,0.78739,0.86223,1,0.25199,2
41459,2.512e+07,0.78745,0.86227,1,0.25091,2
41506,2.513e+07,0.78752,0.86232,1,0.24939,2
41548,2.5144e+07,0.7876,0.86237,1,0.24875,2
41590,2.5156e+07,0.78766,0.86241,1,0.24807,2
41634,2.5166e+07,0.78771,0.86245,1,0.24697,2
41678,2.5176e+07,0.78777,0.86249,1,0.24565,2
41725,2.5186e+07,0.78782,0.86253,1,0.24575,2
41769,2.5196e+07,0.78788,0.86256,1,0.24692,2
41818,2.5206e+07,0.78791,0.86259,1,0.24653,2
41862,2.5216e+07,0.78794,0.8626,1,0.25067,2
41907,2.5226e+07,0.78796,0.86262,1,0.24944,2
41952,2.5236e+07,0.78799,0.86264,1,0.24573,2
41990,2.525e+07,0.78801,0.86266,1,0.24718,2
42035,2.526e+07,0.78804,0.86267,1,0.24889,2
42080,2.5271e+07,0.78806,0.86269,1,0.24631,2
42125,2.528e+07,0.78808,0.8627,1,0.24687,2
42171,2.5291e+07,0.7881,0.86272,1,0.24737,2
42215,2.5301e+07,0.78812,0.86273,1,0.24567,2
42264,2.5311e+07,0.78818,0.86277,1,0.24691,2
42310,2.5321e+07,0.78824,0.86281,1,0.24679,2
42356,2.5332e+07,0.78829,0.86285,1,0.24616,2
42402,2.5342e+07,0.78835,0.86289,1,0.24812,2
42444,2.5354e+07,0.7884,0.86292,1,0.24704,2
42486,2.5366e+07,0.78846,0.86296,1,0.24657,2
42530,2.5376e+07,0.78851,0.863,1,0.25099,2
42575,2.5387e+07,0.78856,0.86303,1,0.24792,2
42620,2.5396e+07,0.78861,0.86306,1,0.24653,2
42664,2.5406e+07,0.78865,0.8631,1,0.24815,2
42714,2.5416e+07,0.78871,0.86314,1,0.25081,2
42759,2.5427e+07,0.78877,0.86318,1,0.2494,2
42804,2.5437e+07,0.78883,0.86322,1,0.24857,2
42848,2.5447e+07,0.78889,0.86326,1,0.25248,2
42892,2.546e+07,0.78894,0.86329,1,0.24917,2
42936,2.547e+07,0.789,0.86333,1,0.24981,2
42978,2.5482e+07,0.78905,0.86337,1,0.24861,2
43023,2.5492e+07,0.7891,0.8634,1,0.24527,2
43069,2.5503e+07,0.78915,0.86344,1,0.24817,2
43114,2.5513e+07,0.7892,0.86347,1,0.24569,2
43163,2.5523e+07,0.78922,0.86348,1,0.24442,2
43209,2.5533e+07,0.78924,0.8635,1,0.24408,2
43254,2.5544e+07,0.78926,0.86351,1,0.24631,2
43298,2.5554e+07,0.78927,0.86352,1,0.24412,2
43343,2.5564e+07,0.78929,0.86353,1,0.24462,2
43384,2.5576e+07,0.7893,0.86354,1,0.24721,2
43429,2.559e+07,0.78932,0.86355,1,0.24667,2
43474,2.56e+07,0.78934,0.86356,1,0.2496,2
43519,2.5611e+07,0.78935,0.86357,1,0.25393,2
43567,2.5621e+07,0.78936,0.86358,1,0.25358,2
43613,2.5631e+07,0.78945,0.86364,1,0.2521,2
43658,2.5641e+07,0.78954,0.8637,1,0.25587,2
43703,2.5651e+07,0.78962,0.86376,1,0.25137,2
43748,2.5669e+07,0.78974,0.86384,1,0.2498,2
43793,2.5679e+07,0.78982,0.86389,1,0.24788,2
43838,2.569e+07,0.78989,0.86394,1,0.24727,2
43883,2.57e+07,0.78996,0.86399,1,0.2496,2
43929,2.5711e+07,0.79003,0.86404,1,0.24732,2
43973,2.5721e+07,0.7901,0.86409,1,0.24912,2
44022,2.5732e+07,0.79011,0.86409,1,0.25154,2
44067,2.5742e+07,0.79007,0.86406,1,0.25337,2
44113,2.5753e+07,0.79002,0.86403,1,0.25561,2
44158,2.5763e+07,0.78998,0.86401,1,0.25844,2
44196,2.5776e+07,0.78994,0.86398,1,0.25891,2
44240,2.5787e+07,0.7899,0.86395,1,0.25998,2
44284,2.5797e+07,0.78987,0.86393,1,0.26411,2
44330,2.5808e+07,0.78983,0.8639,1,0.26831,2
44375,2.5818e+07,0.7898,0.86388,1,0.26511,2
44419,2.5829e+07,0.78976,0.86386,1,0.26472,2
44468,2.5839e+07,0.78969,0.86381,1,0.26678,2
44512,2.585e+07,0.78958,0.86373,1,0.26217,2
44557,2.586e+07,0.78947,0.86366,1,0.26278,2
44603,2.587e+07,0.78937,0.86359,1,0.26217,2
44644,2.5881e+07,0.78927,0.86352,1,0.26186,2
44689,2.5896e+07,0.78915,0.86343,1,0.2605,2
44733,2.5906e+07,0.78905,0.86337,1,0.25734,2
44779,2.5916e+07,0.78896,0.86331,1,0.25814,2
44824,2.5926e+07,0.78888,0.86325,1,0.26247,2
44870,2.5937e+07,0.78879,0.86319,1,0.25869,2
44922,2.5947e+07,0.7886,0.86306,1,0.25923,2
44971,2.5957e+07,0.78839,0.86291,1,0.259,2
45015,2.5967e+07,0.78818,0.86277,1,0.25404,2
45060,2.5977e+07,0.78798,0.86263,1,0.25069,2
45105,2.5991e+07,0.78774,0.86247,1,0.25223,2
45147,2.6003e+07,0.78755,0.86234,1,0.24752,2
45191,2.6013e+07,0.78737,0.86221,1,0.24651,2
45238,2.6023e+07,0.78719,0.86209,1,0.24628,2
45283,2.6033e+07,0.78702,0.86198,1,0.24283,2
45330,2.6043e+07,0.78686,0.86186,1,0.2394,2
45376,2.6053e+07,0.78681,0.86183,1,0.24047,2
45421,2.6063e+07,0.78677,0.8618,1,0.24496,2
45466,2.6074e+07,0.78672,0.86177,1,0.24728,2
45511,2.6087e+07,0.78667,0.86173,1,0.24666,2
45552,2.6099e+07,0.78663,0.86171,1,0.2479,2
45597,2.611e+07,0.78659,0.86168,1,0.25401,2
45642,2.612e+07,0.78655,0.86165,1,0.25355,2
45688,2.613e+07,0.78651,0.86163,1,0.25267,2
45734,2.6141e+07,0.78648,0.8616,1,0.25107,2
45783,2.6151e+07,0.78648,0.86161,1,0.25487,2
45828,2.6161e+07,0.78661,0.86169,1,0.25465,2
45872,2.6171e+07,0.78673,0.86178,1,0.25298,2
45918,2.6182e+07,0.78685,0.86186,1,0.2494,2
45960,2.6197e+07,0.78699,0.86195,1,0.24951,2
46008,2.621e+07,0.78713,0.86205,1,0.25085,2
46053,2.6221e+07,0.78723,0.86212,1,0.25015,2
46098,2.6231e+07,0.78733,0.86219,1,0.25085,2
46144,2.6242e+07,0.78743,0.86226,1,0.25425,2
46188,2.6252e+07,0.78753,0.86232,1,0.25184,2
46237,2.6262e+07,0.78753,0.86233,1,0.25643,2
46281,2.6273e+07,0.78751,0.86231,1,0.25544,2
46326,2.6283e+07,0.78749,0.86229,1,0.25606,2
46371,2.6293e+07,0.78746,0.86228,1,0.25388,2
46413,2.6304e+07,0.78744,0.86226,1,0.25359,2
46455,2.6317e+07,0.78742,0.86225,1,0.25274,2
46499,2.6327e+07,0.7874,0.86224,1,0.25137,2
46546,2.6337e+07,0.78738,0.86222,1,0.2486,2
46591,2.6347e+07,0.78736,0.86221,1,0.2505,2
46636,2.6358e+07,0.78735,0.8622,1,0.24949,2
46685,2.6369e+07,0.78732,0.86218,1,0.24456,2
46730,2.6379e+07,0.7873,0.86217,1,0.24578,2
46775,2.6389e+07,0.78728,0.86216,1,0.24984,2
46819,2.6399e+07,0.78726,0.86214,1,0.24741,2
46860,2.6411e+07,0.78725,0.86213,1,0.248,2
46908,2.6425e+07,0.78722,0.86211,1,0.2514,2
46954,2.6435e+07,0.7872,0.8621,1,0.2486,2
46996,2.6447e+07,0.78719,0.86209,1,0.25177,2
47042,2.6457e+07,0.78717,0.86208,1,0.25205,2
47090,2.6468e+07,0.78715,0.86207,1,0.25155,2
47136,2.6478e+07,0.78717,0.86208,1,0.25126,2
47181,2.6488e+07,0.78719,0.86209,1,0.25377,2
47227,2.6499e+07,0.7872,0.8621,1,0.25559,2
47274,2.6512e+07,0.78722,0.86211,1,0.25026,2
47319,2.6527e+07,0.78724,0.86213,1,0.25364,2
47366,2.6537e+07,0.78725,0.86213,1,0.2535,2
47407,2.6549e+07,0.78727,0.86214,1,0.25318,2
47452,2.656e+07,0.78728,0.86215,1,0.2581,2
47499,2.657e+07,0.78729,0.86216,1,0.255,2
47547,2.658e+07,0.78729,0.86216,1,0.25456,2
47592,2.659e+07,0.78729,0.86216,1,0.25728,2
47636,2.66e+07,0.78728,0.86215,1,0.25835,2
47681,2.661e+07,0.78727,0.86215,1,0.257,2
47728,2.662e+07,0.78726,0.86214,1,0.25821,2
47771,2.6632e+07,0.78726,0.86214,1,0.26017,2
47813,2.6644e+07,0.78725,0.86213,1,0.25757,2
47857,2.6654e+07,0.78724,0.86213,1,0.2566,2
47902,2.6664e+07,0.78723,0.86212,1,0.25676,2
47946,2.6674e+07,0.78723,0.86212,1,0.25517,2
47996,2.6684e+07,0.7872,0.8621,1,0.25341,2
48041,2.6694e+07,0.78715,0.86206,1,0.25829,2
48085,2.6704e+07,0.7871,0.86203,1,0.25456,2
48130,2.6714e+07,0.78705,0.862,1,0.25281,2
48172,2.6726e+07,0.78701,0.86197,1,0.25401,2
48217,2.6736e+07,0.78697,0.86194,1,0.25122,2
48260,2.6747e+07,0.78692,0.86191,1,0.25212,2
48306,2.6757e+07,0.78688,0.86188,1,0.25613,2
48351,2.6768e+07,0.78684,0.86185,1,0.24885,2
48396,2.6778e+07,0.7868,0.86182,1,0.24614,2
48445,2.6789e+07,0.78677,0.8618,1,0.25443,2
48490,2.6799e+07,0.78673,0.86178,1,0.24644,2
48534,2.6809e+07,0.7867,0.86175,1,0.24829,2
48579,2.6819e+07,0.78667,0.86173,1,0.25374,2
48628,2.6835e+07,0.78662,0.8617,1,0.24916,2
48669,2.6847e+07,0.7866,0.86168,1,0.25079,2
48714,2.6858e+07,0.78657,0.86166,1,0.24505,2
48758,2.6868e+07,0.78654,0.86164,1,0.24752,2
48803,2.6879e+07,0.78651,0.86163,1,0.2487,2
48850,2.6889e+07,0.78649,0.86161,1,0.24667,2
48897,2.6899e+07,0.78656,0.86166,1,0.24684,2
48943,2.691e+07,0.78662,0.8617,1,0.24523,2
48988,2.692e+07,0.78669,0.86174,1,0.24456,2
49032,2.6932e+07,0.78675,0.86179,1,0.23757,2
49074,2.6944e+07,0.78681,0.86183,1,0.24785,2
49120,2.6955e+07,0.78687,0.86187,1,0.24198,2
49165,2.6964e+07,0.78692,0.86191,1,0.24193,2
49210,2.6975e+07,0.78698,0.86194,1,0.25355,2
49254,2.6985e+07,0.78703,0.86198,1,0.24383,2
49305,2.6996e+07,0.78708,0.86202,1,0.24668,2
49350,2.7006e+07,0.78716,0.86207,1,0.24945,2
49395,2.7016e+07,0.78725,0.86213,1,0.25083,2
49440,2.7026e+07,0.78732,0.86218,1,0.2516,2
49489,2.7043e+07,0.78744,0.86226,1,0.24973,2
49530,2.7055e+07,0.78751,0.86231,1,0.25074,2
49575,2.7065e+07,0.78758,0.86236,1,0.25262,2
49620,2.7076e+07,0.78765,0.8624,1,0.25289,2
49664,2.7086e+07,0.78771,0.86245,1,0.25302,2
49710,2.7096e+07,0.78778,0.86249,1,0.2554,2
49759,2.7107e+07,0.78782,0.86252,1,0.25316,2
49803,2.7117e+07,0.78785,0.86254,1,0.25199,2
49850,2.7127e+07,0.78787,0.86256,1,0.25438,2
49895,2.7137e+07,0.7879,0.86258,1,0.26113,2
49942,2.7151e+07,0.78793,0.8626,1,0.25454,2
49983,2.7164e+07,0.78795,0.86262,1,0.25654,2
50028,2.7174e+07,0.78798,0.86263,1,0.25251,2
50073,2.7184e+07,0.788,0.86265,1,0.25687,2
50118,2.7194e+07,0.78802,0.86266,1,0.25071,2
50162,2.7203e+07,0.78804,0.86268,1,0.25407,2
50211,2.7214e+07,0.78795,0.86261,1,0.2493,2
50255,2.7224e+07,0.78781,0.86252,1,0.24506,2
50302,2.7234e+07,0.78769,0.86243,1,0.25074,2
50346,2.7244e+07,0.78756,0.86235,1,0.24934,2
50388,2.7255e+07,0.78744,0.86227,1,0.24469,2
50432,2.7266e+07,0.78733,0.86219,1,0.25312,2
50477,2.7276e+07,0.78722,0.86211,1,0.24905,2
50519,2.7288e+07,0.78711,0.86203,1,0.25017,2
50563,2.7298e+07,0.787,0.86196,1,0.25126,2
50609,2.7309e+07,0.7869,0.86189,1,0.2506,2
50657,2.7319e+07,0.78686,0.86186,1,0.25067,2
50702,2.7329e+07,0.78684,0.86185,1,0.24974,2
50750,2.7339e+07,0.78682,0.86184,1,0.24714,2
50794,2.7349e+07,0.78681,0.86183,1,0.25026,2
50836,2.7361e+07,0.78679,0.86182,1,0.24846,2
50880,2.7376e+07,0.78677,0.8618,1,0.24647,2
50925,2.7386e+07,0.78675,0.86179,1,0.24804,2
50970,2.7397e+07,0.78674,0.86178,1,0.24948,2
51015,2.7407e+07,0.78673,0.86177,1,0.25064,2
51063,2.7416e+07,0.78671,0.86176,1,0.25553,2
51109,2.7426e+07,0.78671,0.86176,1,0.25789,2
51153,2.7436e+07,0.78671,0.86176,1,0.25498,2
51201,2.7447e+07,0.78671,0.86176,1,0.25146,2
51246,2.7464e+07,0.78671,0.86176,1,0.25764,2
51291,2.7476e+07,0.78671,0.86176,1,0.25445,2
51336,2.7486e+07,0.78671,0.86176,1,0.2556,2
51380,2.7496e+07,0.78671,0.86176,1,0.25846,2
51425,2.7506e+07,0.78671,0.86176,1,0.2546,2
51470,2.7516e+07,0.7867,0.86176,1,0.25677,2
51519,2.7526e+07,0.78666,0.86173,1,0.25985,2
51566,2.7537e+07,0.78658,0.86167,1,0.25825,2
51610,2.7547e+07,0.78651,0.86162,1,0.25655,2
51655,2.7557e+07,0.78643,0.86157,1,0.26122,2
51700,2.7567e+07,0.78636,0.86152,1,0.26188,2
51740,2.7579e+07,0.78629,0.86147,1,0.26053,2
51781,2.7591e+07,0.78622,0.86143,1,0.26031,2
51826,2.7601e+07,0.78616,0.86138,1,0.26452,2
51870,2.7611e+07,0.78609,0.86134,1,0.25879,2
51915,2.7621e+07,0.78603,0.8613,1,0.25722,2
51966,2.7631e+07,0.78594,0.86123,1,0.26315,2
52010,2.7641e+07,0.78581,0.86114,1,0.26486,2
52055,2.7651e+07,0.78568,0.86106,1,0.26143,2
52099,2.7661e+07,0.78556,0.86097,1,0.2613,2
52142,2.7673e+07,0.78544,0.86089,1,0.26286,2
52183,2.7684e+07,0.78533,0.86081,1,0.26435,2
52227,2.7695e+07,0.78522,0.86074,1,0.25877,2
52273,2.7705e+07,0.78511,0.86066,1,0.26146,2
52318,2.7715e+07,0.78501,0.86059,1,0.25592,2
52365,2.7725e+07,0.78491,0.86052,1,0.25979,2
52413,2.7736e+07,0.78478,0.86043,1,0.25675,2
52458,2.7746e+07,0.78461,0.86032,1,0.26092,2
52502,2.7756e+07,0.78446,0.86021,1,0.2532,2
52547,2.7766e+07,0.7843,0.86011,1,0.25582,2
52588,2.7778e+07,0.78416,0.86,1,0.25506,2
52628,2.779e+07,0.78401,0.85991,1,0.25691,2
52673,2.78e+07,0.78387,0.85981,1,0.26008,2
52718,2.7811e+07,0.78374,0.85972,1,0.25765,2
52763,2.7821e+07,0.78361,0.85963,1,0.26123,2
52809,2.7832e+07,0.78348,0.85954,1,0.25005,2
52857,2.7842e+07,0.78339,0.85948,1,0.25764,2
52903,2.7852e+07,0.78332,0.85943,1,0.25751,2
52947,2.7862e+07,0.78326,0.85939,1,0.25903,2
52995,2.7875e+07,0.78319,0.85934,1,0.25447,2
53033,2.7888e+07,0.78313,0.8593,1,0.25482,2
53079,2.7899e+07,0.78307,0.85926,1,0.25721,2
53123,2.7909e+07,0.78302,0.85922,1,0.25267,2
53168,2.7919e+07,0.78297,0.85919,1,0.25777,2
53213,2.7929e+07,0.78292,0.85915,1,0.25215,2
53263,2.794e+07,0.78287,0.85912,1,0.25514,2
53311,2.795e+07,0.78284,0.8591,1,0.25462,2
53356,2.796e+07,0.78282,0.85908,1,0.2535,2
53400,2.797e+07,0.78279,0.85907,1,0.25171,2
53449,2.7983e+07,0.78277,0.85905,1,0.24285,2
53494,2.7993e+07,0.78275,0.85903,1,0.24613,2
53532,2.8007e+07,0.78273,0.85902,1,0.23891,2
53577,2.8017e+07,0.78271,0.85901,1,0.23754,2
53621,2.8027e+07,0.78269,0.85899,1,0.24604,2
53667,2.8037e+07,0.78267,0.85898,1,0.2349,2
53719,2.8048e+07,0.78265,0.85897,1,0.24418,2
53764,2.8058e+07,0.78273,0.85903,1,0.24348,2
53809,2.8069e+07,0.78281,0.85908,1,0.25135,2
53853,2.8078e+07,0.78289,0.85914,1,0.25325,2
53894,2.809e+07,0.78297,0.85919,1,0.25405,2
53936,2.8102e+07,0.78304,0.85924,1,0.25921,2
53980,2.8113e+07,0.78311,0.85929,1,0.26821,2
54026,2.8123e+07,0.78318,0.85933,1,0.26452,2
54072,2.8134e+07,0.78325,0.85938,1,0.28123,2
54118,2.8144e+07,0.78331,0.85942,1,0.27489,2
54165,2.8155e+07,0.78337,0.85947,1,0.27989,2
54212,2.8164e+07,0.78341,0.85949,1,0.28418,2
54256,2.8175e+07,0.78345,0.85952,1,0.28155,2
54301,2.8185e+07,0.78348,0.85954,1,0.28658,2
54346,2.8196e+07,0.78352,0.85957,1,0.28396,2
54385,2.821e+07,0.78355,0.85959,1,0.2764,2
54429,2.822e+07,0.78358,0.85961,1,0.26462,2
54475,2.8231e+07,0.78361,0.85963,1,0.26234,2
54519,2.8241e+07,0.78365,0.85965,1,0.25102,2
54564,2.8251e+07,0.78367,0.85967,1,0.23992,2
54612,2.8262e+07,0.7837,0.85969,1,0.23305,2
54658,2.8272e+07,0.78333,0.85944,1,0.22184,2
54703,2.8282e+07,0.78297,0.85919,1,0.21829,2
54747,2.8293e+07,0.78262,0.85895,1,0.21927,2
54792,2.8303e+07,0.78228,0.85871,1,0.20787,2
54831,2.8317e+07,0.78195,0.85849,1,0.21452,2
54878,2.8328e+07,0.78163,0.85827,1,0.2081,2
54923,2.8339e+07,0.78132,0.85806,1,0.21697,2
54969,2.835e+07,0.78103,0.85785,1,0.20907,2
55013,2.836e+07,0.78074,0.85765,1,0.21553,2
55062,2.837e+07,0.78045,0.85746,1,0.21878,2
55107,2.838e+07,0.78086,0.85774,1,0.21912,2
55152,2.8391e+07,0.78126,0.85801,1,0.21512,2
55196,2.8401e+07,0.78164,0.85827,1,0.21592,2
55240,2.8411e+07,0.78201,0.85853,1,0.22603,2
55281,2.8424e+07,0.78237,0.85878,1,0.2248,2
55328,2.8434e+07,0.78272,0.85902,1,0.22198,2
55370,2.8446e+07,0.78306,0.85925,1,0.2385,2
55414,2.8456e+07,0.78339,0.85948,1,0.22535,2
55461,2.8467e+07,0.7837,0.8597,1,0.22947,2
55508,2.8477e+07,0.78401,0.85991,1,0.23894,2
55554,2.8486e+07,0.78453,0.86026,1,0.22985,2
55599,2.8496e+07,0.78502,0.8606,1,0.23333,2
55644,2.8507e+07,0.7855,0.86093,1,0.22416,2
55689,2.8522e+07,0.78608,0.86133,1,0.22511,2
55733,2.8532e+07,0.78653,0.86164,1,0.22516,2
55777,2.8544e+07,0.78697,0.86194,1,0.22255,2
55822,2.8554e+07,0.78739,0.86223,1,0.22657,2
55867,2.8564e+07,0.7878,0.86251,1,0.22887,2
55913,2.8574e+07,0.78819,0.86278,1,0.22833,2
55961,2.8584e+07,0.78855,0.86302,1,0.22237,2
56006,2.8594e+07,0.7888,0.86319,1,0.22171,2
56051,2.8604e+07,0.78904,0.86336,1,0.23369,2
56096,2.8614e+07,0.78927,0.86352,1,0.22106,2
56141,2.8624e+07,0.7895,0.86368,1,0.22307,2
56186,2.8638e+07,0.78978,0.86387,1,0.22724,2
56228,2.865e+07,0.78999,0.86401,1,0.23459,2
56272,2.866e+07,0.79019,0.86415,1,0.23855,2
56319,2.8671e+07,0.79039,0.86429,1,0.2256,2
56364,2.8681e+07,0.79059,0.86442,1,0.23325,2
56412,2.8691e+07,0.79079,0.86456,1,0.22852,2
56457,2.8701e+07,0.79099,0.8647,1,0.22176,2
56501,2.8711e+07,0.79118,0.86483,1,0.23663,2
56547,2.8722e+07,0.79137,0.86496,1,0.22601,2
56594,2.8736e+07,0.7916,0.86512,1,0.2262,2
56635,2.8748e+07,0.79178,0.86524,1,0.22551,2
56679,2.8758e+07,0.79195,0.86535,1,0.22699,2
56723,2.8768e+07,0.79212,0.86547,1,0.22792,2
56768,2.8779e+07,0.79228,0.86558,1,0.21833,2
56813,2.8788e+07,0.79243,0.86569,1,0.23446,2
56862,2.8798e+07,0.79255,0.86577,1,0.22384,2
56908,2.8809e+07,0.79266,0.86584,1,0.22642,2
56952,2.8819e+07,0.79276,0.86591,1,0.22623,2
56997,2.8829e+07,0.79286,0.86598,1,0.23039,2
57039,2.8845e+07,0.79298,0.86606,1,0.2265,2
57084,2.8856e+07,0.79308,0.86613,1,0.2349,2
57128,2.8866e+07,0.79317,0.86619,1,0.23595,2
57174,2.8876e+07,0.79325,0.86625,1,0.22285,2
57219,2.8886e+07,0.79334,0.86631,1,0.2373,2
57267,2.8896e+07,0.79342,0.86636,1,0.2289,2
57312,2.8906e+07,0.79355,0.86645,1,0.23161,2
57357,2.8916e+07,0.79367,0.86653,1,0.24227,2
57407,2.8927e+07,0.7938,0.86662,1,0.23359,2
57451,2.8937e+07,0.79391,0.8667,1,0.2415,2
57496,2.8947e+07,0.79403,0.86678,1,0.24714,2
57540,2.8958e+07,0.79414,0.86685,1,0.25503,2
57578,2.8971e+07,0.79424,0.86692,1,0.25171,2
57623,2.8982e+07,0.79435,0.86699,1,0.25707,2
57669,2.8992e+07,0.79445,0.86706,1,0.2514,2
57718,2.9003e+07,0.79454,0.86713,1,0.25149,2
57764,2.9013e+07,0.7944,0.86703,1,0.25585,2
57809,2.9023e+07,0.79426,0.86694,1,0.24675,2
57853,2.9033e+07,0.79413,0.86685,1,0.25745,2
57898,2.9043e+07,0.794,0.86676,1,0.25827,2
57936,2.9057e+07,0.79387,0.86667,1,0.25847,2
57981,2.9067e+07,0.79375,0.86659,1,0.25604,2
58027,2.9077e+07,0.79363,0.86651,1,0.25676,2
58071,2.9088e+07,0.79352,0.86643,1,0.25566,2
58118,2.9099e+07,0.79341,0.86635,1,0.24787,2
58167,2.911e+07,0.7933,0.86628,1,0.25763,2
58213,2.912e+07,0.79298,0.86606,1,0.24816,2
58258,2.913e+07,0.79267,0.86584,1,0.25015,2
58304,2.914e+07,0.79236,0.86564,1,0.2473,2
58349,2.9154e+07,0.792,0.86539,1,0.24727,2
58391,2.9167e+07,0.79171,0.86519,1,0.24316,2
58436,2.9177e+07,0.79144,0.865,1,0.23996,2
58482,2.9188e+07,0.79117,0.86482,1,0.2424,2
58526,2.9198e+07,0.79092,0.86465,1,0.24209,2
58572,2.9209e+07,0.79067,0.86448,1,0.23869,2
58620,2.9219e+07,0.79044,0.86432,1,0.24345,2
58666,2.9229e+07,0.79025,0.86419,1,0.23832,2
58711,2.9239e+07,0.79008,0.86407,1,0.24186,2
58755,2.9249e+07,0.78991,0.86395,1,0.234,2
58800,2.926e+07,0.78974,0.86384,1,0.23575,2
58841,2.9271e+07,0.78958,0.86373,1,0.23306,2
58883,2.9283e+07,0.78942,0.86362,1,0.2324,2
58928,2.9293e+07,0.78927,0.86352,1,0.23153,2
