LineNo,TimeUS,Tar,Act,Err,P,I,D,FF,Dmod,SRate,Limit
193,1.5037e+07,1.8473,1.8473,0,0,-209.11,0,0,1,0,1
296,1.5071e+07,5.3655,5.3655,0,0,-209.11,0,0,1,0,1
638,1.5133e+07,-1.2229,-1.2229,0,0,-209.11,0,0,1,0,1
751,1.5149e+07,-0.93632,-0.93632,0,0,-209.11,0,0,1,0,1
864,1.5165e+07,0.32701,0.32701,0,0,-209.11,0,0,1,0,1
977,1.5182e+07,3.0453,3.0453,0,0,-209.11,0,0,1,0,1
1208,1.526e+07,1.4705,1.4705,0,0,-209.11,0,0,1,0,1
1592,1.5416e+07,2.1519,2.1519,0,0,-209.11,0,0,1,0,1
1670,1.5426e+07,1.5159,1.5159,0,0,-209.11,0,0,1,0,1
1712,1.5437e+07,1.9758,1.9758,0,0,-209.11,0,0,1,0,1
1752,1.5447e+07,2.0931,2.0931,0,0,-209.11,0,0,1,0,1
1793,1.546e+07,3.4665,3.4665,0,0,-209.11,0,0,1,0,1
1836,1.5473e+07,2.1848,2.1848,0,0,-209.11,0,0,1,0,1
1878,1.5483e+07,1.2883,1.2883,0,0,-209.11,0,0,1,0,1
1923,1.5493e+07,-0.17452,-0.17452,0,0,-209.11,0,0,1,0,1
1963,1.5503e+07,0.51165,0.51165,0,0,-209.11,0,0,1,0,1
2004,1.5513e+07,0.37842,0.37842,0,0,-209.11,0,0,1,0,1
2045,1.5523e+07,0.35048,0.35048,0,0,-209.11,0,0,1,0,1
2091,1.5538e+07,3.6656,3.6656,0,0,-209.11,0,0,1,0,1
2135,1.5548e+07,3.1476,3.1476,0,0,-209.11,0,0,1,0,1
2175,1.5558e+07,3.3527,3.3527,0,0,-209.11,0,0,1,0,1
2216,1.5568e+07,4.5156,4.5156,0,0,-209.11,0,0,1,0,1
2257,1.5578e+07,4.2187,4.2187,0,0,-209.11,0,0,1,0,1
2301,1.5588e+07,1.9633,1.9633,0,0,-209.11,0,0,1,0,1
2343,1.5599e+07,1.964,1.964,0,0,-209.11,0,0,1,0,1
2384,1.5609e+07,0.3561,0.3561,0,0,-209.11,0,0,1,0,1
2428,1.5619e+07,-0.2038,-0.2038,0,0,-209.11,0,0,1,0,1
2468,1.5628e+07,0.074291,0.074291,0,0,-209.11,0,0,1,0,1
2506,1.5639e+07,0.21763,0.21763,0,0,-209.11,0,0,1,0,1
2549,1.5649e+07,-0.45071,-0.45071,0,0,-209.11,0,0,1,0,1
2589,1.5659e+07,1.1158,1.1158,0,0,-209.11,0,0,1,0,1
2630,1.5669e+07,1.3211,1.3211,0,0,-209.11,0,0,1,0,1
2670,1.5679e+07,1.2593,1.2593,0,0,-209.11,0,0,1,0,1
2715,1.5689e+07,1.386,1.386,0,0,-209.11,0,0,1,0,1
2756,1.5699e+07,-0.38128,-0.38128,0,0,-209.11,0,0,1,0,1
2797,1.571e+07,-0.87032,-0.87032,0,0,-209.11,0,0,1,0,1
2838,1.5719e+07,-0.3047,-0.3047,0,0,-209.11,0,0,1,0,1
2878,1.5729e+07,0.88673,0.88673,0,0,-209.11,0,0,1,0,1
2920,1.5739e+07,1.6354,1.6354,0,0,-209.11,0,0,1,0,1
2962,1.5749e+07,0.49973,0.49973,0,0,-209.11,0,0,1,0,1
3001,1.5759e+07,1.0907,1.0907,0,0,-209.11,0,0,1,0,1
3043,1.577e+07,2.6165,2.6165,0,0,-209.11,0,0,1,0,1
3083,1.578e+07,4.3929,4.3929,0,0,-209.11,0,0,1,0,1
3129,1.579e+07,5.6791,5.6791,0,0,-209.11,0,0,1,0,1
3171,1.58e+07,3.4384,3.4384,0,0,-209.11,0,0,1,0,1
3212,1.581e+07,2.1333,2.1333,0,0,-209.11,0,0,1,0,1
3253,1.582e+07,0.12712,0.12712,0,0,-209.11,0,0,1,0,1
3295,1.5833e+07,0.62914,0.62914,0,0,-209.11,0,0,1,0,1
3332,1.5843e+07,0.96169,0.96169,0,0,-209.11,0,0,1,0,1
3374,1.5854e+07,2.0432,2.0432,0,0,-209.11,0,0,1,0,1
3415,1.5864e+07,2.6184,2.6184,0,0,-209.11,0,0,1,0,1
3455,1.5873e+07,2.0593,2.0593,0,0,-209.11,0,0,1,0,1
3496,1.5884e+07,3.3381,3.3381,0,0,-209.11,0,0,1,0,1
3540,1.5893e+07,4.7442,4.7442,0,0,-209.11,0,0,1,0,1
3581,1.5904e+07,4.1593,4.1593,0,0,-209.11,0,0,1,0,1
3623,1.5914e+07,4.156,4.156,0,0,-209.11,0,0,1,0,1
3665,1.5924e+07,3.0175,3.0175,0,0,-209.11,0,0,1,0,1
3703,1.5934e+07,0.37117,0.37117,0,0,-209.11,0,0,1,0,1
3740,1.5944e+07,-0.61302,-0.61302,0,0,-209.11,0,0,1,0,1
3782,1.5954e+07,-0.50621,-0.50621,0,0,-209.11,0,0,1,0,1
3823,1.5964e+07,-1.2621,-1.2621,0,0,-209.11,0,0,1,0,1
3863,1.5974e+07,-0.99621,-0.99621,0,0,-209.11,0,0,1,0,1
3904,1.5984e+07,1.9961,1.9961,0,0,-209.11,0,0,1,0,1
3948,1.5994e+07,3.255,3.255,0,0,-209.11,0,0,1,0,1
3989,1.6004e+07,1.9787,1.9787,0,0,-209.11,0,0,1,0,1
4030,1.6014e+07,1.9482,1.9482,0,0,-209.11,0,0,1,0,1
4073,1.6024e+07,2.599,2.599,0,0,-209.11,0,0,1,0,1
4114,1.6034e+07,1.4916,1.4916,0,0,-209.11,0,0,1,0,1
4151,1.6044e+07,-0.35229,-0.35229,0,0,-209.11,0,0,1,0,1
4193,1.6054e+07,-0.53654,-0.53654,0,0,-209.11,0,0,1,0,1
4237,1.6067e+07,-0.57545,-0.57545,0,0,-209.11,0,0,1,0,1
4279,1.6077e+07,-1.2889,-1.2889,0,0,-209.11,0,0,1,0,1
4319,1.6087e+07,0.081921,0.081921,0,0,-209.11,0,0,1,0,1
4364,1.6097e+07,2.0466,2.0466,0,0,-209.11,0,0,1,0,1
4405,1.6107e+07,3.7549,3.7549,0,0,-209.11,0,0,1,0,1
4445,1.6117e+07,2.9752,2.9752,0,0,-209.11,0,0,1,0,1
4491,1.6133e+07,0.92487,0.92487,0,0,-209.11,0,0,1,0,1
4534,1.6145e+07,1.4312,1.4312,0,0,-209.11,0,0,1,0,1
4574,1.6156e+07,0.58804,0.58804,0,0,-209.11,0,0,1,0,1
4615,1.6166e+07,2.5296,2.5296,0,0,-209.11,0,0,1,0,1
4657,1.6175e+07,1.333,1.333,0,0,-209.11,0,0,1,0,1
4697,1.6185e+07,1.3811,1.3811,0,0,-209.11,0,0,1,0,1
4742,1.6196e+07,0.96884,0.96884,0,0,-209.11,0,0,1,0,1
4782,1.6205e+07,2.0047,2.0047,0,0,-209.11,0,0,1,0,1
4824,1.6216e+07,3.7459,3.7459,0,0,-209.11,0,0,1,0,1
4864,1.6226e+07,3.8868,3.8868,0,0,-209.11,0,0,1,0,1
4905,1.6236e+07,1.95,1.95,0,0,-209.11,0,0,1,0,1
4943,1.6246e+07,3.4535,3.4535,0,0,-209.11,0,0,1,0,1
4980,1.6255e+07,1.6302,1.6302,0,0,-209.11,0,0,1,0,1
5022,1.6265e+07,-1.2824,-1.2824,0,0,-209.11,0,0,1,0,1
5064,1.6276e+07,-0.20742,-0.20742,0,0,-209.11,0,0,1,0,1
5104,1.6285e+07,0.34285,0.34285,0,0,-209.11,0,0,1,0,1
5149,1.6295e+07,1.9416,1.9416,0,0,-209.11,0,0,1,0,1
5190,1.6305e+07,0.53186,0.53186,0,0,-209.11,0,0,1,0,1
5231,1.6316e+07,2.433,2.433,0,0,-209.11,0,0,1,0,1
5271,1.6325e+07,3.1899,3.1899,0,0,-209.11,0,0,1,0,1
5314,1.6338e+07,3.8559,3.8559,0,0,-209.11,0,0,1,0,1
5351,1.6348e+07,2.3225,2.3225,0,0,-209.11,0,0,1,0,1
5396,1.636e+07,1.7401,1.7401,0,0,-209.11,0,0,1,0,1
5437,1.6371e+07,0.91915,0.91915,0,0,-209.11,0,0,1,0,1
5477,1.6381e+07,0.9675,0.9675,0,0,-209.11,0,0,1,0,1
5519,1.639e+07,1.4536,1.4536,0,0,-209.11,0,0,1,0,1
5563,1.64e+07,1.1668,1.1668,0,0,-209.11,0,0,1,0,1
5605,1.641e+07,1.328,1.328,0,0,-209.11,0,0,1,0,1
5646,1.642e+07,1.8193,1.8193,0,0,-209.11,0,0,1,0,1
5686,1.643e+07,0.15574,0.15574,0,0,-209.11,0,0,1,0,1
5721,1.6441e+07,0.63791,0.63791,0,0,-209.11,0,0,1,0,1
5762,1.6451e+07,1.715,1.715,0,0,-209.11,0,0,1,0,1
5803,1.6462e+07,2.6756,2.6756,0,0,-209.11,0,0,1,0,1
5843,1.6471e+07,1.7805,1.7805,0,0,-209.11,0,0,1,0,1
5885,1.6481e+07,1.377,1.377,0,0,-209.11,0,0,1,0,1
5927,1.6492e+07,-0.27208,-0.27208,0,0,-209.11,0,0,1,0,1
5971,1.6501e+07,-0.3149,-0.3149,0,0,-209.11,0,0,1,0,1
6012,1.6512e+07,-1.025,-1.025,0,0,-209.11,0,0,1,0,1
6054,1.6522e+07,-2.3745,-2.3745,0,0,-209.11,0,0,1,0,1
6098,1.6532e+07,-1.525,-1.525,0,0,-209.11,0,0,1,0,1
6135,1.6542e+07,-1.2339,-1.2339,0,0,-209.11,0,0,1,0,1
6175,1.6552e+07,-2.0839,-2.0839,0,0,-209.11,0,0,1,0,1
6215,1.6563e+07,-1.4516,-1.4516,0,0,-209.11,0,0,1,0,1
6256,1.6572e+07,0.48027,0.48027,0,0,-209.11,0,0,1,0,1
6297,1.6583e+07,1.4867,1.4867,0,0,-209.11,0,0,1,0,1
6338,1.6593e+07,0.75474,0.75474,0,0,-209.11,0,0,1,0,1
6384,1.6603e+07,1.5709,1.5709,0,0,-209.11,0,0,1,0,1
6428,1.6613e+07,0.69427,0.69427,0,0,-209.11,0,0,1,0,1
6469,1.6623e+07,0.0014305,0.0014305,0,0,-209.11,0,0,1,0,1
6510,1.6633e+07,-0.94109,-0.94109,0,0,-209.11,0,0,1,0,1
6548,1.6645e+07,-0.73862,-0.73862,0,0,-209.11,0,0,1,0,1
6589,1.6656e+07,-0.28172,-0.28172,0,0,-209.11,0,0,1,0,1
6629,1.6666e+07,-0.49772,-0.49772,0,0,-209.11,0,0,1,0,1
6671,1.6676e+07,0.59118,0.59118,0,0,-209.11,0,0,1,0,1
6711,1.6685e+07,1.3752,1.3752,0,0,-209.11,0,0,1,0,1
6756,1.6695e+07,1.2081,1.2081,0,0,-209.11,0,0,1,0,1
6798,1.6705e+07,1.4339,1.4339,0,0,-209.11,0,0,1,0,1
6839,1.6715e+07,1.8581,1.8581,0,0,-209.11,0,0,1,0,1
6880,1.6725e+07,0.5064,0.5064,0,0,-209.11,0,0,1,0,1
6922,1.6735e+07,0.35267,0.35267,0,0,-209.11,0,0,1,0,1
6957,1.6746e+07,0.20523,0.20523,0,0,-209.11,0,0,1,0,1
6997,1.6756e+07,0.036335,0.036335,0,0,-209.11,0,0,1,0,1
7038,1.6766e+07,-0.036049,-0.036049,0,0,-209.11,0,0,1,0,1
7079,1.6776e+07,0.40941,0.40941,0,0,-209.11,0,0,1,0,1
7120,1.6786e+07,1.2785,1.2785,0,0,-209.11,0,0,1,0,1
7167,1.6796e+07,2.0461,2.0461,0,0,-209.11,0,0,1,0,1
7208,1.6805e+07,0.49133,0.49133,0,0,-209.11,0,0,1,0,1
7250,1.6816e+07,-0.015831,-0.015831,0,0,-209.11,0,0,1,0,1
7291,1.6826e+07,0.90942,0.90942,0,0,-209.11,0,0,1,0,1
7331,1.6836e+07,-1.63,-1.63,0,0,-209.11,0,0,1,0,1
7372,1.6845e+07,-0.52891,-0.52891,0,0,-209.11,0,0,1,0,1
7409,1.6856e+07,0.041962,0.041962,0,0,-209.11,0,0,1,0,1
7450,1.6866e+07,-0.38033,-0.38033,0,0,-209.11,0,0,1,0,1
7492,1.6877e+07,-0.77114,-0.77114,0,0,-209.11,0,0,1,0,1
7532,1.6887e+07,0.94328,0.94328,0,0,-209.11,0,0,1,0,1
7576,1.6897e+07,0.43507,0.43507,0,0,-209.11,0,0,1,0,1
7618,1.6906e+07,0.056648,0.056648,0,0,-209.11,0,0,1,0,1
7660,1.6916e+07,-0.98314,-0.98314,0,0,-209.11,0,0,1,0,1
7701,1.6927e+07,0.86956,0.86956,0,0,-209.11,0,0,1,0,1
7743,1.6939e+07,-0.61893,-0.61893,0,0,-209.11,0,0,1,0,1
7784,1.695e+07,0.044346,0.044346,0,0,-209.11,0,0,1,0,1
7821,1.6959e+07,-0.75531,-0.75531,0,0,-209.11,0,0,1,0,1
7863,1.6969e+07,0.81291,0.81291,0,0,-209.11,0,0,1,0,1
7903,1.6979e+07,-0.97094,-0.97094,0,0,-209.11,0,0,1,0,1
7944,1.699e+07,-0.30603,-0.30603,0,0,-209.11,0,0,1,0,1
7990,1.7e+07,0.37184,0.37184,0,0,-209.11,0,0,1,0,1
8032,1.701e+07,1.2361,1.2361,0,0,-209.11,0,0,1,0,1
8075,1.702e+07,1.2113,1.2113,0,0,-209.11,0,0,1,0,1
8115,1.703e+07,1.5606,1.5606,0,0,-209.11,0,0,1,0,1
8153,1.704e+07,1.8707,1.8707,0,0,-209.11,0,0,1,0,1
8190,1.705e+07,0.15497,0.15497,0,0,-209.11,0,0,1,0,1
8231,1.706e+07,3.8982,3.8982,0,0,-209.11,0,0,1,0,1
8271,1.707e+07,1.2997,1.2997,0,0,-209.11,0,0,1,0,1
8313,1.708e+07,0.048161,0.048161,0,0,-209.11,0,0,1,0,1
8355,1.709e+07,1.9886,1.9886,0,0,-209.11,0,0,1,0,1
8399,1.7101e+07,-2.0175,-2.0175,0,0,-209.11,0,0,1,0,1
8440,1.711e+07,1.2914,1.2914,0,0,-209.11,0,0,1,0,1
8482,1.712e+07,3.1507,3.1507,0,0,-209.11,0,0,1,0,1
8523,1.713e+07,-4.8316,-4.8316,0,0,-209.11,0,0,1,0,1
8563,1.714e+07,-8.1665,-8.1665,0,0,-209.11,0,0,1,0,1
8603,1.7153e+07,-5.422,-5.422,0,0,-209.11,0,0,1,0,1
8644,1.7163e+07,0.53635,0.53635,0,0,-209.11,0,0,1,0,1
8684,1.7173e+07,2.1561,2.1561,0,0,-209.11,0,0,1,0,1
8725,1.7183e+07,9.7178,9.7178,0,0,-209.11,0,0,1,0,1
8766,1.7193e+07,12.21,12.21,0,0,-209.11,0,0,1,0,1
8810,1.7203e+07,4.0084,4.0084,0,0,-209.11,0,0,1,0,1
8851,1.7213e+07,1.4136,1.4136,0,0,-209.11,0,0,1,0,1
8891,1.7223e+07,-5.2322,-5.2322,0,0,-209.11,0,0,1,0,1
8933,1.7233e+07,-6.1106,-6.1106,0,0,-209.11,0,0,1,0,1
8970,1.7243e+07,-6.4729,-6.4729,0,0,-209.11,0,0,1,0,1
9008,1.7253e+07,1.6871,1.6871,0,0,-209.11,0,0,1,0,1
9049,1.7263e+07,-0.14801,-0.14801,0,0,-209.11,0,0,1,0,1
9089,1.7273e+07,-2.6757,-2.6757,0,0,-209.11,0,0,1,0,1
9130,1.7284e+07,5.567,5.567,0,0,-209.11,0,0,1,0,1
9170,1.7293e+07,7.3362,7.3362,0,0,-209.11,0,0,1,0,1
9215,1.7303e+07,1.9991,1.9991,0,0,-209.11,0,0,1,0,1
9250,1.7333e+07,4.4726,4.4726,0,0,-209.11,0,0,1,0,1
9293,1.7343e+07,-19.029,-19.029,0,0,-209.11,0,0,1,0,1
9330,1.7353e+07,1.6479,1.6479,0,0,-209.11,0,0,1,0,1
9368,1.7363e+07,-1.9195,-1.9195,0,0,-209.11,0,0,1,0,1
9409,1.7374e+07,2.2977,2.2977,0,0,-209.11,0,0,1,0,1
9449,1.7383e+07,9.6903,9.6903,0,0,-209.11,0,0,1,0,1
9491,1.7394e+07,0.55914,0.55914,0,0,-209.11,0,0,1,0,1
9535,1.7404e+07,-11.53,-11.53,0,0,-209.11,0,0,1,0,1
9576,1.7413e+07,1.9307,1.9307,0,0,-209.11,0,0,1,0,1
9616,1.7423e+07,-9.7003,-9.7003,0,0,-209.11,0,0,1,0,1
9659,1.7433e+07,-12.619,-12.619,0,0,-209.11,0,0,1,0,1
9700,1.7443e+07,-0.014496,-0.014496,0,0,-209.11,0,0,1,0,1
9737,1.7453e+07,-9.6707,-9.6707,0,0,-209.11,0,0,1,0,1
9779,1.7466e+07,-12.352,-12.352,0,0,-209.11,0,0,1,0,1
9820,1.7476e+07,-2.998,-2.998,0,0,-209.11,0,0,1,0,1
9860,1.7486e+07,1.8295,1.8295,0,0,-209.11,0,0,1,0,1
9901,1.7496e+07,-10.964,-10.964,0,0,-209.11,0,0,1,0,1
9945,1.7507e+07,14.432,14.432,0,0,-209.11,0,0,1,0,1
9989,1.7516e+07,-10.66,-10.66,0,0,-209.11,0,0,1,0,1
10029,1.7526e+07,22.231,22.231,0,0,-209.11,0,0,1,0,1
10070,1.7537e+07,-9.4008,-9.4008,0,0,-209.11,0,0,1,0,1
10109,1.7546e+07,23.07,23.07,0,0,-209.11,0,0,1,0,1
10148,1.7557e+07,-10.88,-10.88,0,0,-209.11,0,0,1,0,1
10189,1.7567e+07,32.727,32.727,0,0,-209.11,0,0,1,0,1
10229,1.7577e+07,-11.919,-11.919,0,0,-209.11,0,0,1,0,1
10271,1.7587e+07,28.762,28.762,0,0,-209.11,0,0,1,0,1
10311,1.7597e+07,-4.8951,-4.8951,0,0,-209.11,0,0,1,0,1
10357,1.7607e+07,24.985,24.985,0,0,-209.11,0,0,1,0,1
10398,1.7617e+07,-4.7993,-4.7993,0,0,-209.11,0,0,1,0,1
10438,1.7627e+07,28.803,28.803,0,0,-209.11,0,0,1,0,1
10480,1.7636e+07,-1.2369,-1.2369,0,0,-209.11,0,0,1,0,1
10517,1.7649e+07,15.972,15.972,0,0,-209.11,0,0,1,0,1
10559,1.766e+07,-19.147,-19.147,0,0,-209.11,0,0,1,0,1
10601,1.767e+07,10.684,10.684,0,0,-209.11,0,0,1,0,1
10642,1.768e+07,-18.95,-18.95,0,0,-209.11,0,0,1,0,1
10683,1.769e+07,12.934,12.934,0,0,-209.11,0,0,1,0,1
10726,1.77e+07,-22.029,-22.029,0,0,-209.11,0,0,1,0,1
10769,1.771e+07,1.7775,1.7775,0,0,-209.11,0,0,1,0,1
10809,1.772e+07,-16.084,-16.084,0,0,-209.11,0,0,1,0,1
10850,1.773e+07,5.4436,5.4436,0,0,-209.11,0,0,1,0,1
10893,1.7741e+07,-22.744,-22.744,0,0,-209.11,0,0,1,0,1
10933,1.7753e+07,-3.1744,-3.1744,0,0,-209.11,0,0,1,0,1
10976,1.7763e+07,-5.4597,-5.4597,0,0,-209.11,0,0,1,0,1
11016,1.7773e+07,-8.3973,-8.3973,0,0,-209.11,0,0,1,0,1
11057,1.7784e+07,2.5052,2.5052,0,0,-209.11,0,0,1,0,1
11097,1.7793e+07,0.79546,0.79546,0,0,-209.11,0,0,1,0,1
11145,1.7803e+07,10.098,10.098,0,0,-209.11,0,0,1,0,1
11186,1.7813e+07,-6.1142,-6.1142,0,0,-209.11,0,0,1,0,1
11226,1.7824e+07,6.5341,6.5341,0,0,-209.11,0,0,1,0,1
11268,1.7833e+07,-6.7372,-6.7372,0,0,-209.11,0,0,1,0,1
11308,1.7843e+07,10.096,10.096,0,0,-209.11,0,0,1,0,1
11346,1.7854e+07,-9.0047,-9.0047,0,0,-209.11,0,0,1,0,1
11387,1.7863e+07,7.8264,7.8264,0,0,-209.11,0,0,1,0,1
11431,1.7876e+07,-11.088,-11.088,0,0,-209.11,0,0,1,0,1
11472,1.7886e+07,16.15,16.15,0,0,-209.11,0,0,1,0,1
11514,1.7896e+07,-13.493,-13.493,0,0,-209.11,0,0,1,0,1
11559,1.7906e+07,19.456,19.456,0,0,-209.11,0,0,1,0,1
11600,1.7916e+07,-17.995,-17.995,0,0,-209.11,0,0,1,0,1
11640,1.7926e+07,14.377,14.377,0,0,-209.11,0,0,1,0,1
11681,1.7936e+07,-12.593,-12.593,0,0,-209.11,0,0,1,0,1
11723,1.7946e+07,15.212,15.212,0,0,-209.11,0,0,1,0,1
11761,1.7956e+07,-10.873,-10.873,0,0,-209.11,0,0,1,0,1
11802,1.7967e+07,14.221,14.221,0,0,-209.11,0,0,1,0,1
11845,1.7977e+07,-9.6803,-9.6803,0,0,-209.11,0,0,1,0,1
11886,1.7987e+07,13.467,13.467,0,0,-209.11,0,0,1,0,1
11926,1.7997e+07,-13.32,-13.32,0,0,-209.11,0,0,1,0,1
11973,1.8007e+07,10.358,10.358,0,0,-209.11,0,0,1,0,1
12013,1.8017e+07,-15.234,-15.234,0,0,-209.11,0,0,1,0,1
12055,1.8027e+07,11.197,11.197,0,0,-209.11,0,0,1,0,1
12099,1.8042e+07,15.574,15.574,0,0,-209.11,0,0,1,0,1
12140,1.8052e+07,-5.7627,-5.7627,0,0,-209.11,0,0,1,0,1
12180,1.8063e+07,13.89,13.89,0,0,-209.11,0,0,1,0,1
12223,1.8072e+07,-8.5178,-8.5178,0,0,-209.11,0,0,1,0,1
12263,1.8083e+07,16.386,16.386,0,0,-209.11,0,0,1,0,1
12305,1.8092e+07,-13.952,-13.952,0,0,-209.11,0,0,1,0,1
12348,1.8102e+07,14.297,14.297,0,0,-209.11,0,0,1,0,1
12390,1.8113e+07,-14.041,-14.041,0,0,-209.11,0,0,1,0,1
12436,1.8125e+07,13.44,13.44,0,0,-209.11,0,0,1,0,1
12476,1.8135e+07,-22.379,-22.379,0,0,-209.11,0,0,1,0,1
12521,1.8147e+07,4.3164,4.3164,0,0,-209.11,0,0,1,0,1
12558,1.8158e+07,-8.4359,-8.4359,0,0,-209.11,0,0,1,0,1
12599,1.8168e+07,3.5489,3.5489,0,0,-209.11,0,0,1,0,1
12640,1.8178e+07,-1.9112,-1.9112,0,0,-209.11,0,0,1,0,1
12682,1.8189e+07,0.49019,0.49019,0,0,-209.11,0,0,1,0,1
12723,1.8199e+07,-4.469,-4.469,0,0,-209.11,0,0,1,0,1
12767,1.8208e+07,-4.2614,-4.2614,0,0,-209.11,0,0,1,0,1
12808,1.8218e+07,-5.5331,-5.5331,0,0,-209.11,0,0,1,0,1
12848,1.8228e+07,-5.3513,-5.3513,0,0,-209.11,0,0,1,0,1
12890,1.8239e+07,-1.3065,-1.3065,0,0,-209.11,0,0,1,0,1
12928,1.8249e+07,-1.6963,-1.6963,0,0,-209.11,0,0,1,0,1
12965,1.8259e+07,6.4798,6.4798,0,0,-209.11,0,0,1,0,1
13006,1.8269e+07,4.2599,4.2599,0,0,-209.11,0,0,1,0,1
13047,1.8279e+07,8.2384,8.2384,0,0,-209.11,0,0,1,0,1
13089,1.8289e+07,5.862,5.862,0,0,-209.11,0,0,1,0,1
13129,1.8299e+07,-0.39101,-0.39101,0,0,-209.11,0,0,1,0,1
13174,1.8309e+07,6.8667,6.8667,0,0,-209.11,0,0,1,0,1
13214,1.8319e+07,-6.636,-6.636,0,0,-209.11,0,0,1,0,1
13257,1.8329e+07,5.8286,5.8286,0,0,-209.11,0,0,1,0,1
13298,1.8339e+07,-9.0683,-9.0683,0,0,-209.11,0,0,1,0,1
13336,1.8352e+07,-6.4684,-6.4684,0,0,-209.11,0,0,1,0,1
13376,1.8362e+07,-5.3063,-5.3063,0,0,-209.11,0,0,1,0,1
13417,1.8372e+07,-7.3192,-7.3192,0,0,-209.11,0,0,1,0,1
13459,1.8382e+07,0.01564,0.01564,0,0,-209.11,0,0,1,0,1
13499,1.8392e+07,-5.7524,-5.7524,0,0,-209.11,0,0,1,0,1
13541,1.8402e+07,5.8396,5.8396,0,0,-209.11,0,0,1,0,1
13585,1.8412e+07,-9.0241,-9.0241,0,0,-209.11,0,0,1,0,1
13625,1.8423e+07,2.2053,2.2053,0,0,-209.11,0,0,1,0,1
13666,1.8432e+07,-10.45,-10.45,0,0,-209.11,0,0,1,0,1
13707,1.8442e+07,0.34561,0.34561,0,0,-209.11,0,0,1,0,1
13745,1.8452e+07,-9.7816,-9.7816,0,0,-209.11,0,0,1,0,1
13785,1.8463e+07,5.4266,5.4266,0,0,-209.11,0,0,1,0,1
13823,1.8473e+07,-13.243,-13.243,0,0,-209.11,0,0,1,0,1
13864,1.8483e+07,4.0033,4.0033,0,0,-209.11,0,0,1,0,1
13904,1.8493e+07,-9.0502,-9.0502,0,0,-209.11,0,0,1,0,1
13948,1.8503e+07,8.9784,8.9784,0,0,-209.11,0,0,1,0,1
13993,1.8513e+07,-7.8001,-7.8001,0,0,-209.11,0,0,1,0,1
14034,1.8523e+07,8.0624,8.0624,0,0,-209.11,0,0,1,0,1
14077,1.8533e+07,-2.5454,-2.5454,0,0,-209.11,0,0,1,0,1
14117,1.8543e+07,12.325,12.325,0,0,-209.11,0,0,1,0,1
14158,1.8556e+07,-6.5446,-6.5446,0,0,-209.11,0,0,1,0,1
14199,1.8566e+07,8.1833,8.1833,0,0,-209.11,0,0,1,0,1
14240,1.8576e+07,-6.5681,-6.5681,0,0,-209.11,0,0,1,0,1
14280,1.8586e+07,-4.5425,-4.5425,0,0,-209.11,0,0,1,0,1
14322,1.8596e+07,-5.4699,-5.4699,0,0,-209.11,0,0,1,0,1
14366,1.8606e+07,-11.526,-11.526,0,0,-209.11,0,0,1,0,1
14409,1.8616e+07,-5.4264,-5.4264,0,0,-209.11,0,0,1,0,1
14450,1.8626e+07,-10.267,-10.267,0,0,-209.11,0,0,1,0,1
14490,1.8636e+07,-4.2756,-4.2756,0,0,-209.11,0,0,1,0,1
14532,1.8646e+07,-14.372,-14.372,0,0,-209.11,0,0,1,0,1
14569,1.8657e+07,0.2636,0.2636,0,0,-209.11,0,0,1,0,1
14611,1.8667e+07,-9.2968,-9.2968,0,0,-209.11,0,0,1,0,1
14652,1.8678e+07,5.9173,5.9173,0,0,-209.11,0,0,1,0,1
14692,1.8687e+07,-5.3575,-5.3575,0,0,-209.11,0,0,1,0,1
14733,1.8697e+07,4.8442,4.8442,0,0,-209.11,0,0,1,0,1
14777,1.8707e+07,-2.6427,-2.6427,0,0,-209.11,0,0,1,0,1
14819,1.8718e+07,0.6506,0.6506,0,0,-209.11,0,0,1,0,1
14860,1.8728e+07,-4.8952,-4.8952,0,0,-209.11,0,0,1,0,1
14903,1.8738e+07,5.0997,5.0997,0,0,-209.11,0,0,1,0,1
14945,1.8748e+07,-1.5528,-1.5528,0,0,-209.11,0,0,1,0,1
14979,1.8758e+07,9.2585,9.2585,0,0,-209.11,0,0,1,0,1
15019,1.8768e+07,-5.2511,-5.2511,0,0,-209.11,0,0,1,0,1
15059,1.8778e+07,13.206,13.206,0,0,-209.11,0,0,1,0,1
15099,1.8789e+07,-11.355,-11.355,0,0,-209.11,0,0,1,0,1
15141,1.8798e+07,11.173,11.173,0,0,-209.11,0,0,1,0,1
15186,1.8808e+07,-15.548,-15.548,0,0,-209.11,0,0,1,0,1
15229,1.8818e+07,13.537,13.537,0,0,-209.11,0,0,1,0,1
15270,1.8828e+07,-18.84,-18.84,0,0,-209.11,0,0,1,0,1
15312,1.8839e+07,11.657,11.657,0,0,-209.11,0,0,1,0,1
15352,1.8848e+07,-21.596,-21.596,0,0,-209.11,0,0,1,0,1
15387,1.8858e+07,14.768,14.768,0,0,-209.11,0,0,1,0,1
15428,1.8868e+07,-25.406,-25.406,0,0,-209.11,0,0,1,0,1
15468,1.8879e+07,14.393,14.393,0,0,-209.11,0,0,1,0,1
15509,1.8889e+07,-25.004,-25.004,0,0,-209.11,0,0,1,0,1
15551,1.8899e+07,11.506,11.506,0,0,-209.11,0,0,1,0,1
15594,1.8909e+07,-27.026,-27.026,0,0,-209.11,0,0,1,0,1
15636,1.8919e+07,9.5516,9.5516,0,0,-209.11,0,0,1,0,1
15676,1.893e+07,-20.321,-20.321,0,0,-209.11,0,0,1,0,1
15720,1.894e+07,8.983,8.983,0,0,-209.11,0,0,1,0,1
15761,1.8952e+07,-0.23623,-0.23623,0,0,-209.11,0,0,1,0,1
15802,1.8963e+07,-0.29755,-0.29755,0,0,-209.11,0,0,1,0,1
15839,1.8972e+07,6.738,6.738,0,0,-209.11,0,0,1,0,1
15880,1.8982e+07,-6.1132,-6.1132,0,0,-209.11,0,0,1,0,1
15921,1.8992e+07,4.5955,4.5955,0,0,-209.11,0,0,1,0,1
15963,1.9003e+07,-7.9462,-7.9462,0,0,-209.11,0,0,1,0,1
16009,1.9013e+07,10.521,10.521,0,0,-209.11,0,0,1,0,1
16049,1.9022e+07,-15.099,-15.099,0,0,-209.11,0,0,1,0,1
16090,1.9032e+07,8.5663,8.5663,0,0,-209.11,0,0,1,0,1
16133,1.9042e+07,-17.55,-17.55,0,0,-209.11,0,0,1,0,1
16170,1.9055e+07,24.226,24.226,0,0,-209.11,0,0,1,0,1
16211,1.9066e+07,-33.618,-33.618,0,0,-209.11,0,0,1,0,1
16251,1.9076e+07,26.59,26.59,0,0,-209.11,0,0,1,0,1
16292,1.9085e+07,-29.01,-29.01,0,0,-209.11,0,0,1,0,1
16334,1.9095e+07,27.05,27.05,0,0,-209.11,0,0,1,0,1
16375,1.9105e+07,-31.885,-31.885,0,0,-209.11,0,0,1,0,1
16420,1.9116e+07,23.359,23.359,0,0,-209.11,0,0,1,0,1
16460,1.9125e+07,-26.457,-26.457,0,0,-209.11,0,0,1,0,1
16502,1.9135e+07,16.041,16.041,0,0,-209.11,0,0,1,0,1
16545,1.9146e+07,-23.963,-23.963,0,0,-209.11,0,0,1,0,1
16586,1.9161e+07,-24.181,-24.181,0,0,-209.11,0,0,1,0,1
16626,1.9171e+07,25.294,25.294,0,0,-209.11,0,0,1,0,1
16668,1.9182e+07,-22.376,-22.376,0,0,-209.11,0,0,1,0,1
16709,1.9192e+07,24.399,24.399,0,0,-209.11,0,0,1,0,1
16749,1.9201e+07,-20.043,-20.043,0,0,-209.11,0,0,1,0,1
16793,1.9212e+07,20.486,20.486,0,0,-209.11,0,0,1,0,1
16834,1.9222e+07,-20.55,-20.55,0,0,-209.11,0,0,1,0,1
16876,1.9232e+07,18.376,18.376,0,0,-209.11,0,0,1,0,1
16917,1.9243e+07,-19.39,-19.39,0,0,-209.11,0,0,1,0,1
16957,1.9253e+07,16.825,16.825,0,0,-209.11,0,0,1,0,1
16995,1.9265e+07,-8.5985,-8.5985,0,0,-209.11,0,0,1,0,1
17040,1.9278e+07,-11.95,-11.95,0,0,-209.11,0,0,1,0,1
17081,1.9288e+07,13.785,13.785,0,0,-209.11,0,0,1,0,1
17122,1.9298e+07,-18.944,-18.944,0,0,-209.11,0,0,1,0,1
17162,1.9308e+07,11.896,11.896,0,0,-209.11,0,0,1,0,1
17210,1.932e+07,-24.059,-24.059,0,0,-209.11,0,0,1,0,1
17254,1.9331e+07,25.567,25.567,0,0,-209.11,0,0,1,0,1
17294,1.9341e+07,-27.004,-27.004,0,0,-209.11,0,0,1,0,1
17335,1.9353e+07,-9.0349,-9.0349,0,0,-209.11,0,0,1,0,1
17372,1.9363e+07,-5.9118,-5.9118,0,0,-209.11,0,0,1,0,1
17413,1.9373e+07,-15.806,-15.806,0,0,-209.11,0,0,1,0,1
17456,1.9383e+07,-1.1735,-1.1735,0,0,-209.11,0,0,1,0,1
17496,1.9393e+07,-15.88,-15.88,0,0,-209.11,0,0,1,0,1
17538,1.9403e+07,5.5865,5.5865,0,0,-209.11,0,0,1,0,1
17581,1.9413e+07,-22.508,-22.508,0,0,-209.11,0,0,1,0,1
17623,1.9423e+07,4.5671,4.5671,0,0,-209.11,0,0,1,0,1
17663,1.9433e+07,-27.129,-27.129,0,0,-209.11,0,0,1,0,1
17704,1.9443e+07,10.314,10.314,0,0,-209.11,0,0,1,0,1
17745,1.9456e+07,-25.907,-25.907,0,0,-209.11,0,0,1,0,1
17786,1.9466e+07,30.797,30.797,0,0,-209.11,0,0,1,0,1
17827,1.9476e+07,-22.337,-22.337,0,0,-209.11,0,0,1,0,1
17867,1.9486e+07,32.047,32.047,0,0,-209.11,0,0,1,0,1
17911,1.9496e+07,-20.476,-20.476,0,0,-209.11,0,0,1,0,1
17952,1.9506e+07,25.123,25.123,0,0,-209.11,0,0,1,0,1
17997,1.9516e+07,-16.641,-16.641,0,0,-209.11,0,0,1,0,1
18040,1.9526e+07,19.908,19.908,0,0,-209.11,0,0,1,0,1
18080,1.9536e+07,-20.409,-20.409,0,0,-209.11,0,0,1,0,1
18121,1.9546e+07,10.05,10.05,0,0,-209.11,0,0,1,0,1
18161,1.9559e+07,0.10662,0.10662,0,0,-209.11,0,0,1,0,1
18203,1.9569e+07,-15.609,-15.609,0,0,-209.11,0,0,1,0,1
18244,1.9579e+07,7.6762,7.6762,0,0,-209.11,0,0,1,0,1
18281,1.9589e+07,-7.9948,-7.9948,0,0,-209.11,0,0,1,0,1
18323,1.9599e+07,11.696,11.696,0,0,-209.11,0,0,1,0,1
18364,1.9609e+07,-12.166,-12.166,0,0,-209.11,0,0,1,0,1
18410,1.9619e+07,8.0129,8.0129,0,0,-209.11,0,0,1,0,1
18451,1.9629e+07,-12.334,-12.334,0,0,-209.11,0,0,1,0,1
18491,1.9639e+07,5.7911,5.7911,0,0,-209.11,0,0,1,0,1
18532,1.9649e+07,-14.514,-14.514,0,0,-209.11,0,0,1,0,1
18572,1.9659e+07,2.4702,2.4702,0,0,-209.11,0,0,1,0,1
18608,1.9669e+07,-12.161,-12.161,0,0,-209.11,0,0,1,0,1
18650,1.9679e+07,14.32,14.32,0,0,-209.11,0,0,1,0,1
18690,1.9689e+07,-9.2508,-9.2508,0,0,-209.11,0,0,1,0,1
18731,1.97e+07,10.876,10.876,0,0,-209.11,0,0,1,0,1
18774,1.9709e+07,-7.4371,-7.4371,0,0,-209.11,0,0,1,0,1
18818,1.9719e+07,9.4749,9.4749,0,0,-209.11,0,0,1,0,1
18860,1.9729e+07,-8.7188,-8.7188,0,0,-209.11,0,0,1,0,1
18901,1.974e+07,6.0483,6.0483,0,0,-209.11,0,0,1,0,1
18941,1.9749e+07,-11.484,-11.484,0,0,-209.11,0,0,1,0,1
18983,1.976e+07,3.7008,3.7008,0,0,-209.11,0,0,1,0,1
19021,1.977e+07,-13.004,-13.004,0,0,-209.11,0,0,1,0,1
19061,1.978e+07,2.5661,2.5661,0,0,-209.11,0,0,1,0,1
19102,1.979e+07,-12.341,-12.341,0,0,-209.11,0,0,1,0,1
19142,1.98e+07,0.81301,0.81301,0,0,-209.11,0,0,1,0,1
19185,1.981e+07,-10.589,-10.589,0,0,-209.11,0,0,1,0,1
19231,1.982e+07,1.6661,1.6661,0,0,-209.11,0,0,1,0,1
19272,1.983e+07,-6.6794,-6.6794,0,0,-209.11,0,0,1,0,1
19313,1.984e+07,1.9523,1.9523,0,0,-209.11,0,0,1,0,1
19353,1.985e+07,-6.5942,-6.5942,0,0,-209.11,0,0,1,0,1
19395,1.9862e+07,4.8226,4.8226,0,0,-209.11,0,0,1,0,1
19435,1.9873e+07,-8.255,-8.255,0,0,-209.11,0,0,1,0,1
19476,1.9882e+07,1.9169,1.9169,0,0,-209.11,0,0,1,0,1
19517,1.9892e+07,-12.111,-12.111,0,0,-209.11,0,0,1,0,1
19558,1.9902e+07,2.2808,2.2808,0,0,-209.11,0,0,1,0,1
19606,1.9915e+07,-9.4012,-9.4012,0,0,-209.11,0,0,1,0,1
19647,1.9925e+07,3.5837,3.5837,0,0,-209.11,0,0,1,0,1
19690,1.9935e+07,-5.5904,-5.5904,0,0,-209.11,0,0,1,0,1
19731,1.9945e+07,0.84906,0.84906,0,0,-209.11,0,0,1,0,1
19769,1.9955e+07,-12.557,-12.557,0,0,-209.11,0,0,1,0,1
19807,1.9965e+07,1.3834,1.3834,0,0,-209.11,0,0,1,0,1
19848,1.9975e+07,-16.928,-16.928,0,0,-209.11,0,0,1,0,1
19889,1.9985e+07,0.55599,0.55599,0,0,-209.11,0,0,1,0,1
19931,1.9995e+07,-23.227,-23.227,0,0,-209.11,0,0,1,0,1
19973,2.0005e+07,6.1595,6.1595,0,0,-209.11,0,0,1,0,1
20017,2.0015e+07,-27.546,-27.546,0,0,-209.11,0,0,1,0,1
20059,2.0025e+07,9.7716,9.7716,0,0,-209.11,0,0,1,0,1
20100,2.0035e+07,-24.92,-24.92,0,0,-209.11,0,0,1,0,1
20140,2.0045e+07,11.967,11.967,0,0,-209.11,0,0,1,0,1
20181,2.0055e+07,-23.341,-23.341,0,0,-209.11,0,0,1,0,1
20216,2.0065e+07,10.431,10.431,0,0,-209.11,0,0,1,0,1
20257,2.0075e+07,-22.793,-22.793,0,0,-209.11,0,0,1,0,1
20298,2.0085e+07,8.491,8.491,0,0,-209.11,0,0,1,0,1
20338,2.0095e+07,-20.078,-20.078,0,0,-209.11,0,0,1,0,1
20380,2.0105e+07,6.3348,6.3348,0,0,-209.11,0,0,1,0,1
20425,2.0115e+07,-13.511,-13.511,0,0,-209.11,0,0,1,0,1
20466,2.0125e+07,1.8897,1.8897,0,0,-209.11,0,0,1,0,1
20508,2.0135e+07,-5.4565,-5.4565,0,0,-209.11,0,0,1,0,1
20548,2.0145e+07,1.9472,1.9472,0,0,-209.11,0,0,1,0,1
20592,2.0157e+07,17.271,17.271,0,0,-209.11,0,0,1,0,1
20629,2.0168e+07,-26.156,-26.156,0,0,-209.11,0,0,1,0,1
20669,2.0177e+07,20.233,20.233,0,0,-209.11,0,0,1,0,1
20709,2.0188e+07,-34.694,-34.694,0,0,-209.11,0,0,1,0,1
20750,2.0197e+07,18.127,18.127,0,0,-209.11,0,0,1,0,1
20791,2.0207e+07,-37.666,-37.666,0,0,-209.11,0,0,1,0,1
20835,2.0217e+07,20.541,20.541,0,0,-209.11,0,0,1,0,1
20877,2.0227e+07,-37.824,-37.824,0,0,-209.11,0,0,1,0,1
20918,2.0237e+07,24.313,24.313,0,0,-209.11,0,0,1,0,1
20959,2.0247e+07,-34.473,-34.473,0,0,-209.11,0,0,1,0,1
21000,2.026e+07,21.283,21.283,0,0,-209.11,0,0,1,0,1
21038,2.027e+07,-19.271,-19.271,0,0,-209.11,0,0,1,0,1
21079,2.028e+07,10.632,10.632,0,0,-209.11,0,0,1,0,1
21119,2.029e+07,-14.817,-14.817,0,0,-209.11,0,0,1,0,1
21161,2.03e+07,3.3844,3.3844,0,0,-209.11,0,0,1,0,1
21201,2.031e+07,-18.368,-18.368,0,0,-209.11,0,0,1,0,1
21248,2.032e+07,0.77381,0.77381,0,0,-209.11,0,0,1,0,1
21289,2.033e+07,-13.885,-13.885,0,0,-209.11,0,0,1,0,1
21331,2.034e+07,-0.8522,-0.8522,0,0,-209.11,0,0,1,0,1
21374,2.035e+07,2.5138,2.5138,0,0,-209.11,0,0,1,0,1
21411,2.036e+07,-6.5048,-6.5048,0,0,-209.11,0,0,1,0,1
21448,2.037e+07,-1.1645,-1.1645,0,0,-209.11,0,0,1,0,1
21489,2.038e+07,-16.848,-16.848,0,0,-209.11,0,0,1,0,1
21529,2.039e+07,-3.6073,-3.6073,0,0,-209.11,0,0,1,0,1
21570,2.04e+07,-15.894,-15.894,0,0,-209.11,0,0,1,0,1
21611,2.0411e+07,7.7609,7.7609,0,0,-209.11,0,0,1,0,1
21656,2.042e+07,-24.853,-24.853,0,0,-209.11,0,0,1,0,1
21697,2.043e+07,10.168,10.168,0,0,-209.11,0,0,1,0,1
21737,2.044e+07,-24.48,-24.48,0,0,-209.11,0,0,1,0,1
21780,2.045e+07,19.438,19.438,0,0,-209.11,0,0,1,0,1
21817,2.0463e+07,-27.73,-27.73,0,0,-209.11,0,0,1,0,1
21857,2.0473e+07,43.402,43.402,0,0,-209.11,0,0,1,0,1
21898,2.0483e+07,-32.683,-32.683,0,0,-209.11,0,0,1,0,1
21940,2.0493e+07,33.727,33.727,0,0,-209.11,0,0,1,0,1
21982,2.0503e+07,-38.03,-38.03,0,0,-209.11,0,0,1,0,1
22022,2.0513e+07,25.203,25.203,0,0,-209.11,0,0,1,0,1
22068,2.0523e+07,-35.079,-35.079,0,0,-209.11,0,0,1,0,1
22110,2.0533e+07,20.059,20.059,0,0,-209.11,0,0,1,0,1
22151,2.0543e+07,-22.247,-22.247,0,0,-209.11,0,0,1,0,1
22192,2.0553e+07,10.949,10.949,0,0,-209.11,0,0,1,0,1
22234,2.0565e+07,8.9027,8.9027,0,0,-209.11,0,0,1,0,1
22272,2.0576e+07,-12.449,-12.449,0,0,-209.11,0,0,1,0,1
22312,2.0586e+07,10.687,10.687,0,0,-209.11,0,0,1,0,1
22353,2.0596e+07,-19.712,-19.712,0,0,-209.11,0,0,1,0,1
22393,2.0606e+07,11.727,11.727,0,0,-209.11,0,0,1,0,1
22439,2.0616e+07,-24.419,-24.419,0,0,-209.11,0,0,1,0,1
22481,2.0626e+07,18.925,18.925,0,0,-209.11,0,0,1,0,1
22521,2.0636e+07,-20.085,-20.085,0,0,-209.11,0,0,1,0,1
22562,2.0646e+07,22.574,22.574,0,0,-209.11,0,0,1,0,1
22604,2.0656e+07,-21.599,-21.599,0,0,-209.11,0,0,1,0,1
22645,2.0666e+07,27.689,27.689,0,0,-209.11,0,0,1,0,1
22682,2.0676e+07,-20.881,-20.881,0,0,-209.11,0,0,1,0,1
22720,2.0686e+07,22.606,22.606,0,0,-209.11,0,0,1,0,1
22762,2.0696e+07,-27.17,-27.17,0,0,-209.11,0,0,1,0,1
22802,2.0706e+07,18.783,18.783,0,0,-209.11,0,0,1,0,1
22847,2.0716e+07,-25.112,-25.112,0,0,-209.11,0,0,1,0,1
22888,2.0726e+07,9.1671,9.1671,0,0,-209.11,0,0,1,0,1
22932,2.0736e+07,-21.701,-21.701,0,0,-209.11,0,0,1,0,1
22972,2.0746e+07,10.102,10.102,0,0,-209.11,0,0,1,0,1
23014,2.0759e+07,-4.5856,-4.5856,0,0,-209.11,0,0,1,0,1
23055,2.0769e+07,-9.9693,-9.9693,0,0,-209.11,0,0,1,0,1
23092,2.0779e+07,3.3952,3.3952,0,0,-209.11,0,0,1,0,1
23133,2.0789e+07,-9.9414,-9.9414,0,0,-209.11,0,0,1,0,1
23173,2.0799e+07,-2.6543,-2.6543,0,0,-209.11,0,0,1,0,1
23215,2.0809e+07,-6.7054,-6.7054,0,0,-209.11,0,0,1,0,1
23261,2.0819e+07,-5.6021,-5.6021,0,0,-209.11,0,0,1,0,1
23302,2.0829e+07,-1.9078,-1.9078,0,0,-209.11,0,0,1,0,1
23343,2.0839e+07,0.60968,0.60968,0,0,-209.11,0,0,1,0,1
23383,2.0849e+07,-0.64774,-0.64774,0,0,-209.11,0,0,1,0,1
23426,2.0859e+07,7.9538,7.9538,0,0,-209.11,0,0,1,0,1
23466,2.0872e+07,-7.7055,-7.7055,0,0,-209.11,0,0,1,0,1
23507,2.0882e+07,10.294,10.294,0,0,-209.11,0,0,1,0,1
23548,2.0892e+07,-13.033,-13.033,0,0,-209.11,0,0,1,0,1
23591,2.0902e+07,7.1268,7.1268,0,0,-209.11,0,0,1,0,1
23632,2.0912e+07,-11.196,-11.196,0,0,-209.11,0,0,1,0,1
23676,2.0922e+07,2.1052,2.1052,0,0,-209.11,0,0,1,0,1
23717,2.0932e+07,-10.08,-10.08,0,0,-209.11,0,0,1,0,1
23759,2.0942e+07,-1.4145,-1.4145,0,0,-209.11,0,0,1,0,1
23801,2.0952e+07,-2.5538,-2.5538,0,0,-209.11,0,0,1,0,1
23842,2.0962e+07,-5.8818,-5.8818,0,0,-209.11,0,0,1,0,1
23883,2.0972e+07,-5.0788,-5.0788,0,0,-209.11,0,0,1,0,1
23924,2.0984e+07,-11.375,-11.375,0,0,-209.11,0,0,1,0,1
23966,2.0994e+07,-1.6552,-1.6552,0,0,-209.11,0,0,1,0,1
24007,2.1004e+07,-18.121,-18.121,0,0,-209.11,0,0,1,0,1
24049,2.1014e+07,-2.0218,-2.0218,0,0,-209.11,0,0,1,0,1
24093,2.1024e+07,-15.162,-15.162,0,0,-209.11,0,0,1,0,1
24134,2.1035e+07,1.9724,1.9724,0,0,-209.11,0,0,1,0,1
24175,2.1044e+07,-13.97,-13.97,0,0,-209.11,0,0,1,0,1
24216,2.1054e+07,9.412,9.412,0,0,-209.11,0,0,1,0,1
24253,2.1064e+07,-5.4757,-5.4757,0,0,-209.11,0,0,1,0,1
24298,2.1079e+07,-4.3183,-4.3183,0,0,-209.11,0,0,1,0,1
24339,2.1089e+07,-3.9476,-3.9476,0,0,-209.11,0,0,1,0,1
24380,2.11e+07,-8.8144,-8.8144,0,0,-209.11,0,0,1,0,1
24422,2.1109e+07,-8.1977,-8.1977,0,0,-209.11,0,0,1,0,1
24467,2.112e+07,-15.983,-15.983,0,0,-209.11,0,0,1,0,1
24507,2.113e+07,-9.2463,-9.2463,0,0,-209.11,0,0,1,0,1
24551,2.114e+07,-21.595,-21.595,0,0,-209.11,0,0,1,0,1
24591,2.115e+07,1.5886,1.5886,0,0,-209.11,0,0,1,0,1
24632,2.116e+07,-20.803,-20.803,0,0,-209.11,0,0,1,0,1
24669,2.117e+07,0.69447,0.69447,0,0,-209.11,0,0,1,0,1
24710,2.118e+07,-17.611,-17.611,0,0,-209.11,0,0,1,0,1
24752,2.119e+07,1.0633,1.0633,0,0,-209.11,0,0,1,0,1
24792,2.1201e+07,-20.067,-20.067,0,0,-209.11,0,0,1,0,1
24834,2.121e+07,1.1034,1.1034,0,0,-209.11,0,0,1,0,1
24878,2.122e+07,-12.569,-12.569,0,0,-209.11,0,0,1,0,1
24919,2.123e+07,5.8445,5.8445,0,0,-209.11,0,0,1,0,1
24959,2.124e+07,-13.148,-13.148,0,0,-209.11,0,0,1,0,1
25001,2.125e+07,4.1878,4.1878,0,0,-209.11,0,0,1,0,1
25042,2.126e+07,-10.457,-10.457,0,0,-209.11,0,0,1,0,1
25082,2.1273e+07,-7.3946,-7.3946,0,0,-209.11,0,0,1,0,1
25124,2.1283e+07,13.297,13.297,0,0,-209.11,0,0,1,0,1
25165,2.1293e+07,-7.1447,-7.1447,0,0,-209.11,0,0,1,0,1
25206,2.1303e+07,15.987,15.987,0,0,-209.11,0,0,1,0,1
25247,2.1313e+07,-24.093,-24.093,0,0,-209.11,0,0,1,0,1
25291,2.1323e+07,12.229,12.229,0,0,-209.11,0,0,1,0,1
25333,2.1334e+07,-25.947,-25.947,0,0,-209.11,0,0,1,0,1
25375,2.1343e+07,8.8073,8.8073,0,0,-209.11,0,0,1,0,1
25416,2.1353e+07,-31.647,-31.647,0,0,-209.11,0,0,1,0,1
25459,2.1366e+07,-1.4458,-1.4458,0,0,-209.11,0,0,1,0,1
25497,2.1376e+07,-21.458,-21.458,0,0,-209.11,0,0,1,0,1
25538,2.1386e+07,2.2218,2.2218,0,0,-209.11,0,0,1,0,1
25580,2.1396e+07,-7.6469,-7.6469,0,0,-209.11,0,0,1,0,1
25621,2.1406e+07,4.2614,4.2614,0,0,-209.11,0,0,1,0,1
25661,2.1416e+07,-6.2398,-6.2398,0,0,-209.11,0,0,1,0,1
25706,2.1426e+07,12.761,12.761,0,0,-209.11,0,0,1,0,1
25748,2.1436e+07,-10.569,-10.569,0,0,-209.11,0,0,1,0,1
25788,2.1446e+07,9.8032,9.8032,0,0,-209.11,0,0,1,0,1
25832,2.1459e+07,1.4234,1.4234,0,0,-209.11,0,0,1,0,1
25872,2.1469e+07,-8.0513,-8.0513,0,0,-209.11,0,0,1,0,1
25910,2.1479e+07,2.059,2.059,0,0,-209.11,0,0,1,0,1
25954,2.1489e+07,-24.996,-24.996,0,0,-209.11,0,0,1,0,1
25995,2.1499e+07,11.322,11.322,0,0,-209.11,0,0,1,0,1
26036,2.1509e+07,-29.776,-29.776,0,0,-209.11,0,0,1,0,1
26080,2.1519e+07,18.913,18.913,0,0,-209.11,0,0,1,0,1
26124,2.153e+07,-22.502,-22.502,0,0,-209.11,0,0,1,0,1
26164,2.154e+07,22.25,22.25,0,0,-209.11,0,0,1,0,1
26205,2.1549e+07,-31.035,-31.035,0,0,-209.11,0,0,1,0,1
26246,2.1559e+07,26.233,26.233,0,0,-209.11,0,0,1,0,1
26286,2.1569e+07,-30.339,-30.339,0,0,-209.11,0,0,1,0,1
26325,2.1582e+07,18.862,18.862,0,0,-209.11,0,0,1,0,1
26366,2.1592e+07,-26.193,-26.193,0,0,-209.11,0,0,1,0,1
26406,2.1602e+07,13.98,13.98,0,0,-209.11,0,0,1,0,1
26448,2.1612e+07,-26.766,-26.766,0,0,-209.11,0,0,1,0,1
26495,2.1623e+07,10.138,10.138,0,0,-209.11,0,0,1,0,1
26537,2.1633e+07,-10.794,-10.794,0,0,-209.11,0,0,1,0,1
26577,2.1642e+07,-9.678,-9.678,0,0,-209.11,0,0,1,0,1
26618,2.1652e+07,5.3529,5.3529,0,0,-209.11,0,0,1,0,1
26658,2.1662e+07,-22.599,-22.599,0,0,-209.11,0,0,1,0,1
26696,2.1673e+07,18.789,18.789,0,0,-209.11,0,0,1,0,1
26734,2.1683e+07,-0.33207,-0.33207,0,0,-209.11,0,0,1,0,1
26775,2.1693e+07,16.058,16.058,0,0,-209.11,0,0,1,0,1
26816,2.1703e+07,14.863,14.863,0,0,-209.11,0,0,1,0,1
26858,2.1713e+07,0.97704,0.97704,0,0,-209.11,0,0,1,0,1
26908,2.1725e+07,-32.154,-32.154,0,0,-209.11,0,0,1,0,1
26948,2.1736e+07,-14.655,-14.655,0,0,-209.11,0,0,1,0,1
26989,2.1745e+07,-31.738,-31.738,0,0,-209.11,0,0,1,0,1
27031,2.1756e+07,-3.5315,-3.5315,0,0,-209.11,0,0,1,0,1
27071,2.1765e+07,-19.331,-19.331,0,0,-209.11,0,0,1,0,1
27113,2.1775e+07,-17.995,-17.995,0,0,-209.11,0,0,1,0,1
27151,2.1785e+07,-36.712,-36.712,0,0,-209.11,0,0,1,0,1
27192,2.1796e+07,13.958,13.958,0,0,-209.11,0,0,1,0,1
27233,2.1805e+07,32.697,32.697,0,0,-209.11,0,0,1,0,1
27274,2.1815e+07,33.914,33.914,0,0,-209.11,0,0,1,0,1
27322,2.1826e+07,-5.6621,-5.6621,0,0,-209.11,0,0,1,0,1
27362,2.1836e+07,-21.601,-21.601,0,0,-209.11,0,0,1,0,1
27404,2.1846e+07,-15.529,-15.529,0,0,-209.11,0,0,1,0,1
27444,2.1856e+07,-11.814,-11.814,0,0,-209.11,0,0,1,0,1
27485,2.1865e+07,-21.838,-21.838,0,0,-209.11,0,0,1,0,1
27526,2.1876e+07,-39.738,-39.738,0,0,-209.11,0,0,1,0,1
27563,2.1886e+07,-25.64,-25.64,0,0,-209.11,0,0,1,0,1
27605,2.1896e+07,1.5859,1.5859,0,0,-209.11,0,0,1,0,1
27646,2.1906e+07,32.502,32.502,0,0,-209.11,0,0,1,0,1
27686,2.1916e+07,29.225,29.225,0,0,-209.11,0,0,1,0,1
27734,2.1926e+07,19.373,19.373,0,0,-209.11,0,0,1,0,1
27774,2.1936e+07,-4.1248,-4.1248,0,0,-209.11,0,0,1,0,1
27815,2.1946e+07,-14.738,-14.738,0,0,-209.11,0,0,1,0,1
27856,2.1956e+07,-25.461,-25.461,0,0,-209.11,0,0,1,0,1
27894,2.1969e+07,-29.905,-29.905,0,0,-209.11,0,0,1,0,1
27934,2.1979e+07,-34.927,-34.927,0,0,-209.11,0,0,1,0,1
27977,2.1989e+07,-37.728,-37.728,0,0,-209.11,0,0,1,0,1
28018,2.1999e+07,-19.824,-19.824,0,0,-209.11,0,0,1,0,1
28059,2.2009e+07,13.046,13.046,0,0,-209.11,0,0,1,0,1
28100,2.2019e+07,32.575,32.575,0,0,-209.11,0,0,1,0,1
28145,2.2029e+07,42.782,42.782,0,0,-209.11,0,0,1,0,1
28186,2.2039e+07,23.352,23.352,0,0,-209.11,0,0,1,0,1
28226,2.2049e+07,16.598,16.598,0,0,-209.11,0,0,1,0,1
28268,2.2059e+07,-7.7683,-7.7683,0,0,-209.11,0,0,1,0,1
28306,2.2069e+07,-17.843,-17.843,0,0,-209.11,0,0,1,0,1
28346,2.2079e+07,-46.753,-46.753,0,0,-209.11,0,0,1,0,1
28384,2.2089e+07,-40.218,-40.218,0,0,-209.11,0,0,1,0,1
28424,2.21e+07,-37.508,-37.508,0,0,-209.11,0,0,1,0,1
28466,2.211e+07,-27.008,-27.008,0,0,-209.11,0,0,1,0,1
28506,2.212e+07,-12.791,-12.791,0,0,-209.11,0,0,1,0,1
28555,2.213e+07,7.4109,7.4109,0,0,-209.11,0,0,1,0,1
28601,2.214e+07,-5.9059,-5.9059,0,0,-209.11,0,0,1,0,1
28645,2.215e+07,6.589,6.589,0,0,-209.11,0,0,1,0,1
28690,2.2163e+07,-20.589,-20.589,0,0,-209.11,0,0,1,0,1
28737,2.2176e+07,-31.855,-31.855,0,0,-209.11,0,0,1,0,1
28782,2.2186e+07,-41.977,-41.977,0,0,-209.11,0,0,1,0,1
28828,2.2196e+07,-46.443,-46.443,0,0,-209.11,0,0,1,0,1
28869,2.2207e+07,-27.44,-27.44,0,0,-209.11,0,0,1,0,1
28914,2.2217e+07,10.319,10.319,0,0,-209.11,0,0,1,0,1
28963,2.2227e+07,14.109,14.109,0,0,-209.11,0,0,1,0,1
29008,2.2237e+07,26.881,26.881,0,0,-209.11,0,0,1,0,1
29054,2.2248e+07,27.44,27.44,0,0,-209.11,0,0,1,0,1
29098,2.2258e+07,18.837,18.837,0,0,-209.11,0,0,1,0,1
29143,2.2268e+07,6.8411,6.8411,0,0,-209.11,0,0,1,0,1
29181,2.2278e+07,6.265,6.265,0,0,-209.11,0,0,1,0,1
29229,2.2291e+07,-0.20647,-0.20647,0,0,-209.11,0,0,1,0,1
29273,2.2301e+07,-2.788,-2.788,0,0,-209.11,0,0,1,0,1
29318,2.2311e+07,-9.8019,-9.8019,0,0,-209.11,0,0,1,0,1
29363,2.2321e+07,-24.958,-24.958,0,0,-209.11,0,0,1,0,1
29412,2.2332e+07,-25.906,-25.906,0,0,-205.36,0,0,1,0,0
29460,2.2342e+07,-9.6758,-9.6758,0,0,-200.36,0,0,1,0,0
29504,2.2352e+07,2.5025,2.5025,0,0,-195.36,0,0,1,0,0
29549,2.2362e+07,2.8722,2.8722,0,0,-190.36,0,0,1,0,0
29591,2.2372e+07,-14.88,-14.88,0,0,-185.36,0,0,1,0,0
29635,2.2383e+07,-16.45,-16.45,0,0,-180.36,0,0,1,0,0
29677,2.2393e+07,2.3693,2.3693,0,0,-175.36,0,0,1,0,0
29721,2.2402e+07,22.027,22.027,0,0,-170.36,0,0,1,0,0
29769,2.2415e+07,-9.3591,-9.3591,0,0,-164.11,0,0,1,0,0
29814,2.2425e+07,-5.8391,-5.8391,0,0,-159.11,0,0,1,0,0
29863,2.2435e+07,-38.62,-38.62,0,0,-154.11,0,0,1,0,0
29908,2.2446e+07,-9.0466,-9.0466,0,0,-149.11,0,0,1,0,0
29952,2.2455e+07,1.1747,1.1747,0,0,-144.11,0,0,1,0,0
29994,2.2465e+07,14.73,14.73,0,0,-139.11,0,0,1,0,0
30038,2.2477e+07,-1.2445,-1.2445,0,0,-134.11,0,0,1,0,0
30086,2.2488e+07,-16.557,-16.557,0,0,-129.11,0,0,1,0,0
30131,2.2498e+07,7.5354,7.5354,0,0,-124.11,0,0,1,0,0
30175,2.2509e+07,-20.607,-20.607,0,0,-119.11,0,0,1,0,0
30221,2.2519e+07,22.053,22.053,0,0,-114.11,0,0,1,0,0
30270,2.2529e+07,9.1142,9.1142,0,0,-109.11,0,0,1,0,0
30316,2.2539e+07,13.782,13.782,0,0,-104.11,0,0,1,0,0
30361,2.255e+07,2.2883,2.2883,0,0,-99.109,0,0,1,0,0
30405,2.2559e+07,-31.174,-31.174,0,0,-94.109,0,0,1,0,0
30450,2.2572e+07,-2.9912,-2.9912,0,0,-89.109,0,0,1,0,0
30494,2.2583e+07,-1.0524,-1.0524,0,0,-85.359,0,0,1,0,0
30538,2.2593e+07,-2.109,-2.109,0,0,-80.359,0,0,1,0,0
30583,2.2603e+07,17.411,17.411,0,0,-75.359,0,0,1,0,0
30627,2.2613e+07,-1.2123,-1.2123,0,0,-70.359,0,0,1,0,0
30673,2.2624e+07,-25.385,-25.385,0,0,-65.359,0,0,1,0,0
30723,2.2634e+07,-4.8472,-4.8472,0,0,-60.359,0,0,1,0,0
30767,2.2644e+07,10.365,10.365,0,0,-55.359,0,0,1,0,0
30812,2.2654e+07,-36.576,-36.576,0,0,-50.359,0,0,1,0,0
30856,2.2664e+07,1.009,1.009,0,0,-45.359,0,0,1,0,0
30901,2.2676e+07,6.4219,6.4219,0,0,-40.359,0,0,1,0,0
30944,2.2687e+07,23.461,23.461,0,0,-36.609,0,0,1,0,0
30989,2.2697e+07,-35.604,-35.604,0,0,-31.609,0,0,1,0,0
31034,2.2707e+07,-18.846,-18.846,0,0,-26.609,0,0,1,0,0
31078,2.2717e+07,28.228,28.228,0,0,-21.609,0,0,1,0,0
31129,2.273e+07,40.954,40.954,0,0,-15.359,0,0,1,0,0
31177,2.274e+07,36.762,36.762,0,0,-10.359,0,0,1,0,0
31222,2.2751e+07,8.5215,8.5215,0,0,-5.359,0,0,1,0,0
31266,2.276e+07,-26.295,-26.295,0,0,-0.35903,0,0,1,0,0
31311,2.2771e+07,-37.261,-37.261,0,0,4.641,0,0,1,0,0
31350,2.2781e+07,-41.41,-41.41,0,0,7.141,0,0,1,0,0
31394,2.2792e+07,-10.796,-10.796,0,0,12.141,0,0,1,0,0
31439,2.2802e+07,3.723,3.723,0,0,17.141,0,0,1,0,0
31486,2.2812e+07,2.9785,2.9785,0,0,22.141,0,0,1,0,0
31531,2.2822e+07,-7.647,-7.647,0,0,27.141,0,0,1,0,0
31575,2.2832e+07,11.983,11.983,0,0,32.141,0,0,1,0,0
31626,2.2843e+07,26.605,26.605,0,0,37.141,0,0,1,0,0
31671,2.2853e+07,8.8979,8.8979,0,0,42.141,0,0,1,0,0
31716,2.2863e+07,0.078487,0.078487,0,0,47.141,0,0,1,0,0
31761,2.2873e+07,4.6651,4.6651,0,0,52.141,0,0,1,0,0
31802,2.2884e+07,-9.0919,-9.0919,0,0,55.891,0,0,1,0,0
31847,2.2894e+07,4.519,4.519,0,0,60.891,0,0,1,0,0
31889,2.2905e+07,6.9157,6.9157,0,0,65.891,0,0,1,0,0
31934,2.2915e+07,30.855,30.855,0,0,70.891,0,0,1,0,0
31980,2.2925e+07,2.607,2.607,0,0,75.891,0,0,1,0,0
32026,2.2935e+07,12.647,12.647,0,0,80.891,0,0,1,0,0
32075,2.2945e+07,10.251,10.251,0,0,85.891,0,0,1,0,0
32119,2.2956e+07,17.764,17.764,0,0,90.891,0,0,1,0,0
32164,2.2965e+07,15.66,15.66,0,0,95.891,0,0,1,0,0
32210,2.2975e+07,50.9,50.9,0,0,100.89,0,0,1,0,0
32250,2.2986e+07,59.558,59.558,0,0,104.64,0,0,1,0,0
32296,2.2996e+07,67.559,67.559,0,0,109.64,0,0,1,0,0
32340,2.3007e+07,87.058,87.058,0,0,114.64,0,0,1,0,0
32386,2.3017e+07,86.876,86.876,0,0,119.64,0,0,1,0,0
32430,2.3026e+07,99.158,99.158,0,0,124.64,0,0,1,0,0
32475,2.3037e+07,132.75,142.31,-1.2612,-0.63061,127.14,0,0,1,0,0
32523,2.3046e+07,137.2,144.61,-6.4612,-3.2306,127.08,0,0,1,0,0
32569,2.3057e+07,141.58,158.29,-0.78749,-0.39375,127.07,0,0,1,0,0
32614,2.3067e+07,146.01,165.88,-10.777,-5.3883,127,0,0,1,0,0
32658,2.3081e+07,150.77,172.26,-14.346,-7.1729,126.87,0,0,1,0,0
32703,2.3091e+07,154.05,200.96,-29.977,-14.988,126.62,0,0,1,0,0
32746,2.3102e+07,155.62,225.16,-47.855,-23.927,126.31,0,0,1,0,0
32790,2.3112e+07,158.18,196.18,-47.598,-23.799,125.82,0,0,1,0,0
32837,2.3122e+07,160.38,205.41,-45.265,-22.633,125.38,0,0,1,0,0
32881,2.3132e+07,162.78,209.08,-47.132,-23.566,124.91,0,0,1,0,0
32935,2.3144e+07,160.67,228.56,-54.395,-27.198,124.27,0,0,1,0,0
32980,2.3155e+07,154.07,233.26,-66.799,-33.399,123.66,0,0,1,0,0
33024,2.3165e+07,147.42,225.99,-77.914,-38.957,122.91,0,0,1,0,0
33069,2.3175e+07,140.65,228.03,-82.945,-41.473,122.09,0,0,1,0,0
33111,2.3188e+07,131.9,226.14,-92.336,-46.168,120.99,0,0,1,0,0
33156,2.3199e+07,124.29,237.11,-103.74,-51.872,120,0,0,1,0,0
33200,2.3209e+07,116.38,245.11,-117.22,-58.608,118.87,0,0,1,0,0
33245,2.3219e+07,109.86,237.39,-120.89,-60.447,117.67,0,0,1,0,0
33291,2.3229e+07,102.39,224.35,-121.49,-60.747,116.46,0,0,1,0,0
33336,2.3239e+07,94.317,207.99,-115.31,-57.656,115.3,0,0,1,0,0
33385,2.325e+07,85.814,220.23,-128.73,-64.367,114.07,0,0,1,0,0
33429,2.3259e+07,78.521,177.09,-116.18,-58.09,112.83,0,0,1,0,0
33475,2.3269e+07,71.073,198.52,-116.93,-58.463,111.67,0,0,1,0,0
33520,2.3279e+07,66.183,193.56,-122.16,-61.081,110.46,0,0,1,0,0
33561,2.3293e+07,63.029,159.79,-109.31,-54.653,109.32,0,0,1,0,0
33605,2.3303e+07,54.777,152.56,-105.18,-52.59,108.24,0,0,1,0,0
33650,2.3314e+07,46.134,151.4,-109.82,-54.909,107.14,0,0,1,0,0
33695,2.3324e+07,38.47,117.13,-89.797,-44.898,106.16,0,0,1,0,0
33739,2.3334e+07,30.535,150.47,-98.26,-49.13,105.25,0,0,1,0,0
33788,2.3344e+07,24.903,143.95,-108.98,-54.488,104.2,0,0,1,0,0
33837,2.3355e+07,19.382,131.39,-109.71,-54.857,103.11,0,0,1,0,0
33881,2.3365e+07,13.978,115.69,-111.27,-55.634,101.99,0,0,1,0,0
33926,2.3375e+07,8.9892,97.587,-98.237,-49.119,100.96,0,0,1,0,0
33971,2.3385e+07,3.819,121.71,-107.97,-53.983,99.919,0,0,1,0,0
34019,2.3398e+07,-1.4393,80.274,-96.762,-48.381,98.609,0,0,1,0,0
34066,2.341e+07,-6.7064,86.547,-90.599,-45.3,97.472,0,0,1,0,0
34111,2.342e+07,-10.171,64.043,-85.296,-42.648,96.57,0,0,1,0,0
34156,2.343e+07,-12.992,51.911,-69.536,-34.768,95.819,0,0,1,0,0
34201,2.3441e+07,-13.712,81.429,-77.032,-38.516,95.104,0,0,1,0,0
34254,2.3454e+07,-15.315,40.327,-72.678,-36.339,94.149,0,0,1,0,0
34299,2.3464e+07,-17.856,41.785,-65.346,-32.673,93.473,0,0,1,0,0
34343,2.3474e+07,-19.24,50.157,-68.397,-34.198,92.786,0,0,1,0,0
34390,2.3484e+07,-20.31,53.511,-69.367,-34.683,92.093,0,0,1,0,0
34434,2.3498e+07,-21.674,61.367,-73.633,-36.817,91.386,0,0,1,0,0
34479,2.351e+07,-23.859,56.559,-82.844,-41.422,90.351,0,0,1,0,0
34525,2.3521e+07,-25.137,34.831,-71.822,-35.911,89.582,0,0,1,0,0
34571,2.3531e+07,-27.691,42.125,-71.095,-35.548,88.871,0,0,1,0,0
34617,2.3542e+07,-28.977,55.885,-75.863,-37.931,88.138,0,0,1,0,0
34669,2.3555e+07,-29.92,26.179,-69.343,-34.671,87.228,0,0,1,0,0
34713,2.3565e+07,-30.852,27.876,-63.274,-31.637,86.59,0,0,1,0,0
34758,2.3576e+07,-31.936,42.452,-74.052,-37.026,85.882,0,0,1,0,0
34803,2.3586e+07,-32.57,19.441,-64.42,-32.21,85.181,0,0,1,0,0
34848,2.3597e+07,-33.401,45.937,-66.108,-33.054,84.554,0,0,1,0,0
34893,2.3607e+07,-34.181,31.979,-73.392,-36.696,83.812,0,0,1,0,0
34934,2.3618e+07,-34.845,30.48,-64.586,-32.293,83.136,0,0,1,0,0
34980,2.3628e+07,-36.137,62.48,-81.353,-40.676,82.385,0,0,1,0,0
35024,2.3638e+07,-35.538,34.701,-75.001,-37.5,81.6,0,0,1,0,0
35071,2.3648e+07,-36.504,42.643,-69.672,-34.836,80.915,0,0,1,0,0
35123,2.3661e+07,-38.847,49.341,-81.095,-40.548,79.957,0,0,1,0,0
35167,2.3672e+07,-39.44,40.748,-79.663,-39.832,79.154,0,0,1,0,0
35212,2.3682e+07,-40.386,39.891,-80.081,-40.04,78.364,0,0,1,0,0
35256,2.3692e+07,-40.955,17.111,-72.341,-36.171,77.596,0,0,1,0,0
35301,2.3702e+07,-41.495,13.929,-61.011,-30.505,76.949,0,0,1,0,0
35340,2.3713e+07,-42.282,33.292,-68.401,-34.201,76.451,0,0,1,0,0
35385,2.3723e+07,-42.602,12.442,-59.845,-29.922,75.814,0,0,1,0,0
35430,2.3733e+07,-43.166,31.101,-64.38,-32.19,75.209,0,0,1,0,0
35477,2.3743e+07,-43.049,-0.2533,-56.19,-28.095,74.594,0,0,1,0,0
35522,2.3753e+07,-43.051,11.599,-47.1,-23.55,74.108,0,0,1,0,0
35571,2.3763e+07,-42.96,26.781,-57.168,-28.584,73.567,0,0,1,0,0
35616,2.3773e+07,-42.437,10.221,-51.821,-25.91,73.022,0,0,1,0,0
35661,2.3784e+07,-41.967,6.4916,-49.141,-24.57,72.525,0,0,1,0,0
35705,2.3793e+07,-41.632,7.7055,-46.952,-23.476,72.061,0,0,1,0,0
35750,2.3803e+07,-41.207,11.008,-48.968,-24.484,71.577,0,0,1,0,0
35794,2.3814e+07,-40.44,6.6514,-43.275,-21.637,71.122,0,0,1,0,0
35839,2.3824e+07,-39.725,20.707,-50.246,-25.123,70.647,0,0,1,0,0
35881,2.3834e+07,-39.124,-1.6313,-45.408,-22.704,70.292,0,0,1,0,0
35925,2.3844e+07,-38.547,6.8995,-41.087,-20.543,69.892,0,0,1,0,0
35971,2.3854e+07,-37.993,18.341,-46.872,-23.436,69.448,0,0,1,0,0
36022,2.3864e+07,-37.047,9.0925,-40.532,-20.266,69.016,0,0,1,0,0
36068,2.3875e+07,-36.215,10.033,-41.025,-20.512,68.606,0,0,1,0,0
36113,2.3884e+07,-35.349,6.8376,-44.142,-22.071,68.174,0,0,1,0,0
36157,2.3895e+07,-34.401,-3.4262,-36.857,-18.429,67.785,0,0,1,0,0
36203,2.3904e+07,-33.463,5.206,-32.367,-16.184,67.456,0,0,1,0,0
36241,2.3915e+07,-33.031,-0.40312,-29.251,-14.626,67.233,0,0,1,0,0
36287,2.3925e+07,-32.353,-1.7797,-29.253,-14.627,66.94,0,0,1,0,0
36331,2.3935e+07,-29.416,4.1952,-29.275,-14.638,66.671,0,0,1,0,0
36378,2.3945e+07,-29.207,10.259,-36.775,-18.388,66.333,0,0,1,0,0
36422,2.3955e+07,-30.713,0.41313,-28.129,-14.065,66.022,0,0,1,0,0
36472,2.3966e+07,-30.509,15.214,-31.762,-15.881,65.732,0,0,1,0,0
36519,2.3976e+07,-32.052,2.6299,-32.754,-16.377,65.416,0,0,1,0,0
36564,2.3986e+07,-33.305,14.911,-38.339,-19.169,65.077,0,0,1,0,0
36609,2.3996e+07,-33.107,26.768,-43.347,-21.673,64.673,0,0,1,0,0
36650,2.4006e+07,-36.499,15.453,-43.099,-21.55,64.35,0,0,1,0,0
36694,2.4017e+07,-40.658,-0.50621,-42.115,-21.058,63.919,0,0,1,0,0
36735,2.4028e+07,-45.201,1.0333,-41.764,-20.882,63.509,0,0,1,0,0
36780,2.4038e+07,-49.438,2.6535,-47.297,-23.649,63.048,0,0,1,0,0
36824,2.4048e+07,-53.68,2.2002,-46.002,-23.001,62.607,0,0,1,0,0
36868,2.4058e+07,-58.23,-5.6248,-56.906,-28.453,62.061,0,0,1,0,0
36917,2.4068e+07,-63.021,-3.539,-54.615,-27.307,61.523,0,0,1,0,0
36961,2.4078e+07,-65.666,4.4127,-61.841,-30.921,60.942,0,0,1,0,0
37008,2.4088e+07,-67.98,4.1245,-59.596,-29.798,60.375,0,0,1,0,0
37053,2.4098e+07,-70.967,-6.842,-61.173,-30.587,59.766,0,0,1,0,0
37097,2.411e+07,-70.241,-1.0224,-59.962,-29.981,59.022,0,0,1,0,0
37146,2.4123e+07,-69.262,-4.0995,-59.851,-29.926,58.294,0,0,1,0,0
37189,2.4133e+07,-68.451,-14.33,-50.748,-25.374,57.772,0,0,1,0,0
37235,2.4143e+07,-67.446,-11.063,-52.258,-26.129,57.258,0,0,1,0,0
37280,2.4153e+07,-64.86,-35.303,-41.958,-20.979,56.784,0,0,1,0,0
37327,2.4163e+07,-61.145,-32.912,-33.671,-16.835,56.424,0,0,1,0,0
37373,2.4173e+07,-59.675,-25.894,-31.105,-15.553,56.114,0,0,1,0,0
37417,2.4183e+07,-57.748,-35.624,-25.599,-12.8,55.831,0,0,1,0,0
37462,2.4193e+07,-55.579,-48.652,-15.1,-7.5501,55.633,0,0,1,0,0
37507,2.4203e+07,-55.951,-44.37,-18.847,-9.4236,55.439,0,0,1,0,0
37553,2.4216e+07,-53.964,-39.52,-18.415,-9.2074,55.248,0,0,1,0,0
37595,2.4227e+07,-55.048,-50.139,-16.201,-8.1005,55.107,0,0,1,0,0
37639,2.4237e+07,-53.836,-39.053,-20.04,-10.02,54.898,0,0,1,0,0
37684,2.4247e+07,-50.349,-25.786,-19.853,-9.9266,54.71,0,0,1,0,0
37728,2.4257e+07,-46.707,-41.289,-13.032,-6.5159,54.552,0,0,1,0,0
37778,2.4267e+07,-46.998,-37.962,-15.14,-7.57,54.399,0,0,1,0,0
37822,2.4278e+07,-48.081,-39.758,-13.365,-6.6825,54.25,0,0,1,0,0
37867,2.4289e+07,-46.912,-28.932,-18.691,-9.3454,54.09,0,0,1,0,0
37912,2.4299e+07,-42.604,-28.464,-16.995,-8.4974,53.93,0,0,1,0,0
37957,2.4309e+07,-41.497,-28.41,-13.242,-6.6209,53.796,0,0,1,0,0
38001,2.4319e+07,-43.937,-13.931,-15.652,-7.8258,53.679,0,0,1,0,0
38045,2.4329e+07,-42.212,-32.326,-13.316,-6.6578,53.526,0,0,1,0,0
38092,2.434e+07,-40.797,-36.096,-15.543,-7.7714,53.358,0,0,1,0,0
38136,2.435e+07,-39.059,-48.978,-8.8548,-4.4274,53.222,0,0,1,0,0
38182,2.4361e+07,-35.605,-11.737,-17.107,-8.5533,53.099,0,0,1,0,0
38231,2.4371e+07,-30.524,-27.515,-12.217,-6.1086,52.951,0,0,1,0,0
38275,2.4381e+07,-30.466,-26.424,-8.1295,-4.0647,52.872,0,0,1,0,0
38320,2.4391e+07,-33.61,-23.018,-11.807,-5.9036,52.774,0,0,1,0,0
38364,2.4402e+07,-32.1,-31.379,-9.3709,-4.6854,52.661,0,0,1,0,0
38411,2.4412e+07,-29.58,-16.225,-7.5133,-3.7567,52.599,0,0,1,0,0
38453,2.4423e+07,-28.263,-16.905,-11.035,-5.5177,52.505,0,0,1,0,0
38494,2.4433e+07,-24.379,-34.041,-1.5575,-0.77876,52.447,0,0,1,0,0
38539,2.4443e+07,-23.444,-13.266,-5.4619,-2.7309,52.413,0,0,1,0,0
38583,2.4453e+07,-24.807,-18.883,-7.2575,-3.6287,52.335,0,0,1,0,0
38629,2.4463e+07,-24.456,-16.878,-3.9946,-1.9973,52.291,0,0,1,0,0
38679,2.4474e+07,-23.45,-19.736,-10.375,-5.1874,52.195,0,0,1,0,0
38724,2.4484e+07,-22.385,-30.247,-1.3258,-0.6629,52.138,0,0,1,0,0
38768,2.4494e+07,-21.534,-13.95,-6.2557,-3.1278,52.081,0,0,1,0,0
38814,2.4504e+07,-20.447,-23.865,-7.8342,-3.9171,51.973,0,0,1,0,0
38858,2.4514e+07,-19.463,-20.543,-4.812,-2.406,51.908,0,0,1,0,0
38897,2.4524e+07,-17.915,-13.496,-5.6632,-2.8316,51.868,0,0,1,0,0
38942,2.4534e+07,-15.028,-16.456,-2.5888,-1.2944,51.82,0,0,1,0,0
38989,2.4545e+07,-12.045,-17.872,1.8628,0.93138,51.808,0,0,1,0,0
39033,2.4556e+07,-11.731,-8.7099,-3.2167,-1.6084,51.776,0,0,1,0,0
39079,2.4565e+07,-12.321,-17.417,2.5061,1.2531,51.771,0,0,1,0,0
39127,2.4576e+07,-15.202,-10.929,-1.3526,-0.67631,51.767,0,0,1,0,0
39172,2.4586e+07,-14.617,-5.149,-6.6475,-3.3237,51.712,0,0,1,0,0
39216,2.4596e+07,-14.053,-4.8286,-5.6106,-2.8053,51.654,0,0,1,0,0
39262,2.4606e+07,-13.702,-0.84915,-5.7547,-2.8773,51.604,0,0,1,0,0
39307,2.4619e+07,-13.24,1.6594,-12.165,-6.0826,51.476,0,0,1,0,0
39349,2.463e+07,-13.205,-5.7532,-10.51,-5.255,51.392,0,0,1,0,0
39394,2.464e+07,-13.413,-11.423,-8.5962,-4.2981,51.305,0,0,1,0,0
39439,2.4651e+07,-13.681,-5.5957,-9.6017,-4.8009,51.216,0,0,1,0,0
39484,2.4661e+07,-11.463,-13.385,-4.5304,-2.2652,51.145,0,0,1,0,0
39529,2.4672e+07,-11.65,-4.9802,-3.0224,-1.5112,51.117,0,0,1,0,0
39578,2.4682e+07,-14.268,-3.5195,-9.6127,-4.8063,51.036,0,0,1,0,0
39622,2.4692e+07,-15.108,-18.39,-5.1283,-2.5642,50.955,0,0,1,0,0
39667,2.4702e+07,-12.85,-1.1868,-8.8344,-4.4172,50.882,0,0,1,0,0
39715,2.4715e+07,-11.825,-0.96693,-10.419,-5.2093,50.757,0,0,1,0,0
39760,2.4726e+07,-11.941,0.40636,-8.342,-4.171,50.687,0,0,1,0,0
39804,2.4737e+07,-12.341,2.6998,-10.814,-5.407,50.601,0,0,1,0,0
39848,2.4747e+07,-15.254,-1.1015,-13.001,-6.5004,50.475,0,0,1,0,0
39893,2.4758e+07,-16.579,-3.703,-12.084,-6.042,50.348,0,0,1,0,0
39938,2.4768e+07,-16.81,-5.1052,-14.915,-7.4576,50.193,0,0,1,0,0
39983,2.4778e+07,-17.039,-5.6394,-15.454,-7.7271,50.031,0,0,1,0,0
40033,2.4788e+07,-15.973,-11.12,-13.522,-6.761,49.873,0,0,1,0,0
40077,2.4799e+07,-16.042,-16.015,-7.0139,-3.507,49.769,0,0,1,0,0
40122,2.4809e+07,-16.374,1.0627,-12.572,-6.2862,49.657,0,0,1,0,0
40166,2.4819e+07,-16.44,-6.3334,-13.687,-6.8437,49.502,0,0,1,0,0
40206,2.483e+07,-16.674,-3.6763,-12.49,-6.2451,49.375,0,0,1,0,0
40250,2.484e+07,-17.443,-8.3023,-11.689,-5.8444,49.252,0,0,1,0,0
40297,2.485e+07,-17.885,-2.5789,-10.885,-5.4423,49.138,0,0,1,0,0
40341,2.4861e+07,-19.426,1.6329,-11.549,-5.7744,49.022,0,0,1,0,0
40385,2.4871e+07,-19.769,0.79355,-13.038,-6.5191,48.9,0,0,1,0,0
40430,2.4882e+07,-18.805,-2.7098,-12.365,-6.1827,48.784,0,0,1,0,0
40480,2.4892e+07,-17.051,1.7504,-13.579,-6.7895,48.675,0,0,1,0,0
40526,2.4902e+07,-17.755,-2.2681,-12.208,-6.1039,48.561,0,0,1,0,0
40571,2.4913e+07,-16.063,8.8556,-18.103,-9.0513,48.404,0,0,1,0,0
40616,2.4923e+07,-16.386,-0.023174,-14.167,-7.0836,48.262,0,0,1,0,0
40668,2.4939e+07,-22.254,0.067997,-18.92,-9.46,48.035,0,0,1,0,0
40712,2.4949e+07,-22.44,-3.2376,-18.643,-9.3217,47.838,0,0,1,0,0
40758,2.496e+07,-24.115,2.0606,-20.719,-10.36,47.648,0,0,1,0,0
40805,2.497e+07,-24.281,3.5029,-22.719,-11.359,47.428,0,0,1,0,0
40851,2.498e+07,-24.411,-3.7988,-19.011,-9.5054,47.228,0,0,1,0,0
40900,2.499e+07,-24.507,-1.2987,-18.155,-9.0773,47.058,0,0,1,0,0
40944,2.5e+07,-23.168,-13,-15.819,-7.9097,46.883,0,0,1,0,0
40989,2.501e+07,-22.993,-22.547,-8.1867,-4.0933,46.778,0,0,1,0,0
41034,2.502e+07,-22.936,-15.454,-9.7575,-4.8787,46.683,0,0,1,0,0
41079,2.5031e+07,-22.682,-24.711,-5.4103,-2.7051,46.6,0,0,1,0,0
41121,2.5047e+07,-23.771,-16.077,-6.3783,-3.1892,46.553,0,0,1,0,0
41166,2.5058e+07,-23.99,-10.322,-7.505,-3.7525,46.503,0,0,1,0,0
41210,2.5069e+07,-22.602,-9.5652,-8.3807,-4.1904,46.437,0,0,1,0,0
41256,2.5079e+07,-22.549,-12.25,-10.982,-5.4908,46.346,0,0,1,0,0
41300,2.5089e+07,-19.814,-29.742,-5.7933,-2.8967,46.252,0,0,1,0,0
41349,2.5099e+07,-19.624,-18.853,-4.4342,-2.2171,46.204,0,0,1,0,0
41394,2.5109e+07,-20.519,-15.231,-7.6224,-3.8112,46.127,0,0,1,0,0
41439,2.5119e+07,-22.26,-12.964,-9.5979,-4.7989,46.033,0,0,1,0,0
41486,2.5129e+07,-21.784,-7.8506,-12.419,-6.2095,45.915,0,0,1,0,0
41528,2.5143e+07,-20.304,-5.6156,-13.426,-6.7128,45.78,0,0,1,0,0
41570,2.5155e+07,-20.902,-6.413,-14.567,-7.2836,45.672,0,0,1,0,0
41614,2.5166e+07,-22.859,-6.8357,-16.454,-8.2269,45.516,0,0,1,0,0
41658,2.5176e+07,-23.486,-8.5903,-18.73,-9.3649,45.338,0,0,1,0,0
41705,2.5185e+07,-24.076,-19.75,-18.156,-9.0779,45.141,0,0,1,0,0
41749,2.5195e+07,-24.848,-20.086,-15.488,-7.744,44.973,0,0,1,0,0
41798,2.5205e+07,-25.412,-20.801,-15.915,-7.9573,44.794,0,0,1,0,0
41842,2.5215e+07,-25.452,-25.305,-7.3945,-3.6973,44.672,0,0,1,0,0
41887,2.5226e+07,-24.432,-8.0671,-9.6646,-4.8323,44.576,0,0,1,0,0
41932,2.5236e+07,-24.492,-2.5476,-16.756,-8.3782,44.421,0,0,1,0,0
41970,2.5249e+07,-23.386,-18.566,-13.7,-6.8501,44.346,0,0,1,0,0
42015,2.526e+07,-23.115,-13.474,-10.108,-5.0538,44.245,0,0,1,0,0
42060,2.527e+07,-23.788,-2.116,-15,-7.5002,44.119,0,0,1,0,0
42105,2.528e+07,-23.979,-9.3362,-13.613,-6.8066,43.98,0,0,1,0,0
42151,2.529e+07,-26.323,-10.762,-12.407,-6.2036,43.865,0,0,1,0,0
42195,2.5301e+07,-26.249,-9.8081,-15.574,-7.7871,43.726,0,0,1,0,0
42244,2.5311e+07,-27.171,-21.933,-12.807,-6.4033,43.575,0,0,1,0,0
42290,2.5321e+07,-26.927,-19.566,-12.797,-6.3987,43.435,0,0,1,0,0
42336,2.5331e+07,-26.632,-15.342,-13.819,-6.9095,43.29,0,0,1,0,0
42382,2.5341e+07,-26.138,-17.838,-9.7094,-4.8547,43.168,0,0,1,0,0
42424,2.5354e+07,-25.559,-1.3277,-11.776,-5.8882,43.094,0,0,1,0,0
42466,2.5366e+07,-25.758,-20.135,-12.559,-6.2797,42.988,0,0,1,0,0
42510,2.5376e+07,-26.953,-30.485,-3.6791,-1.8395,42.921,0,0,1,0,0
42555,2.5386e+07,-26.951,-15.972,-9.717,-4.8585,42.845,0,0,1,0,0
42600,2.5396e+07,-26.785,-14.824,-12.297,-6.1485,42.728,0,0,1,0,0
42644,2.5406e+07,-25.236,-20.15,-8.91,-4.455,42.628,0,0,1,0,0
42694,2.5416e+07,-24.521,-28.423,-3.5674,-1.7837,42.576,0,0,1,0,0
42739,2.5426e+07,-21.476,-19.202,-6.3549,-3.1774,42.525,0,0,1,0,0
42784,2.5437e+07,-19.871,-19.486,-7.9168,-3.9584,42.438,0,0,1,0,0
42828,2.5447e+07,-16.937,-21.699,-0.10691,-0.053455,42.403,0,0,1,0,0
42870,2.5459e+07,-16.983,4.3067,-6.7389,-3.3695,42.378,0,0,1,0,0
42916,2.5469e+07,-19.01,-13.957,-5.3853,-2.6926,42.303,0,0,1,0,0
42958,2.5481e+07,-23.3,1.2403,-7.8073,-3.9037,42.273,0,0,1,0,0
43003,2.5492e+07,-22.727,-7.3832,-14.226,-7.1131,42.139,0,0,1,0,0
43049,2.5502e+07,-22.33,-17.036,-8.3491,-4.1746,42.05,0,0,1,0,0
43094,2.5512e+07,-22.242,-9.8771,-13.185,-6.5923,41.943,0,0,1,0,0
43143,2.5522e+07,-22.082,-6.6304,-15.47,-7.7351,41.794,0,0,1,0,0
43189,2.5533e+07,-22.014,-4.698,-15.891,-7.9456,41.634,0,0,1,0,0
43234,2.5543e+07,-21.837,-11.396,-11.282,-5.641,41.504,0,0,1,0,0
43278,2.5553e+07,-21.736,-1.442,-15.476,-7.7382,41.375,0,0,1,0,0
43323,2.5563e+07,-22.405,-15.875,-14.262,-7.1309,41.221,0,0,1,0,0
43364,2.5575e+07,-22.626,-13.165,-9.0985,-4.5492,41.148,0,0,1,0,0
43409,2.5589e+07,-21.139,-7.7697,-10.044,-5.0221,41.04,0,0,1,0,0
43454,2.56e+07,-19.772,-25.61,-4.2141,-2.107,40.976,0,0,1,0,0
43499,2.561e+07,-14.72,-37.92,4.2702,2.1351,40.976,0,0,1,0,0
43547,2.562e+07,-12.53,-11.541,3.4046,1.7023,41.029,0,0,1,0,0
43593,2.563e+07,-14.287,-13.729,0.33579,0.1679,41.036,0,0,1,0,0
43638,2.564e+07,-13.685,-23.985,7.5774,3.7887,41.084,0,0,1,0,0
43683,2.5651e+07,-15.669,-8.4538,-1.4858,-0.74292,41.103,0,0,1,0,0
43728,2.5668e+07,-18.206,-18.072,-4.5716,-2.2858,41.051,0,0,1,0,0
43773,2.5679e+07,-19.282,-5.3159,-8.2984,-4.1492,40.986,0,0,1,0,0
43818,2.5689e+07,-18.956,-10.991,-9.4161,-4.708,40.88,0,0,1,0,0
43863,2.57e+07,-17.225,-15.812,-4.7537,-2.3768,40.802,0,0,1,0,0
43909,2.571e+07,-16.609,-0.083351,-9.2264,-4.6132,40.723,0,0,1,0,0
43953,2.5721e+07,-15.931,-10.944,-5.6099,-2.805,40.648,0,0,1,0,0
44002,2.5731e+07,-15.117,-11.392,-0.91058,-0.45529,40.642,0,0,1,0,0
44047,2.5742e+07,-15.469,-20.107,2.454,1.227,40.666,0,0,1,0,0
44093,2.5752e+07,-14.258,-27.329,6.6117,3.3059,40.714,0,0,1,0,0
44138,2.5762e+07,-11.677,-25.7,11.802,5.9009,40.825,0,0,1,0,0
44176,2.5775e+07,-11.451,-22.731,12.184,6.0921,40.887,0,0,1,0,0
44220,2.5787e+07,-8.248,-17.715,13.698,6.8489,41.029,0,0,1,0,0
44264,2.5797e+07,-3.8055,-29.512,21.125,10.563,41.217,0,0,1,0,0
44310,2.5807e+07,-2.567,-31.697,28.429,14.215,41.499,0,0,1,0,0
44355,2.5818e+07,-1.6613,-22.158,21.118,10.559,41.747,0,0,1,0,0
44399,2.5828e+07,-2.8886,-24.363,19.49,9.7452,41.951,0,0,1,0,0
44448,2.5839e+07,-4.9666,-28.934,22.607,11.304,42.171,0,0,1,0,0
44492,2.5849e+07,-3.8502,-12.409,12.571,6.2856,42.329,0,0,1,0,0
44537,2.5859e+07,-2.5447,-24.149,12.98,6.4898,42.439,0,0,1,0,0
44583,2.5869e+07,-1.5388,-18.484,10.973,5.4865,42.54,0,0,1,0,0
44624,2.5881e+07,-1.4608,-8.0805,9.3772,4.6886,42.611,0,0,1,0,0
44669,2.5895e+07,-0.80621,-2.8027,5.7662,2.8831,42.682,0,0,1,0,0
44713,2.5906e+07,-0.68992,5.7695,-1.0443,-0.52213,42.698,0,0,1,0,0
44759,2.5915e+07,0.89299,-7.2967,-0.073183,-0.036591,42.681,0,0,1,0,0
44804,2.5925e+07,3.799,-10.322,7.6487,3.8243,42.738,0,0,1,0,0
44850,2.5936e+07,4.393,4.2916,-0.34657,-0.17329,42.771,0,0,1,0,0
44902,2.5946e+07,-0.25812,-11.672,0.14599,0.072995,42.75,0,0,1,0,0
44949,2.5957e+07,-5.0937,-11.318,-0.77186,-0.38593,42.722,0,0,1,0,0
44995,2.5967e+07,-9.9655,4.9587,-10.666,-5.333,42.632,0,0,1,0,0
45040,2.5976e+07,-14.514,5.9525,-17.177,-8.5883,42.467,0,0,1,0,0
45085,2.599e+07,-19.112,-0.63744,-14.261,-7.1305,42.314,0,0,1,0,0
45127,2.6002e+07,-23.058,9.4101,-23.308,-11.654,42.166,0,0,1,0,0
45171,2.6012e+07,-28.338,-9.6816,-24.931,-12.465,41.912,0,0,1,0,0
45218,2.6023e+07,-33.972,-13.679,-25.026,-12.513,41.658,0,0,1,0,0
45263,2.6032e+07,-39.593,-12.864,-31.127,-15.563,41.348,0,0,1,0,0
45310,2.6042e+07,-43.465,-8.8023,-37.017,-18.509,40.983,0,0,1,0,0
45356,2.6052e+07,-42.115,-16.973,-34.164,-17.082,40.609,0,0,1,0,0
45401,2.6063e+07,-40.4,-27.404,-24.832,-12.416,40.313,0,0,1,0,0
45446,2.6073e+07,-39.838,-29.07,-19.806,-9.9029,40.084,0,0,1,0,0
45491,2.6086e+07,-41.705,-13.363,-20.529,-10.265,39.889,0,0,1,0,0
45532,2.6099e+07,-41.078,-38.871,-17.523,-8.7617,39.733,0,0,1,0,0
45577,2.6109e+07,-40.419,-52.725,-5.3664,-2.6832,39.622,0,0,1,0,0
45622,2.612e+07,-39.681,-36.349,-5.8872,-2.9436,39.551,0,0,1,0,0
45668,2.613e+07,-39.008,-29.36,-7.2277,-3.6139,39.47,0,0,1,0,0
45714,2.614e+07,-38.1,-31.122,-9.941,-4.9705,39.355,0,0,1,0,0
45763,2.615e+07,-32.751,-38.846,-2.1859,-1.0929,39.293,0,0,1,0,0
45808,2.616e+07,-31.532,-24.421,-2.2611,-1.1306,39.287,0,0,1,0,0
45852,2.6171e+07,-33.62,-24.942,-4.9068,-2.4534,39.249,0,0,1,0,0
45898,2.6181e+07,-34.699,-19.357,-11.204,-5.602,39.159,0,0,1,0,0
45940,2.6197e+07,-35.753,-27.53,-10.013,-5.0064,39.076,0,0,1,0,0
45988,2.621e+07,-36.95,-34.974,-6.3863,-3.1932,38.979,0,0,1,0,0
46033,2.622e+07,-32.885,-23.751,-6.9547,-3.4773,38.925,0,0,1,0,0
46078,2.6231e+07,-32.052,-35.399,-4.5687,-2.2844,38.851,0,0,1,0,0
46124,2.6241e+07,-31.213,-37.56,2.8014,1.4007,38.856,0,0,1,0,0
46168,2.6251e+07,-30.428,-34.725,-1.2229,-0.61146,38.846,0,0,1,0,0
46217,2.6262e+07,-29.287,-51.691,8.5487,4.2743,38.889,0,0,1,0,0
46261,2.6272e+07,-28.45,-42.568,7.1797,3.5899,38.952,0,0,1,0,0
46306,2.6283e+07,-27.879,-37.123,8.9462,4.4731,39.018,0,0,1,0,0
46351,2.6293e+07,-27.083,-24.453,5.178,2.589,39.073,0,0,1,0,0
