LineNo,TimeUS,Tar,Act,Err,P,I,D,FF,Dmod,SRate,Limit
191,1.5037e+07,0.042315,-0.0032615,0.045576,0.0061528,0,0.00057171,0,1,0,1
294,1.5071e+07,0.042682,0.00047146,0.042211,0.0056985,0,-0.00068647,0,1,0,1
636,1.5133e+07,0.042705,0.0010556,0.04165,0.0056227,0,-3.7784e-05,0,1,0,1
749,1.5149e+07,0.042606,0.0017536,0.040852,0.005515,0,-0.00023953,0,1,0,1
862,1.5165e+07,0.042473,-0.00038304,0.042857,0.0057856,0,0.00069818,0,1,0,1
975,1.5182e+07,0.042402,0.00038806,0.042014,0.0056718,0,8.2059e-05,0,1,0,1
1206,1.526e+07,0.042869,-0.00012377,0.042993,0.0058041,0,6.4546e-08,0,1,0,1
1590,1.5416e+07,0.042705,0.0015765,0.041129,0.0055524,0,-0.00028782,0,1,0,1
1668,1.5426e+07,0.042585,0.001006,0.041579,0.0056131,0,-0.00011592,0,1,0,1
1710,1.5437e+07,0.042481,0.00038502,0.042096,0.005683,0,7.789e-06,0,1,0,1
1750,1.5447e+07,0.042379,-0.0013228,0.043701,0.0058997,0,0.00068485,0,1,0,1
1791,1.546e+07,0.042299,-0.00084954,0.043149,0.0058251,0,0.00020573,0,1,0,1
1834,1.5473e+07,0.042387,-0.0012547,0.043642,0.0058917,0,-3.9261e-05,0,1,0,1
1876,1.5483e+07,0.042426,-0.00047456,0.0429,0.0057915,0,-2.8313e-05,0,1,0,1
1921,1.5493e+07,0.042484,-0.0019034,0.044387,0.0059923,0,0.00052296,0,1,0,1
1961,1.5503e+07,0.042522,0.00065269,0.041869,0.0056524,0,-0.00030087,0,1,0,1
2002,1.5513e+07,0.042543,0.0013129,0.04123,0.005566,0,-9.4457e-05,0,1,0,1
2043,1.5523e+07,0.04255,0.00091098,0.041639,0.0056213,0,-6.5468e-05,0,1,0,1
2089,1.5538e+07,0.042595,-0.00099239,0.043588,0.0058844,0,0.0001064,0,1,0,1
2133,1.5548e+07,0.042624,-0.0018532,0.044477,0.0060044,0,0.00031945,0,1,0,1
2173,1.5558e+07,0.042619,-0.00071021,0.04333,0.0058495,0,-0.00015552,0,1,0,1
2214,1.5568e+07,0.042608,-0.001886,0.044494,0.0060067,0,0.00031265,0,1,0,1
2255,1.5578e+07,0.042573,-0.00097064,0.043543,0.0058784,0,-9.7952e-05,0,1,0,1
2299,1.5588e+07,0.0425,0.0016444,0.040855,0.0055155,0,-0.00066459,0,1,0,1
2341,1.5599e+07,0.042461,-0.002303,0.044764,0.0060432,0,0.00088012,0,1,0,1
2382,1.5609e+07,0.042461,0.0016416,0.040819,0.0055106,0,-0.00080225,0,1,0,1
2426,1.5619e+07,0.042508,0.00038163,0.042126,0.005687,0,-0.00044656,0,1,0,1
2466,1.5628e+07,0.042564,0.00037777,0.042187,0.0056952,0,6.1598e-05,0,1,0,1
2504,1.5639e+07,0.042617,0.0022974,0.04032,0.0054431,0,-0.00042263,0,1,0,1
2547,1.5649e+07,0.042681,-0.00025915,0.04294,0.0057969,0,0.00075895,0,1,0,1
2587,1.5659e+07,0.042723,0.0023337,0.040389,0.0054526,0,-0.00029682,0,1,0,1
2628,1.5669e+07,0.042751,0.0016777,0.041073,0.0055449,0,0.0001561,0,1,0,1
2668,1.5679e+07,0.042824,-0.0013199,0.044144,0.0059594,0,0.00095886,0,1,0,1
2713,1.5689e+07,0.042979,-0.00034813,0.043327,0.0058492,0,-0.00022232,0,1,0,1
2754,1.5699e+07,0.043017,0.0014319,0.041585,0.005614,0,-0.00030142,0,1,0,1
2795,1.571e+07,0.043149,-0.00041421,0.043564,0.0058811,0,-1.8792e-05,0,1,0,1
2836,1.5719e+07,0.043241,-2.0755e-05,0.043261,0.0058403,0,1.7717e-05,0,1,0,1
2876,1.5729e+07,0.043297,-0.00026803,0.043565,0.0058812,0,4.0745e-05,0,1,0,1
2918,1.5739e+07,0.043309,-0.001531,0.04484,0.0060534,0,0.00046426,0,1,0,1
2960,1.5749e+07,0.043345,-0.0014026,0.044748,0.006041,0,-3.2818e-05,0,1,0,1
2999,1.5759e+07,0.04339,-0.0023426,0.045733,0.0061739,0,0.00033616,0,1,0,1
3041,1.577e+07,0.043457,-0.0015415,0.044999,0.0060749,0,-8.9742e-05,0,1,0,1
3081,1.578e+07,0.043516,5.5018e-05,0.043461,0.0058672,0,-0.00055424,0,1,0,1
3127,1.579e+07,0.043562,0.0010747,0.042487,0.0057357,0,-0.00033296,0,1,0,1
3169,1.58e+07,0.043563,0.0013273,0.042236,0.0057018,0,-6.7885e-05,0,1,0,1
3210,1.581e+07,0.043577,0.0023579,0.041219,0.0055646,0,-0.0004469,0,1,0,1
3251,1.582e+07,0.043578,0.00037881,0.043199,0.0058319,0,0.00046968,0,1,0,1
3293,1.5833e+07,0.043635,0.00086236,0.042773,0.0057743,0,-9.2742e-05,0,1,0,1
3330,1.5843e+07,0.043712,-0.00040961,0.044121,0.0059564,0,0.00030211,0,1,0,1
3372,1.5854e+07,0.043809,-0.00014677,0.043955,0.005934,0,0.00015499,0,1,0,1
3413,1.5864e+07,0.043922,-0.0017954,0.045717,0.0061718,0,0.00034953,0,1,0,1
3453,1.5873e+07,0.044056,-0.0030257,0.047081,0.006356,0,0.00035503,0,1,0,1
3494,1.5884e+07,0.044177,-0.0007773,0.044955,0.0060689,0,-0.0002097,0,1,0,1
3538,1.5893e+07,0.044292,-5.8969e-05,0.044351,0.0059873,0,-0.00034307,0,1,0,1
3579,1.5904e+07,0.044346,-0.00016775,0.044513,0.0060093,0,-7.1383e-05,0,1,0,1
3621,1.5914e+07,0.044381,0.0028106,0.041571,0.0056121,0,-0.00095451,0,1,0,1
3663,1.5924e+07,0.044329,0.00040132,0.043927,0.0059302,0,0.00062593,0,1,0,1
3701,1.5934e+07,0.044301,0.0012938,0.043007,0.0058059,0,-0.0001274,0,1,0,1
3738,1.5944e+07,0.044264,0.0011073,0.043156,0.0058261,0,-2.7155e-05,0,1,0,1
3780,1.5954e+07,0.044275,0.0013939,0.042881,0.0057889,0,-0.00036858,0,1,0,1
3821,1.5964e+07,0.044321,-0.00041501,0.044736,0.0060394,0,0.00037733,0,1,0,1
3861,1.5974e+07,0.044401,-0.00173,0.046131,0.0062277,0,0.00073896,0,1,0,1
3902,1.5984e+07,0.044572,-0.0013008,0.045873,0.0061929,0,-0.00022494,0,1,0,1
3946,1.5994e+07,0.044722,-0.00077196,0.045494,0.0061417,0,-4.3064e-05,0,1,0,1
3987,1.6004e+07,0.044887,-0.00018177,0.045069,0.0060843,0,-0.00030955,0,1,0,1
4028,1.6014e+07,0.045024,-0.00068282,0.045707,0.0061704,0,0.00012682,0,1,0,1
4071,1.6024e+07,0.045111,0.00079121,0.04432,0.0059832,0,-0.00019772,0,1,0,1
4112,1.6034e+07,0.045119,0.0016174,0.043501,0.0058727,0,0.00011152,0,1,0,1
4149,1.6044e+07,0.045163,-0.00036591,0.045529,0.0061464,0,0.00066717,0,1,0,1
4191,1.6054e+07,0.045209,0.0022583,0.042951,0.0057984,0,-0.00055122,0,1,0,1
4235,1.6067e+07,0.045174,0.0013276,0.043847,0.0059193,0,0.0002361,0,1,0,1
4277,1.6077e+07,0.045123,0.0025529,0.04257,0.0057469,0,-0.00033051,0,1,0,1
4317,1.6087e+07,0.045141,-0.0017731,0.046914,0.0063334,0,0.0007483,0,1,0,1
4362,1.6097e+07,0.045166,-0.00073675,0.045903,0.0061969,0,0.00023507,0,1,0,1
4403,1.6107e+07,0.045221,-0.00033712,0.045558,0.0061503,0,-0.00013814,0,1,0,1
4443,1.6117e+07,0.045316,-0.0025442,0.04786,0.0064611,0,0.00057732,0,1,0,1
4489,1.6133e+07,0.04546,-0.00049521,0.045955,0.006204,0,-6.4156e-05,0,1,0,1
4532,1.6145e+07,0.04553,0.00049503,0.045035,0.0060797,0,-0.00010701,0,1,0,1
4572,1.6155e+07,0.045564,0.0018197,0.043744,0.0059054,0,-0.00059202,0,1,0,1
4613,1.6166e+07,0.045575,0.0015181,0.044057,0.0059477,0,-0.00015687,0,1,0,1
4655,1.6175e+07,0.04557,0.00011307,0.045457,0.0061367,0,0.00065105,0,1,0,1
4695,1.6185e+07,0.045629,-0.00064439,0.046274,0.0062469,0,0.00041879,0,1,0,1
4740,1.6196e+07,0.045657,0.0019025,0.043754,0.0059068,0,-0.0003298,0,1,0,1
4780,1.6205e+07,0.045704,-0.00073277,0.046437,0.006269,0,0.00055677,0,1,0,1
4822,1.6215e+07,0.045788,0.00098861,0.0448,0.006048,0,-0.00041939,0,1,0,1
4862,1.6226e+07,0.045789,0.0013668,0.044423,0.0059971,0,4.3907e-05,0,1,0,1
4903,1.6236e+07,0.045813,0.00046982,0.045343,0.0061213,0,0.00027983,0,1,0,1
4941,1.6245e+07,0.045829,0.0012685,0.044561,0.0060157,0,-2.9968e-05,0,1,0,1
4978,1.6255e+07,0.045837,0.0012298,0.044607,0.006022,0,2.8239e-05,0,1,0,1
5020,1.6265e+07,0.0458,0.0012113,0.044589,0.0060195,0,0.0002545,0,1,0,1
5062,1.6276e+07,0.04582,0.0013025,0.044517,0.0060098,0,-0.00017609,0,1,0,1
5102,1.6285e+07,0.045857,0.0010752,0.044782,0.0060455,0,-0.00026255,0,1,0,1
5147,1.6295e+07,0.045851,0.00040422,0.045447,0.0061354,0,0.00035285,0,1,0,1
5188,1.6305e+07,0.04592,-0.00061749,0.046537,0.0062825,0,0.00021061,0,1,0,1
5229,1.6316e+07,0.046028,-0.0018471,0.047875,0.0064631,0,0.00027077,0,1,0,1
5269,1.6325e+07,0.046163,-0.0016365,0.0478,0.006453,0,7.4829e-05,0,1,0,1
5312,1.6338e+07,0.046327,-0.0017401,0.048067,0.0064891,0,0.0001051,0,1,0,1
5349,1.6348e+07,0.046371,0.001632,0.044739,0.0060398,0,-0.00090559,0,1,0,1
5394,1.636e+07,0.046357,0.0011375,0.04522,0.0061046,0,-0.00033232,0,1,0,1
5435,1.6371e+07,0.046308,0.0005907,0.045718,0.0061719,0,0.00016339,0,1,0,1
5475,1.6381e+07,0.04628,0.0017921,0.044488,0.0060059,0,-0.00052661,0,1,0,1
5517,1.639e+07,0.046186,0.0012092,0.044977,0.0060719,0,0.00028233,0,1,0,1
5561,1.64e+07,0.04616,-0.0003887,0.046549,0.0062841,0,0.00039309,0,1,0,1
5603,1.641e+07,0.046137,0.00047426,0.045663,0.0061645,0,4.1904e-06,0,1,0,1
5644,1.642e+07,0.046089,-0.00090887,0.046998,0.0063447,0,0.00078327,0,1,0,1
5684,1.643e+07,0.046099,5.7654e-05,0.046042,0.0062156,0,-0.00011692,0,1,0,1
5719,1.644e+07,0.046118,-0.0012552,0.047373,0.0063953,0,0.00025258,0,1,0,1
5760,1.6451e+07,0.046152,-0.0012646,0.047417,0.0064013,0,9.6212e-05,0,1,0,1
5801,1.6462e+07,0.046195,-0.001792,0.047987,0.0064782,0,0.00030889,0,1,0,1
5841,1.6471e+07,0.046202,0.0017411,0.044461,0.0060022,0,-0.00084909,0,1,0,1
5883,1.6481e+07,0.046183,-0.0009934,0.047176,0.0063688,0,0.00057132,0,1,0,1
5925,1.6492e+07,0.046177,0.00096648,0.04521,0.0061034,0,-0.00044085,0,1,0,1
5969,1.6501e+07,0.046132,0.0012539,0.044878,0.0060585,0,-0.00016015,0,1,0,1
6010,1.6511e+07,0.04605,0.0031309,0.042919,0.0057941,0,-0.00062937,0,1,0,1
6052,1.6522e+07,0.045909,0.0033648,0.042544,0.0057434,0,-0.00022456,0,1,0,1
6096,1.6532e+07,0.045769,0.0017792,0.04399,0.0059386,0,0.00042279,0,1,0,1
6133,1.6542e+07,0.045685,0.0011721,0.044513,0.0060092,0,0.00011488,0,1,0,1
6173,1.6552e+07,0.045637,-0.0019351,0.047572,0.0064222,0,0.0010381,0,1,0,1
6213,1.6563e+07,0.045724,-0.0037122,0.049436,0.0066739,0,0.00066731,0,1,0,1
6254,1.6572e+07,0.045872,-0.002752,0.048624,0.0065643,0,-0.0002829,0,1,0,1
6295,1.6583e+07,0.045974,-0.0023337,0.048308,0.0065216,0,-3.1434e-05,0,1,0,1
6336,1.6593e+07,0.04604,-0.0013823,0.047422,0.006402,0,-9.5204e-05,0,1,0,1
6382,1.6603e+07,0.046031,0.00057306,0.045458,0.0061368,0,-0.00023091,0,1,0,1
6426,1.6613e+07,0.046006,0.0019422,0.044064,0.0059487,0,-0.00054135,0,1,0,1
6467,1.6623e+07,0.045927,0.0029699,0.042957,0.0057992,0,-0.00057538,0,1,0,1
6508,1.6633e+07,0.045778,0.0033106,0.042468,0.0057332,0,-0.0001478,0,1,0,1
6546,1.6645e+07,0.045645,0.0024974,0.043147,0.0058249,0,-7.7261e-05,0,1,0,1
6587,1.6656e+07,0.045585,-0.0023155,0.0479,0.0064665,0,0.0012555,0,1,0,1
6627,1.6666e+07,0.045633,-0.0017381,0.047371,0.0063951,0,0.00022106,0,1,0,1
6669,1.6676e+07,0.045712,-0.0034179,0.049129,0.0066325,0,0.0006535,0,1,0,1
6709,1.6685e+07,0.045848,-0.0036088,0.049457,0.0066767,0,0.000193,0,1,0,1
6754,1.6695e+07,0.046023,-0.0040127,0.050036,0.0067549,0,-2.5491e-05,0,1,0,1
6796,1.6705e+07,0.046157,-0.0016378,0.047795,0.0064523,0,-0.00050006,0,1,0,1
6837,1.6715e+07,0.046256,-0.002066,0.048322,0.0065235,0,-5.3379e-05,0,1,0,1
6878,1.6725e+07,0.04633,-0.00045007,0.04678,0.0063153,0,-0.00047128,0,1,0,1
6920,1.6735e+07,0.046291,0.0016503,0.044641,0.0060265,0,-0.00034335,0,1,0,1
6955,1.6746e+07,0.046255,0.0035958,0.04266,0.005759,0,-0.00071129,0,1,0,1
6995,1.6756e+07,0.046059,0.0033862,0.042673,0.0057608,0,-3.4203e-05,0,1,0,1
7036,1.6766e+07,0.045884,0.0053668,0.040517,0.0054698,0,-0.00074877,0,1,0,1
7077,1.6776e+07,0.045673,0.0038139,0.04186,0.005651,0,0.00021871,0,1,0,1
7118,1.6786e+07,0.04553,0.0018593,0.043671,0.0058955,0,0.00044592,0,1,0,1
7165,1.6796e+07,0.045448,0.00014556,0.045302,0.0061158,0,0.00053027,0,1,0,1
7206,1.6805e+07,0.045452,-0.00075888,0.046211,0.0062384,0,0.00019199,0,1,0,1
7248,1.6816e+07,0.045519,-0.0040693,0.049589,0.0066945,0,0.0009499,0,1,0,1
7289,1.6826e+07,0.045657,-0.003574,0.049231,0.0066462,0,0.00017994,0,1,0,1
7329,1.6836e+07,0.045757,0.00094063,0.044817,0.0060503,0,-0.0012807,0,1,0,1
7370,1.6845e+07,0.045726,0.00053803,0.045188,0.0061004,0,-5.3933e-05,0,1,0,1
7407,1.6856e+07,0.045681,0.0035621,0.042119,0.0056861,0,-0.001087,0,1,0,1
7448,1.6866e+07,0.045575,0.0024923,0.043083,0.0058162,0,-0.00012202,0,1,0,1
7490,1.6877e+07,0.045477,0.002358,0.043119,0.005821,0,-9.4425e-05,0,1,0,1
7530,1.6887e+07,0.045358,0.0028249,0.042533,0.0057419,0,-0.00028055,0,1,0,1
7574,1.6897e+07,0.045306,-0.00070595,0.046012,0.0062116,0,0.00067007,0,1,0,1
7616,1.6906e+07,0.045282,0.00095573,0.044326,0.005984,0,-0.00022277,0,1,0,1
7658,1.6916e+07,0.045298,-0.00090066,0.046199,0.0062368,0,0.00010929,0,1,0,1
7699,1.6927e+07,0.045347,-0.003038,0.048385,0.006532,0,0.00073943,0,1,0,1
7741,1.6939e+07,0.045537,-0.0026005,0.048138,0.0064986,0,-0.00048557,0,1,0,1
7782,1.695e+07,0.045651,-0.001564,0.047215,0.0063741,0,-0.00036246,0,1,0,1
7819,1.6959e+07,0.045735,-0.0010638,0.046799,0.0063179,0,-0.0003561,0,1,0,1
7861,1.6969e+07,0.045752,0.0010012,0.044751,0.0060414,0,-0.00064226,0,1,0,1
7901,1.6979e+07,0.045744,-0.00051238,0.046256,0.0062446,0,0.00024093,0,1,0,1
7942,1.699e+07,0.045719,0.00038554,0.045333,0.00612,0,-2.4872e-06,0,1,0,1
7988,1.7e+07,0.0457,0.0024672,0.043233,0.0058364,0,-0.00091303,0,1,0,1
8030,1.701e+07,0.045636,0.00080945,0.044826,0.0060515,0,0.00012555,0,1,0,1
8073,1.702e+07,0.045567,0.0013647,0.044203,0.0059674,0,-0.00013714,0,1,0,1
8113,1.703e+07,0.045515,0.0018784,0.043636,0.0058909,0,-0.00035777,0,1,0,1
8151,1.704e+07,0.045503,-5.5674e-05,0.045559,0.0061505,0,-5.797e-06,0,1,0,1
8188,1.705e+07,0.045505,-0.0066748,0.052179,0.0070442,0,0.0021633,0,1,0,1
8229,1.706e+07,0.045389,-0.00013988,0.045529,0.0061464,0,0.00063143,0,1,0,1
8269,1.707e+07,0.045394,0.0029625,0.042432,0.0057283,0,-0.0018794,0,1,0,1
8311,1.708e+07,0.04524,-0.017413,0.062653,0.0084582,0,0.0076798,0,1,0,1
8353,1.709e+07,0.045101,-0.00357,0.048671,0.0065706,0,0.0028112,0,1,0,1
8397,1.7101e+07,0.045084,-0.015831,0.060916,0.0082236,0,0.0071342,0,1,0,1
8438,1.711e+07,0.04489,0.0063374,0.038553,0.0052046,0,0.00012535,0,1,0,1
8480,1.712e+07,0.044924,0.026913,0.018011,0.0024315,0,-0.010696,0,1,0,1
8521,1.713e+07,0.045112,0.038304,0.0068074,0.00091901,0,-0.01725,0,1,0,1
8561,1.714e+07,0.045546,0.018012,0.027534,0.0037171,0,-0.010023,0,1,0,1
8601,1.7153e+07,0.045067,0.0043648,0.040702,0.0054948,0,-0.00040052,0,1,0,1
8642,1.7163e+07,0.044976,0.02372,0.021256,0.0028696,0,-0.0078064,0,1,0,1
8682,1.7173e+07,0.044927,0.018678,0.026248,0.0035435,0,-0.0059742,0,1,0,1
8723,1.7183e+07,0.044751,0.023207,0.021544,0.0029085,0,-0.0071499,0,1,0,1
8764,1.7193e+07,0.044778,0.013724,0.031054,0.0041923,0,-0.0056434,0,1,0,1
8808,1.7203e+07,0.044939,-0.0097841,0.054724,0.0073877,0,0.0019441,0,1,0,1
8849,1.7213e+07,0.045123,-0.020089,0.065212,0.0088036,0,0.0059163,0,1,0,1
8889,1.7223e+07,0.045393,-0.012942,0.058335,0.0078752,0,0.0029298,0,1,0,1
8931,1.7233e+07,0.045519,-0.0030899,0.048609,0.0065622,0,0.00025176,0,1,0,1
8968,1.7243e+07,0.045512,-0.026123,0.071635,0.0096707,0,0.010846,0,1,0,1
9006,1.7253e+07,0.045452,-0.020433,0.065885,0.0088944,0,0.0093501,0,1,0,1
9047,1.7263e+07,0.045503,-0.011232,0.056736,0.0076593,0,0.0051686,0,1,0,1
9087,1.7273e+07,0.0453,-0.00064471,0.045945,0.0062025,0,0.0028713,0,1,0,1
9128,1.7284e+07,0.045015,-0.0022662,0.047281,0.0063829,0,0.0040733,0,1,0,1
9168,1.7293e+07,0.044852,-0.015663,0.060515,0.0081695,0,0.008123,0,1,0,1
9213,1.7303e+07,0.044707,0.015881,0.028827,0.0038916,0,-0.0046497,0,1,0,1
9248,1.7333e+07,0.044915,-0.0055503,0.050466,0.0068129,0,0.0024361,0,1,0,1
9291,1.7343e+07,0.044941,-0.003264,0.048205,0.0065076,0,0.001856,0,1,0,1
9328,1.7353e+07,0.045206,-0.028364,0.07357,0.0099319,0,0.007956,0,1,0,1
9366,1.7363e+07,0.045178,0.004008,0.04117,0.005558,0,0.0012399,0,1,0,1
9407,1.7374e+07,0.045603,-0.017406,0.063009,0.0085063,0,0.0036925,0,1,0,1
9447,1.7383e+07,0.045876,-0.0038203,0.049696,0.006709,0,-0.0010313,0,1,0,1
9489,1.7394e+07,0.045658,-0.044767,0.090424,0.012207,0,0.020314,0,1,0,1
9533,1.7404e+07,0.046086,-0.026531,0.072617,0.0098032,0,0.0081383,0,1,0,1
9574,1.7413e+07,0.04545,-0.016332,0.061781,0.0083404,0,0.01433,0,1,0,1
9614,1.7423e+07,0.046061,-0.030756,0.076817,0.01037,0,0.010053,0,1,0,1
9657,1.7433e+07,0.045557,0.0074792,0.038077,0.0051404,0,0.0022196,0,1,0,1
9698,1.7443e+07,0.04571,-0.0093745,0.055085,0.0074364,0,0.0036117,0,1,0,1
9735,1.7453e+07,0.045631,0.05004,-0.0044084,-0.00059514,0,-0.01964,0,1,0,1
9777,1.7466e+07,0.045623,-0.060171,0.10579,0.014282,0,0.026259,0,1,0,1
9818,1.7476e+07,0.04539,0.050042,-0.004652,-0.00062802,0,-0.015724,0,1,0,1
9858,1.7486e+07,0.044958,-0.037659,0.082617,0.011153,0,0.02154,0,1,0,1
9899,1.7496e+07,0.045291,0.042855,0.002436,0.00032886,0,-0.01637,0,1,0,1
9943,1.7507e+07,0.044718,-0.0068769,0.051595,0.0069653,0,0.010672,0,1,0,1
9987,1.7516e+07,0.045394,0.063755,-0.018361,-0.0024787,0,-0.029408,0,1,0,1
10027,1.7526e+07,0.044751,0.019586,0.025165,0.0033972,0,-0.0016241,0,1,0,1
10068,1.7537e+07,0.045935,0.091032,-0.045097,-0.006088,0,-0.047382,0,1,0,1
10107,1.7546e+07,0.045022,0.043179,0.0018429,0.00024879,0,-0.011415,0,1,0,1
10146,1.7557e+07,0.044997,0.10907,-0.064076,-0.0086503,0,-0.050938,0,1,0,1
10187,1.7567e+07,0.044642,0.036016,0.0086261,0.0011645,0,-0.0071126,0,1,0,1
10227,1.7577e+07,0.045385,0.12487,-0.079481,-0.01073,0,-0.053484,0,1,0,1
10269,1.7586e+07,0.044475,0.035893,0.0085823,0.0011586,0,-0.0051751,0,1,0,1
10309,1.7597e+07,0.044917,0.11111,-0.066192,-0.008936,0,-0.048669,0,1,0,1
10355,1.7607e+07,0.044094,0.035466,0.0086277,0.0011647,0,-0.0081136,0,1,0,1
10396,1.7617e+07,0.044721,0.084482,-0.039762,-0.0053678,0,-0.040646,0,1,0,1
10436,1.7626e+07,0.044229,0.020013,0.024216,0.0032691,0,-0.004657,0,1,0,1
10478,1.7636e+07,0.045028,0.050232,-0.0052049,-0.00070266,0,-0.029464,0,1,0,1
10515,1.7649e+07,0.045774,-0.019787,0.06556,0.0088507,0,0.010921,0,1,0,1
10557,1.766e+07,0.04569,0.074661,-0.028971,-0.0039111,0,-0.032837,0,1,0,1
10599,1.767e+07,0.044966,-0.0189,0.063865,0.0086218,0,0.014961,0,1,0,1
10640,1.7679e+07,0.045289,0.072267,-0.026978,-0.003642,0,-0.029469,0,1,0,1
10681,1.769e+07,0.044335,-0.026943,0.071277,0.0096224,0,0.02217,0,1,0,1
10724,1.77e+07,0.044796,0.069237,-0.02444,-0.0032995,0,-0.028541,0,1,0,1
10767,1.771e+07,0.043655,-0.098845,0.1425,0.019237,0,0.051954,0,1,0,1
10807,1.772e+07,0.043952,0.049332,-0.0053794,-0.00072621,0,-0.01824,0,1,0,1
10848,1.773e+07,0.043363,-0.12434,0.1677,0.02264,0,0.059442,0,1,0,1
10891,1.7741e+07,0.044034,0.033659,0.010374,0.0014005,0,-0.014601,0,1,0,1
10931,1.7753e+07,0.044379,-0.10163,0.14601,0.019712,0,0.032639,0,1,0,1
10974,1.7763e+07,0.044427,0.020837,0.023589,0.0031846,0,-0.0055161,0,1,0,1
11014,1.7773e+07,0.046231,-0.087954,0.13418,0.018115,0,0.020813,0,1,0,1
11055,1.7784e+07,0.045452,0.059999,-0.014547,-0.0019638,0,-0.020865,0,1,0,1
11095,1.7793e+07,0.046582,-0.060243,0.10682,0.014421,0,0.012251,0,1,0,1
11143,1.7803e+07,0.045203,0.074385,-0.029182,-0.0039396,0,-0.023873,0,1,0,1
11184,1.7813e+07,0.045864,-0.043812,0.089676,0.012106,0,0.0076647,0,1,0,1
11224,1.7824e+07,0.044248,0.07569,-0.031442,-0.0042446,0,-0.021438,0,1,0,1
11266,1.7833e+07,0.04494,-0.019994,0.064934,0.0087661,0,-0.0021126,0,1,0,1
11306,1.7843e+07,0.043586,0.058685,-0.015099,-0.0020384,0,-0.016942,0,1,0,1
11344,1.7853e+07,0.043666,-0.015351,0.059017,0.0079674,0,-0.0048984,0,1,0,1
11385,1.7863e+07,0.043412,0.065836,-0.022424,-0.0030272,0,-0.021049,0,1,0,1
11429,1.7876e+07,0.044444,0.038987,0.0054573,0.00073673,0,-0.024787,0,1,0,1
11470,1.7886e+07,0.04395,-0.015839,0.059789,0.0080715,0,0.012165,0,1,0,1
11512,1.7896e+07,0.045335,0.027184,0.018151,0.0024504,0,-0.02166,0,1,0,1
11557,1.7906e+07,0.044596,-0.0077649,0.052361,0.0070687,0,0.010425,0,1,0,1
11598,1.7916e+07,0.045628,0.034105,0.011523,0.0015556,0,-0.021099,0,1,0,1
11638,1.7926e+07,0.044613,-0.020301,0.064914,0.0087634,0,0.018096,0,1,0,1
11679,1.7936e+07,0.045313,0.021381,0.023932,0.0032308,0,-0.012702,0,1,0,1
11721,1.7946e+07,0.044261,-0.017133,0.061394,0.0082882,0,0.017566,0,1,0,1
11759,1.7956e+07,0.045191,0.02863,0.016561,0.0022357,0,-0.016738,0,1,0,1
11800,1.7967e+07,0.044079,-0.046282,0.090361,0.012199,0,0.02765,0,1,0,1
11843,1.7977e+07,0.045072,0.031364,0.013707,0.0018505,0,-0.019166,0,1,0,1
11884,1.7987e+07,0.044629,-0.04284,0.087469,0.011808,0,0.022317,0,1,0,1
11924,1.7997e+07,0.045687,0.035404,0.010283,0.0013882,0,-0.022223,0,1,0,1
11971,1.8007e+07,0.045188,-0.064381,0.10957,0.014792,0,0.03128,0,1,0,1
12011,1.8017e+07,0.046315,0.052333,-0.0060182,-0.00081246,0,-0.028982,0,1,0,1
12053,1.8027e+07,0.045591,-0.063269,0.10886,0.014696,0,0.033383,0,1,0,1
12097,1.8042e+07,0.045423,0.079701,-0.034278,-0.0046275,0,-0.021965,0,1,0,1
12138,1.8052e+07,0.04657,-0.040572,0.087142,0.011764,0,0.0044155,0,1,0,1
12178,1.8063e+07,0.044548,0.095409,-0.05086,-0.0068661,0,-0.024565,0,1,0,1
12221,1.8072e+07,0.045859,0.016327,0.029531,0.0039867,0,-0.022283,0,1,0,1
12261,1.8083e+07,0.043729,0.088001,-0.044272,-0.0059767,0,-0.022334,0,1,0,1
12303,1.8092e+07,0.045394,0.0071082,0.038286,0.0051686,0,-0.020431,0,1,0,1
12346,1.8102e+07,0.043571,0.085263,-0.041692,-0.0056285,0,-0.021669,0,1,0,1
12388,1.8113e+07,0.045701,0.01877,0.026931,0.0036357,0,-0.028395,0,1,0,1
12434,1.8125e+07,0.044129,-0.034747,0.078875,0.010648,0,0.025625,0,1,0,1
12474,1.8135e+07,0.045817,0.059912,-0.014095,-0.0019028,0,-0.036376,0,1,0,1
12519,1.8147e+07,0.045412,-0.14976,0.19517,0.026348,0,0.064661,0,1,0,1
12556,1.8158e+07,0.04567,0.078806,-0.033136,-0.0044734,0,-0.031201,0,1,0,1
12597,1.8168e+07,0.046105,-0.11253,0.15864,0.021416,0,0.040653,0,1,0,1
12638,1.8178e+07,0.04534,0.089003,-0.043663,-0.0058944,0,-0.031243,0,1,0,1
12680,1.8189e+07,0.045524,-0.11171,0.15723,0.021226,0,0.042707,0,1,0,1
12721,1.8199e+07,0.044644,0.086958,-0.042315,-0.0057125,0,-0.028649,0,1,0,1
12765,1.8208e+07,0.045406,-0.10069,0.1461,0.019724,0,0.033001,0,1,0,1
12806,1.8218e+07,0.04474,0.071534,-0.026795,-0.0036173,0,-0.025204,0,1,0,1
12846,1.8228e+07,0.045687,-0.099691,0.14538,0.019626,0,0.030542,0,1,0,1
12888,1.8239e+07,0.045127,0.068057,-0.02293,-0.0030955,0,-0.024793,0,1,0,1
12926,1.8249e+07,0.046333,-0.081373,0.12771,0.01724,0,0.018379,0,1,0,1
12963,1.8259e+07,0.045386,0.075891,-0.030505,-0.0041182,0,-0.025191,0,1,0,1
13004,1.8269e+07,0.046473,-0.067999,0.11447,0.015454,0,0.015454,0,1,0,1
13045,1.8279e+07,0.04533,0.076063,-0.030732,-0.0041488,0,-0.023039,0,1,0,1
13087,1.8289e+07,0.04633,-0.038902,0.085232,0.011506,0,0.0047411,0,1,0,1
13127,1.8299e+07,0.044963,0.079735,-0.034772,-0.0046942,0,-0.022877,0,1,0,1
13172,1.8309e+07,0.045707,-0.027359,0.073066,0.009864,0,0.0021091,0,1,0,1
13212,1.8319e+07,0.044408,0.065094,-0.020686,-0.0027926,0,-0.017584,0,1,0,1
13255,1.8329e+07,0.045324,-0.019608,0.064932,0.0087658,0,-0.0024613,0,1,0,1
13296,1.8339e+07,0.044357,0.061069,-0.016712,-0.0022561,0,-0.018653,0,1,0,1
13334,1.8352e+07,0.046296,0.032954,0.013342,0.0018012,0,-0.020755,0,1,0,1
13374,1.8362e+07,0.045221,-0.020711,0.065931,0.0089007,0,0.013228,0,1,0,1
13415,1.8372e+07,0.046093,0.037473,0.0086199,0.0011637,0,-0.023179,0,1,0,1
13457,1.8382e+07,0.045472,-0.023703,0.069175,0.0093386,0,0.01588,0,1,0,1
13497,1.8392e+07,0.046283,0.060641,-0.014358,-0.0019384,0,-0.030035,0,1,0,1
13539,1.8402e+07,0.045614,-0.088616,0.13423,0.018121,0,0.041887,0,1,0,1
13583,1.8412e+07,0.045888,0.065458,-0.01957,-0.0026419,0,-0.026947,0,1,0,1
13623,1.8422e+07,0.045253,-0.09518,0.14043,0.018959,0,0.044997,0,1,0,1
13664,1.8432e+07,0.045351,0.066091,-0.02074,-0.0028,0,-0.02618,0,1,0,1
13705,1.8442e+07,0.045091,-0.1169,0.16199,0.021869,0,0.049566,0,1,0,1
13743,1.8452e+07,0.045124,0.049715,-0.004591,-0.00061978,0,-0.020464,0,1,0,1
13783,1.8463e+07,0.045034,-0.12037,0.1654,0.022329,0,0.048031,0,1,0,1
13821,1.8473e+07,0.044967,0.046223,-0.0012564,-0.00016962,0,-0.015371,0,1,0,1
13862,1.8483e+07,0.046036,-0.12279,0.16883,0.022791,0,0.040077,0,1,0,1
13902,1.8493e+07,0.045524,0.045849,-0.00032456,-4.3815e-05,0,-0.014569,0,1,0,1
13946,1.8503e+07,0.046422,-0.088905,0.13533,0.018269,0,0.027576,0,1,0,1
13991,1.8513e+07,0.045824,0.054241,-0.0084171,-0.0011363,0,-0.0174,0,1,0,1
14032,1.8523e+07,0.04655,-0.06827,0.11482,0.015501,0,0.02028,0,1,0,1
14075,1.8533e+07,0.045515,0.054765,-0.0092502,-0.0012488,0,-0.013873,0,1,0,1
14115,1.8543e+07,0.045931,-0.05479,0.10072,0.013597,0,0.018084,0,1,0,1
14156,1.8556e+07,0.044521,0.024305,0.020216,0.0027291,0,0.001341,0,1,0,1
14197,1.8566e+07,0.045411,0.0297,0.015711,0.002121,0,-0.020532,0,1,0,1
14238,1.8576e+07,0.044,-0.011668,0.055668,0.0075151,0,0.014772,0,1,0,1
14278,1.8586e+07,0.045113,0.055707,-0.010594,-0.0014301,0,-0.032968,0,1,0,1
14320,1.8596e+07,0.044,-0.024221,0.068221,0.0092098,0,0.018119,0,1,0,1
14364,1.8606e+07,0.045517,0.069049,-0.023532,-0.0031768,0,-0.04082,0,1,0,1
14407,1.8616e+07,0.044495,-0.045436,0.089931,0.012141,0,0.026478,0,1,0,1
14448,1.8626e+07,0.045776,0.070377,-0.0246,-0.0033211,0,-0.03855,0,1,0,1
14488,1.8636e+07,0.04477,-0.058297,0.10307,0.013914,0,0.032838,0,1,0,1
14530,1.8646e+07,0.045734,0.068626,-0.022892,-0.0030905,0,-0.034099,0,1,0,1
14567,1.8657e+07,0.044618,-0.078358,0.12298,0.016602,0,0.04375,0,1,0,1
14609,1.8667e+07,0.04509,0.063294,-0.018204,-0.0024575,0,-0.026286,0,1,0,1
14650,1.8677e+07,0.044784,-0.097977,0.14276,0.019273,0,0.043262,0,1,0,1
14690,1.8687e+07,0.044817,0.058597,-0.01378,-0.0018604,0,-0.023421,0,1,0,1
14731,1.8697e+07,0.044471,-0.084303,0.12877,0.017384,0,0.037409,0,1,0,1
14775,1.8707e+07,0.044676,0.060525,-0.015848,-0.0021395,0,-0.025969,0,1,0,1
14817,1.8718e+07,0.044718,-0.076957,0.12167,0.016426,0,0.030538,0,1,0,1
14858,1.8728e+07,0.044713,0.060049,-0.015336,-0.0020704,0,-0.022839,0,1,0,1
14901,1.8738e+07,0.045044,-0.071392,0.11644,0.015719,0,0.026853,0,1,0,1
14943,1.8748e+07,0.045015,0.064242,-0.019228,-0.0025957,0,-0.024633,0,1,0,1
14977,1.8758e+07,0.045088,-0.062677,0.10777,0.014548,0,0.021756,0,1,0,1
15017,1.8768e+07,0.044825,0.056921,-0.012096,-0.001633,0,-0.017444,0,1,0,1
15057,1.8778e+07,0.045191,-0.05564,0.10083,0.013612,0,0.021011,0,1,0,1
15097,1.8789e+07,0.044446,0.045561,-0.0011154,-0.00015058,0,-0.010122,0,1,0,1
15139,1.8798e+07,0.044976,-0.04214,0.087116,0.011761,0,0.01343,0,1,0,1
15184,1.8808e+07,0.043931,0.032174,0.011757,0.0015873,0,-0.0035995,0,1,0,1
15227,1.8818e+07,0.044603,-0.052565,0.097168,0.013118,0,0.016709,0,1,0,1
15268,1.8828e+07,0.043894,0.020553,0.023341,0.0031511,0,-0.0014769,0,1,0,1
15310,1.8838e+07,0.044863,-0.055096,0.099959,0.013494,0,0.014867,0,1,0,1
15350,1.8848e+07,0.044067,0.0070045,0.037063,0.0050034,0,0.0045574,0,1,0,1
15385,1.8858e+07,0.045018,-0.048099,0.093116,0.012571,0,0.011869,0,1,0,1
15426,1.8868e+07,0.044431,0.00055613,0.043875,0.0059231,0,0.0050514,0,1,0,1
15466,1.8879e+07,0.045232,-0.02313,0.068362,0.0092288,0,0.0024309,0,1,0,1
15507,1.8889e+07,0.044335,-0.0035641,0.047899,0.0064664,0,0.008961,0,1,0,1
15549,1.8899e+07,0.044818,-0.01728,0.062099,0.0083833,0,0.0029661,0,1,0,1
15592,1.8909e+07,0.044175,-0.016582,0.060757,0.0082022,0,0.012577,0,1,0,1
15634,1.8919e+07,0.044616,0.0087903,0.035825,0.0048364,0,-0.0068396,0,1,0,1
15674,1.8929e+07,0.043957,-0.030321,0.074278,0.010027,0,0.017561,0,1,0,1
15718,1.894e+07,0.044593,0.0042494,0.040344,0.0054464,0,-0.0074258,0,1,0,1
15759,1.8952e+07,0.044431,-0.030162,0.074593,0.01007,0,0.0099861,0,1,0,1
15800,1.8963e+07,0.04419,0.064902,-0.020712,-0.0027961,0,-0.024835,0,1,0,1
15837,1.8972e+07,0.044367,-0.030233,0.0746,0.010071,0,0.008532,0,1,0,1
15878,1.8982e+07,0.044399,0.066506,-0.022107,-0.0029845,0,-0.025758,0,1,0,1
15919,1.8992e+07,0.045172,-0.045958,0.09113,0.012303,0,0.0127,0,1,0,1
15961,1.9003e+07,0.04442,0.064102,-0.019682,-0.0026571,0,-0.018637,0,1,0,1
16007,1.9013e+07,0.045264,-0.038953,0.084218,0.011369,0,0.0089712,0,1,0,1
16047,1.9022e+07,0.044246,0.044959,-0.00071313,-9.6273e-05,0,-0.0083687,0,1,0,1
16088,1.9032e+07,0.045298,-0.047255,0.092554,0.012495,0,0.012351,0,1,0,1
16131,1.9042e+07,0.044172,0.019718,0.024454,0.0033013,0,0.003865,0,1,0,1
16168,1.9055e+07,0.045424,0.027193,0.018231,0.0024612,0,-0.019085,0,1,0,1
16209,1.9066e+07,0.044927,-0.055353,0.10028,0.013538,0,0.027455,0,1,0,1
16249,1.9076e+07,0.045729,0.048907,-0.003178,-0.00042904,0,-0.02699,0,1,0,1
16290,1.9085e+07,0.045191,-0.049102,0.094293,0.01273,0,0.023351,0,1,0,1
16332,1.9095e+07,0.045665,0.05203,-0.0063653,-0.00085931,0,-0.026173,0,1,0,1
16373,1.9105e+07,0.045456,-0.032711,0.078167,0.010553,0,0.013788,0,1,0,1
16418,1.9115e+07,0.045703,0.06044,-0.014737,-0.0019895,0,-0.027608,0,1,0,1
16458,1.9125e+07,0.045228,-0.0247,0.069928,0.0094403,0,0.012931,0,1,0,1
16500,1.9135e+07,0.045422,0.056461,-0.011039,-0.0014903,0,-0.025362,0,1,0,1
16543,1.9145e+07,0.045049,-0.024723,0.069772,0.0094192,0,0.012508,0,1,0,1
16584,1.9161e+07,0.044663,0.012385,0.032278,0.0043576,0,0.0009936,0,1,0,1
16624,1.9171e+07,0.045369,-0.02871,0.07408,0.010001,0,0.0050628,0,1,0,1
16666,1.9182e+07,0.044759,0.014197,0.030562,0.0041259,0,-0.0013897,0,1,0,1
16707,1.9191e+07,0.045655,0.016475,0.02918,0.0039393,0,-0.016208,0,1,0,1
16747,1.9201e+07,0.044885,0.013564,0.031321,0.0042283,0,-0.001158,0,1,0,1
16791,1.9212e+07,0.045524,0.01214,0.033384,0.0045068,0,-0.012031,0,1,0,1
16832,1.9222e+07,0.045068,0.017437,0.027631,0.0037302,0,-0.0037397,0,1,0,1
16874,1.9232e+07,0.045621,0.031548,0.014074,0.0019,0,-0.017903,0,1,0,1
16915,1.9243e+07,0.044881,0.0059849,0.038896,0.0052509,0,0.0026842,0,1,0,1
16955,1.9253e+07,0.045284,0.037798,0.0074859,0.0010106,0,-0.018197,0,1,0,1
16993,1.9265e+07,0.044805,-0.047148,0.091953,0.012414,0,0.022572,0,1,0,1
17038,1.9278e+07,0.044648,0.0088652,0.035782,0.0048306,0,0.001704,0,1,0,1
17079,1.9288e+07,0.045149,-0.067258,0.11241,0.015175,0,0.022264,0,1,0,1
17120,1.9297e+07,0.044673,-0.0070312,0.051704,0.00698,0,0.0070794,0,1,0,1
17160,1.9308e+07,0.045251,-0.07234,0.11759,0.015875,0,0.024621,0,1,0,1
17208,1.932e+07,0.044777,0.010375,0.034402,0.0046442,0,-0.00043757,0,1,0,1
17252,1.9331e+07,0.04558,0.022075,0.023505,0.0031731,0,-0.018367,0,1,0,1
17292,1.9341e+07,0.044981,0.033812,0.011169,0.0015078,0,-0.011899,0,1,0,1
17333,1.9353e+07,0.044865,0.037817,0.007048,0.00095148,0,-0.016085,0,1,0,1
17370,1.9363e+07,0.044561,-0.017498,0.062059,0.0083779,0,0.013047,0,1,0,1
17411,1.9373e+07,0.044687,0.016208,0.028479,0.0038447,0,-0.0068834,0,1,0,1
17454,1.9383e+07,0.044305,-0.02045,0.064756,0.008742,0,0.015603,0,1,0,1
17494,1.9393e+07,0.044331,-0.001387,0.045718,0.0061719,0,0.0050521,0,1,0,1
17536,1.9403e+07,0.044204,-0.045025,0.089229,0.012046,0,0.023699,0,1,0,1
17579,1.9413e+07,0.04442,-0.0015534,0.045974,0.0062064,0,0.0033206,0,1,0,1
17621,1.9423e+07,0.044449,-0.052662,0.097111,0.01311,0,0.02577,0,1,0,1
17661,1.9433e+07,0.044426,-0.0011075,0.045533,0.006147,0,0.0050455,0,1,0,1
17702,1.9443e+07,0.044515,-0.061652,0.10617,0.014333,0,0.027867,0,1,0,1
17743,1.9456e+07,0.044731,0.029225,0.015505,0.0020932,0,-0.011006,0,1,0,1
17784,1.9466e+07,0.044923,-0.020581,0.065504,0.0088431,0,0.0043308,0,1,0,1
17825,1.9476e+07,0.044434,0.019722,0.024711,0.003336,0,-0.0055854,0,1,0,1
17865,1.9486e+07,0.04468,-0.0084123,0.053092,0.0071674,0,-0.001007,0,1,0,1
17909,1.9496e+07,0.044323,0.024704,0.019619,0.0026486,0,-0.0089368,0,1,0,1
17950,1.9506e+07,0.044455,0.0068908,0.037565,0.0050712,0,-0.0061153,0,1,0,1
17995,1.9516e+07,0.044037,0.031074,0.012963,0.00175,0,-0.010528,0,1,0,1
18038,1.9526e+07,0.044315,0.010804,0.03351,0.0045239,0,-0.0083553,0,1,0,1
18078,1.9536e+07,0.044224,0.038399,0.0058249,0.00078636,0,-0.015586,0,1,0,1
18119,1.9546e+07,0.044291,0.0048072,0.039484,0.0053303,0,-0.0034548,0,1,0,1
18159,1.9559e+07,0.043759,-0.0040749,0.047834,0.0064576,0,0.006449,0,1,0,1
18201,1.9569e+07,0.044335,-0.02636,0.070695,0.0095438,0,0.0076032,0,1,0,1
18242,1.9579e+07,0.043921,0.0054992,0.038422,0.005187,0,0.0028608,0,1,0,1
18279,1.9589e+07,0.044428,-0.027018,0.071446,0.0096452,0,0.0062674,0,1,0,1
18321,1.9599e+07,0.043813,-0.0034743,0.047287,0.0063837,0,0.0057663,0,1,0,1
18362,1.9609e+07,0.044439,-0.032035,0.076474,0.010324,0,0.0054505,0,1,0,1
18408,1.9619e+07,0.043758,-0.0062399,0.049998,0.0067498,0,0.0063127,0,1,0,1
18449,1.9629e+07,0.044205,-0.018917,0.063122,0.0085215,0,0.0015864,0,1,0,1
18489,1.9639e+07,0.043667,-0.028393,0.07206,0.0097281,0,0.014003,0,1,0,1
18530,1.9649e+07,0.044235,-0.026108,0.070343,0.0094962,0,0.0034939,0,1,0,1
18570,1.9659e+07,0.043703,-0.023032,0.066736,0.0090093,0,0.01204,0,1,0,1
18606,1.9669e+07,0.044038,0.0025243,0.041514,0.0056043,0,-0.0057416,0,1,0,1
18648,1.9679e+07,0.043502,-0.015689,0.059191,0.0079908,0,0.0091573,0,1,0,1
18688,1.9689e+07,0.044045,0.018047,0.025998,0.0035098,0,-0.013489,0,1,0,1
18729,1.97e+07,0.043427,-0.010041,0.053467,0.0072181,0,0.007773,0,1,0,1
18772,1.9709e+07,0.043859,0.030611,0.013248,0.0017885,0,-0.01719,0,1,0,1
18816,1.9719e+07,0.043308,-0.018652,0.06196,0.0083646,0,0.0097072,0,1,0,1
18858,1.9729e+07,0.043883,0.037364,0.0065184,0.00087998,0,-0.021722,0,1,0,1
18899,1.974e+07,0.043378,-0.016254,0.059632,0.0080504,0,0.0091324,0,1,0,1
18939,1.9749e+07,0.043753,0.045132,-0.0013792,-0.00018619,0,-0.022836,0,1,0,1
18981,1.976e+07,0.043353,-0.028363,0.071716,0.0096817,0,0.012396,0,1,0,1
19019,1.977e+07,0.044072,0.052211,-0.0081386,-0.0010987,0,-0.025924,0,1,0,1
19059,1.978e+07,0.043782,-0.037546,0.081328,0.010979,0,0.013294,0,1,0,1
19100,1.979e+07,0.043652,0.052614,-0.0089622,-0.0012099,0,-0.021632,0,1,0,1
19140,1.9799e+07,0.043937,-0.048395,0.092332,0.012465,0,0.016436,0,1,0,1
19183,1.981e+07,0.043922,0.050139,-0.0062171,-0.00083931,0,-0.020331,0,1,0,1
19229,1.982e+07,0.043951,-0.040972,0.084924,0.011465,0,0.016035,0,1,0,1
19270,1.983e+07,0.043692,0.056753,-0.013061,-0.0017632,0,-0.02039,0,1,0,1
19311,1.984e+07,0.043933,-0.053215,0.097148,0.013115,0,0.019172,0,1,0,1
19351,1.985e+07,0.043634,0.059885,-0.016251,-0.0021939,0,-0.021319,0,1,0,1
19393,1.9862e+07,0.043941,-0.02009,0.064031,0.0086441,0,0.0033303,0,1,0,1
19433,1.9873e+07,0.042868,0.016663,0.026206,0.0035378,0,0.0031237,0,1,0,1
19474,1.9882e+07,0.043793,-0.015661,0.059454,0.0080263,0,-0.0015646,0,1,0,1
19515,1.9892e+07,0.042873,0.0090128,0.03386,0.0045711,0,0.0044858,0,1,0,1
19556,1.9902e+07,0.043709,-0.028466,0.072176,0.0097437,0,0.0053477,0,1,0,1
19604,1.9915e+07,0.043084,-0.023262,0.066346,0.0089567,0,0.014874,0,1,0,1
19645,1.9925e+07,0.044031,0.0031759,0.040855,0.0055155,0,-0.010186,0,1,0,1
19688,1.9935e+07,0.043153,-0.012521,0.055673,0.0075159,0,0.012243,0,1,0,1
19729,1.9945e+07,0.044005,0.010362,0.033643,0.0045418,0,-0.01206,0,1,0,1
19767,1.9955e+07,0.042953,-0.028183,0.071136,0.0096034,0,0.019664,0,1,0,1
19805,1.9965e+07,0.043762,0.025128,0.018635,0.0025157,0,-0.017777,0,1,0,1
19846,1.9975e+07,0.042808,-0.038165,0.080973,0.010931,0,0.023548,0,1,0,1
19887,1.9985e+07,0.043407,0.028099,0.015308,0.0020666,0,-0.016601,0,1,0,1
19929,1.9995e+07,0.042573,-0.046174,0.088747,0.011981,0,0.025412,0,1,0,1
19971,2.0005e+07,0.043141,0.03808,0.0050603,0.00068314,0,-0.020254,0,1,0,1
20015,2.0015e+07,0.042516,-0.044512,0.087028,0.011749,0,0.023244,0,1,0,1
20057,2.0025e+07,0.043049,0.034845,0.0082034,0.0011075,0,-0.018531,0,1,0,1
20098,2.0035e+07,0.042646,-0.039775,0.082421,0.011127,0,0.01998,0,1,0,1
20138,2.0045e+07,0.043248,0.042758,0.00048997,6.6145e-05,0,-0.021597,0,1,0,1
20179,2.0055e+07,0.042856,-0.030148,0.073005,0.0098556,0,0.016778,0,1,0,1
20214,2.0065e+07,0.043537,0.043467,6.9939e-05,9.4417e-06,0,-0.02013,0,1,0,1
20255,2.0075e+07,0.043141,-0.029276,0.072417,0.0097762,0,0.014746,0,1,0,1
20296,2.0085e+07,0.043468,0.054526,-0.011058,-0.0014928,0,-0.024213,0,1,0,1
20336,2.0095e+07,0.043127,-0.028697,0.071824,0.0096963,0,0.015117,0,1,0,1
20378,2.0105e+07,0.043092,0.063925,-0.020833,-0.0028124,0,-0.02476,0,1,0,1
20423,2.0115e+07,0.043051,-0.017185,0.060237,0.008132,0,0.0077464,0,1,0,1
20464,2.0125e+07,0.042922,0.064216,-0.021294,-0.0028747,0,-0.024513,0,1,0,1
20506,2.0135e+07,0.042964,-0.017868,0.060832,0.0082123,0,0.0059248,0,1,0,1
20546,2.0145e+07,0.042729,0.061695,-0.018967,-0.0025605,0,-0.022719,0,1,0,1
20590,2.0157e+07,0.043241,-0.013672,0.056913,0.0076833,0,0.001055,0,1,0,1
20627,2.0167e+07,0.043139,-0.0086101,0.051749,0.0069861,0,0.0081261,0,1,0,1
20667,2.0177e+07,0.043555,-0.022252,0.065807,0.0088839,0,0.0055127,0,1,0,1
20707,2.0188e+07,0.043109,-0.015573,0.058682,0.007922,0,0.011736,0,1,0,1
20748,2.0197e+07,0.043533,-0.019039,0.062572,0.0084472,0,0.0061723,0,1,0,1
20789,2.0207e+07,0.043073,-0.016553,0.059626,0.0080495,0,0.013041,0,1,0,1
20833,2.0217e+07,0.043304,-0.028524,0.071828,0.0096968,0,0.012019,0,1,0,1
20875,2.0227e+07,0.042995,-0.025553,0.068548,0.0092539,0,0.015735,0,1,0,1
20916,2.0237e+07,0.043342,-0.021591,0.064933,0.008766,0,0.0086137,0,1,0,1
20957,2.0247e+07,0.043134,-0.023033,0.066167,0.0089325,0,0.013651,0,1,0,1
20998,2.026e+07,0.043611,0.033035,0.010576,0.0014278,0,-0.015258,0,1,0,1
21036,2.027e+07,0.043146,0.020494,0.022652,0.003058,0,-0.0081007,0,1,0,1
21077,2.028e+07,0.043207,0.046746,-0.0035393,-0.0004778,0,-0.020749,0,1,0,1
21117,2.029e+07,0.042974,0.020551,0.022424,0.0030272,0,-0.0067084,0,1,0,1
21159,2.03e+07,0.042898,0.045833,-0.0029346,-0.00039618,0,-0.017409,0,1,0,1
21199,2.031e+07,0.042874,0.024296,0.018578,0.002508,0,-0.0091038,0,1,0,1
21246,2.032e+07,0.042707,0.0543,-0.011593,-0.0015651,0,-0.020095,0,1,0,1
21287,2.033e+07,0.04288,0.014687,0.028193,0.0038061,0,-0.0072119,0,1,0,1
21329,2.034e+07,0.042466,0.043008,-0.00054192,-7.3159e-05,0,-0.013519,0,1,0,1
21372,2.035e+07,0.042934,0.014883,0.028051,0.0037869,0,-0.0094536,0,1,0,1
21409,2.036e+07,0.042731,0.023734,0.018998,0.0025647,0,-0.0058328,0,1,0,1
21446,2.037e+07,0.043028,0.014282,0.028746,0.0038808,0,-0.0086496,0,1,0,1
21487,2.038e+07,0.04264,0.0047203,0.03792,0.0051192,0,0.0025754,0,1,0,1
21527,2.0389e+07,0.043169,0.034624,0.0085449,0.0011536,0,-0.01703,0,1,0,1
21568,2.04e+07,0.042677,-0.009642,0.052319,0.007063,0,0.0090931,0,1,0,1
21609,2.041e+07,0.042795,0.032501,0.010294,0.0013897,0,-0.012261,0,1,0,1
21654,2.042e+07,0.042653,-0.042088,0.084742,0.01144,0,0.019972,0,1,0,1
21695,2.043e+07,0.042721,0.023832,0.018889,0.00255,0,-0.0084045,0,1,0,1
21735,2.044e+07,0.042755,-0.060418,0.10317,0.013928,0,0.025455,0,1,0,1
21778,2.045e+07,0.042574,0.015208,0.027366,0.0036944,0,-0.0032341,0,1,0,1
21815,2.0463e+07,0.043315,-0.014793,0.058108,0.0078445,0,-0.0010807,0,1,0,1
21855,2.0473e+07,0.04264,0.020537,0.022103,0.0029839,0,-0.0051621,0,1,0,1
21896,2.0483e+07,0.043307,0.0084209,0.034886,0.0047096,0,-0.01119,0,1,0,1
21938,2.0493e+07,0.042673,0.012412,0.030261,0.0040853,0,-0.0006315,0,1,0,1
21980,2.0503e+07,0.043667,-0.0056072,0.049274,0.006652,0,-0.0064021,0,1,0,1
22020,2.0513e+07,0.042784,-0.011175,0.053959,0.0072845,0,0.012399,0,1,0,1
22066,2.0523e+07,0.04388,-0.017224,0.061104,0.0082491,0,-0.00071777,0,1,0,1
22108,2.0533e+07,0.042818,-0.042117,0.084935,0.011466,0,0.027136,0,1,0,1
22149,2.0543e+07,0.044106,-0.0014068,0.045513,0.0061442,0,-0.008258,0,1,0,1
22190,2.0553e+07,0.043027,-0.064036,0.10706,0.014453,0,0.035527,0,1,0,1
22232,2.0565e+07,0.044024,0.071032,-0.027008,-0.0036461,0,-0.029967,0,1,0,1
22270,2.0576e+07,0.043545,-0.053916,0.097461,0.013157,0,0.020343,0,1,0,1
22310,2.0586e+07,0.043063,0.070802,-0.027739,-0.0037447,0,-0.027265,0,1,0,1
22351,2.0596e+07,0.043203,-0.029941,0.073144,0.0098744,0,0.0086149,0,1,0,1
22391,2.0606e+07,0.042721,0.061248,-0.018528,-0.0025012,0,-0.022515,0,1,0,1
22437,2.0616e+07,0.043144,-0.015081,0.058225,0.0078603,0,0.00046823,0,1,0,1
22479,2.0626e+07,0.042821,0.061543,-0.018722,-0.0025275,0,-0.023982,0,1,0,1
22519,2.0636e+07,0.043157,7.2953e-05,0.043084,0.0058163,0,-0.0045832,0,1,0,1
22560,2.0646e+07,0.042998,0.062491,-0.019493,-0.0026315,0,-0.025611,0,1,0,1
22602,2.0656e+07,0.043293,0.0054394,0.037854,0.0051103,0,-0.0065625,0,1,0,1
22643,2.0666e+07,0.043135,0.091799,-0.048664,-0.0065696,0,-0.037021,0,1,0,1
22680,2.0676e+07,0.042731,0.015633,0.027098,0.0036582,0,-0.011352,0,1,0,1
22718,2.0686e+07,0.042397,0.095121,-0.052725,-0.0071179,0,-0.035317,0,1,0,1
22760,2.0696e+07,0.043066,0.018303,0.024764,0.0033431,0,-0.010315,0,1,0,1
22800,2.0706e+07,0.042368,0.10495,-0.062582,-0.0084485,0,-0.035345,0,1,0,1
22845,2.0716e+07,0.042791,0.026825,0.015967,0.0021555,0,-0.014041,0,1,0,1
22886,2.0726e+07,0.041709,0.049359,-0.0076505,-0.0010328,0,-0.011194,0,1,0,1
22930,2.0736e+07,0.042538,0.020092,0.022445,0.0030301,0,-0.013063,0,1,0,1
22970,2.0746e+07,0.041758,0.017307,0.02445,0.0033008,0,0.001211,0,1,0,1
23012,2.0759e+07,0.042292,-0.0069298,0.049222,0.0066449,0,0.0011915,0,1,0,1
23053,2.0769e+07,0.042822,-0.090427,0.13325,0.017989,0,0.037736,0,1,0,1
23090,2.0779e+07,0.042832,-0.0047574,0.047589,0.0064245,0,0.0012465,0,1,0,1
23131,2.0789e+07,0.043303,-0.078342,0.12165,0.016422,0,0.031395,0,1,0,1
23171,2.0799e+07,0.043467,-0.022016,0.065483,0.0088403,0,0.009761,0,1,0,1
23213,2.0809e+07,0.043558,-0.053719,0.097277,0.013132,0,0.023045,0,1,0,1
23259,2.0819e+07,0.04363,-0.019073,0.062703,0.0084649,0,0.0084399,0,1,0,1
23300,2.0829e+07,0.043283,-0.056021,0.099304,0.013406,0,0.026667,0,1,0,1
23341,2.0839e+07,0.04318,-0.024783,0.067963,0.009175,0,0.011667,0,1,0,1
23381,2.0849e+07,0.042997,-0.057426,0.10042,0.013557,0,0.024374,0,1,0,1
23424,2.0859e+07,0.04321,-0.0040002,0.04721,0.0063734,0,-0.00078002,0,1,0,1
23464,2.0871e+07,0.042894,0.019511,0.023383,0.0031567,0,-0.013246,0,1,0,1
23505,2.0882e+07,0.042281,0.080024,-0.037743,-0.0050953,0,-0.032063,0,1,0,1
23546,2.0892e+07,0.042689,0.025356,0.017333,0.00234,0,-0.016881,0,1,0,1
23589,2.0902e+07,0.042129,0.083721,-0.041592,-0.0056149,0,-0.030911,0,1,0,1
23630,2.0912e+07,0.042798,0.0297,0.013098,0.0017682,0,-0.019252,0,1,0,1
23674,2.0922e+07,0.04205,0.070913,-0.028863,-0.0038965,0,-0.023133,0,1,0,1
23715,2.0932e+07,0.04288,0.05331,-0.01043,-0.001408,0,-0.028748,0,1,0,1
23757,2.0942e+07,0.042107,0.039907,0.0021997,0.00029696,0,-0.01005,0,1,0,1
23799,2.0952e+07,0.042379,0.062276,-0.019897,-0.0026861,0,-0.026967,0,1,0,1
23840,2.0962e+07,0.041839,0.037405,0.0044338,0.00059856,0,-0.0098701,0,1,0,1
23881,2.0971e+07,0.04201,0.066409,-0.024399,-0.0032938,0,-0.026972,0,1,0,1
23922,2.0984e+07,0.041425,-0.053896,0.09532,0.012868,0,0.02498,0,1,0,1
23964,2.0994e+07,0.041567,-0.031024,0.072591,0.0097998,0,0.017494,0,1,0,1
24005,2.1004e+07,0.04202,-0.062609,0.10463,0.014125,0,0.025914,0,1,0,1
24047,2.1014e+07,0.041959,-0.040678,0.082637,0.011156,0,0.020967,0,1,0,1
24091,2.1024e+07,0.042538,-0.059361,0.1019,0.013756,0,0.022486,0,1,0,1
24132,2.1035e+07,0.042489,-0.050755,0.093245,0.012588,0,0.024365,0,1,0,1
24173,2.1044e+07,0.043292,-0.06591,0.1092,0.014742,0,0.022822,0,1,0,1
24214,2.1054e+07,0.043067,-0.050711,0.093778,0.01266,0,0.02532,0,1,0,1
24251,2.1064e+07,0.043582,-0.03872,0.082301,0.011111,0,0.013826,0,1,0,1
24296,2.1079e+07,0.04353,0.023144,0.020386,0.0027521,0,-0.010994,0,1,0,1
24337,2.1089e+07,0.04289,0.088036,-0.045145,-0.0060946,0,-0.034936,0,1,0,1
24378,2.11e+07,0.04274,0.042425,0.00031498,4.2522e-05,0,-0.019967,0,1,0,1
24420,2.1109e+07,0.04204,0.038337,0.003703,0.00049991,0,-0.011411,0,1,0,1
24465,2.1119e+07,0.042609,0.022828,0.019781,0.0026705,0,-0.016822,0,1,0,1
24505,2.113e+07,0.042227,0.035277,0.0069501,0.00093826,0,-0.013483,0,1,0,1
24549,2.114e+07,0.042924,0.0068818,0.036042,0.0048657,0,-0.010405,0,1,0,1
24589,2.115e+07,0.042419,0.0090121,0.033407,0.0045099,0,-0.00024638,0,1,0,1
24630,2.116e+07,0.043164,0.0065564,0.036607,0.004942,0,-0.0095127,0,1,0,1
24667,2.117e+07,0.043066,-0.0024782,0.045544,0.0061485,0,0.008114,0,1,0,1
24708,2.118e+07,0.0434,0.013016,0.030384,0.0041018,0,-0.0088267,0,1,0,1
24750,2.119e+07,0.042538,-0.027492,0.07003,0.0094541,0,0.019563,0,1,0,1
24790,2.1201e+07,0.043015,0.010234,0.032781,0.0044254,0,-0.0066346,0,1,0,1
24832,2.121e+07,0.042321,-0.078221,0.12054,0.016273,0,0.040286,0,1,0,1
24876,2.122e+07,0.042474,-0.0028124,0.045287,0.0061137,0,0.0041063,0,1,0,1
24917,2.123e+07,0.042411,-0.089803,0.13221,0.017849,0,0.040198,0,1,0,1
24957,2.124e+07,0.042633,-0.005698,0.048331,0.0065247,0,0.002853,0,1,0,1
24999,2.125e+07,0.042973,-0.083907,0.12688,0.017129,0,0.032484,0,1,0,1
25040,2.126e+07,0.042967,-0.01264,0.055607,0.0075069,0,0.0057882,0,1,0,1
25080,2.1273e+07,0.043151,0.03708,0.0060711,0.00081961,0,-0.023426,0,1,0,1
25122,2.1283e+07,0.043115,0.049857,-0.0067421,-0.00091019,0,-0.018906,0,1,0,1
25163,2.1293e+07,0.043423,0.048691,-0.0052676,-0.00071112,0,-0.025238,0,1,0,1
25204,2.1303e+07,0.043117,0.048503,-0.0053866,-0.00072719,0,-0.018337,0,1,0,1
25245,2.1313e+07,0.043205,0.044426,-0.0012211,-0.00016485,0,-0.020608,0,1,0,1
25289,2.1323e+07,0.042732,0.060512,-0.017781,-0.0024004,0,-0.021705,0,1,0,1
25331,2.1334e+07,0.042815,0.053394,-0.010579,-0.0014281,0,-0.024207,0,1,0,1
25373,2.1343e+07,0.042334,0.035959,0.0063751,0.00086064,0,-0.01312,0,1,0,1
25414,2.1353e+07,0.042337,0.048824,-0.0064864,-0.00087567,0,-0.022672,0,1,0,1
25457,2.1366e+07,0.042117,-0.005424,0.047541,0.006418,0,0.0048507,0,1,0,1
25495,2.1376e+07,0.042276,-0.0044736,0.046749,0.0063112,0,0.0026999,0,1,0,1
25536,2.1386e+07,0.042413,-0.035831,0.078245,0.010563,0,0.016432,0,1,0,1
25578,2.1396e+07,0.042645,-0.037537,0.080182,0.010825,0,0.01529,0,1,0,1
25619,2.1406e+07,0.042678,-0.0061899,0.048868,0.0065972,0,0.0044771,0,1,0,1
25659,2.1416e+07,0.042818,-0.034966,0.077784,0.010501,0,0.013198,0,1,0,1
25704,2.1426e+07,0.042408,0.011705,0.030703,0.0041449,0,-0.0010253,0,1,0,1
25746,2.1436e+07,0.042653,-0.02284,0.065493,0.0088415,0,0.0065268,0,1,0,1
25786,2.1446e+07,0.041847,0.031315,0.010532,0.0014218,0,-0.0064254,0,1,0,1
25830,2.1459e+07,0.041906,0.027851,0.014055,0.0018975,0,-0.0147,0,1,0,1
25870,2.1469e+07,0.040943,-0.015508,0.056452,0.007621,0,0.014378,0,1,0,1
25908,2.1479e+07,0.041771,0.049918,-0.0081467,-0.0010998,0,-0.023259,0,1,0,1
25952,2.1489e+07,0.041279,-0.065368,0.10665,0.014397,0,0.029796,0,1,0,1
25993,2.1499e+07,0.041721,0.037773,0.0039478,0.00053296,0,-0.018427,0,1,0,1
26034,2.1509e+07,0.041942,-0.088912,0.13085,0.017665,0,0.034634,0,1,0,1
26078,2.1519e+07,0.042302,0.045769,-0.0034666,-0.000468,0,-0.020893,0,1,0,1
26122,2.153e+07,0.042872,-0.079647,0.12252,0.01654,0,0.027137,0,1,0,1
26162,2.154e+07,0.042836,0.023756,0.01908,0.0025758,0,-0.0096833,0,1,0,1
26203,2.1549e+07,0.043363,-0.069764,0.11313,0.015272,0,0.023847,0,1,0,1
26244,2.1559e+07,0.043154,0.039994,0.0031607,0.00042669,0,-0.014413,0,1,0,1
26284,2.1569e+07,0.043381,-0.057913,0.10129,0.013675,0,0.020391,0,1,0,1
26323,2.1582e+07,0.042664,0.060777,-0.018113,-0.0024452,0,-0.015925,0,1,0,1
26364,2.1592e+07,0.042533,0.017913,0.02462,0.0033237,0,-0.011177,0,1,0,1
26404,2.1602e+07,0.041262,0.010146,0.031116,0.0042006,0,0.0066,0,1,0,1
26446,2.1612e+07,0.042056,-0.016209,0.058265,0.0078657,0,0.0028245,0,1,0,1
26493,2.1622e+07,0.041487,-0.041911,0.083399,0.011259,0,0.025053,0,1,0,1
26535,2.1633e+07,0.042631,-0.0010492,0.043681,0.0058969,0,-0.0056846,0,1,0,1
26575,2.1642e+07,0.042276,-0.066652,0.10893,0.014705,0,0.031191,0,1,0,1
26616,2.1652e+07,0.042328,0.0463,-0.0039723,-0.00053626,0,-0.017473,0,1,0,1
26656,2.1662e+07,0.042862,-0.052999,0.095861,0.012941,0,0.017305,0,1,0,1
26694,2.1673e+07,0.041793,0.01058,0.031213,0.0042138,1.007e-05,0.0038657,0,1,0,0
26732,2.1683e+07,0.04323,0.062949,-0.019719,-0.0026621,6.8436e-05,-0.033142,0,1,0,0
26773,2.1693e+07,0.041992,-0.020366,0.062358,0.0084183,9.8394e-05,0.012144,0,1,0,0
26814,2.1703e+07,0.041467,0.056759,-0.015291,-0.0020643,0.00012954,-0.020346,0,1,0,1
26856,2.1713e+07,0.040894,0.0014875,0.039406,0.0053198,0.00015122,0.0048657,0,1,0,0
26906,2.1725e+07,0.040506,0.037174,0.0033319,0.00044981,0.00016705,-0.01224,0,1,0,0
26946,2.1736e+07,0.040496,-0.018394,0.058889,0.00795,0.0001569,0.0062364,0,1,0,1
26987,2.1745e+07,0.040166,0.010453,0.029713,0.0040112,0.00015766,-0.0027495,0,1,0,1
27029,2.1756e+07,0.040706,-0.034512,0.075218,0.010154,0.00014818,0.0092469,0,1,0,1
27069,2.1765e+07,0.040484,-0.0073008,0.047785,0.006451,0.00014316,0.0046506,0,1,0,1
27111,2.1775e+07,0.040633,0.0084627,0.03217,0.004343,0.00014524,-0.0028485,0,1,0,0
27149,2.1785e+07,0.041164,0.039231,0.0019326,0.0002609,0.00013651,-0.018387,0,1,0,1
27190,2.1795e+07,0.040845,0.0043446,0.0365,0.0049275,0.00012972,0.0011705,0,1,0,1
27231,2.1805e+07,0.041104,0.0068907,0.034213,0.0046187,0.00013903,-0.0042735,0,1,0,1
27272,2.1815e+07,0.040204,0.019291,0.020913,0.0028233,0.00013067,2.3057e-05,0,1,0,1
27320,2.1826e+07,0.040221,0.032487,0.0077338,0.0010441,0.00013559,-0.014298,0,1,0,1
27360,2.1836e+07,0.039623,0.047618,-0.0079945,-0.0010793,0.00012478,-0.014737,0,1,0,0
27402,2.1846e+07,0.039574,-0.0048627,0.044437,0.0059989,0.00013736,-0.00026964,0,1,0,1
27442,2.1855e+07,0.03894,0.029725,0.0092152,0.0012441,0.00014763,-0.010129,0,1,0,0
27483,2.1865e+07,0.038991,-0.04048,0.079471,0.010729,0.00020574,0.014635,0,1,0,0
27524,2.1876e+07,0.038942,-0.027057,0.065999,0.0089099,0.00021968,0.01095,0,1,0,1
27561,2.1886e+07,0.039018,-0.061041,0.10006,0.013508,0.00022489,0.027087,0,1,0,1
27603,2.1896e+07,0.039008,-0.015603,0.054611,0.0073724,0.00021137,0.0069622,0,1,0,1
27644,2.1906e+07,0.038724,0.037192,0.0015318,0.0002068,0.00020033,-0.0099777,0,1,0,1
27684,2.1916e+07,0.039232,0.026923,0.012309,0.0016617,0.00018829,-0.013854,0,1,0,1
27732,2.1926e+07,0.039235,0.030841,0.0083936,0.0011331,0.00017697,-0.011533,0,1,0,1
27772,2.1936e+07,0.039655,-0.044224,0.083879,0.011324,0.00018252,0.013904,0,1,0,1
27813,2.1946e+07,0.039471,-0.016787,0.056257,0.0075948,0.00017905,0.0083853,0,1,0,1
27854,2.1956e+07,0.039189,-0.054089,0.093278,0.012592,0.00016572,0.025084,0,1,0,1
27892,2.1969e+07,0.038497,-0.030123,0.06862,0.0092637,0.00016116,0.016197,0,1,0,1
27932,2.1979e+07,0.038107,-0.072014,0.11012,0.014866,0.0001899,0.036318,0,1,0,0
27975,2.1989e+07,0.037709,0.021224,0.016485,0.0022255,0.00015561,0.0020632,0,1,0,1
28016,2.1999e+07,0.037486,-0.002782,0.040268,0.0054362,0.00016666,0.0089775,0,1,0,1
28057,2.2009e+07,0.037699,0.12633,-0.08863,-0.011965,0.00010039,-0.048041,0,1,0,1
28098,2.2019e+07,0.038238,0.087108,-0.04887,-0.0065974,7.8116e-05,-0.037678,0,1,0,1
28143,2.2029e+07,0.039233,0.1095,-0.070267,-0.0094861,5.0068e-05,-0.055322,0,1,0,1
28184,2.2039e+07,0.039596,0.042737,-0.0031404,-0.00042395,3.2812e-05,-0.025514,0,1,0,1
28224,2.2049e+07,0.040586,-0.031639,0.072225,0.0097504,1.0197e-05,-0.0037046,0,1,0,1
28266,2.2059e+07,0.040275,-0.064094,0.10437,0.01409,2.2518e-05,0.021243,0,1,0,1
28304,2.2069e+07,0.040742,-0.13438,0.17512,0.023642,5.8626e-05,0.044517,0,1,0,1
28344,2.2079e+07,0.040055,-0.082461,0.12252,0.01654,4.8042e-05,0.036818,0,1,0,0
28382,2.2089e+07,0.040016,-0.1042,0.14421,0.019469,8.1839e-05,0.044209,0,1,0,0
28422,2.21e+07,0.039198,-0.087018,0.12622,0.017039,3.397e-05,0.045718,0,1,0,1
28464,2.211e+07,0.039602,-0.11816,0.15776,0.021298,1.3249e-05,0.04969,0,1,0,1
28504,2.212e+07,0.039275,-0.023437,0.062712,0.0084662,1.7338e-05,0.015332,0,1,0,1
28553,2.213e+07,0.03904,-0.016374,0.055413,0.0074808,2.433e-05,0.010168,0,1,0,0
28599,2.214e+07,0.039143,0.069323,-0.03018,-0.0040743,-6.8997e-06,-0.025206,0,1,0,1
28643,2.215e+07,0.039438,0.056474,-0.017036,-0.0022998,1.9923e-05,-0.023042,0,1,0,0
28688,2.2163e+07,0.0395,0.0092715,0.030228,0.0040808,3.4781e-05,0.00258,0,1,0,1
28735,2.2176e+07,0.040232,-0.070273,0.11051,0.014918,0.00011511,0.029395,0,1,0,0
28780,2.2186e+07,0.039885,0.0023166,0.037568,0.0050717,0.00011306,0.0047553,0,1,0,0
28826,2.2196e+07,0.039646,-0.019284,0.05893,0.0079556,0.00012811,0.013519,0,1,0,0
28867,2.2207e+07,0.039476,0.016903,0.022573,0.0030473,0.00014343,-0.00025101,0,1,0,1
28912,2.2217e+07,0.039064,0.037152,0.0019115,0.00025806,0.00015734,-0.010579,0,1,0,0
28961,2.2227e+07,0.038936,0.074508,-0.035571,-0.0048021,0.00016597,-0.028333,0,1,0,1
29006,2.2237e+07,0.039074,0.057426,-0.018352,-0.0024775,0.00016163,-0.025622,0,1,0,1
29052,2.2248e+07,0.03939,0.055438,-0.016048,-0.0021665,0.00014241,-0.030122,0,1,0,1
29096,2.2258e+07,0.039498,0.0049503,0.034548,0.004664,0.00014744,-0.0099133,0,1,0,1
29141,2.2268e+07,0.039655,-0.074988,0.11464,0.015477,0.00016683,0.022974,0,1,0,1
29179,2.2278e+07,0.039094,-0.079937,0.11903,0.016069,0.00013486,0.030496,0,1,0,1
29227,2.2291e+07,0.040256,0.012305,0.027951,0.0037734,0.00016263,-0.013855,0,1,0,1
29271,2.2301e+07,0.040462,-0.11149,0.15195,0.020513,0.0001199,0.040772,0,1,0,1
29316,2.2311e+07,0.040911,-0.15114,0.19205,0.025927,7.2389e-05,0.057943,0,1,0,1
29361,2.2321e+07,0.040203,-0.15026,0.19046,0.025712,9.6985e-05,0.065534,0,1,0,0
29410,2.2332e+07,0.03899,-0.13729,0.17628,0.023798,3.0514e-05,0.073173,0,1,0,1
29458,2.2342e+07,0.039304,-0.017375,0.056679,0.0076516,1.012e-05,0.018585,0,1,0,1
29502,2.2352e+07,0.039244,0.031706,0.0075381,0.0010176,-2.1927e-05,-0.0021493,0,1,0,1
29547,2.2362e+07,0.039944,0.10308,-0.063139,-0.0085238,3.1696e-06,-0.040999,0,1,0,1
29589,2.2372e+07,0.039798,0.055535,-0.015736,-0.0021244,-1.4942e-05,-0.018406,0,1,0,0
29633,2.2383e+07,0.03994,0.10169,-0.061752,-0.0083365,4.0231e-05,-0.042554,0,1,0,0
29675,2.2393e+07,0.039074,0.12366,-0.084582,-0.011419,5.6236e-05,-0.043151,0,1,0,0
29719,2.2402e+07,0.039729,0.14362,-0.1039,-0.014026,8.8231e-05,-0.068335,0,1,0,0
29767,2.2415e+07,0.037967,0.10801,-0.070044,-0.0094559,9.5974e-05,-0.036165,0,1,0,0
29812,2.2425e+07,0.038514,0.10798,-0.069465,-0.0093778,0.00011607,-0.047059,0,1,0,1
29861,2.2435e+07,0.03839,0.037729,0.00066082,8.921e-05,0.00016826,-0.014986,0,1,0,0
29906,2.2446e+07,0.038406,0.08883,-0.050424,-0.0068072,0.00019484,-0.0386,0,1,0,0
29950,2.2455e+07,0.03862,0.010805,0.027815,0.003755,0.00027378,-0.0075388,0,1,0,0
29992,2.2465e+07,0.03837,0.062822,-0.024451,-0.0033009,0.00030992,-0.022526,0,1,0,0
30036,2.2477e+07,0.039926,-0.056303,0.09623,0.012991,0.00043075,0.014483,0,1,0,0
30084,2.2488e+07,0.038685,-0.049728,0.088412,0.011936,0.00042921,0.027231,0,1,0,0
30129,2.2498e+07,0.038779,0.056367,-0.017588,-0.0023744,0.0004727,-0.025298,0,1,0,0
30173,2.2509e+07,0.036728,0.00708,0.029648,0.0040025,0.00046271,0.0087439,0,1,0,0
30219,2.2519e+07,0.035965,0.14879,-0.11282,-0.015231,0.0004838,-0.054769,0,1,0,0
30268,2.2529e+07,0.035858,-0.0076893,0.043547,0.0058789,0.00055873,0.0038026,0,1,0,0
30314,2.2539e+07,0.035472,0.036123,-0.00065143,-8.7944e-05,0.00058951,-0.0096532,0,1,0,0
30359,2.255e+07,0.036584,-0.059542,0.096126,0.012977,0.00069269,0.017292,0,1,0,0
30403,2.2559e+07,0.036083,-0.011878,0.047961,0.0064748,0.00068744,0.012344,0,1,0,0
30448,2.2572e+07,0.036414,0.029712,0.0067021,0.00090478,0.00074554,-0.0081913,0,1,0,0
30492,2.2583e+07,0.036428,-0.098481,0.13491,0.018213,0.00082993,0.040357,0,1,0,0
30536,2.2593e+07,0.036238,-0.011501,0.047738,0.0064447,0.00085731,0.0057901,0,1,0,0
30581,2.2603e+07,0.036632,0.040637,-0.0040053,-0.00054072,0.00092244,-0.023838,0,1,0,0
30625,2.2613e+07,0.035964,0.0049367,0.031027,0.0041886,0.00094551,0.0023189,0,1,0,0
30671,2.2624e+07,0.035613,-0.049815,0.085428,0.011533,0.00098843,0.026131,0,1,0,0
30721,2.2634e+07,0.035041,0.033842,0.0011987,0.00016183,0.0009984,-0.0055273,0,1,0,0
30765,2.2644e+07,0.035665,0.015084,0.020581,0.0027784,0.0010785,-0.010315,0,1,0,0
30810,2.2654e+07,0.035806,-0.03978,0.075585,0.010204,0.0011371,0.012966,0,1,0,0
30854,2.2664e+07,0.034986,-0.0012632,0.036249,0.0048936,0.0011472,0.007707,0,1,0,0
30899,2.2676e+07,0.034685,0.06556,-0.030875,-0.0041681,0.0011862,-0.016976,0,1,0,0
30942,2.2687e+07,0.035353,0.10486,-0.069511,-0.0093839,0.0012804,-0.053586,0,1,0,0
30987,2.2697e+07,0.03636,-0.10839,0.14475,0.019541,0.0013837,0.030974,0,1,0,0
31032,2.2707e+07,0.034699,-0.12762,0.16232,0.021913,0.0013632,0.065637,0,1,0,0
31076,2.2717e+07,0.033264,0.20892,-0.17565,-0.023713,0.001312,-0.065727,0,1,0,0
31127,2.273e+07,0.033067,0.19134,-0.15827,-0.021367,0.0013843,-0.070743,0,1,0,0
31175,2.274e+07,0.033455,0.16571,-0.13226,-0.017855,0.0014631,-0.072283,0,1,0,0
31220,2.2751e+07,0.033345,-0.014921,0.048266,0.0065159,0.0015345,-0.0030457,0,1,0,0
31264,2.276e+07,0.032366,-0.12498,0.15734,0.021241,0.0015577,0.051857,0,1,0,0
31309,2.2771e+07,0.03157,-0.081593,0.11316,0.015277,0.0015723,0.040435,0,1,0,0
31348,2.2781e+07,0.032809,0.0023849,0.030424,0.0041073,0.0016018,0.0069049,0,1,0,0
31392,2.2792e+07,0.031452,0.061931,-0.030479,-0.0041147,0.0016555,-0.02628,0,1,0,0
31437,2.2802e+07,0.030739,0.10027,-0.069532,-0.0093868,0.0016833,-0.04011,0,1,0,0
31484,2.2812e+07,0.031291,0.04662,-0.015329,-0.0020694,0.0017425,-0.023811,0,1,0,0
31529,2.2822e+07,0.03182,0.0062688,0.025552,0.0034495,0.0018097,-0.0099686,0,1,0,0
31573,2.2832e+07,0.032693,-0.031838,0.064531,0.0087116,0.0019008,-0.00034375,0,1,0,0
31624,2.2843e+07,0.033276,-0.026574,0.05985,0.0080798,0.0019619,0.001274,0,1,0,0
31669,2.2853e+07,0.032497,0.0027297,0.029767,0.0040186,0.001944,0.0062505,0,1,0,0
31714,2.2863e+07,0.029958,0.0061337,0.023824,0.0032162,0.0018863,0.019085,0,1,0,0
31759,2.2873e+07,0.02754,0.015163,0.012377,0.0016709,0.0018494,0.015813,0,1,0,0
31800,2.2884e+07,0.025822,-0.035334,0.061156,0.0082561,0.0018803,0.023344,0,1,0,0
31845,2.2894e+07,0.025544,-0.01598,0.041524,0.0056057,0.0018896,0.014449,0,1,0,0
31887,2.2904e+07,0.026259,-0.014522,0.040781,0.0055055,0.0019569,0.0019965,0,1,0,0
31932,2.2915e+07,0.026257,-0.023954,0.05021,0.0067784,0.0019763,0.01276,0,1,0,0
31978,2.2925e+07,0.026325,-0.0058601,0.032185,0.004345,0.0020077,0.0044828,0,1,0,0
32024,2.2935e+07,0.025861,0.012547,0.013314,0.0017974,0.0020216,0.00088624,0,1,0,0
32073,2.2945e+07,0.02632,-0.014339,0.04066,0.005489,0.0020824,0.0031542,0,1,0,0
32117,2.2955e+07,0.026999,0.017766,0.0092324,0.0012464,0.0021452,-0.013614,0,1,0,0
32162,2.2965e+07,0.027042,0.010522,0.016521,0.0022303,0.0021759,-0.0038093,0,1,0,0
32208,2.2975e+07,0.026368,0.04662,-0.020252,-0.0027341,0.0021783,-0.011265,0,1,0,0
32248,2.2986e+07,0.025385,-0.0065211,0.031907,0.0043074,0.0021819,0.016038,0,1,0,0
32294,2.2996e+07,0.025319,-0.094927,0.12025,0.016233,0.002257,0.039425,0,1,0,0
32338,2.3006e+07,0.026564,-0.10958,0.13614,0.018379,0.0023525,0.036515,0,1,0,0
32384,2.3017e+07,0.028614,-0.11967,0.14828,0.020018,0.002457,0.036157,0,1,0,0
32428,2.3026e+07,0.031026,-0.084219,0.11524,0.015558,0.00253,0.022623,0,1,0,0
32473,2.3036e+07,0.03287,-0.036327,0.069197,0.0093416,0.0026152,-0.0013567,0,1,0,0
32521,2.3046e+07,0.033277,-0.0037644,0.037041,0.0050006,0.0026671,-0.0086289,0,1,0,0
32567,2.3057e+07,0.033954,0.079755,-0.0458,-0.0061831,0.0027311,-0.045609,0,1,0,0
32612,2.3067e+07,0.033599,0.053416,-0.019817,-0.0026753,0.0027639,-0.023182,0,1,0,0
32656,2.3081e+07,0.032462,-0.01669,0.049152,0.0066355,0.0027765,0.018672,0,1,0,0
32701,2.3091e+07,0.030358,0.077298,-0.046939,-0.0063368,0.0027358,-0.01627,0,1,0,0
32744,2.3102e+07,0.027884,0.064974,-0.03709,-0.0050071,0.0027193,-0.013873,0,1,0,0
32788,2.3112e+07,0.025578,0.057075,-0.031496,-0.004252,0.002693,-0.0055541,0,1,0,0
32835,2.3122e+07,0.02459,0.0018929,0.022697,0.0030641,0.0027023,0.013097,0,1,0,0
32879,2.3132e+07,0.025523,-0.087424,0.11295,0.015248,0.0028022,0.029118,0,1,0,0
32933,2.3144e+07,0.027601,-0.0073287,0.03493,0.0047155,0.0029096,-0.014833,0,1,0,0
32978,2.3155e+07,0.029218,0.010865,0.018353,0.0024777,0.0029969,-0.020842,0,1,0,0
33022,2.3165e+07,0.031063,-0.045471,0.076534,0.010332,0.0030949,0.0035579,0,1,0,0
33067,2.3175e+07,0.031387,0.0080327,0.023354,0.0031528,0.0031209,-0.004455,0,1,0,0
33109,2.3188e+07,0.030678,0.080078,-0.0494,-0.006669,0.0031241,-0.024881,0,1,0,0
33154,2.3199e+07,0.030231,0.036372,-0.0061413,-0.00082908,0.0031682,-0.013993,0,1,0,0
33198,2.3209e+07,0.029329,0.0078721,0.021457,0.0028967,0.0031812,0.0036008,0,1,0,0
33243,2.3219e+07,0.028617,0.049893,-0.021276,-0.0028722,0.0032019,-0.014949,0,1,0,0
33289,2.3229e+07,0.027233,-0.0082166,0.035449,0.0047857,0.0031932,0.016293,0,1,0,0
33334,2.3239e+07,0.025517,0.031309,-0.0057922,-0.00078195,0.0031428,0.0079163,0,1,0,0
33383,2.325e+07,0.024655,0.070156,-0.045501,-0.0061426,0.0031185,-0.012784,0,1,0,0
33427,2.3259e+07,0.023487,0.023278,0.0002082,2.8107e-05,0.0031258,0.001012,0,1,0,0
33473,2.3269e+07,0.021955,0.019015,0.0029394,0.00039682,0.0031096,0.0061304,0,1,0,0
33518,2.3279e+07,0.021126,0.029464,-0.008338,-0.0011256,0.0031152,-0.002619,0,1,0,0
33559,2.3293e+07,0.018718,0.022212,-0.0034946,-0.00047178,0.0030885,0.0025375,0,1,0,0
33603,2.3303e+07,0.018594,-0.013995,0.03259,0.0043996,0.003103,0.013902,0,1,0,0
33648,2.3314e+07,0.020671,-0.04434,0.065011,0.0087765,0.0031391,0.021369,0,1,0,0
33693,2.3324e+07,0.023112,-0.047136,0.070248,0.0094835,0.0032147,0.0094421,0,1,0,0
33737,2.3334e+07,0.026217,0.015523,0.010694,0.0014437,0.00327,-0.016987,0,1,0,0
33786,2.3344e+07,0.027932,0.016335,0.011597,0.0015656,0.0033366,-0.016774,0,1,0,0
33835,2.3355e+07,0.032276,-0.00694,0.039216,0.0052942,0.0033906,4.9557e-05,0,1,0,0
33879,2.3365e+07,0.038794,-0.046074,0.084868,0.011457,0.0034761,0.014464,0,1,0,0
33924,2.3374e+07,0.04384,-0.019624,0.063464,0.0085676,0.0035548,0.0043711,0,1,0,0
33969,2.3385e+07,0.045838,-0.021275,0.067112,0.0090602,0.0036173,0.0092088,0,1,0,0
34017,2.3398e+07,0.047244,0.083367,-0.036123,-0.0048766,0.0036417,-0.02658,0,1,0,0
34064,2.341e+07,0.044719,0.074206,-0.029486,-0.0039807,0.0035934,-0.0054452,0,1,0,0
34109,2.342e+07,0.041286,0.088916,-0.04763,-0.0064301,0.0035084,0.0022256,0,1,0,0
34154,2.343e+07,0.037491,0.12435,-0.08686,-0.011726,0.0034234,-0.012613,0,1,0,0
34199,2.3441e+07,0.032645,0.18247,-0.14982,-0.020226,0.0032934,-0.031025,0,1,0,0
