LineNo,TimeUS,Tar,Act,Err,P,I,D,FF,Dmod,SRate,Limit
190,1.5037e+07,0.043628,0.0014504,0.042177,0.0056939,0,-0.00093917,0,1,0,1
293,1.5071e+07,0.043808,0.0011075,0.042701,0.0057646,0,0.00031698,0,1,0,1
635,1.5133e+07,0.04329,0.0013153,0.041975,0.0056666,0,-0.00012656,0,1,0,1
748,1.5149e+07,0.043222,-0.00057257,0.043795,0.0059123,0,0.00014254,0,1,0,1
861,1.5165e+07,0.043148,0.00051436,0.042634,0.0057556,0,-0.00014934,0,1,0,1
974,1.5182e+07,0.043127,-0.00044576,0.043573,0.0058823,0,0.00025706,0,1,0,1
1205,1.526e+07,0.043406,-0.00096722,0.044374,0.0059904,0,0.00014729,0,1,0,1
1589,1.5416e+07,0.043185,-0.00096711,0.044153,0.0059606,0,-0.00017479,0,1,0,1
1667,1.5426e+07,0.043224,-0.0015086,0.044733,0.006039,0,-7.2649e-05,0,1,0,1
1709,1.5437e+07,0.043296,-0.0027512,0.046047,0.0062164,0,0.00032436,0,1,0,1
1749,1.5447e+07,0.043362,-0.0023088,0.04567,0.0061655,0,0.00021889,0,1,0,1
1790,1.546e+07,0.043476,-0.001055,0.044531,0.0060117,0,-0.00017319,0,1,0,1
1833,1.5473e+07,0.043529,0.0029059,0.040623,0.0054841,0,-0.00080666,0,1,0,1
1875,1.5483e+07,0.043529,0.00069817,0.042831,0.0057821,0,-2.9663e-05,0,1,0,1
1920,1.5493e+07,0.043504,0.00062962,0.042874,0.005788,0,0.00022561,0,1,0,1
1960,1.5503e+07,0.043463,0.001135,0.042328,0.0057143,0,6.4239e-05,0,1,0,1
2001,1.5513e+07,0.043336,0.0032057,0.040131,0.0054176,0,-0.00037893,0,1,0,1
2042,1.5523e+07,0.043252,0.0014209,0.041831,0.0056472,0,-1.2399e-05,0,1,0,1
2088,1.5538e+07,0.043217,0.00040767,0.042809,0.0057792,0,8.8954e-05,0,1,0,1
2132,1.5548e+07,0.043273,-0.00024315,0.043517,0.0058747,0,1.4545e-05,0,1,0,1
2172,1.5558e+07,0.043373,-0.0014877,0.04486,0.0060562,0,9.568e-05,0,1,0,1
2213,1.5568e+07,0.043486,-0.0018043,0.04529,0.0061142,0,0.00010283,0,1,0,1
2254,1.5578e+07,0.043633,-0.0037603,0.047393,0.0063981,0,0.00059208,0,1,0,1
2298,1.5588e+07,0.043707,0.00026847,0.043439,0.0058643,0,-0.00071396,0,1,0,1
2340,1.5598e+07,0.043767,-0.0012082,0.044975,0.0060717,0,0.00015905,0,1,0,1
2381,1.5609e+07,0.043565,0.00032851,0.043237,0.005837,0,-0.00057723,0,1,0,1
2425,1.5619e+07,0.043192,-0.00040048,0.043592,0.005885,0,-0.00033665,0,1,0,1
2465,1.5628e+07,0.042647,0.0010325,0.041615,0.005618,0,-0.00023935,0,1,0,1
2503,1.5639e+07,0.042033,0.0029172,0.039116,0.0052806,0,-0.00070975,0,1,0,1
2546,1.5649e+07,0.041365,0.00017956,0.041185,0.00556,0,0.00059522,0,1,0,1
2586,1.5659e+07,0.040708,0.0024215,0.038286,0.0051687,0,-0.00038474,0,1,0,1
2627,1.5669e+07,0.040061,0.0014772,0.038583,0.0052088,0,-0.00012238,0,1,0,1
2667,1.5679e+07,0.039428,0.0025459,0.036882,0.0049791,0,-0.0004113,0,1,0,1
2712,1.5689e+07,0.038867,0.00028555,0.038581,0.0052085,0,0.00042347,0,1,0,1
2753,1.5699e+07,0.03831,-0.0001023,0.038412,0.0051857,0,9.0666e-05,0,1,0,1
2794,1.571e+07,0.037749,0.0011231,0.036626,0.0049445,0,3.5755e-05,0,1,0,1
2835,1.5719e+07,0.037168,0.00056883,0.036599,0.0049409,0,0.00024318,0,1,0,1
2875,1.5729e+07,0.03669,-0.00095167,0.037642,0.0050816,0,6.442e-05,0,1,0,1
2917,1.5739e+07,0.036305,-0.0040277,0.040332,0.0054449,0,0.00052607,0,1,0,1
2959,1.5749e+07,0.035952,-0.0035058,0.039457,0.0053268,0,0.00023808,0,1,0,1
2998,1.5759e+07,0.035608,-0.0024089,0.038017,0.0051323,0,-0.0001759,0,1,0,1
3040,1.577e+07,0.035258,-0.0024686,0.037727,0.0050931,0,-6.5004e-05,0,1,0,1
3080,1.578e+07,0.03489,-0.0013201,0.03621,0.0048883,0,-0.00049511,0,1,0,1
3126,1.579e+07,0.034396,0.00087329,0.033522,0.0045255,0,-0.00061611,0,1,0,1
3168,1.58e+07,0.033862,-5.2811e-05,0.033914,0.0045784,0,-0.00016932,0,1,0,1
3209,1.581e+07,0.033313,0.00056357,0.03275,0.0044212,0,-0.00032327,0,1,0,1
3250,1.582e+07,0.032742,0.0022881,0.030454,0.0041113,0,-0.00087277,0,1,0,1
3292,1.5833e+07,0.032044,0.0011799,0.030864,0.0041667,0,-0.00035278,0,1,0,1
3329,1.5843e+07,0.031501,0.0048188,0.026682,0.0036021,0,-0.0011602,0,1,0,1
3371,1.5854e+07,0.030936,0.0021541,0.028781,0.0038855,0,-0.0001802,0,1,0,1
3412,1.5864e+07,0.030437,-0.002987,0.033424,0.0045122,0,0.001207,0,1,0,1
3452,1.5873e+07,0.030016,0.00017048,0.029846,0.0040292,0,-0.0005102,0,1,0,1
3493,1.5884e+07,0.029523,0.0011249,0.028398,0.0038338,0,-0.00042965,0,1,0,1
3537,1.5893e+07,0.029025,0.00033581,0.02869,0.0038731,0,-0.00019883,0,1,0,1
3578,1.5904e+07,0.028595,-0.0025084,0.031103,0.0041989,0,0.00019958,0,1,0,1
3620,1.5914e+07,0.02814,-0.0016644,0.029804,0.0040235,0,-1.7321e-05,0,1,0,1
3662,1.5924e+07,0.027654,-0.0020248,0.029679,0.0040066,0,0.0001503,0,1,0,1
3700,1.5934e+07,0.027235,-0.0034792,0.030714,0.0041464,0,0.00033675,0,1,0,1
3737,1.5944e+07,0.026902,-0.0018373,0.028739,0.0038798,0,-0.00034068,0,1,0,1
3779,1.5954e+07,0.026444,0.0008387,0.025606,0.0034568,0,-0.00067175,0,1,0,1
3820,1.5964e+07,0.025936,-0.00039631,0.026332,0.0035548,0,0.00012515,0,1,0,1
3860,1.5974e+07,0.025383,0.0029868,0.022396,0.0030235,0,-0.00086833,0,1,0,1
3901,1.5984e+07,0.024833,0.0011591,0.023674,0.003196,0,6.1764e-05,0,1,0,1
3945,1.5994e+07,0.024245,0.0024319,0.021813,0.0029448,0,-0.00027224,0,1,0,1
3986,1.6004e+07,0.023587,0.0059415,0.017646,0.0023822,0,-0.0010545,0,1,0,1
4027,1.6014e+07,0.022937,0.0012455,0.021692,0.0029284,0,0.00066574,0,1,0,1
4070,1.6024e+07,0.022312,0.0032491,0.019062,0.0025734,0,-0.00047326,0,1,0,1
4111,1.6034e+07,0.021684,0.0017915,0.019893,0.0026855,0,-9.2937e-05,0,1,0,1
4148,1.6044e+07,0.021048,0.0033693,0.017679,0.0023866,0,-0.000168,0,1,0,1
4190,1.6054e+07,0.020499,4.8582e-05,0.02045,0.0027608,0,0.00069511,0,1,0,1
4234,1.6067e+07,0.01987,-0.0020659,0.021936,0.0029613,0,0.00050244,0,1,0,1
4276,1.6077e+07,0.019463,-0.0015854,0.021048,0.0028415,0,-0.00047598,0,1,0,1
4316,1.6087e+07,0.019055,-0.0023404,0.021396,0.0028884,0,-6.0277e-05,0,1,0,1
4361,1.6097e+07,0.018685,-0.002833,0.021518,0.0029049,0,-0.00013104,0,1,0,1
4402,1.6107e+07,0.018338,-0.0037134,0.022052,0.002977,0,-6.1456e-06,0,1,0,1
4442,1.6117e+07,0.017949,-0.0018108,0.01976,0.0026675,0,-0.00022607,0,1,0,1
4488,1.6133e+07,0.017269,-0.00070834,0.017977,0.0024269,0,-0.00015506,0,1,0,1
4531,1.6145e+07,0.016707,-0.00085941,0.017566,0.0023715,0,-0.00027183,0,1,0,1
4571,1.6155e+07,0.016249,-0.0019975,0.018246,0.0024633,0,0.0002005,0,1,0,1
4612,1.6166e+07,0.015738,0.0020611,0.013677,0.0018464,0,-0.00098073,0,1,0,1
4654,1.6175e+07,0.015173,0.0025131,0.012659,0.001709,0,-0.00062713,0,1,0,1
4694,1.6185e+07,0.014592,0.0016198,0.012973,0.0017513,0,-0.00012917,0,1,0,1
4739,1.6196e+07,0.014051,0.0013731,0.012678,0.0017116,0,-0.00039444,0,1,0,1
4779,1.6205e+07,0.013436,0.0051825,0.0082537,0.0011142,0,-0.0012723,0,1,0,1
4821,1.6215e+07,0.012796,0.00079075,0.012005,0.0016207,0,0.00074591,0,1,0,1
4861,1.6226e+07,0.012258,0.00060597,0.011652,0.001573,0,-0.00017202,0,1,0,1
4902,1.6236e+07,0.011692,0.0015864,0.010105,0.0013642,0,-0.00030214,0,1,0,1
4940,1.6245e+07,0.011159,-0.0018543,0.013013,0.0017567,0,0.00083416,0,1,0,1
4977,1.6255e+07,0.010741,-0.0029308,0.013672,0.0018457,0,0.0002117,0,1,0,1
5019,1.6265e+07,0.010341,-0.0013164,0.011657,0.0015737,0,-0.00057928,0,1,0,1
5061,1.6276e+07,0.0098767,-0.0012385,0.011115,0.0015006,0,6.6265e-05,0,1,0,1
5101,1.6285e+07,0.0094783,-0.0036558,0.013134,0.0017731,0,0.00049391,0,1,0,1
5146,1.6295e+07,0.0091216,-0.0019282,0.01105,0.0014917,0,-0.00056411,0,1,0,1
5187,1.6305e+07,0.0087552,-0.00096532,0.0097205,0.0013123,0,-0.00088687,0,1,0,1
5228,1.6315e+07,0.0083216,-0.0012979,0.0096195,0.0012986,0,-0.00010324,0,1,0,1
5268,1.6325e+07,0.0078623,0.0002741,0.0075882,0.0010244,0,-0.00046918,0,1,0,1
5311,1.6338e+07,0.0072508,0.0021996,0.0050513,0.00068192,0,-0.00063209,0,1,0,1
5348,1.6348e+07,0.0070003,0.0032191,0.0037812,0.00051046,0,-0.0010533,0,1,0,1
5393,1.636e+07,0.0068294,0.00029836,0.0065311,0.00088169,0,0.00051254,0,1,0,1
5434,1.6371e+07,0.0067835,0.0022291,0.0045544,0.00061485,0,-0.00059927,0,1,0,1
5474,1.6381e+07,0.0066661,0.0037718,0.0028942,0.00039072,0,-0.00043339,0,1,0,1
5516,1.639e+07,0.0065476,0.00087089,0.0056767,0.00076635,0,0.00072609,0,1,0,1
5560,1.64e+07,0.0065135,-5.0114e-05,0.0065637,0.00088609,0,0.00036065,0,1,0,1
5602,1.641e+07,0.0064493,0.0026728,0.0037766,0.00050984,0,-0.00043078,0,1,0,1
5643,1.642e+07,0.0064262,-0.0012706,0.0076968,0.0010391,0,0.0008136,0,1,0,1
5683,1.643e+07,0.0064655,-0.00014545,0.0066109,0.00089248,0,-0.0002375,0,1,0,1
5718,1.644e+07,0.00652,-0.0013559,0.0078759,0.0010632,0,0.00012607,0,1,0,1
5759,1.6451e+07,0.0065748,-0.0012698,0.0078446,0.001059,0,0.00013281,0,1,0,1
5800,1.6462e+07,0.0066872,-0.0047617,0.011449,0.0015456,0,0.0010591,0,1,0,1
5840,1.6471e+07,0.0068334,-0.0038557,0.010689,0.001443,0,0.00044634,0,1,0,1
5882,1.6481e+07,0.0069989,-0.0033099,0.010309,0.0013917,0,8.6189e-05,0,1,0,1
5924,1.6492e+07,0.0071249,-0.00071858,0.0078435,0.0010589,0,-0.00059158,0,1,0,1
5968,1.6501e+07,0.0071769,0.0016732,0.0055037,0.000743,0,-0.00096887,0,1,0,1
6009,1.6511e+07,0.0071499,0.0024135,0.0047364,0.00063941,0,-0.00065912,0,1,0,1
6051,1.6522e+07,0.0070797,0.0022135,0.0048663,0.00065695,0,-0.00025774,0,1,0,1
6095,1.6532e+07,0.0069121,0.0055666,0.0013455,0.00018164,0,-0.00067933,0,1,0,1
6132,1.6542e+07,0.0067129,0.0048552,0.0018577,0.00025079,0,-0.0001557,0,1,0,1
6172,1.6552e+07,0.0064785,0.0045319,0.0019466,0.00026279,0,0.00015258,0,1,0,1
6212,1.6563e+07,0.0062274,0.006312,-8.4611e-05,-1.1422e-05,0,-0.00031225,0,1,0,1
6253,1.6572e+07,0.0060442,0.0035678,0.0024763,0.00033431,0,0.00019104,0,1,0,1
6294,1.6583e+07,0.0059727,-0.00059678,0.0065695,0.00088688,0,0.00084153,0,1,0,1
6335,1.6593e+07,0.0060069,-0.0044063,0.010413,0.0014058,0,0.0014444,0,1,0,1
6381,1.6603e+07,0.0061345,-0.0018051,0.0079396,0.0010718,0,-0.000328,0,1,0,1
6425,1.6613e+07,0.0063645,-0.0081361,0.014501,0.0019576,0,0.0013358,0,1,0,1
6466,1.6623e+07,0.0067494,-0.011441,0.01819,0.0024557,0,0.001226,0,1,0,1
6507,1.6633e+07,0.0071393,-0.0057445,0.012884,0.0017393,0,-0.00099957,0,1,0,1
6545,1.6645e+07,0.0074735,-0.004175,0.011649,0.0015726,0,-0.00034788,0,1,0,1
6586,1.6656e+07,0.0076745,-0.0015972,0.0092717,0.0012517,0,-0.00079858,0,1,0,1
6626,1.6666e+07,0.0077828,0.00059676,0.0071861,0.00097012,0,-0.0009699,0,1,0,1
6668,1.6676e+07,0.0077463,0.0046565,0.0030897,0.00041712,0,-0.0013902,0,1,0,1
6708,1.6685e+07,0.0075546,0.0063535,0.0012011,0.00016214,0,-0.00076288,0,1,0,1
6753,1.6695e+07,0.0072914,0.0069603,0.00033109,4.4697e-05,0,-0.00040235,0,1,0,1
6795,1.6705e+07,0.0069364,0.008275,-0.0013386,-0.00018071,0,-0.00014128,0,1,0,1
6836,1.6715e+07,0.006612,0.0082013,-0.0015893,-0.00021455,0,-0.00033294,0,1,0,1
6877,1.6725e+07,0.0063098,0.0047993,0.0015105,0.00020392,0,0.00068303,0,1,0,1
6919,1.6735e+07,0.006069,0.0035582,0.0025109,0.00033897,0,0.0006429,0,1,0,1
6954,1.6746e+07,0.0060062,-0.00071188,0.0067181,0.00090694,0,0.00094805,0,1,0,1
6994,1.6756e+07,0.0060799,-0.0029076,0.0089875,0.0012133,0,0.00047056,0,1,0,1
7035,1.6766e+07,0.0062475,-0.0044073,0.010655,0.0014384,0,0.00031284,0,1,0,1
7076,1.6776e+07,0.0063992,-0.0044203,0.01082,0.0014606,0,0.00051368,0,1,0,1
7117,1.6786e+07,0.0066261,-0.0068426,0.013469,0.0018183,0,0.00088136,0,1,0,1
7164,1.6796e+07,0.0068986,-0.0054054,0.012304,0.001661,0,-9.1501e-05,0,1,0,1
7205,1.6805e+07,0.0071391,-0.0047046,0.011844,0.0015989,0,-6.4201e-05,0,1,0,1
7247,1.6815e+07,0.007322,-0.0029709,0.010293,0.0013895,0,-0.00027169,0,1,0,1
7288,1.6826e+07,0.0074312,-0.0010136,0.0084449,0.0011401,0,-0.00037909,0,1,0,1
7328,1.6836e+07,0.0074791,0.0018059,0.0056732,0.00076588,0,-0.00094694,0,1,0,1
7369,1.6845e+07,0.0073653,0.0053316,0.0020337,0.00027455,0,-0.00098618,0,1,0,1
7406,1.6856e+07,0.0071688,0.0058849,0.0012839,0.00017333,0,-0.00051364,0,1,0,1
7447,1.6866e+07,0.0069538,0.0054135,0.0015403,0.00020794,0,-0.00032914,0,1,0,1
7489,1.6877e+07,0.006676,0.0053731,0.001303,0.0001759,0,0.00031074,0,1,0,1
7529,1.6887e+07,0.0064491,0.006071,0.0003781,5.1043e-05,0,-0.00044435,0,1,0,1
7573,1.6897e+07,0.0063094,0.0004896,0.0058198,0.00078567,0,0.0010015,0,1,0,1
7615,1.6906e+07,0.0062286,-0.00010932,0.006338,0.00085563,0,0.00072236,0,1,0,1
7657,1.6916e+07,0.0062312,-0.0023158,0.008547,0.0011538,0,0.00096348,0,1,0,1
7698,1.6927e+07,0.0063452,-0.0042021,0.010547,0.0014239,0,0.0007699,0,1,0,1
7740,1.6939e+07,0.0066556,-0.0072178,0.013873,0.0018729,0,0.00052215,0,1,0,1
7781,1.695e+07,0.0069407,-0.0038297,0.01077,0.001454,0,-0.0007301,0,1,0,1
7818,1.6959e+07,0.0071757,-0.0032178,0.010394,0.0014031,0,-0.00055679,0,1,0,1
7860,1.6969e+07,0.0073488,-0.002988,0.010337,0.0013955,0,-0.00017329,0,1,0,1
7900,1.6979e+07,0.0075248,-0.0034661,0.010991,0.0014838,0,6.1207e-06,0,1,0,1
7941,1.699e+07,0.0076106,0.00017627,0.0074343,0.0010036,0,-0.0006628,0,1,0,1
7987,1.7e+07,0.007574,0.0033019,0.0042721,0.00057674,0,-0.00080147,0,1,0,1
8029,1.701e+07,0.0075007,0.0017063,0.0057944,0.00078224,0,4.0288e-05,0,1,0,1
8072,1.702e+07,0.0074078,0.0032546,0.0041531,0.00056067,0,-0.00045317,0,1,0,1
8112,1.703e+07,0.0071875,0.0097034,-0.0025159,-0.00033965,0,-0.0018826,0,1,0,1
8150,1.704e+07,0.0068545,0.0076576,-0.0008031,-0.00010842,0,0.00020598,0,1,0,1
8187,1.705e+07,0.0064612,0.0057413,0.00071981,9.7174e-05,0,0.001323,0,1,0,1
8228,1.706e+07,0.0062089,0.0036697,0.0025392,0.00034279,0,0.0012057,0,1,0,1
8268,1.707e+07,0.0061203,0.003383,0.0027373,0.00036954,0,-6.1727e-05,0,1,0,1
8310,1.708e+07,0.0061241,0.0065214,-0.00039738,-5.3646e-05,0,-0.0024001,0,1,0,1
8352,1.709e+07,0.0063782,0.011659,-0.0052804,-0.00071285,0,-0.0076144,0,1,0,1
8396,1.7101e+07,0.0065613,-0.011331,0.017892,0.0024154,0,0.00159,0,1,0,1
8437,1.711e+07,0.0064971,-0.014144,0.020641,0.0027865,0,0.005286,0,1,0,1
8479,1.712e+07,0.006386,-0.018146,0.024532,0.0033118,0,0.0082589,0,1,0,1
8520,1.713e+07,0.0062096,-0.03765,0.04386,0.0059211,0,0.017096,0,1,0,1
8560,1.714e+07,0.0053386,-0.044759,0.050098,0.0067632,0,0.022653,0,1,0,1
8600,1.7153e+07,0.0056798,-0.034494,0.040174,0.0054235,0,0.015438,0,1,0,1
8641,1.7163e+07,0.0054385,-0.028283,0.033722,0.0045524,0,0.012007,0,1,0,1
8681,1.7173e+07,0.0056354,-0.027978,0.033613,0.0045378,0,0.008639,0,1,0,1
8722,1.7183e+07,0.0058001,-0.019172,0.024972,0.0033712,0,0.0057935,0,1,0,1
8763,1.7193e+07,0.0060791,-0.0099107,0.01599,0.0021586,0,0.0015345,0,1,0,1
8807,1.7203e+07,0.0062463,0.0011696,0.0050767,0.00068535,0,-0.0016769,0,1,0,1
8848,1.7213e+07,0.0061207,0.0069703,-0.00084966,-0.0001147,0,-0.0013274,0,1,0,1
8888,1.7223e+07,0.0059153,0.0034189,0.0024963,0.00033701,0,0.00071156,0,1,0,1
8930,1.7233e+07,0.0062012,-0.0023722,0.0085734,0.0011574,0,-0.0015332,0,1,0,1
8967,1.7243e+07,0.0065918,0.0059918,0.00060003,8.1004e-05,0,-0.0062182,0,1,0,1
9005,1.7253e+07,0.0065142,0.037444,-0.03093,-0.0041755,0,-0.014723,0,1,0,1
9046,1.7263e+07,0.0061876,0.039743,-0.033555,-0.0045299,0,-0.013615,0,1,0,1
9086,1.7273e+07,0.0061027,-0.0057825,0.011885,0.0016045,0,0.0016983,0,1,0,1
9127,1.7284e+07,0.0066261,-0.014487,0.021113,0.0028502,0,-7.9825e-06,0,1,0,1
9167,1.7293e+07,0.0068404,-0.0019237,0.0087641,0.0011832,0,-0.0014785,0,1,0,1
9212,1.7303e+07,0.0065092,0.013496,-0.0069872,-0.00094328,0,-0.0021806,0,1,0,1
9247,1.7333e+07,0.0070237,0.018845,-0.011821,-0.0015959,0,-0.0072857,0,1,0,1
9290,1.7343e+07,0.0068789,0.0012172,0.0056618,0.00076434,0,0.00074376,0,1,0,1
9327,1.7353e+07,0.0065286,-0.0023691,0.0088977,0.0012012,0,0.0041188,0,1,0,1
9365,1.7363e+07,0.0065603,0.035485,-0.028924,-0.0039048,0,-0.015195,0,1,0,1
9406,1.7374e+07,0.0065322,0.091445,-0.084913,-0.011463,0,-0.036502,0,1,0,1
9446,1.7383e+07,0.0058162,2.5802e-05,0.0057904,0.00078171,0,0.0045422,0,1,0,1
9488,1.7394e+07,0.0052246,-0.024667,0.029891,0.0040353,0,0.013598,0,1,0,1
9532,1.7404e+07,0.0044493,0.002678,0.0017714,0.00023914,0,0.0062522,0,1,0,1
9573,1.7413e+07,0.0038453,0.070209,-0.066363,-0.0089591,0,-0.022631,0,1,0,1
9613,1.7423e+07,0.0029947,0.063866,-0.060871,-0.0082176,0,-0.015337,0,1,0,1
9656,1.7433e+07,0.0032495,0.047006,-0.043757,-0.0059072,0,-0.021041,0,1,0,1
9697,1.7443e+07,0.003221,0.072322,-0.069101,-0.0093286,0,-0.030873,0,1,0,1
9734,1.7453e+07,0.0029181,0.032253,-0.029335,-0.0039602,0,-0.015359,0,1,0,1
9776,1.7466e+07,0.0022657,0.057024,-0.054758,-0.0073923,0,-0.020454,0,1,0,1
9817,1.7476e+07,0.0027724,0.058503,-0.05573,-0.0075236,0,-0.02791,0,1,0,1
9857,1.7486e+07,0.003114,0.073336,-0.070222,-0.0094799,0,-0.038046,0,1,0,1
9898,1.7496e+07,0.0038921,0.079969,-0.076076,-0.01027,0,-0.042676,0,1,0,1
9942,1.7507e+07,0.003935,0.075967,-0.072032,-0.0097243,0,-0.036175,0,1,0,1
9986,1.7516e+07,0.0041106,0.038674,-0.034563,-0.0046661,0,-0.022529,0,1,0,1
10026,1.7526e+07,0.0045966,0.016702,-0.012105,-0.0016342,0,-0.01703,0,1,0,1
10067,1.7536e+07,0.0050417,0.024029,-0.018987,-0.0025632,0,-0.018543,0,1,0,1
10106,1.7546e+07,0.0046825,-0.0098958,0.014578,0.0019681,0,0.002545,0,1,0,1
10145,1.7557e+07,0.0045068,0.03858,-0.034074,-0.0045999,0,-0.021218,0,1,0,1
10186,1.7567e+07,0.0042783,-0.0065667,0.010845,0.0014641,0,-0.0032443,0,1,0,1
10226,1.7577e+07,0.0039916,0.029442,-0.02545,-0.0034358,0,-0.016158,0,1,0,1
10268,1.7586e+07,0.0033675,-0.024454,0.027822,0.0037559,0,0.011747,0,1,0,1
10308,1.7597e+07,0.003177,-0.0028059,0.005983,0.0008077,0,-0.00082329,0,1,0,1
10354,1.7607e+07,0.0032899,-0.047376,0.050666,0.0068399,0,0.014237,0,1,0,1
10395,1.7617e+07,0.0034929,-0.0069921,0.010485,0.0014155,0,-0.0042156,0,1,0,1
10435,1.7626e+07,0.0031225,-0.047442,0.050565,0.0068262,0,0.019656,0,1,0,1
10477,1.7636e+07,0.0031839,-0.034444,0.037628,0.0050798,0,0.0094425,0,1,0,1
10514,1.7649e+07,0.0035128,0.040268,-0.036755,-0.0049619,0,-0.025929,0,1,0,1
10556,1.766e+07,0.0039381,0.098848,-0.09491,-0.012813,0,-0.045964,0,1,0,1
10598,1.767e+07,0.0039229,0.058585,-0.054662,-0.0073793,0,-0.026055,0,1,0,1
10639,1.7679e+07,0.0038994,0.086285,-0.082386,-0.011122,0,-0.037069,0,1,0,1
10680,1.769e+07,0.0042999,0.06938,-0.06508,-0.0087858,0,-0.034336,0,1,0,1
10723,1.77e+07,0.0046435,0.14289,-0.13825,-0.018664,0,-0.06336,0,1,0,1
10766,1.771e+07,0.0040581,0.099733,-0.095675,-0.012916,0,-0.038413,0,1,0,1
10806,1.772e+07,0.0033857,0.13366,-0.13028,-0.017588,0,-0.052981,0,1,0,1
10847,1.773e+07,0.0035075,0.078831,-0.075324,-0.010169,0,-0.037504,0,1,0,1
10890,1.7741e+07,0.0034308,0.1638,-0.16037,-0.02165,0,-0.068934,0,1,0,1
10930,1.7753e+07,0.0035451,-0.085914,0.089459,0.012077,0,0.040766,0,1,0,1
10973,1.7763e+07,0.0022532,-0.0023385,0.0045917,0.00061988,0,0.010578,0,1,0,1
11013,1.7773e+07,0.0024792,-0.09833,0.10081,0.013609,0,0.045348,0,1,0,1
11054,1.7784e+07,0.0018843,-0.056775,0.058659,0.007919,0,0.039413,0,1,0,1
11094,1.7793e+07,0.0014378,-0.088885,0.090323,0.012194,0,0.049357,0,1,0,1
11142,1.7803e+07,0.0013763,-0.11243,0.1138,0.015363,0,0.058865,0,1,0,1
11183,1.7813e+07,0.002509,-0.12291,0.12542,0.016931,0,0.050557,0,1,0,1
11223,1.7823e+07,0.0024125,-0.08952,0.091933,0.012411,0,0.047571,0,1,0,1
11265,1.7833e+07,0.0028855,-0.10948,0.11237,0.01517,0,0.050082,0,1,0,1
11305,1.7843e+07,0.0028214,-0.13487,0.1377,0.018589,0,0.063932,0,1,0,1
11343,1.7853e+07,0.0049456,-0.12442,0.12937,0.017465,0,0.042507,0,1,0,1
11384,1.7863e+07,0.0043713,-0.1011,0.10547,0.014238,0,0.044859,0,1,0,1
11428,1.7876e+07,0.0048151,0.044698,-0.039883,-0.0053842,0,-0.023839,0,1,0,1
11469,1.7886e+07,0.0047101,-0.0050072,0.0097173,0.0013118,0,-0.005453,0,1,0,1
11511,1.7896e+07,0.0049061,0.057217,-0.052311,-0.007062,0,-0.032108,0,1,0,1
11556,1.7906e+07,0.0040666,0.050848,-0.046781,-0.0063155,0,-0.020208,0,1,0,1
11597,1.7916e+07,0.0034599,0.076322,-0.072863,-0.0098364,0,-0.032423,0,1,0,1
11637,1.7926e+07,0.0031534,0.020445,-0.017292,-0.0023344,0,-0.013733,0,1,0,1
11678,1.7936e+07,0.0033913,0.075412,-0.072021,-0.0097228,0,-0.040014,0,1,0,1
11720,1.7946e+07,0.0026005,0.072372,-0.069771,-0.0094191,0,-0.029558,0,1,0,1
11758,1.7956e+07,0.0016482,0.090174,-0.088525,-0.011951,0,-0.04091,0,1,0,1
11799,1.7967e+07,0.0019847,0.019195,-0.01721,-0.0023234,0,-0.014011,0,1,0,1
11842,1.7977e+07,0.0025319,0.090373,-0.087841,-0.011858,0,-0.046335,0,1,0,1
11883,1.7987e+07,0.0024363,0.056862,-0.054426,-0.0073475,0,-0.02659,0,1,0,1
11923,1.7997e+07,0.0026498,0.073134,-0.070484,-0.0095154,0,-0.035537,0,1,0,1
11970,1.8007e+07,0.0034265,0.0095687,-0.0061422,-0.00082919,0,-0.015443,0,1,0,1
12010,1.8017e+07,0.0044416,0.091403,-0.086962,-0.01174,0,-0.049486,0,1,0,1
12052,1.8027e+07,0.0045894,0.064725,-0.060135,-0.0081182,0,-0.030828,0,1,0,1
12096,1.8042e+07,0.0046037,-0.10878,0.11339,0.015307,0,0.048237,0,1,0,1
12137,1.8052e+07,0.0054955,-0.10509,0.11058,0.014929,0,0.035699,0,1,0,1
12177,1.8063e+07,0.0055422,-0.067213,0.072755,0.0098219,0,0.033143,0,1,0,1
12220,1.8072e+07,0.0053684,-0.057594,0.062962,0.0084999,0,0.027765,0,1,0,1
12260,1.8083e+07,0.0044893,-0.099236,0.10373,0.014003,0,0.048422,0,1,0,1
12302,1.8092e+07,0.005021,-0.070682,0.075703,0.01022,0,0.023806,0,1,0,1
12345,1.8102e+07,0.0039219,-0.055032,0.058953,0.0079587,0,0.031445,0,1,0,1
12387,1.8113e+07,0.003712,-0.05501,0.058722,0.0079274,0,0.022955,0,1,0,1
12433,1.8125e+07,0.0026941,0.00086339,0.0018307,0.00024714,0,-0.002628,0,1,0,1
12473,1.8135e+07,0.0029835,0.081405,-0.078421,-0.010587,0,-0.040872,0,1,0,1
12518,1.8147e+07,0.0017297,0.01012,-0.00839,-0.0011326,0,5.3412e-05,0,1,0,1
12555,1.8158e+07,0.0018609,0.034836,-0.032975,-0.0044516,0,-0.0069691,0,1,0,1
12596,1.8168e+07,0.0029349,-0.084663,0.087598,0.011826,0,0.029977,0,1,0,1
12637,1.8178e+07,0.0033014,-0.04769,0.050991,0.0068838,0,0.023732,0,1,0,1
12679,1.8189e+07,0.0039136,-0.083429,0.087342,0.011791,0,0.035531,0,1,0,1
12720,1.8199e+07,0.003889,-0.060709,0.064598,0.0087207,0,0.031512,0,1,0,1
12764,1.8208e+07,0.0052796,-0.087789,0.093068,0.012564,0,0.029155,0,1,0,1
12805,1.8218e+07,0.0051261,-0.054779,0.059905,0.0080871,0,0.029525,0,1,0,1
12845,1.8228e+07,0.005095,-0.067081,0.072176,0.0097437,0,0.033179,0,1,0,1
12887,1.8239e+07,0.0042563,-0.066849,0.071105,0.0095992,0,0.039829,0,1,0,1
12925,1.8249e+07,0.004964,-0.066249,0.071214,0.0096138,0,0.024629,0,1,0,1
12962,1.8259e+07,0.0041454,-0.040121,0.044267,0.005976,0,0.025427,0,1,0,1
13003,1.8269e+07,0.0037079,-0.046358,0.050065,0.0067588,0,0.023089,0,1,0,1
13044,1.8279e+07,0.0026823,-0.067384,0.070066,0.0094589,0,0.0358,0,1,0,1
13086,1.8289e+07,0.0030724,-0.037591,0.040663,0.0054895,0,0.011041,0,1,0,1
13126,1.8299e+07,0.0024325,-0.0409,0.043332,0.0058499,0,0.021254,0,1,0,1
13171,1.8309e+07,0.0022709,-0.015946,0.018217,0.0024592,0,0.0069076,0,1,0,1
13211,1.8319e+07,0.0019345,-0.062308,0.064242,0.0086727,0,0.026842,0,1,0,1
13254,1.8329e+07,0.0026912,-0.012655,0.015346,0.0020717,0,-0.0024077,0,1,0,1
13295,1.8339e+07,0.002706,-0.023683,0.026389,0.0035625,0,0.0086097,0,1,0,1
13333,1.8352e+07,0.002816,0.033402,-0.030586,-0.0041291,0,-0.013418,0,1,0,1
13373,1.8362e+07,0.0033788,-0.032923,0.036301,0.0049007,0,0.0070413,0,1,0,1
13414,1.8372e+07,0.0039084,0.028284,-0.024376,-0.0032908,0,-0.015256,0,1,0,1
13456,1.8382e+07,0.0040714,0.011091,-0.0070194,-0.00094762,0,-0.0044205,0,1,0,1
13496,1.8392e+07,0.0041162,0.040583,-0.036467,-0.0049231,0,-0.015183,0,1,0,1
13538,1.8402e+07,0.0046378,-0.016073,0.020711,0.002796,0,0.0017266,0,1,0,1
13582,1.8412e+07,0.0046543,0.048156,-0.043501,-0.0058727,0,-0.018106,0,1,0,1
13622,1.8422e+07,0.0041467,0.012045,-0.0078987,-0.0010663,0,0.0010376,0,1,0,1
13663,1.8432e+07,0.0033164,0.044973,-0.041656,-0.0056236,0,-0.009419,0,1,0,1
13704,1.8442e+07,0.003364,-0.0079696,0.011334,0.00153,0,0.0033476,0,1,0,1
13742,1.8452e+07,0.002755,0.043543,-0.040788,-0.0055064,0,-0.011144,0,1,0,1
13782,1.8463e+07,0.0023096,0.0082315,-0.0059219,-0.00079946,0,0.00071298,0,1,0,1
13820,1.8473e+07,0.0015504,0.002714,-0.0011637,-0.00015709,0,0.0055621,0,1,0,1
13861,1.8483e+07,0.0022312,-0.012834,0.015066,0.0020339,0,-0.00085948,0,1,0,1
13901,1.8493e+07,0.0020722,0.003137,-0.0010648,-0.00014375,0,0.00049108,0,1,0,1
13945,1.8503e+07,0.0025851,-0.015841,0.018426,0.0024876,0,0.0019859,0,1,0,1
13990,1.8513e+07,0.0028154,-0.039256,0.042071,0.0056796,0,0.013709,0,1,0,1
14031,1.8523e+07,0.0043668,-0.026197,0.030563,0.0041261,0,-0.0033659,0,1,0,1
14074,1.8533e+07,0.0048979,-0.0061936,0.011092,0.0014974,0,-0.0024442,0,1,0,1
14114,1.8543e+07,0.0055079,0.0060255,-0.00051764,-6.9881e-05,0,-0.0085288,0,1,0,1
14155,1.8556e+07,0.0056308,-0.028077,0.033708,0.0045506,0,0.0091186,0,1,0,1
14196,1.8566e+07,0.0059987,0.02465,-0.018651,-0.0025179,0,-0.011671,0,1,0,1
14237,1.8576e+07,0.0053995,-0.014022,0.019421,0.0026219,0,0.013076,0,1,0,1
14277,1.8586e+07,0.0046601,0.014753,-0.010093,-0.0013625,0,0.0034435,0,1,0,1
14319,1.8596e+07,0.0039654,-0.041205,0.04517,0.006098,0,0.025044,0,1,0,1
14363,1.8606e+07,0.003329,0.014573,-0.011244,-0.001518,0,0.0019369,0,1,0,1
14406,1.8616e+07,0.002066,-0.025054,0.02712,0.0036613,0,0.022966,0,1,0,1
14447,1.8626e+07,0.0010218,0.017813,-0.016791,-0.0022668,0,0.0035698,0,1,0,1
14487,1.8636e+07,0.00083064,-0.046368,0.047199,0.0063719,0,0.02082,0,1,0,1
14529,1.8646e+07,0.00082068,0.01097,-0.01015,-0.0013702,0,-0.0043016,0,1,0,1
14566,1.8657e+07,0.00069411,-0.033271,0.033965,0.0045853,0,0.012971,0,1,0,1
14608,1.8667e+07,0.00088572,0.0094162,-0.0085304,-0.0011516,0,-0.0039128,0,1,0,1
14649,1.8677e+07,0.0023139,-0.051665,0.053979,0.0072872,0,0.0084032,0,1,0,1
14689,1.8687e+07,0.0029021,-0.0075814,0.010483,0.0014153,0,-0.0015847,0,1,0,1
14730,1.8697e+07,0.0037971,-0.024547,0.028344,0.0038264,0,0.0028687,0,1,0,1
14774,1.8707e+07,0.003991,-0.0020609,0.0060518,0.000817,0,-0.00038502,0,1,0,1
14816,1.8718e+07,0.0052012,-0.027141,0.032342,0.0043662,0,0.00016195,0,1,0,1
14857,1.8728e+07,0.0049522,0.015483,-0.010531,-0.0014217,0,-0.0052325,0,1,0,1
14900,1.8738e+07,0.004819,0.0091886,-0.0043696,-0.0005899,0,-0.0040636,0,1,0,1
14942,1.8748e+07,0.0038701,0.028905,-0.025035,-0.0033797,0,-0.0048751,0,1,0,1
14976,1.8758e+07,0.0042345,0.026462,-0.022227,-0.0030007,0,-0.013362,0,1,0,1
15016,1.8768e+07,0.0030101,0.045524,-0.042514,-0.0057394,0,-0.011406,0,1,0,1
15056,1.8778e+07,0.0023053,0.050204,-0.047899,-0.0064663,0,-0.016572,0,1,0,1
15096,1.8788e+07,0.0012924,0.031496,-0.030203,-0.0040774,0,-0.0076333,0,1,0,1
15138,1.8798e+07,0.0016682,0.057544,-0.055876,-0.0075432,0,-0.028847,0,1,0,1
15183,1.8808e+07,0.0012121,0.03563,-0.034418,-0.0046464,0,-0.012452,0,1,0,1
15226,1.8818e+07,0.0013255,0.045844,-0.044519,-0.0060101,0,-0.020801,0,1,0,1
15267,1.8828e+07,0.0014809,-0.0044111,0.005892,0.00079542,0,-0.00053749,0,1,0,1
15309,1.8838e+07,0.0029876,0.029694,-0.026706,-0.0036054,0,-0.024915,0,1,0,1
15349,1.8848e+07,0.0035969,-0.009655,0.013252,0.001789,0,-0.0004613,0,1,0,1
15384,1.8858e+07,0.0044952,0.019072,-0.014577,-0.0019679,0,-0.011485,0,1,0,1
15425,1.8868e+07,0.0052182,-0.036973,0.042191,0.0056958,0,0.012624,0,1,0,1
15465,1.8879e+07,0.0060677,0.020028,-0.013961,-0.0018847,0,-0.011992,0,1,0,1
15506,1.8889e+07,0.006083,-0.021182,0.027265,0.0036808,0,0.011403,0,1,0,1
15548,1.8899e+07,0.0056722,0.016985,-0.011312,-0.0015272,0,-0.00096099,0,1,0,1
15591,1.8909e+07,0.0052492,-0.030007,0.035256,0.0047596,0,0.017985,0,1,0,1
15633,1.8919e+07,0.0044777,0.029667,-0.025189,-0.0034006,0,-0.0031334,0,1,0,1
15673,1.8929e+07,0.0035451,0.0056743,-0.0021293,-0.00028745,0,0.0072165,0,1,0,1
15717,1.894e+07,0.0021453,0.01283,-0.010684,-0.0014424,0,0.0076537,0,1,0,1
15758,1.8952e+07,0.001655,0.0074831,-0.0058281,-0.00078679,0,-0.001367,0,1,0,1
15799,1.8963e+07,0.0010481,0.010649,-0.0096013,-0.0012962,0,0.00035337,0,1,0,1
15836,1.8972e+07,0.0010663,0.023678,-0.022612,-0.0030526,0,-0.012094,0,1,0,1
15877,1.8982e+07,0.0010945,-0.014622,0.015717,0.0021217,0,0.0039692,0,1,0,1
15918,1.8992e+07,0.0022511,-0.0028154,0.0050665,0.00068398,0,-0.011405,0,1,0,1
15960,1.9003e+07,0.0028987,-0.023928,0.026827,0.0036217,0,0.0020051,0,1,0,1
16006,1.9013e+07,0.0041157,0.020946,-0.016831,-0.0022721,0,-0.020747,0,1,0,1
16046,1.9022e+07,0.004805,-0.028928,0.033733,0.004554,0,0.0029867,0,1,0,1
16087,1.9032e+07,0.0060911,0.027632,-0.021541,-0.002908,0,-0.02549,0,1,0,1
16130,1.9042e+07,0.0063679,-0.0075865,0.013954,0.0018838,0,-0.0025131,0,1,0,1
16167,1.9055e+07,0.0069523,0.042561,-0.035609,-0.0048072,0,-0.013502,0,1,0,1
16208,1.9065e+07,0.0063788,-0.026854,0.033233,0.0044864,0,0.010438,0,1,0,1
16248,1.9076e+07,0.0053142,0.031403,-0.026089,-0.0035221,0,-0.0041657,0,1,0,1
16289,1.9085e+07,0.0048642,-0.0015391,0.0064033,0.00086444,0,0.0053156,0,1,0,1
16331,1.9095e+07,0.0032179,0.028784,-0.025566,-0.0034515,0,0.0036239,0,1,0,1
16372,1.9105e+07,0.0029553,-0.011641,0.014596,0.0019705,0,0.0073434,0,1,0,1
16417,1.9115e+07,0.0018417,0.011243,-0.0094011,-0.0012691,0,0.0051257,0,1,0,1
16457,1.9125e+07,0.0017878,-0.00070662,0.0024944,0.00033674,0,0.00034444,0,1,0,1
16499,1.9135e+07,0.0010182,-0.007453,0.0084713,0.0011436,0,0.0086003,0,1,0,1
16542,1.9145e+07,0.0018162,-0.015947,0.017764,0.0023981,0,-0.0024306,0,1,0,1
16583,1.9161e+07,0.0018864,-0.058433,0.060319,0.0081431,0,0.017877,0,1,0,1
16623,1.9171e+07,0.0028821,-0.01411,0.016992,0.0022939,0,0.0022153,0,1,0,1
16665,1.9182e+07,0.0043289,-0.088888,0.093217,0.012584,0,0.027377,0,1,0,1
16706,1.9191e+07,0.0053302,-0.049698,0.055028,0.0074288,0,0.015127,0,1,0,1
16746,1.9201e+07,0.0063411,-0.083742,0.090083,0.012161,0,0.029157,0,1,0,1
16790,1.9212e+07,0.0066516,-0.029793,0.036445,0.00492,0,0.010923,0,1,0,1
16831,1.9222e+07,0.0071843,-0.063602,0.070787,0.0095562,0,0.020064,0,1,0,1
16873,1.9232e+07,0.0069915,-0.022765,0.029757,0.0040171,0,0.0087363,0,1,0,1
16914,1.9243e+07,0.0070048,-0.0017599,0.0087647,0.0011832,0,-0.0018392,0,1,0,1
16954,1.9253e+07,0.0053517,0.036435,-0.031084,-0.0041963,0,-0.0071818,0,1,0,1
16992,1.9265e+07,0.0040245,0.075225,-0.0712,-0.009612,0,-0.025852,0,1,0,1
17037,1.9277e+07,0.0030858,-0.0052811,0.0083669,0.0011295,0,0.0099906,0,1,0,1
17078,1.9288e+07,0.0022377,0.038432,-0.036194,-0.0048862,0,-0.0080555,0,1,0,1
17119,1.9297e+07,0.0017047,-0.04462,0.046325,0.0062538,0,0.022961,0,1,0,1
17159,1.9308e+07,0.0014471,0.0071101,-0.0056629,-0.0007645,0,-0.00019097,0,1,0,1
17207,1.932e+07,0.0021105,-0.0080289,0.010139,0.0013688,0,-0.0033148,0,1,0,1
17251,1.9331e+07,0.0021802,0.010827,-0.0086466,-0.0011673,0,-0.0058167,0,1,0,1
17291,1.9341e+07,0.0035105,-0.022763,0.026274,0.003547,0,-0.0034752,0,1,0,1
17332,1.9353e+07,0.0043618,-0.039205,0.043567,0.0058815,0,0.0099359,0,1,0,1
17369,1.9363e+07,0.0057222,0.0029685,0.0027537,0.00037175,0,-0.010478,0,1,0,1
17410,1.9373e+07,0.0061368,-0.032745,0.038882,0.0052491,0,0.011035,0,1,0,1
17453,1.9383e+07,0.0068414,0.0040118,0.0028295,0.00038199,0,-0.0046009,0,1,0,1
17493,1.9393e+07,0.0070484,-0.033663,0.040712,0.0054961,0,0.014296,0,1,0,1
17535,1.9403e+07,0.0068419,0.025713,-0.018871,-0.0025476,0,-0.0067662,0,1,0,1
17578,1.9413e+07,0.0064193,-0.014347,0.020766,0.0028035,0,0.01105,0,1,0,1
17620,1.9423e+07,0.0056256,0.023541,-0.017915,-0.0024186,0,-0.0017409,0,1,0,1
17660,1.9433e+07,0.0048237,-0.012514,0.017337,0.0023405,0,0.012364,0,1,0,1
17701,1.9443e+07,0.0037016,0.033707,-0.030005,-0.0040507,0,-0.0039438,0,1,0,1
17742,1.9456e+07,0.0029385,0.027556,-0.024618,-0.0033234,0,-0.0065039,0,1,0,1
17783,1.9466e+07,0.0017332,0.030557,-0.028823,-0.0038912,0,-0.0044142,0,1,0,1
17824,1.9476e+07,0.0017558,0.010046,-0.0082902,-0.0011192,0,-0.005282,0,1,0,1
17864,1.9486e+07,0.0013709,0.022413,-0.021042,-0.0028407,0,-0.0059437,0,1,0,1
17908,1.9496e+07,0.0020545,0.010534,-0.0084795,-0.0011447,0,-0.010178,0,1,0,1
17949,1.9506e+07,0.0023697,0.0034936,-0.0011239,-0.00015173,0,-0.0039051,0,1,0,1
17994,1.9516e+07,0.0036685,0.0044357,-0.00076719,-0.00010357,0,-0.012616,0,1,0,1
18037,1.9526e+07,0.0041003,0.011225,-0.0071249,-0.00096187,0,-0.0072763,0,1,0,1
18077,1.9536e+07,0.0052075,0.02214,-0.016932,-0.0022859,0,-0.017479,0,1,0,1
18118,1.9546e+07,0.0055335,0.014534,-0.0090007,-0.0012151,0,-0.007456,0,1,0,1
18158,1.9559e+07,0.005901,-0.0056388,0.01154,0.0015579,0,0.0025192,0,1,0,1
18200,1.9569e+07,0.0059633,-0.041019,0.046982,0.0063426,0,0.020632,0,1,0,1
18241,1.9579e+07,0.0055639,0.0038251,0.0017388,0.00023473,0,0.0065367,0,1,0,1
18278,1.9589e+07,0.0051949,-0.034854,0.040049,0.0054066,0,0.020463,0,1,0,1
18320,1.9599e+07,0.0043954,0.014754,-0.010359,-0.0013984,0,0.0041883,0,1,0,1
18361,1.9609e+07,0.0037978,-0.020779,0.024577,0.0033179,0,0.016044,0,1,0,1
18407,1.9619e+07,0.0028865,0.0086335,-0.005747,-0.00077584,0,0.0064179,0,1,0,1
18448,1.9629e+07,0.0026941,-0.017173,0.019867,0.0026821,0,0.0096332,0,1,0,1
18488,1.9639e+07,0.002088,0.022545,-0.020457,-0.0027617,0,-0.0029674,0,1,0,1
18529,1.9649e+07,0.0022635,-0.0034519,0.0057153,0.00077157,0,-9.4077e-05,0,1,0,1
18569,1.9659e+07,0.0023602,0.005134,-0.0027738,-0.00037446,0,-0.003321,0,1,0,1
18605,1.9669e+07,0.0030672,-0.013914,0.016981,0.0022925,0,-0.001765,0,1,0,1
18647,1.9679e+07,0.0035723,0.0055014,-0.0019291,-0.00026042,0,-0.0047553,0,1,0,1
18687,1.9689e+07,0.0045232,-0.0073453,0.011868,0.0016022,0,-0.0046453,0,1,0,1
18728,1.97e+07,0.0046896,-0.011134,0.015824,0.0021362,0,0.0030892,0,1,0,1
18771,1.9709e+07,0.0055351,0.0038948,0.0016403,0.00022144,0,-0.0087709,0,1,0,1
18815,1.9719e+07,0.0053777,0.012871,-0.0074935,-0.0010116,0,-0.0033058,0,1,0,1
18857,1.9729e+07,0.0055285,0.023504,-0.017976,-0.0024268,0,-0.0096165,0,1,0,1
18898,1.974e+07,0.0049397,0.0011527,0.003787,0.00051124,0,0.0055147,0,1,0,1
18938,1.9749e+07,0.0048285,0.026926,-0.022098,-0.0029832,0,-0.0090365,0,1,0,1
18980,1.976e+07,0.0039374,0.014595,-0.010658,-0.0014388,0,0.0039982,0,1,0,1
19018,1.977e+07,0.0035236,0.037635,-0.034112,-0.0046051,0,-0.0077427,0,1,0,1
19058,1.978e+07,0.002616,-0.0027877,0.0054037,0.0007295,0,0.0095299,0,1,0,1
19099,1.979e+07,0.0022068,0.014425,-0.012218,-0.0016495,0,0.00013483,0,1,0,1
19139,1.9799e+07,0.0016789,-0.016319,0.017998,0.0024298,0,0.013802,0,1,0,1
19182,1.981e+07,0.0013703,-0.0067072,0.0080776,0.0010905,0,0.0075705,0,1,0,1
19228,1.982e+07,0.0016064,-0.043516,0.045122,0.0060915,0,0.017161,0,1,0,1
19269,1.983e+07,0.0023159,-0.025372,0.027688,0.0037378,0,0.0051418,0,1,0,1
19310,1.984e+07,0.0027188,-0.058293,0.061012,0.0082366,0,0.02048,0,1,0,1
19350,1.985e+07,0.0031839,-0.04208,0.045264,0.0061107,0,0.013165,0,1,0,1
19392,1.9862e+07,0.004678,0.0012071,0.0034709,0.00046858,0,-0.012619,0,1,0,1
19432,1.9873e+07,0.0051066,0.053694,-0.048587,-0.0065592,0,-0.030795,0,1,0,1
19473,1.9882e+07,0.0055902,0.0446,-0.03901,-0.0052663,0,-0.026898,0,1,0,1
19514,1.9892e+07,0.0053167,0.049513,-0.044197,-0.0059666,0,-0.023611,0,1,0,1
19555,1.9902e+07,0.0055968,0.052067,-0.04647,-0.0062734,0,-0.027856,0,1,0,1
19603,1.9915e+07,0.0047716,0.044579,-0.039808,-0.005374,0,-0.01092,0,1,0,1
19644,1.9925e+07,0.0042705,0.056157,-0.051886,-0.0070046,0,-0.014349,0,1,0,1
19687,1.9935e+07,0.0036716,0.018757,-0.015085,-0.0020365,0,0.00081983,0,1,0,1
19728,1.9945e+07,0.0033516,0.0287,-0.025349,-0.0034221,0,-0.0052439,0,1,0,1
19766,1.9955e+07,0.0025108,0.024812,-0.022301,-0.0030107,0,0.0017834,0,1,0,1
19804,1.9965e+07,0.0024902,0.054022,-0.051532,-0.0069568,0,-0.0097875,0,1,0,1
19845,1.9975e+07,0.0017609,-0.015266,0.017026,0.0022986,0,0.012041,0,1,0,1
19886,1.9985e+07,0.001736,0.014442,-0.012706,-0.0017154,0,-0.0027957,0,1,0,1
19928,1.9995e+07,0.0017172,-0.024995,0.026712,0.0036062,0,0.014131,0,1,0,1
19970,2.0005e+07,0.0014588,0.0032045,-0.0017458,-0.00023568,0,0.0051855,0,1,0,1
20014,2.0015e+07,0.0022066,-0.075472,0.077678,0.010487,0,0.026928,0,1,0,1
20056,2.0025e+07,0.002811,-0.043039,0.04585,0.0061898,0,0.014775,0,1,0,1
20097,2.0035e+07,0.0035654,-0.058179,0.061745,0.0083355,0,0.019274,0,1,0,1
20137,2.0045e+07,0.0034902,-0.037198,0.040689,0.005493,0,0.017256,0,1,0,1
20178,2.0055e+07,0.0041071,-0.079622,0.083729,0.011303,0,0.026883,0,1,0,1
20213,2.0065e+07,0.0039609,-0.04252,0.046481,0.0062749,0,0.015469,0,1,0,1
20254,2.0075e+07,0.0042995,-0.038473,0.042773,0.0057743,0,0.013485,0,1,0,1
20295,2.0085e+07,0.0035175,-0.031226,0.034744,0.0046904,0,0.018715,0,1,0,1
20335,2.0095e+07,0.0035732,-0.068634,0.072207,0.009748,0,0.025082,0,1,0,1
20377,2.0105e+07,0.0031334,-0.033156,0.03629,0.0048991,0,0.015044,0,1,0,1
20422,2.0115e+07,0.0028434,-0.016848,0.019692,0.0026584,0,0.0067674,0,1,0,1
20463,2.0125e+07,0.0017277,-0.037348,0.039076,0.0052752,0,0.021633,0,1,0,1
20505,2.0135e+07,0.0020731,-0.055365,0.057439,0.0077542,0,0.014433,0,1,0,1
20545,2.0145e+07,0.001946,-0.040794,0.04274,0.0057698,0,0.011086,0,1,0,1
20589,2.0157e+07,0.00228,0.094132,-0.091852,-0.0124,0,-0.040081,0,1,0,1
20626,2.0167e+07,0.0016941,0.017182,-0.015488,-0.0020909,0,-0.010481,0,1,0,1
20666,2.0177e+07,0.0023013,0.040073,-0.037771,-0.0050991,0,-0.026258,0,1,0,1
20706,2.0187e+07,0.0029941,0.029116,-0.026122,-0.0035265,0,-0.021451,0,1,0,1
20747,2.0197e+07,0.0028337,0.070344,-0.06751,-0.0091139,0,-0.029303,0,1,0,1
20788,2.0207e+07,0.0029516,0.0076532,-0.0047016,-0.00063472,0,-0.0058319,0,1,0,1
20832,2.0217e+07,0.0032437,0.030733,-0.027489,-0.003711,0,-0.016391,0,1,0,1
20874,2.0227e+07,0.0034833,0.031401,-0.027918,-0.0037689,0,-0.015113,0,1,0,1
20915,2.0237e+07,0.0026396,0.051872,-0.049232,-0.0066464,0,-0.013139,0,1,0,1
20956,2.0247e+07,0.0020931,-0.018799,0.020892,0.0028204,0,0.013259,0,1,0,1
20997,2.026e+07,0.0020172,-0.043241,0.045258,0.0061098,0,0.020529,0,1,0,1
21035,2.027e+07,0.0026228,-0.0035233,0.0061461,0.00082973,0,0.0025341,0,1,0,1
21076,2.028e+07,0.0017487,-0.032114,0.033863,0.0045715,0,0.021294,0,1,0,1
21116,2.029e+07,0.001905,-0.052584,0.054489,0.007356,0,0.016447,0,1,0,1
21158,2.03e+07,0.0020336,-0.046373,0.048407,0.0065349,0,0.015684,0,1,0,1
21198,2.031e+07,0.0023418,0.014357,-0.012015,-0.001622,0,-0.0099113,0,1,0,1
21245,2.032e+07,0.0020506,-0.03636,0.038411,0.0051855,0,0.015314,0,1,0,1
21286,2.033e+07,0.0027702,-0.045916,0.048687,0.0065727,0,0.0098335,0,1,0,1
21328,2.034e+07,0.0033558,-0.051947,0.055303,0.0074658,0,0.014329,0,1,0,1
21371,2.035e+07,0.0039354,0.026253,-0.022317,-0.0030128,0,-0.016351,0,1,0,1
21408,2.036e+07,0.0034948,-0.041635,0.04513,0.0060926,0,0.016553,0,1,0,1
21445,2.037e+07,0.0044346,-0.010221,0.014656,0.0019785,0,-0.0040775,0,1,0,1
21486,2.038e+07,0.0050086,-0.042878,0.047887,0.0064647,0,0.010765,0,1,0,1
21526,2.0389e+07,0.0048738,0.044708,-0.039834,-0.0053777,0,-0.017804,0,1,0,1
21567,2.04e+07,0.0042448,-0.039078,0.043323,0.0058486,0,0.019799,0,1,0,1
21608,2.041e+07,0.0040113,0.033884,-0.029873,-0.0040328,0,-0.01287,0,1,0,1
21653,2.042e+07,0.0038821,-0.013395,0.017277,0.0023325,0,0.0046967,0,1,0,1
21694,2.043e+07,0.0025275,0.07425,-0.071722,-0.0096825,0,-0.019141,0,1,0,1
21734,2.044e+07,0.0018027,-0.016318,0.01812,0.0024462,0,0.011672,0,1,0,1
21777,2.045e+07,0.0012545,0.042444,-0.041189,-0.0055605,0,-0.013551,0,1,0,1
21814,2.0463e+07,0.0018348,0.019901,-0.018066,-0.0024389,0,-0.012342,0,1,0,1
21854,2.0473e+07,0.00026624,0.031793,-0.031527,-0.0042561,0,-0.0012093,0,1,0,1
21895,2.0483e+07,0.00071476,0.0013641,-0.00064933,-8.766e-05,0,-0.005553,0,1,0,1
21937,2.0493e+07,0.00077426,-0.015109,0.015883,0.0021442,0,0.0051104,0,1,0,1
21979,2.0503e+07,0.0020964,0.042913,-0.040817,-0.0055103,0,-0.028691,0,1,0,1
22019,2.0513e+07,0.0014953,0.0032851,-0.0017897,-0.00024161,0,0.0037672,0,1,0,1
22065,2.0523e+07,0.0026181,0.031314,-0.028696,-0.003874,0,-0.022235,0,1,0,1
22107,2.0533e+07,0.0029521,-0.021123,0.024075,0.0032501,0,0.0058984,0,1,0,1
22148,2.0543e+07,0.0040059,0.065974,-0.061968,-0.0083656,0,-0.033459,0,1,0,1
22189,2.0553e+07,0.0031955,-0.026585,0.029781,0.0040204,0,0.02088,0,1,0,1
22231,2.0565e+07,0.0030322,-0.038783,0.041816,0.0056451,0,0.018395,0,1,0,1
22269,2.0576e+07,0.0043252,-0.1099,0.11423,0.01542,0,0.041596,0,1,0,1
22309,2.0586e+07,0.003794,0.002113,0.001681,0.00022694,0,0.0077182,0,1,0,1
22350,2.0596e+07,0.0034829,-0.093947,0.09743,0.013153,0,0.041914,0,1,0,1
22390,2.0606e+07,0.0028897,-0.055004,0.057894,0.0078157,0,0.027433,0,1,0,1
22436,2.0616e+07,0.0032655,-0.08716,0.090425,0.012207,0,0.031252,0,1,0,1
22478,2.0626e+07,0.0023079,-0.017012,0.01932,0.0026082,0,0.014455,0,1,0,1
22518,2.0636e+07,0.0022047,-0.075074,0.077279,0.010433,0,0.029243,0,1,0,1
22559,2.0646e+07,0.0020791,-0.06743,0.069509,0.0093837,0,0.025405,0,1,0,1
22601,2.0656e+07,0.0029198,-0.079275,0.082195,0.011096,0,0.021431,0,1,0,1
22642,2.0666e+07,0.0023192,-0.015481,0.0178,0.002403,0,0.0088282,0,1,0,1
22679,2.0676e+07,0.0031513,-0.067435,0.070586,0.0095291,0,0.016088,0,1,0,1
22717,2.0686e+07,0.0030971,-0.050288,0.053385,0.007207,0,0.014429,0,1,0,1
22759,2.0696e+07,0.0037874,-0.041271,0.045059,0.0060829,0,0.0036714,0,1,0,1
22799,2.0706e+07,0.0029592,0.014703,-0.011744,-0.0015855,0,-0.0031183,0,1,0,1
22844,2.0716e+07,0.0034171,-0.017813,0.02123,0.002866,0,-0.0012438,0,1,0,1
22885,2.0726e+07,0.0035442,0.0034346,0.00010961,1.4797e-05,0,-0.008609,0,1,0,1
22929,2.0736e+07,0.0042347,0.05275,-0.048515,-0.0065495,0,-0.033013,0,1,0,1
22969,2.0746e+07,0.003118,0.046931,-0.043813,-0.0059147,0,-0.013324,0,1,0,1
23011,2.0759e+07,0.0031782,0.043054,-0.039876,-0.0053833,0,-0.015309,0,1,0,1
23052,2.0769e+07,0.00339,-0.045659,0.049049,0.0066216,0,0.017298,0,1,0,1
23089,2.0779e+07,0.0030405,0.019186,-0.016146,-0.0021797,0,-0.0026487,0,1,0,1
23130,2.0789e+07,0.0025025,-0.062396,0.064899,0.0087613,0,0.034544,0,1,0,1
23170,2.0799e+07,0.0019712,-0.019024,0.020995,0.0028344,0,0.015477,0,1,0,1
23212,2.0809e+07,0.0022203,-0.032765,0.034985,0.004723,0,0.013692,0,1,0,1
23258,2.0819e+07,0.0015856,0.020785,-0.0192,-0.002592,0,-0.00056831,0,1,0,1
23299,2.0829e+07,0.00056951,-0.046856,0.047425,0.0064024,0,0.029737,0,1,0,1
23340,2.0839e+07,0.00014036,-0.015341,0.015482,0.00209,0,0.011878,0,1,0,1
23380,2.0849e+07,0.00060813,-0.037715,0.038323,0.0051736,0,0.01329,0,1,0,1
23423,2.0859e+07,0.00047246,-0.0013485,0.001821,0.00024583,0,0.004761,0,1,0,1
23463,2.0871e+07,0.001062,-0.064356,0.065418,0.0088314,0,0.021539,0,1,0,1
23504,2.0882e+07,0.0014111,-0.049156,0.050567,0.0068265,0,0.014372,0,1,0,1
23545,2.0892e+07,0.0027475,-0.036402,0.03915,0.0052852,0,0.0011804,0,1,0,1
23588,2.0902e+07,0.0026565,0.0019968,0.00065972,8.9062e-05,0,-0.0014355,0,1,0,1
23629,2.0912e+07,0.0034155,-0.027488,0.030903,0.0041719,0,0.0027263,0,1,0,1
23673,2.0922e+07,0.0035565,-0.018584,0.022141,0.002989,0,0.0046473,0,1,0,1
23714,2.0932e+07,0.0043487,0.036853,-0.032504,-0.004388,0,-0.022437,0,1,0,1
23756,2.0942e+07,0.0034296,0.030498,-0.027069,-0.0036543,0,-0.0045039,0,1,0,1
23798,2.0952e+07,0.0033582,0.034016,-0.030658,-0.0041388,0,-0.013195,0,1,0,1
23839,2.0962e+07,0.0031516,-0.011257,0.014408,0.0019451,0,0.0059777,0,1,0,1
23880,2.0971e+07,0.0030421,0.047515,-0.044473,-0.0060039,0,-0.017647,0,1,0,1
23921,2.0984e+07,0.0016185,-0.023751,0.02537,0.0034249,0,0.019009,0,1,0,1
23963,2.0994e+07,0.0012377,0.008422,-0.0071843,-0.00096988,0,0.0021373,0,1,0,1
24004,2.1004e+07,0.0015442,-0.038774,0.040318,0.005443,0,0.013695,0,1,0,1
24046,2.1014e+07,0.0011454,0.022377,-0.021231,-0.0028662,0,-0.0058652,0,1,0,1
24090,2.1024e+07,0.00078475,-0.027824,0.028609,0.0038622,0,0.01439,0,1,0,1
24131,2.1035e+07,0.00074354,-0.0012284,0.001972,0.00026622,0,-0.0004978,0,1,0,1
24172,2.1044e+07,0.0017308,-0.021581,0.023311,0.003147,0,-0.0015064,0,1,0,1
24213,2.1054e+07,0.0016853,0.025053,-0.023368,-0.0031547,0,-0.012032,0,1,0,1
24250,2.1064e+07,0.001932,-0.0081944,0.010126,0.0013671,0,-0.0010018,0,1,0,1
24295,2.1079e+07,0.0019157,-0.083456,0.085372,0.011525,0,0.028963,0,1,0,1
24336,2.1089e+07,0.002935,-0.022697,0.025632,0.0034603,0,0.0055764,0,1,0,1
24377,2.1099e+07,0.0027575,-0.056903,0.05966,0.0080541,0,0.029691,0,1,0,1
24419,2.1109e+07,0.0029823,-0.050941,0.053923,0.0072797,0,0.022954,0,1,0,1
24464,2.1119e+07,0.0028691,-0.089978,0.092847,0.012534,0,0.03972,0,1,0,1
24504,2.113e+07,0.0029925,-0.012649,0.015642,0.0021116,0,0.0093721,0,1,0,1
24548,2.114e+07,0.0023192,-0.067291,0.06961,0.0093974,0,0.036126,0,1,0,1
24588,2.115e+07,0.001962,-0.036572,0.038534,0.0052021,0,0.019481,0,1,0,1
24629,2.116e+07,0.0026517,-0.06889,0.071542,0.0096582,0,0.024456,0,1,0,1
24666,2.117e+07,0.0020454,-0.014184,0.01623,0.002191,0,0.0074861,0,1,0,1
24707,2.118e+07,0.0020339,-0.043855,0.045889,0.006195,0,0.020102,0,1,0,1
24749,2.119e+07,0.001806,-0.03448,0.036286,0.0048986,0,0.014026,0,1,0,1
24789,2.1201e+07,0.0029546,0.010847,-0.0078927,-0.0010655,0,-0.01336,0,1,0,1
24831,2.121e+07,0.0031031,0.043737,-0.040634,-0.0054856,0,-0.021343,0,1,0,1
24875,2.122e+07,0.0030067,0.030835,-0.027829,-0.0037569,0,-0.017107,0,1,0,1
24916,2.123e+07,0.0031256,0.026095,-0.022969,-0.0031008,0,-0.016856,0,1,0,1
24956,2.124e+07,0.0039495,0.035648,-0.031698,-0.0042793,0,-0.025792,0,1,0,1
24998,2.125e+07,0.0035225,0.046303,-0.04278,-0.0057753,0,-0.018476,0,1,0,1
25039,2.126e+07,0.0031326,0.031941,-0.028809,-0.0038891,0,-0.011832,0,1,0,1
25079,2.1273e+07,0.0031962,-0.029919,0.033115,0.0044706,0,0.012652,0,1,0,1
25121,2.1283e+07,0.0031459,0.023582,-0.020436,-0.0027588,0,-0.0091239,0,1,0,1
25162,2.1293e+07,0.0023577,0.0075411,-0.0051834,-0.00069976,0,0.0054192,0,1,0,1
25203,2.1303e+07,0.0018319,-0.024494,0.026325,0.0035539,0,0.015872,0,1,0,1
25244,2.1313e+07,0.0015737,-0.050807,0.052381,0.0070714,0,0.024906,0,1,0,1
25288,2.1323e+07,0.0015107,-0.014333,0.015844,0.0021389,0,0.0093781,0,1,0,1
25330,2.1334e+07,0.0010443,-0.021595,0.022639,0.0030563,0,0.016778,0,1,0,1
25372,2.1343e+07,0.00076332,-0.054088,0.054852,0.007405,0,0.027412,0,1,0,1
25413,2.1353e+07,0.0011567,-0.061731,0.062887,0.0084898,0,0.026034,0,1,0,1
25456,2.1366e+07,0.0017697,-0.0013742,0.0031439,0.00042443,0,-0.0020367,0,1,0,1
25494,2.1376e+07,0.0014953,-0.009781,0.011276,0.0015223,0,0.0043292,0,1,0,1
25535,2.1386e+07,0.0019434,0.016043,-0.0141,-0.0019035,0,-0.013704,0,1,0,1
25577,2.1396e+07,0.0027261,-0.0038195,0.0065457,0.00088367,0,-0.0087955,0,1,0,1
25618,2.1406e+07,0.0029199,0.02923,-0.02631,-0.0035518,0,-0.015803,0,1,0,1
25658,2.1416e+07,0.003043,0.0012956,0.0017474,0.00023589,0,-0.0027311,0,1,0,1
25703,2.1426e+07,0.0032848,0.016172,-0.012887,-0.0017398,0,-0.0094061,0,1,0,1
25745,2.1436e+07,0.0041042,0.0054263,-0.0013221,-0.00017848,0,-0.0098785,0,1,0,1
25785,2.1446e+07,0.0035372,0.017498,-0.013961,-0.0018848,0,-0.0022626,0,1,0,1
25829,2.1459e+07,0.0032347,0.012559,-0.0093241,-0.0012587,0,-0.0028545,0,1,0,1
25869,2.1469e+07,0.0029444,-0.0072523,0.010197,0.0013766,0,0.0049887,0,1,0,1
25907,2.1479e+07,0.0028963,0.078975,-0.076078,-0.010271,0,-0.029999,0,1,0,1
25951,2.1489e+07,0.0020329,0.0030854,-0.0010525,-0.00014209,0,0.0043165,0,1,0,1
25992,2.1499e+07,0.0011079,0.030574,-0.029467,-0.003978,0,-0.0053477,0,1,0,1
26033,2.1509e+07,0.0010306,-0.034347,0.035378,0.004776,0,0.014118,0,1,0,1
26077,2.1519e+07,0.00056389,0.048635,-0.048071,-0.0064896,0,-0.014759,0,1,0,1
26121,2.153e+07,0.00061768,-0.041487,0.042104,0.0056841,0,0.017021,0,1,0,1
26161,2.1539e+07,5.7808e-05,-0.022889,0.022946,0.0030978,0,0.015163,0,1,0,1
26202,2.1549e+07,0.0010445,-0.047498,0.048542,0.0065532,0,0.012043,0,1,0,1
26243,2.1559e+07,0.0010837,0.013559,-0.012475,-0.0016841,0,-0.0041199,0,1,0,1
26283,2.1569e+07,0.0018469,-0.036062,0.037909,0.0051177,0,0.009274,0,1,0,1
26322,2.1582e+07,0.0016749,-0.067785,0.06946,0.0093771,0,0.025078,0,1,0,1
26363,2.1592e+07,0.0035903,-0.01373,0.01732,0.0023382,0,-0.007418,0,1,0,1
26403,2.1602e+07,0.0035787,-0.045254,0.048833,0.0065925,0,0.018506,0,1,0,1
26445,2.1612e+07,0.0039182,0.062894,-0.058976,-0.0079617,0,-0.029438,0,1,0,1
26492,2.1622e+07,0.0039463,-0.032373,0.036319,0.0049031,0,0.010618,0,1,0,1
26534,2.1633e+07,0.0040017,0.096131,-0.092129,-0.012437,0,-0.041346,0,1,0,1
26574,2.1642e+07,0.0032997,-0.020022,0.023321,0.0031484,0,0.012245,0,1,0,1
26615,2.1652e+07,0.0021182,0.050825,-0.048707,-0.0065754,0,-0.01119,0,1,0,1
26655,2.1662e+07,0.0022783,-0.011703,0.013982,0.0018875,0,0.0046707,0,1,0,1
26693,2.1673e+07,0.0013693,0.018412,-0.017043,-0.0023008,-2.1678e-05,0.00035804,0,1,0,0
26731,2.1683e+07,0.00037387,-0.0072468,0.0076207,0.0010288,-3.1498e-05,0.011733,0,1,0,0
26772,2.1693e+07,0.00026502,0.043496,-0.043231,-0.0058362,-3.9672e-05,-0.01423,0,1,0,0
26813,2.1703e+07,0.0010752,-0.036863,0.037938,0.0051216,9.1252e-06,0.0063264,0,1,0,1
26855,2.1713e+07,0.0011231,-0.098439,0.099563,0.013441,3.9205e-05,0.03683,0,1,0,0
26905,2.1725e+07,0.0011312,-0.12637,0.1275,0.017213,4.1539e-05,0.05612,0,1,0,0
26945,2.1736e+07,0.00040954,0.030135,-0.029725,-0.0040129,-3.0737e-05,-0.0015278,0,1,0,1
26986,2.1745e+07,0.0018492,0.18335,-0.1815,-0.024503,-5.3963e-05,-0.079594,0,1,0,1
27028,2.1756e+07,0.0045248,0.067736,-0.063211,-0.0085335,-1.0315e-05,-0.050892,0,1,0,1
27068,2.1765e+07,0.0054136,-0.22363,0.22905,0.030921,5.7475e-05,0.079758,0,1,0,1
27110,2.1775e+07,0.0025434,-0.31295,0.31549,0.042591,9.6523e-05,0.1554,0,1,0,0
27148,2.1785e+07,0.0023363,-0.034923,0.037259,0.00503,-4.198e-05,0.03654,0,1,0,1
27189,2.1795e+07,0.0026985,0.3226,-0.3199,-0.043186,-0.00010159,-0.13022,0,1,0,1
27230,2.1805e+07,0.0051592,0.26618,-0.26102,-0.035238,-7.4317e-05,-0.13307,0,1,0,1
27271,2.1815e+07,0.00565,-0.013674,0.019324,0.0026088,6.0488e-05,-0.012938,0,1,0,1
27319,2.1826e+07,0.0039273,-0.17414,0.17807,0.02404,1.5798e-05,0.074866,0,1,0,1
27359,2.1836e+07,0.0017681,-0.12819,0.12996,0.017544,1.8064e-05,0.074116,0,1,0,0
27401,2.1846e+07,0.00038629,-0.011239,0.011626,0.0015695,-1.5182e-05,0.02596,0,1,0,1
27441,2.1855e+07,0.00045464,-0.0080929,0.0085475,0.0011539,-1.1062e-05,0.011244,0,1,0,0
27482,2.1865e+07,0.0003411,-0.04753,0.047871,0.0064626,-4.1483e-06,0.023759,0,1,0,0
27523,2.1876e+07,-8.1787e-06,-0.034101,0.034093,0.0046026,-8.6879e-06,0.019472,0,1,0,1
27560,2.1886e+07,0.00025325,0.10708,-0.10683,-0.014422,-9.8627e-06,-0.037289,0,1,0,1
27602,2.1896e+07,0.00093749,0.17338,-0.17244,-0.02328,-4.7549e-05,-0.073239,0,1,0,1
27643,2.1906e+07,0.0029165,0.091837,-0.08892,-0.012004,-5.7756e-06,-0.058758,0,1,0,1
27683,2.1916e+07,0.0040299,-0.12379,0.12782,0.017255,7.3965e-05,0.031057,0,1,0,1
27731,2.1926e+07,0.0035228,-0.2135,0.21702,0.029298,6.4451e-05,0.084125,0,1,0,1
27771,2.1936e+07,0.0023167,-0.065662,0.067979,0.0091771,-2.1333e-06,0.039448,0,1,0,1
27812,2.1946e+07,0.0018075,0.10323,-0.10143,-0.013693,-7.6613e-06,-0.030345,0,1,0,1
27853,2.1956e+07,0.0016378,0.18509,-0.18345,-0.024765,-3.1534e-06,-0.06871,0,1,0,1
27891,2.1968e+07,0.00036286,0.064334,-0.063971,-0.0086361,-1.1115e-05,-0.012031,0,1,0,1
27931,2.1979e+07,-0.00044333,0.10606,-0.10651,-0.014378,-3.8626e-05,-0.037231,0,1,0,0
27974,2.1989e+07,-0.00094355,0.049672,-0.050616,-0.0068331,-1.4494e-05,-0.017406,0,1,0,1
28015,2.1999e+07,-0.0015403,0.097873,-0.099414,-0.013421,-6.6725e-06,-0.036183,0,1,0,1
28056,2.2009e+07,-0.0017191,0.061047,-0.062766,-0.0084735,-6.2391e-06,-0.026308,0,1,0,1
28097,2.2019e+07,-0.00076035,-0.012272,0.011511,0.001554,1.5238e-05,-0.0094209,0,1,0,1
28142,2.2029e+07,-0.0001835,-0.15556,0.15538,0.020976,2.0843e-05,0.051307,0,1,0,1
28183,2.2039e+07,0.00089222,-0.15558,0.15648,0.021124,9.972e-06,0.050471,0,1,0,1
28223,2.2049e+07,0.0013575,-0.10511,0.10647,0.014373,1.2441e-05,0.040613,0,1,0,1
28265,2.2059e+07,0.0027489,-0.017597,0.020346,0.0027467,6.2848e-06,-0.001074,0,1,0,1
28303,2.2069e+07,0.0037422,0.016975,-0.013233,-0.0017865,1.434e-05,-0.011771,0,1,0,1
28343,2.2079e+07,0.0044868,-0.02102,0.025507,0.0034434,2.1954e-05,0.003843,0,1,0,0
28381,2.2089e+07,0.0036385,0.027738,-0.0241,-0.0032535,-3.4234e-05,-0.00012172,0,1,0,0
28421,2.21e+07,0.0029208,-0.035881,0.038802,0.0052383,-1.9386e-06,0.024419,0,1,0,1
28463,2.211e+07,0.0022769,0.068572,-0.066295,-0.0089499,-2.2999e-05,-0.014625,0,1,0,1
28503,2.212e+07,0.001995,0.094025,-0.09203,-0.012424,-5.682e-06,-0.03053,0,1,0,1
28552,2.213e+07,0.0017517,0.099595,-0.097843,-0.013209,-3.5588e-05,-0.037684,0,1,0,0
28598,2.214e+07,0.0012899,-0.010393,0.011683,0.0015772,-4.9181e-06,0.0053627,0,1,0,1
28642,2.215e+07,0.00034484,-0.027966,0.028311,0.003822,-1.2036e-05,0.016821,0,1,0,0
28687,2.2163e+07,-6.4253e-05,-0.050512,0.050448,0.0068104,7.8085e-06,0.019896,0,1,0,1
28734,2.2176e+07,0.00034279,-0.054881,0.055224,0.0074553,2.9429e-05,0.01755,0,1,0,0
28779,2.2186e+07,0.0011539,-0.099539,0.10069,0.013593,6.4248e-05,0.033002,0,1,0,0
28825,2.2196e+07,0.001627,-0.042272,0.043899,0.0059264,3.9481e-05,0.01708,0,1,0,0
28866,2.2207e+07,0.0022901,0.046279,-0.043989,-0.0059385,3.0351e-05,-0.018097,0,1,0,1
28911,2.2217e+07,0.0030354,0.1114,-0.10836,-0.014629,1.2314e-05,-0.049901,0,1,0,0
28960,2.2227e+07,0.0041862,0.0021238,0.0020625,0.00027843,3.35e-05,-0.013856,0,1,0,1
29005,2.2237e+07,0.0046466,-0.11655,0.12119,0.016361,3.706e-05,0.038231,0,1,0,1
29051,2.2247e+07,0.0041633,-0.16929,0.17345,0.023416,2.543e-05,0.072615,0,1,0,1
29095,2.2258e+07,0.003274,-0.10001,0.10329,0.013944,1.0549e-05,0.052596,0,1,0,1
29140,2.2268e+07,0.0024715,0.080586,-0.078114,-0.010545,-5.8108e-05,-0.01751,0,1,0,1
29178,2.2278e+07,0.0035515,0.12218,-0.11863,-0.016015,-2.9067e-05,-0.049494,0,1,0,1
29226,2.2291e+07,0.0028309,0.080591,-0.07776,-0.010498,-1.7279e-05,-0.029994,0,1,0,1
29270,2.2301e+07,0.0037336,0.056827,-0.053093,-0.0071676,1.5068e-05,-0.031919,0,1,0,1
29315,2.2311e+07,0.0034097,-0.025362,0.028772,0.0038842,1.3461e-05,0.0071463,0,1,0,1
29360,2.2321e+07,0.0025961,-0.056709,0.059305,0.0080061,8.7623e-06,0.028151,0,1,0,0
29409,2.2332e+07,0.00162,0.069021,-0.067401,-0.0090992,-9.7968e-07,-0.017257,0,1,0,1
29457,2.2342e+07,0.0020852,0.13544,-0.13335,-0.018003,-2.6869e-05,-0.056006,0,1,0,1
29501,2.2352e+07,0.0033705,0.027026,-0.023656,-0.0031935,5.2318e-06,-0.02634,0,1,0,1
29546,2.2362e+07,0.0040822,-0.18232,0.1864,0.025164,1.5638e-05,0.060062,0,1,0,1
29588,2.2372e+07,0.0034742,-0.19473,0.1982,0.026757,5.8759e-05,0.081196,0,1,0,0
29632,2.2383e+07,0.0020492,-0.087107,0.089156,0.012036,2.6514e-05,0.054121,0,1,0,0
29674,2.2393e+07,0.0020573,0.083603,-0.081546,-0.011009,1.6303e-06,-0.022464,0,1,0,0
29718,2.2402e+07,0.003181,0.079612,-0.076431,-0.010318,2.6299e-05,-0.036897,0,1,0,0
29766,2.2415e+07,0.003544,0.049124,-0.04558,-0.0061533,4.6228e-05,-0.031252,0,1,0,0
29811,2.2425e+07,0.0035934,-0.15675,0.16034,0.021646,4.603e-05,0.055164,0,1,0,1
29860,2.2435e+07,0.0024464,-0.2547,0.25715,0.034715,2.2326e-05,0.10741,0,1,0,0
29905,2.2446e+07,0.0013096,-0.13573,0.13704,0.018501,-3.7609e-05,0.070597,0,1,0,0
29949,2.2455e+07,0.00053804,0.12717,-0.12663,-0.017096,-9.0332e-05,-0.041315,0,1,0,0
29991,2.2465e+07,0.0014795,0.21211,-0.21063,-0.028434,-7.9818e-05,-0.09428,0,1,0,0
30035,2.2477e+07,-0.0012709,0.17682,-0.17809,-0.024043,-0.00010439,-0.07659,0,1,0,0
30083,2.2488e+07,0.00049704,-0.061738,0.062235,0.0084017,-4.4512e-05,0.016255,0,1,0,0
30128,2.2498e+07,0.00063397,-0.19192,0.19256,0.025995,-3.839e-05,0.080937,0,1,0,0
30172,2.2509e+07,-3.8414e-05,-0.20328,0.20324,0.027438,-5.6247e-05,0.095616,0,1,0,0
30218,2.2519e+07,0.00062037,0.029447,-0.028827,-0.0038916,-7.9771e-05,-0.0065876,0,1,0,0
30267,2.2529e+07,0.0028284,0.064888,-0.06206,-0.0083781,-2.4287e-06,-0.044591,0,1,0,0
30313,2.2539e+07,0.0041361,0.0057485,-0.0016124,-0.00021767,4.0924e-05,-0.020386,0,1,0,0
30358,2.255e+07,0.0047511,-0.041772,0.046523,0.0062806,8.1346e-05,0.0012313,0,1,0,0
30402,2.2559e+07,0.003153,-0.046457,0.04961,0.0066974,2.0206e-05,0.032096,0,1,0,0
30447,2.2572e+07,0.0025762,-0.078725,0.081302,0.010976,3.6688e-05,0.038467,0,1,0,0
30491,2.2583e+07,0.0037133,-6.3641e-05,0.0037769,0.00050989,5.4792e-05,-0.0022828,0,1,0,0
30535,2.2593e+07,0.0054713,0.096836,-0.091365,-0.012334,0.00010865,-0.050465,0,1,0,0
30580,2.2603e+07,0.007083,0.009699,-0.0026161,-0.00035317,0.00017117,-0.01545,0,1,0,0
30624,2.2613e+07,0.0066433,-0.026623,0.033266,0.004491,0.00014627,0.014833,0,1,0,0
30670,2.2624e+07,0.0059085,-0.035726,0.041634,0.0056206,0.00012691,0.02103,0,1,0,0
30720,2.2634e+07,0.0048612,0.0065427,-0.0016815,-0.000227,0.00010289,0.0054985,0,1,0,0
30764,2.2644e+07,0.0045307,0.082795,-0.078265,-0.010566,9.1772e-05,-0.028268,0,1,0,0
30809,2.2654e+07,0.0037716,0.014988,-0.011217,-0.0015143,7.539e-05,0.00096739,0,1,0,0
30853,2.2664e+07,0.0017258,0.0070676,-0.0053418,-0.00072114,8.2689e-06,0.013382,0,1,0,0
30898,2.2676e+07,-4.767e-05,0.04297,-0.043017,-0.0058074,-4.4734e-05,-0.0028333,0,1,0,0
30941,2.2687e+07,-0.0001567,0.029035,-0.029191,-0.0039408,-3.1072e-05,-0.01225,0,1,0,0
30986,2.2697e+07,-0.00025581,-0.14157,0.14131,0.019077,-2.3958e-06,0.054793,0,1,0,0
31031,2.2707e+07,-0.00064611,-0.011755,0.011109,0.0014997,-3.4082e-05,0.010365,0,1,0,0
31075,2.2717e+07,0.0013076,0.15967,-0.15836,-0.021379,1.9266e-05,-0.078169,0,1,0,0
31126,2.273e+07,0.0029985,0.17872,-0.17572,-0.023723,7.0769e-05,-0.093193,0,1,0,0
31174,2.274e+07,0.0054234,-0.098391,0.10381,0.014015,0.00022543,0.0041907,0,1,0,0
31219,2.275e+07,0.0057481,-0.24631,0.25206,0.034027,0.00025882,0.085278,0,1,0,0
31263,2.276e+07,0.0041232,-0.20243,0.20655,0.027885,0.00018941,0.095298,0,1,0,0
31308,2.2771e+07,0.0027009,0.10509,-0.10238,-0.013822,0.00010209,-0.019517,0,1,0,0
31347,2.2781e+07,0.0084528,0.24841,-0.23996,-0.032394,0.00010557,-0.090331,0,1,0,0
31391,2.2792e+07,0.0048063,0.23038,-0.22558,-0.030453,0.00016172,-0.10588,0,1,0,0
31436,2.2802e+07,0.0015206,0.1028,-0.10128,-0.013673,0.00013283,-0.044499,0,1,0,0
31483,2.2812e+07,-0.0029211,-0.096026,0.093105,0.012569,1.741e-05,0.064556,0,1,0,0
31528,2.2822e+07,-0.0076752,-0.12469,0.11701,0.015797,-0.00011512,0.090683,0,1,0,0
31572,2.2832e+07,-0.010012,-0.0012038,-0.0088085,-0.0011891,-0.00017809,0.026218,0,1,0,0
31623,2.2843e+07,-0.010175,0.064953,-0.075128,-0.010142,-0.00018658,-0.019315,0,1,0,0
31668,2.2853e+07,-0.010321,0.034497,-0.044818,-0.0060504,-0.00020164,-0.010035,0,1,0,0
31713,2.2863e+07,-0.011262,-0.0043539,-0.0069084,-0.00093263,-0.00024515,0.01104,0,1,0,0
31758,2.2873e+07,-0.011264,0.012186,-0.02345,-0.0031658,-0.00025003,-0.0031869,0,1,0,0
31799,2.2884e+07,-0.00992,0.037771,-0.047691,-0.0064382,-0.00022611,-0.0212,0,1,0,0
31844,2.2894e+07,-0.0092473,0.069362,-0.078609,-0.010612,-0.00021112,-0.035572,0,1,0,0
31886,2.2904e+07,-0.0088683,0.061114,-0.069982,-0.0094476,-0.00021542,-0.02883,0,1,0,0
31931,2.2915e+07,-0.0091591,0.020491,-0.02965,-0.0040028,-0.00023015,-0.0077471,0,1,0,0
31977,2.2925e+07,-0.0091799,0.051308,-0.060488,-0.0081658,-0.0002504,-0.019138,0,1,0,0
32023,2.2935e+07,-0.009533,0.053649,-0.063182,-0.0085295,-0.00028005,-0.016575,0,1,0,0
32072,2.2945e+07,-0.0098427,0.092339,-0.10218,-0.013794,-0.00032091,-0.031292,0,1,0,0
32116,2.2955e+07,-0.011825,0.10369,-0.11552,-0.015595,-0.00040863,-0.025179,0,1,0,0
32161,2.2965e+07,-0.013893,0.089391,-0.10328,-0.013943,-0.0004844,-0.019186,0,1,0,0
32207,2.2975e+07,-0.017251,0.096929,-0.11418,-0.015414,-0.00062323,-0.0095373,0,1,0,0
32247,2.2986e+07,-0.019652,0.0677,-0.087352,-0.011793,-0.00073138,8.9706e-05,0,1,0,0
32293,2.2996e+07,-0.024049,0.093669,-0.11772,-0.015892,-0.00088344,-0.0052376,0,1,0,0
32337,2.3006e+07,-0.028952,0.12232,-0.15128,-0.020422,-0.0010831,-0.0071755,0,1,0,0
32383,2.3017e+07,-0.034494,0.15499,-0.18948,-0.02558,-0.0013154,-0.012901,0,1,0,0
32427,2.3026e+07,-0.041545,0.17682,-0.21836,-0.029479,-0.0015773,-0.015031,0,1,0,0
32472,2.3036e+07,-0.048154,0.16963,-0.21778,-0.0294,-0.001839,-0.011144,0,1,0,0
32520,2.3046e+07,-0.055627,0.16451,-0.22013,-0.029718,-0.0021418,-0.0014099,0,1,0,0
32566,2.3057e+07,-0.062798,0.12466,-0.18746,-0.025307,-0.0024284,0.012327,0,1,0,0
32611,2.3067e+07,-0.068676,0.079203,-0.14788,-0.019964,-0.002672,0.017612,0,1,0,0
32655,2.3081e+07,-0.076938,0.17121,-0.24815,-0.0335,-0.0030523,-0.015795,0,1,0,0
32700,2.3091e+07,-0.08445,0.16273,-0.24718,-0.03337,-0.0033655,-0.0075002,0,1,0,0
32743,2.3102e+07,-0.090266,0.046634,-0.1369,-0.018481,-0.00364,0.034875,0,1,0,0
32787,2.3112e+07,-0.09466,0.018229,-0.11289,-0.01524,-0.0038564,0.026803,0,1,0,0
32834,2.3122e+07,-0.097673,0.061446,-0.15912,-0.021481,-0.0040543,-0.0038788,0,1,0,0
32878,2.3132e+07,-0.10059,0.11418,-0.21477,-0.028994,-0.0042769,-0.024446,0,1,0,0
32932,2.3144e+07,-0.10403,-0.0030828,-0.10095,-0.013628,-0.0045385,0.026399,0,1,0,0
32977,2.3155e+07,-0.10605,-0.023709,-0.08234,-0.011116,-0.0047338,0.028617,0,1,0,0
33021,2.3165e+07,-0.10758,0.018537,-0.12612,-0.017026,-0.0049262,0.0057783,0,1,0,0
33066,2.3175e+07,-0.10921,0.10435,-0.21356,-0.02883,-0.0051397,-0.028138,0,1,0,0
33108,2.3188e+07,-0.11203,0.055145,-0.16718,-0.022569,-0.0054155,0.0011474,0,1,0,0
33153,2.3199e+07,-0.11458,0.045365,-0.15995,-0.021593,-0.0056548,0.0059993,0,1,0,0
33197,2.3209e+07,-0.11701,0.035006,-0.15201,-0.020522,-0.0058758,0.0042933,0,1,0,0
33242,2.3219e+07,-0.1196,0.1073,-0.2269,-0.030632,-0.0061233,-0.023624,0,1,0,0
33288,2.3229e+07,-0.12369,0.11241,-0.2361,-0.031873,-0.0064271,-0.010677,0,1,0,0
33333,2.3239e+07,-0.14158,0.098881,-0.24046,-0.032463,-0.0067021,-0.01296,0,1,0,0
33382,2.325e+07,-0.18447,0.027938,-0.21241,-0.028675,-0.0069838,-0.00014962,0,1,0,0
33426,2.3259e+07,-0.19641,-0.030648,-0.16576,-0.022378,-0.0072546,0.015813,0,1,0,0
33472,2.3269e+07,-0.19881,-0.050053,-0.14875,-0.020082,-0.0075148,0.018836,0,1,0,0
33517,2.3279e+07,-0.19716,-0.013393,-0.18376,-0.024808,-0.0077294,-0.007698,0,1,0,0
