LineNo,TimeUS,Lat,Lng,Alt,RelHomeAlt,RelOriginAlt
208,1.5038e+07,43.601,13.482,86.31,-0.10738,-0.99555
311,1.5072e+07,43.601,13.482,86.31,-0.10738,-0.84452
653,1.5134e+07,43.601,13.482,86.24,-0.10738,-0.71129
766,1.515e+07,43.601,13.482,86.24,-0.22606,-0.66999
879,1.5165e+07,43.601,13.482,86.24,-0.22606,-0.63049
992,1.5183e+07,43.601,13.482,86.24,-0.22606,-0.59258
1223,1.5261e+07,43.601,13.482,86.24,-0.22606,-0.48316
1607,1.5416e+07,43.601,13.482,86.17,-0.13563,-0.24298
1685,1.5427e+07,43.601,13.482,86.17,-0.13563,-0.21541
1727,1.5437e+07,43.601,13.482,86.17,-0.13563,-0.18948
1767,1.5447e+07,43.601,13.482,86.17,-0.13563,-0.16469
1808,1.5461e+07,43.601,13.482,86.17,-0.13563,-0.13986
1851,1.5473e+07,43.601,13.482,86.17,-0.13563,-0.11611
1893,1.5484e+07,43.601,13.482,86.17,-0.13563,-0.094735
1938,1.5493e+07,43.601,13.482,86.17,-0.23736,-0.089986
1978,1.5503e+07,43.601,13.482,86.17,-0.23736,-0.069434
2019,1.5513e+07,43.601,13.482,86.17,-0.23736,-0.049771
2062,1.5524e+07,43.601,13.482,86.17,-0.23736,-0.030917
2106,1.5539e+07,43.601,13.482,86.17,-0.23736,-0.010561
2150,1.5549e+07,43.601,13.482,86.1,-0.23736,0.0061874
2190,1.5559e+07,43.601,13.482,86.1,-0.23736,0.022253
2231,1.5569e+07,43.601,13.482,86.1,-0.23736,0.02702
2272,1.5579e+07,43.601,13.482,86.1,-0.23736,0.042524
2316,1.5589e+07,43.601,13.482,86.1,-0.23736,0.057432
2358,1.5599e+07,43.601,13.482,86.1,-0.22041,0.071748
2399,1.5609e+07,43.601,13.482,86.1,-0.22041,0.08553
2443,1.5619e+07,43.601,13.482,86.1,-0.22041,0.0903
2483,1.5629e+07,43.601,13.482,86.1,-0.22041,0.10355
2521,1.564e+07,43.601,13.482,86.1,-0.22041,0.1157
2564,1.565e+07,43.601,13.482,86.1,-0.22041,0.12786
2604,1.566e+07,43.601,13.482,86.1,-0.22041,0.13912
2645,1.567e+07,43.601,13.482,86.1,-0.22041,0.14388
2685,1.568e+07,43.601,13.482,86.1,-0.22041,0.1548
2730,1.569e+07,43.601,13.482,86.1,-0.22041,0.16535
2771,1.57e+07,43.601,13.482,86.1,0.096074,0.17553
2812,1.571e+07,43.601,13.482,86.1,0.096074,0.18539
2853,1.572e+07,43.601,13.482,86.1,0.096074,0.19014
2893,1.573e+07,43.601,13.482,86.1,0.096074,0.19968
2935,1.574e+07,43.601,13.482,86.1,0.096074,0.20888
2977,1.575e+07,43.601,13.482,86.01,0.096074,0.21779
3016,1.576e+07,43.601,13.482,86.01,0.096074,0.22689
3058,1.577e+07,43.601,13.482,86.01,0.096074,0.23526
3098,1.578e+07,43.601,13.482,86.01,0.096074,0.24
3144,1.579e+07,43.601,13.482,86.01,0.096074,0.24814
3186,1.58e+07,43.601,13.482,86.01,-0.096074,0.25604
3227,1.581e+07,43.601,13.482,86.01,-0.096074,0.26327
3268,1.5821e+07,43.601,13.482,86.01,-0.096074,0.27076
3310,1.5833e+07,43.601,13.482,86.01,-0.096074,0.27937
3347,1.5844e+07,43.601,13.482,86.01,-0.096074,0.28639
3389,1.5854e+07,43.601,13.482,86.01,-0.096074,0.29278
3430,1.5864e+07,43.601,13.482,86.01,-0.096074,0.29752
3470,1.5874e+07,43.601,13.482,86.01,-0.096074,0.30378
3511,1.5884e+07,43.601,13.482,86.01,-0.096074,0.30991
3555,1.5894e+07,43.601,13.482,86.01,-0.016954,0.31591
3596,1.5904e+07,43.601,13.482,86.01,-0.016954,0.32181
3638,1.5914e+07,43.601,13.482,86.01,-0.016954,0.32655
3680,1.5924e+07,43.601,13.482,86.01,-0.016954,0.33233
3718,1.5934e+07,43.601,13.482,85.95,-0.016954,0.33754
3755,1.5945e+07,43.601,13.482,85.95,-0.016954,0.34269
3797,1.5955e+07,43.601,13.482,85.95,-0.016954,0.34823
3838,1.5965e+07,43.601,13.482,85.95,-0.016954,0.35295
3878,1.5975e+07,43.601,13.482,85.95,-0.016954,0.35792
3919,1.5985e+07,43.601,13.482,85.95,-0.016954,0.36284
3963,1.5995e+07,43.601,13.482,85.95,0.22041,0.36768
4004,1.6005e+07,43.601,13.482,85.95,0.22041,0.37248
4047,1.6015e+07,43.601,13.482,85.95,0.22041,0.37719
4088,1.6025e+07,43.601,13.482,85.95,0.22041,0.38192
4129,1.6035e+07,43.601,13.482,85.95,0.22041,0.3866
4166,1.6045e+07,43.601,13.482,85.95,0.22041,0.3912
4208,1.6055e+07,43.601,13.482,85.95,0.22041,0.39575
4252,1.6067e+07,43.601,13.482,85.95,0.22041,0.40119
4294,1.6078e+07,43.601,13.482,85.95,0.22041,0.40611
4334,1.6088e+07,43.601,13.482,85.95,0.22041,0.4108
4379,1.6097e+07,43.601,13.482,85.95,0.35321,0.41521
4420,1.6108e+07,43.601,13.482,85.95,0.35321,0.41959
4460,1.6118e+07,43.601,13.482,85.95,0.35321,0.42393
4506,1.6133e+07,43.601,13.482,85.89,0.35321,0.43079
4549,1.6145e+07,43.601,13.482,85.89,0.35321,0.43669
4589,1.6156e+07,43.601,13.482,85.89,0.35321,0.44114
4630,1.6166e+07,43.601,13.482,85.89,0.35321,0.44556
4672,1.6176e+07,43.601,13.482,85.89,0.35321,0.45025
4712,1.6186e+07,43.601,13.482,85.89,0.35321,0.45464
4757,1.6196e+07,43.601,13.482,85.89,0.19497,0.45901
4797,1.6206e+07,43.601,13.482,85.89,0.19497,0.46335
4839,1.6216e+07,43.601,13.482,85.89,0.19497,0.46768
4879,1.6226e+07,43.601,13.482,85.89,0.19497,0.47238
4920,1.6236e+07,43.601,13.482,85.89,0.19497,0.47668
4958,1.6246e+07,43.601,13.482,85.89,0.19497,0.48064
4995,1.6256e+07,43.601,13.482,85.89,0.19497,0.48461
5037,1.6266e+07,43.601,13.482,85.89,0.19497,0.48932
5079,1.6276e+07,43.601,13.482,85.89,0.19497,0.49327
5119,1.6286e+07,43.601,13.482,85.89,0.19497,0.4972
5164,1.6296e+07,43.601,13.482,85.89,0.11868,0.50113
5205,1.6306e+07,43.601,13.482,85.89,0.11868,0.50506
5246,1.6316e+07,43.601,13.482,85.89,0.11868,0.50898
5286,1.6326e+07,43.601,13.482,85.89,0.11868,0.51368
5329,1.6338e+07,43.601,13.482,85.81,0.11868,0.51854
5366,1.6348e+07,43.601,13.482,85.81,0.11868,0.52184
5411,1.636e+07,43.601,13.482,85.81,0.11868,0.52658
5452,1.6371e+07,43.601,13.482,85.81,0.11868,0.52992
5492,1.6381e+07,43.601,13.482,85.81,0.11868,0.5333
5534,1.6391e+07,43.601,13.482,85.81,0.11868,0.53799
5578,1.6401e+07,43.601,13.482,85.81,0,0.54138
5620,1.6411e+07,43.601,13.482,85.81,0,0.54478
5661,1.6421e+07,43.601,13.482,85.81,0,0.5482
5701,1.6431e+07,43.601,13.482,85.81,0,0.55163
5736,1.6441e+07,43.601,13.482,85.81,0,0.55403
5777,1.6452e+07,43.601,13.482,85.81,0,0.55649
5818,1.6462e+07,43.601,13.482,85.81,0,0.55947
5858,1.6472e+07,43.601,13.482,85.81,0,0.56414
5900,1.6481e+07,43.601,13.482,85.81,0,0.5667
5942,1.6492e+07,43.601,13.482,85.81,0,0.56932
5986,1.6502e+07,43.601,13.482,85.81,0.22606,0.57199
6029,1.6512e+07,43.601,13.482,85.81,0.22606,0.5747
6069,1.6522e+07,43.601,13.482,85.81,0.22606,0.57934
6113,1.6533e+07,43.601,13.482,85.81,0.22606,0.5821
6150,1.6543e+07,43.601,13.482,85.74,0.22606,0.58485
6190,1.6553e+07,43.601,13.482,85.74,0.22606,0.58719
6230,1.6563e+07,43.601,13.482,85.74,0.22606,0.5896
6271,1.6573e+07,43.601,13.482,85.74,0.22606,0.59421
6312,1.6583e+07,43.601,13.482,85.74,0.22606,0.59668
6353,1.6593e+07,43.601,13.482,85.74,0.22606,0.5992
6401,1.6603e+07,43.601,13.482,85.74,0.11868,0.60177
6443,1.6614e+07,43.601,13.482,85.74,0.11868,0.60637
6484,1.6623e+07,43.601,13.482,85.74,0.11868,0.609
6525,1.6633e+07,43.601,13.482,85.74,0.11868,0.61168
6563,1.6646e+07,43.601,13.482,85.74,0.11868,0.61486
6604,1.6656e+07,43.601,13.482,85.74,0.11868,0.61675
6644,1.6666e+07,43.601,13.482,85.74,0.11868,0.61871
6686,1.6676e+07,43.601,13.482,85.74,0.11868,0.62075
6726,1.6685e+07,43.601,13.482,85.74,0.11868,0.62531
6771,1.6696e+07,43.601,13.482,85.74,0.11868,0.62742
6813,1.6705e+07,43.601,13.482,85.74,-0.15824,0.6296
6854,1.6716e+07,43.601,13.482,85.74,-0.15824,0.63185
6895,1.6726e+07,43.601,13.482,85.74,-0.15824,0.63639
6937,1.6735e+07,43.601,13.482,85.69,-0.15824,0.6387
6972,1.6746e+07,43.601,13.482,85.69,-0.15824,0.63968
7012,1.6756e+07,43.601,13.482,85.69,-0.15824,0.64123
7053,1.6766e+07,43.601,13.482,85.69,-0.15824,0.64575
7094,1.6776e+07,43.601,13.482,85.69,-0.15824,0.64695
7135,1.6786e+07,43.601,13.482,85.69,-0.15824,0.64825
7182,1.6797e+07,43.601,13.482,85.69,-0.15824,0.64967
7223,1.6806e+07,43.601,13.482,85.69,-0.31648,0.65416
7265,1.6816e+07,43.601,13.482,85.69,-0.31648,0.65566
7306,1.6826e+07,43.601,13.482,85.69,-0.31648,0.65725
7346,1.6836e+07,43.601,13.482,85.69,-0.31648,0.65893
7387,1.6846e+07,43.601,13.482,85.69,-0.31648,0.6634
7424,1.6856e+07,43.601,13.482,85.69,-0.31648,0.66416
7465,1.6866e+07,43.601,13.482,85.69,-0.31648,0.66461
7507,1.6877e+07,43.601,13.482,85.69,-0.31648,0.66519
7547,1.6887e+07,43.601,13.482,85.69,-0.31648,0.6659
7591,1.6897e+07,43.601,13.482,85.69,-0.31648,0.67032
7633,1.6907e+07,43.601,13.482,85.69,-0.42951,0.67114
7675,1.6917e+07,43.601,13.482,85.69,-0.42951,0.67207
7716,1.6927e+07,43.601,13.482,85.69,-0.42951,0.67312
7758,1.694e+07,43.601,13.482,85.64,-0.42951,0.67414
7799,1.695e+07,43.601,13.482,85.64,-0.42951,0.674
7836,1.696e+07,43.601,13.482,85.64,-0.42951,0.67836
7878,1.697e+07,43.601,13.482,85.64,-0.42951,0.67836
7918,1.698e+07,43.601,13.482,85.64,-0.42951,0.67851
7959,1.699e+07,43.601,13.482,85.64,-0.42951,0.6788
8005,1.7e+07,43.601,13.482,85.64,-0.31083,0.67923
8049,1.701e+07,43.601,13.482,85.64,-0.31083,0.68354
8090,1.702e+07,43.601,13.482,85.64,-0.31083,0.68409
8130,1.703e+07,43.601,13.482,85.64,-0.31083,0.68477
8168,1.704e+07,43.601,13.482,85.64,-0.31083,0.6841
8205,1.7051e+07,43.601,13.482,85.64,-0.31083,0.68361
8246,1.7061e+07,43.601,13.482,85.64,-0.31083,0.68372
8286,1.7071e+07,43.601,13.482,85.64,-0.31083,0.68797
8328,1.7081e+07,43.601,13.482,85.64,-0.31083,0.6878
8370,1.7091e+07,43.601,13.482,85.64,-0.31083,0.68778
8414,1.7101e+07,43.601,13.482,85.64,0.14694,0.6879
8455,1.7111e+07,43.601,13.482,85.64,0.14694,0.69212
8497,1.7121e+07,43.601,13.482,85.64,0.14694,0.69238
8538,1.7131e+07,43.601,13.482,85.64,0.14694,0.69277
8578,1.7141e+07,43.601,13.482,85.59,0.14694,0.69215
8618,1.7153e+07,43.601,13.482,85.59,0.14694,0.69253
8659,1.7164e+07,43.601,13.482,85.59,0.14694,0.69224
8699,1.7173e+07,43.601,13.482,85.59,0.14694,0.69638
8740,1.7183e+07,43.601,13.482,85.59,0.14694,0.69625
8781,1.7193e+07,43.601,13.482,85.59,0.14694,0.69628
8825,1.7204e+07,43.601,13.482,85.59,0.44929,0.69645
8866,1.7214e+07,43.601,13.482,85.59,0.44929,0.69677
8906,1.7224e+07,43.601,13.482,85.59,0.44929,0.69761
8948,1.7233e+07,43.601,13.482,85.59,0.44929,0.7017
8985,1.7244e+07,43.601,13.482,85.59,0.44929,0.70196
9023,1.7254e+07,43.601,13.482,85.59,0.44929,0.70235
9064,1.7264e+07,43.601,13.482,85.59,0.44929,0.70287
9104,1.7274e+07,43.601,13.482,85.59,0.44929,0.70692
9145,1.7284e+07,43.601,13.482,85.59,0.44929,0.70756
9185,1.7294e+07,43.601,13.482,85.59,0.44929,0.70833
9230,1.7304e+07,43.601,13.482,85.59,0.0028257,0.70921
9265,1.7334e+07,43.601,13.482,85.59,0.0028257,0.71533
9308,1.7344e+07,43.601,13.482,85.53,0.0028257,0.7165
9345,1.7354e+07,43.601,13.482,85.53,0.0028257,0.71628
9383,1.7364e+07,43.601,13.482,85.53,0.0028257,0.72028
9424,1.7374e+07,43.601,13.482,85.53,0.0028257,0.72018
9464,1.7384e+07,43.601,13.482,85.53,0.0028257,0.72024
9506,1.7394e+07,43.601,13.482,85.53,0.0028257,0.72044
9550,1.7404e+07,43.601,13.482,85.53,-0.067817,0.72077
9591,1.7414e+07,43.601,13.482,85.53,-0.067817,0.72473
9631,1.7424e+07,43.601,13.482,85.53,-0.067817,0.7252
9674,1.7434e+07,43.601,13.482,85.53,-0.067817,0.72577
9715,1.7444e+07,43.601,13.482,85.53,-0.067817,0.72971
9752,1.7454e+07,43.601,13.482,85.53,-0.067817,0.72884
9794,1.7466e+07,43.601,13.482,85.53,-0.067817,0.72933
9835,1.7477e+07,43.601,13.482,85.53,-0.067817,0.72841
9875,1.7487e+07,43.601,13.482,85.53,-0.067817,0.72846
9916,1.7497e+07,43.601,13.482,85.53,-0.067817,0.72824
9962,1.7507e+07,43.601,13.482,85.53,-0.1978,0.73213
10004,1.7517e+07,43.601,13.482,85.53,-0.1978,0.73205
10044,1.7526e+07,43.601,13.482,85.53,-0.1978,0.73216
10085,1.7537e+07,43.601,13.482,85.53,-0.1978,0.73237
10124,1.7547e+07,43.601,13.482,85.47,-0.1978,0.73623
10163,1.7557e+07,43.601,13.482,85.47,-0.1978,0.73499
10204,1.7567e+07,43.601,13.482,85.47,-0.1978,0.73399
10244,1.7577e+07,43.601,13.482,85.47,-0.1978,0.73313
10286,1.7587e+07,43.601,13.482,85.47,-0.1978,0.73249
10326,1.7597e+07,43.601,13.482,85.47,-0.1978,0.73197
10372,1.7607e+07,43.601,13.482,85.47,-0.12433,0.73575
10413,1.7617e+07,43.601,13.482,85.47,-0.12433,0.73538
10453,1.7627e+07,43.601,13.482,85.47,-0.12433,0.7352
10495,1.7637e+07,43.601,13.482,85.47,-0.12433,0.73551
10532,1.765e+07,43.601,13.482,85.47,-0.12433,0.73518
10574,1.766e+07,43.601,13.482,85.47,-0.12433,0.73389
10616,1.767e+07,43.601,13.482,85.47,-0.12433,0.73283
10657,1.768e+07,43.601,13.482,85.47,-0.12433,0.7365
10698,1.769e+07,43.601,13.482,85.47,-0.12433,0.73561
10741,1.77e+07,43.601,13.482,85.47,-0.12433,0.73484
10784,1.7711e+07,43.601,13.482,85.47,-0.1978,0.73464
10824,1.7721e+07,43.601,13.482,85.47,-0.1978,0.73828
10865,1.7731e+07,43.601,13.482,85.47,-0.1978,0.73787
10908,1.7741e+07,43.601,13.482,85.47,-0.1978,0.73757
10948,1.7753e+07,43.601,13.482,85.42,-0.1978,0.737
10991,1.7764e+07,43.601,13.482,85.42,-0.1978,0.73515
11031,1.7774e+07,43.601,13.482,85.42,-0.1978,0.73913
11072,1.7784e+07,43.601,13.482,85.42,-0.1978,0.73781
11112,1.7794e+07,43.601,13.482,85.42,-0.1978,0.73669
11160,1.7804e+07,43.601,13.482,85.42,-0.51428,0.73575
11201,1.7814e+07,43.601,13.482,85.42,-0.51428,0.73499
11241,1.7824e+07,43.601,13.482,85.42,-0.51428,0.73439
11283,1.7834e+07,43.601,13.482,85.42,-0.51428,0.73793
11323,1.7844e+07,43.601,13.482,85.42,-0.51428,0.73748
11361,1.7854e+07,43.601,13.482,85.42,-0.51428,0.73561
11402,1.7864e+07,43.601,13.482,85.42,-0.51428,0.73394
11446,1.7877e+07,43.601,13.482,85.42,-0.51428,0.7335
11487,1.7887e+07,43.601,13.482,85.42,-0.51428,0.737
11529,1.7896e+07,43.601,13.482,85.42,-0.51428,0.73569
11574,1.7906e+07,43.601,13.482,85.42,0.21193,0.73459
11615,1.7916e+07,43.601,13.482,85.42,0.21193,0.73364
11655,1.7927e+07,43.601,13.482,85.42,0.21193,0.73289
11696,1.7937e+07,43.601,13.482,85.42,0.21193,0.7363
11738,1.7946e+07,43.601,13.482,85.36,0.21193,0.7357
11776,1.7957e+07,43.601,13.482,85.36,0.21193,0.73397
11817,1.7967e+07,43.601,13.482,85.36,0.21193,0.73249
11860,1.7977e+07,43.601,13.482,85.36,0.21193,0.73116
11901,1.7988e+07,43.601,13.482,85.36,0.21193,0.73005
11943,1.7997e+07,43.601,13.482,85.36,0.21193,0.73339
11988,1.8007e+07,43.601,13.482,85.36,-0.07912,0.73245
12028,1.8017e+07,43.601,13.482,85.36,-0.07912,0.73163
12070,1.8027e+07,43.601,13.482,85.36,-0.07912,0.73101
12114,1.8042e+07,43.601,13.482,85.36,-0.07912,0.73096
12155,1.8053e+07,43.601,13.482,85.36,-0.07912,0.72879
12195,1.8063e+07,43.601,13.482,85.36,-0.07912,0.72749
12238,1.8073e+07,43.601,13.482,85.36,-0.07912,0.73076
12278,1.8083e+07,43.601,13.482,85.36,-0.07912,0.72932
12320,1.8093e+07,43.601,13.482,85.36,-0.07912,0.72804
12363,1.8103e+07,43.601,13.482,85.36,-0.07912,0.72696
12405,1.8113e+07,43.601,13.482,85.36,-0.10173,0.72602
12451,1.8125e+07,43.601,13.482,85.31,-0.10173,0.7259
12491,1.8135e+07,43.601,13.482,85.31,-0.10173,0.72908
12536,1.8148e+07,43.601,13.482,85.31,-0.10173,0.72942
12573,1.8159e+07,43.601,13.482,85.31,-0.10173,0.72737
12614,1.8169e+07,43.601,13.482,85.31,-0.10173,0.72587
12655,1.8179e+07,43.601,13.482,85.31,-0.10173,0.72423
12697,1.8189e+07,43.601,13.482,85.31,-0.10173,0.7228
12738,1.8199e+07,43.601,13.482,85.31,-0.10173,0.72153
12782,1.8209e+07,43.601,13.482,85.31,0.23453,0.72465
12823,1.8219e+07,43.601,13.482,85.31,0.23453,0.72353
12863,1.8229e+07,43.601,13.482,85.31,0.23453,0.72258
12905,1.8239e+07,43.601,13.482,85.31,0.23453,0.72179
12943,1.8249e+07,43.601,13.482,85.31,0.23453,0.71996
12980,1.8259e+07,43.601,13.482,85.31,0.23453,0.71834
13021,1.8269e+07,43.601,13.482,85.31,0.23453,0.72139
13062,1.828e+07,43.601,13.482,85.31,0.23453,0.71994
13104,1.8289e+07,43.601,13.482,85.31,0.23453,0.71867
13144,1.8299e+07,43.601,13.482,85.31,0.23453,0.71757
13189,1.831e+07,43.601,13.482,85.31,0.073469,0.71663
13229,1.8319e+07,43.601,13.482,85.31,0.073469,0.71961
13272,1.8329e+07,43.601,13.482,85.28,0.073469,0.71881
13313,1.834e+07,43.601,13.482,85.28,0.073469,0.71814
13351,1.8352e+07,43.601,13.482,85.28,0.073469,0.71696
13391,1.8362e+07,43.601,13.482,85.28,0.073469,0.71508
13432,1.8373e+07,43.601,13.482,85.28,0.073469,0.718
13474,1.8382e+07,43.601,13.482,85.28,0.073469,0.71629
13514,1.8393e+07,43.601,13.482,85.28,0.073469,0.71477
13556,1.8403e+07,43.601,13.482,85.28,0.073469,0.71373
13600,1.8413e+07,43.601,13.482,85.28,0.49168,0.71256
13640,1.8423e+07,43.601,13.482,85.28,0.49168,0.71156
13681,1.8433e+07,43.601,13.482,85.28,0.49168,0.71442
13722,1.8443e+07,43.601,13.482,85.28,0.49168,0.71356
13760,1.8453e+07,43.601,13.482,85.28,0.49168,0.71245
13800,1.8463e+07,43.601,13.482,85.28,0.49168,0.71148
13838,1.8473e+07,43.601,13.482,85.28,0.49168,0.71429
13879,1.8483e+07,43.601,13.482,85.28,0.49168,0.71346
13921,1.8493e+07,43.601,13.482,85.28,0.49168,0.71276
13963,1.8503e+07,43.601,13.482,85.28,0.49168,0.71222
14008,1.8514e+07,43.601,13.482,85.28,-0.10173,0.71181
14049,1.8523e+07,43.601,13.482,85.28,-0.10173,0.71459
14092,1.8533e+07,43.601,13.482,85.23,-0.10173,0.71429
14132,1.8543e+07,43.601,13.482,85.23,-0.10173,0.71414
14173,1.8556e+07,43.601,13.482,85.23,-0.10173,0.71336
14214,1.8567e+07,43.601,13.482,85.23,-0.10173,0.71196
14255,1.8577e+07,43.601,13.482,85.23,-0.10173,0.71124
14295,1.8586e+07,43.601,13.482,85.23,-0.10173,0.71397
14337,1.8597e+07,43.601,13.482,85.23,-0.10173,0.71286
14381,1.8606e+07,43.601,13.482,85.23,-0.10173,0.71191
14424,1.8616e+07,43.601,13.482,85.23,0.12998,0.71112
14465,1.8627e+07,43.601,13.482,85.23,0.12998,0.71046
14505,1.8636e+07,43.601,13.482,85.23,0.12998,0.71313
14547,1.8647e+07,43.601,13.482,85.23,0.12998,0.71259
14584,1.8657e+07,43.601,13.482,85.23,0.12998,0.71065
14626,1.8668e+07,43.601,13.482,85.23,0.12998,0.70886
14667,1.8678e+07,43.601,13.482,85.23,0.12998,0.70754
14707,1.8688e+07,43.601,13.482,85.23,0.12998,0.71016
14748,1.8697e+07,43.601,13.482,85.23,0.12998,0.70874
14792,1.8708e+07,43.601,13.482,85.23,0.12998,0.70747
14834,1.8718e+07,43.601,13.482,85.23,0.2854,0.70637
14875,1.8728e+07,43.601,13.482,85.23,0.2854,0.70542
14918,1.8739e+07,43.601,13.482,85.18,0.2854,0.70462
14960,1.8748e+07,43.601,13.482,85.18,0.2854,0.70717
14994,1.8758e+07,43.601,13.482,85.18,0.2854,0.70544
15034,1.8768e+07,43.601,13.482,85.18,0.2854,0.70387
15074,1.8779e+07,43.601,13.482,85.18,0.2854,0.70249
15114,1.8789e+07,43.601,13.482,85.18,0.2854,0.7015
15156,1.8799e+07,43.601,13.482,85.18,0.2854,0.70401
15201,1.8809e+07,43.601,13.482,85.18,0.2854,0.7029
15244,1.8819e+07,43.601,13.482,85.18,0.12716,0.70196
15285,1.8829e+07,43.601,13.482,85.18,0.12716,0.70114
15327,1.8839e+07,43.601,13.482,85.18,0.12716,0.70048
15367,1.8849e+07,43.601,13.482,85.18,0.12716,0.70291
15402,1.8859e+07,43.601,13.482,85.18,0.12716,0.70085
15443,1.8869e+07,43.601,13.482,85.18,0.12716,0.69894
15483,1.8879e+07,43.601,13.482,85.18,0.12716,0.69725
15524,1.8889e+07,43.601,13.482,85.18,0.12716,0.69568
15566,1.89e+07,43.601,13.482,85.18,0.12716,0.69433
15609,1.891e+07,43.601,13.482,85.18,0.12716,0.69669
15651,1.892e+07,43.601,13.482,85.18,0.22606,0.69571
15691,1.893e+07,43.601,13.482,85.18,0.22606,0.69459
15735,1.894e+07,43.601,13.482,85.14,0.22606,0.69367
15776,1.8953e+07,43.601,13.482,85.14,0.22606,0.69231
15817,1.8963e+07,43.601,13.482,85.14,0.22606,0.69046
15854,1.8973e+07,43.601,13.482,85.14,0.22606,0.69277
15895,1.8983e+07,43.601,13.482,85.14,0.22606,0.69108
15938,1.8993e+07,43.601,13.482,85.14,0.22606,0.68954
15978,1.9003e+07,43.601,13.482,85.14,0.22606,0.68817
16024,1.9013e+07,43.601,13.482,85.14,0.24301,0.68695
16064,1.9023e+07,43.601,13.482,85.14,0.24301,0.68922
16105,1.9033e+07,43.601,13.482,85.14,0.24301,0.68813
16148,1.9043e+07,43.601,13.482,85.14,0.24301,0.68717
16185,1.9055e+07,43.601,13.482,85.14,0.24301,0.68589
16226,1.9066e+07,43.601,13.482,85.14,0.24301,0.68407
16266,1.9076e+07,43.601,13.482,85.14,0.24301,0.68246
16307,1.9085e+07,43.601,13.482,85.14,0.24301,0.68463
16349,1.9095e+07,43.601,13.482,85.14,0.24301,0.68318
16390,1.9106e+07,43.601,13.482,85.14,0.24301,0.6818
16435,1.9116e+07,43.601,13.482,85.14,0.59623,0.68063
16475,1.9126e+07,43.601,13.482,85.14,0.59623,0.68276
16517,1.9136e+07,43.601,13.482,85.14,0.59623,0.68172
16560,1.9146e+07,43.601,13.482,85.09,0.59623,0.68074
16601,1.9161e+07,43.601,13.482,85.09,0.59623,0.6809
16641,1.9172e+07,43.601,13.482,85.09,0.59623,0.68014
16683,1.9182e+07,43.601,13.482,85.09,0.59623,0.67967
16724,1.9192e+07,43.601,13.482,85.09,0.59623,0.68181
16764,1.9202e+07,43.601,13.482,85.09,0.59623,0.68124
16808,1.9212e+07,43.601,13.482,85.09,0.59623,0.68083
16849,1.9222e+07,43.601,13.482,85.09,-0.011303,0.68048
16891,1.9233e+07,43.601,13.482,85.09,-0.011303,0.68029
16932,1.9243e+07,43.601,13.482,85.09,-0.011303,0.68037
16972,1.9253e+07,43.601,13.482,85.09,-0.011303,0.68247
17010,1.9266e+07,43.601,13.482,85.09,-0.011303,0.68152
17055,1.9278e+07,43.601,13.482,85.09,-0.011303,0.68056
17096,1.9288e+07,43.601,13.482,85.09,-0.011303,0.67933
17137,1.9298e+07,43.601,13.482,85.09,-0.011303,0.67824
17177,1.9308e+07,43.601,13.482,85.09,-0.011303,0.67729
17225,1.9321e+07,43.601,13.482,85.09,0.32213,0.67704
17269,1.9331e+07,43.601,13.482,85.04,0.32213,0.67636
17309,1.9341e+07,43.601,13.482,85.04,0.32213,0.67832
17350,1.9354e+07,43.601,13.482,85.04,0.32213,0.67833
17387,1.9364e+07,43.601,13.482,85.04,0.32213,0.67688
17428,1.9374e+07,43.601,13.482,85.04,0.32213,0.6756
17471,1.9383e+07,43.601,13.482,85.04,0.32213,0.67445
17511,1.9393e+07,43.601,13.482,85.04,0.32213,0.67345
17553,1.9404e+07,43.601,13.482,85.04,0.32213,0.67258
17596,1.9414e+07,43.601,13.482,85.04,0.32213,0.67452
17638,1.9423e+07,43.601,13.482,85.04,-0.073469,0.67376
17678,1.9434e+07,43.601,13.482,85.04,-0.073469,0.6731
17719,1.9444e+07,43.601,13.482,85.04,-0.073469,0.67256
17760,1.9456e+07,43.601,13.482,85.04,-0.073469,0.67101
17801,1.9467e+07,43.601,13.482,85.04,-0.073469,0.66928
17842,1.9477e+07,43.601,13.482,85.04,-0.073469,0.67114
17884,1.9486e+07,43.601,13.482,85.04,-0.073469,0.66957
17926,1.9496e+07,43.601,13.482,85.04,-0.073469,0.66826
17967,1.9506e+07,43.601,13.482,85.04,-0.073469,0.66698
18012,1.9517e+07,43.601,13.482,85.04,0.25714,0.6688
18055,1.9527e+07,43.601,13.482,85.04,0.25714,0.66763
18095,1.9536e+07,43.601,13.482,85.01,0.25714,0.66652
18136,1.9547e+07,43.601,13.482,85.01,0.25714,0.66559
18176,1.956e+07,43.601,13.482,85.01,0.25714,0.6642
18218,1.957e+07,43.601,13.482,85.01,0.25714,0.66245
18259,1.958e+07,43.601,13.482,85.01,0.25714,0.66425
18296,1.959e+07,43.601,13.482,85.01,0.25714,0.66264
18338,1.96e+07,43.601,13.482,85.01,0.25714,0.66117
18379,1.9609e+07,43.601,13.482,85.01,0.25714,0.65985
18425,1.962e+07,43.601,13.482,85.01,0.4832,0.66163
18466,1.963e+07,43.601,13.482,85.01,0.4832,0.66041
18506,1.964e+07,43.601,13.482,85.01,0.4832,0.65933
18547,1.965e+07,43.601,13.482,85.01,0.4832,0.65837
18587,1.966e+07,43.601,13.482,85.01,0.4832,0.66011
18623,1.967e+07,43.601,13.482,85.01,0.4832,0.659
18665,1.968e+07,43.601,13.482,85.01,0.4832,0.65787
18705,1.969e+07,43.601,13.482,85.01,0.4832,0.65684
18746,1.97e+07,43.601,13.482,85.01,0.4832,0.65596
18789,1.971e+07,43.601,13.482,85.01,0.4832,0.65765
18833,1.972e+07,43.601,13.482,85.01,0.26562,0.65687
18875,1.973e+07,43.601,13.482,84.97,0.26562,0.65618
18916,1.974e+07,43.601,13.482,84.97,0.26562,0.65561
18956,1.975e+07,43.601,13.482,84.97,0.26562,0.65728
18998,1.976e+07,43.601,13.482,84.97,0.26562,0.6568
19036,1.977e+07,43.601,13.482,84.97,0.26562,0.65531
19076,1.978e+07,43.601,13.482,84.97,0.26562,0.65399
19117,1.9791e+07,43.601,13.482,84.97,0.26562,0.65278
19157,1.98e+07,43.601,13.482,84.97,0.26562,0.65442
19200,1.9811e+07,43.601,13.482,84.97,0.26562,0.65333
19246,1.9821e+07,43.601,13.482,84.97,0.25149,0.65238
19287,1.983e+07,43.601,13.482,84.97,0.25149,0.65154
19328,1.9841e+07,43.601,13.482,84.97,0.25149,0.65082
19368,1.985e+07,43.601,13.482,84.97,0.25149,0.65242
19410,1.9863e+07,43.601,13.482,84.97,0.25149,0.65118
19450,1.9873e+07,43.601,13.482,84.97,0.25149,0.6496
19491,1.9883e+07,43.601,13.482,84.97,0.25149,0.64817
19532,1.9893e+07,43.601,13.482,84.97,0.25149,0.64687
19573,1.9903e+07,43.601,13.482,84.97,0.25149,0.6457
19621,1.9915e+07,43.601,13.482,84.97,0.25149,0.64495
19662,1.9925e+07,43.601,13.482,84.97,0.25714,0.64402
19705,1.9935e+07,43.601,13.482,84.93,0.25714,0.64553
19746,1.9945e+07,43.601,13.482,84.93,0.25714,0.64471
19784,1.9955e+07,43.601,13.482,84.93,0.25714,0.64293
19822,1.9965e+07,43.601,13.482,84.93,0.25714,0.64131
19863,1.9976e+07,43.601,13.482,84.93,0.25714,0.63981
19906,1.9985e+07,43.601,13.482,84.93,0.25714,0.6413
19946,1.9996e+07,43.601,13.482,84.93,0.25714,0.63991
19988,2.0005e+07,43.601,13.482,84.93,0.25714,0.63868
20032,2.0015e+07,43.601,13.482,84.93,0.25714,0.63753
20074,2.0026e+07,43.601,13.482,84.93,0.23171,0.63654
20115,2.0035e+07,43.601,13.482,84.93,0.23171,0.63795
20155,2.0046e+07,43.601,13.482,84.93,0.23171,0.63707
20196,2.0055e+07,43.601,13.482,84.93,0.23171,0.63625
20231,2.0065e+07,43.601,13.482,84.93,0.23171,0.63447
20272,2.0075e+07,43.601,13.482,84.93,0.23171,0.63278
20313,2.0085e+07,43.601,13.482,84.93,0.23171,0.63421
20353,2.0096e+07,43.601,13.482,84.93,0.23171,0.63264
20395,2.0105e+07,43.601,13.482,84.93,0.23171,0.63126
20440,2.0115e+07,43.601,13.482,84.93,0.23171,0.62995
20481,2.0125e+07,43.601,13.482,84.93,0.050863,0.6288
20523,2.0135e+07,43.601,13.482,84.93,0.050863,0.63013
20563,2.0145e+07,43.601,13.482,84.93,0.050863,0.62908
20607,2.0158e+07,43.601,13.482,84.89,0.050863,0.62852
20644,2.0168e+07,43.601,13.482,84.89,0.050863,0.6262
20684,2.0178e+07,43.601,13.482,84.89,0.050863,0.62408
20724,2.0188e+07,43.601,13.482,84.89,0.050863,0.62206
20765,2.0198e+07,43.601,13.482,84.89,0.050863,0.62337
20806,2.0207e+07,43.601,13.482,84.89,0.050863,0.62147
20850,2.0218e+07,43.601,13.482,84.89,0.19215,0.61977
20892,2.0228e+07,43.601,13.482,84.89,0.19215,0.61813
20933,2.0238e+07,43.601,13.482,84.89,0.19215,0.61669
20974,2.0248e+07,43.601,13.482,84.89,0.19215,0.61789
21015,2.026e+07,43.601,13.482,84.89,0.19215,0.61681
21053,2.027e+07,43.601,13.482,84.89,0.19215,0.61439
21094,2.028e+07,43.601,13.482,84.89,0.19215,0.61231
21134,2.029e+07,43.601,13.482,84.89,0.19215,0.6102
21176,2.0301e+07,43.601,13.482,84.89,0.19215,0.60828
21216,2.031e+07,43.601,13.482,84.89,0.19215,0.6093
21263,2.0321e+07,43.601,13.482,84.89,0.17237,0.60763
21304,2.033e+07,43.601,13.482,84.89,0.17237,0.6058
21346,2.034e+07,43.601,13.482,84.87,0.17237,0.60438
21389,2.035e+07,43.601,13.482,84.87,0.17237,0.60293
21426,2.036e+07,43.601,13.482,84.87,0.17237,0.60408
21463,2.037e+07,43.601,13.482,84.87,0.17237,0.60159
21504,2.0381e+07,43.601,13.482,84.87,0.17237,0.59927
21544,2.039e+07,43.601,13.482,84.87,0.17237,0.59708
21585,2.0401e+07,43.601,13.482,84.87,0.17237,0.59504
21626,2.0411e+07,43.601,13.482,84.87,0.17237,0.59325
21671,2.042e+07,43.601,13.482,84.87,-0.090423,0.59431
21712,2.0431e+07,43.601,13.482,84.87,-0.090423,0.59254
21752,2.0441e+07,43.601,13.482,84.87,-0.090423,0.59087
21795,2.0451e+07,43.601,13.482,84.87,-0.090423,0.58935
21832,2.0463e+07,43.601,13.482,84.87,-0.090423,0.58672
21872,2.0474e+07,43.601,13.482,84.87,-0.090423,0.58411
21915,2.0484e+07,43.601,13.482,84.87,-0.090423,0.58169
21955,2.0494e+07,43.601,13.482,84.87,-0.090423,0.58274
21997,2.0503e+07,43.601,13.482,84.87,-0.090423,0.58035
22037,2.0514e+07,43.601,13.482,84.87,-0.090423,0.57818
22083,2.0524e+07,43.601,13.482,84.87,0.2967,0.57606
22125,2.0534e+07,43.601,13.482,84.87,0.2967,0.57707
22166,2.0544e+07,43.601,13.482,84.86,0.2967,0.57508
22207,2.0554e+07,43.601,13.482,84.86,0.2967,0.57329
22249,2.0566e+07,43.601,13.482,84.86,0.2967,0.57105
22287,2.0576e+07,43.601,13.482,84.86,0.2967,0.56879
22327,2.0586e+07,43.601,13.482,84.86,0.2967,0.56972
22368,2.0596e+07,43.601,13.482,84.86,0.2967,0.56758
22408,2.0606e+07,43.601,13.482,84.86,0.2967,0.56558
22454,2.0617e+07,43.601,13.482,84.86,0.2967,0.56646
22496,2.0626e+07,43.601,13.482,84.86,-0.23171,0.56454
22536,2.0636e+07,43.601,13.482,84.86,-0.23171,0.56273
22577,2.0646e+07,43.601,13.482,84.86,-0.23171,0.56107
22619,2.0657e+07,43.601,13.482,84.86,-0.23171,0.55949
22660,2.0667e+07,43.601,13.482,84.86,-0.23171,0.56037
22697,2.0676e+07,43.601,13.482,84.86,-0.23171,0.55748
22735,2.0686e+07,43.601,13.482,84.86,-0.23171,0.55482
22777,2.0696e+07,43.601,13.482,84.86,-0.23171,0.55225
22817,2.0707e+07,43.601,13.482,84.86,-0.23171,0.54988
22862,2.0717e+07,43.601,13.482,84.86,-0.23171,0.55065
22903,2.0727e+07,43.601,13.482,84.86,-0.1865,0.54849
22947,2.0737e+07,43.601,13.482,84.83,-0.1865,0.54633
22987,2.0747e+07,43.601,13.482,84.83,-0.1865,0.54435
23029,2.076e+07,43.601,13.482,84.83,-0.1865,0.54123
23070,2.077e+07,43.601,13.482,84.83,-0.1865,0.54206
23107,2.078e+07,43.601,13.482,84.83,-0.1865,0.53894
23148,2.079e+07,43.601,13.482,84.83,-0.1865,0.53597
23188,2.08e+07,43.601,13.482,84.83,-0.1865,0.53669
23230,2.081e+07,43.601,13.482,84.83,-0.1865,0.53386
23276,2.082e+07,43.601,13.482,84.83,0,0.53116
23317,2.083e+07,43.601,13.482,84.83,0,0.52864
23358,2.084e+07,43.601,13.482,84.83,0,0.52932
23398,2.085e+07,43.601,13.482,84.83,0,0.52685
23441,2.086e+07,43.601,13.482,84.83,0,0.52465
23481,2.0872e+07,43.601,13.482,84.83,0,0.52126
23522,2.0882e+07,43.601,13.482,84.83,0,0.52191
23563,2.0892e+07,43.601,13.482,84.83,0,0.5185
23606,2.0903e+07,43.601,13.482,84.83,0,0.51529
23647,2.0912e+07,43.601,13.482,84.83,0,0.51223
23691,2.0922e+07,43.601,13.482,84.83,0,0.51284
23732,2.0932e+07,43.601,13.482,84.83,0,0.50992
23774,2.0942e+07,43.601,13.482,84.8,0,0.50716
23816,2.0952e+07,43.601,13.482,84.8,0,0.50773
23857,2.0962e+07,43.601,13.482,84.8,0,0.5051
23898,2.0972e+07,43.601,13.482,84.8,0,0.50262
23941,2.0984e+07,43.601,13.482,84.8,0,0.49906
23981,2.0995e+07,43.601,13.482,84.8,0,0.49553
24022,2.1005e+07,43.601,13.482,84.8,0,0.49605
24064,2.1014e+07,43.601,13.482,84.8,0,0.4927
24108,2.1024e+07,43.601,13.482,84.8,0.23453,0.4895
24149,2.1035e+07,43.601,13.482,84.8,0.23453,0.48648
24190,2.1044e+07,43.601,13.482,84.8,0.23453,0.48695
24231,2.1055e+07,43.601,13.482,84.8,0.23453,0.48409
24268,2.1064e+07,43.601,13.482,84.8,0.23453,0.48071
24313,2.108e+07,43.601,13.482,84.8,0.23453,0.47776
24354,2.109e+07,43.601,13.482,84.8,0.23453,0.47475
24395,2.11e+07,43.601,13.482,84.8,0.23453,0.47519
24437,2.111e+07,43.601,13.482,84.8,0.23453,0.47231
24482,2.112e+07,43.601,13.482,84.8,0.31365,0.46959
24522,2.113e+07,43.601,13.482,84.8,0.31365,0.46702
24566,2.114e+07,43.601,13.482,84.8,0.31365,0.46458
24606,2.115e+07,43.601,13.482,84.79,0.31365,0.46502
24647,2.116e+07,43.601,13.482,84.79,0.31365,0.46271
24684,2.117e+07,43.601,13.482,84.79,0.31365,0.46015
24725,2.118e+07,43.601,13.482,84.79,0.31365,0.45772
24767,2.1191e+07,43.601,13.482,84.79,0.31365,0.45545
24807,2.1201e+07,43.601,13.482,84.79,0.31365,0.4533
24849,2.1211e+07,43.601,13.482,84.79,0.31365,0.45363
24893,2.1221e+07,43.601,13.482,84.79,0.38995,0.45158
24934,2.1231e+07,43.601,13.482,84.79,0.38995,0.44966
24974,2.1241e+07,43.601,13.482,84.79,0.38995,0.44783
25016,2.125e+07,43.601,13.482,84.79,0.38995,0.44814
25057,2.1261e+07,43.601,13.482,84.79,0.38995,0.44638
25097,2.1273e+07,43.601,13.482,84.79,0.38995,0.44467
25139,2.1284e+07,43.601,13.482,84.79,0.38995,0.44294
25180,2.1294e+07,43.601,13.482,84.79,0.38995,0.44322
25221,2.1304e+07,43.601,13.482,84.79,0.38995,0.44161
25262,2.1314e+07,43.601,13.482,84.79,0.38995,0.4401
25306,2.1324e+07,43.601,13.482,84.79,-0.27127,0.43869
25348,2.1334e+07,43.601,13.482,84.79,-0.27127,0.43733
25390,2.1344e+07,43.601,13.482,84.76,-0.27127,0.43758
25431,2.1354e+07,43.601,13.482,84.76,-0.27127,0.43629
25474,2.1366e+07,43.601,13.482,84.76,-0.27127,0.43516
25512,2.1377e+07,43.601,13.482,84.76,-0.27127,0.43264
25553,2.1387e+07,43.601,13.482,84.76,-0.27127,0.43032
25595,2.1397e+07,43.601,13.482,84.76,-0.27127,0.42809
25636,2.1407e+07,43.601,13.482,84.76,-0.27127,0.42599
25676,2.1417e+07,43.601,13.482,84.76,-0.27127,0.42614
25721,2.1426e+07,43.601,13.482,84.76,0.16107,0.42416
25763,2.1437e+07,43.601,13.482,84.76,0.16107,0.42226
25803,2.1446e+07,43.601,13.482,84.76,0.16107,0.42049
25847,2.1459e+07,43.601,13.482,84.76,0.16107,0.41809
25887,2.147e+07,43.601,13.482,84.76,0.16107,0.41581
25927,2.148e+07,43.601,13.482,84.76,0.16107,0.41592
25969,2.149e+07,43.601,13.482,84.76,0.16107,0.41369
26010,2.15e+07,43.601,13.482,84.76,0.16107,0.4116
26051,2.151e+07,43.601,13.482,84.76,0.16107,0.41166
26095,2.152e+07,43.601,13.482,84.76,0.16107,0.40964
26139,2.153e+07,43.601,13.482,84.75,0.32778,0.4077
26179,2.154e+07,43.601,13.482,84.75,0.32778,0.40591
26220,2.155e+07,43.601,13.482,84.75,0.32778,0.40594
26261,2.156e+07,43.601,13.482,84.75,0.32778,0.40423
26301,2.157e+07,43.601,13.482,84.75,0.32778,0.40257
26340,2.1582e+07,43.601,13.482,84.75,0.32778,0.40083
26381,2.1593e+07,43.601,13.482,84.75,0.32778,0.40083
26421,2.1603e+07,43.601,13.482,84.75,0.32778,0.39915
26465,2.1613e+07,43.601,13.482,84.75,0.32778,0.39749
26510,2.1623e+07,43.601,13.482,84.75,0.26844,0.39598
26552,2.1633e+07,43.601,13.482,84.75,0.26844,0.39449
26592,2.1643e+07,43.601,13.482,84.75,0.26844,0.3945
26633,2.1653e+07,43.601,13.482,84.75,0.26844,0.3931
26673,2.1663e+07,43.601,13.482,84.75,0.26844,0.39179
26711,2.1673e+07,43.601,13.482,84.75,0.26844,0.39018
26749,2.1683e+07,43.601,13.482,84.75,0.26844,0.38865
26790,2.1694e+07,43.601,13.482,84.75,0.26844,0.38864
26831,2.1704e+07,43.601,13.482,84.75,0.26844,0.38723
26873,2.1714e+07,43.601,13.482,84.75,0.26844,0.38587
26923,2.1726e+07,43.601,13.482,84.75,0.028257,0.38456
26963,2.1736e+07,43.601,13.482,84.75,0.028257,0.38333
27004,2.1746e+07,43.601,13.482,84.75,0.028257,0.38325
27046,2.1756e+07,43.601,13.482,84.75,0.028257,0.38204
27086,2.1766e+07,43.601,13.482,84.75,0.028257,0.38087
27128,2.1776e+07,43.601,13.482,84.75,0.028257,0.37876
27166,2.1786e+07,43.601,13.482,84.75,0.028257,0.37674
27207,2.1796e+07,43.601,13.482,84.75,0.028257,0.37486
27248,2.1806e+07,43.601,13.482,84.75,0.028257,0.37476
27289,2.1816e+07,43.601,13.482,84.75,0.028257,0.37298
27337,2.1826e+07,43.601,13.482,84.75,0.39843,0.37126
27377,2.1836e+07,43.601,13.482,84.75,0.39843,0.36961
27419,2.1846e+07,43.601,13.482,84.75,0.39843,0.36947
27459,2.1856e+07,43.601,13.482,84.75,0.39843,0.36787
27500,2.1866e+07,43.601,13.482,84.75,0.39843,0.36637
27541,2.1876e+07,43.601,13.482,84.75,0.39843,0.36489
27578,2.1886e+07,43.601,13.482,84.75,0.39843,0.36466
27620,2.1896e+07,43.601,13.482,84.75,0.39843,0.36326
27661,2.1906e+07,43.601,13.482,84.75,0.39843,0.36194
27701,2.1916e+07,43.601,13.482,84.75,0.39843,0.36069
27749,2.1927e+07,43.601,13.482,84.74,-0.028257,0.35951
27789,2.1936e+07,43.601,13.482,84.74,-0.028257,0.35932
27830,2.1946e+07,43.601,13.482,84.74,-0.028257,0.35821
27871,2.1957e+07,43.601,13.482,84.74,-0.028257,0.35713
27909,2.1969e+07,43.601,13.482,84.74,-0.028257,0.3549
27951,2.1979e+07,43.601,13.482,84.74,-0.028257,0.35282
27992,2.199e+07,43.601,13.482,84.74,-0.028257,0.35084
28033,2.2e+07,43.601,13.482,84.74,-0.028257,0.34894
28074,2.2009e+07,43.601,13.482,84.74,-0.028257,0.34865
28115,2.2019e+07,43.601,13.482,84.74,-0.028257,0.34687
28160,2.203e+07,43.601,13.482,84.74,-0.090423,0.34519
28201,2.2039e+07,43.601,13.482,84.74,-0.090423,0.34359
28241,2.205e+07,43.601,13.482,84.74,-0.090423,0.34332
28283,2.2059e+07,43.601,13.482,84.74,-0.090423,0.34176
28321,2.2069e+07,43.601,13.482,84.74,-0.090423,0.33907
28361,2.2079e+07,43.601,13.482,84.74,-0.090423,0.33646
28399,2.209e+07,43.601,13.482,84.74,-0.090423,0.33395
28439,2.21e+07,43.601,13.482,84.74,-0.090423,0.33145
28481,2.211e+07,43.601,13.482,84.74,-0.090423,0.33106
28521,2.212e+07,43.601,13.482,84.74,-0.090423,0.32877
28570,2.213e+07,43.601,13.482,84.74,0.16389,0.3266
28620,2.214e+07,43.601,13.482,84.72,0.32452,0.32452
28664,2.2151e+07,43.601,13.482,84.72,0.32253,0.32253
28709,2.2164e+07,43.601,13.482,84.72,0.32007,0.32007
28756,2.2177e+07,43.601,13.482,84.72,0.31766,0.31766
28801,2.2187e+07,43.601,13.482,84.72,0.31544,0.31544
28847,2.2197e+07,43.601,13.482,84.72,0.31326,0.31326
28888,2.2207e+07,43.601,13.482,84.72,0.31278,0.31278
28933,2.2217e+07,43.601,13.482,84.72,0.31073,0.31073
28982,2.2227e+07,43.601,13.482,84.72,0.30876,0.30876
29027,2.2238e+07,43.601,13.482,84.72,0.30682,0.30682
29073,2.2248e+07,43.601,13.482,84.72,0.30497,0.30497
29117,2.2258e+07,43.601,13.482,84.72,0.30451,0.30451
29162,2.2268e+07,43.601,13.482,84.72,0.30278,0.30278
29200,2.2279e+07,43.601,13.482,84.72,0.30016,0.30016
29248,2.2291e+07,43.601,13.482,84.72,0.2975,0.2975
29292,2.2302e+07,43.601,13.482,84.72,0.29513,0.29513
29337,2.2312e+07,43.601,13.482,84.72,0.29273,0.29273
29382,2.2322e+07,43.601,13.482,84.72,0.29047,0.29047
29431,2.2332e+07,43.601,13.482,84.72,0.2883,0.2883
29479,2.2343e+07,43.601,13.482,84.71,0.28773,0.28773
29523,2.2352e+07,43.601,13.482,84.71,0.28566,0.28566
29568,2.2363e+07,43.601,13.482,84.71,0.28367,0.28367
29610,2.2373e+07,43.601,13.482,84.71,0.28073,0.28073
29654,2.2383e+07,43.601,13.482,84.71,0.27796,0.27796
29696,2.2393e+07,43.601,13.482,84.71,0.27742,0.27742
29740,2.2403e+07,43.601,13.482,84.71,0.27476,0.27476
29788,2.2415e+07,43.601,13.482,84.71,0.27204,0.27204
29833,2.2426e+07,43.601,13.482,84.71,0.2695,0.2695
29882,2.2436e+07,43.601,13.482,84.71,0.26703,0.26703
29927,2.2446e+07,43.601,13.482,84.71,0.26462,0.26462
29971,2.2456e+07,43.601,13.482,84.71,0.26399,0.26399
30013,2.2466e+07,43.601,13.482,84.71,0.26173,0.26173
30059,2.2478e+07,43.601,13.482,84.71,0.25915,0.25915
30105,2.2489e+07,43.601,13.482,84.71,0.25678,0.25678
30150,2.2499e+07,43.601,13.482,84.71,0.25444,0.25444
30194,2.2509e+07,43.601,13.482,84.71,0.25223,0.25223
30240,2.252e+07,43.601,13.482,84.71,0.25158,0.25158
30289,2.253e+07,43.601,13.482,84.7,0.24946,0.24946
30335,2.254e+07,43.601,13.482,84.7,0.24745,0.24745
30380,2.255e+07,43.601,13.482,84.7,0.24542,0.24542
30424,2.256e+07,43.601,13.482,84.7,0.24352,0.24352
30469,2.2573e+07,43.601,13.482,84.7,0.24089,0.24089
30513,2.2583e+07,43.601,13.482,84.7,0.23853,0.23853
30557,2.2593e+07,43.601,13.482,84.7,0.23785,0.23785
30602,2.2603e+07,43.601,13.482,84.7,0.23559,0.23559
30646,2.2614e+07,43.601,13.482,84.7,0.23338,0.23338
30692,2.2624e+07,43.601,13.482,84.7,0.23117,0.23117
30742,2.2634e+07,43.601,13.482,84.7,0.23048,0.23048
30786,2.2644e+07,43.601,13.482,84.7,0.22841,0.22841
30831,2.2654e+07,43.601,13.482,84.7,0.22637,0.22637
30875,2.2664e+07,43.601,13.482,84.7,0.22444,0.22444
30920,2.2677e+07,43.601,13.482,84.7,0.22212,0.22212
30963,2.2687e+07,43.601,13.482,84.7,0.22009,0.22009
31008,2.2697e+07,43.601,13.482,84.7,0.2193,0.2193
31053,2.2708e+07,43.601,13.482,84.7,0.21734,0.21734
31097,2.2718e+07,43.601,13.482,84.7,0.21547,0.21547
31148,2.273e+07,43.601,13.482,84.68,0.21342,0.21342
31196,2.274e+07,43.601,13.482,84.68,0.21166,0.21166
31241,2.2751e+07,43.601,13.482,84.68,0.20988,0.20988
31285,2.2761e+07,43.601,13.482,84.68,0.20913,0.20913
31330,2.2771e+07,43.601,13.482,84.68,0.20749,0.20749
31369,2.2782e+07,43.601,13.482,84.68,0.20612,0.20612
31413,2.2793e+07,43.601,13.482,84.68,0.20487,0.20487
31458,2.2803e+07,43.601,13.482,84.68,0.20355,0.20355
31505,2.2813e+07,43.601,13.482,84.68,0.20271,0.20271
31550,2.2823e+07,43.601,13.482,84.68,0.20147,0.20147
31594,2.2833e+07,43.601,13.482,84.68,0.20028,0.20028
31645,2.2843e+07,43.601,13.482,84.68,0.19916,0.19916
31690,2.2853e+07,43.601,13.482,84.68,0.19835,0.19835
31735,2.2863e+07,43.601,13.482,84.68,0.19727,0.19727
31780,2.2874e+07,43.601,13.482,84.68,0.19625,0.19625
31821,2.2884e+07,43.601,13.482,84.68,0.19433,0.19433
31866,2.2894e+07,43.601,13.482,84.68,0.19259,0.19259
31908,2.2905e+07,43.601,13.482,84.68,0.19084,0.19084
31953,2.2915e+07,43.601,13.482,84.68,0.19012,0.19012
31999,2.2925e+07,43.601,13.482,84.68,0.18855,0.18855
32045,2.2935e+07,43.601,13.482,84.67,0.18697,0.18697
32094,2.2946e+07,43.601,13.482,84.67,0.1856,0.1856
32138,2.2956e+07,43.601,13.482,84.67,0.18415,0.18415
32183,2.2966e+07,43.601,13.482,84.67,0.1835,0.1835
32231,2.2976e+07,43.601,13.482,84.67,0.18225,0.18225
32269,2.2987e+07,43.601,13.482,84.67,0.1814,0.1814
32315,2.2997e+07,43.601,13.482,84.67,0.1807,0.1807
32359,2.3007e+07,43.601,13.482,84.67,0.18013,0.18013
32405,2.3017e+07,43.601,13.482,84.67,0.17968,0.17968
32449,2.3027e+07,43.601,13.482,84.67,0.17953,0.17953
32494,2.3037e+07,43.601,13.482,84.67,0.17937,0.17937
32542,2.3047e+07,43.601,13.482,84.67,0.17937,0.17937
32588,2.3057e+07,43.601,13.482,84.67,0.17953,0.17953
32633,2.3068e+07,43.601,13.482,84.67,0.17988,0.17988
32677,2.3081e+07,43.601,13.482,84.67,0.18016,0.18016
32722,2.3092e+07,43.601,13.482,84.67,0.18047,0.18047
32765,2.3103e+07,43.601,13.482,84.67,0.18117,0.18117
32809,2.3113e+07,43.601,13.482,84.67,0.18264,0.18264
32856,2.3123e+07,43.601,13.482,84.67,0.18369,0.18369
32900,2.3133e+07,43.601,13.482,84.67,0.18499,0.18499
32954,2.3145e+07,43.601,13.482,84.68,0.1872,0.1872
32999,2.3155e+07,43.601,13.482,84.68,0.18909,0.18909
33043,2.3166e+07,43.601,13.482,84.68,0.19124,0.19124
33088,2.3176e+07,43.601,13.482,84.68,0.19366,0.19366
33130,2.3189e+07,43.601,13.482,84.68,0.19789,0.19789
33175,2.3199e+07,43.601,13.482,84.68,0.2012,0.2012
33219,2.3209e+07,43.601,13.482,84.68,0.20479,0.20479
33264,2.3219e+07,43.601,13.482,84.68,0.20858,0.20858
33310,2.323e+07,43.601,13.482,84.68,0.21262,0.21262
33355,2.324e+07,43.601,13.482,84.68,0.21686,0.21686
33404,2.325e+07,43.601,13.482,84.68,0.22182,0.22182
33448,2.326e+07,43.601,13.482,84.68,0.22647,0.22647
33494,2.327e+07,43.601,13.482,84.68,0.23137,0.23137
33539,2.328e+07,43.601,13.482,84.68,0.23647,0.23647
33580,2.3294e+07,43.601,13.482,84.68,0.24371,0.24371
33624,2.3304e+07,43.601,13.482,84.68,0.24957,0.24957
33669,2.3314e+07,43.601,13.482,84.68,0.25616,0.25616
33714,2.3324e+07,43.601,13.482,84.68,0.26186,0.26186
33758,2.3334e+07,43.601,13.482,84.68,0.26814,0.26814
33807,2.3345e+07,43.601,13.482,84.68,0.27455,0.27455
33856,2.3355e+07,43.601,13.482,84.75,0.28169,0.28169
33900,2.3365e+07,43.601,13.482,84.75,0.28795,0.28795
33945,2.3375e+07,43.601,13.482,84.75,0.29471,0.29471
33990,2.3386e+07,43.601,13.482,84.75,0.3016,0.3016
34038,2.3398e+07,43.601,13.482,84.75,0.30994,0.30994
34085,2.3411e+07,43.601,13.482,84.75,0.31844,0.31844
34130,2.3421e+07,43.601,13.482,84.75,0.32504,0.32504
34175,2.3431e+07,43.601,13.482,84.75,0.3317,0.3317
34220,2.3441e+07,43.601,13.482,84.75,0.33846,0.33846
34273,2.3454e+07,43.601,13.482,84.75,0.34736,0.34736
34318,2.3465e+07,43.601,13.482,84.75,0.35436,0.35436
34364,2.3475e+07,43.601,13.482,84.75,0.36202,0.36202
34409,2.3485e+07,43.601,13.482,84.75,0.36905,0.36905
34453,2.3498e+07,43.601,13.482,84.75,0.37755,0.37755
34498,2.3511e+07,43.601,13.482,84.75,0.38761,0.38761
34544,2.3521e+07,43.601,13.482,84.75,0.39483,0.39483
34590,2.3532e+07,43.601,13.482,84.75,0.40213,0.40213
34636,2.3543e+07,43.601,13.482,84.91,0.41023,0.41023
34688,2.3555e+07,43.601,13.482,84.91,0.41986,0.41986
34732,2.3566e+07,43.601,13.482,84.91,0.42732,0.42732
34777,2.3576e+07,43.601,13.482,84.91,0.43561,0.43561
34822,2.3587e+07,43.601,13.482,84.91,0.44317,0.44317
34867,2.3597e+07,43.601,13.482,84.91,0.45135,0.45135
34912,2.3608e+07,43.601,13.482,84.91,0.45882,0.45882
34953,2.3619e+07,43.601,13.482,84.91,0.4671,0.4671
34999,2.3629e+07,43.601,13.482,84.91,0.47563,0.47563
35043,2.3639e+07,43.601,13.482,84.91,0.48325,0.48325
35090,2.3649e+07,43.601,13.482,84.91,0.49093,0.49093
35142,2.3662e+07,43.601,13.482,84.91,0.50025,0.50025
35186,2.3672e+07,43.601,13.482,84.91,0.50883,0.50883
35231,2.3682e+07,43.601,13.482,84.91,0.51678,0.51678
35275,2.3692e+07,43.601,13.482,84.91,0.52465,0.52465
35320,2.3703e+07,43.601,13.482,84.91,0.53257,0.53257
35359,2.3713e+07,43.601,13.482,84.91,0.54119,0.54119
35404,2.3723e+07,43.601,13.482,84.91,0.54903,0.54903
35449,2.3734e+07,43.601,13.482,84.91,0.55692,0.55692
35496,2.3744e+07,43.601,13.482,85.1,0.56577,0.56577
35541,2.3754e+07,43.601,13.482,85.1,0.57368,0.57368
35590,2.3764e+07,43.601,13.482,85.1,0.58163,0.58163
35635,2.3774e+07,43.601,13.482,85.1,0.58959,0.58959
35680,2.3784e+07,43.601,13.482,85.1,0.59757,0.59757
35724,2.3794e+07,43.601,13.482,85.1,0.60567,0.60567
35769,2.3804e+07,43.601,13.482,85.1,0.61293,0.61293
35813,2.3814e+07,43.601,13.482,85.1,0.62023,0.62023
35858,2.3824e+07,43.601,13.482,85.1,0.62759,0.62759
35900,2.3835e+07,43.601,13.482,85.1,0.63499,0.63499
35944,2.3845e+07,43.601,13.482,85.1,0.64326,0.64326
35990,2.3855e+07,43.601,13.482,85.1,0.65139,0.65139
36041,2.3865e+07,43.601,13.482,85.1,0.65889,0.65889
36087,2.3875e+07,43.601,13.482,85.1,0.66644,0.66644
36132,2.3885e+07,43.601,13.482,85.1,0.67403,0.67403
36176,2.3895e+07,43.601,13.482,85.1,0.68165,0.68165
36222,2.3905e+07,43.601,13.482,85.1,0.68978,0.68978
36260,2.3916e+07,43.601,13.482,85.1,0.69867,0.69867
36306,2.3925e+07,43.601,13.482,85.1,0.70753,0.70753
36350,2.3936e+07,43.601,13.482,85.1,0.71637,0.71637
36397,2.3946e+07,43.601,13.482,85.3,0.72602,0.72602
36441,2.3956e+07,43.601,13.482,85.3,0.73482,0.73482
36493,2.3966e+07,43.601,13.482,85.3,0.74363,0.74363
36538,2.3977e+07,43.601,13.482,85.3,0.75177,0.75177
36583,2.3986e+07,43.601,13.482,85.3,0.76057,0.76057
36628,2.3997e+07,43.601,13.482,85.3,0.77018,0.77018
36669,2.4007e+07,43.601,13.482,85.3,0.77784,0.77784
36713,2.4017e+07,43.601,13.482,85.3,0.78552,0.78552
36754,2.4029e+07,43.601,13.482,85.3,0.79406,0.79406
36799,2.4039e+07,43.601,13.482,85.3,0.80224,0.80224
36843,2.4049e+07,43.601,13.482,85.3,0.80997,0.80997
36887,2.4059e+07,43.601,13.482,85.3,0.81856,0.81856
36936,2.4069e+07,43.601,13.482,85.3,0.82673,0.82673
36980,2.4079e+07,43.601,13.482,85.3,0.83452,0.83452
37027,2.4089e+07,43.601,13.482,85.3,0.84231,0.84231
37072,2.4099e+07,43.601,13.482,85.3,0.85013,0.85013
37116,2.4111e+07,43.601,13.482,85.3,0.85827,0.85827
37165,2.4124e+07,43.601,13.482,85.3,0.86568,0.86568
37208,2.4134e+07,43.601,13.482,85.51,0.87376,0.87376
37254,2.4143e+07,43.601,13.482,85.51,0.8796,0.8796
37299,2.4154e+07,43.601,13.482,85.51,0.8855,0.8855
37346,2.4164e+07,43.601,13.482,85.51,0.8935,0.8935
37392,2.4174e+07,43.601,13.482,85.51,0.89943,0.89943
37436,2.4183e+07,43.601,13.482,85.51,0.90541,0.90541
37481,2.4194e+07,43.601,13.482,85.51,0.91143,0.91143
37526,2.4204e+07,43.601,13.482,85.51,0.91752,0.91752
37572,2.4217e+07,43.601,13.482,85.51,0.92907,0.92907
37614,2.4227e+07,43.601,13.482,85.51,0.93744,0.93744
37658,2.4237e+07,43.601,13.482,85.51,0.94518,0.94518
37703,2.4248e+07,43.601,13.482,85.51,0.95348,0.95348
37747,2.4258e+07,43.601,13.482,85.51,0.96248,0.96248
37797,2.4268e+07,43.601,13.482,85.51,0.97068,0.97068
37841,2.4278e+07,43.601,13.482,85.51,0.97883,0.97883
37886,2.4289e+07,43.601,13.482,85.51,0.98643,0.98643
37931,2.4299e+07,43.601,13.482,85.51,0.99527,0.99527
37976,2.431e+07,43.601,13.482,85.51,1.0016,1.0016
38020,2.432e+07,43.601,13.482,85.51,1.0079,1.0079
38064,2.433e+07,43.601,13.482,85.51,1.0143,1.0143
38111,2.4341e+07,43.601,13.482,85.69,1.0214,1.0214
38155,2.4351e+07,43.601,13.482,85.69,1.0286,1.0286
38201,2.4361e+07,43.601,13.482,85.69,1.036,1.036
38250,2.4372e+07,43.601,13.482,85.69,1.0424,1.0424
38294,2.4382e+07,43.601,13.482,85.69,1.0496,1.0496
38339,2.4392e+07,43.601,13.482,85.69,1.0561,1.0561
38383,2.4402e+07,43.601,13.482,85.69,1.0626,1.0626
38430,2.4413e+07,43.601,13.482,85.69,1.0699,1.0699
38472,2.4423e+07,43.601,13.482,85.69,1.0773,1.0773
38513,2.4433e+07,43.601,13.482,85.69,1.084,1.084
38558,2.4444e+07,43.601,13.482,85.69,1.0908,1.0908
38602,2.4454e+07,43.601,13.482,85.69,1.0983,1.0983
38650,2.4464e+07,43.601,13.482,85.69,1.1051,1.1051
38698,2.4474e+07,43.601,13.482,85.69,1.1119,1.1119
38743,2.4484e+07,43.601,13.482,85.69,1.119,1.119
38787,2.4495e+07,43.601,13.482,85.69,1.1258,1.1258
38833,2.4505e+07,43.601,13.482,85.69,1.1326,1.1326
38877,2.4514e+07,43.601,13.482,85.69,1.1397,1.1397
38916,2.4525e+07,43.601,13.482,85.69,1.1474,1.1474
38961,2.4535e+07,43.601,13.482,85.69,1.1544,1.1544
39008,2.4546e+07,43.601,13.482,85.9,1.1614,1.1614
39052,2.4556e+07,43.601,13.482,85.9,1.1691,1.1691
39098,2.4566e+07,43.601,13.482,85.9,1.1761,1.1761
39146,2.4576e+07,43.601,13.482,85.9,1.1831,1.1831
39191,2.4587e+07,43.601,13.482,85.9,1.1901,1.1901
39235,2.4596e+07,43.601,13.482,85.9,1.1979,1.1979
39281,2.4607e+07,43.601,13.482,85.9,1.2049,1.2049
39326,2.4619e+07,43.601,13.482,85.9,1.2143,1.2143
39368,2.4631e+07,43.601,13.482,85.9,1.2229,1.2229
39413,2.4641e+07,43.601,13.482,85.9,1.2316,1.2316
39458,2.4652e+07,43.601,13.482,85.9,1.2386,1.2386
39503,2.4662e+07,43.601,13.482,85.9,1.2472,1.2472
39548,2.4672e+07,43.601,13.482,85.9,1.255,1.255
39597,2.4682e+07,43.601,13.482,85.9,1.2628,1.2628
39641,2.4693e+07,43.601,13.482,85.9,1.2706,1.2706
39686,2.4703e+07,43.601,13.482,85.9,1.2784,1.2784
39734,2.4715e+07,43.601,13.482,85.9,1.289,1.289
39779,2.4726e+07,43.601,13.482,85.9,1.2968,1.2968
39823,2.4737e+07,43.601,13.482,86.08,1.3053,1.3053
39867,2.4748e+07,43.601,13.482,86.08,1.3123,1.3123
39912,2.4758e+07,43.601,13.482,86.08,1.3207,1.3207
39957,2.4769e+07,43.601,13.482,86.08,1.3285,1.3285
40002,2.4778e+07,43.601,13.482,86.08,1.3362,1.3362
40052,2.4789e+07,43.601,13.482,86.08,1.3439,1.3439
40096,2.4799e+07,43.601,13.482,86.08,1.3508,1.3508
40141,2.4809e+07,43.601,13.482,86.08,1.3592,1.3592
40185,2.4819e+07,43.601,13.482,86.08,1.3668,1.3668
40225,2.4831e+07,43.601,13.482,86.08,1.3765,1.3765
40269,2.4841e+07,43.601,13.482,86.08,1.386,1.386
40316,2.4851e+07,43.601,13.482,86.08,1.3948,1.3948
40360,2.4862e+07,43.601,13.482,86.08,1.4035,1.4035
40404,2.4872e+07,43.601,13.482,86.08,1.4104,1.4104
40449,2.4882e+07,43.601,13.482,86.08,1.4197,1.4197
40499,2.4893e+07,43.601,13.482,86.08,1.4283,1.4283
40545,2.4903e+07,43.601,13.482,86.08,1.4375,1.4375
40590,2.4913e+07,43.601,13.482,86.08,1.4459,1.4459
40635,2.4923e+07,43.601,13.482,86.08,1.454,1.454
40687,2.494e+07,43.601,13.482,86.25,1.4663,1.4663
40731,2.495e+07,43.601,13.482,86.25,1.4743,1.4743
40779,2.496e+07,43.601,13.482,86.25,1.4836,1.4836
40824,2.497e+07,43.601,13.482,86.25,1.4906,1.4906
40870,2.498e+07,43.601,13.482,86.25,1.4985,1.4985
40919,2.499e+07,43.601,13.482,86.25,1.5064,1.5064
40963,2.5001e+07,43.601,13.482,86.25,1.5142,1.5142
41008,2.5011e+07,43.601,13.482,86.25,1.5227,1.5227
41053,2.5021e+07,43.601,13.482,86.25,1.5295,1.5295
41098,2.5032e+07,43.601,13.482,86.25,1.5373,1.5373
41140,2.5048e+07,43.601,13.482,86.25,1.5496,1.5496
41185,2.5059e+07,43.601,13.482,86.25,1.5576,1.5576
41229,2.5069e+07,43.601,13.482,86.25,1.5656,1.5656
41275,2.508e+07,43.601,13.482,86.25,1.5723,1.5723
41319,2.509e+07,43.601,13.482,86.25,1.5796,1.5796
41368,2.5099e+07,43.601,13.482,86.25,1.5868,1.5868
41413,2.511e+07,43.601,13.482,86.25,1.5941,1.5941
41458,2.5119e+07,43.601,13.482,86.25,1.6008,1.6008
41505,2.513e+07,43.601,13.482,86.42,1.6086,1.6086
41547,2.5144e+07,43.601,13.482,86.42,1.6204,1.6204
41589,2.5156e+07,43.601,13.482,86.42,1.6306,1.6306
41633,2.5166e+07,43.601,13.482,86.42,1.6395,1.6395
41677,2.5176e+07,43.601,13.482,86.42,1.6482,1.6482
41724,2.5186e+07,43.601,13.482,86.42,1.655,1.655
41768,2.5196e+07,43.601,13.482,86.42,1.6636,1.6636
41817,2.5206e+07,43.601,13.482,86.42,1.6723,1.6723
41861,2.5216e+07,43.601,13.482,86.42,1.6807,1.6807
41906,2.5226e+07,43.601,13.482,86.42,1.6892,1.6892
41951,2.5236e+07,43.601,13.482,86.42,1.6958,1.6958
41989,2.525e+07,43.601,13.482,86.42,1.7062,1.7062
42034,2.526e+07,43.601,13.482,86.42,1.7146,1.7146
42079,2.527e+07,43.601,13.482,86.42,1.7224,1.7224
42124,2.528e+07,43.601,13.482,86.42,1.7301,1.7301
42170,2.5291e+07,43.601,13.482,86.42,1.7378,1.7378
42214,2.5301e+07,43.601,13.482,86.42,1.7461,1.7461
42263,2.5311e+07,43.601,13.482,86.42,1.7527,1.7527
42309,2.5321e+07,43.601,13.482,86.42,1.7602,1.7602
42355,2.5332e+07,43.601,13.482,86.42,1.7677,1.7677
42401,2.5342e+07,43.601,13.482,86.62,1.7758,1.7758
42443,2.5354e+07,43.601,13.482,86.62,1.7845,1.7845
42485,2.5366e+07,43.601,13.482,86.62,1.7935,1.7935
42529,2.5376e+07,43.601,13.482,86.62,1.8011,1.8011
42574,2.5387e+07,43.601,13.482,86.62,1.8087,1.8087
42619,2.5396e+07,43.601,13.482,86.62,1.8152,1.8152
42663,2.5406e+07,43.601,13.482,86.62,1.8227,1.8227
42713,2.5416e+07,43.601,13.482,86.62,1.8301,1.8301
42758,2.5427e+07,43.601,13.482,86.62,1.8375,1.8375
42803,2.5437e+07,43.601,13.482,86.62,1.8455,1.8455
42847,2.5447e+07,43.601,13.482,86.62,1.8519,1.8519
42891,2.546e+07,43.601,13.482,86.62,1.8605,1.8605
42935,2.547e+07,43.601,13.482,86.62,1.8691,1.8691
42977,2.5482e+07,43.601,13.482,86.62,1.8783,1.8783
43022,2.5492e+07,43.601,13.482,86.62,1.8862,1.8862
43068,2.5503e+07,43.601,13.482,86.62,1.8925,1.8925
43113,2.5513e+07,43.601,13.482,86.62,1.9003,1.9003
43162,2.5523e+07,43.601,13.482,86.62,1.9087,1.9087
43208,2.5533e+07,43.601,13.482,86.8,1.9164,1.9164
43253,2.5544e+07,43.601,13.482,86.8,1.924,1.924
43297,2.5554e+07,43.601,13.482,86.8,1.9303,1.9303
43342,2.5564e+07,43.601,13.482,86.8,1.9384,1.9384
43383,2.5576e+07,43.601,13.482,86.8,1.9472,1.9472
43428,2.559e+07,43.601,13.482,86.8,1.9571,1.9571
43473,2.56e+07,43.601,13.482,86.8,1.9644,1.9644
43518,2.5611e+07,43.601,13.482,86.8,1.9717,1.9717
43566,2.5621e+07,43.601,13.482,86.8,1.9795,1.9795
43612,2.5631e+07,43.601,13.482,86.8,1.9867,1.9867
43657,2.5641e+07,43.601,13.482,86.8,1.9938,1.9938
43702,2.5651e+07,43.601,13.482,86.8,2.0009,2.0009
43747,2.5669e+07,43.601,13.482,86.8,2.0128,2.0128
43792,2.5679e+07,43.601,13.482,86.8,2.0196,2.0196
43837,2.569e+07,43.601,13.482,86.8,2.0257,2.0257
43882,2.57e+07,43.601,13.482,86.8,2.0324,2.0324
43928,2.5711e+07,43.601,13.482,86.8,2.0397,2.0397
43972,2.5721e+07,43.601,13.482,86.8,2.0469,2.0469
44021,2.5732e+07,43.601,13.482,86.8,2.0536,2.0536
44066,2.5742e+07,43.601,13.482,86.8,2.0607,2.0607
44112,2.5753e+07,43.601,13.482,87,2.0667,2.0667
44157,2.5763e+07,43.601,13.482,87,2.0738,2.0738
44195,2.5776e+07,43.601,13.482,87,2.082,2.082
44239,2.5787e+07,43.601,13.482,87,2.0901,2.0901
44283,2.5797e+07,43.601,13.482,87,2.0974,2.0974
44329,2.5808e+07,43.601,13.482,87,2.1046,2.1046
44374,2.5818e+07,43.601,13.482,87,2.1124,2.1124
44418,2.5829e+07,43.601,13.482,87,2.1194,2.1194
44467,2.5839e+07,43.601,13.482,87,2.1264,2.1264
44511,2.585e+07,43.601,13.482,87,2.134,2.134
44556,2.586e+07,43.601,13.482,87,2.1397,2.1397
44602,2.587e+07,43.601,13.482,87,2.1466,2.1466
44643,2.5881e+07,43.601,13.482,87,2.1546,2.1546
44688,2.5896e+07,43.601,13.482,87,2.1641,2.1641
44732,2.5906e+07,43.601,13.482,87,2.1701,2.1701
44778,2.5916e+07,43.601,13.482,87,2.1761,2.1761
44823,2.5926e+07,43.601,13.482,87,2.1821,2.1821
44869,2.5937e+07,43.601,13.482,87,2.1881,2.1881
44921,2.5947e+07,43.601,13.482,87.17,2.1946,2.1946
44970,2.5957e+07,43.601,13.482,87.17,2.2004,2.2004
45014,2.5967e+07,43.601,13.482,87.17,2.2064,2.2064
45059,2.5977e+07,43.601,13.482,87.17,2.2124,2.2124
45104,2.5991e+07,43.601,13.482,87.17,2.2206,2.2206
45146,2.6003e+07,43.601,13.482,87.17,2.2271,2.2271
45190,2.6013e+07,43.601,13.482,87.17,2.2325,2.2325
45237,2.6023e+07,43.601,13.482,87.17,2.2379,2.2379
45282,2.6033e+07,43.601,13.482,87.17,2.2436,2.2436
45329,2.6043e+07,43.601,13.482,87.17,2.249,2.249
45375,2.6053e+07,43.601,13.482,87.17,2.2544,2.2544
45420,2.6063e+07,43.601,13.482,87.17,2.2598,2.2598
45465,2.6073e+07,43.601,13.482,87.17,2.2651,2.2651
45510,2.6087e+07,43.601,13.482,87.17,2.2727,2.2727
45551,2.6099e+07,43.601,13.482,87.17,2.2797,2.2797
45596,2.611e+07,43.601,13.482,87.17,2.2854,2.2854
45641,2.612e+07,43.601,13.482,87.17,2.2917,2.2917
45687,2.613e+07,43.601,13.482,87.34,2.2972,2.2972
45733,2.6141e+07,43.601,13.482,87.34,2.3029,2.3029
45782,2.6151e+07,43.601,13.482,87.34,2.3085,2.3085
45827,2.6161e+07,43.601,13.482,87.34,2.3141,2.3141
45871,2.6171e+07,43.601,13.482,87.34,2.3202,2.3202
45917,2.6182e+07,43.601,13.482,87.34,2.3257,2.3257
45959,2.6197e+07,43.601,13.482,87.34,2.3343,2.3343
46007,2.621e+07,43.601,13.482,87.34,2.3423,2.3423
46052,2.6221e+07,43.601,13.482,87.34,2.3485,2.3485
46097,2.6231e+07,43.601,13.482,87.34,2.3552,2.3552
46143,2.6241e+07,43.601,13.482,87.34,2.3604,2.3604
46187,2.6252e+07,43.601,13.482,87.34,2.3664,2.3664
46236,2.6262e+07,43.601,13.482,87.34,2.3729,2.3729
46280,2.6273e+07,43.601,13.482,87.34,2.3789,2.3789
46325,2.6283e+07,43.601,13.482,87.34,2.3852,2.3852
46370,2.6293e+07,43.601,13.482,87.34,2.3902,2.3902
46412,2.6304e+07,43.601,13.482,87.34,2.3969,2.3969
46454,2.6317e+07,43.601,13.482,87.34,2.4044,2.4044
46498,2.6327e+07,43.601,13.482,87.34,2.4108,2.4108
46545,2.6337e+07,43.601,13.482,87.34,2.4172,2.4172
46590,2.6347e+07,43.601,13.482,87.51,2.4234,2.4234
46635,2.6358e+07,43.601,13.482,87.51,2.43,2.43
46684,2.6369e+07,43.601,13.482,87.51,2.4349,2.4349
46729,2.6379e+07,43.601,13.482,87.51,2.4409,2.4409
46774,2.6389e+07,43.601,13.482,87.51,2.4474,2.4474
46818,2.6399e+07,43.601,13.482,87.51,2.4533,2.4533
46859,2.6411e+07,43.601,13.482,87.51,2.4602,2.4602
46907,2.6425e+07,43.601,13.482,87.51,2.4672,2.4672
46953,2.6435e+07,43.601,13.482,87.51,2.4724,2.4724
46995,2.6447e+07,43.601,13.482,87.51,2.4784,2.4784
47041,2.6457e+07,43.601,13.482,87.51,2.4835,2.4835
47089,2.6467e+07,43.601,13.482,87.51,2.4885,2.4885
47135,2.6478e+07,43.601,13.482,87.51,2.4935,2.4935
47180,2.6488e+07,43.601,13.482,87.51,2.4984,2.4984
47226,2.6499e+07,43.601,13.482,87.51,2.5033,2.5033
47273,2.6512e+07,43.601,13.482,87.51,2.5086,2.5086
47318,2.6527e+07,43.601,13.482,87.51,2.5148,2.5148
47365,2.6537e+07,43.601,13.482,87.65,2.5191,2.5191
47406,2.6549e+07,43.601,13.482,87.65,2.5239,2.5239
47451,2.6559e+07,43.601,13.482,87.65,2.5283,2.5283
47498,2.657e+07,43.601,13.482,87.65,2.5322,2.5322
47546,2.658e+07,43.601,13.482,87.65,2.536,2.536
47591,2.659e+07,43.601,13.482,87.65,2.5399,2.5399
47635,2.66e+07,43.601,13.482,87.65,2.5438,2.5438
47680,2.661e+07,43.601,13.482,87.65,2.5481,2.5481
47727,2.662e+07,43.601,13.482,87.65,2.5523,2.5523
47770,2.6632e+07,43.601,13.482,87.65,2.5569,2.5569
47812,2.6644e+07,43.601,13.482,87.65,2.5621,2.5621
47856,2.6654e+07,43.601,13.482,87.65,2.5665,2.5665
47901,2.6664e+07,43.601,13.482,87.65,2.5708,2.5708
47945,2.6674e+07,43.601,13.482,87.65,2.5751,2.5751
47995,2.6684e+07,43.601,13.482,87.65,2.5794,2.5794
48040,2.6694e+07,43.601,13.482,87.65,2.5837,2.5837
48084,2.6704e+07,43.601,13.482,87.65,2.5878,2.5878
48129,2.6714e+07,43.601,13.482,87.65,2.5921,2.5921
48171,2.6726e+07,43.601,13.482,87.65,2.5971,2.5971
48216,2.6736e+07,43.601,13.482,87.65,2.6025,2.6025
48259,2.6747e+07,43.601,13.482,87.8,2.6082,2.6082
48305,2.6757e+07,43.601,13.482,87.8,2.6138,2.6138
48350,2.6768e+07,43.601,13.482,87.8,2.6186,2.6186
48395,2.6778e+07,43.601,13.482,87.8,2.6242,2.6242
48444,2.6789e+07,43.601,13.482,87.8,2.6283,2.6283
48489,2.6799e+07,43.601,13.482,87.8,2.6334,2.6334
48533,2.6809e+07,43.601,13.482,87.8,2.6388,2.6388
48578,2.6819e+07,43.601,13.482,87.8,2.6438,2.6438
48627,2.6835e+07,43.601,13.482,87.8,2.652,2.652
48668,2.6847e+07,43.601,13.482,87.8,2.6584,2.6584
48713,2.6858e+07,43.601,13.482,87.8,2.6648,2.6648
48757,2.6868e+07,43.601,13.482,87.8,2.6707,2.6707
48802,2.6879e+07,43.601,13.482,87.8,2.6764,2.6764
48849,2.6889e+07,43.601,13.482,87.8,2.6803,2.6803
48896,2.6899e+07,43.601,13.482,87.8,2.6863,2.6863
48942,2.691e+07,43.601,13.482,87.8,2.6919,2.6919
48987,2.692e+07,43.601,13.482,87.8,2.6973,2.6973
49031,2.6932e+07,43.601,13.482,87.8,2.7034,2.7034
49073,2.6944e+07,43.601,13.482,87.89,2.71,2.71
49119,2.6955e+07,43.601,13.482,87.89,2.7157,2.7157
49164,2.6964e+07,43.601,13.482,87.89,2.7209,2.7209
49209,2.6975e+07,43.601,13.482,87.89,2.726,2.726
49253,2.6985e+07,43.601,13.482,87.89,2.7297,2.7297
49304,2.6996e+07,43.601,13.482,87.89,2.7347,2.7347
49349,2.7006e+07,43.601,13.482,87.89,2.7399,2.7399
49394,2.7016e+07,43.601,13.482,87.89,2.7447,2.7447
49439,2.7026e+07,43.601,13.482,87.89,2.7494,2.7494
49488,2.7043e+07,43.601,13.482,87.89,2.7563,2.7563
49529,2.7055e+07,43.601,13.482,87.89,2.7618,2.7618
49574,2.7065e+07,43.601,13.482,87.89,2.7665,2.7665
49619,2.7076e+07,43.601,13.482,87.89,2.7711,2.7711
49663,2.7086e+07,43.601,13.482,87.89,2.7757,2.7757
49709,2.7096e+07,43.601,13.482,87.89,2.7804,2.7804
49758,2.7107e+07,43.601,13.482,87.89,2.7835,2.7835
49802,2.7117e+07,43.601,13.482,87.89,2.788,2.788
49849,2.7127e+07,43.601,13.482,88.04,2.7922,2.7922
49894,2.7137e+07,43.601,13.482,88.04,2.7963,2.7963
49941,2.7151e+07,43.601,13.482,88.04,2.8014,2.8014
49982,2.7164e+07,43.601,13.482,88.04,2.8064,2.8064
50027,2.7174e+07,43.601,13.482,88.04,2.8107,2.8107
50072,2.7184e+07,43.601,13.482,88.04,2.8149,2.8149
50117,2.7194e+07,43.601,13.482,88.04,2.8177,2.8177
50161,2.7203e+07,43.601,13.482,88.04,2.8217,2.8217
50210,2.7214e+07,43.601,13.482,88.04,2.8257,2.8257
50254,2.7224e+07,43.601,13.482,88.04,2.8297,2.8297
50301,2.7234e+07,43.601,13.482,88.04,2.8323,2.8323
50345,2.7244e+07,43.601,13.482,88.04,2.8361,2.8361
50387,2.7255e+07,43.601,13.482,88.04,2.8404,2.8404
50431,2.7266e+07,43.601,13.482,88.04,2.8441,2.8441
50476,2.7276e+07,43.601,13.482,88.04,2.8474,2.8474
50518,2.7288e+07,43.601,13.482,88.04,2.8512,2.8512
50562,2.7298e+07,43.601,13.482,88.04,2.8544,2.8544
50608,2.7309e+07,43.601,13.482,88.04,2.8576,2.8576
50656,2.7319e+07,43.601,13.482,88.04,2.8609,2.8609
50701,2.7329e+07,43.601,13.482,88.04,2.8633,2.8633
50749,2.7339e+07,43.601,13.482,88.17,2.8664,2.8664
50793,2.7349e+07,43.601,13.482,88.17,2.8693,2.8693
