LineNo,TimeUS,RDes,R,ROut,PDes,P,POut,YDes,Y,YOut,ADes,A,AOut
189,1.5037e+07,2.5055,0.083102,0.0047548,2.4278,-0.18687,0.0067245,227.46,0.14707,0.64782,1.8473,1.8473,0
292,1.5071e+07,2.5101,0.063569,0.0060816,2.4469,0.026968,0.005012,248.04,0.35683,0.67382,5.3655,5.3655,0
634,1.5133e+07,2.4744,0.075362,0.00554,2.4461,0.060481,0.0055849,265.83,0.3829,0.7221,-1.2229,-1.2229,0
747,1.5149e+07,2.475,-0.032806,0.0060548,2.435,0.10047,0.0052755,269.55,0.26604,0.73471,-0.93632,-0.93632,0
860,1.5165e+07,2.4706,0.029471,0.0056062,2.4298,-0.021946,0.0064838,273.07,0.26552,0.74723,0.32701,0.32701,0
973,1.5182e+07,2.4723,-0.02554,0.0061394,2.4275,0.022234,0.0057539,276.43,0.23417,0.75961,3.0453,3.0453,0
1204,1.526e+07,2.4907,-0.055418,0.0061377,2.4588,-0.0070913,0.0058042,277.91,0.51169,0.79798,1.4705,1.4705,0
1588,1.5416e+07,2.4746,-0.055411,0.0057858,2.4401,0.090326,0.0052646,277.91,0.32114,0.841,2.1519,2.1519,0
1666,1.5426e+07,2.4775,-0.086439,0.0059663,2.4337,0.057641,0.0054972,277.91,0.25358,0.84462,1.5159,1.5159,0
1708,1.5437e+07,2.483,-0.15763,0.0065407,2.4258,0.02206,0.0056908,277.91,0.26223,0.84784,1.9758,1.9758,0
1748,1.5447e+07,2.4923,-0.13229,0.0063844,2.4241,-0.075791,0.0065845,277.91,0.33772,0.85067,2.0931,2.0931,0
1789,1.546e+07,2.4968,-0.060449,0.0058385,2.4232,-0.048675,0.0060308,277.91,0.32435,0.85374,3.4665,3.4665,0
1832,1.5473e+07,2.4932,0.1665,0.0046774,2.4348,-0.071891,0.0058524,277.91,0.27053,0.85637,2.1848,2.1848,0
1874,1.5483e+07,2.4945,0.040002,0.0057525,2.4352,-0.02719,0.0057632,277.91,0.46632,0.8582,1.2883,1.2883,0
1919,1.5493e+07,2.4939,0.036075,0.0060136,2.4376,-0.10905,0.0065153,277.91,0.35024,0.85977,-0.17452,-0.17452,0
1959,1.5503e+07,2.4886,0.06503,0.0057785,2.4362,0.037396,0.0053515,277.91,0.40961,0.86119,0.51165,0.51165,0
2000,1.5513e+07,2.4774,0.18367,0.0050387,2.4378,0.075226,0.0054716,277.91,0.16203,0.86248,0.37842,0.37842,0
2041,1.5523e+07,2.4746,0.08141,0.0056348,2.4394,0.052195,0.0055558,277.91,0.25808,0.86364,0.35048,0.35048,0
2087,1.5538e+07,2.4792,0.023358,0.0058682,2.4417,-0.05686,0.0059908,277.91,0.2511,0.8651,3.6656,3.6656,0
2131,1.5548e+07,2.4837,-0.013932,0.0058893,2.4457,-0.10618,0.0063238,277.91,0.3131,0.86591,3.1476,3.1476,0
2171,1.5558e+07,2.4879,-0.085237,0.0061518,2.441,-0.040692,0.005694,277.91,0.26567,0.86665,3.3527,3.3527,0
2212,1.5568e+07,2.4965,-0.10338,0.006217,2.4413,-0.10806,0.0063194,277.91,0.29256,0.8673,4.5156,4.5156,0
2253,1.5578e+07,2.5092,-0.21545,0.0069902,2.4356,-0.055614,0.0057804,277.91,0.2363,0.86787,4.2187,4.2187,0
2297,1.5588e+07,2.5073,0.015382,0.0051503,2.4319,0.094218,0.0048509,277.91,0.51618,0.86834,1.9633,1.9633,0
2339,1.5598e+07,2.5066,-0.069223,0.0062307,2.4343,-0.13195,0.0069233,277.22,0.3775,0.86874,1.964,1.964,0
2380,1.5609e+07,2.4743,0.018794,0.0052597,2.435,0.09407,0.0047083,274.43,0.44256,0.86881,0.3561,0.3561,0
2424,1.5619e+07,2.4473,-0.022946,0.0055483,2.4367,0.021866,0.0052404,271.64,0.40559,0.86811,-0.2038,-0.2038,0
2464,1.5628e+07,2.4126,0.059156,0.0053786,2.4402,0.021644,0.0057568,268.85,0.36979,0.86652,0.074291,0.074291,0
2502,1.5639e+07,2.3698,0.16714,0.0045709,2.4442,0.13163,0.0050205,266.06,0.27634,0.86417,0.21763,0.21763,0
2545,1.5649e+07,2.3383,0.010288,0.0061553,2.4478,-0.014848,0.0065558,263.27,0.34614,0.86107,-0.45071,-0.45071,0
2585,1.5659e+07,2.2985,0.13874,0.0047839,2.4508,0.13371,0.0051558,260.48,0.2032,0.85731,1.1158,1.1158,0
2626,1.5669e+07,2.2611,0.084636,0.0050864,2.4513,0.096127,0.005701,257.69,0.19873,0.85302,1.3211,1.3211,0
2666,1.5679e+07,2.2266,0.14587,0.0045678,2.4635,-0.075626,0.0069183,254.9,0.31565,0.8482,1.2593,1.2593,0
2711,1.5689e+07,2.1974,0.016361,0.005632,2.4669,-0.019946,0.0056269,252.11,0.32985,0.84286,1.386,1.386,0
2752,1.5699e+07,2.1656,-0.0058611,0.0052763,2.4688,0.082042,0.0053126,249.32,0.34739,0.83715,-0.38128,-0.38128,0
2793,1.571e+07,2.1328,0.064353,0.0049802,2.4765,-0.023734,0.0058623,246.53,0.31842,0.83107,-0.87032,-0.87032,0
2834,1.5719e+07,2.1031,0.032592,0.005184,2.482,-0.0011891,0.005858,243.74,0.26921,0.82469,-0.3047,-0.3047,0
2874,1.5729e+07,2.0786,-0.054527,0.0051461,2.4842,-0.015357,0.005922,240.95,0.25927,0.81805,0.88673,0.88673,0
2916,1.5739e+07,2.0618,-0.23077,0.0059709,2.4839,-0.08772,0.0065177,238.16,0.38849,0.81113,1.6354,1.6354,0
2958,1.5749e+07,2.0427,-0.20087,0.0055648,2.4842,-0.080363,0.0060082,235.37,0.43266,0.80396,0.49973,0.49973,0
2997,1.5759e+07,2.0223,-0.13802,0.0049564,2.49,-0.13422,0.0065101,232.58,0.26886,0.79667,1.0907,1.0907,0
3039,1.577e+07,2.002,-0.14148,0.0050281,2.4944,-0.088306,0.0059851,229.79,0.36001,0.78916,2.6165,2.6165,0
3079,1.578e+07,1.9754,-0.075637,0.0043932,2.4962,0.0031523,0.0053129,227,0.31114,0.78153,4.3929,4.3929,0
3125,1.579e+07,1.9426,0.050036,0.0039094,2.4981,0.061578,0.0054028,224.21,0.40053,0.77375,5.6791,5.6791,0
3167,1.58e+07,1.911,-0.0030259,0.0044091,2.4979,0.076048,0.0056339,221.42,0.38202,0.76585,3.4384,3.4384,0
3208,1.581e+07,1.8784,0.03229,0.0040979,2.494,0.1351,0.0051177,218.63,0.28178,0.75787,2.1333,2.1333,0
3249,1.582e+07,1.8432,0.13103,0.0032385,2.4988,0.021729,0.0063016,215.84,0.44725,0.74978,0.12712,0.12712,0
3291,1.5833e+07,1.8062,0.067606,0.0038139,2.5025,0.049409,0.0056816,212.35,0.27436,0.73955,0.62914,0.62914,0
3328,1.5843e+07,1.7737,0.2761,0.0024419,2.5114,-0.023469,0.0062585,210.26,0.42115,0.73134,0.96169,0.96169,0
3370,1.5854e+07,1.7413,0.12336,0.0037053,2.5167,-0.0083857,0.006089,207.47,0.35221,0.72321,2.0432,2.0432,0
3411,1.5864e+07,1.7224,-0.17114,0.0057192,2.5209,-0.10287,0.0065213,204.68,0.42687,0.71504,2.6184,2.6184,0
3451,1.5873e+07,1.6961,0.0097677,0.003519,2.534,-0.17336,0.006711,201.89,0.39246,0.70684,2.0593,2.0593,0
3492,1.5884e+07,1.666,0.064454,0.0034041,2.5408,-0.044536,0.0058592,199.1,0.27671,0.69856,3.3381,3.3381,0
3536,1.5893e+07,1.636,0.01924,0.0036743,2.5421,-0.0033786,0.0056442,196.31,0.26399,0.6903,4.7442,4.7442,0
3577,1.5903e+07,1.615,-0.14372,0.0043985,2.5452,-0.0096096,0.0059379,193.52,0.25691,0.68195,4.1593,4.1593,0
3619,1.5913e+07,1.5867,-0.095366,0.0040062,2.5377,0.16103,0.0046575,190.73,0.19361,0.67356,4.156,4.156,0
3661,1.5923e+07,1.5624,-0.11601,0.0041569,2.5397,0.022994,0.0065561,187.94,0.29282,0.66514,3.0175,3.0175,0
3699,1.5934e+07,1.5401,-0.19934,0.0044832,2.5364,0.07413,0.0056785,185.15,0.1404,0.65669,0.37117,0.37117,0
3736,1.5944e+07,1.52,-0.10477,0.0035391,2.5341,0.062949,0.005799,183.06,0.26591,0.64829,-0.61302,-0.61302,0
3778,1.5954e+07,1.4886,0.047942,0.002785,2.5384,0.079904,0.0054203,180.27,0.2932,0.63991,-0.50621,-0.50621,0
3819,1.5964e+07,1.4584,-0.022707,0.00368,2.5408,-0.023778,0.0064167,177.48,0.33281,0.63154,-1.2621,-1.2621,0
3859,1.5974e+07,1.4227,0.17113,0.0021552,2.5532,-0.099124,0.0069667,174.69,0.29106,0.62312,-0.99621,-0.99621,0
3900,1.5984e+07,1.3914,0.066413,0.0032578,2.5615,-0.074532,0.0059679,171.9,0.51226,0.61461,1.9961,1.9961,0
3944,1.5994e+07,1.3563,0.13934,0.0026725,2.5698,-0.04423,0.0060987,169.11,0.26333,0.60612,3.255,3.255,0
3985,1.6004e+07,1.3139,0.34042,0.0013276,2.58,-0.010415,0.0057748,166.32,0.51128,0.59756,1.9787,1.9787,0
4026,1.6014e+07,1.2822,0.07136,0.0035941,2.5851,-0.039123,0.0062972,163.53,0.36526,0.589,1.9482,1.9482,0
4069,1.6024e+07,1.2433,0.18616,0.0021002,2.5877,0.045333,0.0057855,160.74,0.41917,0.5804,2.599,2.599,0
4110,1.6034e+07,1.2086,0.10264,0.0025926,2.5893,0.092668,0.0059842,157.95,0.38852,0.5718,1.4916,1.4916,0
4147,1.6044e+07,1.1787,0.19304,0.0022186,2.5935,-0.020965,0.0068136,155.86,0.45424,0.56315,-0.35229,-0.35229,0
4189,1.6054e+07,1.1466,0.0027852,0.0034559,2.5898,0.12939,0.0052472,153.07,0.35558,0.55469,-0.53654,-0.53654,0
4233,1.6067e+07,1.1163,-0.11842,0.0034638,2.5882,0.076087,0.0061554,149.58,0.30091,0.54416,-0.57545,-0.57545,0
4275,1.6077e+07,1.0907,-0.090941,0.0023655,2.5816,0.14631,0.0054164,146.79,0.24144,0.53573,-1.2889,-1.2889,0
4315,1.6087e+07,1.0719,-0.1341,0.0028282,2.5888,-0.10159,0.0070817,144,0.26212,0.52726,0.081921,0.081921,0
4360,1.6097e+07,1.05,-0.16232,0.0027738,2.592,-0.042213,0.0064319,141.21,0.17721,0.51878,2.0466,2.0466,0
4401,1.6107e+07,1.0321,-0.21276,0.0029708,2.595,-0.019315,0.0060122,138.42,0.26263,0.51024,3.7549,3.7549,0
4441,1.6117e+07,1.0071,-0.10375,0.0024415,2.6018,-0.14577,0.0070384,135.63,0.15503,0.50171,2.9752,2.9752,0
4487,1.6133e+07,0.96514,-0.040585,0.0022719,2.611,-0.028374,0.0061398,131.45,0.37802,0.4888,0.92487,0.92487,0
4530,1.6145e+07,0.93063,-0.04924,0.0020996,2.61,0.028363,0.0059727,127.96,0.4011,0.47801,1.4312,1.4312,0
4570,1.6155e+07,0.90633,-0.11445,0.0026638,2.61,0.10426,0.0053134,125.17,0.47327,0.46932,0.58804,0.58804,0
4611,1.6165e+07,0.87299,0.1181,0.00086568,2.6097,0.08698,0.0057908,122.38,0.49003,0.4606,2.5296,2.5296,0
4653,1.6175e+07,0.83817,0.14399,0.0010819,2.6139,0.0064784,0.0067878,119.59,0.42953,0.4519,1.333,1.333,0
4693,1.6185e+07,0.80679,0.092809,0.0016221,2.6183,-0.036921,0.0066657,116.8,0.45586,0.44317,1.3811,1.3811,0
4738,1.6196e+07,0.77274,0.078674,0.0013171,2.6155,0.10901,0.005577,114.01,0.40595,0.43446,0.96884,0.96884,0
4778,1.6205e+07,0.73257,0.29693,-0.0001581,2.6231,-0.041985,0.0068257,111.22,0.3924,0.42576,2.0047,2.0047,0
4820,1.6215e+07,0.70282,0.045316,0.0023666,2.6251,0.05664,0.0056286,108.43,0.28136,0.41707,3.7459,3.7459,0
4860,1.6226e+07,0.67171,0.03472,0.001401,2.6252,0.078311,0.006041,105.64,0.19466,0.40839,3.8868,3.8868,0
4901,1.6236e+07,0.63926,0.090895,0.0010621,2.6272,0.026918,0.0064012,102.85,0.13414,0.39974,1.95,1.95,0
4939,1.6245e+07,0.61537,-0.10625,0.0025909,2.6257,0.072682,0.0059858,100.06,0.24279,0.39106,3.4535,3.4535,0
4976,1.6255e+07,0.59415,-0.1678,0.0020575,2.6254,0.07042,0.0060502,97.271,0.098864,0.38238,1.6302,1.6302,0
5018,1.6265e+07,0.5686,-0.075426,0.00099445,2.6263,0.0694,0.006274,94.481,0.36712,0.37367,-1.2824,-1.2824,0
5060,1.6275e+07,0.54399,-0.070962,0.0015668,2.6285,0.074627,0.0058337,91.692,0.43717,0.36489,-0.20742,-0.20742,0
5100,1.6285e+07,0.52539,-0.20946,0.002267,2.627,0.061607,0.005783,88.902,0.49204,0.35608,0.34285,0.34285,0
5145,1.6295e+07,0.50234,-0.11048,0.00092762,2.6296,0.02316,0.0064882,86.112,0.47339,0.34728,1.9416,1.9416,0
5186,1.6305e+07,0.47823,-0.055309,0.0004254,2.6356,-0.03538,0.0064932,83.322,0.3857,0.33852,0.53186,0.53186,0
5227,1.6315e+07,0.45389,-0.074351,0.0011954,2.6451,-0.10584,0.0067339,80.532,0.5984,0.3297,2.433,2.433,0
5267,1.6325e+07,0.42408,0.015705,0.00055522,2.6517,-0.093764,0.0065278,77.742,0.54837,0.32088,3.1899,3.1899,0
5310,1.6338e+07,0.39447,0.12603,4.9834e-05,2.6601,-0.099703,0.0065942,75.423,0.39631,0.30994,3.8559,3.8559,0
5347,1.6348e+07,0.38815,0.18444,-0.00054285,2.6551,0.093507,0.0051342,75.417,0.44342,0.30159,2.3225,2.3225,0
5392,1.636e+07,0.38838,0.017095,0.0013942,2.6535,0.065175,0.0057723,75.411,0.36584,0.29223,1.7401,1.7401,0
5433,1.6371e+07,0.38425,0.12772,1.5575e-05,2.6526,0.033845,0.0063353,75.408,0.22535,0.28572,0.91915,0.91915,0
5473,1.6381e+07,0.37409,0.21612,-4.2669e-05,2.6466,0.10267,0.0054793,75.407,0.17133,0.27997,0.9675,0.9675,0
5515,1.639e+07,0.37264,0.049898,0.0014924,2.6438,0.069283,0.0063542,75.405,0.17598,0.27491,1.4536,1.4536,0
5559,1.64e+07,0.37215,-0.0028713,0.0012467,2.6439,-0.022271,0.0066772,75.403,0.17785,0.2704,1.1668,1.1668,0
5601,1.641e+07,0.36636,0.15314,7.906e-05,2.6417,0.027173,0.0061687,75.398,0.35346,0.2664,1.328,1.328,0
5642,1.642e+07,0.37027,-0.072799,0.0018527,2.6427,-0.052074,0.0071279,75.396,0.14119,0.26287,1.8193,1.8193,0
5682,1.643e+07,0.37164,-0.0083336,0.00065497,2.641,0.0033033,0.0060987,75.393,0.27727,0.25977,0.15574,0.15574,0
5717,1.644e+07,0.37656,-0.077685,0.0011893,2.6448,-0.07192,0.0066479,75.388,0.28162,0.257,0.63791,0.63791,0
5758,1.6451e+07,0.38095,-0.072794,0.0011918,2.6457,-0.072439,0.0064975,75.378,0.45472,0.25451,1.715,1.715,0
5799,1.6462e+07,0.39243,-0.27292,0.0026047,2.65,-0.10264,0.0067871,75.366,0.48882,0.2523,2.6756,2.6756,0
5839,1.6471e+07,0.40231,-0.22092,0.0018894,2.6455,0.099756,0.0051531,75.354,0.52624,0.2503,1.7805,1.7805,0
5881,1.6481e+07,0.41099,-0.18964,0.0014779,2.6471,-0.056917,0.0069401,75.342,0.56004,0.24852,1.377,1.377,0
5923,1.6491e+07,0.41239,-0.041172,0.00046729,2.6439,0.055375,0.0056625,75.333,0.35112,0.24699,-0.27208,-0.27208,0
5967,1.6501e+07,0.4092,0.095865,-0.00022587,2.6399,0.071844,0.0058983,75.323,0.34297,0.24565,-0.3149,-0.3149,0
6008,1.6511e+07,0.40488,0.13831,-1.9705e-05,2.6316,0.17938,0.0051648,75.313,0.36368,0.24446,-1.025,-1.025,0
6050,1.6522e+07,0.40026,0.12682,0.00039921,2.6232,0.19279,0.0055189,75.306,0.23314,0.24343,-2.3745,-2.3745,0
6094,1.6532e+07,0.38552,0.31894,-0.0004977,2.6179,0.10194,0.0063614,75.296,0.34017,0.24254,-1.525,-1.525,0
6131,1.6542e+07,0.37189,0.27818,9.5089e-05,2.6138,0.067159,0.0061241,75.289,0.30038,0.24173,-1.2339,-1.2339,0
6171,1.6552e+07,0.36011,0.25966,0.00041537,2.6185,-0.11087,0.0074603,75.283,0.26711,0.24103,-2.0839,-2.0839,0
6211,1.6563e+07,0.34518,0.36164,-0.00032367,2.6265,-0.21269,0.0073412,75.277,0.33494,0.24039,-1.4516,-1.4516,0
6252,1.6572e+07,0.33797,0.20442,0.00052535,2.6335,-0.15768,0.0062814,75.268,0.49694,0.23975,0.48027,0.48027,0
6293,1.6583e+07,0.34018,-0.034193,0.0017284,2.6392,-0.13371,0.0064902,75.261,0.37825,0.23924,1.4867,1.4867,0
6334,1.6593e+07,0.35185,-0.25246,0.0028502,2.6392,-0.079202,0.0063068,75.252,0.53795,0.23872,0.75474,0.75474,0
6380,1.6603e+07,0.35783,-0.10342,0.00074385,2.6384,0.032834,0.0059059,75.246,0.34204,0.23831,1.5709,1.5709,0
6424,1.6613e+07,0.37934,-0.46616,0.0032934,2.6309,0.11128,0.0054073,75.24,0.38643,0.23793,0.69427,0.69427,0
6465,1.6623e+07,0.40904,-0.6555,0.0036816,2.6234,0.17016,0.0052238,75.233,0.43016,0.23761,0.0014305,0.0014305,0
6506,1.6633e+07,0.42585,-0.32914,0.00073975,2.6162,0.18969,0.0055854,75.228,0.35089,0.23731,-0.94109,-0.94109,0
6544,1.6645e+07,0.44218,-0.23921,0.0012247,2.6089,0.14309,0.0057476,75.223,0.30867,0.23704,-0.73862,-0.73862,0
6585,1.6655e+07,0.44723,-0.091513,0.0004531,2.6156,-0.13267,0.007722,75.218,0.46371,0.23681,-0.28172,-0.28172,0
6625,1.6666e+07,0.44659,0.034192,2.227e-07,2.6188,-0.099588,0.0066161,75.215,0.31953,0.2366,-0.49772,-0.49772,0
6667,1.6676e+07,0.43445,0.26682,-0.00097307,2.6269,-0.19584,0.007286,75.214,0.1765,0.2365,0.59118,0.59118,0
6707,1.6685e+07,0.41815,0.36403,-0.00060074,2.6355,-0.20677,0.0068697,75.213,0.25101,0.23639,1.3752,1.3752,0
6752,1.6695e+07,0.4003,0.3988,-0.00035765,2.6458,-0.22991,0.0067294,75.208,0.42867,0.23626,1.2081,1.2081,0
6794,1.6705e+07,0.38027,0.47412,-0.00032199,2.6517,-0.093842,0.0059523,75.206,0.28111,0.23613,1.4339,1.4339,0
6835,1.6715e+07,0.35822,0.47004,-0.00054749,2.6548,-0.11842,0.0064701,75.201,0.42607,0.236,1.8581,1.8581,0
6876,1.6725e+07,0.34684,0.27498,0.00088695,2.6548,-0.025787,0.0058441,75.198,0.29965,0.23591,0.5064,0.5064,0
6918,1.6735e+07,0.34007,0.20387,0.00098187,2.6497,0.094558,0.0056832,75.193,0.47364,0.2358,0.35267,0.35267,0
6953,1.6746e+07,0.34371,-0.040788,0.001855,2.6403,0.20602,0.0050477,75.194,0.23682,0.23572,0.20523,0.20523,0
6993,1.6756e+07,0.35379,-0.16644,0.0016839,2.6314,0.19395,0.0057266,75.195,0.51151,0.23561,0.036335,0.036335,0
7034,1.6766e+07,0.36559,-0.25252,0.0017512,2.6177,0.3075,0.004721,75.199,0.34054,0.23555,-0.036049,-0.036049,0
7075,1.6776e+07,0.37814,-0.25326,0.0019743,2.6099,0.21852,0.0058698,75.202,0.37557,0.2355,0.40941,0.40941,0
7116,1.6786e+07,0.39488,-0.39205,0.0026996,2.6044,0.10653,0.0063415,75.204,0.39278,0.23544,1.2785,1.2785,0
7163,1.6796e+07,0.40799,-0.30958,0.0015695,2.6023,0.0082905,0.006646,75.206,0.39791,0.23541,2.0461,2.0461,0
7204,1.6805e+07,0.42045,-0.26955,0.0015347,2.6049,-0.04348,0.0064304,75.208,0.36921,0.23536,0.49133,0.49133,0
7246,1.6815e+07,0.42807,-0.17022,0.0011179,2.6158,-0.23316,0.0076443,75.211,0.29598,0.23535,-0.015831,-0.015831,0
7287,1.6826e+07,0.43165,-0.058077,0.00076096,2.6243,-0.20478,0.0068261,75.214,0.34492,0.23535,0.90942,0.90942,0
7327,1.6836e+07,0.42692,0.1036,-0.00018107,2.6205,0.053845,0.0047696,75.217,0.37779,0.23533,-1.63,-1.63,0
7368,1.6845e+07,0.4135,0.30548,-0.00071163,2.6197,0.030827,0.0060465,75.22,0.26494,0.23531,-0.52891,-0.52891,0
7405,1.6856e+07,0.39721,0.33718,-0.00034031,2.6116,0.20409,0.0045991,75.22,0.39912,0.2353,0.041962,0.041962,0
7446,1.6866e+07,0.3839,0.31017,-0.0001212,2.606,0.1428,0.0056942,75.222,0.29777,0.2353,-0.38033,-0.38033,0
7488,1.6877e+07,0.37068,0.30786,0.00048663,2.5988,0.1351,0.0057266,75.223,0.35708,0.23528,-0.77114,-0.77114,0
7528,1.6887e+07,0.35613,0.34785,-0.00039331,2.5932,0.16185,0.0054614,75.222,0.3531,0.23529,0.94328,0.94328,0
7572,1.6897e+07,0.35471,0.028052,0.0017872,2.5949,-0.040448,0.0068817,75.223,0.33061,0.23526,0.43507,0.43507,0
7614,1.6906e+07,0.35642,-0.0062637,0.001578,2.5931,0.054759,0.0057612,75.222,0.36796,0.23526,0.056648,0.056648,0
7656,1.6916e+07,0.36156,-0.13269,0.0021173,2.597,-0.051604,0.0063461,75.22,0.34451,0.23527,-0.98314,-0.98314,0
7697,1.6927e+07,0.37332,-0.24076,0.0021938,2.6045,-0.17407,0.0072714,75.219,0.34367,0.23525,0.86956,0.86956,0
7739,1.6939e+07,0.39928,-0.41355,0.0023951,2.6158,-0.149,0.0060131,75.217,0.38936,0.23527,-0.61893,-0.61893,0
7780,1.695e+07,0.41153,-0.21941,0.00072391,2.62,-0.089617,0.0060116,75.213,0.43487,0.23523,0.044346,0.044346,0
7817,1.6959e+07,0.42156,-0.18437,0.00084633,2.6214,-0.060951,0.0059618,75.209,0.36928,0.23522,-0.75531,-0.75531,0
7859,1.6969e+07,0.43063,-0.1712,0.0012222,2.6199,0.057367,0.0053991,75.204,0.43321,0.23518,0.81291,0.81291,0
7899,1.6979e+07,0.43937,-0.19859,0.0014899,2.62,-0.029357,0.0064855,75.199,0.43285,0.23517,-0.97094,-0.97094,0
7940,1.6989e+07,0.43876,0.0101,0.00034083,2.6186,0.02209,0.0061175,75.195,0.32047,0.23516,-0.30603,-0.30603,0
7986,1.7e+07,0.43015,0.1892,-0.00022474,2.6124,0.14135,0.0049234,75.191,0.32058,0.23517,0.37184,0.37184,0
8028,1.701e+07,0.42573,0.097765,0.00082253,2.6102,0.046378,0.0061771,0.0021445,0.31755,0.23519,1.2361,1.2361,0
8071,1.702e+07,0.41743,0.18648,0.0001075,2.607,0.078189,0.0058302,0.0021162,0.48396,0.22099,1.2113,1.2113,0
8111,1.703e+07,0.39483,0.55597,-0.0022222,2.6014,0.10762,0.0055331,0.0019763,0.40232,0.19902,1.5606,1.5606,0
8149,1.704e+07,0.38175,0.43875,9.7566e-05,2.5927,-0.0031899,0.0061447,0.0019109,0.37748,0.17682,1.8707,1.8707,0
8186,1.705e+07,0.3726,0.32891,0.0014202,2.5955,-0.38242,0.0092075,0.001873,0.032442,0.15654,0.15497,0.15497,0
8227,1.706e+07,0.36123,0.21016,0.0015485,2.5834,-0.0079775,0.0067779,0.0018119,-0.16958,0.13845,3.8982,3.8982,0
8267,1.707e+07,0.347,0.19383,0.00030781,2.5715,0.16974,0.0038489,0.0017354,0.58622,0.12227,1.2997,1.2997,0
8309,1.708e+07,0.32534,0.37365,-0.0024537,2.611,-0.99769,0.016138,0.0016509,0.55965,0.10776,0.048161,0.048161,0
8351,1.709e+07,0.30309,0.66799,-0.0083272,2.6061,-0.20455,0.0093818,0.0015442,0.73718,0.09482,1.9886,1.9886,0
8395,1.7101e+07,0.33261,-0.64919,0.0040054,2.6297,-0.90707,0.015358,0.0017036,0.60325,0.083443,-2.0175,-2.0175,0
8436,1.711e+07,0.34806,-0.81037,0.0080725,2.6126,0.36311,0.00533,0.0017647,0.68692,0.073446,1.2914,1.2914,0
8478,1.712e+07,0.34628,-1.0397,0.011571,2.5823,1.542,-0.0082642,0.0017362,0.80794,0.064723,3.1507,3.1507,0
8519,1.713e+07,0.37019,-2.1572,0.023017,2.5419,2.1947,-0.016331,0.0018135,0.7201,0.057047,-4.8316,-4.8316,0
8559,1.714e+07,0.38861,-2.5645,0.029416,2.5531,1.032,-0.0063055,0.0019183,0.45791,0.050444,-8.1665,-8.1665,0
8599,1.7153e+07,0.30354,-1.9764,0.020862,2.6151,0.25008,0.0050943,0.0015387,-0.25881,0.043254,-5.422,-5.422,0
8640,1.7163e+07,0.31325,-1.6205,0.016559,2.5896,1.3591,-0.0049368,0.001563,0.32529,0.038233,0.53635,0.53635,0
8680,1.7173e+07,0.33663,-1.603,0.013177,2.5759,1.0702,-0.0024306,0.0016779,0.01132,0.033895,2.1561,2.1561,0
8721,1.7182e+07,0.35804,-1.0985,0.0091647,2.5483,1.3297,-0.0042415,0.0017577,0.36239,0.02991,9.7178,9.7178,0
8762,1.7193e+07,0.36916,-0.56784,0.0036931,2.5374,0.78633,-0.0014511,0.0018139,0.34851,0.026441,12.21,12.21,0
8806,1.7203e+07,0.36337,0.067013,-0.00099155,2.5677,-0.56059,0.0093318,0.0017934,0.23281,0.023245,4.0084,4.0084,0
8847,1.7213e+07,0.34836,0.39933,-0.0014421,2.6065,-1.151,0.01472,0.001762,0.4146,0.020406,1.4136,1.4136,0
8887,1.7223e+07,0.3474,0.1958,0.0010486,2.6157,-0.74151,0.010805,0.0017656,0.5489,0.017834,-5.2322,-5.2322,0
8929,1.7233e+07,0.36704,-0.13592,-0.00037576,2.6039,-0.17704,0.006814,0.0018576,0.82425,0.015402,-6.1106,-6.1106,0
8966,1.7243e+07,0.37925,0.34331,-0.0061372,2.634,-1.4967,0.020517,0.0019369,1.0076,0.013216,-6.4729,-6.4729,0
9004,1.7253e+07,0.33088,2.1454,-0.018898,2.6435,-1.1707,0.018245,0.0017027,0.4991,0.011271,1.6871,1.6871,0
9045,1.7263e+07,0.28098,2.2771,-0.018145,2.6282,-0.64356,0.012828,0.0014297,0.62447,0.0097003,-0.14801,-0.14801,0
9085,1.7273e+07,0.33614,-0.33131,0.0033028,2.5974,-0.036939,0.0090738,0.0017013,0.25303,0.0083048,-2.6757,-2.6757,0
9126,1.7284e+07,0.39073,-0.83003,0.0028423,2.5775,-0.12984,0.010456,0.0019604,0.56358,0.0071284,5.567,5.567,0
9166,1.7293e+07,0.4039,-0.11022,-0.00029537,2.5954,-0.89745,0.016292,0.0020325,-0.31811,0.0062294,7.3362,7.3362,0
9211,1.7303e+07,0.38588,0.77329,-0.0031238,2.5473,0.90989,-0.00075806,0.0018964,0.1248,0.0055083,1.9991,1.9991,0
9246,1.7333e+07,0.38106,1.0797,-0.0088815,2.5928,-0.31801,0.0092489,0.0019128,-0.25347,0.003887,4.4726,4.4726,0
9289,1.7343e+07,0.38963,0.069739,0.0015081,2.59,-0.18701,0.0083637,0.0019461,-0.69695,0.0035846,-19.029,-19.029,0
9326,1.7353e+07,0.4137,-0.13574,0.00532,2.6393,-1.6251,0.017888,0.0021111,0.65097,0.0030912,1.6479,1.6479,0
9364,1.7363e+07,0.36833,2.0331,-0.0191,2.6098,0.22964,0.0067979,0.0018647,-0.25546,0.0026962,-1.9195,-1.9195,0
9405,1.7373e+07,0.21146,5.2394,-0.047966,2.6257,-0.99731,0.012199,0.0010617,1.234,0.0021397,2.2977,2.2977,0
9445,1.7383e+07,0.25811,0.0014784,0.0053239,2.6155,-0.21889,0.0056777,0.0013094,-0.61875,0.0016659,9.6903,9.6903,0
9487,1.7393e+07,0.3182,-1.4133,0.017633,2.6866,-2.5649,0.032521,0.0016672,0.69234,0.0013334,0.55914,0.55914,0
9531,1.7404e+07,0.31711,0.15345,0.0064913,2.6838,-1.5201,0.017941,0.0016542,0.8356,0.00066232,-11.53,-11.53,0
9572,1.7413e+07,0.19368,4.0227,-0.03159,2.6749,-0.93573,0.022671,0.0010016,0.083184,0.00050188,1.9307,1.9307,0
9612,1.7423e+07,0.13969,3.6592,-0.023555,2.6974,-1.7622,0.020423,0.00074066,1.1789,-1.4372e-05,-9.7003,-9.7003,0
9655,1.7433e+07,0.12145,2.6933,-0.026948,2.6599,0.42853,0.00736,0.00062659,-0.8025,2.5069e-05,-12.619,-12.619,0
9696,1.7443e+07,0.054373,4.1437,-0.040202,2.6828,-0.53712,0.011048,0.00028496,1.8514,-0.00032261,-0.014496,-0.014496,0
9733,1.7453e+07,0.056023,1.848,-0.01932,2.6064,2.8671,-0.020235,0.00028705,-1.0517,-0.00030806,-9.6707,-9.6707,0
9775,1.7466e+07,0.13482,3.2672,-0.027846,2.763,-3.4475,0.040541,0.00072848,0.79672,-0.00030643,-12.352,-12.352,0
9816,1.7476e+07,0.045261,3.352,-0.035434,2.6398,2.8672,-0.016352,0.0002348,-1.2934,-0.00014597,-2.998,-2.998,0
9856,1.7486e+07,0.090115,4.2018,-0.047526,2.7533,-2.1577,0.032693,0.00047098,0.70118,-9.184e-05,1.8295,1.8295,0
9897,1.7496e+07,0.05373,4.5819,-0.052946,2.6472,2.4554,-0.016041,0.00026798,-0.95187,-7.2712e-05,-10.964,-10.964,0
9941,1.7507e+07,0.028317,4.3526,-0.045899,2.7038,-0.39402,0.017637,0.00013967,0.62192,2.5444e-05,14.432,14.432,0
9985,1.7516e+07,0.054515,2.2159,-0.027195,2.5927,3.6529,-0.031887,0.00026537,0.29323,-0.00021002,-10.66,-10.66,0
10025,1.7526e+07,0.10527,0.95696,-0.018665,2.6516,1.1222,0.0017731,0.00053233,0.59876,-1.2614e-05,22.231,22.231,0
10066,1.7536e+07,0.087875,1.3767,-0.021106,2.5315,5.2157,-0.05347,0.00043201,1.8167,-0.00051839,-9.4008,-9.4008,0
10105,1.7546e+07,0.11188,-0.56698,0.004513,2.5924,2.474,-0.011167,0.00056892,0.44967,-0.00030753,23.07,23.07,0
10144,1.7557e+07,0.044144,2.2105,-0.025818,2.5295,6.2495,-0.059588,0.00021524,2.1066,-0.00095797,-10.88,-10.88,0
10185,1.7567e+07,0.10207,-0.37624,-0.0017802,2.6111,2.0636,-0.0059481,0.00051276,0.66441,-0.00061786,32.727,32.727,0
10225,1.7576e+07,0.037584,1.6869,-0.019594,2.4468,7.1543,-0.064214,0.00017223,2.729,-0.001362,-11.919,-11.919,0
10267,1.7586e+07,0.082337,-1.4011,0.015503,2.5426,2.0565,-0.0040165,0.00039932,0.28772,-0.00095513,28.762,28.762,0
10307,1.7597e+07,0.057411,-0.16081,-1.5587e-05,2.4023,6.3661,-0.057605,0.00026173,2.3064,-0.0015027,-4.8951,-4.8951,0
10353,1.7607e+07,0.12906,-2.7144,0.021077,2.4823,2.0321,-0.0069489,0.00061331,0.064797,-0.00098047,24.985,24.985,0
10394,1.7617e+07,0.09059,-0.40062,-0.0028002,2.3847,4.8405,-0.046014,0.00042737,2.1499,-0.0015238,-4.7993,-4.7993,0
10434,1.7626e+07,0.14308,-2.7182,0.026482,2.4719,1.1467,-0.0013879,0.00067639,-0.282,-0.00095764,28.803,28.803,0
10476,1.7636e+07,0.14648,-1.9735,0.014522,2.4395,2.8781,-0.030167,0.00068952,1.1511,-0.0012238,-1.2369,-1.2369,0
10513,1.7649e+07,0.14129,2.3072,-0.030891,2.712,-1.1337,0.019772,0.00073655,0.68969,-0.00066539,15.972,15.972,0
10555,1.766e+07,0.064832,5.6636,-0.058776,2.591,4.2778,-0.036748,0.00031818,0.25795,-0.00087306,-19.147,-19.147,0
10597,1.767e+07,0.10246,3.3566,-0.033434,2.7137,-1.0829,0.023582,0.00052245,0.066309,-0.00048187,10.684,10.684,0
10638,1.7679e+07,0.078241,4.9438,-0.048191,2.5783,4.1406,-0.033111,0.00038094,0.8415,-0.00077345,-18.95,-18.95,0
10679,1.769e+07,0.12465,3.9752,-0.043121,2.7099,-1.5437,0.031792,0.00066097,-0.47383,-0.00036886,12.934,12.934,0
10722,1.77e+07,0.01298,8.1872,-0.082024,2.5501,3.967,-0.031841,6.6054e-05,1.6782,-0.00094563,-22.029,-22.029,0
10765,1.771e+07,0.1343,5.7143,-0.051329,2.7486,-5.6634,0.071192,0.00071897,-0.59485,-0.00064372,1.7775,1.7775,0
10805,1.772e+07,0.081058,7.6584,-0.070568,2.5317,2.8265,-0.018966,0.00039056,1.0439,-0.0012287,-16.084,-16.084,0
10846,1.773e+07,0.17229,4.5167,-0.047673,2.758,-7.1241,0.082082,0.0009206,-0.58302,-0.0007995,5.4436,5.4436,0
10889,1.7741e+07,0.06341,9.3849,-0.090584,2.5556,1.9285,-0.013201,0.0003,1.3896,-0.0016015,-22.744,-22.744,0
10929,1.7753e+07,0.42776,-4.9225,0.052843,2.5763,-5.8231,0.052351,0.0021476,2.0212,-0.001214,-3.1744,-3.1744,0
10972,1.7763e+07,0.38772,-0.13399,0.011198,2.4936,1.1939,-0.0023315,0.0018726,-0.70094,-0.0016013,-5.4597,-5.4597,0
11012,1.7773e+07,0.47549,-5.6339,0.058957,2.5924,-5.0394,0.038928,0.0023882,2.6182,-0.0013137,-8.3973,-8.3973,0
11053,1.7784e+07,0.3959,-3.253,0.047332,2.4361,3.4377,-0.022829,0.001857,-1.323,-0.0016244,2.5052,2.5052,0
11093,1.7793e+07,0.3835,-5.0927,0.061551,2.5539,-3.4517,0.026673,0.001896,2.4627,-0.0011877,0.79546,0.79546,0
11141,1.7803e+07,0.42717,-6.4415,0.074229,2.3897,4.2619,-0.027812,0.0019642,-1.9017,-0.0012515,10.098,10.098,0
11182,1.7813e+07,0.46831,-7.042,0.067488,2.4877,-2.5103,0.019771,0.0022466,3.1053,-0.00094591,-6.1142,-6.1142,0
11222,1.7823e+07,0.42446,-5.1291,0.059982,2.3534,4.3367,-0.025683,0.0019384,-1.7631,-0.0011193,6.5341,6.5341,0
11264,1.7833e+07,0.40951,-6.2729,0.065251,2.4306,-1.1456,0.0066535,0.0019394,3.2077,-0.00086346,-6.7372,-6.7372,0
11304,1.7843e+07,0.44948,-7.7278,0.082521,2.3756,3.3624,-0.018981,0.0020675,-1.9612,-0.00090039,10.096,10.096,0
11342,1.7853e+07,0.45154,-7.1289,0.059971,2.4684,-0.87957,0.003069,0.0021631,4.0928,-0.0010713,-9.0047,-9.0047,0
11383,1.7863e+07,0.40617,-5.7924,0.059097,2.4082,3.7721,-0.024076,0.0018897,-1.6112,-0.0010458,7.8264,7.8264,0
11427,1.7876e+07,-0.01642,2.5611,-0.029223,2.5517,2.2337,-0.02405,-8.1209e-05,2.3367,-0.0013453,-11.088,-11.088,0
11468,1.7886e+07,0.070248,-0.28689,-0.0041412,2.6498,-0.90751,0.020236,0.00035675,-1.4915,-0.00085174,16.15,16.15,0
11510,1.7896e+07,0.0074912,3.2783,-0.03917,2.5964,1.5575,-0.01921,2.3455e-05,2.5053,-0.0015625,-13.493,-13.493,0
11555,1.7906e+07,-0.018072,2.9134,-0.026523,2.67,-0.44489,0.017494,-9.6317e-05,-1.3024,-0.0011635,19.456,19.456,0
11596,1.7916e+07,-0.094448,4.373,-0.04226,2.5885,1.9541,-0.019543,-0.00047562,1.5978,-0.0016014,-17.995,-17.995,0
11636,1.7926e+07,-0.013142,1.1715,-0.016067,2.6656,-1.1632,0.026859,-6.7783e-05,-1.6757,-0.0010737,14.377,14.377,0
11677,1.7936e+07,-0.061442,4.3208,-0.049737,2.5803,1.225,-0.0094715,-0.0003146,1.6063,-0.0015373,-12.593,-12.593,0
11719,1.7946e+07,-0.071675,4.1466,-0.038977,2.6227,-0.98166,0.025854,-0.00037123,-1.652,-0.0010348,15.212,15.212,0
11757,1.7956e+07,-0.12935,5.1666,-0.052861,2.525,1.6404,-0.014502,-0.00065337,0.75872,-0.0012356,-10.873,-10.873,0
11798,1.7967e+07,-0.010078,1.0998,-0.016334,2.6522,-2.6518,0.039849,-6.0708e-05,-1.7145,-0.00072123,14.221,14.221,0
11841,1.7977e+07,-0.073326,5.178,-0.058194,2.5522,1.797,-0.017316,-0.00036135,1.4406,-0.0011789,-9.6803,-9.6803,0
11882,1.7987e+07,-0.029222,3.2579,-0.033937,2.6803,-2.4545,0.034125,-0.00015576,-1.6546,-0.00069348,13.467,13.467,0
11922,1.7997e+07,-0.041444,4.1903,-0.045053,2.5777,2.0285,-0.020835,-0.00022146,0.90354,-0.00098047,-13.32,-13.32,0
11969,1.8007e+07,0.11269,0.54824,-0.016272,2.7654,-3.6888,0.046072,0.00059207,-1.4839,-0.00050386,10.358,10.358,0
12009,1.8017e+07,0.067523,5.237,-0.061226,2.6092,2.9985,-0.029795,0.0003408,2.0398,-0.0011706,-15.234,-15.234,0
12051,1.8027e+07,0.11588,3.7084,-0.038947,2.7838,-3.625,0.048079,0.00062497,-1.5702,-0.0006977,11.197,11.197,0
12095,1.8042e+07,0.38562,-6.2329,0.063544,2.5161,4.5665,-0.026593,0.0018719,-1.5489,-0.001089,15.574,15.574,0
12136,1.8052e+07,0.47935,-6.0211,0.050628,2.5994,-2.3246,0.01618,0.0024188,3.4555,-0.0011166,-5.7627,-5.7627,0
12176,1.8062e+07,0.29049,-3.851,0.042965,2.4686,5.4665,-0.031431,0.0013885,-2.0464,-0.0012148,13.89,13.89,0
12219,1.8072e+07,0.20672,-3.2999,0.036265,2.5135,0.93548,-0.018296,0.0010017,3.75,-0.0012025,-8.5178,-8.5178,0
12259,1.8083e+07,0.23494,-5.6858,0.062425,2.4455,5.0421,-0.028311,0.0011085,-2.222,-0.0011819,16.386,16.386,0
12301,1.8092e+07,0.18437,-4.0498,0.034026,2.5184,0.40727,-0.015262,0.00089393,4.322,-0.0012832,-13.952,-13.952,0
12344,1.8102e+07,0.11815,-3.1531,0.039404,2.462,4.8852,-0.027297,0.00054522,-2.7361,-0.001254,14.297,14.297,0
12386,1.8113e+07,0.054856,-3.1518,0.030882,2.5104,1.0754,-0.024759,0.00024964,3.6018,-0.0010868,-14.041,-14.041,0
12432,1.8125e+07,-0.014873,0.049432,-0.0023809,2.72,-1.9908,0.036273,-7.8942e-05,-2.9701,-0.00056361,13.44,13.44,0
12472,1.8135e+07,-0.07121,4.6642,-0.051459,2.5832,3.4327,-0.038279,-0.00036283,3.2398,-0.0012659,-22.379,-22.379,0
12517,1.8147e+07,0.24953,0.57981,-0.0010792,2.8105,-8.5804,0.091009,0.0013682,-0.68314,-0.00043389,4.3164,4.3164,0
12554,1.8158e+07,0.24263,1.9959,-0.011421,2.5119,4.5153,-0.035674,0.0011767,0.31175,-0.0010234,-8.4359,-8.4359,0
12595,1.8168e+07,0.41312,-4.8508,0.041803,2.6914,-6.4476,0.062068,0.0021517,1.5134,-0.0004409,3.5489,3.5489,0
12636,1.8178e+07,0.39779,-2.7324,0.030616,2.439,5.0995,-0.037138,0.0018718,-0.269,-0.0012253,-1.9112,-1.9112,0
12678,1.8189e+07,0.43901,-4.7801,0.047322,2.6591,-6.4002,0.063933,0.0022512,1.3269,-0.0005859,0.49019,0.49019,0
12719,1.8198e+07,0.43287,-3.4783,0.040233,2.4183,4.9823,-0.034362,0.0020242,-0.63522,-0.0011924,-4.469,-4.469,0
12763,1.8208e+07,0.47979,-5.0299,0.041719,2.6205,-5.7694,0.052724,0.0024405,2.0472,-0.0006742,-4.2614,-4.2614,0
12804,1.8218e+07,0.436,-3.1386,0.037612,2.4308,4.0986,-0.028822,0.0020582,-0.63075,-0.0014177,-5.5331,-5.5331,0
12844,1.8228e+07,0.40692,-3.8434,0.042923,2.6343,-5.7119,0.050168,0.0020714,1.6263,-0.00080895,-5.3513,-5.3513,0
12886,1.8239e+07,0.38696,-3.8302,0.049428,2.4618,3.8994,-0.027889,0.0018433,-1.0786,-0.0012849,-1.3065,-1.3065,0
12924,1.8249e+07,0.35902,-3.7958,0.034242,2.6383,-4.6623,0.03562,0.0018335,2.1554,-0.00087648,-1.6963,-1.6963,0
12961,1.8259e+07,0.27063,-2.2988,0.031403,2.4709,4.3482,-0.029309,0.0012947,-1.4009,-0.00131,6.4798,6.4798,0
13002,1.8269e+07,0.20135,-2.6561,0.029848,2.634,-3.8961,0.030908,0.0010266,1.7137,-0.00079592,4.2599,4.2599,0
13043,1.8279e+07,0.20717,-3.8608,0.045259,2.4754,4.3581,-0.027188,0.00099355,-1.5367,-0.0010797,8.2384,8.2384,0
13085,1.8289e+07,0.1571,-2.1538,0.016531,2.5809,-2.2289,0.016247,0.00078512,2.6697,-0.00079263,5.862,5.862,0
13125,1.8299e+07,0.14329,-2.3434,0.027104,2.438,4.5685,-0.027571,0.0006768,-1.799,-0.0011346,-0.39101,-0.39101,0
13170,1.8309e+07,0.085193,-0.91365,0.0093668,2.53,-1.5675,0.011973,0.00041193,2.4706,-0.00076946,6.8667,6.8667,0
13210,1.8319e+07,0.16626,-3.57,0.035514,2.4333,3.7296,-0.020376,0.00077528,-1.8982,-0.00096013,-6.636,-6.636,0
13253,1.8329e+07,0.1336,-0.72505,-0.000336,2.5185,-1.1234,0.0063045,0.00064768,3.385,-0.00090733,5.8286,5.8286,0
13294,1.8339e+07,0.14784,-1.3569,0.012172,2.4443,3.499,-0.020909,0.00069162,-1.8157,-0.0011424,-9.0683,-9.0683,0
13332,1.8352e+07,0.10548,1.9138,-0.017547,2.5666,1.8881,-0.018954,0.00051688,3.3557,-0.0013338,-6.4684,-6.4684,0
13372,1.8362e+07,0.2331,-1.8863,0.011942,2.688,-1.1866,0.022129,0.0011996,-1.9951,-0.00083827,-5.3063,-5.3063,0
13413,1.8372e+07,0.20844,1.6206,-0.018547,2.6047,2.1471,-0.022016,0.0010522,3.6383,-0.0015798,-7.3192,-7.3192,0
13455,1.8382e+07,0.23069,0.63546,-0.0053682,2.7321,-1.3581,0.025218,0.0012276,-2.461,-0.00094646,0.01564,0.01564,0
13495,1.8392e+07,0.18369,2.3253,-0.020106,2.5929,3.4745,-0.031974,0.00092102,2.8684,-0.0014484,-5.7524,-5.7524,0
13537,1.8402e+07,0.29525,-0.92092,0.0045226,2.8032,-5.0773,0.060008,0.0016044,-1.8299,-0.00074906,5.8396,5.8396,0
13581,1.8412e+07,0.22446,2.7591,-0.023979,2.5759,3.7505,-0.029589,0.0011113,2.0018,-0.0014668,-9.0241,-9.0241,0
13621,1.8422e+07,0.2237,0.69014,-2.8744e-05,2.7715,-5.4534,0.063956,0.0012033,-1.6469,-0.00071423,2.2053,2.2053,0
13662,1.8432e+07,0.14926,2.5767,-0.015043,2.5333,3.7867,-0.02898,0.00071916,1.0105,-0.0012298,-10.45,-10.45,0
13703,1.8442e+07,0.18693,-0.45662,0.0048776,2.7556,-6.6981,0.071435,0.00099465,-0.91985,-0.00055773,0.34561,0.34561,0
13741,1.8452e+07,0.1079,2.4948,-0.01665,2.5432,2.8484,-0.021084,0.00051848,0.66627,-0.0011742,-9.7816,-9.7816,0
13781,1.8463e+07,0.10372,0.47179,-8.6479e-05,2.7166,-6.8965,0.07036,0.00052876,0.0031267,-0.00050273,5.4266,5.4266,0
13819,1.8473e+07,0.11083,0.1555,0.005405,2.5165,2.6484,-0.01554,0.00054241,-0.62458,-0.0010175,-13.243,-13.243,0
13860,1.8483e+07,0.14125,-0.73536,0.0011744,2.7295,-7.0353,0.062868,0.00074389,0.86629,-0.00056662,4.0033,4.0033,0
13900,1.8493e+07,0.13272,0.17974,0.00034734,2.556,2.6269,-0.014613,0.00065734,-0.81349,-0.0012382,-9.0502,-9.0502,0
13944,1.8503e+07,0.15726,-0.90763,0.0044735,2.714,-5.0939,0.045845,0.00082637,0.90979,-0.00069494,8.9784,8.9784,0
13989,1.8513e+07,0.23675,-2.2492,0.019389,2.5516,3.1078,-0.018537,0.0011643,-1.147,-0.0010582,-7.8001,-7.8001,0
14030,1.8523e+07,0.27736,-1.501,0.00076015,2.6853,-3.9116,0.035781,0.0014416,1.5334,-0.00071167,8.0624,8.0624,0
14073,1.8533e+07,0.28163,-0.35487,-0.00094684,2.5423,3.1378,-0.015122,0.0013917,-0.94812,-0.0011983,-2.5454,-2.5454,0
14113,1.8543e+07,0.26978,0.34524,-0.0085987,2.6474,-3.1392,0.031681,0.0013916,1.1812,-0.00081145,12.325,12.325,0
14154,1.8556e+07,0.40589,-1.6087,0.013669,2.5567,1.3926,0.0040701,0.0020058,-1.6696,-0.00082685,-6.5446,-6.5446,0
14195,1.8566e+07,0.35899,1.4123,-0.014189,2.4995,1.7017,-0.018411,0.0017431,3.5168,-0.0012299,8.1833,8.1833,0
14236,1.8576e+07,0.36299,-0.80334,0.015698,2.5954,-0.66855,0.022287,0.0018276,-1.8684,-0.00085639,-6.5681,-6.5681,0
14276,1.8586e+07,0.26318,0.84529,0.002081,2.4924,3.1918,-0.034398,0.0012691,2.7528,-0.001161,-4.5425,-4.5425,0
14318,1.8596e+07,0.27759,-2.3609,0.031142,2.6451,-1.3878,0.027329,0.0014251,-1.3641,-0.00072075,-5.4699,-5.4699,0
14362,1.8606e+07,0.15323,0.83498,0.00041893,2.5079,3.9562,-0.043997,0.00074257,2.9659,-0.0012638,-11.526,-11.526,0
14405,1.8616e+07,0.13088,-1.4355,0.026627,2.7008,-2.6033,0.038619,0.00068727,-1.6779,-0.00074611,-5.4264,-5.4264,0
14446,1.8626e+07,0.018691,1.0206,0.001303,2.5423,4.0323,-0.041871,9.066e-05,2.1429,-0.0011334,-10.267,-10.267,0
14486,1.8636e+07,0.076397,-2.6567,0.027192,2.7321,-3.3402,0.046752,0.00040235,-1.3766,-0.00061384,-4.2756,-4.2756,0
14528,1.8646e+07,0.018661,0.62855,-0.0056718,2.5361,3.932,-0.037189,9.9287e-05,2.1528,-0.0012594,-14.372,-14.372,0
14565,1.8657e+07,0.081622,-1.9063,0.017557,2.7276,-4.4896,0.060352,0.00043204,-1.6179,-0.00071289,0.2636,0.2636,0
14607,1.8667e+07,0.06267,0.53964,-0.0050644,2.5103,3.6264,-0.028743,0.00029542,1.6354,-0.0012957,-9.2968,-9.2968,0
14648,1.8677e+07,0.19526,-2.9603,0.01569,2.6807,-5.6136,0.062535,0.0010114,-0.82502,-0.00072284,5.9173,5.9173,0
14688,1.8687e+07,0.20999,-0.43438,-0.00016947,2.4752,3.3574,-0.025281,0.0010071,1.0193,-0.0014365,-5.3575,-5.3575,0
14729,1.8697e+07,0.24706,-1.4064,0.0066951,2.6541,-4.8302,0.054793,0.0012526,-1.0056,-0.00078848,4.8442,4.8442,0
14773,1.8707e+07,0.2428,-0.11808,0.00043198,2.4754,3.4678,-0.028109,0.0011708,0.84032,-0.00132,-2.6427,-2.6427,0
14815,1.8718e+07,0.27893,-1.555,0.0045281,2.6614,-4.4093,0.046964,0.0014443,-0.63905,-0.00073601,0.6506,0.6506,0
14856,1.8728e+07,0.22357,0.88714,-0.0066542,2.5121,3.4406,-0.024909,0.0010869,1.0166,-0.0014611,-4.8952,-4.8952,0
14899,1.8738e+07,0.18884,0.52644,-0.0046535,2.6959,-4.0905,0.042571,0.00098281,-0.94345,-0.00070324,5.0997,5.0997,0
14941,1.8748e+07,0.14021,1.6561,-0.0082548,2.5338,3.6808,-0.027229,0.00070074,0.65382,-0.0012705,-1.5528,-1.5528,0
14975,1.8758e+07,0.10552,1.5161,-0.016363,2.6857,-3.5912,0.036305,0.00054988,-0.32285,-0.00060265,9.2585,9.2585,0
15015,1.8768e+07,0.052433,2.6084,-0.017146,2.5419,3.2613,-0.019077,0.00026722,0.088835,-0.0012616,-5.2511,-5.2511,0
15055,1.8778e+07,-0.0042107,2.8765,-0.023038,2.6641,-3.1879,0.034623,-1.9722e-05,0.070797,-0.00060849,13.206,13.206,0
15095,1.8788e+07,0.051999,1.8046,-0.011711,2.5262,2.6105,-0.010273,0.00025211,-0.93236,-0.0010476,-11.355,-11.355,0
15137,1.8798e+07,0.022828,3.297,-0.036391,2.5993,-2.4144,0.025191,0.00011374,1.8979,-0.00068608,11.173,11.173,0
15182,1.8808e+07,0.065065,2.0415,-0.017099,2.5149,1.8434,-0.0020123,0.0003086,-1.1999,-0.0011855,-15.548,-15.548,0
15225,1.8818e+07,0.070876,2.6267,-0.026811,2.5969,-3.0118,0.029826,0.00033557,1.9135,-0.00079982,13.537,13.537,0
15266,1.8828e+07,0.20997,-0.25274,0.00025794,2.5227,1.1776,0.0016742,0.0010184,-1.3284,-0.0011613,-18.84,-18.84,0
15308,1.8838e+07,0.23766,1.7014,-0.028521,2.5992,-3.1568,0.028361,0.0011978,2.516,-0.00092009,11.657,11.657,0
15348,1.8848e+07,0.35335,-0.55319,0.0013277,2.549,0.40133,0.0095608,0.0017382,-1.5843,-0.0013364,-21.596,-21.596,0
15383,1.8858e+07,0.3514,1.0927,-0.013452,2.603,-2.7558,0.024439,0.0017617,2.4509,-0.0011116,14.768,14.768,0
15424,1.8868e+07,0.46982,-2.1184,0.01832,2.5674,0.031864,0.010975,0.0023325,-1.959,-0.0011881,-25.406,-25.406,0
15464,1.8878e+07,0.41061,1.1475,-0.013877,2.5729,-1.3252,0.01166,0.0020456,2.9251,-0.0010863,14.393,14.393,0
15505,1.8889e+07,0.42977,-1.2136,0.015084,2.5605,-0.20421,0.015427,0.0021262,-2.1643,-0.0011423,-25.004,-25.004,0
15547,1.8899e+07,0.33489,0.97311,-0.0024882,2.5545,-0.99006,0.011349,0.0016615,2.3645,-0.001018,11.506,11.506,0
15590,1.8909e+07,0.3583,-1.7193,0.022745,2.5699,-0.95007,0.02078,0.0017683,-2.1511,-0.00085308,-27.026,-27.026,0
15632,1.8919e+07,0.21703,1.6998,-0.006534,2.4921,0.50365,-0.0020032,0.0010462,3.2545,-0.0011376,9.5516,9.5516,0
15672,1.8929e+07,0.15139,0.32512,0.006929,2.5457,-1.7373,0.027588,0.00075954,-2.5426,-0.00090422,-20.321,-20.321,0
15716,1.894e+07,0.08523,0.73508,0.0062113,2.481,0.24347,-0.0019794,0.00039505,2.6195,-0.0011898,8.983,8.983,0
15757,1.8952e+07,0.024145,0.42875,-0.0021538,2.5825,-1.7282,0.020056,0.00011756,0.069614,-0.00067385,-0.23623,-0.23623,0
15798,1.8962e+07,0.0098502,0.61019,-0.0009428,2.492,3.7186,-0.027631,4.3061e-05,0.74763,-0.0014687,-0.29755,-0.29755,0
15835,1.8972e+07,-0.027184,1.3567,-0.015147,2.6281,-1.7322,0.018603,-0.00013817,0.78876,-0.00079677,6.738,6.738,0
15876,1.8982e+07,0.049172,-0.83778,0.0060909,2.5279,3.8105,-0.028743,0.00024008,-0.28281,-0.0014738,-6.1132,-6.1132,0
15917,1.8992e+07,0.088342,-0.16131,-0.010721,2.679,-2.6332,0.025002,0.00044471,1.8497,-0.00085987,4.5955,4.5955,0
15959,1.9003e+07,0.1826,-1.371,0.0056268,2.5776,3.6728,-0.021295,0.00091048,-1.2304,-0.001623,-7.9462,-7.9462,0
16005,1.9013e+07,0.16921,1.2002,-0.023019,2.681,-2.2319,0.020341,0.00087967,2.423,-0.00088179,10.521,10.521,0
16045,1.9022e+07,0.29587,-1.6575,0.0075406,2.5932,2.576,-0.0084649,0.0014784,-2.8179,-0.0013414,-15.099,-15.099,0
16086,1.9032e+07,0.27983,1.5832,-0.028398,2.6747,-2.7075,0.024846,0.0014428,3.6731,-0.0009344,8.5663,8.5663,0
16129,1.9042e+07,0.36078,-0.43467,-0.00062925,2.6215,1.1298,0.0071663,0.0018334,-3.6728,-0.001317,-17.55,-17.55,0
16166,1.9055e+07,0.33511,2.4386,-0.01831,2.5076,1.558,-0.016624,0.001622,4.1901,-0.0013572,24.226,24.226,0
16207,1.9065e+07,0.37603,-1.5386,0.014924,2.6404,-3.1715,0.040993,0.001925,-3.9187,-0.00036716,-33.618,-33.618,0
16247,1.9076e+07,0.28445,1.7994,-0.0076878,2.4964,2.8021,-0.027419,0.0013703,4.1905,-0.0013528,26.59,26.59,0
16288,1.9085e+07,0.24054,-0.088183,0.00618,2.6398,-2.8133,0.03608,0.0012254,-2.9873,-0.00033725,-29.01,-29.01,0
16330,1.9095e+07,0.14257,1.6492,0.00017244,2.5164,2.9811,-0.027033,0.00068708,3.0784,-0.0013518,27.05,27.05,0
16371,1.9105e+07,0.11886,-0.66698,0.0093139,2.6406,-1.8742,0.02434,0.0006092,-1.7624,-0.00025656,-31.885,-31.885,0
16416,1.9115e+07,0.062758,0.6443,0.0038565,2.5166,3.4629,-0.029597,0.00029951,2.6313,-0.001435,23.359,23.359,0
16456,1.9125e+07,0.020406,-0.040486,0.00068118,2.6311,-1.4152,0.022371,0.00010373,-0.84958,-0.0004896,-26.457,-26.457,0
16498,1.9135e+07,0.025937,-0.42703,0.0097439,2.5266,3.235,-0.026852,0.00012034,1.4393,-0.0014991,16.041,16.041,0
16541,1.9145e+07,0.048007,-0.91371,-3.2467e-05,2.6413,-1.4165,0.021928,0.00024742,-0.24882,-0.00054102,-23.963,-23.963,0
16582,1.9161e+07,0.28257,-3.3479,0.02602,2.5469,0.70961,0.0053512,0.0013893,-3.1018,-0.00098243,-24.181,-24.181,0
16622,1.9171e+07,0.27254,-0.80842,0.0045092,2.5789,-1.645,0.015064,0.0013594,3.9253,-0.0013422,25.294,25.294,0
16664,1.9182e+07,0.36666,-5.0929,0.039961,2.5533,0.81345,0.0027362,0.0018014,-2.9807,-0.00084305,-22.376,-22.376,0
16705,1.9191e+07,0.36505,-2.8475,0.022556,2.5317,0.94394,-0.012269,0.0017825,3.7169,-0.0013543,24.399,24.399,0
16745,1.9201e+07,0.42769,-4.7981,0.041318,2.5577,0.77716,0.0030704,0.0021236,-2.6968,-0.00080186,-20.043,-20.043,0
16789,1.9212e+07,0.37091,-1.707,0.015843,2.562,0.6956,-0.0075244,0.001844,2.8564,-0.0012477,20.486,20.486,0
16830,1.9222e+07,0.38627,-3.6441,0.029621,2.5859,0.99906,-9.4986e-06,0.001936,-2.4852,-0.00054869,-20.55,-20.55,0
16872,1.9232e+07,0.32874,-1.3044,0.012753,2.5445,1.8076,-0.016003,0.0016167,3.1446,-0.0011076,18.376,18.376,0
16913,1.9243e+07,0.23805,-0.10093,-0.00065599,2.5961,0.34294,0.0079351,0.0011999,-1.9551,-0.00052008,-19.39,-19.39,0
16953,1.9252e+07,0.16164,2.0876,-0.011378,2.5325,2.1656,-0.017187,0.00079651,2.2938,-0.0010538,16.825,16.825,0
16991,1.9265e+07,0.15868,4.3101,-0.035464,2.6816,-2.7014,0.034986,0.00082811,0.62957,-0.00037897,-8.5985,-8.5985,0
17036,1.9277e+07,0.22347,-0.30258,0.01112,2.5729,0.50794,0.0065347,0.0011122,-1.9603,-0.00083464,-11.95,-11.95,0
17077,1.9288e+07,0.089052,2.202,-0.012942,2.6507,-3.8536,0.037439,0.00045496,2.6446,-0.00071382,13.785,13.785,0
17118,1.9297e+07,0.15668,-2.5565,0.029215,2.5901,-0.40286,0.014059,0.00078339,-3.0597,-0.00091093,-18.944,-18.944,0
17158,1.9307e+07,0.08745,0.40738,-0.00095546,2.6582,-4.1448,0.040496,0.00044358,3.3325,-0.00089745,11.896,11.896,0
17206,1.932e+07,0.11269,-0.46002,-0.001946,2.5368,0.59445,0.0042067,0.00055193,-2.2442,-0.00088038,-24.059,-24.059,0
17250,1.9331e+07,0.13189,0.62035,-0.006984,2.4996,1.2648,-0.015194,0.00063022,4.194,-0.0015513,25.567,25.567,0
17290,1.934e+07,0.21214,-1.3042,7.1716e-05,2.5005,1.9373,-0.010392,0.0010208,-3.0366,-0.0006547,-27.004,-27.004,0
17331,1.9353e+07,0.37707,-2.2463,0.015817,2.5888,2.1667,-0.015134,0.001888,1.2784,-0.0016285,-9.0349,-9.0349,0
17368,1.9363e+07,0.36994,0.17008,-0.010106,2.6577,-1.0026,0.021425,0.0019042,-0.019899,-0.00074275,-5.9118,-5.9118,0
17409,1.9373e+07,0.45279,-1.8762,0.016284,2.6102,0.92865,-0.0030387,0.0022968,0.20475,-0.001454,-15.806,-15.806,0
17452,1.9383e+07,0.4275,0.22986,-0.004219,2.6595,-1.1717,0.024345,0.0022117,0.18015,-0.00055601,-1.1735,-1.1735,0
17492,1.9393e+07,0.46443,-1.9288,0.019792,2.5868,-0.079471,0.011224,0.0023167,-1.3124,-0.0011645,-15.88,-15.88,0
17534,1.9403e+07,0.3756,1.4733,-0.0093139,2.6674,-2.5797,0.035745,0.0019456,0.33264,-0.00045936,5.5865,5.5865,0
17577,1.9413e+07,0.37621,-0.82203,0.013853,2.6117,-0.089003,0.009527,0.0018901,-0.87589,-0.001012,-22.508,-22.508,0
17619,1.9423e+07,0.27518,1.3488,-0.0041595,2.6796,-3.0173,0.03888,0.0014328,1.0849,-0.00049723,4.5671,4.5671,0
17659,1.9433e+07,0.26119,-0.71697,0.014705,2.5984,-0.063452,0.011192,0.0013255,-0.88185,-0.0011521,-27.129,-27.129,0
17700,1.9443e+07,0.13505,1.9313,-0.0079945,2.6711,-3.5324,0.042199,0.00069161,1.5685,-0.00082298,10.314,10.314,0
17741,1.9456e+07,0.079057,1.5789,-0.0098273,2.4604,1.6745,-0.0089125,0.00036439,-2.6484,-0.00083947,-25.907,-25.907,0
17782,1.9466e+07,0.05748,1.7507,-0.0083053,2.5056,-1.1792,0.013174,0.00028322,3.6342,-0.0013444,30.797,30.797,0
17823,1.9476e+07,0.073661,0.57559,-0.0064012,2.4654,1.13,-0.0022494,0.00034266,-2.8139,-0.0010044,-22.337,-22.337,0
17863,1.9486e+07,0.089616,1.2842,-0.0087844,2.4888,-0.48199,0.0061604,0.0004427,3.4612,-0.0015528,32.047,32.047,0
17907,1.9496e+07,0.11916,0.60356,-0.011323,2.4555,1.4154,-0.0062882,0.00056536,-2.7086,-0.000938,-20.476,-20.476,0
17948,1.9506e+07,0.19679,0.20017,-0.0040569,2.473,0.39481,-0.001044,0.00093946,3.4053,-0.0015738,25.123,25.123,0
17993,1.9516e+07,0.24596,0.25415,-0.012719,2.4574,1.7804,-0.008778,0.0011718,-2.3514,-0.0008775,-16.641,-16.641,0
18036,1.9526e+07,0.30749,0.64316,-0.0082382,2.4937,0.61905,-0.0038314,0.0014901,2.7641,-0.0014372,19.908,19.908,0
18076,1.9536e+07,0.32077,1.2685,-0.019765,2.4713,2.2001,-0.0148,0.0015426,-2.0432,-0.00054555,-20.409,-20.409,0
18117,1.9546e+07,0.37901,0.83275,-0.0086711,2.5249,0.27543,0.0018756,0.0018507,2.4466,-0.0011659,10.05,10.05,0
18157,1.9559e+07,0.4155,-0.32308,0.0040771,2.5551,-0.23347,0.012907,0.0020701,0.84302,-0.00055502,0.10662,0.10662,0
18199,1.9569e+07,0.43806,-2.3502,0.026975,2.5668,-1.5103,0.017147,0.0021808,-0.62349,-0.00089258,-15.609,-15.609,0
18240,1.9579e+07,0.35075,0.21916,0.0067714,2.5196,0.31508,0.0080477,0.0017094,1.093,-0.00057989,7.6762,7.6762,0
18277,1.9589e+07,0.36645,-1.997,0.02587,2.5299,-1.548,0.015913,0.0017873,-0.2761,-0.00086923,-7.9948,-7.9948,0
18319,1.9599e+07,0.26028,0.84535,0.0027899,2.5007,-0.19906,0.01215,0.0012522,1.1103,-0.0007912,11.696,11.696,0
18360,1.9609e+07,0.24604,-1.1906,0.019361,2.5163,-1.8355,0.015774,0.0011989,-0.47001,-0.00092041,-12.166,-12.166,0
18406,1.9619e+07,0.16929,0.49466,0.005642,2.499,-0.35752,0.013062,0.00081043,1.0174,-0.00092944,8.0129,8.0129,0
18447,1.9629e+07,0.17392,-0.98394,0.012315,2.4891,-1.0839,0.010108,0.00083821,0.066794,-0.0011402,-12.334,-12.334,0
18487,1.9639e+07,0.1096,1.2918,-0.0057291,2.5165,-1.6268,0.023731,0.00053479,0.63001,-0.001157,5.7911,5.7911,0
18528,1.9649e+07,0.12718,-0.19778,0.00067749,2.5094,-1.4959,0.01299,0.00061489,-0.81242,-0.0011424,-14.514,-14.514,0
18568,1.9659e+07,0.14405,0.29415,-0.0036954,2.5085,-1.3197,0.02105,0.00069841,0.5969,-0.0011288,2.4702,2.4702,0
18604,1.9669e+07,0.23014,-0.79721,0.00052746,2.4427,0.14463,-0.00013731,0.0010872,-0.4877,-0.0010707,-12.161,-12.161,0
18646,1.9679e+07,0.24677,0.3152,-0.0050157,2.475,-0.89892,0.017148,0.0011869,0.64539,-0.0011114,14.32,14.32,0
18686,1.9689e+07,0.28259,-0.42085,-0.003043,2.4275,1.034,-0.0099795,0.0013339,-0.84648,-0.00086895,-9.2508,-9.2508,0
18727,1.97e+07,0.34118,-0.63792,0.0052254,2.4685,-0.57531,0.014991,0.0016296,0.56652,-0.00087771,10.876,10.876,0
18770,1.9709e+07,0.34797,0.22315,-0.0085495,2.4009,1.7539,-0.015401,0.0016145,-0.19288,-0.00069935,-7.4371,-7.4371,0
18814,1.9719e+07,0.35547,0.73746,-0.0043174,2.4793,-1.0687,0.018072,0.0017164,0.35469,-0.00076012,9.4749,9.4749,0
18856,1.9729e+07,0.31872,1.3467,-0.012043,2.4049,2.1408,-0.020842,0.0014792,-0.19971,-0.00051545,-8.7188,-8.7188,0
18897,1.974e+07,0.34931,0.066061,0.006026,2.4802,-0.93128,0.017183,0.0016918,0.65062,-0.00061864,6.0483,6.0483,0
18937,1.9749e+07,0.2917,1.5428,-0.01202,2.3935,2.5859,-0.023022,0.0013527,0.61369,-0.00062949,-11.484,-11.484,0
18979,1.976e+07,0.27417,0.83624,0.0025594,2.5087,-1.6251,0.022078,0.00133,0.70352,-0.00077722,3.7008,3.7008,0
19017,1.977e+07,0.18132,2.1563,-0.012348,2.4077,2.9915,-0.027023,0.00085226,0.50071,-0.00077587,-13.004,-13.004,0
19057,1.978e+07,0.20007,-0.15972,0.010259,2.5314,-2.1512,0.024273,0.00098842,0.88132,-0.00088798,2.5661,2.5661,0
19098,1.979e+07,0.15034,0.82646,-0.0015146,2.418,3.0146,-0.022842,0.00070005,0.45518,-0.00096789,-12.341,-12.341,0
19138,1.9799e+07,0.1654,-0.93503,0.016232,2.5634,-2.7728,0.0289,0.00081851,1.0096,-0.0010713,0.81301,0.81301,0
19181,1.981e+07,0.1354,-0.3843,0.008661,2.4498,2.8728,-0.02117,0.00065256,-0.11851,-0.00099395,-10.589,-10.589,0
19227,1.982e+07,0.18709,-2.4933,0.023252,2.5665,-2.3475,0.0275,0.00092374,1.1568,-0.0011065,1.6661,1.6661,0
19268,1.9829e+07,0.17319,-1.4537,0.0088796,2.4377,3.2517,-0.022153,0.00080427,0.082865,-0.0010943,-6.6794,-6.6794,0
19309,1.984e+07,0.2282,-3.34,0.028716,2.5771,-3.049,0.032287,0.0011354,0.55436,-0.0011214,1.9523,1.9523,0
19349,1.985e+07,0.23328,-2.411,0.019275,2.4343,3.4312,-0.023513,0.0011045,-0.20682,-0.00093223,-6.5942,-6.5942,0
19391,1.9862e+07,0.20684,0.06916,-0.01215,2.5214,-1.1511,0.011974,0.00099389,0.35126,-0.00095947,4.8226,4.8226,0
19431,1.9873e+07,0.18041,3.0764,-0.037355,2.4903,0.95469,0.0066615,0.00087599,-0.26994,-0.00087165,-8.255,-8.255,0
19472,1.9882e+07,0.19695,2.5554,-0.032164,2.508,-0.8973,0.0064617,0.00095268,0.15089,-0.00089679,1.9169,1.9169,0
19513,1.9892e+07,0.21338,2.8369,-0.029578,2.4924,0.51639,0.0090569,0.0010299,-0.62391,-0.00067218,-12.111,-12.111,0
19554,1.9902e+07,0.23206,2.9832,-0.034129,2.5223,-1.631,0.015091,0.0011222,0.78232,-0.00081433,2.2808,2.2808,0
19602,1.9915e+07,0.34638,2.5542,-0.016294,2.5045,-1.3328,0.023831,0.0016824,-0.11459,-0.00069399,-9.4012,-9.4012,0
19643,1.9925e+07,0.27463,3.2175,-0.021353,2.4672,0.18198,-0.0046701,0.0013122,0.7827,-0.00087942,3.5837,3.5837,0
19686,1.9935e+07,0.29469,1.0747,-0.0012167,2.5047,-0.71738,0.019759,0.0014263,-0.18479,-0.00067518,-5.5904,-5.5904,0
19727,1.9945e+07,0.2788,1.6444,-0.008666,2.4409,0.5937,-0.0075178,0.0013154,1.6781,-0.0010294,0.84906,0.84906,0
19765,1.9955e+07,0.26817,1.4216,-0.0012273,2.5172,-1.6148,0.029267,0.0013128,-0.56301,-0.00080403,-12.557,-12.557,0
19803,1.9965e+07,0.1719,3.0952,-0.016744,2.4248,1.4397,-0.015261,0.00080323,1.6717,-0.0010788,1.3834,1.3834,0
19844,1.9975e+07,0.23896,-0.87469,0.01434,2.5154,-2.1867,0.034479,0.0011569,-0.95102,-0.00072836,-16.928,-16.928,0
19885,1.9985e+07,0.21284,0.82749,-0.004511,2.4018,1.61,-0.014534,0.0009867,2.3374,-0.0012217,0.55599,0.55599,0
19927,1.9995e+07,0.24841,-1.4321,0.017738,2.5161,-2.6456,0.037393,0.0012261,-1.2425,-0.00081257,-23.227,-23.227,0
19969,2.0005e+07,0.19316,0.18361,0.0049498,2.3969,2.1818,-0.019571,0.00090064,2.0721,-0.0012112,6.1595,6.1595,0
20013,2.0015e+07,0.29198,-4.3242,0.037415,2.5145,-2.5503,0.034993,0.0014173,-1.3922,-0.0006805,-27.546,-27.546,0
20055,2.0025e+07,0.29696,-2.466,0.020964,2.4159,1.9965,-0.017424,0.0013922,2.3125,-0.0012533,9.7716,9.7716,0
20096,2.0035e+07,0.29703,-3.3334,0.027609,2.5453,-2.2789,0.031106,0.001466,-1.5225,-0.00063895,-24.92,-24.92,0
20136,2.0045e+07,0.25466,-2.1313,0.022748,2.4452,2.4498,-0.021531,0.0011993,2.0409,-0.0011659,11.967,11.967,0
20177,2.0055e+07,0.29726,-4.562,0.038187,2.5515,-1.7274,0.026633,0.0014729,-1.3478,-0.00047069,-23.341,-23.341,0
20212,2.0065e+07,0.26303,-2.4362,0.021744,2.4508,2.4905,-0.020121,0.0012518,2.123,-0.0011871,10.431,10.431,0
20253,2.0075e+07,0.21105,-2.2044,0.01926,2.5569,-1.6774,0.024522,0.0010571,-1.3493,-0.00046455,-22.793,-22.793,0
20294,2.0085e+07,0.15688,-1.7891,0.023405,2.4323,3.1241,-0.025706,0.00073356,1.5522,-0.0010819,8.491,8.491,0
20334,2.0095e+07,0.17837,-3.9324,0.03483,2.5423,-1.6442,0.024813,0.00088135,-0.73744,-0.00044534,-20.078,-20.078,0
20376,2.0105e+07,0.12466,-1.8997,0.019943,2.4113,3.6626,-0.027573,0.00058374,1.5535,-0.0012178,6.3348,6.3348,0
20421,2.0115e+07,0.031814,-0.96533,0.0094258,2.5045,-0.98465,0.015878,0.00015878,-0.33789,-0.00058106,-13.511,-13.511,0
20462,2.0125e+07,0.013722,-2.1399,0.026908,2.3897,3.6793,-0.027388,5.8697e-05,0.60904,-0.0011528,1.8897,1.8897,0
20504,2.0135e+07,0.033781,-3.1722,0.022187,2.4918,-1.0237,0.014137,0.00014706,0.63757,-0.00069771,-5.4565,-5.4565,0
20544,2.0145e+07,0.038653,-2.3373,0.016855,2.4027,3.5349,-0.02528,0.00018296,0.47237,-0.0013472,1.9472,1.9472,0
20588,2.0157e+07,-0.020992,5.3934,-0.052481,2.5173,-0.78338,0.0087384,-0.00010571,2.2034,-0.0010518,17.271,17.271,0
20625,2.0167e+07,0.10807,0.98445,-0.012572,2.5197,-0.49332,0.015112,0.0005274,-1.8917,-0.0010066,-26.156,-26.156,0
20665,2.0177e+07,0.15811,2.296,-0.031357,2.5265,-1.2749,0.014397,0.00076759,2.574,-0.0011683,20.233,20.233,0
20705,2.0187e+07,0.21982,1.6683,-0.024978,2.5282,-0.89229,0.019658,0.0010811,-1.9294,-0.0010733,-34.694,-34.694,0
20746,2.0197e+07,0.16784,4.0304,-0.038416,2.5196,-1.0909,0.01462,0.00081693,1.9894,-0.0010948,18.127,18.127,0
20787,2.0207e+07,0.24154,0.4385,-0.0064666,2.5152,-0.94843,0.02109,0.0011683,-2.0767,-0.00085354,-37.666,-37.666,0
20831,2.0217e+07,0.25314,1.7608,-0.020102,2.5187,-1.6343,0.021716,0.0012421,2.2819,-0.0010244,20.541,20.541,0
20873,2.0227e+07,0.24159,1.7992,-0.018882,2.5199,-1.4641,0.024989,0.001168,-1.758,-0.00088624,-37.824,-37.824,0
20914,2.0237e+07,0.17135,2.9721,-0.019786,2.4972,-1.2371,0.01738,0.00082008,1.6952,-0.00095676,24.313,24.313,0
20955,2.0247e+07,0.24196,-1.0771,0.016079,2.493,-1.3197,0.022584,0.0011737,-1.5489,-0.00072818,-34.473,-34.473,0
20996,2.026e+07,0.18201,-2.4775,0.026639,2.4126,1.8928,-0.01383,0.00084444,1.92,-0.0011462,21.283,21.283,0
21034,2.027e+07,0.069131,-0.20187,0.0033638,2.4413,1.1742,-0.0050427,0.00031698,-0.65152,-0.00079528,-19.271,-19.271,0
21075,2.028e+07,0.055371,-1.84,0.025865,2.4139,2.6784,-0.021226,0.0002556,1.6429,-0.0011588,10.632,10.632,0
21115,2.029e+07,0.090113,-3.0128,0.023803,2.4535,1.1775,-0.0036812,0.00043038,-0.32179,-0.00078343,-14.817,-14.817,0
21157,2.03e+07,0.13251,-2.657,0.022218,2.424,2.626,-0.017805,0.00062869,2.1737,-0.0014305,3.3844,3.3844,0
21197,2.031e+07,0.040668,0.82257,-0.011533,2.4516,1.3921,-0.0065958,0.00020092,-0.32912,-0.00088652,-18.368,-18.368,0
21244,2.032e+07,0.095287,-2.0833,0.0205,2.4028,3.1112,-0.02166,0.00045085,1.1414,-0.001345,0.77381,0.77381,0
21285,2.033e+07,0.16155,-2.6308,0.016406,2.4466,0.84153,-0.0034059,0.00075346,0.20018,-0.00076085,-13.885,-13.885,0
21327,2.0339e+07,0.24638,-2.9763,0.021795,2.4249,2.4642,-0.013592,0.0011528,1.0163,-0.0013605,-0.8522,-0.8522,0
21370,2.035e+07,0.14469,1.5042,-0.019364,2.4493,0.85272,-0.0056667,0.0006772,0.52111,-0.00080286,2.5138,2.5138,0
21407,2.036e+07,0.22718,-2.3855,0.022646,2.4592,1.3598,-0.0032681,0.00107,-0.57145,-0.0010909,-6.5048,-6.5048,0
21444,2.037e+07,0.22602,-0.58564,-0.002099,2.4593,0.81829,-0.0047689,0.0010729,1.4152,-0.00072165,-1.1645,-1.1645,0
21485,2.038e+07,0.30411,-2.4567,0.017229,2.5036,0.27045,0.0076945,0.0014785,-0.86194,-0.0010624,-16.848,-16.848,0
21525,2.0389e+07,0.16038,2.5616,-0.023182,2.4467,1.9838,-0.015877,0.00075336,1.6555,-0.0007733,-3.6073,-3.6073,0
21566,2.04e+07,0.23301,-2.239,0.025648,2.5128,-0.55244,0.016156,0.0011253,-1.8626,-0.00073858,-15.894,-15.894,0
21607,2.041e+07,0.13683,1.9413,-0.016903,2.44,1.8622,-0.010871,0.0006381,2.5692,-0.00082759,7.7609,7.7609,0
21652,2.042e+07,0.17689,-0.7675,0.0070291,2.5284,-2.4115,0.031412,0.00085461,-2.0869,-0.00077484,-24.853,-24.853,0
21693,2.043e+07,0.0165,4.2542,-0.028824,2.4259,1.3655,-0.0058545,6.4398e-05,2.0856,-0.00089791,10.168,10.168,0
21733,2.044e+07,0.079718,-0.93493,0.014118,2.5208,-3.4617,0.039384,0.00038896,-2.2427,-0.00070479,-24.48,-24.48,0
21776,2.045e+07,0.0042664,2.4318,-0.019112,2.4194,0.87137,0.00046029,1.7324e-05,2.5707,-0.0010452,19.438,19.438,0
21813,2.0463e+07,0.027603,1.1402,-0.014781,2.4242,-0.84755,0.0067639,0.00011153,-1.2372,-0.00079045,-27.73,-27.73,0
21853,2.0473e+07,-0.0018903,1.8216,-0.0054654,2.403,1.1767,-0.0021782,-6.0502e-06,1.8369,-0.0013548,43.402,43.402,0
21894,2.0483e+07,0.04613,0.078071,-0.0056406,2.4418,0.48251,-0.0064808,0.00022284,0.014183,-0.00082381,-32.683,-32.683,0
21936,2.0493e+07,0.14741,-0.86567,0.0072547,2.4653,0.71113,0.0034538,0.00071072,1.4726,-0.0014947,33.727,33.727,0
21978,2.0503e+07,0.096138,2.4587,-0.034201,2.487,-0.32127,0.00024986,0.00047069,0.048453,-0.00087893,-38.03,-38.03,0
22018,2.0513e+07,0.18724,0.18822,0.0035256,2.5229,-0.64029,0.019684,0.00091385,-0.14945,-0.0013564,25.203,25.203,0
22064,2.0523e+07,0.19525,1.7942,-0.026109,2.4987,-0.9869,0.0075313,0.0009504,0.68577,-0.00063201,-35.079,-35.079,0
22106,2.0533e+07,0.3586,-1.2103,0.0091485,2.5622,-2.4131,0.038603,0.0017678,-1.0138,-0.001143,20.059,20.059,0
22147,2.0543e+07,0.26368,3.78,-0.041824,2.462,-0.080606,-0.0021138,0.0012633,1.6956,-0.00061392,-22.247,-22.247,0
22188,2.0553e+07,0.38742,-1.5232,0.024901,2.5688,-3.669,0.049981,0.001936,-2.4013,-0.00081869,10.949,10.949,0
22230,2.0565e+07,0.33843,-2.2221,0.02404,2.3336,4.0698,-0.033613,0.0015249,3.4284,-0.00084442,8.9027,8.9027,0
22268,2.0576e+07,0.41072,-6.2969,0.057017,2.482,-3.0892,0.033501,0.0019739,-2.0752,-0.00047766,-12.449,-12.449,0
22308,2.0586e+07,0.21911,0.12106,0.0079451,2.3326,4.0566,-0.03101,0.0009848,2.9497,-0.0010187,10.687,10.687,0
22349,2.0596e+07,0.2571,-5.3828,0.055067,2.4433,-1.7155,0.018489,0.0012029,-1.5657,-0.00049708,-19.712,-19.712,0
22389,2.0606e+07,0.20009,-3.1515,0.035248,2.3394,3.5093,-0.025016,0.0009068,2.8938,-0.0011905,11.727,11.727,0
22435,2.0616e+07,0.21061,-4.9939,0.04346,2.4299,-0.86405,0.0083286,0.00098193,-0.44387,-0.00087281,-24.419,-24.419,0
22477,2.0626e+07,0.077707,-0.97472,0.017063,2.3501,3.5262,-0.02651,0.00036671,1.9652,-0.0014283,18.925,18.925,0
22517,2.0636e+07,0.090364,-4.3014,0.039676,2.4243,0.0041799,0.0012331,0.00043145,-0.5184,-0.00094126,-20.085,-20.085,0
22558,2.0646e+07,0.10215,-3.8634,0.034789,2.3575,3.5805,-0.028243,0.00046291,2.1456,-0.0015239,22.574,22.574,0
22600,2.0656e+07,0.13549,-4.5422,0.032528,2.4466,0.31167,-0.0014523,0.00064832,-0.51802,-0.0010643,-21.599,-21.599,0
22641,2.0666e+07,0.040772,-0.88698,0.011231,2.3426,5.2597,-0.04359,0.00019518,1.8622,-0.0015177,27.689,27.689,0
22678,2.0676e+07,0.074998,-3.8637,0.025617,2.4443,0.89571,-0.0076939,0.00035908,-1.2502,-0.00069906,-20.881,-20.881,0
22716,2.0686e+07,0.10073,-2.8813,0.021636,2.3542,5.4501,-0.042435,0.00045775,2.0163,-0.0012688,22.606,22.606,0
22758,2.0696e+07,0.11108,-2.3647,0.0097543,2.4527,1.0487,-0.0069723,0.00053862,-0.73567,-0.00056626,-27.17,-27.17,0
22798,2.0706e+07,0.041332,0.84241,-0.0047038,2.3409,6.0132,-0.043794,0.00018201,1.4967,-0.0011602,18.783,18.783,0
22843,2.0716e+07,0.058428,-1.0206,0.0016222,2.4253,1.537,-0.011886,0.00027178,-0.61872,-0.00028892,-25.112,-25.112,0
22884,2.0726e+07,0.11836,0.19679,-0.0085942,2.4636,2.8281,-0.012227,0.0005674,0.2931,-0.00093784,9.1671,9.1671,0
22928,2.0736e+07,0.090329,3.0223,-0.039562,2.4776,1.1512,-0.010033,0.00042021,1.1567,-0.00042539,-21.701,-21.701,0
22968,2.0746e+07,0.11334,2.6889,-0.019238,2.51,0.99164,0.0045118,0.00054358,-0.56277,-0.0009517,10.102,10.102,0
23010,2.0759e+07,0.2044,2.4668,-0.020693,2.4979,-0.39705,0.0078364,0.00098925,2.2521,-0.00069741,-4.5856,-4.5856,0
23051,2.0769e+07,0.31874,-2.616,0.023919,2.5674,-5.1811,0.055724,0.0015852,-1.8755,-0.00072463,-9.9693,-9.9693,0
23088,2.0779e+07,0.1931,1.0993,-0.0048283,2.4749,-0.27258,0.007671,0.0009153,2.0331,-0.00097139,3.3952,3.3952,0
23129,2.0789e+07,0.23463,-3.575,0.043306,2.5657,-4.4887,0.047818,0.0011678,-1.8264,-0.00079687,-9.9414,-9.9414,0
23169,2.0799e+07,0.18186,-1.09,0.018311,2.5107,-1.2614,0.018601,0.00088288,1.4492,-0.00095813,-2.6543,-2.6543,0
23211,2.0809e+07,0.17983,-1.8773,0.018415,2.5329,-3.0779,0.036177,0.00088944,-1.4425,-0.00086356,-6.7054,-6.7054,0
23257,2.0819e+07,0.058896,1.1909,-0.0031603,2.4658,-1.0928,0.016905,0.0002691,1.1123,-0.00094883,-5.6021,-5.6021,0
23298,2.0829e+07,0.099057,-2.6846,0.036139,2.4869,-3.2098,0.040073,0.0004836,-2.0194,-0.00076047,-1.9078,-1.9078,0
23339,2.0839e+07,0.069397,-0.879,0.013968,2.425,-1.42,0.020842,0.0003308,1.6603,-0.00080372,0.60968,0.60968,0
23379,2.0849e+07,0.12407,-2.1609,0.018464,2.4953,-3.2903,0.037931,0.00059845,-1.8263,-0.00078763,-0.64774,-0.64774,0
23422,2.0859e+07,0.039727,-0.077264,0.0050068,2.3544,-0.22919,0.0055934,0.00017995,2.0319,-0.0008398,7.9538,7.9538,0
