LineNo,TimeUS,IMU,VibeX,VibeY,VibeZ,Clip
212,1.5038e+07,0,0.02667,0.025578,0.031571,0
315,1.5072e+07,0,0.025051,0.027767,0.037957,0
657,1.5134e+07,0,0.025797,0.026479,0.03828,0
770,1.515e+07,0,0.024912,0.028445,0.036905,0
883,1.5165e+07,0,0.028395,0.027592,0.037182,0
996,1.5183e+07,0,0.027464,0.028098,0.036397,0
1227,1.5261e+07,0,0.02507,0.027469,0.037967,0
1611,1.5416e+07,0,0.027149,0.028387,0.031014,0
1689,1.5427e+07,0,0.026689,0.028707,0.029753,0
1731,1.5437e+07,0,0.027687,0.027918,0.030341,0
1771,1.5447e+07,0,0.028717,0.027141,0.031431,0
1812,1.5461e+07,0,0.026942,0.027829,0.030519,0
1855,1.5473e+07,0,0.02578,0.027918,0.031148,0
1897,1.5484e+07,0,0.025974,0.028,0.030468,0
1942,1.5493e+07,0,0.027063,0.030761,0.034081,0
1982,1.5503e+07,0,0.028708,0.029744,0.034024,0
2023,1.5514e+07,0,0.028693,0.028248,0.034905,0
2066,1.5524e+07,0,0.028142,0.028246,0.034305,0
2110,1.5539e+07,0,0.027958,0.02666,0.036362,0
2154,1.5549e+07,0,0.0267,0.026935,0.035268,0
2194,1.5559e+07,0,0.025447,0.026089,0.036454,0
2235,1.5569e+07,0,0.02546,0.02578,0.035365,0
2276,1.5579e+07,0,0.02474,0.027734,0.033856,0
2320,1.5589e+07,0,0.023907,0.027208,0.03536,0
2362,1.5599e+07,0,0.024146,0.025877,0.03834,0
2403,1.5609e+07,0,0.025723,0.024731,0.037691,0
2447,1.5619e+07,0,0.026244,0.024107,0.037694,0
2487,1.5629e+07,0,0.025823,0.024097,0.036285,0
2525,1.564e+07,0,0.026185,0.024491,0.035678,0
2568,1.565e+07,0,0.026047,0.023777,0.03525,0
2608,1.566e+07,0,0.02613,0.024266,0.034541,0
2649,1.567e+07,0,0.026211,0.024588,0.034123,0
2689,1.568e+07,0,0.025548,0.02351,0.034382,0
2734,1.569e+07,0,0.025421,0.023068,0.034457,0
2775,1.57e+07,0,0.024656,0.02492,0.034816,0
2816,1.571e+07,0,0.025074,0.024836,0.034057,0
2857,1.572e+07,0,0.024965,0.024598,0.032906,0
2897,1.573e+07,0,0.025121,0.024142,0.032162,0
2939,1.574e+07,0,0.027048,0.024815,0.031814,0
2981,1.575e+07,0,0.026194,0.025262,0.031392,0
3020,1.576e+07,0,0.025449,0.025301,0.02986,0
3062,1.577e+07,0,0.026085,0.024619,0.0308,0
3102,1.578e+07,0,0.027502,0.024047,0.031251,0
3148,1.5791e+07,0,0.027189,0.023887,0.034532,0
3190,1.58e+07,0,0.027036,0.023821,0.034703,0
3231,1.581e+07,0,0.028466,0.024587,0.035537,0
3272,1.5821e+07,0,0.027694,0.023826,0.034384,0
3314,1.5834e+07,0,0.026968,0.02478,0.03242,0
3351,1.5844e+07,0,0.028948,0.024396,0.031391,0
3393,1.5854e+07,0,0.028102,0.027284,0.034762,0
3434,1.5864e+07,0,0.027113,0.026842,0.036415,0
3474,1.5874e+07,0,0.026713,0.027388,0.035492,0
3515,1.5884e+07,0,0.025836,0.026534,0.035468,0
3559,1.5894e+07,0,0.027313,0.02748,0.034302,0
3600,1.5904e+07,0,0.026807,0.02921,0.033646,0
3642,1.5914e+07,0,0.026433,0.028147,0.032877,0
3684,1.5924e+07,0,0.025815,0.026903,0.03212,0
3722,1.5934e+07,0,0.025145,0.027135,0.036152,0
3759,1.5945e+07,0,0.026703,0.026394,0.03498,0
3801,1.5955e+07,0,0.025697,0.02651,0.036913,0
3842,1.5965e+07,0,0.024516,0.025961,0.035648,0
3882,1.5975e+07,0,0.025917,0.025501,0.034101,0
3923,1.5985e+07,0,0.025335,0.025362,0.036127,0
3967,1.5995e+07,0,0.025418,0.024688,0.034669,0
4008,1.6005e+07,0,0.025179,0.025711,0.033065,0
4051,1.6015e+07,0,0.024413,0.026343,0.03277,0
4092,1.6025e+07,0,0.026158,0.026111,0.032359,0
4133,1.6035e+07,0,0.025134,0.025972,0.033808,0
4170,1.6045e+07,0,0.025568,0.026779,0.034054,0
4212,1.6055e+07,0,0.02495,0.026646,0.035826,0
4256,1.6068e+07,0,0.02527,0.025938,0.036066,0
4298,1.6078e+07,0,0.024889,0.024863,0.037551,0
4338,1.6088e+07,0,0.024286,0.023723,0.037319,0
4383,1.6097e+07,0,0.023798,0.023981,0.037936,0
4424,1.6108e+07,0,0.022978,0.023905,0.036472,0
4464,1.6118e+07,0,0.022334,0.025198,0.036198,0
4510,1.6133e+07,0,0.021479,0.02778,0.035419,0
4553,1.6145e+07,0,0.020972,0.026092,0.03638,0
4593,1.6156e+07,0,0.020951,0.025655,0.038601,0
4634,1.6166e+07,0,0.021348,0.025337,0.038344,0
4676,1.6176e+07,0,0.021104,0.026362,0.037386,0
4716,1.6186e+07,0,0.02213,0.025837,0.036482,0
4761,1.6196e+07,0,0.021938,0.026186,0.036204,0
4801,1.6206e+07,0,0.02286,0.027559,0.036906,0
4843,1.6216e+07,0,0.02256,0.028658,0.036095,0
4883,1.6226e+07,0,0.024777,0.027603,0.035184,0
4924,1.6236e+07,0,0.023708,0.027294,0.03822,0
4962,1.6246e+07,0,0.023755,0.02628,0.038021,0
4999,1.6256e+07,0,0.022882,0.026612,0.0412,0
5041,1.6266e+07,0,0.023282,0.026064,0.038882,0
5083,1.6276e+07,0,0.026389,0.025124,0.037173,0
5123,1.6286e+07,0,0.027143,0.025077,0.037742,0
5168,1.6296e+07,0,0.025923,0.026975,0.04127,0
5209,1.6306e+07,0,0.025312,0.026169,0.041173,0
5250,1.6316e+07,0,0.024978,0.025354,0.040391,0
5290,1.6326e+07,0,0.024244,0.02512,0.040666,0
5333,1.6338e+07,0,0.025096,0.023812,0.039744,0
5370,1.6348e+07,0,0.026742,0.025334,0.039063,0
5415,1.6361e+07,0,0.026473,0.024595,0.036995,0
5456,1.6371e+07,0,0.025974,0.023662,0.035816,0
5496,1.6381e+07,0,0.026626,0.025499,0.036996,0
5538,1.6391e+07,0,0.027582,0.02472,0.037162,0
5582,1.6401e+07,0,0.027284,0.024679,0.037952,0
5624,1.6411e+07,0,0.026409,0.025229,0.040186,0
5665,1.6421e+07,0,0.02612,0.026395,0.03874,0
5705,1.6431e+07,0,0.026163,0.02619,0.038521,0
5740,1.6441e+07,0,0.026103,0.026174,0.03749,0
5781,1.6452e+07,0,0.025225,0.025786,0.036013,0
5822,1.6462e+07,0,0.024359,0.025475,0.035135,0
5862,1.6472e+07,0,0.025772,0.028533,0.036078,0
5904,1.6482e+07,0,0.026066,0.028859,0.035194,0
5946,1.6492e+07,0,0.025307,0.02883,0.034889,0
5990,1.6502e+07,0,0.024312,0.030481,0.03561,0
6033,1.6512e+07,0,0.023876,0.028948,0.034798,0
6073,1.6522e+07,0,0.023091,0.028174,0.035711,0
6117,1.6533e+07,0,0.022351,0.028575,0.035342,0
6154,1.6543e+07,0,0.022845,0.027528,0.0345,0
6194,1.6553e+07,0,0.022062,0.026697,0.033518,0
6234,1.6563e+07,0,0.021462,0.026643,0.033438,0
6275,1.6573e+07,0,0.020521,0.030378,0.035084,0
6316,1.6583e+07,0,0.021112,0.030268,0.034094,0
6357,1.6593e+07,0,0.023917,0.03078,0.033811,0
6405,1.6603e+07,0,0.023539,0.031473,0.033283,0
6447,1.6614e+07,0,0.024223,0.030645,0.031574,0
6488,1.6624e+07,0,0.025198,0.033551,0.033105,0
6529,1.6634e+07,0,0.025168,0.034325,0.032768,0
6567,1.6646e+07,0,0.024503,0.032969,0.032966,0
6608,1.6656e+07,0,0.024575,0.032338,0.032376,0
6648,1.6666e+07,0,0.023665,0.032101,0.033879,0
6690,1.6676e+07,0,0.024215,0.032815,0.032968,0
6730,1.6686e+07,0,0.02325,0.031462,0.032078,0
6775,1.6696e+07,0,0.024807,0.03058,0.036925,0
6817,1.6706e+07,0,0.024493,0.030041,0.037749,0
6858,1.6716e+07,0,0.02573,0.031391,0.039343,0
6899,1.6726e+07,0,0.025,0.031588,0.038958,0
6941,1.6736e+07,0,0.025349,0.033435,0.037726,0
6976,1.6746e+07,0,0.026604,0.033177,0.038638,0
7016,1.6756e+07,0,0.028734,0.035197,0.03702,0
7057,1.6766e+07,0,0.027965,0.035071,0.035579,0
7098,1.6776e+07,0,0.028014,0.034284,0.036175,0
7139,1.6786e+07,0,0.030046,0.032838,0.034989,0
7186,1.6797e+07,0,0.028732,0.033637,0.034946,0
7227,1.6806e+07,0,0.028473,0.033462,0.033553,0
7269,1.6816e+07,0,0.02726,0.032228,0.033459,0
7310,1.6826e+07,0,0.027259,0.031498,0.035706,0
7350,1.6836e+07,0,0.026058,0.030707,0.034746,0
7391,1.6846e+07,0,0.025588,0.030431,0.033258,0
7428,1.6857e+07,0,0.027488,0.031406,0.032572,0
7469,1.6866e+07,0,0.02907,0.03095,0.031721,0
7511,1.6877e+07,0,0.02936,0.031497,0.034013,0
7551,1.6887e+07,0,0.029026,0.034213,0.033932,0
7595,1.6897e+07,0,0.029476,0.032443,0.032536,0
7637,1.6907e+07,0,0.028161,0.031501,0.032304,0
7679,1.6917e+07,0,0.026764,0.032051,0.032124,0
7720,1.6927e+07,0,0.026563,0.031524,0.031703,0
7762,1.694e+07,0,0.027328,0.033196,0.0327,0
7803,1.695e+07,0,0.02889,0.03502,0.034655,0
7840,1.696e+07,0,0.027747,0.033378,0.035337,0
7882,1.697e+07,0,0.026802,0.031994,0.034768,0
7922,1.698e+07,0,0.026746,0.031534,0.034412,0
7963,1.699e+07,0,0.030161,0.031578,0.035814,0
8009,1.7e+07,0,0.029235,0.030447,0.034477,0
8053,1.701e+07,0,0.028933,0.02889,0.034532,0
8094,1.702e+07,0,0.029707,0.029781,0.034906,0
8134,1.7031e+07,0,0.039847,0.041003,0.036028,0
8172,1.704e+07,0,0.10168,0.055089,0.052546,0
8209,1.7051e+07,0,0.1663,0.079324,0.068374,0
8250,1.7061e+07,0,0.21448,0.07785,0.10996,0
8290,1.7071e+07,0,0.24823,0.089909,0.15067,0
8332,1.7081e+07,0,0.23942,0.16881,0.16608,0
8374,1.7091e+07,0,0.24937,0.27719,0.15998,0
8418,1.7101e+07,0,0.29678,0.31051,0.17717,0
8459,1.7111e+07,0,0.34157,0.32927,0.1922,0
8501,1.7121e+07,0,0.39553,0.38632,0.23789,0
8542,1.7131e+07,0,0.48107,0.44434,0.23298,0
8582,1.7141e+07,0,0.52829,0.53648,0.24469,0
8622,1.7154e+07,0,0.6047,0.63065,0.24424,0
8663,1.7164e+07,0,0.64119,0.63307,0.23441,0
8703,1.7174e+07,0,0.6611,0.6178,0.23701,0
8744,1.7183e+07,0,0.6452,0.58701,0.24242,0
8785,1.7193e+07,0,0.60967,0.54925,0.25858,0
8829,1.7204e+07,0,0.57692,0.5169,0.24798,0
8870,1.7214e+07,0,0.55232,0.48683,0.26262,0
8910,1.7224e+07,0,0.53098,0.45912,0.28224,0
8952,1.7233e+07,0,0.51424,0.43279,0.29316,0
8989,1.7244e+07,0,0.52634,0.41847,0.29565,0
9027,1.7254e+07,0,0.55611,0.42913,0.28805,0
9068,1.7264e+07,0,0.58329,0.44789,0.30326,0
9108,1.7274e+07,0,0.57636,0.42983,0.29615,0
9149,1.7284e+07,0,0.5604,0.42723,0.30629,0
9189,1.7294e+07,0,0.55193,0.40993,0.31338,0
9269,1.7334e+07,0,0.45762,0.43418,0.3774,0
9312,1.7344e+07,0,0.45562,0.43326,0.5007,0
9349,1.7354e+07,0,0.46262,0.43035,0.52342,0
9387,1.7364e+07,0,0.47091,0.48439,0.51457,0
9428,1.7374e+07,0,0.47133,0.5527,0.52972,0
9468,1.7384e+07,0,0.47223,0.55436,0.58782,0
9510,1.7394e+07,0,0.53517,0.58555,0.66666,0
9554,1.7404e+07,0,0.64459,0.60247,0.75001,0
9595,1.7414e+07,0,0.72967,0.71241,0.75873,0
9635,1.7424e+07,0,0.796,0.84998,0.84867,0
9678,1.7434e+07,0,0.80395,0.90897,0.84597,0
9719,1.7444e+07,0,0.83472,0.98546,0.88843,0
9756,1.7454e+07,0,0.8964,1.0499,0.89951,0
9798,1.7466e+07,0,1.1665,1.1796,1.0212,0
9839,1.7477e+07,0,1.3437,1.2832,1.0554,0
9879,1.7487e+07,0,1.5286,1.4063,1.1343,0
9920,1.7497e+07,0,1.6482,1.5487,1.1576,0
9966,1.7507e+07,0,1.757,1.6871,1.237,0
10008,1.7517e+07,0,1.8087,1.7532,1.2341,0
10048,1.7527e+07,0,1.8814,1.8467,1.3628,0
10089,1.7537e+07,0,1.9403,1.9288,1.3708,0
10128,1.7547e+07,0,2.0985,2.0241,1.5889,0
10167,1.7557e+07,0,2.2001,2.0805,1.5935,0
10208,1.7567e+07,0,2.3701,2.1496,1.823,0
10248,1.7577e+07,0,2.4647,2.196,1.7948,0
10290,1.7587e+07,0,2.6003,2.2368,1.9789,0
10330,1.7597e+07,0,2.6286,2.241,1.933,0
10376,1.7607e+07,0,2.6997,2.2561,2.0567,0
10417,1.7617e+07,0,2.6966,2.2705,2.0251,0
10457,1.7627e+07,0,2.7268,2.2634,2.1343,0
10499,1.7637e+07,0,2.7418,2.2523,2.0926,0
10536,1.765e+07,0,2.7829,2.2956,2.164,0
10578,1.766e+07,0,2.8205,2.3718,2.2073,0
10620,1.767e+07,0,2.8549,2.4604,2.2294,0
10661,1.768e+07,0,2.8586,2.506,2.1949,0
10702,1.769e+07,0,2.9191,2.6309,2.2079,0
10745,1.7701e+07,0,2.9383,2.8043,2.2201,0
10788,1.7711e+07,0,2.9677,2.9536,2.2164,0
10828,1.7721e+07,0,2.9712,3.0416,2.1748,0
10869,1.7731e+07,0,2.9942,3.1592,2.1378,0
10912,1.7741e+07,0,2.9574,3.3213,2.1268,0
10952,1.7754e+07,0,2.9828,3.448,2.0785,0
10995,1.7764e+07,0,2.9984,3.5786,2.0626,0
11035,1.7774e+07,0,3.0093,3.6798,2.0113,0
11076,1.7784e+07,0,3.0201,3.7569,2.0012,0
11116,1.7794e+07,0,2.995,3.7924,1.9311,0
11164,1.7804e+07,0,3.0071,3.8349,1.9387,0
11205,1.7814e+07,0,2.9818,3.8573,1.8643,0
11245,1.7824e+07,0,2.9805,3.8804,1.8526,0
11287,1.7834e+07,0,2.925,3.8848,1.7659,0
11327,1.7844e+07,0,2.8791,3.8964,1.7215,0
11365,1.7854e+07,0,2.7754,3.8633,1.6325,0
11406,1.7864e+07,0,2.6958,3.8272,1.5973,0
11450,1.7877e+07,0,2.55,3.7902,1.4971,0
11491,1.7887e+07,0,2.4497,3.736,1.4555,0
11533,1.7896e+07,0,2.3353,3.6563,1.385,0
11578,1.7906e+07,0,2.2418,3.6183,1.4087,0
11619,1.7917e+07,0,2.1403,3.5489,1.3429,0
11659,1.7927e+07,0,2.0495,3.4926,1.3129,0
11700,1.7937e+07,0,1.9502,3.4259,1.2441,0
11742,1.7946e+07,0,1.8451,3.3902,1.229,0
11780,1.7957e+07,0,1.7349,3.3128,1.1734,0
11821,1.7967e+07,0,1.6339,3.2385,1.169,0
11864,1.7977e+07,0,1.5529,3.215,1.121,0
11905,1.7988e+07,0,1.4741,3.2039,1.1159,0
11947,1.7997e+07,0,1.4069,3.1547,1.0775,0
11992,1.8007e+07,0,1.3756,3.1278,1.0732,0
12032,1.8017e+07,0,1.3476,3.1065,1.0279,0
12074,1.8027e+07,0,1.3417,3.1159,1.0027,0
12118,1.8043e+07,0,1.3646,3.0903,0.99479,0
12159,1.8053e+07,0,1.3686,3.0903,0.95472,0
12199,1.8063e+07,0,1.4575,3.1355,0.99525,0
12242,1.8073e+07,0,1.4793,3.1564,0.95592,0
12282,1.8083e+07,0,1.5946,3.2044,1.0166,0
12324,1.8093e+07,0,1.6165,3.2399,0.98552,0
12367,1.8103e+07,0,1.7146,3.3148,1.1056,0
12409,1.8113e+07,0,1.7247,3.3446,1.056,0
12455,1.8125e+07,0,1.8251,3.3482,1.0872,0
12495,1.8135e+07,0,1.8309,3.3384,1.0944,0
12540,1.8148e+07,0,1.8691,3.3368,1.1117,0
12577,1.8159e+07,0,1.8637,3.3055,1.1027,0
12618,1.8169e+07,0,1.8534,3.2547,1.0694,0
12659,1.8179e+07,0,1.8369,3.2239,1.0799,0
12701,1.8189e+07,0,1.8126,3.1791,1.0544,0
12742,1.8199e+07,0,1.7961,3.1445,1.0456,0
12786,1.8209e+07,0,1.7949,3.0814,1.0154,0
12827,1.8219e+07,0,1.8132,3.0573,1.036,0
12867,1.8229e+07,0,1.8321,3.0263,1.0165,0
12909,1.8239e+07,0,1.8877,3.0017,1.0201,0
12947,1.8249e+07,0,1.9264,2.953,0.99482,0
12984,1.826e+07,0,1.9761,2.948,1.0333,0
13025,1.8269e+07,0,1.9616,2.9091,0.99675,0
13066,1.828e+07,0,1.9945,2.848,0.98989,0
13108,1.8289e+07,0,2.0174,2.7746,0.9999,0
13148,1.83e+07,0,2.0645,2.7009,0.98603,0
13193,1.831e+07,0,2.073,2.6019,1.0056,0
13233,1.8319e+07,0,2.1099,2.4862,0.98809,0
13276,1.8329e+07,0,2.1151,2.3747,1.0349,0
13317,1.834e+07,0,2.1244,2.2776,1.0052,0
13355,1.8352e+07,0,2.0777,2.1314,0.98095,0
13395,1.8362e+07,0,2.0329,2.0184,0.94735,0
13436,1.8373e+07,0,1.9944,1.9156,0.95969,0
13478,1.8383e+07,0,1.9902,1.8293,0.91562,0
13518,1.8393e+07,0,1.9952,1.7452,0.91219,0
13560,1.8403e+07,0,2.0142,1.6633,0.87278,0
13604,1.8413e+07,0,2.0115,1.5868,0.87059,0
13644,1.8423e+07,0,2.0221,1.5155,0.83049,0
13685,1.8433e+07,0,2.0081,1.4471,0.81693,0
13726,1.8443e+07,0,2.0088,1.3696,0.79489,0
13764,1.8453e+07,0,1.9929,1.2971,0.7921,0
13804,1.8463e+07,0,1.9937,1.2289,0.78714,0
13842,1.8473e+07,0,1.9786,1.1677,0.79771,0
13883,1.8483e+07,0,1.9828,1.1067,0.81044,0
13925,1.8493e+07,0,1.9565,1.0512,0.81112,0
13967,1.8504e+07,0,1.9018,1.0038,0.84787,0
14012,1.8514e+07,0,1.8349,0.97155,0.83359,0
14053,1.8523e+07,0,1.7691,0.94501,0.85093,0
14096,1.8533e+07,0,1.6827,0.94812,0.8356,0
14136,1.8544e+07,0,1.5945,0.95027,0.88963,0
14177,1.8556e+07,0,1.5142,0.92715,0.85841,0
14218,1.8567e+07,0,1.4433,0.93522,0.91318,0
14259,1.8577e+07,0,1.4039,0.93514,0.92506,0
14299,1.8586e+07,0,1.3743,0.96873,0.96548,0
14341,1.8597e+07,0,1.3799,0.95991,0.94619,0
14385,1.8607e+07,0,1.3722,0.96005,1.0113,0
14428,1.8617e+07,0,1.3748,0.93061,1.0022,0
14469,1.8627e+07,0,1.3745,0.92637,1.0384,0
14509,1.8637e+07,0,1.3803,0.88533,1.0355,0
14551,1.8647e+07,0,1.3776,0.85255,1.1177,0
14588,1.8657e+07,0,1.3808,0.80411,1.1284,0
14630,1.8668e+07,0,1.384,0.77432,1.1684,0
14671,1.8678e+07,0,1.3778,0.75384,1.2141,0
14711,1.8688e+07,0,1.3539,0.75699,1.2304,0
14752,1.8697e+07,0,1.3102,0.74798,1.2355,0
14796,1.8708e+07,0,1.2547,0.74692,1.2192,0
14838,1.8718e+07,0,1.1811,0.78067,1.222,0
14879,1.8729e+07,0,1.1127,0.84823,1.1724,0
14922,1.8739e+07,0,1.0615,0.88851,1.157,0
14964,1.8748e+07,0,1.0107,0.91082,1.1117,0
14998,1.8758e+07,0,0.95102,0.95495,1.137,0
15038,1.8768e+07,0,0.90368,1.0185,1.0909,0
15078,1.8779e+07,0,0.86039,1.0866,1.1335,0
15118,1.8789e+07,0,0.81229,1.1342,1.096,0
15160,1.8799e+07,0,0.76749,1.2053,1.1548,0
15205,1.8809e+07,0,0.73421,1.2799,1.1492,0
15248,1.8819e+07,0,0.722,1.3817,1.2041,0
15289,1.8829e+07,0,0.70714,1.4772,1.184,0
15331,1.8839e+07,0,0.70108,1.5536,1.1942,0
15371,1.8849e+07,0,0.71208,1.618,1.219,0
15406,1.8859e+07,0,0.73211,1.6669,1.23,0
15447,1.8869e+07,0,0.74985,1.7012,1.2569,0
15487,1.8879e+07,0,0.74332,1.6928,1.2566,0
15528,1.8889e+07,0,0.74639,1.6623,1.2853,0
15570,1.89e+07,0,0.75238,1.6063,1.2494,0
15613,1.891e+07,0,0.77121,1.5602,1.3215,0
15655,1.892e+07,0,0.78567,1.4913,1.2834,0
15695,1.893e+07,0,0.85096,1.4338,1.3301,0
15739,1.894e+07,0,0.92971,1.3803,1.2888,0
15780,1.8953e+07,0,0.97369,1.332,1.3131,0
15821,1.8963e+07,0,1.0507,1.2874,1.2917,0
15858,1.8973e+07,0,1.1066,1.2889,1.3168,0
15899,1.8983e+07,0,1.1758,1.2542,1.2947,0
15942,1.8993e+07,0,1.2097,1.2399,1.2971,0
15982,1.9003e+07,0,1.3154,1.1876,1.3176,0
16028,1.9013e+07,0,1.3834,1.1966,1.3044,0
16068,1.9023e+07,0,1.4392,1.1489,1.3133,0
16109,1.9033e+07,0,1.46,1.1424,1.2945,0
16152,1.9043e+07,0,1.4742,1.096,1.3089,0
16189,1.9056e+07,0,1.46,1.0558,1.3234,0
16230,1.9066e+07,0,1.4168,1.0192,1.3504,0
16270,1.9076e+07,0,1.3876,0.96757,1.3345,0
16311,1.9086e+07,0,1.3221,0.93002,1.355,0
16353,1.9096e+07,0,1.2902,0.89702,1.3857,0
16394,1.9106e+07,0,1.2275,0.87806,1.3962,0
16439,1.9116e+07,0,1.2115,0.84744,1.4156,0
16479,1.9126e+07,0,1.158,0.87048,1.4076,0
16521,1.9136e+07,0,1.1454,0.86337,1.418,0
16564,1.9146e+07,0,1.1176,0.91455,1.4078,0
16605,1.9161e+07,0,1.101,0.97685,1.3758,0
16645,1.9172e+07,0,1.104,1.0034,1.4034,0
16687,1.9182e+07,0,1.0838,1.0909,1.3449,0
16728,1.9192e+07,0,1.0939,1.1648,1.3603,0
16768,1.9202e+07,0,1.0736,1.2949,1.3028,0
16812,1.9213e+07,0,1.0714,1.406,1.3119,0
16853,1.9222e+07,0,1.0707,1.5215,1.2583,0
16895,1.9233e+07,0,1.0764,1.6031,1.2424,0
16936,1.9243e+07,0,1.0534,1.671,1.2014,0
16976,1.9253e+07,0,1.0527,1.6821,1.2125,0
17014,1.9266e+07,0,1.101,1.7065,1.1784,0
17059,1.9278e+07,0,1.1491,1.7093,1.1866,0
17100,1.9289e+07,0,1.2634,1.6465,1.2248,0
17141,1.9298e+07,0,1.3368,1.6324,1.2467,0
17181,1.9308e+07,0,1.4579,1.5777,1.258,0
17229,1.9321e+07,0,1.6016,1.5341,1.2942,0
17273,1.9331e+07,0,1.6966,1.511,1.4372,0
17313,1.9341e+07,0,1.7735,1.466,1.3934,0
17354,1.9354e+07,0,1.9073,1.46,1.5245,0
17391,1.9364e+07,0,1.9859,1.4232,1.5164,0
17432,1.9374e+07,0,2.0449,1.4298,1.65,0
17475,1.9384e+07,0,2.0999,1.3978,1.6279,0
17515,1.9393e+07,0,2.1583,1.4086,1.7311,0
17557,1.9404e+07,0,2.2111,1.3645,1.6937,0
17600,1.9414e+07,0,2.2494,1.3695,1.7931,0
17642,1.9424e+07,0,2.2864,1.3265,1.7487,0
17682,1.9434e+07,0,2.3261,1.3348,1.8263,0
17723,1.9444e+07,0,2.3512,1.2827,1.7785,0
17764,1.9456e+07,0,2.3529,1.261,1.795,0
17805,1.9467e+07,0,2.3633,1.2371,1.856,0
17846,1.9477e+07,0,2.3362,1.1845,1.7851,0
17888,1.9487e+07,0,2.2984,1.1702,1.8296,0
17930,1.9496e+07,0,2.2541,1.1355,1.7602,0
17971,1.9506e+07,0,2.2337,1.1417,1.7799,0
18016,1.9517e+07,0,2.196,1.1294,1.7157,0
18059,1.9527e+07,0,2.1743,1.1799,1.7349,0
18099,1.9536e+07,0,2.1372,1.1801,1.6738,0
18140,1.9547e+07,0,2.0926,1.2585,1.6603,0
18180,1.956e+07,0,2.0186,1.2794,1.5817,0
18222,1.957e+07,0,1.9667,1.3494,1.5672,0
18263,1.958e+07,0,1.9099,1.3649,1.5235,0
18300,1.959e+07,0,1.8583,1.3915,1.4756,0
18342,1.96e+07,0,1.8178,1.378,1.4543,0
18383,1.961e+07,0,1.7877,1.3801,1.4092,0
18429,1.962e+07,0,1.7522,1.347,1.3939,0
18470,1.963e+07,0,1.7088,1.2953,1.3296,0
18510,1.964e+07,0,1.6713,1.224,1.3067,0
18551,1.965e+07,0,1.6502,1.1577,1.2505,0
18591,1.966e+07,0,1.6551,1.0917,1.2386,0
18627,1.967e+07,0,1.6536,1.0297,1.1762,0
18669,1.968e+07,0,1.6505,0.975,1.1756,0
18709,1.969e+07,0,1.6309,0.91757,1.1125,0
18750,1.97e+07,0,1.6128,0.86679,1.0836,0
18793,1.971e+07,0,1.5764,0.82748,1.0198,0
18837,1.972e+07,0,1.5488,0.79918,0.98846,0
18879,1.973e+07,0,1.513,0.77813,0.93279,0
18920,1.974e+07,0,1.481,0.7763,0.89594,0
18960,1.975e+07,0,1.4366,0.78437,0.85604,0
19002,1.976e+07,0,1.3967,0.79412,0.83256,0
19040,1.977e+07,0,1.345,0.80607,0.80956,0
19080,1.9781e+07,0,1.2835,0.82858,0.77295,0
19121,1.9791e+07,0,1.2177,0.84979,0.75254,0
19161,1.98e+07,0,1.1624,0.87153,0.71795,0
19204,1.9811e+07,0,1.0929,0.90034,0.71425,0
19250,1.9821e+07,0,1.031,0.91051,0.69628,0
19291,1.983e+07,0,0.97671,0.95132,0.69472,0
19332,1.9841e+07,0,0.9167,0.9867,0.68069,0
19372,1.985e+07,0,0.86888,1.0215,0.66193,0
19414,1.9863e+07,0,0.80588,1.1003,0.65478,0
19454,1.9873e+07,0,0.76932,1.2313,0.62522,0
19495,1.9883e+07,0,0.731,1.3193,0.63623,0
19536,1.9893e+07,0,0.70323,1.3718,0.60089,0
19577,1.9903e+07,0,0.68588,1.442,0.6095,0
19625,1.9915e+07,0,0.6746,1.5809,0.59621,0
19666,1.9925e+07,0,0.65091,1.6424,0.62651,0
19709,1.9935e+07,0,0.61455,1.6754,0.63221,0
19750,1.9945e+07,0,0.5888,1.7639,0.64611,0
19788,1.9955e+07,0,0.55988,1.8883,0.70853,0
19826,1.9965e+07,0,0.53156,1.986,0.71519,0
19867,1.9976e+07,0,0.52544,2.0515,0.78986,0
19910,1.9985e+07,0,0.52443,2.1079,0.77445,0
19950,1.9996e+07,0,0.52056,2.1395,0.90629,0
19992,2.0005e+07,0,0.50031,2.1609,0.88141,0
20036,2.0015e+07,0,0.51732,2.1598,1.0135,0
20078,2.0026e+07,0,0.49495,2.1347,0.98146,0
20119,2.0035e+07,0,0.53516,2.1208,1.0927,0
20159,2.0046e+07,0,0.58411,2.0888,1.066,0
20200,2.0055e+07,0,0.68013,2.0701,1.198,0
20235,2.0065e+07,0,0.707,2.0381,1.1877,0
20276,2.0075e+07,0,0.7213,2.0404,1.2468,0
20317,2.0085e+07,0,0.69123,2.0329,1.2332,0
20357,2.0096e+07,0,0.67327,2.057,1.2894,0
20399,2.0105e+07,0,0.65571,2.0657,1.288,0
20444,2.0115e+07,0,0.63169,2.1192,1.3108,0
20485,2.0126e+07,0,0.65076,2.1579,1.274,0
20527,2.0135e+07,0,0.66322,2.1862,1.2849,0
20567,2.0145e+07,0,0.74526,2.2316,1.2686,0
20611,2.0158e+07,0,0.80013,2.2647,1.2899,0
20648,2.0168e+07,0,0.84461,2.2758,1.328,0
20688,2.0178e+07,0,0.84666,2.2473,1.303,0
20728,2.0188e+07,0,0.87908,2.2506,1.3605,0
20769,2.0198e+07,0,0.86651,2.2289,1.3297,0
20810,2.0208e+07,0,0.92084,2.1978,1.4003,0
20854,2.0218e+07,0,0.93863,2.1577,1.3812,0
20896,2.0228e+07,0,1.0175,2.1145,1.41,0
20937,2.0238e+07,0,1.0343,2.0674,1.3753,0
20978,2.0248e+07,0,1.0965,2.0525,1.4201,0
21019,2.026e+07,0,1.1442,1.9827,1.4258,0
21057,2.0271e+07,0,1.1735,1.9522,1.4135,0
21098,2.028e+07,0,1.2572,1.917,1.4352,0
21138,2.029e+07,0,1.2882,1.897,1.4253,0
21180,2.0301e+07,0,1.3298,1.8252,1.4985,0
21220,2.031e+07,0,1.3424,1.7681,1.4966,0
21267,2.0321e+07,0,1.383,1.7099,1.5239,0
21308,2.033e+07,0,1.3883,1.6479,1.5102,0
21350,2.034e+07,0,1.4187,1.5676,1.537,0
21393,2.0351e+07,0,1.4018,1.4949,1.5162,0
21430,2.036e+07,0,1.4033,1.4301,1.5472,0
21467,2.037e+07,0,1.3561,1.3681,1.5124,0
21508,2.0381e+07,0,1.3356,1.2952,1.5362,0
21548,2.039e+07,0,1.3019,1.2476,1.4931,0
21589,2.0401e+07,0,1.2931,1.1809,1.5255,0
21630,2.0411e+07,0,1.2506,1.1255,1.4824,0
21675,2.0421e+07,0,1.236,1.0648,1.5327,0
21716,2.0431e+07,0,1.2029,1.0078,1.5283,0
21756,2.0441e+07,0,1.2267,0.95494,1.5874,0
21799,2.0451e+07,0,1.2415,0.91294,1.6621,0
21836,2.0463e+07,0,1.2662,0.86012,1.7026,0
21876,2.0474e+07,0,1.3153,0.86386,1.8909,0
21919,2.0484e+07,0,1.2789,0.83837,1.8376,0
21959,2.0494e+07,0,1.2861,0.88901,1.9736,0
22001,2.0503e+07,0,1.2535,0.94197,1.9439,0
22041,2.0514e+07,0,1.2209,1.0747,1.9984,0
22087,2.0524e+07,0,1.2615,1.2009,1.9906,0
22129,2.0534e+07,0,1.2415,1.392,1.9922,0
22170,2.0544e+07,0,1.3144,1.528,1.986,0
22211,2.0554e+07,0,1.3212,1.6819,1.9519,0
22253,2.0566e+07,0,1.4175,1.7976,1.9058,0
22291,2.0576e+07,0,1.4306,1.9228,1.8471,0
22331,2.0587e+07,0,1.499,2.003,1.8666,0
22372,2.0596e+07,0,1.5045,2.0413,1.7862,0
22412,2.0606e+07,0,1.5572,2.1269,1.7909,0
22458,2.0617e+07,0,1.5578,2.2017,1.7096,0
22500,2.0627e+07,0,1.6377,2.2532,1.7371,0
22540,2.0636e+07,0,1.6514,2.2988,1.649,0
22581,2.0646e+07,0,1.7345,2.3531,1.6662,0
22623,2.0657e+07,0,1.7871,2.4081,1.5938,0
22664,2.0667e+07,0,1.9441,2.4625,1.6416,0
22701,2.0676e+07,0,2.0475,2.4976,1.573,0
22739,2.0686e+07,0,2.1838,2.5178,1.5831,0
22781,2.0696e+07,0,2.2654,2.5316,1.5407,0
22821,2.0707e+07,0,2.3658,2.5287,1.5676,0
22866,2.0717e+07,0,2.4538,2.5019,1.5231,0
22907,2.0727e+07,0,2.5446,2.4634,1.5111,0
22951,2.0737e+07,0,2.5916,2.426,1.48,0
22991,2.0747e+07,0,2.6166,2.3847,1.4616,0
23033,2.076e+07,0,2.6337,2.3366,1.38,0
23074,2.077e+07,0,2.614,2.288,1.3329,0
23111,2.078e+07,0,2.577,2.2226,1.3037,0
23152,2.079e+07,0,2.5335,2.1958,1.2671,0
23192,2.08e+07,0,2.5314,2.1441,1.2068,0
23234,2.081e+07,0,2.5179,2.0691,1.1678,0
23280,2.082e+07,0,2.5421,1.9933,1.1654,0
23321,2.083e+07,0,2.5618,1.9499,1.1233,0
23362,2.084e+07,0,2.6414,1.8921,1.1172,0
23402,2.085e+07,0,2.6895,1.8386,1.1023,0
23445,2.086e+07,0,2.7647,1.8023,1.1888,0
23485,2.0872e+07,0,2.8225,1.8367,1.1567,0
23526,2.0882e+07,0,2.8874,1.8289,1.2215,0
23567,2.0892e+07,0,2.917,1.8015,1.203,0
23610,2.0903e+07,0,2.9603,1.7668,1.268,0
23651,2.0912e+07,0,2.9849,1.7032,1.2679,0
23695,2.0922e+07,0,3.0112,1.6672,1.3384,0
23736,2.0932e+07,0,3.0253,1.642,1.3437,0
23778,2.0942e+07,0,3.0064,1.6397,1.4121,0
23820,2.0953e+07,0,3.0031,1.5986,1.39,0
23861,2.0962e+07,0,2.9851,1.5605,1.4309,0
23902,2.0972e+07,0,2.9744,1.5313,1.4398,0
23945,2.0985e+07,0,2.9275,1.5029,1.4536,0
23985,2.0995e+07,0,2.899,1.4637,1.4343,0
24026,2.1005e+07,0,2.8814,1.4316,1.4727,0
24068,2.1014e+07,0,2.8735,1.3914,1.4773,0
24112,2.1024e+07,0,2.8521,1.3948,1.5202,0
24153,2.1035e+07,0,2.8509,1.375,1.518,0
24194,2.1045e+07,0,2.8634,1.3615,1.5612,0
24235,2.1055e+07,0,2.8809,1.3718,1.5805,0
24272,2.1064e+07,0,2.8683,1.3608,1.6075,0
24317,2.108e+07,0,2.8412,1.355,1.6149,0
24358,2.109e+07,0,2.8451,1.3544,1.5939,0
24399,2.11e+07,0,2.8393,1.3771,1.6073,0
24441,2.111e+07,0,2.8228,1.4161,1.5872,0
24486,2.112e+07,0,2.7851,1.4489,1.605,0
24526,2.113e+07,0,2.7518,1.4636,1.5764,0
24570,2.1141e+07,0,2.6927,1.5198,1.6234,0
24610,2.115e+07,0,2.6411,1.5567,1.5703,0
24651,2.1161e+07,0,2.5973,1.5965,1.5994,0
24688,2.1171e+07,0,2.5582,1.6565,1.5504,0
24729,2.118e+07,0,2.4993,1.7008,1.5878,0
24771,2.1191e+07,0,2.4814,1.7582,1.5521,0
24811,2.1201e+07,0,2.439,1.7758,1.5746,0
24853,2.1211e+07,0,2.4256,1.8185,1.5432,0
24897,2.1221e+07,0,2.397,1.7775,1.5741,0
24938,2.1231e+07,0,2.4335,1.7727,1.5858,0
24978,2.1241e+07,0,2.436,1.7142,1.6578,0
25020,2.1251e+07,0,2.4784,1.6779,1.6978,0
25061,2.1261e+07,0,2.5054,1.5958,1.796,0
25101,2.1273e+07,0,2.5903,1.5167,1.8349,0
25143,2.1284e+07,0,2.669,1.449,1.9422,0
25184,2.1294e+07,0,2.6689,1.4008,1.9372,0
25225,2.1304e+07,0,2.6381,1.3338,1.9683,0
25266,2.1314e+07,0,2.5834,1.3214,2.0121,0
25310,2.1324e+07,0,2.5619,1.2907,2.0093,0
25352,2.1334e+07,0,2.4939,1.293,2.0129,0
25394,2.1344e+07,0,2.4414,1.2899,1.9757,0
25435,2.1354e+07,0,2.3939,1.2958,1.9563,0
25478,2.1366e+07,0,2.3878,1.2659,1.8805,0
25516,2.1377e+07,0,2.3193,1.2351,1.8639,0
25557,2.1387e+07,0,2.281,1.2051,1.7946,0
25599,2.1397e+07,0,2.2232,1.1571,1.7604,0
25640,2.1407e+07,0,2.1757,1.1032,1.7126,0
25680,2.1417e+07,0,2.1261,1.0388,1.6802,0
25725,2.1426e+07,0,2.0562,0.98246,1.6466,0
25767,2.1437e+07,0,1.9811,0.92961,1.6165,0
25807,2.1446e+07,0,1.9119,0.87814,1.586,0
25851,2.1459e+07,0,1.8142,0.83163,1.5494,0
25891,2.147e+07,0,1.7478,0.81769,1.5697,0
25931,2.148e+07,0,1.6617,0.82732,1.539,0
25973,2.149e+07,0,1.5861,0.80647,1.5164,0
26014,2.15e+07,0,1.4969,0.77351,1.4834,0
26055,2.151e+07,0,1.4463,0.75151,1.4801,0
26099,2.152e+07,0,1.3973,0.71873,1.4523,0
26143,2.153e+07,0,1.3704,0.7031,1.4449,0
26183,2.154e+07,0,1.3297,0.71124,1.3966,0
26224,2.155e+07,0,1.333,0.72084,1.4335,0
26265,2.156e+07,0,1.3775,0.69594,1.396,0
26305,2.157e+07,0,1.4647,0.70203,1.4336,0
26344,2.1583e+07,0,1.5802,0.70056,1.4071,0
26385,2.1593e+07,0,1.65,0.71885,1.419,0
26425,2.1603e+07,0,1.7821,0.69014,1.4227,0
26469,2.1613e+07,0,1.8924,0.67625,1.4315,0
26514,2.1623e+07,0,1.9612,0.67591,1.4751,0
26556,2.1633e+07,0,2.0162,0.72227,1.514,0
26596,2.1643e+07,0,1.98,0.73052,1.5941,0
26637,2.1653e+07,0,1.8998,0.7189,1.5887,0
26677,2.1663e+07,0,1.7888,0.72319,1.6602,0
26715,2.1673e+07,0,1.7038,0.69753,1.656,0
26753,2.1684e+07,0,1.6815,0.66183,1.6028,0
26794,2.1694e+07,0,1.6908,0.69964,1.5561,0
26835,2.1704e+07,0,1.6676,0.76416,1.4952,0
26877,2.1714e+07,0,1.6592,0.72886,1.4787,0
26927,2.1726e+07,0,1.6127,0.96243,1.4479,0
26967,2.1736e+07,0,1.5373,1.1118,1.3941,0
27008,2.1746e+07,0,1.4757,1.2016,1.3544,0
27050,2.1756e+07,0,1.4012,1.6625,1.4815,0
27090,2.1766e+07,0,1.328,1.9642,1.5549,0
27132,2.1776e+07,0,1.276,2.4955,1.7395,0
27170,2.1786e+07,0,1.2651,2.8841,2.1143,0
27211,2.1796e+07,0,1.2943,3.053,2.244,0
27252,2.1806e+07,0,1.2553,3.3903,2.4344,0
27293,2.1816e+07,0,1.233,3.5829,2.6397,0
27341,2.1826e+07,0,1.269,3.5887,2.5914,0
27381,2.1836e+07,0,1.2455,3.5054,2.4694,0
27423,2.1846e+07,0,1.2308,3.3623,2.3504,0
27463,2.1856e+07,0,1.204,3.1965,2.2276,0
27504,2.1866e+07,0,1.1531,3.0466,2.1404,0
27545,2.1876e+07,0,1.1969,2.9451,2.1597,0
27582,2.1886e+07,0,1.2319,2.8761,2.211,0
27624,2.1896e+07,0,1.3116,2.9175,2.2042,0
27665,2.1907e+07,0,1.3006,2.9951,2.2567,0
27705,2.1916e+07,0,1.2984,3.0859,2.2477,0
27753,2.1927e+07,0,1.2364,3.0232,2.1779,0
27793,2.1936e+07,0,1.232,2.9595,2.1154,0
27834,2.1946e+07,0,1.2571,2.8982,2.0399,0
27875,2.1957e+07,0,1.3261,2.832,1.9476,0
27913,2.1969e+07,0,1.3017,2.7486,1.8357,0
27955,2.1979e+07,0,1.4387,2.6217,1.7885,0
27996,2.199e+07,0,1.694,2.5448,1.9508,0
28037,2.2e+07,0,2.0398,2.4586,2.0726,0
28078,2.2009e+07,0,2.2271,2.4942,2.2195,0
28119,2.2019e+07,0,2.3508,2.5478,2.3091,0
28164,2.203e+07,0,2.594,2.5966,2.5028,0
28205,2.2039e+07,0,2.9002,2.6002,2.6182,0
28245,2.205e+07,0,3.262,2.5473,2.7022,0
28287,2.206e+07,0,3.5502,2.4517,2.7414,0
28325,2.2069e+07,0,3.6863,2.3206,2.7814,0
28365,2.208e+07,0,3.6797,2.2617,2.8733,0
28403,2.209e+07,0,3.5673,2.218,2.9354,0
28443,2.21e+07,0,3.5582,2.2667,3.1856,0
28485,2.211e+07,0,3.6357,2.2673,3.3039,0
28525,2.212e+07,0,3.6815,2.2625,3.32,0
28574,2.2131e+07,0,3.5791,2.1822,3.2467,0
28624,2.2141e+07,0,3.4926,2.0713,3.1799,0
28668,2.2151e+07,0,3.3817,1.952,3.1422,0
28713,2.2164e+07,0,3.3179,1.8443,3.173,0
28760,2.2177e+07,0,3.1688,1.7757,3.1414,0
28805,2.2187e+07,0,3.0585,1.8406,3.1812,0
28851,2.2197e+07,0,2.9337,1.8307,3.2387,0
28892,2.2207e+07,0,2.8406,1.8116,3.2302,0
28937,2.2217e+07,0,2.7247,1.8363,3.2437,0
28986,2.2227e+07,0,2.6251,1.8387,3.1885,0
29031,2.2238e+07,0,2.592,1.8134,3.1212,0
29077,2.2248e+07,0,2.5614,1.8659,3.0121,0
29121,2.2258e+07,0,2.6365,1.888,2.8751,0
29166,2.2268e+07,0,2.629,1.8884,2.7644,0
29204,2.2279e+07,0,2.5688,1.8062,2.6798,0
29252,2.2291e+07,0,2.706,1.708,2.7474,0
29296,2.2302e+07,0,2.9356,1.688,2.9873,0
29341,2.2312e+07,0,3.201,1.6445,3.1671,0
29386,2.2322e+07,0,3.4457,1.6801,3.2914,0
29435,2.2333e+07,0,3.5558,1.6845,3.2955,0
29483,2.2343e+07,0,3.6976,1.6517,3.1968,0
29527,2.2353e+07,0,3.804,1.6664,3.0381,0
29572,2.2363e+07,0,3.7647,1.6809,2.9131,0
29614,2.2373e+07,0,3.7292,1.8104,2.9302,0
29658,2.2383e+07,0,3.6296,1.9106,2.9802,0
29700,2.2393e+07,0,3.6137,1.9729,3.0561,0
29744,2.2403e+07,0,3.8362,1.9267,3.1779,0
29792,2.2415e+07,0,4.1146,2.01,3.0563,0
29837,2.2426e+07,0,4.054,2.3062,2.9372,0
29886,2.2436e+07,0,3.8846,2.4809,2.8584,0
29931,2.2446e+07,0,3.7778,2.4383,2.7176,0
29975,2.2456e+07,0,3.7576,2.3781,2.6115,0
30017,2.2466e+07,0,3.78,2.7721,2.6939,0
30063,2.2478e+07,0,3.7627,3.0091,2.5972,0
30109,2.2489e+07,0,3.8472,2.91,2.5229,0
30154,2.2499e+07,0,3.8541,3.135,2.4952,0
30198,2.2509e+07,0,3.7442,3.4596,2.4466,0
30244,2.252e+07,0,3.782,3.3783,2.374,0
30293,2.253e+07,0,3.8556,3.5007,2.2997,0
30339,2.254e+07,0,3.792,3.6696,2.217,0
30384,2.255e+07,0,3.726,3.615,2.1554,0
30428,2.256e+07,0,3.7499,3.7052,2.1776,0
30473,2.2573e+07,0,3.9549,3.7526,2.0594,0
30517,2.2583e+07,0,4.2467,3.7798,1.9816,0
30561,2.2593e+07,0,4.6009,3.8663,1.8941,0
30606,2.2603e+07,0,4.7739,3.7619,1.9168,0
30650,2.2614e+07,0,4.7792,3.7821,1.9422,0
30696,2.2624e+07,0,4.676,3.5927,1.9769,0
30746,2.2634e+07,0,4.4466,3.4518,1.9664,0
30790,2.2644e+07,0,4.1642,3.241,2.0409,0
30835,2.2654e+07,0,3.9402,3.0767,2.0466,0
30879,2.2664e+07,0,3.702,2.8843,2.0807,0
30924,2.2677e+07,0,3.4611,2.699,2.2637,0
30967,2.2688e+07,0,3.271,2.6007,2.5045,0
31012,2.2697e+07,0,3.1541,2.4924,2.6621,0
31057,2.2708e+07,0,3.1206,2.4382,2.8514,0
31101,2.2718e+07,0,3.0426,2.4009,2.9108,0
31152,2.2731e+07,0,3.0288,2.4339,3.059,0
31200,2.2741e+07,0,3.0575,2.5732,3.2046,0
31245,2.2751e+07,0,3.0059,2.6739,3.2003,0
31289,2.2761e+07,0,2.9855,2.9225,3.4032,0
31334,2.2771e+07,0,2.9748,3.1744,3.5943,0
31373,2.2782e+07,0,2.8794,3.2404,3.6274,0
31417,2.2793e+07,0,2.792,3.2108,3.6665,0
31462,2.2803e+07,0,2.7242,3.1967,3.6678,0
31509,2.2813e+07,0,2.6477,3.117,3.5415,0
31554,2.2823e+07,0,2.5486,3.0783,3.3674,0
31598,2.2833e+07,0,2.4619,3.0115,3.1924,0
31649,2.2843e+07,0,2.4041,2.8533,3.058,0
31694,2.2853e+07,0,2.3892,2.6727,2.9726,0
31739,2.2863e+07,0,2.3493,2.5637,2.8972,0
31784,2.2874e+07,0,2.2689,2.4552,2.8196,0
31825,2.2884e+07,0,2.2031,2.3625,2.7313,0
31870,2.2894e+07,0,2.1162,2.2691,2.6115,0
31912,2.2905e+07,0,2.0411,2.1665,2.5147,0
31957,2.2915e+07,0,1.9414,2.0649,2.4261,0
32003,2.2925e+07,0,1.8911,2.0073,2.3599,0
32049,2.2935e+07,0,1.8097,1.9662,2.2411,0
32098,2.2946e+07,0,1.7614,1.9304,2.165,0
32142,2.2956e+07,0,1.7255,1.9238,2.0725,0
32187,2.2966e+07,0,1.7642,1.876,2.0035,0
32235,2.2976e+07,0,1.8455,1.8339,1.9267,0
32273,2.2987e+07,0,2.0302,1.7802,1.8459,0
32319,2.2997e+07,0,2.2782,1.7296,1.8115,0
32363,2.3007e+07,0,2.5648,1.6591,1.7922,0
32409,2.3017e+07,0,2.8081,1.5983,1.7842,0
32453,2.3027e+07,0,3.0779,1.5453,1.8366,0
32498,2.3037e+07,0,3.4095,1.4866,1.8667,0
32546,2.3047e+07,0,3.7386,1.4446,1.9398,0
32592,2.3057e+07,0,4.0148,1.5245,2.1806,0
32637,2.3068e+07,0,4.2164,1.6021,2.3085,0
32681,2.3081e+07,0,4.3873,1.6554,2.3344,0
32726,2.3092e+07,0,4.5884,1.6592,2.4576,0
32769,2.3103e+07,0,4.6483,1.7841,2.4732,0
32813,2.3113e+07,0,4.661,1.7863,2.5594,0
32860,2.3123e+07,0,4.6214,1.8139,2.5171,0
32904,2.3133e+07,0,4.5494,1.9014,2.4518,0
32958,2.3145e+07,0,4.533,2.0289,2.4188,0
33003,2.3156e+07,0,4.4368,2.09,2.3295,0
33047,2.3166e+07,0,4.2672,2.0476,2.2353,0
33092,2.3176e+07,0,4.0578,2.0765,2.1347,0
33134,2.3189e+07,0,3.8204,2.1056,2.1358,0
33179,2.3199e+07,0,3.6248,2.1277,2.0752,0
33223,2.3209e+07,0,3.4474,2.1136,2.0789,0
33268,2.322e+07,0,3.2696,2.0915,2.0881,0
33314,2.323e+07,0,3.1392,2.0989,2.0852,0
33359,2.324e+07,0,3.043,2.0993,2.1467,0
33408,2.325e+07,0,2.9524,2.0441,2.1165,0
33452,2.326e+07,0,2.8547,2.0632,2.2019,0
33498,2.327e+07,0,2.8101,2.0593,2.283,0
33543,2.328e+07,0,2.7595,2.0238,2.3642,0
33584,2.3294e+07,0,2.8038,1.9579,2.393,0
33628,2.3304e+07,0,2.9486,1.8868,2.4394,0
33673,2.3314e+07,0,3.1847,1.7906,2.4497,0
33718,2.3325e+07,0,3.4475,1.7142,2.3553,0
33762,2.3334e+07,0,3.6335,1.7431,2.3718,0
33811,2.3345e+07,0,3.7352,1.8459,2.3856,0
33860,2.3355e+07,0,3.7722,1.9165,2.3496,0
33904,2.3365e+07,0,3.679,1.9912,2.2845,0
33949,2.3375e+07,0,3.5635,2.0452,2.2242,0
33994,2.3386e+07,0,3.3863,2.1093,2.3048,0
34042,2.3398e+07,0,3.3162,2.0197,2.4937,0
34089,2.3411e+07,0,3.3536,1.8812,2.4532,0
34134,2.3421e+07,0,3.3435,1.8229,2.5721,0
34179,2.3431e+07,0,3.3557,1.8072,2.6713,0
34224,2.3441e+07,0,3.585,1.8147,2.6641,0
34277,2.3454e+07,0,4.3476,1.9847,2.6745,0
34322,2.3465e+07,0,4.6487,2.1003,2.8471,0
34368,2.3475e+07,0,4.7433,2.0381,2.8756,0
34413,2.3485e+07,0,4.6074,1.9483,2.7423,0
34457,2.3498e+07,0,4.2934,1.8293,2.8237,0
34502,2.3511e+07,0,3.984,1.7488,2.7548,0
34548,2.3521e+07,0,3.7393,1.6937,2.6362,0
34594,2.3532e+07,0,3.5575,1.6287,2.7299,0
34640,2.3543e+07,0,3.4354,1.5841,2.6779,0
34692,2.3555e+07,0,3.2045,1.6445,2.7611,0
34736,2.3566e+07,0,3.1331,1.7524,2.9621,0
34781,2.3576e+07,0,3.2505,1.8484,2.8817,0
34826,2.3587e+07,0,3.629,1.8748,2.8552,0
34871,2.3598e+07,0,4.0855,1.8286,2.8095,0
34916,2.3608e+07,0,4.0476,1.778,2.6843,0
34957,2.3619e+07,0,3.8057,1.8463,2.8013,0
35003,2.3629e+07,0,3.8333,1.969,2.8194,0
35047,2.3639e+07,0,4.3138,2.0568,2.7779,0
35094,2.3649e+07,0,4.9312,2.0917,2.7839,0
35146,2.3662e+07,0,5.3723,2.0773,2.6152,0
35190,2.3672e+07,0,5.1944,2.0402,2.665,0
35235,2.3682e+07,0,4.9393,2.0064,2.5832,0
35279,2.3693e+07,0,5.0212,1.9478,2.5536,0
35324,2.3703e+07,0,5.3367,1.8888,2.5991,0
35363,2.3713e+07,0,5.6084,1.816,2.5632,0
35408,2.3723e+07,0,5.721,1.7688,2.5169,0
35453,2.3734e+07,0,5.5116,1.6861,2.391,0
35500,2.3744e+07,0,5.2896,1.6129,2.2787,0
35545,2.3754e+07,0,5.1512,1.5666,2.3361,0
35594,2.3764e+07,0,5.2132,1.5172,2.4316,0
35639,2.3774e+07,0,5.2974,1.4775,2.3831,0
35684,2.3784e+07,0,5.3055,1.5196,2.2906,0
35728,2.3794e+07,0,5.2074,1.6335,2.2314,0
35773,2.3804e+07,0,4.9406,1.7199,2.2537,0
35817,2.3814e+07,0,4.793,1.7504,2.3868,0
35862,2.3824e+07,0,4.9348,1.7839,2.3745,0
35904,2.3835e+07,0,5.0234,1.8805,2.3223,0
35948,2.3845e+07,0,4.9593,1.9621,2.2599,0
35994,2.3855e+07,0,4.7188,2.0879,2.3146,0
36045,2.3865e+07,0,4.6428,2.1576,2.3758,0
36091,2.3875e+07,0,4.7965,2.2378,2.3527,0
36136,2.3885e+07,0,4.9372,2.367,2.3313,0
36180,2.3895e+07,0,4.8719,2.495,2.2266,0
36226,2.3905e+07,0,4.7037,2.5758,2.2293,0
36264,2.3916e+07,0,4.6761,2.5627,2.3212,0
36310,2.3926e+07,0,4.7402,2.6035,2.3186,0
36354,2.3936e+07,0,4.7167,2.5838,2.3411,0
36401,2.3946e+07,0,4.5827,2.5282,2.2732,0
36445,2.3956e+07,0,4.4031,2.4556,2.3124,0
36497,2.3966e+07,0,4.2865,2.3528,2.3449,0
36542,2.3977e+07,0,4.259,2.2784,2.4212,0
36587,2.3986e+07,0,4.2532,2.1946,2.3133,0
36632,2.3997e+07,0,4.076,2.2447,2.4741,0
36673,2.4007e+07,0,3.8669,2.2696,2.6034,0
36717,2.4018e+07,0,3.775,2.1751,2.495,0
36758,2.4029e+07,0,3.9743,2.4543,2.4417,0
36803,2.4039e+07,0,4.0299,2.8072,2.3938,0
36847,2.4049e+07,0,3.8281,2.7181,2.3787,0
36891,2.4059e+07,0,3.8812,2.8028,2.3504,0
36940,2.4069e+07,0,4.0888,3.0141,2.2525,0
36984,2.4079e+07,0,3.9778,3.0053,2.2596,0
37031,2.4089e+07,0,3.8577,2.9773,2.2465,0
37076,2.4099e+07,0,3.8551,2.9446,2.1994,0
37120,2.4111e+07,0,3.708,3.158,2.1911,0
37169,2.4124e+07,0,3.5033,3.0749,2.1325,0
37212,2.4134e+07,0,3.4144,3.3771,2.0929,0
37258,2.4144e+07,0,3.319,3.3968,2.0255,0
37303,2.4154e+07,0,3.1605,3.2839,1.9357,0
37350,2.4164e+07,0,3.0619,3.3109,1.8418,0
37396,2.4174e+07,0,3.1218,3.2342,1.7764,0
37440,2.4184e+07,0,3.0072,3.1776,1.7602,0
37485,2.4194e+07,0,2.9922,3.0542,1.7088,0
37530,2.4204e+07,0,3.2705,3.1765,1.7808,0
37576,2.4217e+07,0,3.1142,3.0455,1.7293,0
37618,2.4227e+07,0,3.2228,3.3556,1.8538,0
37662,2.4237e+07,0,3.3592,3.466,1.881,0
37707,2.4248e+07,0,3.1638,3.3637,1.8507,0
37751,2.4258e+07,0,3.0957,3.4934,1.8669,0
37801,2.4268e+07,0,3.0217,3.3799,1.941,0
37845,2.4278e+07,0,2.8685,3.2761,1.9103,0
37890,2.4289e+07,0,2.7569,3.1709,2.0455,0
37935,2.4299e+07,0,2.9849,3.2955,2.2012,0
37980,2.431e+07,0,3.1907,3.257,2.1119,0
38024,2.432e+07,0,3.0761,3.2371,2.2143,0
38068,2.433e+07,0,3.0499,3.2339,2.1452,0
38115,2.4341e+07,0,3.5497,3.1332,2.178,0
38159,2.4351e+07,0,3.8234,2.9561,2.2084,0
38205,2.4362e+07,0,3.6742,2.7833,2.2222,0
38254,2.4372e+07,0,3.5951,2.6201,2.1981,0
38298,2.4382e+07,0,3.9361,2.5349,2.2728,0
38343,2.4392e+07,0,4.1813,2.5417,2.405,0
38387,2.4403e+07,0,4.1074,2.5453,2.3056,0
38434,2.4413e+07,0,3.88,2.4395,2.3164,0
38476,2.4423e+07,0,3.7891,2.4675,2.3161,0
38517,2.4434e+07,0,3.8052,2.6362,2.298,0
38562,2.4444e+07,0,3.8264,2.6847,2.3673,0
38606,2.4454e+07,0,3.7538,2.5588,2.3079,0
38654,2.4464e+07,0,3.6519,2.4929,2.2989,0
38702,2.4475e+07,0,3.51,2.4472,2.2638,0
38747,2.4484e+07,0,3.4673,2.3833,2.266,0
38791,2.4495e+07,0,3.5298,2.2737,2.2781,0
38837,2.4505e+07,0,3.6154,2.1897,2.3281,0
38881,2.4515e+07,0,3.6257,2.0945,2.2392,0
38920,2.4525e+07,0,3.4967,1.9844,2.2451,0
38965,2.4535e+07,0,3.359,1.8821,2.2902,0
39012,2.4546e+07,0,3.3026,1.8487,2.298,0
39056,2.4556e+07,0,3.7722,2.0591,2.3739,0
39102,2.4566e+07,0,4.3635,2.2584,2.2892,0
39150,2.4576e+07,0,4.4859,2.2506,2.2402,0
39195,2.4587e+07,0,4.2961,2.1473,2.1829,0
39239,2.4597e+07,0,4.1375,2.0832,2.0871,0
39285,2.4607e+07,0,4.4705,2.226,2.0914,0
39330,2.4619e+07,0,5.2578,2.656,1.9859,0
39372,2.4631e+07,0,5.4724,2.6524,2.0779,0
39417,2.4641e+07,0,5.2277,2.578,2.1008,0
39462,2.4652e+07,0,5.0465,2.4759,2.0574,0
39507,2.4662e+07,0,5.1788,2.4854,2.1211,0
39552,2.4672e+07,0,5.3938,2.5567,2.0758,0
39601,2.4683e+07,0,5.6252,2.6356,2.0318,0
39645,2.4693e+07,0,5.5297,2.6803,2.1574,0
39690,2.4703e+07,0,5.2228,2.55,2.0896,0
39738,2.4716e+07,0,5.0791,2.4122,2.0941,0
39783,2.4727e+07,0,5.0464,2.3135,2.1307,0
39827,2.4737e+07,0,4.9946,2.234,2.0697,0
39871,2.4748e+07,0,4.7939,2.1424,2.1206,0
39916,2.4758e+07,0,4.6177,2.083,2.0537,0
39961,2.4769e+07,0,4.4114,2.2576,2.093,0
40006,2.4779e+07,0,4.2208,2.4078,2.2988,0
40056,2.4789e+07,0,4.2061,2.36,2.3007,0
40100,2.4799e+07,0,4.2084,2.2864,2.2417,0
40145,2.4809e+07,0,4.088,2.2278,2.4492,0
40189,2.4819e+07,0,3.9505,2.2295,2.4578,0
40229,2.4831e+07,0,3.8828,2.2809,2.4302,0
40273,2.4841e+07,0,3.8721,2.3869,2.5323,0
40320,2.4851e+07,0,3.7822,2.4093,2.6223,0
40364,2.4862e+07,0,3.5967,2.342,2.6939,0
40408,2.4872e+07,0,3.4944,2.3336,2.7189,0
40453,2.4882e+07,0,3.5739,2.4387,2.8714,0
40503,2.4893e+07,0,3.8103,2.4358,2.8751,0
40549,2.4903e+07,0,3.9147,2.3239,2.7921,0
40594,2.4913e+07,0,3.8479,2.2497,2.7187,0
40639,2.4924e+07,0,3.8022,2.266,2.8747,0
40691,2.494e+07,0,3.8563,2.4866,2.9802,0
40735,2.495e+07,0,3.9828,2.6427,2.8904,0
40783,2.496e+07,0,4.1341,2.593,2.8826,0
40828,2.497e+07,0,4.2208,2.4959,2.7993,0
40874,2.498e+07,0,4.1525,2.4374,2.7765,0
40923,2.499e+07,0,3.9878,2.4531,2.9216,0
40967,2.5001e+07,0,3.9495,2.4049,2.9137,0
41012,2.5011e+07,0,4.1358,2.28,2.8237,0
41057,2.5021e+07,0,4.4203,2.1924,2.7416,0
41102,2.5032e+07,0,4.5308,2.0983,2.6648,0
41144,2.5048e+07,0,4.5061,1.9839,2.5228,0
41189,2.5059e+07,0,4.3216,2.0296,2.6841,0
41233,2.5069e+07,0,4.1056,2.148,2.8578,0
41279,2.508e+07,0,3.9031,2.1854,2.7867,0
41323,2.509e+07,0,3.8651,2.1272,2.8585,0
41372,2.51e+07,0,3.9983,2.0314,2.915,0
41417,2.511e+07,0,4.167,2.0586,2.843,0
41462,2.512e+07,0,4.2197,2.183,2.8755,0
41509,2.513e+07,0,4.1132,2.2794,3.0093,0
41551,2.5144e+07,0,3.9342,2.3172,2.8945,0
41593,2.5156e+07,0,3.9444,2.353,2.8674,0
41637,2.5166e+07,0,3.9651,2.355,3.0207,0
41681,2.5176e+07,0,3.855,2.2477,3.1955,0
41728,2.5186e+07,0,3.6866,2.1328,3.263,0
41772,2.5196e+07,0,3.5863,2.0427,3.373,0
41821,2.5206e+07,0,3.6124,1.9433,3.5007,0
41865,2.5216e+07,0,3.6993,1.8577,3.4725,0
41910,2.5226e+07,0,3.8737,1.8086,3.4893,0
41955,2.5236e+07,0,4.2269,1.8376,3.5321,0
41993,2.525e+07,0,5.1545,1.8791,3.563,0
42038,2.526e+07,0,5.6108,1.9695,3.3829,0
42083,2.5271e+07,0,5.5963,2.1138,3.3135,0
42128,2.528e+07,0,5.3654,2.2485,3.3086,0
42174,2.5291e+07,0,5.0698,2.2276,3.1889,0
42218,2.5301e+07,0,4.9604,2.1638,3.013,0
42267,2.5311e+07,0,4.9973,2.1385,2.9981,0
42313,2.5321e+07,0,4.9504,2.1165,3.0526,0
42359,2.5332e+07,0,4.7951,2.0499,3.0316,0
42405,2.5342e+07,0,4.5648,1.9471,2.9925,0
42447,2.5354e+07,0,4.2856,1.884,3.1073,0
42489,2.5367e+07,0,4.0726,1.8817,3.1792,0
42533,2.5376e+07,0,4.0745,1.9281,3.0393,0
42578,2.5387e+07,0,4.2232,1.9349,3.0566,0
42623,2.5396e+07,0,4.3739,1.8944,3.3007,0
42667,2.5406e+07,0,4.3323,1.8246,3.3829,0
42717,2.5417e+07,0,4.1063,1.8187,3.2958,0
42762,2.5427e+07,0,3.9076,1.9673,3.3142,0
42807,2.5437e+07,0,3.9014,2.1462,3.356,0
42851,2.5447e+07,0,4.138,2.1882,3.2602,0
42895,2.546e+07,0,4.8527,2.1983,3.0742,0
42939,2.547e+07,0,5.0196,2.2412,3.0748,0
42981,2.5482e+07,0,4.7901,2.247,3.2309,0
43026,2.5493e+07,0,4.527,2.2395,3.1303,0
43072,2.5503e+07,0,4.488,2.1617,3.0925,0
43117,2.5513e+07,0,4.7389,2.1411,3.2935,0
43166,2.5523e+07,0,5.1451,2.1577,3.5423,0
43212,2.5533e+07,0,5.3641,2.1535,3.5408,0
43257,2.5544e+07,0,5.2382,2.1778,3.369,0
43301,2.5554e+07,0,4.954,2.238,3.4356,0
43346,2.5564e+07,0,4.7189,2.2196,3.5917,0
43387,2.5576e+07,0,4.8132,2.1153,3.5123,0
43432,2.559e+07,0,4.9803,1.9947,3.5641,0
43477,2.56e+07,0,5.006,1.902,3.5917,0
43522,2.5611e+07,0,4.98,1.8041,3.4851,0
43570,2.5621e+07,0,4.8339,1.7429,3.6056,0
43616,2.5631e+07,0,4.6352,1.7293,3.609,0
43661,2.5641e+07,0,4.426,1.9082,3.5139,0
43706,2.5651e+07,0,4.3283,2.1047,3.5416,0
43751,2.5669e+07,0,4.7325,2.1565,3.2673,0
43796,2.568e+07,0,4.9934,2.1928,3.2136,0
43841,2.569e+07,0,5.0929,2.1061,3.119,0
43886,2.57e+07,0,4.8884,2.0139,3.0822,0
43932,2.5711e+07,0,4.5714,1.9738,3.1085,0
43976,2.5721e+07,0,4.2861,1.9997,3.0294,0
44025,2.5732e+07,0,4.0742,1.9692,3.0317,0
44070,2.5743e+07,0,4.099,1.9069,2.8917,0
44116,2.5753e+07,0,4.298,1.9578,2.955,0
44161,2.5763e+07,0,4.3104,2.0097,3.2199,0
44199,2.5776e+07,0,4.0803,1.9166,3.1951,0
44243,2.5787e+07,0,4.0284,1.8362,3.1773,0
44287,2.5797e+07,0,4.2211,1.7575,3.1546,0
44333,2.5808e+07,0,4.296,1.699,3.0506,0
44378,2.5818e+07,0,4.479,1.741,3.1546,0
44422,2.5829e+07,0,4.7563,1.8735,3.3312,0
44471,2.5839e+07,0,4.9935,1.9225,3.2604,0
44515,2.585e+07,0,5.0881,1.9767,3.0665,0
44560,2.586e+07,0,4.9109,2.1034,3.0376,0
44606,2.587e+07,0,4.6425,2.1913,3.1744,0
44647,2.5881e+07,0,4.6185,2.1733,3.339,0
44692,2.5896e+07,0,5.329,2.0452,3.3221,0
44736,2.5906e+07,0,5.6765,2.0758,3.1855,0
44782,2.5916e+07,0,5.8071,2.1494,3.1213,0
44827,2.5926e+07,0,5.6893,2.179,3.1824,0
44873,2.5937e+07,0,5.3607,2.2271,3.5241,0
44925,2.5947e+07,0,5.1832,2.2994,3.7368,0
44974,2.5957e+07,0,5.2362,2.4045,4.0278,0
45018,2.5967e+07,0,5.5381,2.4792,4.0928,0
45063,2.5977e+07,0,5.9438,2.5351,3.897,0
45108,2.5991e+07,0,6.1965,2.4737,3.756,0
45150,2.6003e+07,0,5.9762,2.3351,3.9442,0
45194,2.6013e+07,0,5.6613,2.2081,4.1239,0
45241,2.6023e+07,0,5.339,2.0872,4.0727,0
45286,2.6033e+07,0,5.095,1.9895,3.9698,0
45333,2.6043e+07,0,4.9192,1.9063,3.8175,0
45379,2.6053e+07,0,4.7996,1.8559,3.6318,0
45424,2.6063e+07,0,4.6826,1.8119,3.5101,0
45469,2.6074e+07,0,4.5333,1.7485,3.4948,0
45514,2.6087e+07,0,4.2292,1.7043,3.7176,0
45555,2.6099e+07,0,3.9268,1.6475,3.9164,0
45600,2.611e+07,0,3.6967,1.5763,3.8733,0
45645,2.612e+07,0,3.5431,1.4853,3.794,0
45691,2.613e+07,0,3.5015,1.4264,3.9516,0
45737,2.6141e+07,0,3.5331,1.4036,4.1003,0
45786,2.6151e+07,0,3.6228,1.3665,4.0881,0
45831,2.6161e+07,0,3.6607,1.3706,4.0446,0
45875,2.6171e+07,0,3.5673,1.3746,3.9919,0
45921,2.6182e+07,0,3.3571,1.4392,4.0054,0
45963,2.6197e+07,0,3.1118,1.4469,4.0596,0
46011,2.621e+07,0,2.948,1.3916,3.8676,0
46056,2.6221e+07,0,3.2347,1.4946,3.7069,0
46101,2.6232e+07,0,3.8624,1.5905,3.6059,0
46147,2.6242e+07,0,4.6117,1.6451,3.6417,0
46191,2.6252e+07,0,5.083,1.7027,3.5635,0
46240,2.6262e+07,0,5.0729,1.6976,3.5479,0
46284,2.6273e+07,0,4.8075,1.7616,3.649,0
46329,2.6283e+07,0,4.5749,1.8544,4.0048,0
46374,2.6293e+07,0,4.666,2.0322,4.2346,0
46416,2.6305e+07,0,4.8938,2.2021,4.1902,0
46458,2.6317e+07,0,5.3858,2.2312,4.0733,0
46502,2.6327e+07,0,5.6739,2.2467,4.1202,0
46549,2.6337e+07,0,5.7178,2.2177,4.1834,0
46594,2.6348e+07,0,5.5382,2.1235,4.124,0
46639,2.6359e+07,0,5.2668,2.0301,3.9739,0
46688,2.6369e+07,0,5.0137,1.9844,4.042,0
46733,2.6379e+07,0,4.7988,1.937,4.0916,0
46778,2.6389e+07,0,4.6034,1.8615,3.9599,0
46822,2.6399e+07,0,4.5629,1.8734,3.9763,0
46863,2.6411e+07,0,4.6733,1.9025,4.0863,0
46911,2.6425e+07,0,4.6608,1.8691,3.9721,0
46957,2.6435e+07,0,4.4615,1.957,3.9933,0
46999,2.6447e+07,0,4.1603,1.9636,4.2081,0
47045,2.6457e+07,0,3.9754,1.8858,4.1915,0
47093,2.6468e+07,0,3.8614,1.7839,4.09,0
47139,2.6478e+07,0,3.7654,1.7104,4.258,0
47184,2.6488e+07,0,3.7358,1.6738,4.31,0
47230,2.6499e+07,0,3.8207,1.6206,4.2445,0
47277,2.6512e+07,0,3.863,1.9249,3.974,0
47322,2.6527e+07,0,3.7479,2.0666,3.8057,0
47369,2.6538e+07,0,3.8928,2.0681,3.7856,0
47410,2.6549e+07,0,4.1466,2.0549,3.6141,0
47455,2.656e+07,0,4.4231,2.1017,3.4229,0
47502,2.657e+07,0,4.4422,2.1328,3.336,0
47550,2.658e+07,0,4.3077,2.0745,3.3497,0
47595,2.659e+07,0,4.1985,2.0111,3.2498,0
47639,2.66e+07,0,4.0935,2.0239,3.1282,0
47684,2.6611e+07,0,3.8934,2.1095,3.2349,0
47731,2.6621e+07,0,3.6726,2.1558,3.4374,0
47774,2.6632e+07,0,3.5366,2.2581,3.3439,0
47816,2.6644e+07,0,3.5868,2.4206,3.4267,0
47860,2.6654e+07,0,3.627,2.4815,3.6323,0
47905,2.6664e+07,0,3.5622,2.4624,3.7859,0
47949,2.6674e+07,0,3.5788,2.4139,3.7824,0
47999,2.6684e+07,0,3.7672,2.3687,3.9191,0
48044,2.6694e+07,0,3.9125,2.3586,3.9154,0
48088,2.6704e+07,0,3.9015,2.3623,3.8142,0
48133,2.6714e+07,0,3.9206,2.3213,3.9454,0
48175,2.6726e+07,0,4.0415,2.2508,3.9947,0
48220,2.6736e+07,0,4.0298,2.1439,4.0734,0
48263,2.6747e+07,0,3.8976,2.0612,4.1713,0
48309,2.6757e+07,0,3.7318,2.0224,4.0541,0
48354,2.6768e+07,0,3.6385,2.1161,4.0643,0
48399,2.6778e+07,0,3.8058,2.1161,4.0625,0
48448,2.6789e+07,0,4.1986,2.0727,3.9376,0
48493,2.6799e+07,0,4.4962,2.141,3.9653,0
48537,2.6809e+07,0,4.5458,2.0657,3.9414,0
48582,2.6819e+07,0,4.3685,1.9544,3.7657,0
48631,2.6835e+07,0,4.1182,1.9212,3.8261,0
48672,2.6847e+07,0,4.2792,1.8763,3.7114,0
48717,2.6858e+07,0,4.3382,1.9069,3.6191,0
48761,2.6868e+07,0,4.2011,2.0285,3.7481,0
48806,2.6879e+07,0,3.9831,2.0596,3.7537,0
48853,2.6889e+07,0,4.0094,2.0034,3.5929,0
48900,2.6899e+07,0,4.1643,2.007,3.6508,0
48946,2.691e+07,0,4.3459,1.9728,3.7333,0
48991,2.692e+07,0,4.3307,1.9481,3.8761,0
49035,2.6932e+07,0,4.3229,2.0078,4.1923,0
49077,2.6944e+07,0,4.2854,2.1954,4.0653,0
49123,2.6955e+07,0,4.2718,2.1515,3.9792,0
49168,2.6965e+07,0,4.3509,2.0764,3.7792,0
49213,2.6975e+07,0,4.4361,2.0802,3.6981,0
49257,2.6985e+07,0,4.3649,2.0582,3.8226,0
49308,2.6996e+07,0,4.1266,1.9615,3.7949,0
49353,2.7006e+07,0,3.9812,1.9406,3.9245,0
49398,2.7016e+07,0,3.9093,1.9301,3.932,0
49443,2.7026e+07,0,3.7932,2.0051,3.7869,0
49492,2.7043e+07,0,4.0131,2.2195,3.5938,0
49533,2.7055e+07,0,3.9882,2.3405,3.4675,0
49578,2.7065e+07,0,3.7922,2.3305,3.5039,0
49623,2.7076e+07,0,3.8041,2.1949,3.3789,0
49667,2.7086e+07,0,3.8437,2.1817,3.4423,0
49713,2.7096e+07,0,3.7386,2.181,3.5303,0
49762,2.7107e+07,0,3.5368,2.1242,3.6326,0
49806,2.7117e+07,0,3.3316,2.0526,3.8728,0
49853,2.7127e+07,0,3.237,2.0702,3.7343,0
49898,2.7137e+07,0,3.3695,2.1641,3.6439,0
49945,2.7151e+07,0,3.2972,2.2663,3.8986,0
49986,2.7164e+07,0,3.154,2.4062,4.0652,0
50031,2.7174e+07,0,3.3897,2.394,4.1049,0
50076,2.7184e+07,0,3.9268,2.3133,4.0949,0
50121,2.7194e+07,0,4.5248,2.3667,4.0891,0
50165,2.7203e+07,0,4.5049,2.3135,3.9709,0
50214,2.7214e+07,0,4.2878,2.2917,3.8418,0
50258,2.7224e+07,0,4.2006,2.2271,3.7214,0
50305,2.7234e+07,0,4.1741,2.149,3.7018,0
50349,2.7244e+07,0,4.239,2.1943,4.0455,0
50391,2.7255e+07,0,4.1501,2.2117,4.1305,0
50435,2.7266e+07,0,3.9358,2.211,4.1418,0
50480,2.7276e+07,0,3.7157,2.1123,4.2058,0
50522,2.7288e+07,0,3.5902,2.3474,4.1008,0
50566,2.7298e+07,0,3.5578,2.4839,3.9022,0
50612,2.7309e+07,0,3.6945,2.4118,3.8429,0
50660,2.7319e+07,0,4.0424,2.3141,3.8589,0
50705,2.7329e+07,0,4.0344,2.1951,3.7114,0
50753,2.7339e+07,0,3.8251,2.1265,3.5687,0
50797,2.7349e+07,0,3.659,2.0319,3.5118,0
50839,2.7361e+07,0,3.5486,1.962,3.4925,0
50883,2.7376e+07,0,3.5373,1.9792,3.4602,0
50928,2.7386e+07,0,3.4481,1.9428,3.4098,0
50973,2.7397e+07,0,3.443,1.9623,3.4786,0
51018,2.7407e+07,0,3.6878,2.031,3.5733,0
51066,2.7417e+07,0,3.9506,2.1683,3.6169,0
51112,2.7426e+07,0,4.0314,2.1968,3.5657,0
51156,2.7437e+07,0,4.0703,2.1297,3.562,0
51204,2.7447e+07,0,4.0831,2.1449,3.6042,0
51249,2.7465e+07,0,3.8339,2.43,3.6668,0
51294,2.7476e+07,0,3.6087,2.4464,3.6075,0
51339,2.7486e+07,0,3.5753,2.3357,3.6932,0
51383,2.7496e+07,0,3.7305,2.2552,3.8493,0
51428,2.7506e+07,0,3.8582,2.1865,3.8979,0
51473,2.7516e+07,0,3.844,2.1988,3.829,0
51522,2.7526e+07,0,3.8041,2.0961,3.8074,0
51569,2.7537e+07,0,3.6712,2.1631,4.0172,0
51613,2.7547e+07,0,3.4645,2.1354,4.0538,0
51658,2.7557e+07,0,3.4676,2.1331,4.0118,0
51703,2.7567e+07,0,3.6688,2.2104,4.0561,0
51743,2.758e+07,0,4.1926,2.1587,4.1945,0
51784,2.7591e+07,0,4.3169,2.0622,4.0467,0
51829,2.7601e+07,0,4.1564,1.9649,3.8626,0
51873,2.7611e+07,0,3.9585,2.0049,3.9758,0
51918,2.7621e+07,0,3.8314,1.9971,3.9446,0
51969,2.7631e+07,0,3.7848,1.9658,3.941,0
52013,2.7641e+07,0,3.7581,2.1075,3.9487,0
52058,2.7651e+07,0,3.8351,2.2589,3.9436,0
52102,2.7661e+07,0,4.1062,2.1889,4.0072,0
52145,2.7673e+07,0,4.1363,2.1616,3.8371,0
52186,2.7684e+07,0,3.9188,2.06,3.7133,0
52230,2.7695e+07,0,3.7532,1.9758,3.6808,0
52276,2.7705e+07,0,3.6224,1.8928,3.6668,0
52321,2.7715e+07,0,3.5315,1.991,3.5256,0
52368,2.7725e+07,0,3.5784,2.3429,3.5005,0
52416,2.7736e+07,0,3.7674,2.2916,3.4671,0
52461,2.7746e+07,0,3.7862,2.2335,3.3468,0
52505,2.7756e+07,0,3.6311,2.26,3.2134,0
52550,2.7766e+07,0,3.4382,2.1854,3.143,0
52591,2.7778e+07,0,3.3223,2.1857,3.3598,0
52631,2.779e+07,0,3.3879,2.1865,3.451,0
52676,2.78e+07,0,3.4886,2.2817,3.4106,0
52721,2.7811e+07,0,3.445,2.2667,3.2782,0
52766,2.7821e+07,0,3.3734,2.2487,3.4754,0
52812,2.7832e+07,0,3.2087,2.1919,3.6613,0
52860,2.7842e+07,0,3.0935,2.1962,3.9261,0
52906,2.7853e+07,0,3.0507,2.1903,3.9737,0
52950,2.7862e+07,0,3.1891,2.15,3.896,0
52998,2.7875e+07,0,3.5666,2.2311,3.9899,0
53036,2.7888e+07,0,3.5621,2.1654,3.8744,0
53082,2.7899e+07,0,3.376,2.1016,3.8732,0
53126,2.7909e+07,0,3.2292,2.0031,3.8602,0
53171,2.7919e+07,0,3.2424,1.9639,3.9815,0
53216,2.793e+07,0,3.1996,1.9827,3.8733,0
53266,2.794e+07,0,3.2829,2.0137,3.8272,0
53314,2.795e+07,0,3.6025,1.9137,3.759,0
53359,2.796e+07,0,3.9248,2.01,3.8516,0
53403,2.7971e+07,0,3.7558,1.9719,3.8911,0
53452,2.7983e+07,0,3.6471,1.9814,4.1385,0
53497,2.7993e+07,0,3.6384,1.8991,4.0315,0
53535,2.8007e+07,0,3.7648,2.0212,4.2485,0
53580,2.8017e+07,0,3.8124,2.0477,4.1354,0
53624,2.8027e+07,0,3.8463,2.0927,4.1113,0
53670,2.8037e+07,0,3.7389,1.9741,3.9731,0
53722,2.8048e+07,0,3.5663,2.0473,3.9565,0
53767,2.8058e+07,0,3.3956,1.9696,4.061,0
53812,2.8069e+07,0,3.2801,1.9674,4.2517,0
53856,2.8079e+07,0,3.1839,2.1077,4.2303,0
53897,2.809e+07,0,3.4411,2.1596,4.1603,0
53939,2.8102e+07,0,3.9664,2.1243,3.9407,0
53983,2.8113e+07,0,4.1179,2.148,3.8439,0
54029,2.8123e+07,0,4.0066,2.0611,3.7558,0
54075,2.8134e+07,0,3.7725,2.0375,3.7999,0
54121,2.8145e+07,0,3.5501,1.9485,3.8757,0
54168,2.8155e+07,0,3.4074,2.074,4.03,0
54215,2.8164e+07,0,3.4357,2.1794,4.1883,0
54259,2.8175e+07,0,3.79,2.0997,4.2447,0
54304,2.8185e+07,0,4.4309,2.0711,4.4202,0
54349,2.8196e+07,0,4.6988,2.135,4.424,0
54388,2.821e+07,0,4.4623,2.2187,4.2978,0
54432,2.8221e+07,0,4.2898,2.1125,4.2611,0
54478,2.8231e+07,0,4.2149,2.0814,4.1582,0
54522,2.8241e+07,0,4.2091,2.0931,4.2209,0
54567,2.8251e+07,0,4.3419,2.0765,4.2183,0
54615,2.8262e+07,0,4.3859,2.0412,4.251,0
54661,2.8272e+07,0,4.3883,2.0381,4.3873,0
54706,2.8282e+07,0,4.4523,1.9579,4.3845,0
54750,2.8293e+07,0,4.4375,1.9758,4.5098,0
54795,2.8303e+07,0,4.3663,1.9621,4.3878,0
54834,2.8317e+07,0,4.3058,2.2266,4.3789,0
54881,2.8328e+07,0,4.1548,2.1299,4.2374,0
54926,2.8339e+07,0,3.9807,2.1663,4.371,0
54972,2.835e+07,0,3.8128,2.0774,4.4142,0
55016,2.836e+07,0,3.6068,1.9697,4.507,0
55065,2.837e+07,0,3.3927,1.9382,4.775,0
55110,2.8381e+07,0,3.2485,1.8455,4.6706,0
55155,2.8391e+07,0,3.2205,1.9366,4.5001,0
55199,2.8401e+07,0,3.6247,2.1443,4.5285,0
55243,2.8411e+07,0,3.806,2.3321,4.5854,0
55284,2.8424e+07,0,3.6171,2.4509,4.9212,0
55331,2.8435e+07,0,3.5639,2.4711,5.0708,0
55373,2.8446e+07,0,3.7564,2.3727,4.9228,0
55417,2.8457e+07,0,3.8925,2.4026,4.8832,0
55464,2.8467e+07,0,3.9315,2.2807,4.8384,0
55511,2.8477e+07,0,3.8773,2.2846,4.9708,0
55557,2.8486e+07,0,3.9591,2.3312,4.8662,0
55602,2.8496e+07,0,4.3372,2.2609,4.6986,0
55647,2.8507e+07,0,4.6944,2.3082,4.5992,0
55692,2.8522e+07,0,4.868,2.1968,4.4582,0
55736,2.8532e+07,0,4.8241,2.2355,4.4615,0
55780,2.8544e+07,0,4.5606,2.2331,4.3395,0
55825,2.8554e+07,0,4.4897,2.2909,4.2594,0
55870,2.8564e+07,0,4.4249,2.3317,4.1624,0
55916,2.8574e+07,0,4.2599,2.2838,4.0175,0
55964,2.8585e+07,0,4.0513,2.2721,3.9501,0
56009,2.8594e+07,0,3.8831,2.2046,3.8523,0
56054,2.8604e+07,0,3.7965,2.3439,3.9493,0
56099,2.8614e+07,0,3.8363,2.4045,4.0544,0
56144,2.8624e+07,0,3.8686,2.3302,4.0381,0
56189,2.8638e+07,0,3.7164,2.2449,4.3482,0
56231,2.865e+07,0,3.5439,2.1251,4.5203,0
56275,2.866e+07,0,3.529,2.1233,4.5453,0
56322,2.8671e+07,0,3.687,2.1777,4.6204,0
56367,2.8681e+07,0,3.7985,2.0858,4.5734,0
56415,2.8691e+07,0,3.8507,2.1746,4.6384,0
56460,2.8701e+07,0,3.7835,2.2302,4.864,0
56504,2.8711e+07,0,3.6044,2.3612,4.876,0
56550,2.8722e+07,0,3.4907,2.3838,5.1413,0
56597,2.8736e+07,0,3.4422,2.2576,5.165,0
56638,2.8748e+07,0,3.2785,2.1654,5.3132,0
56682,2.8758e+07,0,3.138,2.1587,5.4544,0
56726,2.8768e+07,0,2.9653,2.313,5.54,0
56771,2.8779e+07,0,2.8584,2.2567,5.5282,0
56816,2.8789e+07,0,2.8748,2.1622,5.5285,0
56865,2.8799e+07,0,2.8664,2.1512,5.5608,0
56911,2.8809e+07,0,2.7623,2.0432,5.4732,0
56955,2.8819e+07,0,2.6086,2.0666,5.4941,0
57000,2.8829e+07,0,2.5072,2.048,5.4124,0
57042,2.8845e+07,0,2.5079,2.036,5.2743,0
57087,2.8856e+07,0,2.553,1.9522,5.0886,0
57131,2.8866e+07,0,2.5619,2.0209,5.0869,0
57177,2.8876e+07,0,2.4651,2.1171,5.0825,0
57222,2.8886e+07,0,2.3541,2.175,5.0599,0
57270,2.8896e+07,0,2.4735,2.1497,5.3116,0
57315,2.8906e+07,0,2.6571,2.1175,5.4246,0
57360,2.8916e+07,0,2.9757,2.1625,5.5556,0
57410,2.8927e+07,0,3.2028,2.1875,5.511,0
57454,2.8937e+07,0,3.2367,2.355,5.534,0
57499,2.8947e+07,0,3.1355,2.4058,5.5536,0
57543,2.8958e+07,0,3.1797,2.3091,5.4481,0
57581,2.8971e+07,0,3.6271,2.2286,5.4293,0
57626,2.8982e+07,0,4.0446,2.3185,5.232,0
57672,2.8992e+07,0,4.2379,2.4615,5.0358,0
57721,2.9003e+07,0,4.2631,2.4426,4.7855,0
57767,2.9013e+07,0,4.1615,2.4045,4.6429,0
57812,2.9023e+07,0,4.0348,2.3005,4.5299,0
57856,2.9033e+07,0,3.9904,2.2158,4.4578,0
57901,2.9043e+07,0,3.9049,2.2994,4.6229,0
57939,2.9057e+07,0,3.675,2.3017,4.6149,0
57984,2.9067e+07,0,3.5245,2.2259,4.7037,0
58030,2.9078e+07,0,3.6071,2.0989,4.532,0
58074,2.9088e+07,0,3.6792,2.0471,4.343,0
58121,2.9099e+07,0,3.6463,1.991,4.1894,0
58170,2.911e+07,0,3.5067,1.9875,4.0438,0
58216,2.912e+07,0,3.4004,2.163,4.0128,0
58261,2.913e+07,0,3.4139,2.2513,3.8892,0
58307,2.914e+07,0,3.528,2.2624,4.0011,0
58352,2.9154e+07,0,3.3555,2.2811,4.3391,0
58394,2.9167e+07,0,3.185,2.2744,4.4108,0
58439,2.9177e+07,0,3.269,2.2554,4.6433,0
58485,2.9188e+07,0,3.3099,2.1534,4.6576,0
58529,2.9198e+07,0,3.4348,2.2882,4.8835,0
58575,2.9209e+07,0,3.5358,2.318,4.8873,0
58623,2.9219e+07,0,3.5932,2.2605,5.0724,0
58669,2.9229e+07,0,3.7773,2.221,5.1196,0
58714,2.9239e+07,0,3.7966,2.194,5.1861,0
58758,2.9249e+07,0,3.7598,2.1301,5.2852,0
58803,2.926e+07,0,3.8105,2.0752,5.2427,0
58844,2.9271e+07,0,3.691,2.0841,5.1736,0
58886,2.9283e+07,0,3.5004,2.1656,5.0463,0
58931,2.9293e+07,0,3.3231,2.1039,4.9444,0
58978,2.9303e+07,0,3.1965,2.2472,4.8426,0
59022,2.9313e+07,0,3.0333,2.4014,4.7598,0
59071,2.9324e+07,0,2.8703,2.2942,4.6089,0
59117,2.9335e+07,0,2.7257,2.3023,4.5236,0
59162,2.9345e+07,0,2.6403,2.2851,4.4313,0
59206,2.9355e+07,0,2.5664,2.4695,4.4214,0
59249,2.9367e+07,0,2.4735,2.4278,4.3036,0
59297,2.938e+07,0,2.5413,2.3394,4.2661,0
59341,2.939e+07,0,2.7838,2.5089,4.381,0
59383,2.9401e+07,0,2.9174,2.5698,4.5517,0
59428,2.9412e+07,0,2.9341,2.5126,4.9241,0
59475,2.9422e+07,0,3.0122,2.41,5.2132,0
59525,2.9433e+07,0,3.4113,2.2898,5.3189,0
59569,2.9443e+07,0,3.4793,2.1856,5.2097,0
59614,2.9453e+07,0,3.3588,2.1337,4.9896,0
59658,2.9463e+07,0,3.2196,2.3013,4.8862,0
59701,2.9475e+07,0,3.261,2.2221,4.6878,0
59746,2.9485e+07,0,3.3547,2.1774,4.5748,0
59790,2.9495e+07,0,3.3932,2.1614,4.3943,0
59835,2.9506e+07,0,3.314,2.1245,4.3018,0
59880,2.9521e+07,0,3.2054,2.0765,4.6012,0
59927,2.9531e+07,0,3.1038,1.9829,4.7164,0
59975,2.9542e+07,0,2.8998,1.9331,4.7377,0
60021,2.9552e+07,0,2.7585,1.8474,4.5557,0
60066,2.9562e+07,0,2.7694,1.879,4.6145,0
60113,2.9575e+07,0,3.3091,1.8396,4.5998,0
60152,2.9588e+07,0,3.7834,1.9125,4.7307,0
60196,2.9599e+07,0,3.7805,1.8921,4.6479,0
60242,2.9609e+07,0,3.6073,1.9574,4.5733,0
60288,2.9619e+07,0,3.4937,1.9048,4.523,0
60332,2.9629e+07,0,3.3966,1.8417,4.4604,0
60381,2.9639e+07,0,3.28,1.9181,4.4715,0
60427,2.9649e+07,0,3.1997,2.0156,4.407,0
60472,2.9659e+07,0,3.0571,1.9214,4.3639,0
60517,2.967e+07,0,3.0331,1.8503,4.3425,0
60561,2.968e+07,0,3.4405,1.7504,4.2032,0
60609,2.9693e+07,0,4.0264,1.7452,4.0657,0
60651,2.9709e+07,0,4.0629,1.6348,3.797,0
60695,2.9719e+07,0,3.9023,1.7147,3.8931,0
60741,2.9729e+07,0,3.7122,1.7844,3.976,0
60789,2.974e+07,0,3.6218,1.839,3.9575,0
60837,2.975e+07,0,3.5704,1.9304,3.9701,0
60882,2.9761e+07,0,3.409,1.9993,3.8272,0
60926,2.9771e+07,0,3.3779,1.9288,3.6952,0
60971,2.9782e+07,0,3.6276,1.9478,3.73,0
61013,2.9798e+07,0,4.1392,1.8712,3.5707,0
61058,2.9808e+07,0,4.0831,1.8588,3.6862,0
61103,2.9819e+07,0,3.8811,1.9519,3.8177,0
61147,2.9829e+07,0,3.7004,2.002,3.7756,0
61193,2.9839e+07,0,3.6623,2.0342,3.8374,0
61238,2.9849e+07,0,3.7832,2.0022,3.9382,0
61287,2.986e+07,0,3.8435,1.9872,3.9667,0
61332,2.987e+07,0,3.768,1.9884,4.2528,0
61376,2.988e+07,0,3.6357,2.012,4.5116,0
61421,2.989e+07,0,3.6528,2.0336,4.7381,0
61465,2.99e+07,0,3.9733,1.99,4.9589,0
61510,2.9912e+07,0,4.5528,1.9419,4.8602,0
61552,2.9924e+07,0,4.7072,1.9848,4.7515,0
61601,2.9934e+07,0,4.5842,1.9682,4.5948,0
61645,2.9944e+07,0,4.3271,1.9715,4.3714,0
61690,2.9954e+07,0,4.1568,2.0639,4.1737,0
61739,2.9964e+07,0,4.0555,2.0486,4.0669,0
61784,2.9974e+07,0,3.8879,1.966,3.9405,0
61829,2.9984e+07,0,3.7037,1.9831,4.0199,0
61873,2.9995e+07,0,3.5424,1.9925,4.1494,0
61918,3.0004e+07,0,3.5822,2.0623,4.0311,0
61959,3.0017e+07,0,3.9707,2.1338,3.999,0
62001,3.0029e+07,0,4.2341,2.2072,3.8464,0
62046,3.0038e+07,0,4.0708,2.1692,3.7745,0
62090,3.0049e+07,0,3.842,2.1084,3.7174,0
62135,3.0059e+07,0,3.6563,2.0644,3.7272,0
62185,3.0069e+07,0,3.6867,2.108,3.9261,0
62230,3.0079e+07,0,3.7255,2.1483,4.0277,0
62275,3.009e+07,0,3.5819,2.1758,4.061,0
62319,3.01e+07,0,3.439,2.1378,4.0541,0
62361,3.0111e+07,0,3.4376,2.068,4.0374,0
62406,3.0125e+07,0,3.3741,2.0525,3.9121,0
62450,3.0135e+07,0,3.3399,1.9982,3.7842,0
62497,3.0145e+07,0,3.2651,2.018,3.6416,0
62542,3.0156e+07,0,3.1705,2.0072,3.5131,0
62593,3.0166e+07,0,3.2778,1.9821,3.4881,0
62639,3.0177e+07,0,3.4722,1.9175,3.3442,0
62684,3.0186e+07,0,3.6448,1.9388,3.3479,0
62730,3.0197e+07,0,3.7741,2.1726,3.43,0
62775,3.021e+07,0,3.6721,2.3694,3.5554,0
