LineNo,TimeUS,C,Roll,Pitch,Yaw,VN,VE,VD,dPD,PN,PE,PD,GX,GY,GZ,OH
202,1.5036e+07,1,0.89,-0.98,13.65,-0.0021976,0.0098517,0.0084497,-0.74379,0,0,0.99546,-0.01,0.09,-0.34,0
305,1.507e+07,1,0.89,-0.98,13.67,-0.003353,0.010147,0.0036003,-1.7832,0,0,0.89335,-0.01,0.09,-0.33,0
647,1.5132e+07,1,0.9,-0.98,13.71,-0.0025602,0.0080094,-0.00030844,-2.8185,0,0,0.75355,-0.01,0.08,-0.32,0
760,1.5148e+07,1,0.9,-0.99,13.72,-0.0024337,0.010347,-0.00084039,-2.8842,0,0,0.7103,-0.01,0.08,-0.32,0
873,1.5164e+07,1,0.89,-0.99,13.72,-0.0015658,0.011083,-0.0017066,-2.9437,0,0,0.66891,-0.01,0.08,-0.32,0
986,1.5181e+07,1,0.9,-0.99,13.73,-0.0013427,0.011872,-0.0027942,-2.9879,0,0,0.62926,-0.01,0.08,-0.32,0
1217,1.5259e+07,1,0.9,-1,13.77,-0.0019346,0.010527,-0.12252,-2.6381,0,0,0.51516,-0.01,0.08,-0.31,0
1601,1.5414e+07,1,0.9,-1.01,13.83,-0.00045806,0.015482,-0.47853,-2.1247,0,0,0.28864,-0.01,0.08,-0.3,0
1679,1.5425e+07,1,0.9,-1.01,13.84,2.5332e-05,0.015389,-0.47917,-2.1516,0,0,0.25848,-0.01,0.08,-0.3,0
1721,1.5435e+07,1,0.9,-1.01,13.85,-0.00058482,0.015584,-0.47881,-2.1786,0,0,0.2302,-0.01,0.08,-0.3,0
1761,1.5445e+07,1,0.91,-1.01,13.85,-0.0011263,0.015888,-0.47843,-2.191,0,0,0.20321,-0.01,0.08,-0.3,0
1802,1.5458e+07,1,0.91,-1.01,13.86,-0.00079337,0.015973,-0.47667,-2.2108,0,0,0.17593,-0.01,0.08,-0.31,0
1845,1.5472e+07,1,0.9,-1.01,13.86,-7.4887e-05,0.015504,-0.47735,-2.2348,0,0,0.15037,-0.01,0.08,-0.31,0
1887,1.5481e+07,1,0.9,-1.01,13.87,-0.00015557,0.01566,-0.475,-2.2288,0,0,0.12724,-0.01,0.08,-0.32,0
1932,1.5491e+07,1,0.9,-1.01,13.88,0.0011578,0.015797,-0.47343,-2.228,0,0,0.12248,-0.01,0.08,-0.32,0
1972,1.5501e+07,1,0.91,-1.01,13.89,0.00039833,0.016358,-0.4735,-2.1953,0,0,0.10034,-0.01,0.08,-0.31,0
2013,1.5511e+07,1,0.91,-1.01,13.9,0.0023252,0.016596,-0.47196,-2.1476,0,0,0.079209,-0.01,0.08,-0.32,0
2056,1.5521e+07,1,0.91,-1.01,13.9,0.0036759,0.017021,-0.47363,-2.099,0,0,0.058969,-0.01,0.08,-0.32,0
2100,1.5537e+07,1,0.92,-1.01,13.92,0.0040942,0.018911,-0.47362,-2.0281,0,0,0.037344,-0.01,0.08,-0.32,0
2144,1.5547e+07,1,0.92,-1.01,13.92,0.0046525,0.019414,-0.47307,-1.9685,0,0,0.033086,-0.01,0.08,-0.32,0
2184,1.5557e+07,1,0.92,-1.01,13.93,0.0053335,0.01929,-0.47257,-1.9011,0,0,0.015058,-0.01,0.08,-0.32,0
2225,1.5567e+07,1,0.92,-1.01,13.93,0.0060058,0.019761,-0.47039,-1.8415,0,0,-0.0021695,-0.01,0.08,-0.32,0
2266,1.5577e+07,1,0.91,-1.02,13.95,0.0054692,0.021911,-0.47036,-1.7806,0,0,-0.018645,-0.01,0.08,-0.32,0
2310,1.5587e+07,1,0.91,-1.02,13.95,0.0056027,0.022198,-0.47004,-1.7118,0,0,-0.034431,-0.01,0.08,-0.32,0
2352,1.5597e+07,1,0.91,-1.02,13.96,0.0039765,0.023765,-0.47143,-1.6438,0,0,-0.049608,-0.01,0.08,-0.32,0
2393,1.5607e+07,1,0.91,-1.02,13.97,0.0036604,0.023456,-0.47125,-1.5759,0,0,-0.054795,-0.01,0.08,-0.32,0
2437,1.5617e+07,1,0.91,-1.02,13.98,0.0037887,0.024281,-0.47172,-1.5129,0,0,-0.069372,-0.01,0.08,-0.32,0
2477,1.5627e+07,1,0.92,-1.02,13.98,0.0035005,0.024778,-0.47052,-1.4374,0,0,-0.083418,-0.01,0.08,-0.32,0
2515,1.5638e+07,1,0.91,-1.02,13.99,0.0032299,0.025141,-0.47207,-1.3725,0,0,-0.096256,-0.01,0.08,-0.32,0
2558,1.5648e+07,1,0.91,-1.02,14,0.0028942,0.025225,-0.47094,-1.3056,0,0,-0.10095,-0.01,0.08,-0.32,0
2598,1.5658e+07,1,0.92,-1.02,14.01,0.0030972,0.025372,-0.47144,-1.2341,0,0,-0.11342,-0.01,0.08,-0.32,0
2639,1.5668e+07,1,0.92,-1.02,14.02,0.0036273,0.025602,-0.47382,-1.1669,0,0,-0.12545,-0.01,0.08,-0.32,0
2679,1.5678e+07,1,0.92,-1.02,14.02,0.0041903,0.025288,-0.47336,-1.1011,0,0,-0.13028,-0.01,0.08,-0.32,0
2724,1.5688e+07,1,0.92,-1.02,14.03,0.0034945,0.02383,-0.47357,-1.0436,0,0,-0.14177,-0.01,0.08,-0.32,0
2765,1.5698e+07,1,0.93,-1.01,14.03,0.0041496,0.02416,-0.47128,-0.98813,0,0,-0.15297,-0.01,0.08,-0.32,0
2806,1.5708e+07,1,0.93,-1.01,14.04,0.0052854,0.025195,-0.47079,-0.93608,0,0,-0.1638,-0.01,0.08,-0.32,0
2847,1.5718e+07,1,0.93,-1.01,14.04,0.0047512,0.026056,-0.46995,-0.88933,0,0,-0.16843,-0.01,0.08,-0.32,0
2887,1.5728e+07,1,0.93,-1.01,14.05,0.0045563,0.025457,-0.46913,-0.83327,0,0,-0.17895,-0.01,0.08,-0.32,0
2929,1.5738e+07,1,0.93,-1.01,14.05,0.0041421,0.025943,-0.46805,-0.79138,0,0,-0.18904,-0.01,0.08,-0.32,0
2971,1.5748e+07,1,0.93,-1.01,14.06,0.0047744,0.025537,-0.46824,-0.75581,0,0,-0.19372,-0.01,0.08,-0.32,0
3010,1.5758e+07,1,0.93,-1.01,14.06,0.0057584,0.025544,-0.46961,-0.71722,0,0,-0.20407,-0.01,0.08,-0.33,0
3052,1.5768e+07,1,0.93,-1.01,14.07,0.006544,0.025595,-0.4699,-0.69034,0,0,-0.2135,-0.01,0.08,-0.33,0
3092,1.5778e+07,1,0.93,-1.01,14.08,0.0074154,0.026521,-0.47077,-0.66083,0,0,-0.22265,-0.01,0.08,-0.33,0
3138,1.5788e+07,1,0.93,-1.01,14.09,0.0078942,0.026512,-0.4721,-0.64074,0,0,-0.23151,-0.01,0.08,-0.33,0
3180,1.5798e+07,1,0.93,-1.01,14.09,0.007206,0.02605,-0.47303,-0.62603,0,0,-0.23624,-0.01,0.08,-0.33,0
3221,1.5808e+07,1,0.93,-1.01,14.1,0.0074179,0.026675,-0.47257,-0.61062,0,0,-0.24473,-0.01,0.08,-0.33,0
3262,1.5819e+07,1,0.93,-1,14.11,0.0078054,0.026898,-0.47386,-0.59782,0,0,-0.25307,-0.01,0.08,-0.33,0
3304,1.5832e+07,1,0.93,-1.01,14.12,0.0092517,0.028281,-0.47595,-0.58364,0,0,-0.26299,-0.01,0.08,-0.33,0
3341,1.5842e+07,1,0.93,-1.01,14.12,0.0090235,0.028811,-0.47618,-0.57079,0,0,-0.27028,-0.01,0.08,-0.33,0
3383,1.5852e+07,1,0.93,-1.01,14.13,0.0090057,0.029201,-0.47565,-0.55605,0,0,-0.27736,-0.01,0.08,-0.34,0
3424,1.5862e+07,1,0.93,-1.01,14.14,0.0096759,0.0292,-0.475,-0.53949,0,0,-0.28426,-0.01,0.08,-0.34,0
3464,1.5872e+07,1,0.93,-1.01,14.14,0.0097145,0.029764,-0.47534,-0.52565,0,0,-0.289,-0.01,0.08,-0.34,0
3505,1.5882e+07,1,0.93,-1.02,14.15,0.0097425,0.029697,-0.4752,-0.5121,0,0,-0.29568,-0.01,0.08,-0.34,0
3549,1.5892e+07,1,0.93,-1.01,14.16,0.010619,0.030238,-0.47477,-0.49775,0,0,-0.30224,-0.01,0.08,-0.34,0
3590,1.5902e+07,1,0.93,-1.01,14.16,0.011509,0.028952,-0.47384,-0.48359,0,0,-0.30867,-0.01,0.08,-0.34,0
3632,1.5912e+07,1,0.93,-1.01,14.17,0.011662,0.028415,-0.47198,-0.46861,0,0,-0.31489,-0.01,0.08,-0.34,0
3674,1.5922e+07,1,0.93,-1.01,14.18,0.013517,0.027822,-0.47015,-0.45576,0,0,-0.3196,-0.01,0.08,-0.34,0
3712,1.5932e+07,1,0.93,-1.01,14.19,0.014381,0.027534,-0.4712,-0.44697,0,0,-0.32569,-0.01,0.08,-0.34,0
3749,1.5942e+07,1,0.93,-1.01,14.19,0.014344,0.028072,-0.47151,-0.43746,0,0,-0.33111,-0.01,0.08,-0.36,0
3791,1.5953e+07,1,0.92,-1.01,14.2,0.015503,0.028742,-0.47094,-0.42296,0,0,-0.33632,-0.01,0.08,-0.36,0
3832,1.5963e+07,1,0.92,-1.01,14.21,0.015102,0.029023,-0.47003,-0.41195,0,0,-0.3413,-0.01,0.08,-0.35,0
3872,1.5973e+07,1,0.92,-1,14.22,0.015372,0.029378,-0.47068,-0.39909,0,0,-0.34648,-0.01,0.08,-0.35,0
3913,1.5983e+07,1,0.92,-1.01,14.23,0.015479,0.030033,-0.47176,-0.39054,0,0,-0.35186,-0.01,0.08,-0.35,0
3957,1.5993e+07,1,0.92,-1.01,14.24,0.015807,0.029505,-0.47158,-0.38275,0,0,-0.35715,-0.01,0.08,-0.35,0
3998,1.6003e+07,1,0.92,-1.01,14.25,0.016105,0.028862,-0.4703,-0.37329,0,0,-0.36186,-0.01,0.08,-0.35,0
4041,1.6013e+07,1,0.93,-1.01,14.27,0.016804,0.027867,-0.4693,-0.36708,0,0,-0.36671,-0.01,0.08,-0.35,0
4082,1.6023e+07,1,0.93,-1.01,14.28,0.016978,0.029233,-0.46885,-0.36144,0,0,-0.37227,-0.01,0.08,-0.35,0
4123,1.6033e+07,1,0.93,-1.01,14.28,0.017312,0.02848,-0.46691,-0.35563,0,0,-0.377,-0.01,0.08,-0.35,0
4160,1.6043e+07,1,0.93,-1.01,14.3,0.018302,0.029032,-0.46676,-0.35353,0,0,-0.38206,-0.01,0.08,-0.35,0
4202,1.6053e+07,1,0.93,-1.01,14.3,0.019024,0.028251,-0.46661,-0.35262,0,0,-0.38706,-0.01,0.08,-0.35,0
4246,1.6066e+07,1,0.93,-1.01,14.31,0.019087,0.028804,-0.46521,-0.35035,0,0,-0.39291,-0.01,0.08,-0.35,0
4288,1.6076e+07,1,0.93,-1,14.32,0.01888,0.028227,-0.46462,-0.3496,0,0,-0.39758,-0.01,0.08,-0.35,0
4328,1.6086e+07,1,0.93,-1.01,14.33,0.020449,0.027671,-0.46385,-0.34962,0,0,-0.40252,-0.01,0.08,-0.35,0
4373,1.6096e+07,1,0.93,-1.01,14.34,0.019202,0.027724,-0.46557,-0.35258,0,0,-0.40729,-0.01,0.08,-0.35,0
4414,1.6106e+07,1,0.93,-1.01,14.35,0.019766,0.027511,-0.46777,-0.35622,0,0,-0.41195,-0.01,0.08,-0.35,0
4454,1.6116e+07,1,0.93,-1.01,14.36,0.020098,0.028034,-0.46811,-0.35823,0,0,-0.41665,-0.01,0.08,-0.35,0
4500,1.6131e+07,1,0.92,-1.01,14.37,0.020736,0.027578,-0.46843,-0.36111,0,0,-0.42414,-0.01,0.08,-0.35,0
4543,1.6144e+07,1,0.93,-1.01,14.38,0.01961,0.028349,-0.46633,-0.36112,0,0,-0.42983,-0.01,0.08,-0.35,0
4583,1.6154e+07,1,0.93,-1.01,14.38,0.020052,0.028102,-0.4664,-0.36368,0,0,-0.4346,-0.01,0.08,-0.35,0
4624,1.6164e+07,1,0.93,-1.01,14.39,0.020348,0.027955,-0.46633,-0.3664,0,0,-0.43967,-0.01,0.08,-0.35,0
4666,1.6174e+07,1,0.93,-1.01,14.4,0.019983,0.028142,-0.46684,-0.3698,0,0,-0.44436,-0.01,0.08,-0.35,0
4706,1.6184e+07,1,0.93,-1.01,14.41,0.021185,0.028271,-0.46822,-0.37399,0,0,-0.44894,-0.01,0.08,-0.35,0
4751,1.6194e+07,1,0.93,-1.01,14.42,0.020324,0.028677,-0.46828,-0.37696,0,0,-0.45356,-0.01,0.08,-0.35,0
4791,1.6204e+07,1,0.93,-1,14.42,0.020783,0.028809,-0.4681,-0.37927,0,0,-0.45819,-0.01,0.08,-0.35,0
4833,1.6214e+07,1,0.93,-1,14.43,0.020966,0.028348,-0.46817,-0.3819,0,0,-0.46279,-0.01,0.08,-0.35,0
4873,1.6224e+07,1,0.93,-1,14.43,0.020776,0.028115,-0.46796,-0.38446,0,0,-0.46727,-0.01,0.08,-0.35,0
4914,1.6234e+07,1,0.93,-1,14.44,0.020917,0.028271,-0.46675,-0.38579,0,0,-0.47179,-0.01,0.08,-0.35,0
4952,1.6244e+07,1,0.93,-1,14.44,0.020668,0.028899,-0.46639,-0.38732,0,0,-0.47641,-0.01,0.08,-0.35,0
4989,1.6254e+07,1,0.94,-1,14.44,0.019666,0.029765,-0.46609,-0.38778,0,0,-0.48053,-0.01,0.08,-0.35,0
5031,1.6264e+07,1,0.94,-1,14.44,0.018844,0.030355,-0.46623,-0.38791,0,0,-0.48459,-0.01,0.08,-0.35,0
5073,1.6274e+07,1,0.94,-1,14.45,0.019664,0.030276,-0.46711,-0.38902,0,0,-0.48865,-0.01,0.08,-0.35,0
5113,1.6284e+07,1,0.94,-1,14.45,0.019523,0.030566,-0.46554,-0.38624,0,0,-0.49332,-0.01,0.08,-0.35,0
5158,1.6294e+07,1,0.94,-1,14.46,0.01874,0.032186,-0.46418,-0.3836,0,0,-0.49727,-0.01,0.08,-0.35,0
5199,1.6304e+07,1,0.94,-1.01,14.47,0.018248,0.031675,-0.4661,-0.38348,0,0,-0.50131,-0.01,0.08,-0.35,0
5240,1.6314e+07,1,0.94,-1.01,14.47,0.017911,0.031333,-0.46616,-0.38191,0,0,-0.50527,-0.01,0.08,-0.35,0
5280,1.6324e+07,1,0.94,-1.01,14.48,0.018495,0.03053,-0.46922,-0.38339,0,0,-0.50929,-0.01,0.08,-0.35,0
5323,1.6337e+07,1,0.94,-1.01,14.48,0.019116,0.03142,-0.47,-0.38219,0,0,-0.51354,-0.01,0.08,-0.35,0
5360,1.6346e+07,1,0.94,-1.01,14.49,0.018571,0.03235,-0.47,-0.37768,0,0,-0.51689,-0.01,0.08,-0.36,0
5405,1.6359e+07,1,0.94,-1.01,14.5,0.019178,0.031423,-0.46817,-0.368,0,0,-0.52164,-0.01,0.08,-0.36,0
5446,1.6369e+07,1,0.94,-1.01,14.5,0.018917,0.031315,-0.46782,-0.36271,0,0,-0.52503,-0.01,0.08,-0.36,0
5486,1.6379e+07,1,0.95,-1.01,14.5,0.019632,0.031412,-0.46711,-0.3556,0,0,-0.52968,-0.01,0.08,-0.36,0
5528,1.6389e+07,1,0.95,-1.01,14.51,0.019782,0.030851,-0.46798,-0.35096,0,0,-0.53308,-0.01,0.08,-0.36,0
5572,1.6399e+07,1,0.95,-1.01,14.51,0.019565,0.030768,-0.46732,-0.34603,0,0,-0.5365,-0.01,0.08,-0.36,0
5614,1.6409e+07,1,0.95,-1.01,14.51,0.020141,0.030595,-0.46624,-0.3414,0,0,-0.53989,-0.01,0.08,-0.36,0
5655,1.6419e+07,1,0.95,-1.01,14.52,0.020298,0.031501,-0.46822,-0.34102,0,0,-0.54337,-0.01,0.08,-0.36,0
5695,1.6429e+07,1,0.95,-1.01,14.52,0.019499,0.030473,-0.46851,-0.33804,0,0,-0.54805,-0.01,0.08,-0.36,0
5730,1.6439e+07,1,0.96,-1.01,14.52,0.019309,0.030428,-0.46815,-0.33498,0,0,-0.55046,-0.01,0.08,-0.37,0
5771,1.645e+07,1,0.96,-1.01,14.53,0.01963,0.032618,-0.46741,-0.33006,0,0,-0.55294,-0.01,0.08,-0.37,0
5812,1.646e+07,1,0.96,-1.02,14.54,0.020057,0.031648,-0.46746,-0.32342,0,0,-0.55808,-0.01,0.08,-0.37,0
5852,1.647e+07,1,0.96,-1.02,14.55,0.019681,0.031485,-0.46555,-0.31537,0,0,-0.56059,-0.01,0.08,-0.37,0
5894,1.648e+07,1,0.96,-1.02,14.56,0.020181,0.032784,-0.46499,-0.30919,0,0,-0.56319,-0.01,0.08,-0.37,0
5936,1.649e+07,1,0.96,-1.02,14.56,0.020096,0.032838,-0.46543,-0.3062,0,0,-0.56783,-0.01,0.08,-0.37,0
5980,1.65e+07,1,0.96,-1.02,14.57,0.020301,0.032602,-0.46638,-0.30359,0,0,-0.57051,-0.01,0.08,-0.36,0
6023,1.651e+07,1,0.96,-1.01,14.58,0.020812,0.033219,-0.46658,-0.30085,0,0,-0.57322,-0.01,0.08,-0.36,0
6063,1.652e+07,1,0.96,-1.01,14.58,0.021103,0.033385,-0.46685,-0.30034,0,0,-0.57789,-0.01,0.08,-0.36,0
6107,1.653e+07,1,0.96,-1.01,14.59,0.021493,0.033517,-0.46766,-0.30401,0,0,-0.5807,-0.01,0.08,-0.36,0
6144,1.6541e+07,1,0.97,-1.01,14.6,0.021867,0.033502,-0.46825,-0.30561,0,0,-0.5836,-0.01,0.08,-0.36,0
6184,1.6551e+07,1,0.97,-1.01,14.61,0.021438,0.034859,-0.46885,-0.30597,0,0,-0.58825,-0.01,0.08,-0.36,0
6224,1.6561e+07,1,0.98,-1.01,14.61,0.021506,0.034426,-0.46925,-0.30539,0,0,-0.59062,-0.01,0.08,-0.36,0
6265,1.6571e+07,1,0.98,-1.01,14.61,0.021935,0.033016,-0.46696,-0.30099,0,0,-0.59356,-0.01,0.08,-0.35,0
6306,1.6581e+07,1,0.98,-1.01,14.62,0.021111,0.033106,-0.46717,-0.29858,0,0,-0.59605,-0.01,0.08,-0.36,0
6347,1.6591e+07,1,0.98,-1.01,14.62,0.020599,0.033167,-0.46761,-0.29702,0,0,-0.59863,-0.01,0.08,-0.36,0
6394,1.6602e+07,1,0.97,-1.01,14.63,0.020306,0.033275,-0.469,-0.29368,0,0,-0.60327,-0.01,0.08,-0.36,0
6437,1.6611e+07,1,0.97,-1.01,14.63,0.020684,0.03205,-0.46904,-0.29083,0,0,-0.60592,-0.01,0.08,-0.36,0
6478,1.6622e+07,1,0.96,-1.01,14.63,0.021152,0.032322,-0.468,-0.28734,0,0,-0.60858,-0.01,0.08,-0.36,0
6519,1.6632e+07,1,0.95,-1.01,14.64,0.020991,0.033093,-0.46693,-0.28526,0,0,-0.61132,-0.01,0.08,-0.36,0
6557,1.6644e+07,1,0.95,-1,14.64,0.020465,0.032433,-0.46479,-0.28013,0,0,-0.61453,-0.01,0.08,-0.36,0
6598,1.6654e+07,1,0.95,-1.01,14.64,0.02135,0.03345,-0.46293,-0.27596,0,0,-0.61637,-0.01,0.08,-0.36,0
6638,1.6664e+07,1,0.95,-1.01,14.64,0.022947,0.033469,-0.46155,-0.26828,0,0,-0.61828,-0.01,0.08,-0.36,0
6680,1.6674e+07,1,0.95,-1.01,14.64,0.021877,0.033552,-0.46284,-0.26013,0,0,-0.62295,-0.01,0.08,-0.36,0
6720,1.6684e+07,1,0.96,-1.02,14.65,0.022361,0.033879,-0.46183,-0.25152,0,0,-0.62495,-0.01,0.08,-0.36,0
6765,1.6694e+07,1,0.96,-1.02,14.65,0.022503,0.034079,-0.46193,-0.24638,0,0,-0.62705,-0.01,0.08,-0.36,0
6807,1.6704e+07,1,0.97,-1.02,14.65,0.023199,0.033511,-0.46042,-0.2408,0,0,-0.62923,-0.01,0.08,-0.36,0
6848,1.6714e+07,1,0.97,-1.02,14.66,0.022248,0.033994,-0.45999,-0.23826,0,0,-0.63382,-0.01,0.08,-0.36,0
6889,1.6724e+07,1,0.97,-1.02,14.66,0.022705,0.034135,-0.45822,-0.23547,0,0,-0.63603,-0.01,0.08,-0.36,0
6931,1.6734e+07,1,0.97,-1.02,14.66,0.022779,0.03343,-0.45651,-0.23434,0,0,-0.63835,-0.01,0.08,-0.36,0
6966,1.6744e+07,1,0.97,-1.02,14.66,0.022768,0.033298,-0.45544,-0.23319,0,0,-0.63918,-0.01,0.08,-0.34,0
7006,1.6754e+07,1,0.97,-1.02,14.67,0.021521,0.033252,-0.45445,-0.22903,0,0,-0.64376,-0.01,0.08,-0.34,0
7047,1.6764e+07,1,0.97,-1.01,14.67,0.022321,0.034064,-0.45296,-0.22392,0,0,-0.64473,-0.01,0.08,-0.34,0
7088,1.6774e+07,1,0.96,-1.01,14.67,0.021888,0.033188,-0.45259,-0.21788,0,0,-0.64587,-0.01,0.08,-0.34,0
7129,1.6784e+07,1,0.96,-1.01,14.67,0.022565,0.032965,-0.45193,-0.21093,0,0,-0.64711,-0.01,0.08,-0.34,0
7176,1.6794e+07,1,0.95,-1.01,14.67,0.02248,0.033464,-0.45031,-0.20404,0,0,-0.65162,-0.01,0.08,-0.34,0
7217,1.6804e+07,1,0.95,-1.01,14.67,0.021836,0.033871,-0.44999,-0.2003,0,0,-0.65295,-0.01,0.08,-0.34,0
7259,1.6814e+07,1,0.95,-1.02,14.66,0.021484,0.033674,-0.44972,-0.19671,0,0,-0.65438,-0.01,0.08,-0.34,0
7300,1.6824e+07,1,0.95,-1.02,14.66,0.021688,0.033913,-0.44813,-0.19639,0,0,-0.65594,-0.01,0.08,-0.34,0
7340,1.6834e+07,1,0.95,-1.02,14.66,0.022075,0.033373,-0.44914,-0.19465,0,0,-0.66014,-0.01,0.08,-0.34,0
7381,1.6844e+07,1,0.96,-1.02,14.66,0.020416,0.033264,-0.44822,-0.1935,0,0,-0.66206,-0.01,0.08,-0.34,0
7418,1.6855e+07,1,0.96,-1.02,14.66,0.018691,0.033118,-0.44637,-0.18887,0,0,-0.66235,-0.01,0.08,-0.35,0
7459,1.6865e+07,1,0.97,-1.01,14.66,0.019244,0.034181,-0.44477,-0.18346,0,0,-0.66265,-0.01,0.08,-0.35,0
7501,1.6875e+07,1,0.97,-1.01,14.66,0.019827,0.03448,-0.44202,-0.17473,0,0,-0.66319,-0.01,0.08,-0.35,0
7541,1.6885e+07,1,0.97,-1.01,14.66,0.019026,0.035462,-0.44233,-0.16319,0,0,-0.66806,-0.01,0.08,-0.35,0
7585,1.6895e+07,1,0.98,-1.01,14.66,0.018411,0.035212,-0.44196,-0.16762,0,0,-0.6687,-0.01,0.08,-0.34,0
7627,1.6905e+07,1,0.98,-1.01,14.66,0.01749,0.036039,-0.44075,-0.16347,0,0,-0.67311,-0.01,0.08,-0.34,0
7669,1.6915e+07,1,0.98,-1.01,14.66,0.017287,0.036229,-0.44013,-0.15972,0,0,-0.67387,-0.01,0.08,-0.34,0
7710,1.6925e+07,1,0.98,-1.01,14.66,0.016409,0.037239,-0.43924,-0.16485,0,0,-0.67476,-0.01,0.08,-0.34,0
7752,1.6938e+07,1,0.97,-1,14.66,0.016683,0.037896,-0.43861,-0.16578,0,0,-0.67663,-0.01,0.08,-0.34,0
7793,1.6948e+07,1,0.97,-1,14.65,0.016222,0.038717,-0.43842,-0.16306,0,0,-0.68109,-0.01,0.08,-0.34,0
7830,1.6958e+07,1,0.96,-1,14.66,0.016004,0.038729,-0.43617,-0.15629,0,0,-0.68067,-0.01,0.08,-0.34,0
7872,1.6968e+07,1,0.96,-1,14.66,0.016095,0.038418,-0.43545,-0.14972,0,0,-0.68042,-0.01,0.08,-0.34,0
7912,1.6978e+07,1,0.96,-1,14.66,0.015394,0.039262,-0.43335,-0.13751,0,0,-0.68083,-0.01,0.08,-0.34,0
7953,1.6988e+07,1,0.96,-1,14.67,0.014719,0.040964,-0.43237,-0.12922,0,0,-0.68468,-0.01,0.08,-0.34,0
7999,1.6998e+07,1,0.96,-1,14.67,0.014661,0.039778,-0.43034,-0.12544,0,0,-0.68477,-0.01,0.08,-0.34,0
8043,1.7008e+07,1,0.97,-0.99,14.67,0.015601,0.042464,-0.42959,-0.1218,0,0,-0.68545,-0.01,0.08,-0.34,0
8084,1.7019e+07,1,0.96,-0.99,14.67,0.017199,0.041235,-0.42653,-0.11266,0,0,-0.6858,-0.01,0.08,-0.34,0
8124,1.7029e+07,1,0.97,-0.99,14.68,0.016749,0.041692,-0.42614,-0.10656,0,0,-0.69006,-0.01,0.08,-0.34,0
8162,1.7039e+07,1,0.97,-0.99,14.68,0.017231,0.040937,-0.42838,-0.10606,0,0,-0.69054,-0.01,0.08,-0.34,0
8199,1.7049e+07,1,0.97,-0.99,14.67,0.017886,0.040682,-0.42508,-0.093657,0,0,-0.68962,-0.01,0.08,-0.34,0
8240,1.7059e+07,1,0.98,-0.99,14.67,0.018347,0.04282,-0.4219,-0.078797,0,0,-0.6892,-0.01,0.08,-0.35,0
8280,1.7069e+07,1,0.98,-0.99,14.67,0.017823,0.042067,-0.42196,-0.072106,0,0,-0.68826,-0.01,0.08,-0.35,0
8322,1.7079e+07,1,0.99,-0.99,14.68,0.019092,0.042762,-0.42146,-0.062596,0,0,-0.69251,-0.01,0.08,-0.35,0
8364,1.7089e+07,1,0.99,-0.99,14.7,0.020646,0.041932,-0.42279,-0.058421,0,0,-0.69214,-0.01,0.08,-0.35,0
8408,1.7099e+07,1,0.98,-0.98,14.71,0.021189,0.044112,-0.42041,-0.051202,0,0,-0.69197,-0.01,0.08,-0.35,0
8449,1.7109e+07,1,0.97,-0.97,14.72,0.022434,0.04371,-0.41682,-0.044652,0,0,-0.69226,-0.01,0.08,-0.36,0
8491,1.7119e+07,1,0.98,-0.98,14.73,0.023207,0.04492,-0.41604,-0.044496,0,0,-0.69202,-0.01,0.08,-0.36,0
8532,1.7129e+07,1,0.97,-0.97,14.74,0.022271,0.046688,-0.41521,-0.039607,0,0,-0.69619,-0.01,0.08,-0.36,0
8572,1.7139e+07,1,0.97,-0.97,14.74,0.022649,0.046896,-0.41101,-0.03579,0,0,-0.69677,-0.01,0.08,-0.36,0
8612,1.7151e+07,1,0.98,-0.97,14.74,0.022766,0.045083,-0.40855,-0.032128,0,0,-0.69672,-0.01,0.08,-0.35,0
8653,1.7161e+07,1,0.98,-0.97,14.75,0.022097,0.0459,-0.40856,-0.026958,0,0,-0.69606,-0.01,0.08,-0.35,0
8693,1.7171e+07,1,0.98,-0.96,14.75,0.022023,0.046803,-0.4072,-0.017534,0,0,-0.6956,-0.01,0.08,-0.35,0
8734,1.7181e+07,1,0.97,-0.96,14.75,0.021473,0.046685,-0.40809,-0.012887,0,0,-0.69531,-0.01,0.08,-0.36,0
8775,1.7191e+07,1,0.97,-0.96,14.75,0.021097,0.047388,-0.40924,-0.011465,0,0,-0.6952,-0.01,0.08,-0.36,0
8819,1.7201e+07,1,0.97,-0.96,14.76,0.019625,0.047424,-0.40662,-0.010733,0,0,-0.69524,-0.01,0.08,-0.36,0
8860,1.7211e+07,1,0.98,-0.97,14.76,0.018597,0.047106,-0.4062,-0.0091161,0,0,-0.69929,-0.01,0.08,-0.36,0
8900,1.7222e+07,1,0.98,-0.97,14.77,0.017871,0.04436,-0.40543,-0.012029,0,0,-0.6995,-0.01,0.08,-0.36,0
8942,1.7232e+07,1,0.97,-0.97,14.78,0.017755,0.043304,-0.40277,-0.019532,0,0,-0.69981,-0.01,0.08,-0.36,0
8979,1.7242e+07,1,0.96,-0.97,14.79,0.017883,0.044901,-0.40194,-0.028144,0,0,-0.70382,-0.01,0.08,-0.36,0
9017,1.7252e+07,1,0.97,-0.97,14.8,0.017867,0.04487,-0.40135,-0.038676,0,0,-0.7043,-0.01,0.08,-0.35,0
9058,1.7262e+07,1,0.98,-0.96,14.81,0.016045,0.041493,-0.40093,-0.044128,0,0,-0.70459,-0.01,0.08,-0.36,0
9098,1.7272e+07,1,0.96,-0.96,14.82,0.015007,0.04042,-0.39925,-0.053205,0,0,-0.70496,-0.01,0.08,-0.35,0
9139,1.7282e+07,1,0.95,-0.96,14.83,0.014197,0.042804,-0.40119,-0.066052,0,0,-0.70897,-0.01,0.08,-0.35,0
9179,1.7292e+07,1,0.95,-0.96,14.83,0.015765,0.046408,-0.4005,-0.074804,0,0,-0.70953,-0.01,0.08,-0.35,0
9224,1.7302e+07,1,0.96,-0.95,14.83,0.014189,0.043471,-0.40107,-0.086341,0,0,-0.71021,-0.01,0.08,-0.35,0
9259,1.7332e+07,1,0.95,-0.95,14.82,0.01365,0.044675,-0.39816,-0.11065,0,0,-0.71602,-0.01,0.08,-0.35,0
9302,1.7342e+07,1,0.95,-0.95,14.81,0.012143,0.041748,-0.39983,-0.1204,0,0,-0.71702,-0.01,0.08,-0.36,0
9339,1.7352e+07,1,0.95,-0.97,14.82,0.009982,0.044072,-0.39634,-0.13215,0,0,-0.72104,-0.01,0.08,-0.36,0
9377,1.7362e+07,1,0.95,-0.97,14.82,0.01214,0.042516,-0.39328,-0.13691,0,0,-0.72057,-0.01,0.08,-0.35,0
9418,1.7372e+07,1,0.98,-0.97,14.83,0.011421,0.04515,-0.3951,-0.14297,0,0,-0.72029,-0.01,0.08,-0.35,0
9458,1.7382e+07,1,0.97,-0.97,14.83,0.011967,0.043605,-0.39656,-0.14954,0,0,-0.7242,-0.01,0.08,-0.35,0
9500,1.7392e+07,1,0.96,-0.98,14.83,0.0085964,0.044925,-0.3943,-0.14886,0,0,-0.72407,-0.01,0.08,-0.35,0
9544,1.7402e+07,1,0.96,-0.98,14.84,0.0078507,0.046314,-0.39239,-0.15511,0,0,-0.72798,-0.01,0.08,-0.35,0
9585,1.7412e+07,1,0.99,-0.97,14.85,0.01077,0.044167,-0.39505,-0.16168,0,0,-0.72796,-0.01,0.08,-0.34,0
9625,1.7422e+07,1,1,-0.98,14.86,0.011952,0.042405,-0.38783,-0.15955,0,0,-0.72809,-0.01,0.08,-0.34,0
9668,1.7432e+07,1,0.99,-0.96,14.86,0.010822,0.042077,-0.39098,-0.16526,0,0,-0.73196,-0.01,0.08,-0.34,0
9709,1.7442e+07,1,1,-0.97,14.87,0.013709,0.04521,-0.38608,-0.16073,0,0,-0.73223,-0.01,0.08,-0.34,0
9746,1.7452e+07,1,0.99,-0.96,14.86,0.015588,0.044688,-0.38586,-0.16058,0,0,-0.73266,-0.01,0.08,-0.34,0
9788,1.7465e+07,1,0.99,-0.99,14.87,0.0094686,0.043658,-0.38319,-0.15907,0,0,-0.73236,-0.01,0.08,-0.34,0
9829,1.7475e+07,1,0.99,-0.96,14.86,0.012988,0.040238,-0.38477,-0.15628,0,0,-0.73137,-0.01,0.08,-0.34,0
9869,1.7485e+07,1,0.99,-0.97,14.86,0.010206,0.04195,-0.3802,-0.13687,0,0,-0.73559,-0.01,0.08,-0.34,0
9910,1.7495e+07,1,0.99,-0.96,14.85,0.0074625,0.040699,-0.38093,-0.125,0,0,-0.73481,-0.01,0.08,-0.34,0
9956,1.7505e+07,1,1,-0.96,14.86,0.010851,0.04076,-0.37648,-0.11938,0,0,-0.7339,-0.01,0.08,-0.34,0
9998,1.7515e+07,1,0.99,-0.94,14.86,0.0092202,0.039823,-0.37637,-0.10907,0,0,-0.73798,-0.01,0.08,-0.34,0
10038,1.7525e+07,1,0.98,-0.95,14.86,0.011406,0.044714,-0.37039,-0.095594,0,0,-0.73718,-0.01,0.08,-0.34,0
10079,1.7535e+07,1,0.97,-0.94,14.88,0.010375,0.042238,-0.36782,-0.085854,0,0,-0.7372,-0.01,0.08,-0.34,0
10118,1.7545e+07,1,0.98,-0.94,14.87,0.012177,0.040626,-0.36442,-0.070158,0,0,-0.73544,-0.01,0.08,-0.34,0
10157,1.7555e+07,1,0.96,-0.92,14.9,0.0097749,0.040178,-0.36225,-0.061279,0,0,-0.73382,-0.01,0.08,-0.34,0
10198,1.7565e+07,1,0.96,-0.92,14.89,0.0096541,0.04308,-0.3596,-0.044315,0,0,-0.73251,-0.01,0.08,-0.34,0
10238,1.7575e+07,1,0.96,-0.9,14.91,0.0067125,0.046064,-0.35508,-0.020395,0,0,-0.73608,-0.01,0.08,-0.34,0
10280,1.7585e+07,1,0.96,-0.91,14.9,0.010482,0.043087,-0.3561,-0.0060519,0,0,-0.73493,-0.01,0.08,-0.35,0
10320,1.7595e+07,1,0.96,-0.89,14.92,0.011908,0.043758,-0.35473,0.0063,0,0,-0.73392,-0.01,0.08,-0.35,0
10366,1.7605e+07,1,0.94,-0.9,14.91,0.010345,0.045955,-0.35609,0.013605,0,0,-0.73313,-0.01,0.08,-0.35,0
10407,1.7615e+07,1,0.93,-0.89,14.92,0.0045728,0.048007,-0.35136,0.02195,0,0,-0.73248,-0.01,0.08,-0.35,0
10447,1.7625e+07,1,0.93,-0.9,14.91,0.0053512,0.048224,-0.35614,0.023817,0,0,-0.73605,-0.01,0.08,-0.35,0
10489,1.7635e+07,1,0.93,-0.89,14.92,0.004153,0.045562,-0.35276,0.030079,0,0,-0.73564,-0.01,0.08,-0.35,0
10526,1.7648e+07,1,0.94,-0.91,14.91,0.0026453,0.037731,-0.35648,0.018604,0,0,-0.73485,-0.01,0.08,-0.34,0
10568,1.7658e+07,1,0.94,-0.88,14.92,0.0021563,0.041028,-0.35662,0.013393,0,0,-0.73313,-0.01,0.08,-0.34,0
10610,1.7668e+07,1,0.93,-0.9,14.91,0.0034726,0.037978,-0.35315,0.021986,0,0,-0.73673,-0.01,0.08,-0.34,0
10651,1.7678e+07,1,0.93,-0.87,14.92,0.0023847,0.038302,-0.3565,0.02393,0,0,-0.7352,-0.01,0.08,-0.34,0
10692,1.7688e+07,1,0.92,-0.9,14.92,0.0021436,0.034901,-0.35271,0.026661,0,0,-0.73396,-0.01,0.08,-0.34,0
10735,1.7698e+07,1,0.94,-0.88,14.93,-0.0011957,0.036292,-0.35477,0.021662,0,0,-0.73286,-0.01,0.08,-0.34,0
10778,1.7709e+07,1,0.95,-0.89,14.92,-0.00052898,0.0327,-0.35434,0.025465,0,0,-0.73643,-0.01,0.08,-0.34,0
10818,1.7719e+07,1,0.97,-0.87,14.94,-0.0042598,0.032797,-0.36212,0.012389,0,0,-0.73579,-0.01,0.08,-0.34,0
10859,1.7729e+07,1,0.95,-0.91,14.93,-0.007597,0.033705,-0.3548,0.01588,0,0,-0.73516,-0.01,0.08,-0.34,0
10902,1.7739e+07,1,0.97,-0.88,14.95,-0.0061533,0.032804,-0.36008,0.0046072,0,0,-0.7346,-0.01,0.08,-0.34,0
10942,1.7752e+07,1,0.91,-0.92,14.96,-0.013264,0.039531,-0.34917,0.016114,0,0,-0.7334,-0.01,0.08,-0.34,0
10985,1.7762e+07,1,0.91,-0.87,14.96,-0.016112,0.040844,-0.35599,0.011556,0,0,-0.73164,-0.01,0.08,-0.34,0
11025,1.7772e+07,1,0.9,-0.93,14.97,-0.017618,0.044198,-0.34718,0.030366,0,0,-0.73516,-0.01,0.08,-0.34,0
11066,1.7782e+07,1,0.94,-0.88,14.97,-0.01601,0.046993,-0.35523,0.012837,0,0,-0.73356,-0.01,0.08,-0.34,0
11106,1.7792e+07,1,0.91,-0.91,14.98,-0.011437,0.044693,-0.34435,0.024566,0,0,-0.73707,-0.01,0.08,-0.34,0
11154,1.7802e+07,1,0.91,-0.85,14.96,-0.013877,0.044548,-0.35246,0.015946,0,0,-0.73565,-0.01,0.08,-0.34,0
11195,1.7812e+07,1,0.9,-0.9,14.98,-0.015955,0.045657,-0.3378,0.031124,0,0,-0.73448,-0.01,0.08,-0.34,0
11235,1.7822e+07,1,0.93,-0.86,14.97,-0.016662,0.05053,-0.34877,0.018353,0,0,-0.73348,-0.01,0.08,-0.34,0
11277,1.7832e+07,1,0.9,-0.87,14.98,-0.01255,0.048514,-0.3359,0.030455,0,0,-0.73692,-0.01,0.08,-0.34,0
11317,1.7842e+07,1,0.91,-0.84,14.96,-0.011749,0.048259,-0.34424,0.013706,0,0,-0.73604,-0.01,0.08,-0.34,0
11355,1.7852e+07,1,0.9,-0.86,14.99,-0.0098113,0.055378,-0.33007,0.023323,0,0,-0.73404,-0.01,0.08,-0.34,0
11396,1.7862e+07,1,0.92,-0.84,14.97,-0.011411,0.058819,-0.3394,0.013415,0,0,-0.7374,-0.01,0.08,-0.34,0
11440,1.7875e+07,1,0.94,-0.86,14.99,-0.003492,0.050864,-0.33269,0.00455,0,0,-0.73591,-0.01,0.08,-0.33,0
11481,1.7885e+07,1,0.94,-0.87,14.97,-0.0051686,0.051977,-0.33477,-0.0032526,0,0,-0.73404,-0.01,0.08,-0.34,0
11523,1.7895e+07,1,0.94,-0.87,15,-0.0050886,0.054384,-0.32974,0.0071198,0,0,-0.73736,-0.01,0.08,-0.34,0
11568,1.7905e+07,1,0.95,-0.86,14.99,-0.0065616,0.054614,-0.33412,0.0066046,0,0,-0.73567,-0.01,0.08,-0.34,0
11609,1.7915e+07,1,0.96,-0.87,15.01,-0.0044534,0.049065,-0.33094,0.014783,0,0,-0.73417,-0.01,0.08,-0.34,0
11649,1.7925e+07,1,0.93,-0.85,14.99,-0.0057353,0.049326,-0.3334,0.014919,0,0,-0.73294,-0.01,0.08,-0.34,0
11690,1.7935e+07,1,0.95,-0.85,15.01,-0.008223,0.050781,-0.33116,0.020541,0,0,-0.73623,-0.01,0.08,-0.34,0
11732,1.7945e+07,1,0.95,-0.84,15,-0.0087512,0.052446,-0.33193,0.016691,0,0,-0.7352,-0.01,0.08,-0.33,0
11770,1.7955e+07,1,0.98,-0.83,15.01,-0.0077334,0.04494,-0.33169,0.014814,0,0,-0.73327,-0.01,0.08,-0.34,0
11811,1.7965e+07,1,0.95,-0.84,14.99,-0.0092247,0.045302,-0.32681,0.018603,0,0,-0.73132,-0.01,0.08,-0.34,0
11854,1.7976e+07,1,0.96,-0.83,15.01,-0.010776,0.046281,-0.3297,0.023861,0,0,-0.73456,-0.01,0.08,-0.34,0
11895,1.7985e+07,1,0.95,-0.84,15,-0.0094532,0.046306,-0.32618,0.03489,0,0,-0.73277,-0.01,0.08,-0.34,0
11937,1.7996e+07,1,0.96,-0.83,15.01,-0.010825,0.043398,-0.32676,0.042687,0,0,-0.73119,-0.01,0.08,-0.34,0
11982,1.8006e+07,1,0.94,-0.85,15,-0.01049,0.044069,-0.32098,0.055445,0,0,-0.72983,-0.01,0.08,-0.34,0
12022,1.8016e+07,1,0.95,-0.85,15.03,-0.012066,0.04567,-0.31956,0.059083,0,0,-0.72862,-0.01,0.08,-0.34,0
12064,1.8026e+07,1,0.95,-0.87,15.01,-0.012788,0.045402,-0.31691,0.062154,0,0,-0.72762,-0.01,0.08,-0.34,0
12108,1.8041e+07,1,0.9,-0.82,15.03,-0.018409,0.056186,-0.31406,0.066684,0,0,-0.72669,-0.01,0.08,-0.34,0
12149,1.8051e+07,1,0.88,-0.86,15.05,-0.018561,0.059432,-0.30475,0.079054,0,0,-0.72979,-0.01,0.08,-0.34,0
12189,1.8061e+07,1,0.88,-0.8,15.04,-0.016747,0.06211,-0.31054,0.075147,0,0,-0.72753,-0.01,0.08,-0.34,0
12232,1.8071e+07,1,0.88,-0.83,15.06,-0.01381,0.060836,-0.29796,0.090959,0,0,-0.72542,-0.01,0.08,-0.34,0
12272,1.8081e+07,1,0.88,-0.79,15.05,-0.0167,0.065014,-0.30675,0.078363,0,0,-0.72356,-0.01,0.08,-0.34,0
12314,1.8091e+07,1,0.87,-0.84,15.07,-0.016405,0.064997,-0.29783,0.090252,0,0,-0.7269,-0.01,0.08,-0.34,0
12357,1.8101e+07,1,0.91,-0.81,15.04,-0.020457,0.070723,-0.30577,0.08282,0,0,-0.72492,-0.01,0.08,-0.34,0
12399,1.8111e+07,1,0.89,-0.84,15.07,-0.019435,0.065661,-0.29159,0.096623,0,0,-0.72345,-0.01,0.08,-0.34,0
12445,1.8123e+07,1,0.92,-0.84,15.03,-0.016836,0.051723,-0.29961,0.082383,0,0,-0.72305,-0.01,0.08,-0.34,0
12485,1.8133e+07,1,0.92,-0.83,15.07,-0.018265,0.057526,-0.29364,0.085844,0,0,-0.72186,-0.01,0.08,-0.34,0
12530,1.8146e+07,1,0.89,-0.86,15.05,-0.025211,0.058726,-0.28774,0.089011,0,0,-0.72016,-0.01,0.08,-0.34,0
12567,1.8156e+07,1,0.89,-0.81,15.06,-0.025957,0.054993,-0.29304,0.080981,0,0,-0.71775,-0.01,0.08,-0.33,0
12608,1.8167e+07,1,0.86,-0.85,15.06,-0.02947,0.057708,-0.2853,0.094805,0,0,-0.72064,-0.01,0.08,-0.33,0
12649,1.8177e+07,1,0.88,-0.8,15.06,-0.030592,0.065018,-0.28841,0.084567,0,0,-0.7187,-0.01,0.08,-0.33,0
12691,1.8187e+07,1,0.85,-0.84,15.06,-0.028635,0.059746,-0.28067,0.086954,0,0,-0.71645,-0.01,0.08,-0.33,0
12732,1.8197e+07,1,0.85,-0.79,15.06,-0.030626,0.060173,-0.28841,0.082034,0,0,-0.71933,-0.01,0.08,-0.33,0
12776,1.8207e+07,1,0.83,-0.83,15.07,-0.030548,0.062335,-0.27982,0.090688,0,0,-0.71748,-0.01,0.08,-0.33,0
12817,1.8217e+07,1,0.83,-0.79,15.07,-0.032553,0.06628,-0.28424,0.080209,0,0,-0.71588,-0.01,0.08,-0.33,0
12857,1.8227e+07,1,0.84,-0.85,15.07,-0.029507,0.064609,-0.27521,0.088928,0,0,-0.71474,-0.01,0.08,-0.33,0
12899,1.8237e+07,1,0.85,-0.79,15.06,-0.034559,0.062346,-0.28225,0.07855,0,0,-0.71325,-0.01,0.08,-0.33,0
12937,1.8247e+07,1,0.84,-0.84,15.07,-0.032827,0.06754,-0.27629,0.084905,0,0,-0.71633,-0.01,0.08,-0.33,0
12974,1.8257e+07,1,0.87,-0.79,15.06,-0.034524,0.067136,-0.28049,0.081412,0,0,-0.71407,-0.01,0.08,-0.33,0
13015,1.8267e+07,1,0.88,-0.83,15.07,-0.032058,0.063882,-0.27581,0.089762,0,0,-0.71202,-0.01,0.08,-0.33,0
13056,1.8277e+07,1,0.88,-0.78,15.06,-0.032159,0.061494,-0.27681,0.092073,0,0,-0.71021,-0.01,0.08,-0.33,0
13098,1.8287e+07,1,0.89,-0.81,15.08,-0.03208,0.061975,-0.27444,0.094171,0,0,-0.70858,-0.01,0.08,-0.33,0
13138,1.8298e+07,1,0.89,-0.77,15.06,-0.032456,0.061485,-0.2756,0.09297,0,0,-0.71135,-0.01,0.08,-0.33,0
13183,1.8307e+07,1,0.9,-0.79,15.08,-0.033045,0.057019,-0.27525,0.090035,0,0,-0.70991,-0.01,0.08,-0.33,0
13223,1.8317e+07,1,0.89,-0.77,15.06,-0.034032,0.054725,-0.27455,0.086913,0,0,-0.70865,-0.01,0.08,-0.33,0
13266,1.8327e+07,1,0.89,-0.79,15.08,-0.035459,0.055045,-0.26996,0.085144,0,0,-0.70757,-0.01,0.08,-0.33,0
13307,1.8338e+07,1,0.88,-0.76,15.07,-0.037431,0.056219,-0.27247,0.078821,0,0,-0.70663,-0.01,0.08,-0.34,0
13345,1.8351e+07,1,0.89,-0.78,15.09,-0.037051,0.052459,-0.26856,0.07992,0,0,-0.70507,-0.01,0.08,-0.33,0
13385,1.8361e+07,1,0.87,-0.79,15.06,-0.038162,0.054336,-0.27455,0.072262,0,0,-0.70777,-0.01,0.08,-0.33,0
13426,1.8371e+07,1,0.87,-0.78,15.09,-0.039531,0.056617,-0.26846,0.076389,0,0,-0.70556,-0.01,0.08,-0.33,0
13468,1.8381e+07,1,0.87,-0.8,15.06,-0.03929,0.054955,-0.27136,0.07359,0,0,-0.70363,-0.01,0.08,-0.33,0
13508,1.8391e+07,1,0.88,-0.79,15.09,-0.041763,0.053401,-0.26629,0.074131,0,0,-0.70627,-0.01,0.08,-0.33,0
13550,1.8401e+07,1,0.86,-0.82,15.06,-0.043579,0.054564,-0.26559,0.070013,0,0,-0.70446,-0.01,0.08,-0.33,0
13594,1.8411e+07,1,0.87,-0.79,15.09,-0.043535,0.056379,-0.26245,0.06986,0,0,-0.70279,-0.01,0.08,-0.33,0
13634,1.8421e+07,1,0.88,-0.81,15.07,-0.04248,0.054418,-0.26421,0.063485,0,0,-0.70136,-0.01,0.08,-0.33,0
13675,1.8431e+07,1,0.89,-0.78,15.09,-0.043806,0.05214,-0.26229,0.062719,0,0,-0.70395,-0.01,0.08,-0.33,0
13716,1.8441e+07,1,0.88,-0.8,15.07,-0.04924,0.051744,-0.26129,0.05604,0,0,-0.70263,-0.01,0.08,-0.33,0
13754,1.8451e+07,1,0.9,-0.77,15.09,-0.049089,0.053967,-0.2596,0.049287,0,0,-0.70149,-0.01,0.08,-0.33,0
13794,1.8461e+07,1,0.9,-0.81,15.07,-0.049625,0.051974,-0.26329,0.039629,0,0,-0.70412,-0.01,0.08,-0.33,0
13832,1.8472e+07,1,0.91,-0.78,15.08,-0.052421,0.050157,-0.25955,0.036648,0,0,-0.70302,-0.01,0.08,-0.32,0
13873,1.8482e+07,1,0.9,-0.83,15.08,-0.052034,0.050828,-0.25752,0.033391,0,0,-0.70181,-0.01,0.08,-0.32,0
13915,1.8492e+07,1,0.9,-0.79,15.08,-0.049739,0.053918,-0.25525,0.030739,0,0,-0.70076,-0.01,0.08,-0.32,0
13957,1.8502e+07,1,0.89,-0.83,15.07,-0.049319,0.051073,-0.25489,0.026463,0,0,-0.70332,-0.01,0.08,-0.32,0
14002,1.8511e+07,1,0.88,-0.79,15.07,-0.050283,0.051798,-0.25718,0.018275,0,0,-0.7024,-0.01,0.08,-0.32,0
14043,1.8522e+07,1,0.87,-0.82,15.07,-0.050991,0.052405,-0.25424,0.016323,0,0,-0.70167,-0.01,0.08,-0.32,0
14086,1.8532e+07,1,0.86,-0.77,15.07,-0.049546,0.05506,-0.25268,0.011686,0,0,-0.70108,-0.01,0.08,-0.32,0
14126,1.8542e+07,1,0.86,-0.79,15.08,-0.048631,0.051731,-0.25046,0.0077191,0,0,-0.70062,-0.01,0.08,-0.32,0
14167,1.8555e+07,1,0.85,-0.75,15.07,-0.047138,0.051107,-0.25137,0.0040171,0,0,-0.6994,-0.01,0.08,-0.32,0
14208,1.8564e+07,1,0.85,-0.76,15.09,-0.046896,0.051359,-0.24628,0.0097087,0,0,-0.69767,-0.01,0.08,-0.32,0
14249,1.8575e+07,1,0.86,-0.75,15.06,-0.047395,0.052736,-0.24895,0.014692,0,0,-0.70014,-0.01,0.08,-0.32,0
14289,1.8585e+07,1,0.88,-0.75,15.08,-0.047049,0.050837,-0.24271,0.017551,0,0,-0.69854,-0.01,0.08,-0.32,0
14331,1.8595e+07,1,0.88,-0.75,15.06,-0.049994,0.05148,-0.24679,0.012633,0,0,-0.69712,-0.01,0.08,-0.32,0
14375,1.8605e+07,1,0.91,-0.76,15.07,-0.050194,0.053466,-0.24085,0.023667,0,0,-0.69955,-0.01,0.08,-0.32,0
14418,1.8615e+07,1,0.92,-0.76,15.05,-0.049071,0.052878,-0.24635,0.020831,0,0,-0.6983,-0.01,0.08,-0.32,0
14459,1.8625e+07,1,0.94,-0.76,15.07,-0.04924,0.049297,-0.24186,0.030374,0,0,-0.69719,-0.01,0.08,-0.32,0
14499,1.8635e+07,1,0.93,-0.77,15.05,-0.051061,0.049859,-0.24779,0.020991,0,0,-0.69966,-0.01,0.08,-0.32,0
14541,1.8645e+07,1,0.94,-0.76,15.07,-0.053523,0.049663,-0.24187,0.019729,0,0,-0.69866,-0.01,0.08,-0.32,0
14578,1.8655e+07,1,0.93,-0.78,15.04,-0.056702,0.04792,-0.24755,0.0027751,0,0,-0.6981,-0.01,0.08,-0.31,0
14620,1.8666e+07,1,0.94,-0.75,15.06,-0.058538,0.04486,-0.24601,3.3026e-05,0,0,-0.70052,-0.01,0.08,-0.31,0
14661,1.8676e+07,1,0.9,-0.78,15.04,-0.0614,0.045357,-0.24412,0.0010128,0,0,-0.69848,-0.01,0.08,-0.31,0
14701,1.8686e+07,1,0.89,-0.75,15.05,-0.060997,0.050544,-0.24189,0.0064966,0,0,-0.69638,-0.01,0.08,-0.31,0
14742,1.8696e+07,1,0.88,-0.78,15.03,-0.059274,0.04748,-0.24,0.017995,0,0,-0.6945,-0.01,0.08,-0.31,0
14786,1.8706e+07,1,0.88,-0.76,15.04,-0.059425,0.049192,-0.24026,0.027128,0,0,-0.69279,-0.01,0.08,-0.31,0
14828,1.8716e+07,1,0.86,-0.79,15.03,-0.061984,0.050056,-0.23837,0.035351,0,0,-0.69132,-0.01,0.08,-0.31,0
14869,1.8726e+07,1,0.87,-0.76,15.04,-0.060312,0.053453,-0.23598,0.047515,0,0,-0.69365,-0.01,0.08,-0.31,0
14912,1.8736e+07,1,0.88,-0.79,15.02,-0.05931,0.04906,-0.23709,0.052068,0,0,-0.69233,-0.01,0.08,-0.31,0
14954,1.8746e+07,1,0.89,-0.76,15.02,-0.060505,0.048351,-0.23248,0.060641,0,0,-0.69114,-0.01,0.08,-0.31,0
14988,1.8757e+07,1,0.89,-0.79,15.01,-0.062363,0.049848,-0.23482,0.061399,0,0,-0.68905,-0.01,0.08,-0.31,0
15028,1.8766e+07,1,0.9,-0.76,15.02,-0.060244,0.05072,-0.2291,0.073342,0,0,-0.68715,-0.01,0.08,-0.31,0
15068,1.8776e+07,1,0.91,-0.79,15.01,-0.060568,0.046916,-0.23281,0.075086,0,0,-0.68547,-0.01,0.08,-0.31,0
15108,1.8787e+07,1,0.92,-0.75,15.01,-0.061521,0.04665,-0.22954,0.087237,0,0,-0.6878,-0.01,0.08,-0.31,0
15150,1.8797e+07,1,0.93,-0.77,15.02,-0.06251,0.047859,-0.22886,0.092129,0,0,-0.68625,-0.01,0.08,-0.31,0
15195,1.8807e+07,1,0.92,-0.74,15.01,-0.060833,0.048929,-0.22225,0.096294,0,0,-0.68486,-0.01,0.08,-0.31,0
15238,1.8817e+07,1,0.92,-0.76,15.02,-0.061605,0.044577,-0.22408,0.09471,0,0,-0.68364,-0.01,0.08,-0.31,0
15279,1.8827e+07,1,0.91,-0.73,15.01,-0.062145,0.043023,-0.22426,0.093763,0,0,-0.68588,-0.01,0.08,-0.31,0
15321,1.8837e+07,1,0.9,-0.76,15.02,-0.063771,0.044567,-0.22505,0.088928,0,0,-0.68483,-0.01,0.08,-0.31,0
15361,1.8847e+07,1,0.87,-0.74,15.01,-0.063389,0.047383,-0.22176,0.089852,0,0,-0.6839,-0.01,0.08,-0.31,0
15396,1.8857e+07,1,0.87,-0.76,15.02,-0.066044,0.049632,-0.22197,0.087048,0,0,-0.68181,-0.01,0.08,-0.31,0
15437,1.8867e+07,1,0.84,-0.73,15.01,-0.067765,0.049925,-0.22083,0.088741,0,0,-0.67968,-0.01,0.08,-0.31,0
15477,1.8877e+07,1,0.84,-0.74,15.03,-0.06906,0.051618,-0.21702,0.093145,0,0,-0.68191,-0.01,0.08,-0.31,0
15518,1.8887e+07,1,0.84,-0.73,15.01,-0.06923,0.052981,-0.21772,0.093608,0,0,-0.67992,-0.01,0.08,-0.31,0
15560,1.8897e+07,1,0.86,-0.73,15.03,-0.069261,0.051618,-0.21241,0.095473,0,0,-0.6781,-0.01,0.08,-0.31,0
15603,1.8908e+07,1,0.87,-0.72,15.01,-0.071346,0.051362,-0.21325,0.091301,0,0,-0.68021,-0.01,0.08,-0.31,0
15645,1.8918e+07,1,0.89,-0.71,15.03,-0.072472,0.052143,-0.21168,0.083722,0,0,-0.67854,-0.01,0.08,-0.31,0
15685,1.8928e+07,1,0.9,-0.72,15.01,-0.069995,0.0529,-0.2131,0.076226,0,0,-0.67697,-0.01,0.08,-0.31,0
15729,1.8938e+07,1,0.92,-0.72,15.03,-0.070422,0.050844,-0.20942,0.075096,0,0,-0.67565,-0.01,0.08,-0.31,0
15770,1.8951e+07,1,0.92,-0.73,15.02,-0.064906,0.049995,-0.21125,0.068962,0,0,-0.67521,-0.01,0.08,-0.31,0
15811,1.8961e+07,1,0.93,-0.71,15.04,-0.06125,0.051138,-0.20332,0.07514,0,0,-0.67731,-0.01,0.08,-0.31,0
15848,1.8971e+07,1,0.94,-0.74,15.04,-0.060312,0.049505,-0.21197,0.067613,0,0,-0.67501,-0.01,0.08,-0.31,0
15889,1.8981e+07,1,0.92,-0.71,15.04,-0.060677,0.047701,-0.20195,0.079148,0,0,-0.67291,-0.01,0.08,-0.31,0
15932,1.8991e+07,1,0.91,-0.75,15.05,-0.064534,0.047597,-0.21148,0.072341,0,0,-0.67103,-0.01,0.08,-0.31,0
15972,1.9001e+07,1,0.9,-0.71,15.05,-0.061858,0.048481,-0.20116,0.083362,0,0,-0.6693,-0.01,0.08,-0.31,0
16018,1.9011e+07,1,0.9,-0.75,15.06,-0.065776,0.047831,-0.21195,0.077787,0,0,-0.67139,-0.01,0.08,-0.31,0
16058,1.9021e+07,1,0.88,-0.72,15.04,-0.067531,0.045373,-0.20215,0.090843,0,0,-0.66985,-0.01,0.08,-0.31,0
16099,1.9031e+07,1,0.88,-0.75,15.06,-0.071575,0.046086,-0.20867,0.084722,0,0,-0.66848,-0.01,0.08,-0.31,0
16142,1.9041e+07,1,0.86,-0.72,15.04,-0.069361,0.048219,-0.19772,0.094558,0,0,-0.66722,-0.01,0.08,-0.31,0
16179,1.9054e+07,1,0.88,-0.73,15.06,-0.073286,0.0504,-0.19978,0.091341,0,0,-0.66559,-0.01,0.08,-0.31,0
16220,1.9064e+07,1,0.87,-0.74,15.03,-0.076229,0.050881,-0.19806,0.091293,0,0,-0.6635,-0.01,0.08,-0.31,0
16260,1.9074e+07,1,0.89,-0.72,15.07,-0.077436,0.051067,-0.19718,0.096711,0,0,-0.66549,-0.01,0.08,-0.31,0
16301,1.9084e+07,1,0.9,-0.74,15.04,-0.076414,0.052138,-0.19856,0.098791,0,0,-0.66357,-0.01,0.08,-0.31,0
16343,1.9094e+07,1,0.92,-0.72,15.07,-0.075255,0.049865,-0.19157,0.10717,0,0,-0.66188,-0.01,0.08,-0.31,0
16384,1.9104e+07,1,0.93,-0.74,15.04,-0.077519,0.051645,-0.19643,0.10277,0,0,-0.66028,-0.01,0.08,-0.31,0
16429,1.9114e+07,1,0.94,-0.72,15.06,-0.076256,0.051157,-0.18997,0.10759,0,0,-0.66225,-0.01,0.08,-0.31,0
16469,1.9124e+07,1,0.95,-0.73,15.05,-0.077549,0.05099,-0.19396,0.10107,0,0,-0.66078,-0.01,0.08,-0.31,0
16511,1.9134e+07,1,0.95,-0.7,15.06,-0.076264,0.048042,-0.18425,0.1064,0,0,-0.65951,-0.01,0.08,-0.31,0
16554,1.9144e+07,1,0.93,-0.72,15.05,-0.078956,0.046918,-0.19119,0.090178,0,0,-0.65829,-0.01,0.08,-0.31,0
16595,1.9159e+07,1,0.9,-0.7,15.05,-0.081193,0.050742,-0.18231,0.091174,0,0,-0.65815,-0.01,0.08,-0.31,0
16635,1.9169e+07,1,0.91,-0.72,15.08,-0.079399,0.049922,-0.18632,0.078665,0,0,-0.65726,-0.01,0.08,-0.31,0
16677,1.918e+07,1,0.87,-0.71,15.04,-0.080953,0.052059,-0.18158,0.078248,0,0,-0.65911,-0.01,0.08,-0.31,0
16718,1.919e+07,1,0.87,-0.71,15.08,-0.0794,0.052076,-0.18,0.07211,0,0,-0.65847,-0.01,0.08,-0.31,0
16758,1.92e+07,1,0.87,-0.71,15.05,-0.077383,0.05136,-0.17889,0.065076,0,0,-0.65773,-0.01,0.08,-0.31,0
16802,1.921e+07,1,0.86,-0.71,15.07,-0.077113,0.049077,-0.17728,0.055043,0,0,-0.65716,-0.01,0.08,-0.3,0
16843,1.9221e+07,1,0.87,-0.71,15.04,-0.080313,0.05065,-0.17646,0.048066,0,0,-0.65892,-0.01,0.08,-0.3,0
16885,1.9231e+07,1,0.87,-0.71,15.07,-0.081195,0.052337,-0.17633,0.039324,0,0,-0.65841,-0.01,0.08,-0.3,0
16926,1.9241e+07,1,0.91,-0.7,15.04,-0.079203,0.051543,-0.18171,0.023795,0,0,-0.65818,-0.01,0.08,-0.3,0
16966,1.9251e+07,1,0.92,-0.69,15.07,-0.078895,0.047796,-0.17627,0.020361,0,0,-0.65791,-0.01,0.08,-0.31,0
17004,1.9264e+07,1,0.93,-0.72,15.06,-0.086235,0.044254,-0.18212,0.0057106,0,0,-0.65669,-0.01,0.08,-0.31,0
17049,1.9276e+07,1,0.94,-0.69,15.05,-0.088464,0.047931,-0.1731,0.013101,0,0,-0.65545,-0.01,0.08,-0.31,0
17090,1.9286e+07,1,0.96,-0.71,15.07,-0.089888,0.044781,-0.18063,0.0055889,0,0,-0.65403,-0.01,0.08,-0.31,0
17131,1.9296e+07,1,0.95,-0.69,15.05,-0.091223,0.042641,-0.17294,0.018663,0,0,-0.65577,-0.01,0.08,-0.31,0
17171,1.9306e+07,1,0.96,-0.7,15.08,-0.094634,0.041942,-0.18128,0.014031,0,0,-0.65452,-0.01,0.08,-0.31,0
17219,1.9319e+07,1,0.95,-0.67,15.06,-0.084378,0.042454,-0.17925,0.023538,0,0,-0.65384,-0.01,0.08,-0.31,0
17263,1.9329e+07,1,0.95,-0.69,15.09,-0.085276,0.038446,-0.17711,0.029992,0,0,-0.65283,-0.01,0.08,-0.31,0
17303,1.9339e+07,1,0.93,-0.67,15.06,-0.081214,0.037302,-0.18087,0.028512,0,0,-0.65217,-0.01,0.08,-0.31,0
17344,1.9352e+07,1,0.9,-0.68,15.09,-0.086025,0.038214,-0.17216,0.035873,0,0,-0.65096,-0.01,0.08,-0.31,0
17381,1.9362e+07,1,0.9,-0.67,15.08,-0.089886,0.041045,-0.18563,0.02354,0,0,-0.65271,-0.01,0.08,-0.31,0
17422,1.9372e+07,1,0.89,-0.68,15.09,-0.091495,0.040615,-0.17045,0.039654,0,0,-0.65127,-0.01,0.08,-0.31,0
17465,1.9382e+07,1,0.89,-0.69,15.08,-0.094959,0.042554,-0.1804,0.027591,0,0,-0.64992,-0.01,0.08,-0.3,0
17505,1.9392e+07,1,0.88,-0.67,15.08,-0.09174,0.044151,-0.1664,0.041678,0,0,-0.65163,-0.01,0.08,-0.3,0
17547,1.9402e+07,1,0.9,-0.69,15.07,-0.095106,0.046326,-0.17826,0.023045,0,0,-0.65037,-0.01,0.08,-0.3,0
17590,1.9412e+07,1,0.9,-0.67,15.08,-0.095536,0.043245,-0.16581,0.032177,0,0,-0.65205,-0.01,0.08,-0.3,0
17632,1.9422e+07,1,0.93,-0.69,15.08,-0.098374,0.043117,-0.17741,0.015427,0,0,-0.6509,-0.01,0.08,-0.3,0
17672,1.9432e+07,1,0.93,-0.67,15.09,-0.095979,0.043142,-0.16674,0.020029,0,0,-0.65258,-0.01,0.08,-0.3,0
17713,1.9442e+07,1,0.96,-0.69,15.09,-0.098611,0.043919,-0.17901,0.0030179,0,0,-0.65157,-0.01,0.08,-0.3,0
17754,1.9455e+07,1,0.97,-0.67,15.07,-0.098035,0.040566,-0.1709,0.0082001,0,0,-0.65116,-0.01,0.08,-0.3,0
17795,1.9465e+07,1,0.97,-0.69,15.1,-0.096696,0.039179,-0.17067,0.0088472,0,0,-0.65044,-0.01,0.08,-0.3,0
17836,1.9475e+07,1,0.96,-0.66,15.08,-0.095832,0.039454,-0.17165,0.0033173,0,0,-0.65211,-0.01,0.08,-0.3,0
17878,1.9485e+07,1,0.97,-0.67,15.1,-0.094538,0.038248,-0.16876,0.0033141,0,0,-0.64986,-0.01,0.08,-0.3,0
17920,1.9495e+07,1,0.96,-0.66,15.08,-0.09658,0.036992,-0.17129,-0.00062105,0,0,-0.65153,-0.01,0.08,-0.3,0
17961,1.9505e+07,1,0.95,-0.66,15.1,-0.095686,0.036642,-0.16866,0.0042461,0,0,-0.64945,-0.01,0.08,-0.28,0
18006,1.9515e+07,1,0.93,-0.65,15.07,-0.095012,0.038488,-0.17166,6.2239e-05,0,0,-0.65112,-0.01,0.08,-0.28,0
18049,1.9525e+07,1,0.92,-0.65,15.1,-0.096086,0.035813,-0.16668,0.004133,0,0,-0.64917,-0.01,0.07,-0.28,0
18089,1.9535e+07,1,0.91,-0.65,15.07,-0.099374,0.036096,-0.17111,0.0015921,0,0,-0.64733,-0.01,0.07,-0.28,0
18130,1.9545e+07,1,0.91,-0.66,15.09,-0.095639,0.036251,-0.16621,0.01136,0,0,-0.64575,-0.01,0.08,-0.28,0
18170,1.9557e+07,1,0.9,-0.66,15.07,-0.10436,0.043879,-0.17305,0.014565,0,0,-0.64478,-0.01,0.08,-0.28,0
18212,1.9568e+07,1,0.89,-0.67,15.07,-0.10496,0.043532,-0.16387,0.033453,0,0,-0.64647,-0.01,0.08,-0.28,0
18253,1.9578e+07,1,0.9,-0.66,15.07,-0.1075,0.042574,-0.17179,0.032464,0,0,-0.64517,-0.01,0.08,-0.28,0
18290,1.9588e+07,1,0.9,-0.67,15.07,-0.10603,0.043184,-0.16372,0.048853,0,0,-0.64294,-0.01,0.08,-0.28,0
18332,1.9598e+07,1,0.93,-0.65,15.07,-0.10883,0.045665,-0.17256,0.045176,0,0,-0.64461,-0.01,0.08,-0.28,0
18373,1.9608e+07,1,0.93,-0.67,15.07,-0.10804,0.044021,-0.16276,0.057373,0,0,-0.6425,-0.01,0.07,-0.28,0
18419,1.9618e+07,1,0.94,-0.65,15.07,-0.11021,0.044563,-0.16886,0.054495,0,0,-0.64059,-0.01,0.08,-0.28,0
18460,1.9628e+07,1,0.94,-0.66,15.07,-0.10713,0.04326,-0.16016,0.070823,0,0,-0.63884,-0.01,0.08,-0.28,0
18500,1.9638e+07,1,0.95,-0.65,15.07,-0.10802,0.043754,-0.16733,0.071402,0,0,-0.64048,-0.01,0.08,-0.28,0
18541,1.9648e+07,1,0.94,-0.66,15.06,-0.10857,0.039635,-0.1597,0.083932,0,0,-0.63888,-0.01,0.08,-0.28,0
18581,1.9658e+07,1,0.94,-0.66,15.07,-0.11022,0.039955,-0.16338,0.086791,0,0,-0.63748,-0.01,0.08,-0.28,0
18617,1.9668e+07,1,0.91,-0.65,15.06,-0.1068,0.041169,-0.15568,0.099117,0,0,-0.63602,-0.01,0.08,-0.28,0
18659,1.9678e+07,1,0.91,-0.65,15.06,-0.10628,0.041853,-0.1586,0.09545,0,0,-0.63761,-0.01,0.08,-0.28,0
18699,1.9688e+07,1,0.9,-0.64,15.05,-0.1076,0.040122,-0.15533,0.094719,0,0,-0.63606,-0.01,0.08,-0.28,0
18740,1.9698e+07,1,0.89,-0.64,15.05,-0.10991,0.040136,-0.15682,0.087889,0,0,-0.63743,-0.01,0.08,-0.28,0
18783,1.9708e+07,1,0.88,-0.63,15.05,-0.10532,0.043027,-0.1529,0.086041,0,0,-0.63618,-0.01,0.07,-0.28,0
18827,1.9718e+07,1,0.89,-0.65,15.04,-0.10536,0.042223,-0.15505,0.073503,0,0,-0.63773,-0.01,0.07,-0.28,0
18869,1.9728e+07,1,0.89,-0.63,15.04,-0.10571,0.040135,-0.15273,0.065263,0,0,-0.63639,-0.01,0.07,-0.27,0
18910,1.9738e+07,1,0.9,-0.65,15.04,-0.10545,0.038963,-0.15408,0.056686,0,0,-0.63522,-0.01,0.07,-0.27,0
18950,1.9748e+07,1,0.89,-0.63,15.04,-0.10731,0.040158,-0.15043,0.055182,0,0,-0.63657,-0.01,0.07,-0.27,0
18992,1.9758e+07,1,0.9,-0.65,15.04,-0.10765,0.039787,-0.15165,0.039369,0,0,-0.63565,0,0.07,-0.27,0
19030,1.9768e+07,1,0.91,-0.63,15.04,-0.10908,0.040013,-0.14913,0.035555,0,0,-0.63715,0,0.07,-0.27,0
19070,1.9778e+07,1,0.91,-0.65,15.04,-0.10902,0.040048,-0.14714,0.03234,0,0,-0.63617,-0.01,0.07,-0.27,0
19111,1.9789e+07,1,0.91,-0.62,15.04,-0.11112,0.045543,-0.14395,0.036895,0,0,-0.63419,0,0.07,-0.27,0
19151,1.9798e+07,1,0.91,-0.65,15.05,-0.11001,0.04335,-0.1428,0.039452,0,0,-0.63239,0,0.07,-0.27,0
19194,1.9809e+07,1,0.92,-0.62,15.05,-0.11189,0.041208,-0.13981,0.044045,0,0,-0.63072,0,0.07,-0.27,0
19240,1.9818e+07,1,0.9,-0.64,15.06,-0.11091,0.03996,-0.13953,0.050186,0,0,-0.62925,0,0.07,-0.27,0
19281,1.9828e+07,1,0.9,-0.62,15.05,-0.11342,0.043707,-0.13865,0.059658,0,0,-0.63063,0,0.07,-0.27,0
19322,1.9839e+07,1,0.89,-0.64,15.06,-0.11428,0.041929,-0.13792,0.066018,0,0,-0.62928,0,0.07,-0.27,0
19362,1.9848e+07,1,0.89,-0.6,15.06,-0.11514,0.03946,-0.13479,0.069962,0,0,-0.62805,0,0.07,-0.27,0
19404,1.9861e+07,1,0.88,-0.62,15.06,-0.11266,0.034553,-0.13479,0.073126,0,0,-0.62622,0,0.07,-0.27,0
19444,1.9871e+07,1,0.88,-0.6,15.06,-0.11365,0.03803,-0.13481,0.075795,0,0,-0.62418,0,0.07,-0.27,0
19485,1.9881e+07,1,0.88,-0.62,15.07,-0.11387,0.034503,-0.13503,0.083501,0,0,-0.62554,0,0.07,-0.27,0
19526,1.9891e+07,1,0.88,-0.6,15.07,-0.11463,0.034952,-0.13456,0.090974,0,0,-0.62368,0,0.07,-0.27,0
19567,1.9901e+07,1,0.88,-0.62,15.07,-0.11514,0.034394,-0.13308,0.097132,0,0,-0.62199,0,0.07,-0.27,0
19615,1.9914e+07,1,0.87,-0.61,15.08,-0.11641,0.037641,-0.13121,0.10378,0,0,-0.62071,0,0.08,-0.28,0
19656,1.9923e+07,1,0.88,-0.61,15.09,-0.1171,0.03584,-0.12942,0.10839,0,0,-0.61935,0,0.08,-0.28,0
19699,1.9934e+07,1,0.88,-0.6,15.08,-0.11719,0.037548,-0.132,0.1053,0,0,-0.61811,0,0.08,-0.28,0
19740,1.9944e+07,1,0.89,-0.6,15.1,-0.11803,0.038853,-0.13021,0.10838,0,0,-0.61941,0,0.08,-0.28,0
19778,1.9953e+07,1,0.88,-0.6,15.09,-0.11818,0.039367,-0.13029,0.10639,0,0,-0.61832,0,0.08,-0.28,0
19816,1.9963e+07,1,0.91,-0.59,15.1,-0.1172,0.034773,-0.12739,0.10833,0,0,-0.61627,0,0.08,-0.27,0
19857,1.9974e+07,1,0.88,-0.59,15.08,-0.11793,0.034763,-0.12518,0.1097,0,0,-0.61439,0,0.08,-0.27,0
19900,1.9984e+07,1,0.9,-0.58,15.09,-0.11849,0.036524,-0.12602,0.11152,0,0,-0.61268,0,0.08,-0.27,0
19940,1.9994e+07,1,0.88,-0.59,15.08,-0.1182,0.039266,-0.12318,0.11613,0,0,-0.61111,0,0.08,-0.27,0
19982,2.0003e+07,1,0.89,-0.57,15.1,-0.12008,0.037741,-0.12272,0.12038,0,0,-0.61237,0,0.08,-0.27,0
20026,2.0014e+07,1,0.86,-0.59,15.08,-0.12013,0.039013,-0.12426,0.12042,0,0,-0.61091,0,0.08,-0.27,0
20068,2.0024e+07,1,0.86,-0.57,15.1,-0.12037,0.041024,-0.12073,0.12249,0,0,-0.60963,0,0.08,-0.27,0
20109,2.0034e+07,1,0.85,-0.58,15.07,-0.12218,0.039742,-0.12286,0.1167,0,0,-0.60848,0,0.08,-0.27,0
20149,2.0043e+07,1,0.86,-0.57,15.09,-0.12315,0.038592,-0.11958,0.1153,0,0,-0.60744,0,0.08,-0.27,0
20190,2.0054e+07,1,0.84,-0.58,15.06,-0.12434,0.038215,-0.12344,0.1084,0,0,-0.60862,0,0.08,-0.27,0
20225,2.0064e+07,1,0.85,-0.57,15.08,-0.12569,0.041394,-0.11548,0.11376,0,0,-0.60663,0,0.08,-0.28,0
20266,2.0074e+07,1,0.86,-0.58,15.06,-0.1292,0.040022,-0.12081,0.10741,0,0,-0.60473,0,0.08,-0.28,0
20307,2.0084e+07,1,0.87,-0.56,15.07,-0.12828,0.038784,-0.11066,0.11613,0,0,-0.60301,0,0.08,-0.28,0
20347,2.0094e+07,1,0.87,-0.58,15.06,-0.12905,0.041309,-0.11904,0.10663,0,0,-0.6014,0,0.08,-0.28,0
20389,2.0104e+07,1,0.88,-0.56,15.07,-0.12899,0.04563,-0.10914,0.11837,0,0,-0.60256,0,0.08,-0.28,0
20434,2.0114e+07,1,0.89,-0.57,15.05,-0.13099,0.044621,-0.11729,0.10947,0,0,-0.60108,0,0.08,-0.28,0
20475,2.0124e+07,1,0.88,-0.55,15.07,-0.12807,0.042046,-0.10786,0.11932,0,0,-0.59977,0,0.08,-0.28,0
20517,2.0134e+07,1,0.88,-0.57,15.06,-0.12774,0.042156,-0.11601,0.10976,0,0,-0.59859,0,0.08,-0.28,0
20557,2.0144e+07,1,0.88,-0.55,15.07,-0.12499,0.041574,-0.10712,0.11499,0,0,-0.59755,0,0.08,-0.28,0
20601,2.0156e+07,1,0.89,-0.57,15.08,-0.12786,0.03382,-0.11569,0.1035,0,0,-0.59544,0,0.08,-0.28,0
20638,2.0166e+07,1,0.86,-0.57,15.06,-0.12634,0.033206,-0.10772,0.11004,0,0,-0.59314,0,0.08,-0.28,0
20678,2.0176e+07,1,0.85,-0.57,15.08,-0.12908,0.035858,-0.11271,0.10979,0,0,-0.59426,0,0.08,-0.28,0
20718,2.0186e+07,1,0.84,-0.56,15.06,-0.13113,0.039929,-0.10621,0.12054,0,0,-0.59211,0,0.08,-0.28,0
20759,2.0196e+07,1,0.86,-0.56,15.08,-0.13376,0.038976,-0.10936,0.12036,0,0,-0.59016,0,0.08,-0.28,0
20800,2.0206e+07,1,0.82,-0.55,15.07,-0.134,0.039221,-0.10455,0.12758,0,0,-0.5883,0,0.08,-0.28,0
20844,2.0216e+07,1,0.82,-0.55,15.09,-0.13743,0.043941,-0.10268,0.12955,0,0,-0.58663,0,0.08,-0.28,0
20886,2.0226e+07,1,0.83,-0.54,15.07,-0.13912,0.045395,-0.10349,0.13125,0,0,-0.58761,0,0.08,-0.28,0
20927,2.0236e+07,1,0.84,-0.54,15.09,-0.13749,0.044489,-0.10097,0.13427,0,0,-0.58607,0,0.08,-0.28,0
20968,2.0246e+07,1,0.84,-0.53,15.07,-0.13688,0.044414,-0.10196,0.12949,0,0,-0.58457,0,0.08,-0.28,0
21009,2.0259e+07,1,0.83,-0.53,15.09,-0.13429,0.050302,-0.095345,0.13162,0,0,-0.58238,0,0.08,-0.27,0
21047,2.0269e+07,1,0.84,-0.53,15.07,-0.13631,0.04722,-0.10303,0.12239,0,0,-0.5801,0,0.08,-0.27,0
21088,2.0279e+07,1,0.85,-0.52,15.08,-0.13395,0.043536,-0.094795,0.13452,0,0,-0.58112,0,0.08,-0.27,0
21128,2.0288e+07,1,0.85,-0.53,15.07,-0.13514,0.042464,-0.10367,0.12796,0,0,-0.57899,0,0.08,-0.27,0
21170,2.0299e+07,1,0.84,-0.52,15.09,-0.13339,0.043741,-0.087437,0.14642,0,0,-0.57703,0,0.08,-0.27,0
21210,2.0308e+07,1,0.85,-0.52,15.07,-0.13697,0.041608,-0.097718,0.13612,0,0,-0.57514,0,0.08,-0.27,0
21257,2.0319e+07,1,0.84,-0.51,15.09,-0.13433,0.036516,-0.087209,0.14596,0,0,-0.57345,0,0.08,-0.27,0
21298,2.0329e+07,1,0.82,-0.52,15.07,-0.13766,0.036523,-0.099793,0.13494,0,0,-0.57437,0,0.08,-0.27,0
21340,2.0338e+07,1,0.81,-0.51,15.08,-0.13579,0.039888,-0.087432,0.14607,0,0,-0.57283,0,0.08,-0.27,0
21383,2.0349e+07,1,0.82,-0.52,15.07,-0.13839,0.038961,-0.09925,0.1338,0,0,-0.57138,0,0.08,-0.27,0
21420,2.0358e+07,1,0.81,-0.51,15.07,-0.13401,0.036602,-0.084899,0.14834,0,0,-0.56896,0,0.08,-0.27,0
21457,2.0368e+07,1,0.81,-0.52,15.06,-0.13778,0.036168,-0.09698,0.13608,0,0,-0.56668,0,0.08,-0.27,0
21498,2.0378e+07,1,0.8,-0.51,15.05,-0.13652,0.037655,-0.082648,0.15063,0,0,-0.56455,0,0.08,-0.27,0
21538,2.0388e+07,1,0.82,-0.51,15.06,-0.14075,0.035338,-0.093023,0.14399,0,0,-0.56543,0,0.08,-0.27,0
21579,2.0398e+07,1,0.81,-0.51,15.04,-0.13624,0.032145,-0.081348,0.15705,0,0,-0.56342,0,0.08,-0.27,0
21620,2.0409e+07,1,0.82,-0.5,15.05,-0.13902,0.033516,-0.09336,0.14559,0,0,-0.56156,0,0.08,-0.27,0
21665,2.0419e+07,1,0.82,-0.51,15.04,-0.1392,0.03645,-0.079915,0.15717,0,0,-0.5598,0,0.08,-0.27,0
21706,2.0429e+07,1,0.86,-0.5,15.05,-0.14439,0.033913,-0.092214,0.14204,0,0,-0.55819,0,0.08,-0.27,0
21746,2.0439e+07,1,0.84,-0.51,15.03,-0.14338,0.030448,-0.079626,0.15369,0,0,-0.55903,0,0.08,-0.27,0
21789,2.0449e+07,1,0.86,-0.49,15.06,-0.14817,0.032271,-0.09306,0.13684,0,0,-0.55752,0,0.08,-0.27,0
21826,2.0462e+07,1,0.85,-0.5,15.04,-0.1439,0.032473,-0.074734,0.15388,0,0,-0.55488,0,0.08,-0.27,0
21866,2.0471e+07,1,0.87,-0.49,15.05,-0.14432,0.031224,-0.079426,0.1533,0,0,-0.55223,0,0.08,-0.27,0
21909,2.0482e+07,1,0.85,-0.5,15.03,-0.14179,0.027922,-0.074554,0.15845,0,0,-0.54965,0,0.08,-0.27,0
21949,2.0492e+07,1,0.84,-0.48,15.05,-0.14397,0.02984,-0.076348,0.15851,0,0,-0.55047,0,0.08,-0.27,0
21991,2.0502e+07,1,0.83,-0.5,15.03,-0.14623,0.028442,-0.072663,0.15612,0,0,-0.54796,0,0.08,-0.26,0
22031,2.0512e+07,1,0.83,-0.49,15.04,-0.14601,0.025307,-0.073169,0.1528,0,0,-0.54875,0,0.08,-0.26,0
22077,2.0522e+07,1,0.82,-0.51,15.02,-0.14641,0.020893,-0.075736,0.14758,0,0,-0.54638,0,0.08,-0.26,0
22119,2.0532e+07,1,0.81,-0.5,15.03,-0.14779,0.023873,-0.070995,0.1473,0,0,-0.54424,0,0.08,-0.26,0
22160,2.0542e+07,1,0.81,-0.51,15.02,-0.15264,0.02623,-0.075784,0.13906,0,0,-0.54214,0,0.08,-0.26,0
22201,2.0552e+07,1,0.8,-0.5,15.01,-0.15096,0.023658,-0.06743,0.14803,0,0,-0.5429,0,0.08,-0.26,0
22243,2.0564e+07,1,0.78,-0.46,15.03,-0.15522,0.032324,-0.075705,0.13768,0,0,-0.54115,0,0.08,-0.26,0
22281,2.0574e+07,1,0.77,-0.49,15.01,-0.15495,0.034349,-0.060841,0.15389,0,0,-0.5387,0,0.08,-0.26,0
22321,2.0584e+07,1,0.81,-0.46,15.03,-0.1562,0.033037,-0.071684,0.13705,0,0,-0.53637,0,0.08,-0.26,0
22362,2.0595e+07,1,0.8,-0.49,15.01,-0.15329,0.03005,-0.05731,0.15156,0,0,-0.53702,0,0.08,-0.26,0
22402,2.0605e+07,1,0.81,-0.45,15.03,-0.15473,0.031097,-0.067199,0.141,0,0,-0.5348,0,0.08,-0.26,0
22448,2.0615e+07,1,0.8,-0.47,15.02,-0.15682,0.03255,-0.054885,0.14783,0,0,-0.5354,0,0.08,-0.26,0
22490,2.0625e+07,1,0.82,-0.44,15.04,-0.15691,0.027867,-0.066349,0.12961,0,0,-0.53326,0,0.08,-0.25,0
22530,2.0635e+07,1,0.81,-0.46,15.02,-0.15509,0.024334,-0.058665,0.12998,0,0,-0.53388,0,0.08,-0.25,0
22571,2.0645e+07,1,0.82,-0.44,15.04,-0.15646,0.022427,-0.067494,0.11538,0,0,-0.53186,0,0.08,-0.25,0
22613,2.0655e+07,1,0.81,-0.46,15.03,-0.15697,0.023059,-0.058896,0.12064,0,0,-0.52994,0,0.08,-0.25,0
22654,2.0665e+07,1,0.82,-0.43,15.05,-0.15535,0.019311,-0.065439,0.10862,0,0,-0.5282,0,0.08,-0.25,0
22691,2.0675e+07,1,0.81,-0.45,15.04,-0.15336,0.017453,-0.060042,0.11302,0,0,-0.5288,0,0.08,-0.25,0
22729,2.0685e+07,1,0.79,-0.43,15.06,-0.15814,0.019114,-0.062465,0.11301,0,0,-0.52569,0,0.08,-0.25,0
22771,2.0695e+07,1,0.79,-0.44,15.04,-0.15703,0.017977,-0.059041,0.12282,0,0,-0.52272,0,0.08,-0.25,0
22811,2.0705e+07,1,0.81,-0.41,15.05,-0.1552,0.015545,-0.060938,0.12704,0,0,-0.51998,0,0.08,-0.25,0
22856,2.0715e+07,1,0.82,-0.44,15.03,-0.15371,0.014662,-0.060585,0.13527,0,0,-0.52056,0,0.08,-0.25,0
22897,2.0725e+07,1,0.8,-0.43,15.04,-0.15392,0.014036,-0.057778,0.14144,0,0,-0.518,0,0.08,-0.25,0
22941,2.0735e+07,1,0.81,-0.45,15.04,-0.15465,0.017542,-0.058216,0.14413,0,0,-0.51544,0,0.08,-0.25,0
22981,2.0745e+07,1,0.82,-0.44,15.04,-0.15736,0.012468,-0.057573,0.14866,0,0,-0.5132,0,0.08,-0.25,0
23023,2.0757e+07,1,0.81,-0.46,15.05,-0.16868,0.01185,-0.062457,0.14898,0,0,-0.51115,0,0.08,-0.25,0
23064,2.0768e+07,1,0.78,-0.47,15.04,-0.17306,0.017149,-0.055706,0.16114,0,0,-0.51174,0,0.08,-0.25,0
23101,2.0778e+07,1,0.8,-0.46,15.06,-0.17619,0.019613,-0.060879,0.15375,0,0,-0.5082,0,0.08,-0.25,0
23142,2.0788e+07,1,0.81,-0.48,15.05,-0.17496,0.01588,-0.055172,0.16321,0,0,-0.50878,0,0.08,-0.25,0
23182,2.0798e+07,1,0.82,-0.46,15.06,-0.17669,0.012775,-0.056601,0.16664,0,0,-0.50542,0,0.08,-0.25,0
23224,2.0808e+07,1,0.82,-0.46,15.05,-0.17823,0.014411,-0.052313,0.17801,0,0,-0.50226,0,0.08,-0.25,0
23270,2.0818e+07,1,0.84,-0.45,15.06,-0.17982,0.015831,-0.053817,0.18236,0,0,-0.49927,0,0.08,-0.25,0
23311,2.0828e+07,1,0.84,-0.45,15.05,-0.17878,0.011748,-0.050011,0.1928,0,0,-0.49979,0,0.08,-0.25,0
23352,2.0838e+07,1,0.85,-0.44,15.06,-0.17783,0.011122,-0.053212,0.19407,0,0,-0.49695,0,0.08,-0.25,0
23392,2.0848e+07,1,0.84,-0.44,15.05,-0.18348,0.01162,-0.048225,0.2034,0,0,-0.49431,0,0.08,-0.25,0
23435,2.0858e+07,1,0.86,-0.44,15.06,-0.18364,0.012492,-0.05196,0.20108,0,0,-0.49179,0,0.08,-0.25,0
23475,2.0871e+07,1,0.85,-0.42,15.05,-0.16848,0.0089026,-0.044127,0.21372,0,0,-0.4882,0,0.08,-0.25,0
23516,2.088e+07,1,0.84,-0.4,15.07,-0.16928,0.0077342,-0.044058,0.21805,0,0,-0.48868,0,0.08,-0.25,0
23557,2.089e+07,1,0.84,-0.41,15.06,-0.16894,0.0078747,-0.040943,0.22206,0,0,-0.48507,0,0.08,-0.24,0
23600,2.09e+07,1,0.84,-0.39,15.07,-0.16731,0.0066471,-0.040546,0.22022,0,0,-0.48165,0,0.08,-0.24,0
23641,2.091e+07,1,0.83,-0.41,15.06,-0.1654,0.0043445,-0.039332,0.22631,0,0,-0.48205,0,0.08,-0.24,0
23685,2.092e+07,1,0.81,-0.41,15.07,-0.16834,0.0042675,-0.035892,0.23315,0,0,-0.4788,0,0.08,-0.24,0
23726,2.093e+07,1,0.82,-0.41,15.06,-0.17144,0.0055273,-0.038784,0.23383,0,0,-0.47571,0,0.08,-0.24,0
23768,2.094e+07,1,0.82,-0.42,15.07,-0.1698,0.0049516,-0.034408,0.23721,0,0,-0.47609,0,0.08,-0.24,0
23810,2.095e+07,1,0.83,-0.41,15.07,-0.16821,0.0047007,-0.038794,0.23073,0,0,-0.47313,0,0.08,-0.24,0
23851,2.096e+07,1,0.81,-0.42,15.07,-0.17116,0.0058964,-0.035772,0.22579,0,0,-0.47352,0,0.08,-0.24,0
23892,2.097e+07,1,0.83,-0.42,15.07,-0.17371,0.0093051,-0.037013,0.21901,0,0,-0.47069,0,0.08,-0.24,0
23935,2.0983e+07,1,0.83,-0.44,15.06,-0.18789,0.0044306,-0.036986,0.22128,0,0,-0.46683,0,0.08,-0.24,0
23975,2.0993e+07,1,0.85,-0.42,15.07,-0.18632,0.0054739,-0.039157,0.21495,0,0,-0.46302,0,0.08,-0.24,0
24016,2.1003e+07,1,0.83,-0.43,15.06,-0.18781,0.0068183,-0.035262,0.21914,0,0,-0.45945,0,0.08,-0.24,0
24058,2.1013e+07,1,0.85,-0.43,15.07,-0.19075,0.0089964,-0.039344,0.22204,0,0,-0.45981,0,0.08,-0.24,0
24102,2.1023e+07,1,0.85,-0.45,15.06,-0.1888,0.0055735,-0.035434,0.23091,0,0,-0.45643,0,0.08,-0.24,0
24143,2.1033e+07,1,0.86,-0.44,15.06,-0.18978,0.0053276,-0.036567,0.23729,0,0,-0.45329,0,0.08,-0.24,0
24184,2.1043e+07,1,0.84,-0.46,15.06,-0.1918,0.0043976,-0.033288,0.24613,0,0,-0.4503,0,0.08,-0.24,0
24225,2.1053e+07,1,0.84,-0.45,15.07,-0.1934,0.0048326,-0.037081,0.24202,0,0,-0.45064,0,0.08,-0.24,0
24262,2.1063e+07,1,0.84,-0.44,15.06,-0.19159,-0.0016869,-0.034966,0.24152,0,0,-0.44782,0,0.08,-0.24,0
24307,2.1078e+07,1,0.79,-0.42,15.08,-0.18416,0.0052064,-0.026907,0.23629,0,0,-0.44468,0,0.08,-0.23,0
24348,2.1088e+07,1,0.8,-0.39,15.07,-0.18249,0.0088848,-0.026812,0.23055,0,0,-0.44494,0,0.08,-0.23,0
24389,2.1098e+07,1,0.8,-0.41,15.08,-0.18271,0.0026321,-0.024241,0.22566,0,0,-0.44177,0,0.08,-0.23,0
24431,2.1108e+07,1,0.8,-0.4,15.07,-0.18541,0.0041264,-0.029227,0.2179,0,0,-0.43884,0,0.08,-0.23,0
24476,2.1118e+07,1,0.79,-0.4,15.09,-0.18746,0.0034069,-0.027561,0.21809,0,0,-0.43607,0,0.08,-0.23,0
24516,2.1128e+07,1,0.81,-0.4,15.07,-0.192,0.0063335,-0.03157,0.21094,0,0,-0.43347,0,0.08,-0.23,0
24560,2.1138e+07,1,0.81,-0.41,15.08,-0.19215,0.0014416,-0.029014,0.21385,0,0,-0.43377,0,0.08,-0.23,0
24600,2.1149e+07,1,0.82,-0.4,15.08,-0.19277,0.00037269,-0.031796,0.20917,0,0,-0.43134,0,0.08,-0.23,0
24641,2.1159e+07,1,0.81,-0.42,15.08,-0.19552,-0.0017267,-0.029182,0.20595,0,0,-0.42902,0,0.08,-0.23,0
24678,2.1169e+07,1,0.83,-0.42,15.08,-0.19765,0.00085359,-0.031755,0.19795,0,0,-0.42932,0,0.08,-0.23,0
24719,2.1179e+07,1,0.82,-0.42,15.07,-0.19864,-0.0046091,-0.028779,0.19356,0,0,-0.42678,0,0.08,-0.23,0
24761,2.1189e+07,1,0.82,-0.41,15.07,-0.19764,-0.0040704,-0.029426,0.1861,0,0,-0.4244,0,0.08,-0.23,0
24801,2.1199e+07,1,0.83,-0.42,15.07,-0.2034,-0.0077396,-0.026092,0.18404,0,0,-0.42464,0,0.08,-0.23,0
24843,2.1209e+07,1,0.83,-0.42,15.08,-0.2056,-0.010377,-0.024573,0.17979,0,0,-0.42238,0,0.08,-0.23,0
24887,2.1219e+07,1,0.83,-0.4,15.07,-0.2046,-0.016336,-0.025574,0.17147,0,0,-0.42021,0,0.08,-0.23,0
24928,2.1229e+07,1,0.82,-0.41,15.08,-0.20638,-0.016221,-0.022637,0.1671,0,0,-0.41819,0,0.08,-0.23,0
24968,2.1239e+07,1,0.81,-0.4,15.06,-0.20855,-0.013604,-0.023864,0.16205,0,0,-0.41838,0,0.08,-0.23,0
25010,2.1249e+07,1,0.81,-0.42,15.08,-0.20516,-0.012314,-0.018862,0.16069,0,0,-0.41644,0,0.08,-0.23,0
25051,2.1259e+07,1,0.81,-0.41,15.06,-0.20506,-0.016834,-0.022593,0.15093,0,0,-0.41461,0,0.08,-0.23,0
25091,2.1272e+07,1,0.8,-0.4,15.09,-0.19334,-0.013502,-0.0092409,0.15768,0,0,-0.41286,0,0.08,-0.23,0
25133,2.1282e+07,1,0.8,-0.39,15.07,-0.20052,-0.012321,-0.015876,0.14543,0,0,-0.41119,0,0.08,-0.23,0
25174,2.1292e+07,1,0.81,-0.4,15.09,-0.19824,-0.013526,-0.0096966,0.14764,0,0,-0.41135,0,0.08,-0.23,0
25215,2.1302e+07,1,0.81,-0.39,15.06,-0.20062,-0.014921,-0.010163,0.14068,0,0,-0.40975,0,0.08,-0.23,0
25256,2.1312e+07,1,0.79,-0.39,15.08,-0.20191,-0.016939,-0.0029736,0.14197,0,0,-0.4082,0,0.08,-0.23,0
25300,2.1322e+07,1,0.81,-0.38,15.06,-0.20498,-0.011337,-0.0075379,0.13104,0,0,-0.40832,0,0.08,-0.23,0
25342,2.1332e+07,1,0.8,-0.38,15.08,-0.20547,-0.015625,-0.0049857,0.12754,0,0,-0.40683,0,0.08,-0.23,0
25384,2.1342e+07,1,0.79,-0.38,15.06,-0.20519,-0.014735,-0.0057906,0.12056,0,0,-0.40549,0,0.08,-0.23,0
25425,2.1352e+07,1,0.78,-0.38,15.08,-0.2074,-0.014173,-0.0049492,0.11552,0,0,-0.40419,0,0.08,-0.23,0
25468,2.1365e+07,1,0.79,-0.38,15.07,-0.21309,-0.015069,-0.0060289,0.10841,0,0,-0.40159,0,0.08,-0.23,0
