LineNo,TimeUS,C,Roll,Pitch,Yaw,VN,VE,VD,dPD,PN,PE,PD,GX,GY,GZ,OH
202,15036236,1,0.89,-0.98,13.65,-0.002197633,0.009851735,0.008449702999999999,-0.7437889,0,0,0.9954575,-0.01,0.09,-0.34,0
305,15069805,1,0.89,-0.98,13.67,-0.003353014,0.01014691,0.003600299,-1.783183,0,0,0.893352,-0.01,0.09,-0.33,0
647,15131902,1,0.9,-0.98,13.71,-0.002560215,0.008009397999999999,-0.0003084402,-2.818485,0,0,0.7535493,-0.01,0.08,-0.32,0
760,15148065,1,0.9,-0.99,13.72,-0.002433698,0.01034667,-0.0008403858,-2.884157,0,0,0.7102962,-0.01,0.08,-0.32,0
873,15163825,1,0.89,-0.99,13.72,-0.001565823,0.01108265,-0.001706602,-2.943739,0,0,0.6689076,-0.01,0.08,-0.32,0
986,15180972,1,0.9,-0.99,13.73,-0.001342655,0.01187219,-0.00279424,-2.987876,0,0,0.6292564,-0.01,0.08,-0.32,0
1217,15259226,1,0.9,-1,13.77,-0.001934613,0.01052662,-0.1225198,-2.638128,0,0,0.5151603,-0.01,0.08,-0.31,0
1601,15414256,1,0.9,-1.01,13.83,-0.000458057,0.01548214,-0.4785335,-2.124658,0,0,0.2886364,-0.01,0.08,-0.3,0
1679,15425231,1,0.9,-1.01,13.84,2.533157e-05,0.01538894,-0.4791707,-2.15157,0,0,0.2584788,-0.01,0.08,-0.3,0
1721,15435203,1,0.9,-1.01,13.85,-0.00058482,0.01558373,-0.4788073,-2.178601,0,0,0.2301961,-0.01,0.08,-0.3,0
1761,15445153,1,0.91,-1.01,13.85,-0.001126254,0.01588844,-0.4784272,-2.191049,0,0,0.2032131,-0.01,0.08,-0.3,0
1802,15458166,1,0.91,-1.01,13.86,-0.0007933716,0.0159732,-0.4766699,-2.210781,0,0,0.1759337,-0.01,0.08,-0.31,0
1845,15471700,1,0.9,-1.01,13.86,-7.488664000000001e-05,0.01550386,-0.4773505,-2.23478,0,0,0.1503674,-0.01,0.08,-0.31,0
1887,15481377,1,0.9,-1.01,13.87,-0.0001555684,0.0156596,-0.4749982,-2.228754,0,0,0.1272434,-0.01,0.08,-0.32,0
1932,15491344,1,0.9,-1.01,13.88,0.001157797,0.01579707,-0.4734344,-2.227973,0,0,0.1224796,-0.01,0.08,-0.32,0
1972,15501391,1,0.91,-1.01,13.89,0.0003983297,0.01635798,-0.4735039,-2.195303,0,0,0.100341,-0.01,0.08,-0.31,0
2013,15511380,1,0.91,-1.01,13.9,0.002325219,0.01659576,-0.4719586,-2.147568,0,0,0.07920921,-0.01,0.08,-0.32,0
2056,15521354,1,0.91,-1.01,13.9,0.003675942,0.01702149,-0.4736251,-2.098992,0,0,0.05896906,-0.01,0.08,-0.32,0
2100,15536972,1,0.92,-1.01,13.92,0.004094203,0.01891067,-0.4736165,-2.028082,0,0,0.03734412,-0.01,0.08,-0.32,0
2144,15546987,1,0.92,-1.01,13.92,0.004652526,0.01941378,-0.473071,-1.968542,0,0,0.0330865,-0.01,0.08,-0.32,0
2184,15556732,1,0.92,-1.01,13.93,0.00533346,0.01928979,-0.4725661,-1.901067,0,0,0.01505765,-0.01,0.08,-0.32,0
2225,15566805,1,0.92,-1.01,13.93,0.006005761,0.01976144,-0.4703868,-1.841488,0,0,-0.002169471,-0.01,0.08,-0.32,0
2266,15576724,1,0.91,-1.02,13.95,0.00546923,0.02191122,-0.4703632,-1.780626,0,0,-0.01864481,-0.01,0.08,-0.32,0
2310,15586742,1,0.91,-1.02,13.95,0.005602735,0.02219838,-0.4700435,-1.711828,0,0,-0.03443103,-0.01,0.08,-0.32,0
2352,15596745,1,0.91,-1.02,13.96,0.003976526,0.02376515,-0.4714339,-1.643788,0,0,-0.04960791,-0.01,0.08,-0.32,0
2393,15607201,1,0.91,-1.02,13.97,0.003660358,0.02345577,-0.4712492,-1.575898,0,0,-0.05479539,-0.01,0.08,-0.32,0
2437,15617308,1,0.91,-1.02,13.98,0.003788721,0.02428053,-0.4717231,-1.512882,0,0,-0.06937216,-0.01,0.08,-0.32,0
2477,15627006,1,0.92,-1.02,13.98,0.003500521,0.02477791,-0.4705234,-1.437408,0,0,-0.08341757,-0.01,0.08,-0.32,0
2515,15637867,1,0.91,-1.02,13.99,0.00322993,0.02514055,-0.4720742,-1.372542,0,0,-0.09625627,-0.01,0.08,-0.32,0
2558,15648017,1,0.91,-1.02,14,0.002894188,0.02522517,-0.4709388,-1.305648,0,0,-0.1009503,-0.01,0.08,-0.32,0
2598,15658156,1,0.92,-1.02,14.01,0.00309724,0.02537245,-0.4714358,-1.234082,0,0,-0.1134175,-0.01,0.08,-0.32,0
2639,15667808,1,0.92,-1.02,14.02,0.003627317,0.02560224,-0.4738173,-1.16686,0,0,-0.125446,-0.01,0.08,-0.32,0
2679,15677879,1,0.92,-1.02,14.02,0.004190302,0.02528821,-0.4733557,-1.101058,0,0,-0.1302754,-0.01,0.08,-0.32,0
2724,15688120,1,0.92,-1.02,14.03,0.003494519,0.0238297,-0.4735698,-1.04365,0,0,-0.1417677,-0.01,0.08,-0.32,0
2765,15697809,1,0.93,-1.01,14.03,0.00414963,0.02416032,-0.4712832,-0.9881324,0,0,-0.1529691,-0.01,0.08,-0.32,0
2806,15707817,1,0.93,-1.01,14.04,0.00528542,0.02519461,-0.4707893,-0.9360842,0,0,-0.1637997,-0.01,0.08,-0.32,0
2847,15718185,1,0.93,-1.01,14.04,0.004751235,0.02605558,-0.4699464,-0.8893293,0,0,-0.1684283,-0.01,0.08,-0.32,0
2887,15727702,1,0.93,-1.01,14.05,0.004556314,0.02545728,-0.4691256,-0.8332676,0,0,-0.1789529,-0.01,0.08,-0.32,0
2929,15737811,1,0.93,-1.01,14.05,0.004142128,0.02594341,-0.4680488,-0.7913791999999999,0,0,-0.1890437,-0.01,0.08,-0.32,0
2971,15748061,1,0.93,-1.01,14.06,0.004774407,0.0255372,-0.4682431,-0.7558134,0,0,-0.1937153,-0.01,0.08,-0.32,0
3010,15758090,1,0.93,-1.01,14.06,0.00575843,0.02554375,-0.4696111,-0.7172182,0,0,-0.2040695,-0.01,0.08,-0.33,0
3052,15768226,1,0.93,-1.01,14.07,0.00654399,0.02559548,-0.4699008,-0.6903399,0,0,-0.213498,-0.01,0.08,-0.33,0
3092,15778056,1,0.93,-1.01,14.08,0.007415387,0.02652116,-0.4707713,-0.6608266,0,0,-0.2226498,-0.01,0.08,-0.33,0
3138,15788269,1,0.93,-1.01,14.09,0.007894200000000001,0.02651157,-0.4720972,-0.6407355,0,0,-0.2315078,-0.01,0.08,-0.33,0
3180,15798394,1,0.93,-1.01,14.09,0.007205996,0.02605024,-0.4730258,-0.6260305,0,0,-0.2362355,-0.01,0.08,-0.33,0
3221,15808415,1,0.93,-1.01,14.1,0.007417871,0.02667467,-0.472574,-0.6106200000000001,0,0,-0.2447286,-0.01,0.08,-0.33,0
3262,15818749,1,0.93,-1,14.11,0.007805449,0.02689762,-0.473865,-0.5978152,0,0,-0.2530675,-0.01,0.08,-0.33,0
3304,15832052,1,0.93,-1.01,14.12,0.009251700999999999,0.02828051,-0.4759502,-0.5836351,0,0,-0.262985,-0.01,0.08,-0.33,0
3341,15842148,1,0.93,-1.01,14.12,0.009023461,0.02881128,-0.476184,-0.5707896,0,0,-0.2702751,-0.01,0.08,-0.33,0
3383,15851872,1,0.93,-1.01,14.13,0.009005707999999999,0.02920068,-0.4756489,-0.5560539,0,0,-0.2773644,-0.01,0.08,-0.34,0
3424,15862102,1,0.93,-1.01,14.14,0.009675946,0.02919958,-0.4749969,-0.5394921,0,0,-0.2842618,-0.01,0.08,-0.34,0
3464,15871903,1,0.93,-1.01,14.14,0.009714502999999999,0.02976387,-0.4753357,-0.5256528,0,0,-0.2889997,-0.01,0.08,-0.34,0
3505,15882080,1,0.93,-1.02,14.15,0.009742492,0.02969689,-0.4751977,-0.5120962,0,0,-0.2956784,-0.01,0.08,-0.34,0
3549,15891925,1,0.93,-1.01,14.16,0.01061948,0.03023845,-0.4747711,-0.4977478,0,0,-0.302236,-0.01,0.08,-0.34,0
3590,15902123,1,0.93,-1.01,14.16,0.01150877,0.02895166,-0.4738393,-0.4835874,0,0,-0.3086665,-0.01,0.08,-0.34,0
3632,15911876,1,0.93,-1.01,14.17,0.011662,0.0284154,-0.47198,-0.4686109,0,0,-0.3148948,-0.01,0.08,-0.34,0
3674,15922119,1,0.93,-1.01,14.18,0.01351738,0.02782163,-0.4701529,-0.4557591,0,0,-0.3196002,-0.01,0.08,-0.34,0
3712,15932367,1,0.93,-1.01,14.19,0.0143812,0.02753429,-0.4712007,-0.4469684,0,0,-0.325694,-0.01,0.08,-0.34,0
3749,15942379,1,0.93,-1.01,14.19,0.01434365,0.02807224,-0.4715136,-0.437465,0,0,-0.3311135,-0.01,0.08,-0.36,0
3791,15952795,1,0.92,-1.01,14.2,0.01550311,0.02874216,-0.4709404,-0.4229564,0,0,-0.3363223,-0.01,0.08,-0.36,0
3832,15962936,1,0.92,-1.01,14.21,0.01510153,0.02902277,-0.4700267,-0.4119535,0,0,-0.3413029,-0.01,0.08,-0.35,0
3872,15973037,1,0.92,-1,14.22,0.0153723,0.02937757,-0.4706796,-0.3990904,0,0,-0.3464768,-0.01,0.08,-0.35,0
3913,15982811,1,0.92,-1.01,14.23,0.01547931,0.03003311,-0.4717583,-0.3905371,0,0,-0.3518562,-0.01,0.08,-0.35,0
3957,15992911,1,0.92,-1.01,14.24,0.01580659,0.02950483,-0.4715832,-0.3827531,0,0,-0.3571529,-0.01,0.08,-0.35,0
3998,16002810,1,0.92,-1.01,14.25,0.01610465,0.02886192,-0.4703043,-0.3732879,0,0,-0.3618643,-0.01,0.08,-0.35,0
4041,16012929,1,0.93,-1.01,14.27,0.01680372,0.02786743,-0.4693012,-0.3670842,0,0,-0.3667113,-0.01,0.08,-0.35,0
4082,16022810,1,0.93,-1.01,14.28,0.01697762,0.02923303,-0.4688491,-0.3614409,0,0,-0.3722699,-0.01,0.08,-0.35,0
4123,16032889,1,0.93,-1.01,14.28,0.01731159,0.02847961,-0.4669136,-0.355625,0,0,-0.3769957,-0.01,0.08,-0.35,0
4160,16043142,1,0.93,-1.01,14.3,0.01830178,0.02903242,-0.4667609,-0.3535295,0,0,-0.3820637,-0.01,0.08,-0.35,0
4202,16052839,1,0.93,-1.01,14.3,0.01902384,0.02825144,-0.4666143,-0.3526153,0,0,-0.3870578,-0.01,0.08,-0.35,0
4246,16065669,1,0.93,-1.01,14.31,0.01908679,0.02880444,-0.4652113,-0.3503542,0,0,-0.3929059,-0.01,0.08,-0.35,0
4288,16075810,1,0.93,-1,14.32,0.01888022,0.02822654,-0.4646218,-0.3495985,0,0,-0.3975825,-0.01,0.08,-0.35,0
4328,16085922,1,0.93,-1.01,14.33,0.0204494,0.02767105,-0.463845,-0.3496158,0,0,-0.4025195,-0.01,0.08,-0.35,0
4373,16095897,1,0.93,-1.01,14.34,0.01920159,0.02772404,-0.4655716,-0.352585,0,0,-0.4072929,-0.01,0.08,-0.35,0
4414,16105909,1,0.93,-1.01,14.35,0.01976569,0.02751079,-0.4677742,-0.35622,0,0,-0.41195,-0.01,0.08,-0.35,0
4454,16115833,1,0.93,-1.01,14.36,0.02009793,0.02803371,-0.4681128,-0.3582335,0,0,-0.4166511,-0.01,0.08,-0.35,0
4500,16131235,1,0.92,-1.01,14.37,0.02073625,0.02757818,-0.4684331,-0.3611084,0,0,-0.4241351,-0.01,0.08,-0.35,0
4543,16143830,1,0.93,-1.01,14.38,0.01961018,0.02834931,-0.4663333,-0.361119,0,0,-0.4298266,-0.01,0.08,-0.35,0
4583,16153740,1,0.93,-1.01,14.38,0.02005203,0.02810249,-0.4663996,-0.3636757,0,0,-0.4346001,-0.01,0.08,-0.35,0
4624,16163902,1,0.93,-1.01,14.39,0.02034786,0.0279546,-0.4663322,-0.3664032,0,0,-0.4396664,-0.01,0.08,-0.35,0
4666,16174076,1,0.93,-1.01,14.4,0.01998328,0.02814179,-0.4668419,-0.3697987,0,0,-0.4443597,-0.01,0.08,-0.35,0
4706,16184068,1,0.93,-1.01,14.41,0.02118549,0.02827088,-0.4682215,-0.3739943,0,0,-0.4489394,-0.01,0.08,-0.35,0
4751,16194014,1,0.93,-1.01,14.42,0.02032352,0.02867688,-0.4682802,-0.376961,0,0,-0.4535628,-0.01,0.08,-0.35,0
4791,16204169,1,0.93,-1,14.42,0.02078286,0.02880863,-0.4680969,-0.3792669,0,0,-0.4581945,-0.01,0.08,-0.35,0
4833,16213884,1,0.93,-1,14.43,0.02096598,0.02834816,-0.4681711,-0.381905,0,0,-0.4627937,-0.01,0.08,-0.35,0
4873,16223941,1,0.93,-1,14.43,0.02077562,0.02811461,-0.4679621,-0.3844582,0,0,-0.4672664,-0.01,0.08,-0.35,0
4914,16233883,1,0.93,-1,14.44,0.02091686,0.02827143,-0.4667511,-0.3857907,0,0,-0.4717895,-0.01,0.08,-0.35,0
4952,16244079,1,0.93,-1,14.44,0.0206684,0.0288989,-0.4663878,-0.3873168,0,0,-0.476412,-0.01,0.08,-0.35,0
4989,16254026,1,0.9399999999999999,-1,14.44,0.01966592,0.02976508,-0.4660917,-0.3877754,0,0,-0.4805294,-0.01,0.08,-0.35,0
5031,16264049,1,0.9399999999999999,-1,14.44,0.01884353,0.03035469,-0.4662294,-0.3879113,0,0,-0.4845865,-0.01,0.08,-0.35,0
5073,16274087,1,0.9399999999999999,-1,14.45,0.01966431,0.03027621,-0.4671108,-0.3890243,0,0,-0.4886482,-0.01,0.08,-0.35,0
5113,16283878,1,0.9399999999999999,-1,14.45,0.01952286,0.03056599,-0.4655388,-0.3862378,0,0,-0.4933186,-0.01,0.08,-0.35,0
5158,16293936,1,0.9399999999999999,-1,14.46,0.01874012,0.03218577,-0.4641845,-0.3836044,0,0,-0.4972689,-0.01,0.08,-0.35,0
5199,16304014,1,0.9399999999999999,-1.01,14.47,0.01824783,0.03167513,-0.466096,-0.3834789,0,0,-0.5013117,-0.01,0.08,-0.35,0
5240,16314026,1,0.9399999999999999,-1.01,14.47,0.0179108,0.03133311,-0.4661591,-0.3819125,0,0,-0.5052702,-0.01,0.08,-0.35,0
5280,16323872,1,0.9399999999999999,-1.01,14.48,0.01849528,0.03053038,-0.469222,-0.3833944,0,0,-0.5092912000000001,-0.01,0.08,-0.35,0
5323,16336655,1,0.9399999999999999,-1.01,14.48,0.01911553,0.03142015,-0.4699965,-0.3821887,0,0,-0.5135435,-0.01,0.08,-0.35,0
5360,16346368,1,0.9399999999999999,-1.01,14.49,0.0185707,0.03234976,-0.4699969,-0.377683,0,0,-0.5168928,-0.01,0.08,-0.36,0
5405,16358941,1,0.9399999999999999,-1.01,14.5,0.01917757,0.03142267,-0.4681717,-0.367995,0,0,-0.5216386,-0.01,0.08,-0.36,0
5446,16369044,1,0.9399999999999999,-1.01,14.5,0.01891703,0.03131523,-0.4678246,-0.3627093,0,0,-0.5250276,-0.01,0.08,-0.36,0
5486,16379063,1,0.95,-1.01,14.5,0.01963202,0.03141186,-0.4671114,-0.3556004,0,0,-0.5296772,-0.01,0.08,-0.36,0
5528,16389020,1,0.95,-1.01,14.51,0.01978204,0.03085081,-0.4679828,-0.350955,0,0,-0.5330837,-0.01,0.08,-0.36,0
5572,16399041,1,0.95,-1.01,14.51,0.01956472,0.03076791,-0.4673245,-0.3460331,0,0,-0.5364991,-0.01,0.08,-0.36,0
5614,16409037,1,0.95,-1.01,14.51,0.02014144,0.03059503,-0.4662361,-0.3414023,0,0,-0.5398936,-0.01,0.08,-0.36,0
5655,16419007,1,0.95,-1.01,14.52,0.02029847,0.03150054,-0.4682215,-0.3410192,0,0,-0.5433658,-0.01,0.08,-0.36,0
5695,16429045,1,0.95,-1.01,14.52,0.01949926,0.03047283,-0.4685128,-0.3380366,0,0,-0.5480487000000001,-0.01,0.08,-0.36,0
5730,16439363,1,0.96,-1.01,14.52,0.01930915,0.03042774,-0.468154,-0.3349802,0,0,-0.550464,-0.01,0.08,-0.37,0
5771,16449710,1,0.96,-1.01,14.53,0.0196295,0.03261841,-0.4674139,-0.3300629,0,0,-0.5529369,-0.01,0.08,-0.37,0
5812,16459895,1,0.96,-1.02,14.54,0.02005674,0.03164848,-0.4674571,-0.3234186,0,0,-0.5580794,-0.01,0.08,-0.37,0
5852,16469855,1,0.96,-1.02,14.55,0.01968085,0.03148489,-0.465552,-0.3153742,0,0,-0.5605869999999999,-0.01,0.08,-0.37,0
5894,16479817,1,0.96,-1.02,14.56,0.02018085,0.03278445,-0.4649935,-0.3091914,0,0,-0.5631917,-0.01,0.08,-0.37,0
5936,16490179,1,0.96,-1.02,14.56,0.02009575,0.03283782,-0.465434,-0.3062001,0,0,-0.5678307,-0.01,0.08,-0.37,0
5980,16499807,1,0.96,-1.02,14.57,0.02030149,0.0326023,-0.466379,-0.3035888,0,0,-0.5705088,-0.01,0.08,-0.36,0
6023,16509789,1,0.96,-1.01,14.58,0.02081231,0.03321929,-0.4665835,-0.3008522,0,0,-0.573215,-0.01,0.08,-0.36,0
6063,16520333,1,0.96,-1.01,14.58,0.02110281,0.03338538,-0.4668516,-0.3003369,0,0,-0.57789,-0.01,0.08,-0.36,0
6107,16530338,1,0.96,-1.01,14.59,0.02149285,0.03351726,-0.4676555,-0.3040051,0,0,-0.5807042,-0.01,0.08,-0.36,0
6144,16540766,1,0.97,-1.01,14.6,0.02186725,0.03350212,-0.4682547,-0.3056134,0,0,-0.5835977,-0.01,0.08,-0.36,0
6184,16550927,1,0.97,-1.01,14.61,0.02143774,0.03485888,-0.4688499,-0.3059725,0,0,-0.5882533,-0.01,0.08,-0.36,0
6224,16560918,1,0.98,-1.01,14.61,0.02150624,0.03442614,-0.469245,-0.3053917,0,0,-0.5906231,-0.01,0.08,-0.36,0
6265,16571172,1,0.98,-1.01,14.61,0.02193543,0.03301569,-0.466963,-0.3009871,0,0,-0.5935573,-0.01,0.08,-0.35,0
6306,16581222,1,0.98,-1.01,14.62,0.02111073,0.03310641,-0.4671733,-0.2985762,0,0,-0.5960534,-0.01,0.08,-0.36,0
6347,16591172,1,0.98,-1.01,14.62,0.02059896,0.03316675,-0.4676144,-0.2970209,0,0,-0.5986338,-0.01,0.08,-0.36,0
6394,16601697,1,0.97,-1.01,14.63,0.02030595,0.03327509,-0.4689974,-0.2936837,0,0,-0.6032722,-0.01,0.08,-0.36,0
6437,16611479,1,0.97,-1.01,14.63,0.02068365,0.03204985,-0.4690419,-0.290825,0,0,-0.6059215999999999,-0.01,0.08,-0.36,0
6478,16621679,1,0.96,-1.01,14.63,0.02115165,0.03232179,-0.4679982,-0.2873368,0,0,-0.6085831,-0.01,0.08,-0.36,0
6519,16631876,1,0.95,-1.01,14.64,0.0209914,0.03309317,-0.4669259,-0.2852639,0,0,-0.6113234,-0.01,0.08,-0.36,0
6557,16644162,1,0.95,-1,14.64,0.02046488,0.03243319,-0.4647925,-0.2801279,0,0,-0.614534,-0.01,0.08,-0.36,0
6598,16654063,1,0.95,-1.01,14.64,0.02135031,0.03345028,-0.4629289,-0.275964,0,0,-0.616374,-0.01,0.08,-0.36,0
6638,16663915,1,0.95,-1.01,14.64,0.02294693,0.03346921,-0.4615528,-0.2682843,0,0,-0.6182808,-0.01,0.08,-0.36,0
6680,16673932,1,0.95,-1.01,14.64,0.0218765,0.03355201,-0.4628411,-0.2601273,0,0,-0.6229516,-0.01,0.08,-0.36,0
6720,16684028,1,0.96,-1.02,14.65,0.02236086,0.03387872,-0.4618294,-0.2515191,0,0,-0.6249521,-0.01,0.08,-0.36,0
6765,16693890,1,0.96,-1.02,14.65,0.02250328,0.03407944,-0.4619296,-0.2463776,0,0,-0.6270492,-0.01,0.08,-0.36,0
6807,16704050,1,0.97,-1.02,14.65,0.0231985,0.03351079,-0.4604248,-0.2408032,0,0,-0.6292325,-0.01,0.08,-0.36,0
6848,16714062,1,0.97,-1.02,14.66,0.02224841,0.03399409,-0.4599864,-0.2382603,0,0,-0.6338211,-0.01,0.08,-0.36,0
6889,16724023,1,0.97,-1.02,14.66,0.02270534,0.0341346,-0.4582229,-0.2354742,0,0,-0.6360336,-0.01,0.08,-0.36,0
6931,16734051,1,0.97,-1.02,14.66,0.02277921,0.03343003,-0.456508,-0.2343373,0,0,-0.638346,-0.01,0.08,-0.36,0
6966,16744334,1,0.97,-1.02,14.66,0.02276779,0.03329778,-0.4554383,-0.2331911,0,0,-0.6391777,-0.01,0.08,-0.34,0
7006,16754286,1,0.97,-1.02,14.67,0.02152098,0.03325215,-0.4544468,-0.2290287,0,0,-0.6437551,-0.01,0.08,-0.34,0
7047,16764318,1,0.97,-1.01,14.67,0.02232112,0.03406424,-0.4529634,-0.2239238,0,0,-0.6447319,-0.01,0.08,-0.34,0
7088,16774315,1,0.96,-1.01,14.67,0.02188838,0.03318825,-0.4525894,-0.217883,0,0,-0.6458669,-0.01,0.08,-0.34,0
7129,16784263,1,0.96,-1.01,14.67,0.02256488,0.03296454,-0.451928,-0.2109334,0,0,-0.6471065,-0.01,0.08,-0.34,0
7176,16794284,1,0.95,-1.01,14.67,0.02247963,0.03346402,-0.4503085,-0.2040379,0,0,-0.6516215,-0.01,0.08,-0.34,0
7217,16804272,1,0.95,-1.01,14.67,0.02183575,0.03387148,-0.4499898,-0.2002982,0,0,-0.6529473,-0.01,0.08,-0.34,0
7259,16814278,1,0.95,-1.02,14.66,0.02148366,0.03367354,-0.4497235,-0.1967131,0,0,-0.65438,-0.01,0.08,-0.34,0
7300,16824315,1,0.95,-1.02,14.66,0.02168831,0.03391339,-0.4481268,-0.19639,0,0,-0.6559443,-0.01,0.08,-0.34,0
7340,16834272,1,0.95,-1.02,14.66,0.02207498,0.03337327,-0.4491439,-0.1946495,0,0,-0.6601372,-0.01,0.08,-0.34,0
7381,16844281,1,0.96,-1.02,14.66,0.02041626,0.03326397,-0.4482231,-0.1935035,0,0,-0.6620568999999999,-0.01,0.08,-0.34,0
7418,16854884,1,0.96,-1.02,14.66,0.0186915,0.03311823,-0.4463651,-0.188874,0,0,-0.662347,-0.01,0.08,-0.35,0
7459,16864827,1,0.97,-1.01,14.66,0.01924418,0.03418078,-0.4447681,-0.1834615,0,0,-0.6626523,-0.01,0.08,-0.35,0
7501,16874916,1,0.97,-1.01,14.66,0.0198272,0.03447993,-0.4420152,-0.1747287,0,0,-0.6631933,-0.01,0.08,-0.35,0
7541,16885197,1,0.97,-1.01,14.66,0.01902569,0.03546195,-0.4423254,-0.1631881,0,0,-0.6680569,-0.01,0.08,-0.35,0
7585,16895152,1,0.98,-1.01,14.66,0.01841076,0.03521178,-0.4419596,-0.1676248,0,0,-0.6686972,-0.01,0.08,-0.34,0
7627,16905192,1,0.98,-1.01,14.66,0.01749028,0.0360394,-0.4407499,-0.1634685,0,0,-0.6731077,-0.01,0.08,-0.34,0
7669,16915182,1,0.98,-1.01,14.66,0.01728719,0.03622856,-0.4401311,-0.1597227,0,0,-0.6738703,-0.01,0.08,-0.34,0
7710,16925153,1,0.98,-1.01,14.66,0.01640887,0.03723906,-0.4392444,-0.1648516,0,0,-0.6747633,-0.01,0.08,-0.34,0
7752,16938035,1,0.97,-1,14.66,0.01668282,0.0378962,-0.4386072,-0.1657753,0,0,-0.6766276,-0.01,0.08,-0.34,0
7793,16948185,1,0.97,-1,14.65,0.01622202,0.03871708,-0.4384192,-0.1630629,0,0,-0.6810886,-0.01,0.08,-0.34,0
7830,16958238,1,0.96,-1,14.66,0.01600373,0.03872893,-0.4361741,-0.1562893,0,0,-0.6806683,-0.01,0.08,-0.34,0
7872,16968213,1,0.96,-1,14.66,0.01609525,0.03841763,-0.4354487,-0.1497246,0,0,-0.6804174,-0.01,0.08,-0.34,0
7912,16978052,1,0.96,-1,14.66,0.01539397,0.03926213,-0.4333484,-0.1375148,0,0,-0.680826,-0.01,0.08,-0.34,0
7953,16987961,1,0.96,-1,14.67,0.01471924,0.04096435,-0.4323738,-0.1292203,0,0,-0.6846823,-0.01,0.08,-0.34,0
7999,16998257,1,0.96,-1,14.67,0.01466127,0.03977817,-0.4303405,-0.1254406,0,0,-0.6847749,-0.01,0.08,-0.34,0
8043,17008374,1,0.97,-0.99,14.67,0.0156014,0.04246365,-0.4295942,-0.1217999,0,0,-0.6854532,-0.01,0.08,-0.34,0
8084,17018709,1,0.96,-0.99,14.67,0.01719885,0.04123476,-0.4265336,-0.1126557,0,0,-0.6858046,-0.01,0.08,-0.34,0
8124,17028769,1,0.97,-0.99,14.68,0.01674945,0.04169168,-0.4261388,-0.1065613,0,0,-0.6900648,-0.01,0.08,-0.34,0
8162,17038596,1,0.97,-0.99,14.68,0.01723074,0.04093705,-0.4283812,-0.1060561,0,0,-0.6905365999999999,-0.01,0.08,-0.34,0
8199,17048722,1,0.97,-0.99,14.67,0.01788634,0.04068172,-0.4250755,-0.09365672999999999,0,0,-0.6896164,-0.01,0.08,-0.34,0
8240,17058804,1,0.98,-0.99,14.67,0.01834664,0.04282017,-0.4218991,-0.07879708000000001,0,0,-0.6892009,-0.01,0.08,-0.35,0
8280,17068789,1,0.98,-0.99,14.67,0.0178231,0.04206681,-0.4219587,-0.07210626000000001,0,0,-0.6882568,-0.01,0.08,-0.35,0
8322,17078927,1,0.99,-0.99,14.68,0.01909201,0.0427616,-0.4214606,-0.0625956,0,0,-0.6925063,-0.01,0.08,-0.35,0
8364,17088787,1,0.99,-0.99,14.7,0.02064593,0.04193174,-0.4227893,-0.05842057,0,0,-0.6921388000000001,-0.01,0.08,-0.35,0
8408,17098896,1,0.98,-0.98,14.71,0.02118922,0.04411248,-0.4204136,-0.05120198,0,0,-0.6919701,-0.01,0.08,-0.35,0
8449,17108800,1,0.97,-0.97,14.72,0.022434,0.04371006,-0.416823,-0.04465232,0,0,-0.6922552,-0.01,0.08,-0.36,0
8491,17118868,1,0.98,-0.98,14.73,0.0232072,0.04492004,-0.4160447,-0.04449613,0,0,-0.6920210999999999,-0.01,0.08,-0.36,0
8532,17128800,1,0.97,-0.97,14.74,0.02227076,0.04668791,-0.4152088,-0.03960733,0,0,-0.6961895,-0.01,0.08,-0.36,0
8572,17139226,1,0.97,-0.97,14.74,0.02264914,0.04689635,-0.4110108,-0.0357903,0,0,-0.6967673,-0.01,0.08,-0.36,0
8612,17151331,1,0.98,-0.97,14.74,0.02276587,0.0450834,-0.4085512,-0.03212815,0,0,-0.6967160999999999,-0.01,0.08,-0.35,0
8653,17161314,1,0.98,-0.97,14.75,0.02209688,0.04590031,-0.4085631,-0.02695784,0,0,-0.696059,-0.01,0.08,-0.35,0
8693,17171356,1,0.98,-0.96,14.75,0.02202266,0.04680288,-0.4072001,-0.01753426,0,0,-0.6955971,-0.01,0.08,-0.35,0
8734,17181335,1,0.97,-0.96,14.75,0.02147317,0.04668516,-0.4080851,-0.01288742,0,0,-0.6953086000000001,-0.01,0.08,-0.36,0
8775,17191312,1,0.97,-0.96,14.75,0.02109691,0.04738824,-0.4092378,-0.01146523,0,0,-0.6952022,-0.01,0.08,-0.36,0
8819,17201322,1,0.97,-0.96,14.76,0.01962506,0.04742434,-0.4066222,-0.01073272,0,0,-0.6952409000000001,-0.01,0.08,-0.36,0
8860,17211337,1,0.98,-0.97,14.76,0.01859748,0.04710592,-0.406199,-0.009116137,0,0,-0.69929,-0.01,0.08,-0.36,0
8900,17221831,1,0.98,-0.97,14.77,0.017871,0.04436035,-0.4054305,-0.01202878,0,0,-0.6994988,-0.01,0.08,-0.36,0
8942,17231953,1,0.97,-0.97,14.78,0.01775528,0.04330432,-0.4027661,-0.01953209,0,0,-0.6998053,-0.01,0.08,-0.36,0
8979,17241895,1,0.96,-0.97,14.79,0.01788309,0.04490057,-0.4019357,-0.02814385,0,0,-0.7038249,-0.01,0.08,-0.36,0
9017,17252026,1,0.97,-0.97,14.8,0.01786657,0.04487034,-0.401346,-0.03867581,0,0,-0.7043007999999999,-0.01,0.08,-0.35,0
9058,17262171,1,0.98,-0.96,14.81,0.0160446,0.04149316,-0.4009307,-0.04412769,0,0,-0.7045909,-0.01,0.08,-0.36,0
9098,17271940,1,0.96,-0.96,14.82,0.015007,0.04042001,-0.399252,-0.05320492,0,0,-0.7049623,-0.01,0.08,-0.35,0
9139,17282333,1,0.95,-0.96,14.83,0.01419741,0.04280362,-0.4011949,-0.06605247,0,0,-0.7089674,-0.01,0.08,-0.35,0
9179,17292334,1,0.95,-0.96,14.83,0.01576495,0.04640783,-0.4004955,-0.07480410999999999,0,0,-0.7095267,-0.01,0.08,-0.35,0
9224,17302178,1,0.96,-0.95,14.83,0.01418867,0.04347052,-0.4010672,-0.08634131,0,0,-0.7102138,-0.01,0.08,-0.35,0
9259,17332288,1,0.95,-0.95,14.82,0.01365006,0.04467496,-0.3981632,-0.1106513,0,0,-0.7160237,-0.01,0.08,-0.35,0
9302,17342314,1,0.95,-0.95,14.81,0.01214294,0.04174837,-0.3998334,-0.1204007,0,0,-0.7170209,-0.01,0.08,-0.36,0
9339,17352275,1,0.95,-0.97,14.82,0.009982036999999999,0.04407234,-0.3963369,-0.1321528,0,0,-0.7210405,-0.01,0.08,-0.36,0
9377,17362262,1,0.95,-0.97,14.82,0.01214046,0.04251616,-0.3932809,-0.1369129,0,0,-0.7205709,-0.01,0.08,-0.35,0
9418,17372317,1,0.98,-0.97,14.83,0.01142149,0.04514955,-0.3951046,-0.1429749,0,0,-0.7202941,-0.01,0.08,-0.35,0
9458,17381964,1,0.97,-0.97,14.83,0.01196678,0.04360511,-0.3965606,-0.149536,0,0,-0.7242009,-0.01,0.08,-0.35,0
9500,17392267,1,0.96,-0.98,14.83,0.008596408999999999,0.04492452,-0.3942972,-0.1488642,0,0,-0.7240731,-0.01,0.08,-0.35,0
9544,17402208,1,0.96,-0.98,14.84,0.007850698999999999,0.04631352,-0.3923872,-0.1551129,0,0,-0.7279799,-0.01,0.08,-0.35,0
9585,17412031,1,0.99,-0.97,14.85,0.01077022,0.04416661,-0.3950511,-0.1616807,0,0,-0.7279648,-0.01,0.08,-0.34,0
9625,17422182,1,1,-0.98,14.86,0.0119516,0.04240543,-0.3878314,-0.1595494,0,0,-0.7280927,-0.01,0.08,-0.34,0
9668,17432301,1,0.99,-0.96,14.86,0.01082192,0.04207746,-0.3909849,-0.1652617,0,0,-0.7319598,-0.01,0.08,-0.34,0
9709,17442289,1,1,-0.97,14.87,0.01370929,0.04520974,-0.3860816,-0.1607329,0,0,-0.7322253,-0.01,0.08,-0.34,0
9746,17452180,1,0.99,-0.96,14.86,0.01558821,0.04468823,-0.3858629,-0.1605783,0,0,-0.7326605,-0.01,0.08,-0.34,0
9788,17464830,1,0.99,-0.99,14.87,0.009468582,0.04365849,-0.3831942,-0.1590656,0,0,-0.7323641,-0.01,0.08,-0.34,0
9829,17474726,1,0.99,-0.96,14.86,0.0129878,0.04023805,-0.3847693,-0.1562835,0,0,-0.7313693999999999,-0.01,0.08,-0.34,0
9869,17484841,1,0.99,-0.97,14.86,0.01020576,0.04194983,-0.3802034,-0.1368731,0,0,-0.7355924,-0.01,0.08,-0.34,0
9910,17494839,1,0.99,-0.96,14.85,0.007462536,0.04069895,-0.3809347,-0.1249996,0,0,-0.7348119,-0.01,0.08,-0.34,0
9956,17504875,1,1,-0.96,14.86,0.01085128,0.04076048,-0.3764758,-0.1193834,0,0,-0.7339033,-0.01,0.08,-0.34,0
9998,17514822,1,0.99,-0.9399999999999999,14.86,0.009220242,0.03982302,-0.3763746,-0.1090661,0,0,-0.7379822,-0.01,0.08,-0.34,0
10038,17524828,1,0.98,-0.95,14.86,0.01140581,0.04471436,-0.3703911,-0.09559397,0,0,-0.7371751,-0.01,0.08,-0.34,0
10079,17534946,1,0.97,-0.9399999999999999,14.88,0.01037548,0.04223789,-0.3678166,-0.08585391000000001,0,0,-0.7372,-0.01,0.08,-0.34,0
10118,17544839,1,0.98,-0.9399999999999999,14.87,0.01217721,0.04062568,-0.3644243,-0.0701584,0,0,-0.7354425999999999,-0.01,0.08,-0.34,0
10157,17554817,1,0.96,-0.92,14.9,0.009774921000000001,0.0401779,-0.3622536,-0.06127902,0,0,-0.7338237,-0.01,0.08,-0.34,0
10198,17565247,1,0.96,-0.92,14.89,0.009654149000000001,0.04307964,-0.3595984,-0.04431487,0,0,-0.73251,-0.01,0.08,-0.34,0
10238,17575299,1,0.96,-0.9,14.91,0.00671253,0.0460644,-0.3550823,-0.02039534,0,0,-0.7360831,-0.01,0.08,-0.34,0
10280,17585279,1,0.96,-0.91,14.9,0.01048238,0.04308746,-0.3560952,-0.00605186,0,0,-0.7349347000000001,-0.01,0.08,-0.35,0
10320,17595272,1,0.96,-0.89,14.92,0.01190837,0.04375792,-0.354733,0.006300042,0,0,-0.7339212000000001,-0.01,0.08,-0.35,0
10366,17605304,1,0.9399999999999999,-0.9,14.91,0.01034498,0.04595504,-0.3560944,0.01360489,0,0,-0.7331274,-0.01,0.08,-0.35,0
10407,17615278,1,0.93,-0.89,14.92,0.00457281,0.04800699,-0.3513631,0.02194997,0,0,-0.732476,-0.01,0.08,-0.35,0
10447,17625286,1,0.93,-0.9,14.91,0.005351202,0.04822449,-0.3561414,0.02381663,0,0,-0.7360463,-0.01,0.08,-0.35,0
10489,17635291,1,0.93,-0.89,14.92,0.004153036,0.04556156,-0.3527572,0.03007895,0,0,-0.7356406,-0.01,0.08,-0.35,0
10526,17648058,1,0.9399999999999999,-0.91,14.91,0.00264532,0.03773097,-0.3564793,0.01860369,0,0,-0.7348464,-0.01,0.08,-0.34,0
10568,17658071,1,0.9399999999999999,-0.88,14.92,0.002156337,0.04102778,-0.3566197,0.01339257,0,0,-0.7331287,-0.01,0.08,-0.34,0
10610,17668118,1,0.93,-0.9,14.91,0.003472648,0.03797774,-0.3531511,0.02198634,0,0,-0.7367285,-0.01,0.08,-0.34,0
10651,17678236,1,0.93,-0.87,14.92,0.002384718,0.03830156,-0.3565044,0.02392953,0,0,-0.7352041,-0.01,0.08,-0.34,0
10692,17688068,1,0.92,-0.9,14.92,0.002143599,0.03490147,-0.3527138,0.02666087,0,0,-0.7339592,-0.01,0.08,-0.34,0
10735,17698104,1,0.9399999999999999,-0.88,14.93,-0.00119566,0.03629176,-0.354769,0.02166205,0,0,-0.7328553,-0.01,0.08,-0.34,0
10778,17708841,1,0.95,-0.89,14.92,-0.000528979,0.03269955,-0.354343,0.02546515,0,0,-0.7364274,-0.01,0.08,-0.34,0
10818,17719051,1,0.97,-0.87,14.94,-0.004259794,0.03279668,-0.3621184,0.01238855,0,0,-0.7357887,-0.01,0.08,-0.34,0
10859,17728934,1,0.95,-0.91,14.93,-0.007596983,0.03370506,-0.3548037,0.01587966,0,0,-0.7351579,-0.01,0.08,-0.34,0
10902,17739017,1,0.97,-0.88,14.95,-0.006153334,0.03280373,-0.3600842,0.00460722,0,0,-0.7346036,-0.01,0.08,-0.34,0
10942,17752065,1,0.91,-0.92,14.96,-0.01326372,0.03953064,-0.3491653,0.01611364,0,0,-0.7334024,-0.01,0.08,-0.34,0
10985,17761688,1,0.91,-0.87,14.96,-0.01611221,0.0408444,-0.3559898,0.01155556,0,0,-0.7316441,-0.01,0.08,-0.34,0
11025,17771973,1,0.9,-0.93,14.97,-0.01761776,0.04419829,-0.3471838,0.03036646,0,0,-0.7351592,-0.01,0.08,-0.34,0
11066,17781902,1,0.9399999999999999,-0.88,14.97,-0.01601039,0.04699324,-0.3552345,0.01283688,0,0,-0.7335583,-0.01,0.08,-0.34,0
11106,17791997,1,0.91,-0.91,14.98,-0.0114372,0.04469328,-0.3443463,0.02456563,0,0,-0.7370748,-0.01,0.08,-0.34,0
11154,17801832,1,0.91,-0.85,14.96,-0.0138767,0.04454806,-0.3524579,0.01594617,0,0,-0.7356462,-0.01,0.08,-0.34,0
11195,17812005,1,0.9,-0.9,14.98,-0.01595512,0.04565708,-0.3377956,0.03112432,0,0,-0.7344837,-0.01,0.08,-0.34,0
11235,17821889,1,0.93,-0.86,14.97,-0.01666181,0.05052964,-0.3487725,0.01835323,0,0,-0.7334751,-0.01,0.08,-0.34,0
11277,17831973,1,0.9,-0.87,14.98,-0.01254959,0.04851367,-0.3358997,0.03045503,0,0,-0.7369226,-0.01,0.08,-0.34,0
11317,17841880,1,0.91,-0.84,14.96,-0.01174918,0.04825901,-0.3442426,0.01370563,0,0,-0.7360429000000001,-0.01,0.08,-0.34,0
11355,17852321,1,0.9,-0.86,14.99,-0.009811264,0.05537817,-0.3300657,0.02332287,0,0,-0.7340424,-0.01,0.08,-0.34,0
11396,17862195,1,0.92,-0.84,14.97,-0.01141112,0.05881887,-0.339402,0.01341477,0,0,-0.737397,-0.01,0.08,-0.34,0
11440,17874698,1,0.9399999999999999,-0.86,14.99,-0.003492019,0.05086415,-0.3326899,0.004550028,0,0,-0.7359083,-0.01,0.08,-0.33,0
11481,17884733,1,0.9399999999999999,-0.87,14.97,-0.005168641,0.05197698,-0.3347696,-0.003252578,0,0,-0.7340359,-0.01,0.08,-0.34,0
11523,17894752,1,0.9399999999999999,-0.87,15,-0.005088606,0.05438433,-0.3297448,0.007119793,0,0,-0.7373577,-0.01,0.08,-0.34,0
11568,17904782,1,0.95,-0.86,14.99,-0.006561617,0.05461396,-0.3341249,0.006604559,0,0,-0.7356698,-0.01,0.08,-0.34,0
11609,17914834,1,0.96,-0.87,15.01,-0.0044534,0.04906456,-0.3309449,0.0147829,0,0,-0.7341684000000001,-0.01,0.08,-0.34,0
11649,17924848,1,0.93,-0.85,14.99,-0.005735331,0.04932593,-0.3333952,0.01491936,0,0,-0.7329376,-0.01,0.08,-0.34,0
11690,17934845,1,0.95,-0.85,15.01,-0.008222976,0.05078145,-0.3311589,0.02054061,0,0,-0.7362343,-0.01,0.08,-0.34,0
11732,17944786,1,0.95,-0.84,15,-0.008751226000000001,0.05244568,-0.3319327,0.01669106,0,0,-0.735204,-0.01,0.08,-0.33,0
11770,17955041,1,0.98,-0.83,15.01,-0.007733386,0.0449399,-0.331687,0.01481368,0,0,-0.7332724,-0.01,0.08,-0.34,0
11811,17965109,1,0.95,-0.84,14.99,-0.009224695999999999,0.04530223,-0.3268083,0.01860336,0,0,-0.7313246,-0.01,0.08,-0.34,0
11854,17975793,1,0.96,-0.83,15.01,-0.01077578,0.04628119,-0.3297034,0.02386096,0,0,-0.7345556,-0.01,0.08,-0.34,0
11895,17985434,1,0.95,-0.84,15,-0.009453204999999999,0.04630579,-0.3261814,0.03489041,0,0,-0.7327669,-0.01,0.08,-0.34,0
11937,17995660,1,0.96,-0.83,15.01,-0.01082547,0.04339786,-0.3267558,0.04268685,0,0,-0.7311898,-0.01,0.08,-0.34,0
11982,18005724,1,0.9399999999999999,-0.85,15,-0.01048984,0.04406937,-0.3209821,0.05544538,0,0,-0.7298337,-0.01,0.08,-0.34,0
12022,18015654,1,0.95,-0.85,15.03,-0.01206609,0.04567044,-0.3195642,0.05908276,0,0,-0.728618,-0.01,0.08,-0.34,0
12064,18025663,1,0.95,-0.87,15.01,-0.01278833,0.04540203,-0.3169126,0.06215375,0,0,-0.7276203999999999,-0.01,0.08,-0.34,0
12108,18040934,1,0.9,-0.82,15.03,-0.01840873,0.05618604,-0.3140568,0.06668448,0,0,-0.7266853,-0.01,0.08,-0.34,0
12149,18050829,1,0.88,-0.86,15.05,-0.01856119,0.0594324,-0.3047477,0.07905357,0,0,-0.7297867,-0.01,0.08,-0.34,0
12189,18060932,1,0.88,-0.8,15.04,-0.01674735,0.06210955,-0.3105373,0.07514680999999999,0,0,-0.7275329,-0.01,0.08,-0.34,0
12232,18070795,1,0.88,-0.83,15.06,-0.0138097,0.06083629,-0.2979639,0.09095861,0,0,-0.7254154,-0.01,0.08,-0.34,0
12272,18080929,1,0.88,-0.79,15.05,-0.01670044,0.06501401,-0.3067505,0.0783629,0,0,-0.7235646999999999,-0.01,0.08,-0.34,0
12314,18090826,1,0.87,-0.84,15.07,-0.01640507,0.06499739,-0.2978287,0.09025150999999999,0,0,-0.726896,-0.01,0.08,-0.34,0
12357,18100834,1,0.91,-0.8100000000000001,15.04,-0.0204573,0.07072315999999999,-0.305769,0.08282021000000001,0,0,-0.7249163,-0.01,0.08,-0.34,0
12399,18110926,1,0.89,-0.84,15.07,-0.01943463,0.06566104,-0.2915937,0.09662279,0,0,-0.7234538,-0.01,0.08,-0.34,0
12445,18123332,1,0.92,-0.84,15.03,-0.01683589,0.05172265,-0.2996129,0.08238265,0,0,-0.7230486,-0.01,0.08,-0.34,0
12485,18133295,1,0.92,-0.83,15.07,-0.01826523,0.05752644,-0.2936445,0.08584411,0,0,-0.7218628,-0.01,0.08,-0.34,0
12530,18145928,1,0.89,-0.86,15.05,-0.02521093,0.05872563,-0.2877385,0.08901144,0,0,-0.7201579,-0.01,0.08,-0.34,0
12567,18156215,1,0.89,-0.8100000000000001,15.06,-0.02595729,0.05499313,-0.2930372,0.08098073,0,0,-0.7177497,-0.01,0.08,-0.33,0
12608,18166768,1,0.86,-0.85,15.06,-0.02947016,0.0577081,-0.285297,0.09480537999999999,0,0,-0.7206437999999999,-0.01,0.08,-0.33,0
12649,18176711,1,0.88,-0.8,15.06,-0.03059211,0.06501758000000001,-0.2884093,0.08456710000000001,0,0,-0.7186955,-0.01,0.08,-0.33,0
12691,18186724,1,0.85,-0.84,15.06,-0.02863543,0.05974551,-0.2806708,0.08695409,0,0,-0.7164505,-0.01,0.08,-0.33,0
12732,18196753,1,0.85,-0.79,15.06,-0.03062613,0.06017297,-0.2884124,0.08203401,0,0,-0.7193337,-0.01,0.08,-0.33,0
12776,18206777,1,0.83,-0.83,15.07,-0.03054817,0.06233536,-0.2798216,0.09068833,0,0,-0.7174839,-0.01,0.08,-0.33,0
12817,18216745,1,0.83,-0.79,15.07,-0.03255326,0.06628025999999999,-0.2842411,0.08020943,0,0,-0.7158785,-0.01,0.08,-0.33,0
12857,18226701,1,0.84,-0.85,15.07,-0.02950655,0.06460920000000001,-0.2752126,0.08892759,0,0,-0.7147391,-0.01,0.08,-0.33,0
12899,18236745,1,0.85,-0.79,15.06,-0.03455915,0.06234566,-0.2822451,0.07855017,0,0,-0.7132522,-0.01,0.08,-0.33,0
12937,18247430,1,0.84,-0.84,15.07,-0.03282694,0.06753997,-0.2762854,0.08490532000000001,0,0,-0.7163317,-0.01,0.08,-0.33,0
12974,18257095,1,0.87,-0.79,15.06,-0.03452441,0.06713571,-0.2804893,0.0814124,0,0,-0.7140672,-0.01,0.08,-0.33,0
13015,18267466,1,0.88,-0.83,15.07,-0.03205798,0.06388168,-0.275809,0.08976219000000001,0,0,-0.7120212,-0.01,0.08,-0.33,0
13056,18277456,1,0.88,-0.78,15.06,-0.03215858,0.06149403,-0.2768097,0.09207331000000001,0,0,-0.7102109,-0.01,0.08,-0.33,0
13098,18287464,1,0.89,-0.8100000000000001,15.08,-0.03207978,0.06197466,-0.2744446,0.09417054,0,0,-0.7085803000000001,-0.01,0.08,-0.33,0
13138,18297546,1,0.89,-0.77,15.06,-0.03245625,0.06148513,-0.2755953,0.09296964000000001,0,0,-0.7113531,-0.01,0.08,-0.33,0
13183,18307378,1,0.9,-0.79,15.08,-0.03304535,0.05701908,-0.2752476,0.09003491,0,0,-0.7099088,-0.01,0.08,-0.33,0
13223,18317475,1,0.89,-0.77,15.06,-0.03403206,0.05472542,-0.274551,0.08691293999999999,0,0,-0.7086462,-0.01,0.08,-0.33,0
13266,18327391,1,0.89,-0.79,15.08,-0.03545926,0.05504476,-0.2699555,0.0851441,0,0,-0.707572,-0.01,0.08,-0.33,0
13307,18337672,1,0.88,-0.76,15.07,-0.0374314,0.05621893,-0.2724685,0.07882137,0,0,-0.7066301,-0.01,0.08,-0.34,0
13345,18350608,1,0.89,-0.78,15.09,-0.0370509,0.05245894,-0.2685645,0.07991962,0,0,-0.7050683,-0.01,0.08,-0.33,0
13385,18360770,1,0.87,-0.79,15.06,-0.03816169,0.05433634,-0.2745469,0.07226165,0,0,-0.707768,-0.01,0.08,-0.33,0
13426,18370774,1,0.87,-0.78,15.09,-0.03953064,0.05661698,-0.2684557,0.07638898,0,0,-0.7055603,-0.01,0.08,-0.33,0
13468,18380739,1,0.87,-0.8,15.06,-0.03928982,0.0549551,-0.2713621,0.07358982,0,0,-0.7036255,-0.01,0.08,-0.33,0
13508,18390816,1,0.88,-0.79,15.09,-0.04176331,0.05340137,-0.266288,0.07413140999999999,0,0,-0.7062715000000001,-0.01,0.08,-0.33,0
13550,18400938,1,0.86,-0.82,15.06,-0.04357864,0.0545638,-0.2655891,0.07001274,0,0,-0.7044612,-0.01,0.08,-0.33,0
13594,18411097,1,0.87,-0.79,15.09,-0.04353463,0.0563793,-0.2624512,0.06986000000000001,0,0,-0.702792,-0.01,0.08,-0.33,0
13634,18420915,1,0.88,-0.8100000000000001,15.07,-0.0424796,0.05441849,-0.2642122,0.06348515,0,0,-0.701363,-0.01,0.08,-0.33,0
13675,18430809,1,0.89,-0.78,15.09,-0.04380624,0.05214017,-0.2622896,0.06271933,0,0,-0.7039489,-0.01,0.08,-0.33,0
13716,18440934,1,0.88,-0.8,15.07,-0.04923972,0.0517442,-0.2612869,0.05604023,0,0,-0.7026333,-0.01,0.08,-0.33,0
13754,18450746,1,0.9,-0.77,15.09,-0.04908874,0.05396724,-0.2595973,0.04928725,0,0,-0.7014949,-0.01,0.08,-0.33,0
13794,18461007,1,0.9,-0.8100000000000001,15.07,-0.0496254,0.0519741,-0.263289,0.03962936,0,0,-0.7041152000000001,-0.01,0.08,-0.33,0
13832,18471689,1,0.91,-0.78,15.08,-0.05242054,0.05015696,-0.2595488,0.03664757,0,0,-0.7030185,-0.01,0.08,-0.32,0
13873,18481669,1,0.9,-0.83,15.08,-0.0520345,0.05082827,-0.2575173,0.03339118,0,0,-0.7018105,-0.01,0.08,-0.32,0
13915,18491689,1,0.9,-0.79,15.08,-0.04973894,0.05391787,-0.2552531,0.03073918,0,0,-0.7007553,-0.01,0.08,-0.32,0
13957,18501715,1,0.89,-0.83,15.07,-0.04931881,0.05107298,-0.2548852,0.02646261,0,0,-0.7033175,-0.01,0.08,-0.32,0
14002,18511453,1,0.88,-0.79,15.07,-0.05028307,0.05179798,-0.2571834,0.01827526,0,0,-0.7024029000000001,-0.01,0.08,-0.32,0
14043,18521682,1,0.87,-0.82,15.07,-0.05099137,0.052405,-0.2542417,0.0163232,0,0,-0.7016675999999999,-0.01,0.08,-0.32,0
14086,18531865,1,0.86,-0.77,15.07,-0.04954569,0.05505975,-0.2526759,0.01168579,0,0,-0.7010776,-0.01,0.08,-0.32,0
14126,18541602,1,0.86,-0.79,15.08,-0.04863146,0.05173067,-0.2504603,0.00771912,0,0,-0.7006177,-0.01,0.08,-0.32,0
14167,18554622,1,0.85,-0.75,15.07,-0.0471385,0.05110746,-0.251374,0.004017137,0,0,-0.6994019,-0.01,0.08,-0.32,0
14208,18564272,1,0.85,-0.76,15.09,-0.04689618,0.05135862,-0.2462802,0.009708745,0,0,-0.6976734999999999,-0.01,0.08,-0.32,0
14249,18574840,1,0.86,-0.75,15.06,-0.04739508,0.05273585,-0.2489468,0.01469204,0,0,-0.7001448,-0.01,0.08,-0.32,0
14289,18584834,1,0.88,-0.75,15.08,-0.0470487,0.05083661,-0.2427053,0.01755145,0,0,-0.6985362000000001,-0.01,0.08,-0.32,0
14331,18594856,1,0.88,-0.75,15.06,-0.04999385,0.05148018,-0.2467878,0.01263288,0,0,-0.6971232000000001,-0.01,0.08,-0.32,0
14375,18604878,1,0.91,-0.76,15.07,-0.05019419,0.05346626,-0.2408481,0.02366662,0,0,-0.6995522,-0.01,0.08,-0.32,0
14418,18614835,1,0.92,-0.76,15.05,-0.04907122,0.05287829,-0.2463548,0.02083123,0,0,-0.698296,-0.01,0.08,-0.32,0
14459,18624873,1,0.9399999999999999,-0.76,15.07,-0.04923982,0.04929651,-0.2418645,0.03037352,0,0,-0.6971934,-0.01,0.08,-0.32,0
14499,18634838,1,0.93,-0.77,15.05,-0.05106122,0.04985942,-0.247795,0.02099122,0,0,-0.6996562,-0.01,0.08,-0.32,0
14541,18644854,1,0.9399999999999999,-0.76,15.07,-0.05352277,0.04966285,-0.2418689,0.01972946,0,0,-0.6986596,-0.01,0.08,-0.32,0
14578,18655141,1,0.93,-0.78,15.04,-0.05670244,0.04791976,-0.2475507,0.002775102,0,0,-0.6980961999999999,-0.01,0.08,-0.31,0
14620,18665806,1,0.9399999999999999,-0.75,15.06,-0.05853818,0.04486023,-0.246012,3.302563e-05,0,0,-0.7005162,-0.01,0.08,-0.31,0
14661,18676063,1,0.9,-0.78,15.04,-0.06139985,0.04535687,-0.244119,0.001012812,0,0,-0.698483,-0.01,0.08,-0.31,0
14701,18686131,1,0.89,-0.75,15.05,-0.06099681,0.05054432,-0.2418856,0.006496552,0,0,-0.6963761000000001,-0.01,0.08,-0.31,0
14742,18696038,1,0.88,-0.78,15.03,-0.0592744,0.04747971,-0.2400045,0.01799463,0,0,-0.6945014,-0.01,0.08,-0.31,0
14786,18706058,1,0.88,-0.76,15.04,-0.05942528,0.04919194,-0.2402641,0.02712828,0,0,-0.6927918,-0.01,0.08,-0.31,0
14828,18715877,1,0.86,-0.79,15.03,-0.06198372,0.05005559,-0.2383725,0.03535087,0,0,-0.6913165,-0.01,0.08,-0.31,0
14869,18726241,1,0.87,-0.76,15.04,-0.06031193,0.0534526,-0.2359813,0.04751547,0,0,-0.6936511,-0.01,0.08,-0.31,0
14912,18736292,1,0.88,-0.79,15.02,-0.05931003,0.0490597,-0.2370938,0.05206812,0,0,-0.6923274,-0.01,0.08,-0.31,0
14954,18746254,1,0.89,-0.76,15.02,-0.06050452,0.04835126,-0.2324829,0.06064106,0,0,-0.6911438,-0.01,0.08,-0.31,0
14988,18756638,1,0.89,-0.79,15.01,-0.06236316,0.04984846,-0.2348168,0.0613988,0,0,-0.6890491,-0.01,0.08,-0.31,0
15028,18766246,1,0.9,-0.76,15.02,-0.06024396,0.05071999,-0.2291033,0.07334192,0,0,-0.6871489,-0.01,0.08,-0.31,0
15068,18776250,1,0.91,-0.79,15.01,-0.06056827,0.04691552,-0.2328133,0.07508595,0,0,-0.6854718,-0.01,0.08,-0.31,0
15108,18786726,1,0.92,-0.75,15.01,-0.06152055,0.04664984,-0.2295368,0.08723656,0,0,-0.6878009,-0.01,0.08,-0.31,0
15150,18796778,1,0.93,-0.77,15.02,-0.06250969000000001,0.04785873,-0.2288601,0.09212852000000001,0,0,-0.6862536,-0.01,0.08,-0.31,0
15195,18806757,1,0.92,-0.74,15.01,-0.0608333,0.04892877,-0.222247,0.0962943,0,0,-0.6848579,-0.01,0.08,-0.31,0
15238,18816750,1,0.92,-0.76,15.02,-0.06160514,0.04457668,-0.2240825,0.09471022,0,0,-0.6836362,-0.01,0.08,-0.31,0
15279,18826745,1,0.91,-0.73,15.01,-0.06214467,0.04302345,-0.2242621,0.0937627,0,0,-0.6858816,-0.01,0.08,-0.31,0
15321,18836716,1,0.9,-0.76,15.02,-0.06377103000000001,0.04456743,-0.2250535,0.08892815,0,0,-0.6848333,-0.01,0.08,-0.31,0
15361,18846770,1,0.87,-0.74,15.01,-0.06338858999999999,0.04738281,-0.2217554,0.08985163,0,0,-0.683898,-0.01,0.08,-0.31,0
15396,18857144,1,0.87,-0.76,15.02,-0.06604382,0.04963246,-0.2219748,0.087048,0,0,-0.6818112,-0.01,0.08,-0.31,0
15437,18867064,1,0.84,-0.73,15.01,-0.06776488999999999,0.04992545,-0.2208258,0.08874141000000001,0,0,-0.6796836000000001,-0.01,0.08,-0.31,0
15477,18877102,1,0.84,-0.74,15.03,-0.06906023999999999,0.05161772,-0.2170206,0.09314461,0,0,-0.6819059,-0.01,0.08,-0.31,0
15518,18887186,1,0.84,-0.73,15.01,-0.06923037999999999,0.05298077,-0.2177152,0.09360787,0,0,-0.6799248,-0.01,0.08,-0.31,0
15560,18897094,1,0.86,-0.73,15.03,-0.06926122999999999,0.05161763,-0.2124109,0.09547327,0,0,-0.6781049,-0.01,0.08,-0.31,0
15603,18907734,1,0.87,-0.72,15.01,-0.07134618,0.05136175,-0.2132468,0.09130074000000001,0,0,-0.6802053,-0.01,0.08,-0.31,0
15645,18918233,1,0.89,-0.71,15.03,-0.07247169000000001,0.05214256,-0.211684,0.08372206,0,0,-0.6785439,-0.01,0.08,-0.31,0
15685,18927944,1,0.9,-0.72,15.01,-0.06999474,0.05289973,-0.2130973,0.07622574,0,0,-0.676971,-0.01,0.08,-0.31,0
15729,18938134,1,0.92,-0.72,15.03,-0.07042183,0.05084433,-0.2094154,0.07509602999999999,0,0,-0.6756458,-0.01,0.08,-0.31,0
15770,18950849,1,0.92,-0.73,15.02,-0.06490600000000001,0.0499946,-0.2112521,0.06896173999999999,0,0,-0.6752097,-0.01,0.08,-0.31,0
15811,18960868,1,0.93,-0.71,15.04,-0.06125015,0.05113832,-0.2033207,0.07514042,0,0,-0.6773067,-0.01,0.08,-0.31,0
15848,18971103,1,0.9399999999999999,-0.74,15.04,-0.06031201,0.04950515,-0.2119722,0.06761331,0,0,-0.6750074,-0.01,0.08,-0.31,0
15889,18981030,1,0.92,-0.71,15.04,-0.06067695,0.04770059,-0.2019502,0.07914772,0,0,-0.6729136999999999,-0.01,0.08,-0.31,0
15932,18991066,1,0.91,-0.75,15.05,-0.06453433,0.04759689,-0.2114759,0.07234135,0,0,-0.671028,-0.01,0.08,-0.31,0
15972,19000938,1,0.9,-0.71,15.05,-0.0618579,0.04848123,-0.2011643,0.08336167999999999,0,0,-0.6693029,-0.01,0.08,-0.31,0
16018,19010910,1,0.9,-0.75,15.06,-0.06577618,0.04783088,-0.2119501,0.07778673999999999,0,0,-0.6713872,-0.01,0.08,-0.31,0
16058,19021161,1,0.88,-0.72,15.04,-0.06753051,0.04537271,-0.2021452,0.09084289,0,0,-0.6698518999999999,-0.01,0.08,-0.31,0
16099,19031037,1,0.88,-0.75,15.06,-0.07157456,0.04608607,-0.2086726,0.08472241,0,0,-0.6684751,-0.01,0.08,-0.31,0
16142,19040932,1,0.86,-0.72,15.04,-0.06936128,0.04821885,-0.1977217,0.094558,0,0,-0.667218,-0.01,0.08,-0.31,0
16179,19053899,1,0.88,-0.73,15.06,-0.07328612,0.05040011,-0.1997807,0.09134117,0,0,-0.6655864,-0.01,0.08,-0.31,0
16220,19063890,1,0.87,-0.74,15.03,-0.07622946,0.05088094,-0.1980637,0.09129258,0,0,-0.6635049,-0.01,0.08,-0.31,0
16260,19074099,1,0.89,-0.72,15.07,-0.07743585,0.05106689,-0.1971836,0.09671074,0,0,-0.6654888,-0.01,0.08,-0.31,0
16301,19084040,1,0.9,-0.74,15.04,-0.07641388,0.05213763,-0.198563,0.09879103,0,0,-0.6635729,-0.01,0.08,-0.31,0
16343,19094080,1,0.92,-0.72,15.07,-0.07525527,0.04986539,-0.19157,0.1071731,0,0,-0.6618806,-0.01,0.08,-0.31,0
16384,19104077,1,0.93,-0.74,15.04,-0.07751884000000001,0.05164488,-0.1964269,0.1027681,0,0,-0.6602846,-0.01,0.08,-0.31,0
16429,19114033,1,0.9399999999999999,-0.72,15.06,-0.07625568000000001,0.05115719,-0.1899652,0.1075886,0,0,-0.6622506,-0.01,0.08,-0.31,0
16469,19124095,1,0.95,-0.73,15.05,-0.07754865,0.05098982,-0.1939555,0.1010707,0,0,-0.660782,-0.01,0.08,-0.31,0
16511,19134078,1,0.95,-0.7,15.06,-0.07626416,0.04804193,-0.18425,0.1063995,0,0,-0.6595051,-0.01,0.08,-0.31,0
16554,19144033,1,0.93,-0.72,15.05,-0.07895596000000001,0.04691835,-0.1911851,0.09017849999999999,0,0,-0.658288,-0.01,0.08,-0.31,0
16595,19159470,1,0.9,-0.7,15.05,-0.08119345,0.05074153,-0.1823079,0.09117363000000001,0,0,-0.6581476000000001,-0.01,0.08,-0.31,0
16635,19169458,1,0.91,-0.72,15.08,-0.07939923,0.04992237,-0.1863219,0.07866484999999999,0,0,-0.6572559,-0.01,0.08,-0.31,0
16677,19180023,1,0.87,-0.71,15.04,-0.08095317,0.05205851,-0.1815804,0.07824831,0,0,-0.6591097,-0.01,0.08,-0.31,0
16718,19190140,1,0.87,-0.71,15.08,-0.07939973,0.05207607,-0.1800005,0.07210962,0,0,-0.65847,-0.01,0.08,-0.31,0
16758,19200137,1,0.87,-0.71,15.05,-0.07738331,0.05135962,-0.1788895,0.06507649,0,0,-0.6577284,-0.01,0.08,-0.31,0
16802,19210154,1,0.86,-0.71,15.07,-0.07711311,0.04907655,-0.1772818,0.05504338,0,0,-0.6571555,-0.01,0.08,-0.3,0
16843,19220828,1,0.87,-0.71,15.04,-0.08031336,0.05065009,-0.1764562,0.04806559,0,0,-0.6589217000000001,-0.01,0.08,-0.3,0
16885,19230830,1,0.87,-0.71,15.07,-0.08119469999999999,0.05233707,-0.1763335,0.0393239,0,0,-0.6584082,-0.01,0.08,-0.3,0
16926,19240864,1,0.91,-0.7,15.04,-0.07920268,0.05154322,-0.1817115,0.02379459,0,0,-0.6581787,-0.01,0.08,-0.3,0
16966,19251191,1,0.92,-0.6899999999999999,15.07,-0.07889504999999999,0.04779576,-0.1762745,0.02036085,0,0,-0.6579105,-0.01,0.08,-0.31,0
17004,19264067,1,0.93,-0.72,15.06,-0.08623481,0.04425374,-0.1821156,0.005710567,0,0,-0.6566928,-0.01,0.08,-0.31,0
17049,19276242,1,0.9399999999999999,-0.6899999999999999,15.05,-0.08846379,0.0479314,-0.1730998,0.01310066,0,0,-0.6554453,-0.01,0.08,-0.31,0
17090,19286256,1,0.96,-0.71,15.07,-0.08988796,0.04478094,-0.1806333,0.005588895,0,0,-0.6540309,-0.01,0.08,-0.31,0
17131,19296206,1,0.95,-0.6899999999999999,15.05,-0.091223,0.04264134,-0.1729414,0.01866252,0,0,-0.6557731999999999,-0.01,0.08,-0.31,0
17171,19306249,1,0.96,-0.7,15.08,-0.09463433,0.0419419,-0.1812788,0.01403122,0,0,-0.6545208,-0.01,0.08,-0.31,0
17219,19318968,1,0.95,-0.67,15.06,-0.08437844,0.04245368,-0.179251,0.02353801,0,0,-0.6538367,-0.01,0.08,-0.31,0
17263,19328945,1,0.95,-0.6899999999999999,15.09,-0.08527566,0.0384461,-0.1771114,0.02999154,0,0,-0.6528341,-0.01,0.08,-0.31,0
17303,19339133,1,0.93,-0.67,15.06,-0.08121359,0.03730169,-0.1808721,0.0285117,0,0,-0.6521659,-0.01,0.08,-0.31,0
17344,19352075,1,0.9,-0.68,15.09,-0.08602527,0.03821355,-0.1721568,0.03587323,0,0,-0.6509571,-0.01,0.08,-0.31,0
17381,19361850,1,0.9,-0.67,15.08,-0.08988567,0.04104516,-0.1856339,0.0235399,0,0,-0.6527134,-0.01,0.08,-0.31,0
17422,19372118,1,0.89,-0.68,15.09,-0.09149454,0.04061466,-0.1704545,0.03965419,0,0,-0.6512734,-0.01,0.08,-0.31,0
17465,19381791,1,0.89,-0.6899999999999999,15.08,-0.09495929,0.04255404,-0.180399,0.02759064,0,0,-0.6499201999999999,-0.01,0.08,-0.3,0
17505,19391864,1,0.88,-0.67,15.08,-0.09174040999999999,0.04415085,-0.1664023,0.04167812,0,0,-0.6516322,-0.01,0.08,-0.3,0
17547,19401815,1,0.9,-0.6899999999999999,15.07,-0.09510604,0.04632606,-0.1782641,0.02304546,0,0,-0.650367,-0.01,0.08,-0.3,0
17590,19411765,1,0.9,-0.67,15.08,-0.09553581999999999,0.04324517,-0.1658127,0.03217654,0,0,-0.6520483,-0.01,0.08,-0.3,0
17632,19421839,1,0.93,-0.6899999999999999,15.08,-0.09837398999999999,0.04311654,-0.1774078,0.01542733,0,0,-0.650903,-0.01,0.08,-0.3,0
17672,19431639,1,0.93,-0.67,15.09,-0.09597865999999999,0.04314191,-0.1667419,0.02002899,0,0,-0.6525843,-0.01,0.08,-0.3,0
17713,19441820,1,0.96,-0.6899999999999999,15.09,-0.09861121,0.04391934,-0.1790099,0.003017877,0,0,-0.651567,-0.01,0.08,-0.3,0
17754,19454701,1,0.97,-0.67,15.07,-0.09803496,0.0405658,-0.1708966,0.008200102000000001,0,0,-0.6511643,-0.01,0.08,-0.3,0
17795,19464750,1,0.97,-0.6899999999999999,15.1,-0.09669569,0.03917898,-0.1706688,0.008847166,0,0,-0.6504425,-0.01,0.08,-0.3,0
17836,19474792,1,0.96,-0.66,15.08,-0.09583216,0.03945363,-0.1716456,0.003317326,0,0,-0.6521125,-0.01,0.08,-0.3,0
17878,19484912,1,0.97,-0.67,15.1,-0.09453786,0.03824794,-0.1687575,0.003314119,0,0,-0.6498632,-0.01,0.08,-0.3,0
17920,19494792,1,0.96,-0.66,15.08,-0.0965801,0.03699224,-0.171291,-0.0006210532,0,0,-0.6515338000000001,-0.01,0.08,-0.3,0
17961,19504798,1,0.95,-0.66,15.1,-0.0956858,0.03664248,-0.1686563,0.004246078,0,0,-0.6494502,-0.01,0.08,-0.28,0
18006,19514813,1,0.93,-0.65,15.07,-0.0950125,0.03848849,-0.1716588,6.223866e-05,0,0,-0.6511207,-0.01,0.08,-0.28,0
18049,19524688,1,0.92,-0.65,15.1,-0.09608572,0.03581309,-0.1666841,0.004133008,0,0,-0.6491717,-0.01,0.07000000000000001,-0.28,0
18089,19534746,1,0.91,-0.65,15.07,-0.09937359,0.0360959,-0.1711106,0.001592123,0,0,-0.6473302,-0.01,0.07000000000000001,-0.28,0
18130,19544762,1,0.91,-0.66,15.09,-0.09563853,0.03625078,-0.1662148,0.0113601,0,0,-0.6457486,-0.01,0.08,-0.28,0
18170,19557211,1,0.9,-0.66,15.07,-0.1043593,0.04387922,-0.1730513,0.01456485,0,0,-0.6447813999999999,-0.01,0.08,-0.28,0
18212,19567647,1,0.89,-0.67,15.07,-0.1049629,0.04353182,-0.1638743,0.03345289,0,0,-0.6464657,-0.01,0.08,-0.28,0
18253,19577715,1,0.9,-0.66,15.07,-0.1074994,0.04257438,-0.1717881,0.03246445,0,0,-0.6451686,-0.01,0.08,-0.28,0
18290,19587713,1,0.9,-0.67,15.07,-0.1060259,0.04318447,-0.1637208,0.04885304,0,0,-0.6429357999999999,-0.01,0.08,-0.28,0
18332,19597685,1,0.93,-0.65,15.07,-0.1088283,0.04566542,-0.1725551,0.04517567,0,0,-0.6446097,-0.01,0.08,-0.28,0
18373,19607672,1,0.93,-0.67,15.07,-0.1080355,0.04402088,-0.1627551,0.0573731,0,0,-0.6424967,-0.01,0.07000000000000001,-0.28,0
18419,19617662,1,0.9399999999999999,-0.65,15.07,-0.110209,0.04456349,-0.1688641,0.05449471,0,0,-0.6405939,-0.01,0.08,-0.28,0
18460,19627644,1,0.9399999999999999,-0.66,15.07,-0.1071273,0.04325973,-0.1601624,0.0708226,0,0,-0.6388407,-0.01,0.08,-0.28,0
18500,19638011,1,0.95,-0.65,15.07,-0.1080227,0.04375444,-0.1673327,0.07140247,0,0,-0.640482,-0.01,0.08,-0.28,0
18541,19647640,1,0.9399999999999999,-0.66,15.06,-0.1085693,0.03963495,-0.1596989,0.08393224000000001,0,0,-0.6388803,-0.01,0.08,-0.28,0
18581,19657970,1,0.9399999999999999,-0.66,15.07,-0.1102169,0.03995486,-0.163377,0.08679122,0,0,-0.6374777,-0.01,0.08,-0.28,0
18617,19668117,1,0.91,-0.65,15.06,-0.1068003,0.04116888,-0.1556799,0.09911735000000001,0,0,-0.6360174,-0.01,0.08,-0.28,0
18659,19678273,1,0.91,-0.65,15.06,-0.1062823,0.04185345,-0.1586015,0.09545004999999999,0,0,-0.6376061,-0.01,0.08,-0.28,0
18699,19688029,1,0.9,-0.64,15.05,-0.1076001,0.04012175,-0.1553252,0.09471905999999999,0,0,-0.6360576999999999,-0.01,0.08,-0.28,0
18740,19698239,1,0.89,-0.64,15.05,-0.1099117,0.04013638,-0.1568208,0.08788855,0,0,-0.6374320999999999,-0.01,0.08,-0.28,0
18783,19707940,1,0.88,-0.63,15.05,-0.1053236,0.04302719,-0.1529012,0.08604133999999999,0,0,-0.6361784,-0.01,0.07000000000000001,-0.28,0
18827,19718063,1,0.89,-0.65,15.04,-0.1053642,0.04222316,-0.1550465,0.07350305,0,0,-0.6377335,-0.01,0.07000000000000001,-0.28,0
18869,19728164,1,0.89,-0.63,15.04,-0.1057114,0.04013468,-0.1527322,0.06526319999999999,0,0,-0.6363924,-0.01,0.07000000000000001,-0.27,0
18910,19738038,1,0.9,-0.65,15.04,-0.1054497,0.03896267,-0.1540753,0.05668587,0,0,-0.6352181,-0.01,0.07000000000000001,-0.27,0
18950,19748037,1,0.89,-0.63,15.04,-0.1073072,0.04015782,-0.1504281,0.05518163,0,0,-0.6365703,-0.01,0.07000000000000001,-0.27,0
18992,19758175,1,0.9,-0.65,15.04,-0.1076466,0.03978724,-0.1516476,0.03936858,0,0,-0.6356474,0,0.07000000000000001,-0.27,0
19030,19768311,1,0.91,-0.63,15.04,-0.1090779,0.04001341,-0.1491276,0.03555483,0,0,-0.6371542,0,0.07000000000000001,-0.27,0
19070,19778335,1,0.91,-0.65,15.04,-0.1090237,0.0400477,-0.1471397,0.03233986,0,0,-0.6361737,-0.01,0.07000000000000001,-0.27,0
19111,19788671,1,0.91,-0.62,15.04,-0.1111214,0.04554312,-0.1439535,0.03689504,0,0,-0.6341935,0,0.07000000000000001,-0.27,0
19151,19798347,1,0.91,-0.65,15.05,-0.1100121,0.04334956,-0.1428018,0.03945178,0,0,-0.6323904,0,0.07000000000000001,-0.27,0
19194,19808705,1,0.92,-0.62,15.05,-0.1118914,0.04120801,-0.1398069,0.04404493,0,0,-0.630725,0,0.07000000000000001,-0.27,0
19240,19818332,1,0.9,-0.64,15.06,-0.1109119,0.03995989,-0.139533,0.05018594,0,0,-0.6292493,0,0.07000000000000001,-0.27,0
19281,19828340,1,0.9,-0.62,15.05,-0.1134193,0.04370737,-0.1386548,0.0596575,0,0,-0.6306272000000001,0,0.07000000000000001,-0.27,0
19322,19838729,1,0.89,-0.64,15.06,-0.114281,0.04192874,-0.1379242,0.06601844,0,0,-0.6292846,0,0.07000000000000001,-0.27,0
19362,19848330,1,0.89,-0.6,15.06,-0.1151389,0.03945991,-0.1347945,0.06996185000000001,0,0,-0.6280515,0,0.07000000000000001,-0.27,0
19404,19861255,1,0.88,-0.62,15.06,-0.1126625,0.03455315,-0.1347904,0.07312631,0,0,-0.6262152,0,0.07000000000000001,-0.27,0
19444,19870863,1,0.88,-0.6,15.06,-0.1136499,0.03803042,-0.1348132,0.07579497,0,0,-0.6241825,0,0.07000000000000001,-0.27,0
19485,19880923,1,0.88,-0.62,15.07,-0.1138677,0.0345035,-0.1350345,0.08350135,0,0,-0.6255365000000001,0,0.07000000000000001,-0.27,0
19526,19890848,1,0.88,-0.6,15.07,-0.1146334,0.0349521,-0.1345606,0.09097354000000001,0,0,-0.6236784,0,0.07000000000000001,-0.27,0
19567,19900904,1,0.88,-0.62,15.07,-0.115139,0.03439407,-0.1330803,0.09713156000000001,0,0,-0.6219861,0,0.07000000000000001,-0.27,0
19615,19913597,1,0.87,-0.61,15.08,-0.1164104,0.0376405,-0.1312119,0.1037797,0,0,-0.6207094,0,0.08,-0.28,0
19656,19923401,1,0.88,-0.61,15.09,-0.1171039,0.03583989,-0.1294234,0.1083891,0,0,-0.6193532,0,0.08,-0.28,0
19699,19933619,1,0.88,-0.6,15.08,-0.1171861,0.03754798,-0.1319992,0.1052951,0,0,-0.6181135,0,0.08,-0.28,0
19740,19943643,1,0.89,-0.6,15.1,-0.1180299,0.03885275,-0.1302134,0.1083764,0,0,-0.6194142,0,0.08,-0.28,0
19778,19953429,1,0.88,-0.6,15.09,-0.118182,0.03936694,-0.1302929,0.1063905,0,0,-0.6183209,0,0.08,-0.28,0
19816,19963417,1,0.91,-0.59,15.1,-0.1171981,0.03477325,-0.1273912,0.1083314,0,0,-0.6162709,0,0.08,-0.27,0
19857,19973699,1,0.88,-0.59,15.08,-0.1179298,0.03476294,-0.1251799,0.1097046,0,0,-0.6143923,0,0.08,-0.27,0
19900,19983730,1,0.9,-0.58,15.09,-0.118494,0.03652436,-0.1260227,0.1115237,0,0,-0.6126833,0,0.08,-0.27,0
19940,19993691,1,0.88,-0.59,15.08,-0.1181957,0.03926581,-0.1231798,0.1161308,0,0,-0.611114,0,0.08,-0.27,0
19982,20003427,1,0.89,-0.57,15.1,-0.1200813,0.03774101,-0.1227198,0.120382,0,0,-0.6123703,0,0.08,-0.27,0
20026,20013692,1,0.86,-0.59,15.08,-0.1201317,0.03901318,-0.1242584,0.1204209,0,0,-0.6109058000000001,0,0.08,-0.27,0
20068,20023706,1,0.86,-0.57,15.1,-0.1203736,0.04102438,-0.1207337,0.1224947,0,0,-0.6096349,0,0.08,-0.27,0
20109,20033703,1,0.85,-0.58,15.07,-0.1221837,0.03974203,-0.1228599,0.1167018,0,0,-0.6084772000000001,0,0.08,-0.27,0
20149,20043377,1,0.86,-0.57,15.09,-0.1231467,0.03859157,-0.1195776,0.1152956,0,0,-0.6074437,0,0.08,-0.27,0
20190,20053646,1,0.84,-0.58,15.06,-0.1243412,0.03821525,-0.1234415,0.1084016,0,0,-0.6086246,0,0.08,-0.27,0
20225,20063719,1,0.85,-0.57,15.08,-0.1256912,0.04139398,-0.1154764,0.1137635,0,0,-0.6066272,0,0.08,-0.28,0
20266,20073617,1,0.86,-0.58,15.06,-0.1291969,0.04002244,-0.1208089,0.1074065,0,0,-0.6047264,0,0.08,-0.28,0
20307,20083660,1,0.87,-0.5600000000000001,15.07,-0.1282759,0.03878437,-0.1106611,0.1161339,0,0,-0.6030062,0,0.08,-0.28,0
20347,20093698,1,0.87,-0.58,15.06,-0.1290547,0.04130913,-0.1190447,0.1066342,0,0,-0.6014042000000001,0,0.08,-0.28,0
20389,20103631,1,0.88,-0.5600000000000001,15.07,-0.1289932,0.04562986,-0.1091386,0.1183721,0,0,-0.6025602,0,0.08,-0.28,0
20434,20113607,1,0.89,-0.57,15.05,-0.1309888,0.04462067,-0.1172851,0.1094745,0,0,-0.6010848,0,0.08,-0.28,0
20475,20123653,1,0.88,-0.55,15.07,-0.1280729,0.04204551,-0.1078625,0.1193227,0,0,-0.5997733,0,0.08,-0.28,0
20517,20133630,1,0.88,-0.57,15.06,-0.1277413,0.04215552,-0.1160123,0.1097646,0,0,-0.5985876,0,0.08,-0.28,0
20557,20143601,1,0.88,-0.55,15.07,-0.1249859,0.04157403,-0.107121,0.114995,0,0,-0.5975487,0,0.08,-0.28,0
20601,20156012,1,0.89,-0.57,15.08,-0.1278569,0.0338204,-0.1156936,0.1034981,0,0,-0.5954432,0,0.08,-0.28,0
20638,20165908,1,0.86,-0.57,15.06,-0.1263375,0.03320617,-0.1077151,0.1100446,0,0,-0.5931385,0,0.08,-0.28,0
20678,20175888,1,0.85,-0.57,15.08,-0.1290848,0.03585846,-0.1127149,0.1097889,0,0,-0.5942619,0,0.08,-0.28,0
20718,20186003,1,0.84,-0.5600000000000001,15.06,-0.1311328,0.03992913,-0.1062134,0.1205405,0,0,-0.5921133,0,0.08,-0.28,0
20759,20196069,1,0.86,-0.5600000000000001,15.08,-0.1337559,0.03897636,-0.1093582,0.1203644,0,0,-0.5901593000000001,0,0.08,-0.28,0
20800,20205863,1,0.82,-0.55,15.07,-0.1339964,0.03922078,-0.1045471,0.1275754,0,0,-0.5883031,0,0.08,-0.28,0
20844,20215857,1,0.82,-0.55,15.09,-0.1374256,0.04394133,-0.102677,0.1295529,0,0,-0.586627,0,0.08,-0.28,0
20886,20225891,1,0.83,-0.54,15.07,-0.1391246,0.04539542,-0.1034879,0.1312526,0,0,-0.5876099,0,0.08,-0.28,0
20927,20235844,1,0.84,-0.54,15.09,-0.1374928,0.04448894,-0.1009738,0.1342702,0,0,-0.5860714,0,0.08,-0.28,0
20968,20245848,1,0.84,-0.53,15.07,-0.136877,0.04441413,-0.1019634,0.1294862,0,0,-0.5845693,0,0.08,-0.28,0
21009,20258617,1,0.83,-0.53,15.09,-0.1342924,0.05030165,-0.09534539,0.1316167,0,0,-0.5823788,0,0.08,-0.27,0
21047,20268710,1,0.84,-0.53,15.07,-0.1363112,0.04721973,-0.1030317,0.1223945,0,0,-0.5800999,0,0.08,-0.27,0
21088,20278656,1,0.85,-0.52,15.08,-0.1339493,0.04353553,-0.09479479,0.1345169,0,0,-0.5811219,0,0.08,-0.27,0
21128,20288315,1,0.85,-0.53,15.07,-0.1351373,0.04246362,-0.103673,0.1279626,0,0,-0.5789926,0,0.08,-0.27,0
21170,20298681,1,0.84,-0.52,15.09,-0.1333926,0.04374092,-0.08743723,0.1464194,0,0,-0.5770316,0,0.08,-0.27,0
21210,20308322,1,0.85,-0.52,15.07,-0.1369728,0.04160794,-0.09771758,0.1361248,0,0,-0.5751439,0,0.08,-0.27,0
21257,20318672,1,0.84,-0.51,15.09,-0.1343321,0.03651571,-0.08720942,0.145956,0,0,-0.5734498,0,0.08,-0.27,0
21298,20328722,1,0.82,-0.52,15.07,-0.1376598,0.03652255,-0.09979329000000001,0.134943,0,0,-0.5743656,0,0.08,-0.27,0
21340,20338324,1,0.8100000000000001,-0.51,15.08,-0.1357852,0.03988778,-0.08743186,0.1460665,0,0,-0.572833,0,0.08,-0.27,0
21383,20348696,1,0.82,-0.52,15.07,-0.1383887,0.03896089,-0.09924972999999999,0.133802,0,0,-0.5713825,0,0.08,-0.27,0
21420,20358335,1,0.8100000000000001,-0.51,15.07,-0.1340123,0.03660244,-0.08489896,0.1483445,0,0,-0.5689579,0,0.08,-0.27,0
21457,20368314,1,0.8100000000000001,-0.52,15.06,-0.1377777,0.03616766,-0.09697959,0.1360803,0,0,-0.566676,0,0.08,-0.27,0
21498,20378330,1,0.8,-0.51,15.05,-0.1365221,0.03765513,-0.08264849000000001,0.1506255,0,0,-0.5645524,0,0.08,-0.27,0
21538,20388337,1,0.82,-0.51,15.06,-0.140754,0.03533761,-0.09302265999999999,0.1439943,0,0,-0.5654292,0,0.08,-0.27,0
21579,20398349,1,0.8100000000000001,-0.51,15.04,-0.1362388,0.03214474,-0.08134755,0.1570494,0,0,-0.5634179,0,0.08,-0.27,0
21620,20408844,1,0.82,-0.5,15.05,-0.1390244,0.03351602,-0.09336,0.1455879,0,0,-0.5615555,0,0.08,-0.27,0
21665,20418827,1,0.82,-0.51,15.04,-0.1392006,0.03644987,-0.07991485,0.1571738,0,0,-0.5597969,0,0.08,-0.27,0
21706,20428852,1,0.86,-0.5,15.05,-0.1443903,0.03391307,-0.09221399,0.1420419,0,0,-0.5581922,0,0.08,-0.27,0
21746,20438793,1,0.84,-0.51,15.03,-0.1433832,0.03044799,-0.07962579,0.1536935,0,0,-0.5590295,0,0.08,-0.27,0
21789,20448783,1,0.86,-0.49,15.06,-0.1481705,0.03227142,-0.09306037,0.136838,0,0,-0.5575221,0,0.08,-0.27,0
21826,20461625,1,0.85,-0.5,15.04,-0.1438951,0.03247262,-0.07473385,0.1538809,0,0,-0.5548781,0,0.08,-0.27,0
21866,20471255,1,0.87,-0.49,15.05,-0.1443204,0.03122396,-0.0794261,0.1533015,0,0,-0.5522302,0,0.08,-0.27,0
21909,20481832,1,0.85,-0.5,15.03,-0.1417946,0.02792178,-0.07455388,0.1584534,0,0,-0.5496498,0,0.08,-0.27,0
21949,20491898,1,0.84,-0.48,15.05,-0.1439725,0.02983951,-0.07634837999999999,0.1585058,0,0,-0.5504706,0,0.08,-0.27,0
21991,20501844,1,0.83,-0.5,15.03,-0.146229,0.02844237,-0.07266325999999999,0.1561209,0,0,-0.5479611,0,0.08,-0.26,0
22031,20511927,1,0.83,-0.49,15.04,-0.1460053,0.02530686,-0.07316881,0.1527985,0,0,-0.5487545,0,0.08,-0.26,0
22077,20521832,1,0.82,-0.51,15.02,-0.1464078,0.02089307,-0.07573615,0.1475848,0,0,-0.5463794,0,0.08,-0.26,0
22119,20531901,1,0.8100000000000001,-0.5,15.03,-0.1477863,0.02387297,-0.07099496,0.1473044,0,0,-0.5442409,0,0.08,-0.26,0
22160,20541842,1,0.8100000000000001,-0.51,15.02,-0.1526376,0.02622963,-0.07578366,0.1390557,0,0,-0.5421416,0,0.08,-0.26,0
22201,20551887,1,0.8,-0.5,15.01,-0.1509591,0.02365836,-0.06742964999999999,0.1480273,0,0,-0.5428995,0,0.08,-0.26,0
22243,20564336,1,0.78,-0.46,15.03,-0.1552187,0.0323239,-0.07570531,0.1376755,0,0,-0.5411525,0,0.08,-0.26,0
22281,20574205,1,0.77,-0.49,15.01,-0.1549456,0.0343492,-0.06084109,0.1538863,0,0,-0.538703,0,0.08,-0.26,0
22321,20584172,1,0.8100000000000001,-0.46,15.03,-0.1562019,0.03303669,-0.07168417000000001,0.1370518,0,0,-0.5363655000000001,0,0.08,-0.26,0
22362,20594742,1,0.8,-0.49,15.01,-0.1532871,0.03005047,-0.05730986,0.1515593,0,0,-0.5370166,0,0.08,-0.26,0
22402,20604801,1,0.8100000000000001,-0.45,15.03,-0.1547316,0.03109727,-0.06719901,0.1410019,0,0,-0.5348049,0,0.08,-0.26,0
22448,20614784,1,0.8,-0.47,15.02,-0.1568241,0.03255008,-0.05488528,0.1478325,0,0,-0.5354037,0,0.08,-0.26,0
22490,20624777,1,0.82,-0.44,15.04,-0.1569109,0.02786678,-0.06634888,0.1296141,0,0,-0.5332625,0,0.08,-0.25,0
22530,20634767,1,0.8100000000000001,-0.46,15.02,-0.1550908,0.02433393,-0.0586648,0.129985,0,0,-0.5338811999999999,0,0.08,-0.25,0
22571,20644754,1,0.82,-0.44,15.04,-0.1564584,0.02242672,-0.06749425000000001,0.1153817,0,0,-0.5318617,0,0.08,-0.25,0
22613,20654736,1,0.8100000000000001,-0.46,15.03,-0.1569725,0.02305867,-0.05889556,0.1206399,0,0,-0.5299377,0,0.08,-0.25,0
22654,20664747,1,0.82,-0.43,15.05,-0.1553518,0.01931144,-0.06543949,0.1086172,0,0,-0.528201,0,0.08,-0.25,0
22691,20674786,1,0.8100000000000001,-0.45,15.04,-0.1533605,0.01745282,-0.06004153,0.1130184,0,0,-0.5288047,0,0.08,-0.25,0
22729,20684765,1,0.79,-0.43,15.06,-0.1581368,0.0191144,-0.06246546,0.1130132,0,0,-0.5256911,0,0.08,-0.25,0
