LineNo,TimeUS,C,IVN,IVE,IVD,IPN,IPE,IPD,IMX,IMY,IMZ,IYAW,IVT,RErr,ErSc
197,1.5036e+07,0,0,0,0,0,0,0.25,0,0,0,-0.36,0,0,0
300,1.507e+07,0,0,0,0,0,0,-0.1,0,0,0,-0.36,0,0,0
642,1.5132e+07,0,0,0,0,0,0,-0.1,0,0,0,-0.36,0,0,0
755,1.5148e+07,0,0,0,0,0,0,-0.1,0,0,0,-0.36,0,0,0
868,1.5164e+07,0,0,0,0,0,0,-0.1,0,0,0,-0.36,0,0,0
981,1.5181e+07,0,0,0,0,0,0,-0.1,0,0,0,-0.36,0,0,0
1212,1.5259e+07,0,0,0,0,0,0,-0.22,0,0,0,-0.36,0,0,0
1596,1.5414e+07,0,0,0,0,0,0,-0.22,0,0,0,-0.8,0,0,0
1674,1.5425e+07,0,0,0,0,0,0,-0.22,0,0,0,-0.8,0,0,0
1716,1.5435e+07,0,0,0,0,0,0,-0.22,0,0,0,-0.8,0,0,0
1756,1.5445e+07,0,0,0,0,0,0,-0.22,0,0,0,-0.8,0,0,0
1797,1.5458e+07,0,0,0,0,0,0,-0.14,0,0,0,-0.98,0,0,0
1840,1.5472e+07,0,0,0,0,0,0,-0.14,0,0,0,-0.98,0,0,0
1882,1.5481e+07,0,0,0,0,0,0,-0.14,0,0,0,-0.98,0,0,0
1927,1.5491e+07,0,0,0,0,0,0,-0.14,0,0,0,-0.98,0,0,0
1967,1.5501e+07,0,0,0,0,0,0,-0.14,0,0,0,-0.98,0,0,0
2008,1.5511e+07,0,0,0,0,0,0,-0.14,0,0,0,-0.98,0,0,0
2049,1.5521e+07,0,0,0,0,0,0,-0.14,0,0,0,-0.98,0,0,0
2095,1.5537e+07,0,0,0,0,0,0,-0.28,0,0,0,-0.25,0,0,0
2139,1.5547e+07,0,0,0,0,0,0,-0.28,0,0,0,-0.25,0,0,0
2179,1.5557e+07,0,0,0,0,0,0,-0.28,0,0,0,-0.25,0,0,0
2220,1.5567e+07,0,0,0,0,0,0,-0.28,0,0,0,-0.25,0,0,0
2261,1.5577e+07,0,0,0,0,0,0,-0.28,0,0,0,-0.25,0,0,0
2305,1.5587e+07,0,0,0,0,0,0,-0.28,0,0,0,-0.25,0,0,0
2347,1.5597e+07,0,0,0,0,0,0,-0.28,0,0,0,-0.25,0,0,0
2388,1.5607e+07,0,0,0,0,0,0,-0.28,0,0,0,-0.25,0,0,0
2432,1.5617e+07,0,0,0,0,0,0,-0.28,0,0,0,-0.25,0,0,0
2472,1.5627e+07,0,0,0,0,0,0,-0.28,0,0,0,-0.25,0,0,0
2510,1.5638e+07,0,0,0,0,-0.01,0,-0.29,0,0,0,0.18,0,0,0
2553,1.5648e+07,0,0,0,0,-0.01,0,-0.29,0,0,0,0.18,0,0,0
2593,1.5658e+07,0,0,0,0,-0.01,0,-0.29,0,0,0,0.18,0,0,0
2634,1.5668e+07,0,0,0,0,-0.01,0,-0.29,0,0,0,0.18,0,0,0
2674,1.5678e+07,0,0,0,0,-0.01,0,-0.29,0,0,0,0.18,0,0,0
2719,1.5688e+07,0,0,0,0,-0.01,0,-0.29,0,0,0,0.18,0,0,0
2760,1.5698e+07,0,0,0,0,-0.01,0,-0.29,0,0,0,0.18,0,0,0
2801,1.5708e+07,0,0,0,0,-0.01,0,-0.29,0,0,0,0.18,0,0,0
2842,1.5718e+07,0,0,0,0,-0.01,0,-0.29,0,0,0,0.18,0,0,0
2882,1.5728e+07,0,0,0,0,-0.01,0,-0.29,0,0,0,0.18,0,0,0
2924,1.5738e+07,0,0,0,0,-0.01,0,-0.01,0,0,0,-1.09,0,0,0
2966,1.5748e+07,0,0,0,0,-0.01,0,-0.01,0,0,0,-1.09,0,0,0
3005,1.5758e+07,0,0,0,0,-0.01,0,-0.01,0,0,0,-1.09,0,0,0
3047,1.5768e+07,0,0,0,0,-0.01,0,-0.01,0,0,0,-1.09,0,0,0
3087,1.5778e+07,0,0,0,0,-0.01,0,-0.01,0,0,0,-1.09,0,0,0
3133,1.5788e+07,0,0,0,0,-0.01,0,-0.01,0,0,0,-1.09,0,0,0
3175,1.5798e+07,0,0,0,0,-0.01,0,-0.01,0,0,0,-1.09,0,0,0
3216,1.5808e+07,0,0,0,0,-0.01,0,-0.01,0,0,0,-1.09,0,0,0
3257,1.5819e+07,0,0,0,0,-0.01,0,-0.01,0,0,0,-1.09,0,0,0
3299,1.5832e+07,0,0,0,0,-0.01,0,-0.25,0,0,0,-0.02,0,0,0
3336,1.5842e+07,0,0,0,0,-0.01,0,-0.25,0,0,0,-0.02,0,0,0
3378,1.5852e+07,0,0,0,0,-0.01,0,-0.25,0,0,0,-0.02,0,0,0
3419,1.5862e+07,0,0,0,0,-0.01,0,-0.25,0,0,0,-0.02,0,0,0
3459,1.5872e+07,0,0,0,0,-0.01,0,-0.25,0,0,0,-0.02,0,0,0
3500,1.5882e+07,0,0,0,0,-0.01,0,-0.25,0,0,0,-0.02,0,0,0
3544,1.5892e+07,0,0,0,0,-0.01,0,-0.25,0,0,0,-0.02,0,0,0
3585,1.5902e+07,0,0,0,0,-0.01,0,-0.25,0,0,0,-0.02,0,0,0
3627,1.5912e+07,0,0,0,0,-0.01,0,-0.25,0,0,0,-0.02,0,0,0
3669,1.5922e+07,0,0,0,0,-0.01,0,-0.25,0,0,0,-0.02,0,0,0
3707,1.5932e+07,0,0,0,0,-0.01,0,-0.2,0,0,0,-0.02,0,0,0
3744,1.5942e+07,0,0,0,0,-0.01,0,-0.2,0,0,0,-2.11,0,0,0
3786,1.5953e+07,0,0,0,0,-0.01,0,-0.2,0,0,0,-2.11,0,0,0
3827,1.5963e+07,0,0,0,0,-0.01,0,-0.2,0,0,0,-2.11,0,0,0
3867,1.5973e+07,0,0,0,0,-0.01,0,-0.2,0,0,0,-2.11,0,0,0
3908,1.5983e+07,0,0,0,0,-0.01,0,-0.2,0,0,0,-2.11,0,0,0
3952,1.5993e+07,0,0,0,0,-0.01,0,-0.2,0,0,0,-2.11,0,0,0
3993,1.6003e+07,0,0,0,0,-0.01,0,-0.2,0,0,0,-2.11,0,0,0
4034,1.6013e+07,0,0,0,0,-0.01,0,-0.2,0,0,0,-2.11,0,0,0
4077,1.6023e+07,0,0,0,0,-0.01,0,-0.2,0,0,0,-2.11,0,0,0
4118,1.6033e+07,0,0,0,0,-0.01,0,-0.2,0,0,0,-2.11,0,0,0
4155,1.6043e+07,0,0,0,0,-0.01,0,-0.01,0,0,0,-0.06,0,0,0
4197,1.6053e+07,0,0,0,0,-0.01,0,-0.01,0,0,0,-0.06,0,0,0
4241,1.6066e+07,0,0,0,0,-0.01,0,-0.01,0,0,0,-0.06,0,0,0
4283,1.6076e+07,0,0,0,0,-0.01,0,-0.01,0,0,0,-0.06,0,0,0
4323,1.6086e+07,0,0,0,0,-0.01,0,-0.01,0,0,0,-0.06,0,0,0
4368,1.6096e+07,0,0,0,0,-0.01,0,-0.01,0,0,0,-0.06,0,0,0
4409,1.6106e+07,0,0,0,0,-0.01,0,-0.01,0,0,0,-0.06,0,0,0
4449,1.6116e+07,0,0,0,0,-0.01,0,-0.01,0,0,0,-0.06,0,0,0
4495,1.6131e+07,0,0,0,0,-0.01,0,0.08,0,0,0,-0.06,0,0,0
4538,1.6144e+07,0,0,0,0,-0.01,0,0.08,0,0,0,-0.03,0,0,0
4578,1.6154e+07,0,0,0,0,-0.01,0,0.08,0,0,0,-0.03,0,0,0
4619,1.6164e+07,0,0,0,0,-0.01,0,0.08,0,0,0,-0.03,0,0,0
4661,1.6174e+07,0,0,0,0,-0.01,0,0.08,0,0,0,-0.03,0,0,0
4701,1.6184e+07,0,0,0,0,-0.01,0,0.08,0,0,0,-0.03,0,0,0
4746,1.6194e+07,0,0,0,0,-0.01,0,0.08,0,0,0,-0.03,0,0,0
4786,1.6204e+07,0,0,0,0,-0.01,0,0.08,0,0,0,-0.03,0,0,0
4828,1.6214e+07,0,0,0,0,-0.01,0,0.08,0,0,0,-0.03,0,0,0
4868,1.6224e+07,0,0,0,0,-0.01,0,0.08,0,0,0,-0.03,0,0,0
4909,1.6234e+07,0,0,0,0,-0.01,0,0.08,0,0,0,-0.03,0,0,0
4947,1.6244e+07,0,0,0,0,-0.01,0,-0.12,0,0,0,0.4,0,0,0
4984,1.6254e+07,0,0,0,0,-0.01,0,-0.12,0,0,0,0.4,0,0,0
5026,1.6264e+07,0,0,0,0,-0.01,0,-0.12,0,0,0,0.4,0,0,0
5068,1.6274e+07,0,0,0,0,-0.01,0,-0.12,0,0,0,0.4,0,0,0
5108,1.6284e+07,0,0,0,0,-0.01,0,-0.12,0,0,0,0.4,0,0,0
5153,1.6294e+07,0,0,0,0,-0.01,0,-0.12,0,0,0,0.4,0,0,0
5194,1.6304e+07,0,0,0,0,-0.01,0,-0.12,0,0,0,0.4,0,0,0
5235,1.6314e+07,0,0,0,0,-0.01,0,-0.12,0,0,0,0.4,0,0,0
5275,1.6324e+07,0,0,0,0,-0.01,0,-0.12,0,0,0,0.4,0,0,0
5318,1.6337e+07,0,0,0,0,-0.01,0,-0.12,0,0,0,0.4,0,0,0
5355,1.6346e+07,0,0,0,0,-0.01,0,-0.24,0,0,0,-0.16,0,0,0
5400,1.6359e+07,0,0,0,0,-0.01,0,-0.24,0,0,0,-0.16,0,0,0
5441,1.6369e+07,0,0,0,0,-0.01,0,-0.24,0,0,0,-0.16,0,0,0
5481,1.6379e+07,0,0,0,0,-0.01,0,-0.24,0,0,0,-0.16,0,0,0
5523,1.6389e+07,0,0,0,0,-0.01,0,-0.24,0,0,0,-0.16,0,0,0
5567,1.6399e+07,0,0,0,0,-0.01,0,-0.24,0,0,0,-0.16,0,0,0
5609,1.6409e+07,0,0,0,0,-0.01,0,-0.24,0,0,0,-0.16,0,0,0
5650,1.6419e+07,0,0,0,0,-0.01,0,-0.24,0,0,0,-0.16,0,0,0
5690,1.6429e+07,0,0,0,0,-0.01,0,-0.24,0,0,0,-0.16,0,0,0
5725,1.6439e+07,0,0,0,0,-0.01,0,-0.39,0,0,0,-1.1,0,0,0
5766,1.645e+07,0,0,0,0,-0.01,0,-0.39,0,0,0,-1.1,0,0,0
5807,1.646e+07,0,0,0,0,-0.01,0,-0.39,0,0,0,-1.1,0,0,0
5847,1.647e+07,0,0,0,0,-0.01,0,-0.39,0,0,0,-1.1,0,0,0
5889,1.648e+07,0,0,0,0,-0.01,0,-0.39,0,0,0,-1.1,0,0,0
5931,1.649e+07,0,0,0,0,-0.01,0,-0.39,0,0,0,-1.1,0,0,0
5975,1.65e+07,0,0,0,0,-0.01,0,-0.39,0,0,0,-1.1,0,0,0
6016,1.651e+07,0,0,0,0,-0.01,0,-0.39,0,0,0,-1.1,0,0,0
6058,1.652e+07,0,0,0,0,-0.01,0,-0.39,0,0,0,-1.1,0,0,0
6102,1.653e+07,0,0,0,0,-0.01,0,-0.39,0,0,0,-1.1,0,0,0
6139,1.6541e+07,0,0,0,0,-0.02,0,-0.19,0,0,0,0.77,0,0,0
6179,1.6551e+07,0,0,0,0,-0.02,0,-0.19,0,0,0,0.77,0,0,0
6219,1.6561e+07,0,0,0,0,-0.02,0,-0.19,0,0,0,0.77,0,0,0
6260,1.6571e+07,0,0,0,0,-0.02,0,-0.19,0,0,0,0.77,0,0,0
6301,1.6581e+07,0,0,0,0,-0.02,0,-0.19,0,0,0,0.77,0,0,0
6342,1.6591e+07,0,0,0,0,-0.02,0,-0.19,0,0,0,0.77,0,0,0
6388,1.6602e+07,0,0,0,0,-0.02,0,-0.19,0,0,0,0.77,0,0,0
6432,1.6611e+07,0,0,0,0,-0.02,0,-0.19,0,0,0,0.77,0,0,0
6473,1.6622e+07,0,0,0,0,-0.02,0,-0.19,0,0,0,0.77,0,0,0
6514,1.6632e+07,0,0,0,0,-0.02,0,-0.19,0,0,0,0.77,0,0,0
6552,1.6644e+07,0,0,0,0,-0.02,0,-0.33,0,0,0,0.41,0,0,0
6593,1.6654e+07,0,0,0,0,-0.02,0,-0.33,0,0,0,0.41,0,0,0
6633,1.6664e+07,0,0,0,0,-0.02,0,-0.33,0,0,0,0.41,0,0,0
6675,1.6674e+07,0,0,0,0,-0.02,0,-0.33,0,0,0,0.41,0,0,0
6715,1.6684e+07,0,0,0,0,-0.02,0,-0.33,0,0,0,0.41,0,0,0
6760,1.6694e+07,0,0,0,0,-0.02,0,-0.33,0,0,0,0.41,0,0,0
6802,1.6704e+07,0,0,0,0,-0.02,0,-0.33,0,0,0,0.41,0,0,0
6843,1.6714e+07,0,0,0,0,-0.02,0,-0.33,0,0,0,0.41,0,0,0
6884,1.6724e+07,0,0,0,0,-0.02,0,-0.33,0,0,0,0.41,0,0,0
6926,1.6734e+07,0,0,0,0,-0.02,0,-0.33,0,0,0,0.41,0,0,0
6961,1.6744e+07,0,0,0,0,-0.02,0,-0.5,0,0,0,2.07,0,0,0
7001,1.6754e+07,0,0,0,0,-0.02,0,-0.5,0,0,0,2.07,0,0,0
7042,1.6764e+07,0,0,0,0,-0.02,0,-0.5,0,0,0,2.07,0,0,0
7083,1.6774e+07,0,0,0,0,-0.02,0,-0.5,0,0,0,2.07,0,0,0
7124,1.6784e+07,0,0,0,0,-0.02,0,-0.5,0,0,0,2.07,0,0,0
7171,1.6794e+07,0,0,0,0,-0.02,0,-0.5,0,0,0,2.07,0,0,0
7212,1.6804e+07,0,0,0,0,-0.02,0,-0.5,0,0,0,2.07,0,0,0
7254,1.6814e+07,0,0,0,0,-0.02,0,-0.5,0,0,0,2.07,0,0,0
7295,1.6824e+07,0,0,0,0,-0.02,0,-0.5,0,0,0,2.07,0,0,0
7335,1.6834e+07,0,0,0,0,-0.02,0,-0.5,0,0,0,2.07,0,0,0
7376,1.6844e+07,0,0,0,0,-0.02,0,-0.5,0,0,0,2.07,0,0,0
7413,1.6855e+07,0,0,0,0,-0.02,0,-0.5,0,0,0,2.07,0,0,0
7454,1.6865e+07,0,0,0,0,-0.02,0,-0.5,0,0,0,-0.27,0,0,0
7496,1.6875e+07,0,0,0,0,-0.02,0,-0.5,0,0,0,-0.27,0,0,0
7536,1.6885e+07,0,0,0,0,-0.02,0,-0.5,0,0,0,-0.27,0,0,0
7580,1.6895e+07,0,0,0,0,-0.02,0,-0.5,0,0,0,-0.27,0,0,0
7622,1.6905e+07,0,0,0,0,-0.02,0,-0.5,0,0,0,-0.27,0,0,0
7664,1.6915e+07,0,0,0,0,-0.02,0,-0.5,0,0,0,-0.27,0,0,0
7705,1.6925e+07,0,0,0,0,-0.02,0,-0.5,0,0,0,-0.27,0,0,0
7747,1.6938e+07,0,0,0,0,-0.02,0,-0.5,0,0,0,-0.19,0,0,0
7788,1.6948e+07,0,0,0,0,-0.02,0,-0.5,0,0,0,-0.19,0,0,0
7825,1.6958e+07,0,0,0,0,-0.02,0,-0.5,0,0,0,-0.19,0,0,0
7867,1.6968e+07,0,0,0,0,-0.02,0,-0.5,0,0,0,-0.19,0,0,0
7907,1.6978e+07,0,0,0,0,-0.02,0,-0.5,0,0,0,-0.19,0,0,0
7948,1.6988e+07,0,0,0,0,-0.02,0,-0.5,0,0,0,-0.19,0,0,0
7994,1.6998e+07,0,0,0,0,-0.02,0,-0.5,0,0,0,-0.19,0,0,0
8036,1.7008e+07,0,0,0,0,-0.02,0,-0.5,0,0,0,-0.19,0,0,0
8079,1.7019e+07,0,0,0,0,-0.02,0,-0.5,0,0,0,-0.19,0,0,0
8119,1.7029e+07,0,0,0,0,-0.02,0,-0.5,0,0,0,-0.19,0,0,0
8157,1.7039e+07,0,0,0,0,-0.02,-0.01,-0.5,0,0,0,-1.41,0,0,0
8194,1.7049e+07,0,0,0,0,-0.02,-0.01,-0.5,0,0,0,-1.41,0,0,0
8235,1.7059e+07,0,0,0,0,-0.02,-0.01,-0.5,0,0,0,-1.41,0,0,0
8275,1.7069e+07,0,0,0,0,-0.02,-0.01,-0.5,0,0,0,-1.41,0,0,0
8317,1.7079e+07,0,0,0,0,-0.02,-0.01,-0.5,0,0,0,-1.41,0,0,0
8359,1.7089e+07,0,0,0,0,-0.02,-0.01,-0.5,0,0,0,-1.41,0,0,0
8403,1.7099e+07,0,0,0,0,-0.02,-0.01,-0.5,0,0,0,-1.41,0,0,0
8444,1.7109e+07,0,0,0,0,-0.02,-0.01,-0.5,0,0,0,-1.41,0,0,0
8486,1.7119e+07,0,0,0,0,-0.02,-0.01,-0.5,0,0,0,-1.41,0,0,0
8527,1.7129e+07,0,0,0,0,-0.02,-0.01,-0.5,0,0,0,-1.41,0,0,0
8567,1.7139e+07,0,0,0,0,-0.03,-0.01,-0.38,0,0,0,0.69,0,0,0
8607,1.7151e+07,0,0,0,0,-0.03,-0.01,-0.38,0,0,0,0.69,0,0,0
8648,1.7161e+07,0,0,0,0,-0.03,-0.01,-0.38,0,0,0,0.69,0,0,0
8688,1.7171e+07,0,0,0,0,-0.03,-0.01,-0.38,0,0,0,0.69,0,0,0
8729,1.7181e+07,0,0,0,0,-0.03,-0.01,-0.38,0,0,0,0.69,0,0,0
8770,1.7191e+07,0,0,0,0,-0.03,-0.01,-0.38,0,0,0,0.69,0,0,0
8814,1.7201e+07,0,0,0,0,-0.03,-0.01,-0.38,0,0,0,0.69,0,0,0
8855,1.7211e+07,0,0,0,0,-0.03,-0.01,-0.38,0,0,0,0.69,0,0,0
8895,1.7222e+07,0,0,0,0,-0.03,-0.01,-0.38,0,0,0,0.69,0,0,0
8937,1.7232e+07,0,0,0,0,-0.03,-0.01,-0.38,0,0,0,0.69,0,0,0
8974,1.7242e+07,0,0,0,0,-0.03,-0.01,-0.09,0,0,0,0.24,0,0,0
9012,1.7252e+07,0,0,0,0,-0.03,-0.01,-0.09,0,0,0,0.24,0,0,0
9053,1.7262e+07,0,0,0,0,-0.03,-0.01,-0.09,0,0,0,0.24,0,0,0
9093,1.7272e+07,0,0,0,0,-0.03,-0.01,-0.09,0,0,0,0.24,0,0,0
9134,1.7282e+07,0,0,0,0,-0.03,-0.01,-0.09,0,0,0,0.24,0,0,0
9174,1.7292e+07,0,0,0,0,-0.03,-0.01,-0.09,0,0,0,0.24,0,0,0
9219,1.7302e+07,0,0,0,0,-0.03,-0.01,-0.09,0,0,0,0.24,0,0,0
9254,1.7332e+07,0,0,0,0,-0.03,-0.01,-0.09,0,0,0,0.24,0,0,0
9297,1.7342e+07,0,0,0,0,-0.03,-0.01,-0.09,0,0,0,0.37,0,0,0
9334,1.7352e+07,0,0,0,0,-0.03,-0.01,-0.5,0,0,0,0.37,0,0,0
9372,1.7362e+07,0,0,0,0,-0.03,-0.01,-0.5,0,0,0,0.37,0,0,0
9413,1.7372e+07,0,0,0,0,-0.03,-0.01,-0.5,0,0,0,0.37,0,0,0
9453,1.7382e+07,0,0,0,0,-0.03,-0.01,-0.5,0,0,0,0.37,0,0,0
9495,1.7392e+07,0,0,0,0,-0.03,-0.01,-0.5,0,0,0,0.37,0,0,0
9539,1.7402e+07,0,0,0,0,-0.03,-0.01,-0.5,0,0,0,0.37,0,0,0
9580,1.7412e+07,0,0,0,0,-0.03,-0.01,-0.5,0,0,0,0.37,0,0,0
9620,1.7422e+07,0,0,0,0,-0.03,-0.01,-0.5,0,0,0,0.37,0,0,0
9663,1.7432e+07,0,0,0,0,-0.03,-0.01,-0.5,0,0,0,0.37,0,0,0
9704,1.7442e+07,0,0,0,0,-0.03,-0.01,-0.5,0,0,0,0.37,0,0,0
9741,1.7452e+07,0,0,0,0,-0.03,-0.01,-0.5,0,0,0,0.52,0,0,0
9783,1.7465e+07,0,0,0,0,-0.03,-0.01,-0.5,0,0,0,0.52,0,0,0
9824,1.7475e+07,0,0,0,0,-0.03,-0.01,-0.5,0,0,0,0.52,0,0,0
9864,1.7485e+07,0,0,0,0,-0.03,-0.01,-0.5,0,0,0,0.52,0,0,0
9905,1.7495e+07,0,0,0,0,-0.03,-0.01,-0.5,0,0,0,0.52,0,0,0
9949,1.7505e+07,0,0,0,0,-0.03,-0.01,-0.5,0,0,0,0.52,0,0,0
9993,1.7515e+07,0,0,0,0,-0.03,-0.01,-0.5,0,0,0,0.52,0,0,0
10033,1.7525e+07,0,0,0,0,-0.03,-0.01,-0.5,0,0,0,0.52,0,0,0
10074,1.7535e+07,0,0,0,0,-0.03,-0.01,-0.5,0,0,0,0.52,0,0,0
10113,1.7545e+07,0,0,0,0,-0.03,-0.01,-0.5,0,0,0,0.52,0,0,0
10152,1.7555e+07,0,0,0,0,-0.03,-0.01,-0.5,0,0,0,-0.78,0,0,0
10193,1.7565e+07,0,0,0,0,-0.03,-0.01,-0.5,0,0,0,-0.78,0,0,0
10233,1.7575e+07,0,0,0,0,-0.03,-0.01,-0.5,0,0,0,-0.78,0,0,0
10275,1.7585e+07,0,0,0,0,-0.03,-0.01,-0.5,0,0,0,-0.78,0,0,0
10315,1.7595e+07,0,0,0,0,-0.03,-0.01,-0.5,0,0,0,-0.78,0,0,0
10361,1.7605e+07,0,0,0,0,-0.03,-0.01,-0.5,0,0,0,-0.78,0,0,0
10402,1.7615e+07,0,0,0,0,-0.03,-0.01,-0.5,0,0,0,-0.78,0,0,0
10442,1.7625e+07,0,0,0,0,-0.03,-0.01,-0.5,0,0,0,-0.78,0,0,0
10484,1.7635e+07,0,0,0,0,-0.03,-0.01,-0.5,0,0,0,-0.78,0,0,0
10521,1.7648e+07,0,0,0,0,-0.03,-0.01,-0.5,0,0,0,0.31,0,0,0
10563,1.7658e+07,0,0,0,0,-0.03,-0.01,-0.5,0,0,0,0.31,0,0,0
10605,1.7668e+07,0,0,0,0,-0.03,-0.01,-0.5,0,0,0,0.31,0,0,0
10646,1.7678e+07,0,0,0,0,-0.03,-0.01,-0.5,0,0,0,0.31,0,0,0
10687,1.7688e+07,0,0,0,0,-0.03,-0.01,-0.5,0,0,0,0.31,0,0,0
10730,1.7698e+07,0,0,0,0,-0.03,-0.01,-0.5,0,0,0,0.31,0,0,0
10773,1.7709e+07,0,0,0,0,-0.03,-0.01,-0.5,0,0,0,0.31,0,0,0
10813,1.7719e+07,0,0,0,0,-0.03,-0.01,-0.5,0,0,0,0.31,0,0,0
10854,1.7729e+07,0,0,0,0,-0.03,-0.01,-0.5,0,0,0,0.31,0,0,0
10897,1.7739e+07,0,0,0,0,-0.03,-0.01,-0.5,0,0,0,0.31,0,0,0
10937,1.7752e+07,0,0,0,0,-0.03,-0.01,-0.5,0,0,0,-0.13,0,0,0
10980,1.7762e+07,0,0,0,0,-0.03,-0.01,-0.5,0,0,0,-0.13,0,0,0
11020,1.7772e+07,0,0,0,0,-0.03,-0.01,-0.5,0,0,0,-0.13,0,0,0
11061,1.7782e+07,0,0,0,0,-0.03,-0.01,-0.5,0,0,0,-0.13,0,0,0
11101,1.7792e+07,0,0,0,0,-0.03,-0.01,-0.5,0,0,0,-0.13,0,0,0
11149,1.7802e+07,0,0,0,0,-0.03,-0.01,-0.5,0,0,0,-0.13,0,0,0
11190,1.7812e+07,0,0,0,0,-0.03,-0.01,-0.5,0,0,0,-0.13,0,0,0
11230,1.7822e+07,0,0,0,0,-0.03,-0.01,-0.5,0,0,0,-0.13,0,0,0
11272,1.7832e+07,0,0,0,0,-0.03,-0.01,-0.5,0,0,0,-0.13,0,0,0
11312,1.7842e+07,0,0,0,0,-0.03,-0.01,-0.5,0,0,0,-0.13,0,0,0
11350,1.7852e+07,0,0,0,0,-0.04,-0.01,-0.5,0,0,0,0.12,0,0,0
11391,1.7862e+07,0,0,0,0,-0.04,-0.01,-0.5,0,0,0,0.12,0,0,0
11435,1.7875e+07,0,0,0,0,-0.04,-0.01,-0.5,0,0,0,0.12,0,0,0
11476,1.7885e+07,0,0,0,0,-0.04,-0.01,-0.5,0,0,0,0.12,0,0,0
11518,1.7895e+07,0,0,0,0,-0.04,-0.01,-0.5,0,0,0,0.12,0,0,0
11563,1.7905e+07,0,0,0,0,-0.04,-0.01,-0.5,0,0,0,0.12,0,0,0
11604,1.7915e+07,0,0,0,0,-0.04,-0.01,-0.5,0,0,0,0.12,0,0,0
11644,1.7925e+07,0,0,0,0,-0.04,-0.01,-0.5,0,0,0,0.12,0,0,0
11685,1.7935e+07,0,0,0,0,-0.04,-0.01,-0.5,0,0,0,0.12,0,0,0
11727,1.7945e+07,0,0,0,0,-0.04,-0.01,-0.5,0,0,0,0.12,0,0,0
11765,1.7955e+07,0,0,0,0,-0.04,-0.01,-0.39,0,0,0,-0.32,0,0,0
11806,1.7965e+07,0,0,0,0,-0.04,-0.01,-0.39,0,0,0,-0.32,0,0,0
11849,1.7976e+07,0,0,0,0,-0.04,-0.01,-0.39,0,0,0,-0.32,0,0,0
11890,1.7985e+07,0,0,0,0,-0.04,-0.01,-0.39,0,0,0,-0.32,0,0,0
11930,1.7996e+07,0,0,0,0,-0.04,-0.01,-0.39,0,0,0,-0.32,0,0,0
11977,1.8006e+07,0,0,0,0,-0.04,-0.01,-0.39,0,0,0,-0.32,0,0,0
12017,1.8016e+07,0,0,0,0,-0.04,-0.01,-0.39,0,0,0,-0.32,0,0,0
12059,1.8026e+07,0,0,0,0,-0.04,-0.01,-0.39,0,0,0,-0.32,0,0,0
12103,1.8041e+07,0,0,0,0,-0.04,-0.01,-0.5,0,0,0,-0.32,0,0,0
12144,1.8051e+07,0,0,0,0,-0.04,-0.01,-0.5,0,0,0,0.38,0,0,0
12184,1.8061e+07,0,0,0,0,-0.04,-0.01,-0.5,0,0,0,0.38,0,0,0
12227,1.8071e+07,0,0,0,0,-0.04,-0.01,-0.5,0,0,0,0.38,0,0,0
12267,1.8081e+07,0,0,0,0,-0.04,-0.01,-0.5,0,0,0,0.38,0,0,0
12309,1.8091e+07,0,0,0,0,-0.04,-0.01,-0.5,0,0,0,0.38,0,0,0
12352,1.8101e+07,0,0,0,0,-0.04,-0.01,-0.5,0,0,0,0.38,0,0,0
12394,1.8111e+07,0,0,0,0,-0.04,-0.01,-0.5,0,0,0,0.38,0,0,0
12440,1.8123e+07,0,0,0,0,-0.04,-0.01,-0.5,0,0,0,0.38,0,0,0
12480,1.8133e+07,0,0,0,0,-0.04,-0.01,-0.5,0,0,0,0.38,0,0,0
12525,1.8146e+07,0,0,0,0,-0.04,-0.01,-0.5,0,0,0,0.38,0,0,0
12562,1.8156e+07,0,0,0,0,-0.04,-0.01,-0.5,0,0,0,0.69,0,0,0
12603,1.8167e+07,0,0,0,0,-0.04,-0.01,-0.5,0,0,0,0.69,0,0,0
12644,1.8177e+07,0,0,0,0,-0.04,-0.01,-0.5,0,0,0,0.69,0,0,0
12686,1.8187e+07,0,0,0,0,-0.04,-0.01,-0.5,0,0,0,0.69,0,0,0
12727,1.8197e+07,0,0,0,0,-0.04,-0.01,-0.5,0,0,0,0.69,0,0,0
12771,1.8207e+07,0,0,0,0,-0.04,-0.01,-0.5,0,0,0,0.69,0,0,0
12812,1.8217e+07,0,0,0,0,-0.04,-0.01,-0.5,0,0,0,0.69,0,0,0
12852,1.8227e+07,0,0,0,0,-0.04,-0.01,-0.5,0,0,0,0.69,0,0,0
12894,1.8237e+07,0,0,0,0,-0.04,-0.01,-0.5,0,0,0,0.69,0,0,0
12932,1.8247e+07,0,0,0,0,-0.04,-0.01,-0.38,0,0,0,0.37,0,0,0
12969,1.8257e+07,0,0,0,0,-0.04,-0.01,-0.38,0,0,0,0.37,0,0,0
13010,1.8267e+07,0,0,0,0,-0.04,-0.01,-0.38,0,0,0,0.37,0,0,0
13051,1.8277e+07,0,0,0,0,-0.04,-0.01,-0.38,0,0,0,0.37,0,0,0
13093,1.8287e+07,0,0,0,0,-0.04,-0.01,-0.38,0,0,0,0.37,0,0,0
13133,1.8298e+07,0,0,0,0,-0.04,-0.01,-0.38,0,0,0,0.37,0,0,0
13178,1.8307e+07,0,0,0,0,-0.04,-0.01,-0.38,0,0,0,0.37,0,0,0
13218,1.8317e+07,0,0,0,0,-0.04,-0.01,-0.38,0,0,0,0.37,0,0,0
13261,1.8327e+07,0,0,0,0,-0.04,-0.01,-0.38,0,0,0,0.37,0,0,0
13302,1.8338e+07,0,0,0,0,-0.04,-0.01,-0.38,0,0,0,0.37,0,0,0
13340,1.8351e+07,0,0,0,0,-0.04,-0.01,-0.5,0,0,0,-0.01,0,0,0
13380,1.8361e+07,0,0,0,0,-0.04,-0.01,-0.5,0,0,0,-0.01,0,0,0
13421,1.8371e+07,0,0,0,0,-0.04,-0.01,-0.5,0,0,0,-0.01,0,0,0
13463,1.8381e+07,0,0,0,0,-0.04,-0.01,-0.5,0,0,0,-0.01,0,0,0
13503,1.8391e+07,0,0,0,0,-0.04,-0.01,-0.5,0,0,0,-0.01,0,0,0
13545,1.8401e+07,0,0,0,0,-0.04,-0.01,-0.5,0,0,0,-0.01,0,0,0
13589,1.8411e+07,0,0,0,0,-0.04,-0.01,-0.5,0,0,0,-0.01,0,0,0
13629,1.8421e+07,0,0,0,0,-0.04,-0.01,-0.5,0,0,0,-0.01,0,0,0
13670,1.8431e+07,0,0,0,0,-0.04,-0.01,-0.5,0,0,0,-0.01,0,0,0
13711,1.8441e+07,0,0,0,0,-0.04,-0.01,-0.5,0,0,0,-0.01,0,0,0
13749,1.8451e+07,0,0,0,0,-0.04,-0.02,-0.12,0,0,0,1.54,0,0,0
13789,1.8461e+07,0,0,0,0,-0.04,-0.02,-0.12,0,0,0,1.54,0,0,0
13827,1.8472e+07,0,0,0,0,-0.04,-0.02,-0.12,0,0,0,1.54,0,0,0
13868,1.8482e+07,0,0,0,0,-0.04,-0.02,-0.12,0,0,0,1.54,0,0,0
13908,1.8492e+07,0,0,0,0,-0.04,-0.02,-0.12,0,0,0,1.54,0,0,0
13952,1.8502e+07,0,0,0,0,-0.04,-0.02,-0.12,0,0,0,1.54,0,0,0
13997,1.8511e+07,0,0,0,0,-0.04,-0.02,-0.12,0,0,0,1.54,0,0,0
14038,1.8522e+07,0,0,0,0,-0.04,-0.02,-0.12,0,0,0,1.54,0,0,0
14081,1.8532e+07,0,0,0,0,-0.04,-0.02,-0.12,0,0,0,1.54,0,0,0
14121,1.8542e+07,0,0,0,0,-0.04,-0.02,-0.12,0,0,0,1.54,0,0,0
14162,1.8555e+07,0,0,0,0,-0.04,-0.02,-0.5,0,0,0,0.44,0,0,0
14203,1.8564e+07,0,0,0,0,-0.04,-0.02,-0.5,0,0,0,0.44,0,0,0
14244,1.8575e+07,0,0,0,0,-0.04,-0.02,-0.5,0,0,0,0.44,0,0,0
14284,1.8585e+07,0,0,0,0,-0.04,-0.02,-0.5,0,0,0,0.44,0,0,0.0012873
14326,1.8595e+07,0,0,0,0,-0.04,-0.02,-0.5,0,0,0,0.44,0,0,0.0012873
14370,1.8605e+07,0,0,0,0,-0.04,-0.02,-0.5,0,0,0,0.44,0,0,0.0012873
14413,1.8615e+07,0,0,0,0,-0.04,-0.02,-0.5,0,0,0,0.44,0,0,0.0012873
14454,1.8625e+07,0,0,0,0,-0.04,-0.02,-0.5,0,0,0,0.44,0,0,0.0012873
14494,1.8635e+07,0,0,0,0,-0.04,-0.02,-0.5,0,0,0,0.44,0,0,0.0012873
14536,1.8645e+07,0,0,0,0,-0.04,-0.02,-0.5,0,0,0,0.44,0,0,0.0012873
14573,1.8655e+07,0,0,0,0,-0.05,-0.02,-0.5,0,0,0,1.02,0,0,0.00059906
14615,1.8666e+07,0,0,0,0,-0.05,-0.02,-0.5,0,0,0,1.02,0,0,0.00059906
14656,1.8676e+07,0,0,0,0,-0.05,-0.02,-0.5,0,0,0,1.02,0,0,0.00059906
14696,1.8686e+07,0,0,0,0,-0.05,-0.02,-0.5,0,0,0,1.02,0,0,0.00059906
14737,1.8696e+07,0,0,0,0,-0.05,-0.02,-0.5,0,0,0,1.02,0,0,0.00059906
14781,1.8706e+07,0,0,0,0,-0.05,-0.02,-0.5,0,0,0,1.02,0,0,0.00059906
14823,1.8716e+07,0,0,0,0,-0.05,-0.02,-0.5,0,0,0,1.02,0,0,0.00059906
14864,1.8726e+07,0,0,0,0,-0.05,-0.02,-0.5,0,0,0,1.02,0,0,0.00059906
14907,1.8736e+07,0,0,0,0,-0.05,-0.02,-0.5,0,0,0,1.02,0,0,0.00059906
14949,1.8746e+07,0,0,0,0,-0.05,-0.02,-0.5,0,0,0,1.02,0,0,0.00059906
14983,1.8757e+07,0,0,0,0,-0.05,-0.02,-0.34,0,0,0,0.96,0,0,0.00027918
15023,1.8766e+07,0,0,0,0,-0.05,-0.02,-0.34,0,0,0,0.96,0,0,0.00027918
15063,1.8776e+07,0,0,0,0,-0.05,-0.02,-0.34,0,0,0,0.96,0,0,0.00027918
15103,1.8787e+07,0,0,0,0,-0.05,-0.02,-0.34,0,0,0,0.96,0,0,0.00027918
15145,1.8797e+07,0,0,0,0,-0.05,-0.02,-0.34,0,0,0,0.96,0,0,0.00027918
15190,1.8807e+07,0,0,0,0,-0.05,-0.02,-0.34,0,0,0,0.96,0,0,0.00027918
15233,1.8817e+07,0,0,0,0,-0.05,-0.02,-0.34,0,0,0,0.96,0,0,0.00027918
15274,1.8827e+07,0,0,0,0,-0.05,-0.02,-0.34,0,0,0,0.96,0,0,0.00027918
15316,1.8837e+07,0,0,0,0,-0.05,-0.02,-0.34,0,0,0,0.96,0,0,0.00027918
15356,1.8847e+07,0,0,0,0,-0.05,-0.02,-0.34,0,0,0,0.96,0,0,0.00027918
15391,1.8857e+07,0,0,0,0,-0.05,-0.02,-0.5,0,0,0,-0.81,0,0,0.0006017
15432,1.8867e+07,0,0,0,0,-0.05,-0.02,-0.5,0,0,0,-0.81,0,0,0.0006017
15472,1.8877e+07,0,0,0,0,-0.05,-0.02,-0.5,0,0,0,-0.81,0,0,0.0006017
15513,1.8887e+07,0,0,0,0,-0.05,-0.02,-0.5,0,0,0,-0.81,0,0,0.0006017
15555,1.8897e+07,0,0,0,0,-0.05,-0.02,-0.5,0,0,0,-0.81,0,0,0.0006017
15598,1.8908e+07,0,0,0,0,-0.05,-0.02,-0.5,0,0,0,-0.81,0,0,0.0006017
15640,1.8918e+07,0,0,0,0,-0.05,-0.02,-0.5,0,0,0,-0.81,0,0,0.0006017
15680,1.8928e+07,0,0,0,0,-0.05,-0.02,-0.5,0,0,0,-0.81,0,0,0.0006017
15724,1.8938e+07,0,0,0,0,-0.05,-0.02,-0.5,0,0,0,-0.81,0,0,0.0006017
15765,1.8951e+07,0,0,0,0,-0.05,-0.02,-0.4,0,0,0,0.47,0,0,0.00037609
15806,1.8961e+07,0,0,0,0,-0.05,-0.02,-0.4,0,0,0,0.47,0,0,0.00037609
15843,1.8971e+07,0,0,0,0,-0.05,-0.02,-0.4,0,0,0,0.47,0,0,0.00037609
15884,1.8981e+07,0,0,0,0,-0.05,-0.02,-0.4,0,0,0,0.47,0,0,0.00037609
15925,1.8991e+07,0,0,0,0,-0.05,-0.02,-0.4,0,0,0,0.47,0,0,0.00037609
15967,1.9001e+07,0,0,0,0,-0.05,-0.02,-0.4,0,0,0,0.47,0,0,0.00037609
16013,1.9011e+07,0,0,0,0,-0.05,-0.02,-0.4,0,0,0,0.47,0,0,0.00037609
16053,1.9021e+07,0,0,0,0,-0.05,-0.02,-0.4,0,0,0,0.47,0,0,0.00037609
16094,1.9031e+07,0,0,0,0,-0.05,-0.02,-0.4,0,0,0,0.47,0,0,0.00037609
16137,1.9041e+07,0,0,0,0,-0.05,-0.02,-0.4,0,0,0,0.47,0,0,0.00037609
16174,1.9054e+07,0,0,0,0,-0.05,-0.02,-0.38,0,0,0,-0.6,0,0,0.0003412
16215,1.9064e+07,0,0,0,0,-0.05,-0.02,-0.38,0,0,0,-0.6,0,0,0.0003412
16255,1.9074e+07,0,0,0,0,-0.05,-0.02,-0.38,0,0,0,-0.6,0,0,0.0003412
16296,1.9084e+07,0,0,0,0,-0.05,-0.02,-0.38,0,0,0,-0.6,0,0,0.0003412
16338,1.9094e+07,0,0,0,0,-0.05,-0.02,-0.38,0,0,0,-0.6,0,0,0.0003412
16379,1.9104e+07,0,0,0,0,-0.05,-0.02,-0.38,0,0,0,-0.6,0,0,0.0003412
16424,1.9114e+07,0,0,0,0,-0.05,-0.02,-0.38,0,0,0,-0.6,0,0,0.0003412
16464,1.9124e+07,0,0,0,0,-0.05,-0.02,-0.38,0,0,0,-0.6,0,0,0.0003412
16506,1.9134e+07,0,0,0,0,-0.05,-0.02,-0.38,0,0,0,-0.6,0,0,0.0003412
16549,1.9144e+07,0,0,0,0,-0.05,-0.02,-0.38,0,0,0,-0.6,0,0,0.0003412
16590,1.9159e+07,0,0,0,0,-0.05,-0.02,-0.02,0,0,0,1.31,0,0,1.6273e-06
16630,1.9169e+07,0,0,0,0,-0.05,-0.02,-0.02,0,0,0,1.31,0,0,1.6273e-06
16672,1.918e+07,0,0,0,0,-0.05,-0.02,-0.02,0,0,0,1.31,0,0,1.6273e-06
16713,1.919e+07,0,0,0,0,-0.05,-0.02,-0.02,0,0,0,1.31,0,0,1.6273e-06
16753,1.92e+07,0,0,0,0,-0.05,-0.02,-0.02,0,0,0,1.31,0,0,1.6273e-06
16797,1.921e+07,0,0,0,0,-0.05,-0.02,-0.02,0,0,0,1.31,0,0,1.6273e-06
16838,1.9221e+07,0,0,0,0,-0.05,-0.02,-0.02,0,0,0,1.31,0,0,1.6273e-06
16880,1.9231e+07,0,0,0,0,-0.05,-0.02,-0.02,0,0,0,1.31,0,0,1.6273e-06
16921,1.9241e+07,0,0,0,0,-0.05,-0.02,-0.02,0,0,0,1.31,0,0,1.6273e-06
16961,1.9251e+07,0,0,0,0,-0.05,-0.02,-0.02,0,0,0,1.31,0,0,1.6273e-06
16999,1.9264e+07,0,0,0,0,-0.05,-0.02,-0.5,0,0,0,-0.91,0,0,0.0010068
17044,1.9276e+07,0,0,0,0,-0.05,-0.02,-0.5,0,0,0,-0.91,0,0,0.0010068
17085,1.9286e+07,0,0,0,0,-0.05,-0.02,-0.5,0,0,0,-0.91,0,0,0.0010068
17126,1.9296e+07,0,0,0,0,-0.05,-0.02,-0.5,0,0,0,-0.91,0,0,0.0010068
17166,1.9306e+07,0,0,0,0,-0.05,-0.02,-0.5,0,0,0,-0.91,0,0,0.0010068
17214,1.9319e+07,0,0,0,0,-0.05,-0.02,-0.5,0,0,0,-0.91,0,0,0.0010068
17258,1.9329e+07,0,0,0,0,-0.05,-0.02,-0.5,0,0,0,-0.91,0,0,0.0010068
17298,1.9339e+07,0,0,0,0,-0.05,-0.02,-0.5,0,0,0,-0.91,0,0,0.0010068
17339,1.9352e+07,0,0,0,0,-0.05,-0.02,-0.5,0,0,0,-0.91,0,0,0.0010068
17376,1.9362e+07,0,0,0,0,-0.05,-0.02,-0.31,0,0,0,0.93,0,0,0.00022767
17417,1.9372e+07,0,0,0,0,-0.05,-0.02,-0.31,0,0,0,0.93,0,0,0.00022767
17460,1.9382e+07,0,0,0,0,-0.05,-0.02,-0.31,0,0,0,0.93,0,0,0.00022767
17500,1.9392e+07,0,0,0,0,-0.05,-0.02,-0.31,0,0,0,0.93,0,0,0.00022767
17542,1.9402e+07,0,0,0,0,-0.05,-0.02,-0.31,0,0,0,0.93,0,0,0.00022767
17585,1.9412e+07,0,0,0,0,-0.05,-0.02,-0.31,0,0,0,0.93,0,0,0.00022767
17627,1.9422e+07,0,0,0,0,-0.05,-0.02,-0.31,0,0,0,0.93,0,0,0.00022767
17667,1.9432e+07,0,0,0,0,-0.05,-0.02,-0.31,0,0,0,0.93,0,0,0.00022767
17708,1.9442e+07,0,0,0,0,-0.05,-0.02,-0.31,0,0,0,0.93,0,0,0.00022767
17749,1.9455e+07,0,0,0,0,-0.05,-0.02,-0.5,0,0,0,2.64,0,0,0.0011779
17790,1.9465e+07,0,0,0,0,-0.05,-0.02,-0.5,0,0,0,2.64,0,0,0.0011779
17831,1.9475e+07,0,0,0,0,-0.05,-0.02,-0.5,0,0,0,2.64,0,0,0.0011779
17871,1.9485e+07,0,0,0,0,-0.05,-0.02,-0.5,0,0,0,2.64,0,0,0.0011779
17915,1.9495e+07,0,0,0,0,-0.05,-0.02,-0.5,0,0,0,2.64,0,0,0.0011779
17956,1.9505e+07,0,0,0,0,-0.05,-0.02,-0.5,0,0,0,2.64,0,0,0.0011779
18001,1.9515e+07,0,0,0,0,-0.05,-0.02,-0.5,0,0,0,2.64,0,0,0.0011779
18044,1.9525e+07,0,0,0,0,-0.05,-0.02,-0.5,0,0,0,2.64,0,0,0.0011779
18084,1.9535e+07,0,0,0,0,-0.05,-0.02,-0.5,0,0,0,2.64,0,0,0.0011779
18125,1.9545e+07,0,0,0,0,-0.05,-0.02,-0.5,0,0,0,2.64,0,0,0.0011779
18165,1.9557e+07,0,0,0,0,-0.04,-0.02,-0.36,0,0,0,0.23,0,0,0.00031417
18207,1.9568e+07,0,0,0,0,-0.04,-0.02,-0.36,0,0,0,0.23,0,0,0.00031417
18248,1.9578e+07,0,0,0,0,-0.04,-0.02,-0.36,0,0,0,0.23,0,0,0.00031417
18285,1.9588e+07,0,0,0,0,-0.04,-0.02,-0.36,0,0,0,0.23,0,0,0.00031417
18327,1.9598e+07,0,0,0,0,-0.04,-0.02,-0.36,0,0,0,0.23,0,0,0.00031417
18368,1.9608e+07,0,0,0,0,-0.04,-0.02,-0.36,0,0,0,0.23,0,0,0.00031417
18414,1.9618e+07,0,0,0,0,-0.04,-0.02,-0.36,0,0,0,0.23,0,0,0.00031417
18455,1.9628e+07,0,0,0,0,-0.04,-0.02,-0.36,0,0,0,0.23,0,0,0.00031417
18495,1.9638e+07,0,0,0,0,-0.04,-0.02,-0.36,0,0,0,0.23,0,0,0.00031417
18536,1.9648e+07,0,0,0,0,-0.04,-0.02,-0.36,0,0,0,0.23,0,0,0.00031417
18576,1.9658e+07,0,0,0,0,-0.04,-0.02,-0.36,0,0,0,0.23,0,0,0.00031417
18612,1.9668e+07,0,0,0,0,-0.04,-0.02,-0.13,0,0,0,-0.24,0,0,4.3555e-05
18654,1.9678e+07,0,0,0,0,-0.04,-0.02,-0.13,0,0,0,-0.24,0,0,4.3555e-05
18694,1.9688e+07,0,0,0,0,-0.04,-0.02,-0.13,0,0,0,-0.24,0,0,4.3555e-05
18735,1.9698e+07,0,0,0,0,-0.04,-0.02,-0.13,0,0,0,-0.24,0,0,4.3555e-05
18778,1.9708e+07,0,0,0,0,-0.04,-0.02,-0.13,0,0,0,-0.24,0,0,4.3555e-05
18822,1.9718e+07,0,0,0,0,-0.04,-0.02,-0.13,0,0,0,-0.24,0,0,4.3555e-05
18864,1.9728e+07,0,0,0,0,-0.04,-0.02,-0.13,0,0,0,-0.24,0,0,4.3555e-05
18905,1.9738e+07,0,0,0,0,-0.04,-0.02,-0.13,0,0,0,-0.24,0,0,4.3555e-05
18945,1.9748e+07,0,0,0,0,-0.04,-0.02,-0.13,0,0,0,-0.24,0,0,4.3555e-05
18987,1.9758e+07,0,0,0,0,-0.04,-0.02,-0.13,0,0,0,-0.24,0,0,4.3555e-05
19025,1.9768e+07,0,0,0,0,-0.04,-0.02,-0.36,0,0,0,0.05,0,0,0.00031152
19065,1.9778e+07,0,0,0,0,-0.04,-0.02,-0.36,0,0,0,0.05,0,0,0.00031152
19106,1.9789e+07,0,0,0,0,-0.04,-0.02,-0.36,0,0,0,0.05,0,0,0.00031152
19146,1.9798e+07,0,0,0,0,-0.04,-0.02,-0.36,0,0,0,0.05,0,0,0.00031152
19189,1.9809e+07,0,0,0,0,-0.04,-0.02,-0.36,0,0,0,0.05,0,0,0.00031152
19235,1.9818e+07,0,0,0,0,-0.04,-0.02,-0.36,0,0,0,0.05,0,0,0.00031152
19276,1.9828e+07,0,0,0,0,-0.04,-0.02,-0.36,0,0,0,0.05,0,0,0.00031152
19317,1.9839e+07,0,0,0,0,-0.04,-0.02,-0.36,0,0,0,0.05,0,0,0.00031152
19357,1.9848e+07,0,0,0,0,-0.04,-0.02,-0.36,0,0,0,0.05,0,0,0.00031152
19399,1.9861e+07,0,0,0,0,-0.04,-0.02,-0.37,0,0,0,0.05,0,0,0.00032594
19439,1.9871e+07,0,0,0,0,-0.04,-0.02,-0.37,0,0,0,0.15,0,0,0.00032594
19480,1.9881e+07,0,0,0,0,-0.04,-0.02,-0.37,0,0,0,0.15,0,0,0.00032594
19521,1.9891e+07,0,0,0,0,-0.04,-0.02,-0.37,0,0,0,0.15,0,0,0.00032594
19562,1.9901e+07,0,0,0,0,-0.04,-0.02,-0.37,0,0,0,0.15,0,0,0.00032594
19610,1.9914e+07,0,0,0,0,-0.04,-0.02,-0.37,0,0,0,0.15,0,0,0.00032594
19651,1.9923e+07,0,0,0,0,-0.04,-0.02,-0.37,0,0,0,0.15,0,0,0.00032594
19694,1.9934e+07,0,0,0,0,-0.04,-0.02,-0.37,0,0,0,0.15,0,0,0.00032594
19735,1.9944e+07,0,0,0,0,-0.04,-0.02,-0.37,0,0,0,0.15,0,0,0.00032594
19773,1.9953e+07,0,0,0,0,-0.04,-0.02,-0.36,0,0,0,0.15,0,0,0.00030565
19811,1.9963e+07,0,0,0,0,-0.04,-0.02,-0.36,0,0,0,1.98,0,0,0.00030565
19852,1.9974e+07,0,0,0,0,-0.04,-0.02,-0.36,0,0,0,1.98,0,0,0.00030565
19893,1.9984e+07,0,0,0,0,-0.04,-0.02,-0.36,0,0,0,1.98,0,0,0.00030565
19935,1.9994e+07,0,0,0,0,-0.04,-0.02,-0.36,0,0,0,1.98,0,0,0.00030565
19977,2.0003e+07,0,0,0,0,-0.04,-0.02,-0.36,0,0,0,1.98,0,0,0.00030565
20021,2.0014e+07,0,0,0,0,-0.04,-0.02,-0.36,0,0,0,1.98,0,0,0.00030565
20063,2.0024e+07,0,0,0,0,-0.04,-0.02,-0.36,0,0,0,1.98,0,0,0.00030565
20104,2.0034e+07,0,0,0,0,-0.04,-0.02,-0.36,0,0,0,1.98,0,0,0.00030565
20144,2.0043e+07,0,0,0,0,-0.04,-0.02,-0.36,0,0,0,1.98,0,0,0.00030565
20185,2.0054e+07,0,0,0,0,-0.04,-0.02,-0.36,0,0,0,1.98,0,0,0.00030565
20220,2.0064e+07,0,0,0,0,-0.04,-0.02,-0.38,0,0,0,-0.56,0,0,0.00034234
20261,2.0074e+07,0,0,0,0,-0.04,-0.02,-0.38,0,0,0,-0.56,0,0,0.00034234
20302,2.0084e+07,0,0,0,0,-0.04,-0.02,-0.38,0,0,0,-0.56,0,0,0.00034234
20342,2.0094e+07,0,0,0,0,-0.04,-0.02,-0.38,0,0,0,-0.56,0,0,0.00034234
20384,2.0104e+07,0,0,0,0,-0.04,-0.02,-0.38,0,0,0,-0.56,0,0,0.00034234
20429,2.0114e+07,0,0,0,0,-0.04,-0.02,-0.38,0,0,0,-0.56,0,0,0.00034234
20470,2.0124e+07,0,0,0,0,-0.04,-0.02,-0.38,0,0,0,-0.56,0,0,0.00034234
20512,2.0134e+07,0,0,0,0,-0.04,-0.02,-0.38,0,0,0,-0.56,0,0,0.00034234
20552,2.0144e+07,0,0,0,0,-0.04,-0.02,-0.38,0,0,0,-0.56,0,0,0.00034234
20596,2.0156e+07,0,0,0,0,-0.04,-0.02,-0.38,0,0,0,-0.56,0,0,0.00034234
20633,2.0166e+07,0,0,0,0,-0.04,-0.02,-0.5,0,0,0,0.73,0,0,0.00072364
20673,2.0176e+07,0,0,0,0,-0.04,-0.02,-0.5,0,0,0,0.73,0,0,0.00072364
20713,2.0186e+07,0,0,0,0,-0.04,-0.02,-0.5,0,0,0,0.73,0,0,0.00072364
20754,2.0196e+07,0,0,0,0,-0.04,-0.02,-0.5,0,0,0,0.73,0,0,0.00072364
20795,2.0206e+07,0,0,0,0,-0.04,-0.02,-0.5,0,0,0,0.73,0,0,0.00072364
20839,2.0216e+07,0,0,0,0,-0.04,-0.02,-0.5,0,0,0,0.73,0,0,0.00072364
20881,2.0226e+07,0,0,0,0,-0.04,-0.02,-0.5,0,0,0,0.73,0,0,0.00072364
20922,2.0236e+07,0,0,0,0,-0.04,-0.02,-0.5,0,0,0,0.73,0,0,0.00072364
20963,2.0246e+07,0,0,0,0,-0.04,-0.02,-0.5,0,0,0,0.73,0,0,0.00072364
21004,2.0259e+07,0,0,0,0,-0.04,-0.02,-0.5,0,0,0,0.73,0,0,0.00072364
21042,2.0269e+07,0,0,0,0,-0.04,-0.02,-0.39,0,0,0,2.55,0,0,0.00037195
21083,2.0279e+07,0,0,0,0,-0.04,-0.02,-0.39,0,0,0,2.55,0,0,0.00037195
21123,2.0288e+07,0,0,0,0,-0.04,-0.02,-0.39,0,0,0,2.55,0,0,0.00037195
21165,2.0299e+07,0,0,0,0,-0.04,-0.02,-0.39,0,0,0,2.55,0,0,0.00037195
21205,2.0308e+07,0,0,0,0,-0.04,-0.02,-0.39,0,0,0,2.55,0,0,0.00037195
21252,2.0319e+07,0,0,0,0,-0.04,-0.02,-0.39,0,0,0,2.55,0,0,0.00037195
21293,2.0329e+07,0,0,0,0,-0.04,-0.02,-0.39,0,0,0,2.55,0,0,0.00037195
21335,2.0338e+07,0,0,0,0,-0.04,-0.02,-0.39,0,0,0,2.55,0,0,0.00037195
21378,2.0349e+07,0,0,0,0,-0.04,-0.02,-0.39,0,0,0,2.55,0,0,0.00037195
21415,2.0358e+07,0,0,0,0,-0.04,-0.02,-0.39,0,0,0,2.55,0,0,0.00037195
21452,2.0368e+07,0,0,0,0,-0.04,-0.02,-0.4,0,0,0,0.9,0,0,0.00038945
21493,2.0378e+07,0,0,0,0,-0.04,-0.02,-0.4,0,0,0,0.9,0,0,0.00038945
21533,2.0388e+07,0,0,0,0,-0.04,-0.02,-0.4,0,0,0,0.9,0,0,0.00038945
21574,2.0398e+07,0,0,0,0,-0.04,-0.02,-0.4,0,0,0,0.9,0,0,0.00038945
21615,2.0409e+07,0,0,0,0,-0.04,-0.02,-0.4,0,0,0,0.9,0,0,0.00038945
21660,2.0419e+07,0,0,0,0,-0.04,-0.02,-0.4,0,0,0,0.9,0,0,0.00038945
21701,2.0429e+07,0,0,0,0,-0.04,-0.02,-0.4,0,0,0,0.9,0,0,0.00038945
21741,2.0439e+07,0,0,0,0,-0.04,-0.02,-0.4,0,0,0,0.9,0,0,0.00038945
21784,2.0449e+07,0,0,0,0,-0.04,-0.02,-0.4,0,0,0,0.9,0,0,0.00038945
21821,2.0462e+07,0,0,0,0,-0.04,-0.02,-0.5,0,0,0,0.29,0,0,0.0010192
21861,2.0471e+07,0,0,0,0,-0.04,-0.02,-0.5,0,0,0,0.29,0,0,0.0010192
21902,2.0482e+07,0,0,0,0,-0.04,-0.02,-0.5,0,0,0,0.29,0,0,0.0010192
21944,2.0492e+07,0,0,0,0,-0.04,-0.02,-0.5,0,0,0,0.29,0,0,0.0010192
21986,2.0502e+07,0,0,0,0,-0.04,-0.02,-0.5,0,0,0,0.29,0,0,0.0010192
22026,2.0512e+07,0,0,0,0,-0.04,-0.02,-0.5,0,0,0,0.29,0,0,0.0010192
22072,2.0522e+07,0,0,0,0,-0.04,-0.02,-0.5,0,0,0,0.29,0,0,0.0010192
22114,2.0532e+07,0,0,0,0,-0.04,-0.02,-0.5,0,0,0,0.29,0,0,0.0010192
22155,2.0542e+07,0,0,0,0,-0.04,-0.02,-0.5,0,0,0,0.29,0,0,0.0010192
22196,2.0552e+07,0,0,0,0,-0.04,-0.02,-0.5,0,0,0,0.29,0,0,0.0010192
22238,2.0564e+07,0,0,0,0,-0.04,-0.02,-0.25,0,0,0,0.27,0,0,0.00014973
22276,2.0574e+07,0,0,0,0,-0.04,-0.02,-0.25,0,0,0,0.27,0,0,0.00014973
22316,2.0584e+07,0,0,0,0,-0.04,-0.02,-0.25,0,0,0,0.27,0,0,0.00014973
22357,2.0595e+07,0,0,0,0,-0.04,-0.02,-0.25,0,0,0,0.27,0,0,0.00014973
22397,2.0605e+07,0,0,0,0,-0.04,-0.02,-0.25,0,0,0,0.27,0,0,0.00014973
22443,2.0615e+07,0,0,0,0,-0.04,-0.02,-0.25,0,0,0,0.27,0,0,0.00014973
22485,2.0625e+07,0,0,0,0,-0.04,-0.02,-0.25,0,0,0,0.27,0,0,0.00014973
22525,2.0635e+07,0,0,0,0,-0.04,-0.02,-0.25,0,0,0,0.27,0,0,0.00014973
22566,2.0645e+07,0,0,0,0,-0.04,-0.02,-0.25,0,0,0,0.27,0,0,0.00014973
22608,2.0655e+07,0,0,0,0,-0.04,-0.02,-0.25,0,0,0,0.27,0,0,0.00014973
22649,2.0665e+07,0,0,0,0,-0.04,-0.02,-0.25,0,0,0,0.27,0,0,0.00014973
22686,2.0675e+07,0,0,0,0,-0.04,-0.02,-0.5,0,0,0,-0.09,0,0,0.0014212
22724,2.0685e+07,0,0,0,0,-0.04,-0.02,-0.5,0,0,0,-0.09,0,0,0.0014212
22766,2.0695e+07,0,0,0,0,-0.04,-0.02,-0.5,0,0,0,-0.09,0,0,0.0014212
22806,2.0705e+07,0,0,0,0,-0.04,-0.02,-0.5,0,0,0,-0.09,0,0,0.0014212
22851,2.0715e+07,0,0,0,0,-0.04,-0.02,-0.5,0,0,0,-0.09,0,0,0.0014212
22892,2.0725e+07,0,0,0,0,-0.04,-0.02,-0.5,0,0,0,-0.09,0,0,0.0014212
22936,2.0735e+07,0,0,0,0,-0.04,-0.02,-0.5,0,0,0,-0.09,0,0,0.0014212
22976,2.0745e+07,0,0,0,0,-0.04,-0.02,-0.5,0,0,0,-0.09,0,0,0.0014212
23018,2.0757e+07,0,0,0,0,-0.04,-0.02,-0.5,0,0,0,0.64,0,0,0.0011927
23059,2.0768e+07,0,0,0,0,-0.04,-0.02,-0.5,0,0,0,0.64,0,0,0.0011927
23096,2.0778e+07,0,0,0,0,-0.04,-0.02,-0.5,0,0,0,0.64,0,0,0.0011927
23137,2.0788e+07,0,0,0,0,-0.04,-0.02,-0.5,0,0,0,0.64,0,0,0.0011927
23177,2.0798e+07,0,0,0,0,-0.04,-0.02,-0.5,0,0,0,0.64,0,0,0.0011927
23219,2.0808e+07,0,0,0,0,-0.04,-0.02,-0.5,0,0,0,0.64,0,0,0.0011927
23265,2.0818e+07,0,0,0,0,-0.04,-0.02,-0.5,0,0,0,0.64,0,0,0.0011927
23306,2.0828e+07,0,0,0,0,-0.04,-0.02,-0.5,0,0,0,0.64,0,0,0.0011927
23347,2.0838e+07,0,0,0,0,-0.04,-0.02,-0.5,0,0,0,0.64,0,0,0.0011927
23387,2.0848e+07,0,0,0,0,-0.04,-0.02,-0.5,0,0,0,0.64,0,0,0.0011927
23430,2.0858e+07,0,0,0,0,-0.04,-0.02,-0.5,0,0,0,0.64,0,0,0.0011927
23470,2.0871e+07,0,0,0,0,-0.03,-0.02,-0.5,0,0,0,0.64,0,0,0.00059998
23511,2.088e+07,0,0,0,0,-0.03,-0.02,-0.5,0,0,0,0.64,0,0,0.00059998
23552,2.089e+07,0,0,0,0,-0.03,-0.02,-0.5,0,0,0,0.45,0,0,0.00059998
23595,2.09e+07,0,0,0,0,-0.03,-0.02,-0.5,0,0,0,0.45,0,0,0.00059998
23636,2.091e+07,0,0,0,0,-0.03,-0.02,-0.5,0,0,0,0.45,0,0,0.00059998
23680,2.092e+07,0,0,0,0,-0.03,-0.02,-0.5,0,0,0,0.45,0,0,0.00059998
23721,2.093e+07,0,0,0,0,-0.03,-0.02,-0.5,0,0,0,0.45,0,0,0.00059998
23763,2.094e+07,0,0,0,0,-0.03,-0.02,-0.5,0,0,0,0.45,0,0,0.00059998
23805,2.095e+07,0,0,0,0,-0.03,-0.02,-0.5,0,0,0,0.45,0,0,0.00059998
23846,2.096e+07,0,0,0,0,-0.03,-0.02,-0.5,0,0,0,0.45,0,0,0.00059998
23887,2.097e+07,0,0,0,0,-0.03,-0.02,-0.5,0,0,0,0.45,0,0,0.00059998
23928,2.0983e+07,0,0,0,0,-0.03,-0.02,-0.48,0,0,0,0.97,0,0,0.00055204
23970,2.0993e+07,0,0,0,0,-0.03,-0.02,-0.48,0,0,0,0.97,0,0,0.00055204
24011,2.1003e+07,0,0,0,0,-0.03,-0.02,-0.48,0,0,0,0.97,0,0,0.00055204
24053,2.1013e+07,0,0,0,0,-0.03,-0.02,-0.48,0,0,0,0.97,0,0,0.00055204
24097,2.1023e+07,0,0,0,0,-0.03,-0.02,-0.48,0,0,0,0.97,0,0,0.00055204
24138,2.1033e+07,0,0,0,0,-0.03,-0.02,-0.48,0,0,0,0.97,0,0,0.00055204
24179,2.1043e+07,0,0,0,0,-0.03,-0.02,-0.48,0,0,0,0.97,0,0,0.00055204
24220,2.1053e+07,0,0,0,0,-0.03,-0.02,-0.48,0,0,0,0.97,0,0,0.00055204
24257,2.1063e+07,0,0,0,0,-0.03,-0.02,-0.22,0,0,0,0.97,0,0,0.0001218
24302,2.1078e+07,0,0,0,0,-0.03,-0.02,-0.22,0,0,0,0.4,0,0,0.0001218
24343,2.1088e+07,0,0,0,0,-0.03,-0.02,-0.22,0,0,0,0.4,0,0,0.0001218
24384,2.1098e+07,0,0,0,0,-0.03,-0.02,-0.22,0,0,0,0.4,0,0,0.0001218
24426,2.1108e+07,0,0,0,0,-0.03,-0.02,-0.22,0,0,0,0.4,0,0,0.0001218
24471,2.1118e+07,0,0,0,0,-0.03,-0.02,-0.22,0,0,0,0.4,0,0,0.0001218
24511,2.1128e+07,0,0,0,0,-0.03,-0.02,-0.22,0,0,0,0.4,0,0,0.0001218
24555,2.1138e+07,0,0,0,0,-0.03,-0.02,-0.22,0,0,0,0.4,0,0,0.0001218
24595,2.1149e+07,0,0,0,0,-0.03,-0.02,-0.22,0,0,0,0.4,0,0,0.0001218
24636,2.1159e+07,0,0,0,0,-0.03,-0.02,-0.22,0,0,0,0.4,0,0,0.0001218
24673,2.1169e+07,0,0,0,0,-0.03,-0.02,-0.14,0,0,0,0.79,0,0,4.672e-05
24714,2.1179e+07,0,0,0,0,-0.03,-0.02,-0.14,0,0,0,0.79,0,0,4.672e-05
24756,2.1189e+07,0,0,0,0,-0.03,-0.02,-0.14,0,0,0,0.79,0,0,4.672e-05
24796,2.1199e+07,0,0,0,0,-0.03,-0.02,-0.14,0,0,0,0.79,0,0,4.672e-05
24838,2.1209e+07,0,0,0,0,-0.03,-0.02,-0.14,0,0,0,0.79,0,0,4.672e-05
24882,2.1219e+07,0,0,0,0,-0.03,-0.02,-0.14,0,0,0,0.79,0,0,4.672e-05
24923,2.1229e+07,0,0,0,0,-0.03,-0.02,-0.14,0,0,0,0.79,0,0,4.672e-05
24963,2.1239e+07,0,0,0,0,-0.03,-0.02,-0.14,0,0,0,0.79,0,0,4.672e-05
25005,2.1249e+07,0,0,0,0,-0.03,-0.02,-0.14,0,0,0,0.79,0,0,4.672e-05
25046,2.1259e+07,0,0,0,0,-0.03,-0.02,-0.14,0,0,0,0.79,0,0,4.672e-05
25086,2.1272e+07,0,0,0,0,-0.03,-0.02,-0.06,0,0,0,0.31,0,0,8.7923e-06
25128,2.1282e+07,0,0,0,0,-0.03,-0.02,-0.06,0,0,0,0.31,0,0,8.7923e-06
25169,2.1292e+07,0,0,0,0,-0.03,-0.02,-0.06,0,0,0,0.31,0,0,8.7923e-06
25210,2.1302e+07,0,0,0,0,-0.03,-0.02,-0.06,0,0,0,0.31,0,0,8.7923e-06
25251,2.1312e+07,0,0,0,0,-0.03,-0.02,-0.06,0,0,0,0.31,0,0,8.7923e-06
25295,2.1322e+07,0,0,0,0,-0.03,-0.02,-0.06,0,0,0,0.31,0,0,8.7923e-06
25337,2.1332e+07,0,0,0,0,-0.03,-0.02,-0.06,0,0,0,0.31,0,0,8.7923e-06
25379,2.1342e+07,0,0,0,0,-0.03,-0.02,-0.06,0,0,0,0.31,0,0,8.7923e-06
25420,2.1352e+07,0,0,0,0,-0.03,-0.02,-0.06,0,0,0,0.31,0,0,8.7923e-06
25463,2.1365e+07,0,0,0,0,-0.03,-0.02,-0.06,0,0,0,1.01,0,0,8.7923e-06
25501,2.1375e+07,0,0,0,0,-0.03,-0.02,-0.5,0,0,0,1.01,0,0,0.0012355
25542,2.1385e+07,0,0,0,0,-0.03,-0.02,-0.5,0,0,0,1.01,0,0,0.0012355
25584,2.1395e+07,0,0,0,0,-0.03,-0.02,-0.5,0,0,0,1.01,0,0,0.0012355
25625,2.1405e+07,0,0,0,0,-0.03,-0.02,-0.5,0,0,0,1.01,0,0,0.0012355
25665,2.1415e+07,0,0,0,0,-0.03,-0.02,-0.5,0,0,0,1.01,0,0,0.0012355
25710,2.1425e+07,0,0,0,0,-0.03,-0.02,-0.5,0,0,0,1.01,0,0,0.0012355
25752,2.1435e+07,0,0,0,0,-0.03,-0.02,-0.5,0,0,0,1.01,0,0,0.0012355
25792,2.1445e+07,0,0,0,0,-0.03,-0.02,-0.5,0,0,0,1.01,0,0,0.0012355
25836,2.1457e+07,0,0,0,0,-0.03,-0.02,-0.26,0,0,0,1.01,0,0,0.00016752
25876,2.1467e+07,0,0,0,0,-0.03,-0.02,-0.26,0,0,0,2.15,0,0,0.00016752
25914,2.1478e+07,0,0,0,0,-0.03,-0.02,-0.26,0,0,0,2.15,0,0,0.00016752
25958,2.1488e+07,0,0,0,0,-0.03,-0.02,-0.26,0,0,0,2.15,0,0,0.00016752
25999,2.1498e+07,0,0,0,0,-0.03,-0.02,-0.26,0,0,0,2.15,0,0,0.00016752
26040,2.1508e+07,0,0,0,0,-0.03,-0.02,-0.26,0,0,0,2.15,0,0,0.00016752
26084,2.1518e+07,0,0,0,0,-0.03,-0.02,-0.26,0,0,0,2.15,0,0,0.00016752
26128,2.1528e+07,0,0,0,0,-0.03,-0.02,-0.26,0,0,0,2.15,0,0,0.00016752
26168,2.1538e+07,0,0,0,0,-0.03,-0.02,-0.26,0,0,0,2.15,0,0,0.00016752
26209,2.1548e+07,0,0,0,0,-0.03,-0.02,-0.26,0,0,0,2.15,0,0,0.00016752
26250,2.1558e+07,0,0,0,0,-0.03,-0.02,-0.26,0,0,0,2.15,0,0,0.00016752
26290,2.1568e+07,0,0,0,0,-0.03,-0.02,-0.26,0,0,0,2.15,0,0,0.00016752
26329,2.1581e+07,0,0,0,0,-0.03,-0.02,-0.08,0,0,0,1.09,0,0,1.7961e-05
26370,2.1591e+07,0,0,0,0,-0.03,-0.02,-0.08,0,0,0,1.09,0,0,1.7961e-05
26410,2.1601e+07,0,0,0,0,-0.03,-0.02,-0.08,0,0,0,1.09,0,0,1.7961e-05
26452,2.1611e+07,0,0,0,0,-0.03,-0.02,-0.08,0,0,0,1.09,0,0,1.7961e-05
26499,2.1621e+07,0,0,0,0,-0.03,-0.02,-0.08,0,0,0,1.09,0,0,1.7961e-05
26541,2.1631e+07,0,0,0,0,-0.03,-0.02,-0.08,0,0,0,1.09,0,0,1.7961e-05
26581,2.1641e+07,0,0,0,0,-0.03,-0.02,-0.08,0,0,0,1.09,0,0,1.7961e-05
26622,2.1651e+07,0,0,0,0,-0.03,-0.02,-0.08,0,0,0,1.09,0,0,1.7961e-05
26662,2.1661e+07,0,0,0,0,-0.03,-0.02,-0.08,0,0,0,1.09,0,0,1.7961e-05
26700,2.1671e+07,0,0,0,0,-0.03,-0.02,-0.14,0,0,0,0.74,0,0,4.8444e-05
26738,2.1681e+07,0,0,0,0,-0.03,-0.02,-0.14,0,0,0,0.74,0,0,4.8444e-05
26779,2.1692e+07,0,0,0,0,-0.03,-0.02,-0.14,0,0,0,0.74,0,0,4.8444e-05
26820,2.1702e+07,0,0,0,0,-0.03,-0.02,-0.14,0,0,0,0.74,0,0,4.8444e-05
26862,2.1712e+07,0,0,0,0,-0.03,-0.02,-0.14,0,0,0,0.74,0,0,4.8444e-05
26912,2.1724e+07,0,0,0,0,-0.03,-0.02,-0.14,0,0,0,0.74,0,0,4.8444e-05
26952,2.1734e+07,0,0,0,0,-0.03,-0.02,-0.14,0,0,0,0.74,0,0,4.8444e-05
26993,2.1744e+07,0,0,0,0,-0.03,-0.02,-0.14,0,0,0,0.74,0,0,4.8444e-05
27035,2.1754e+07,0,0,0,0,-0.03,-0.02,-0.14,0,0,0,0.74,0,0,4.8444e-05
27075,2.1764e+07,0,0,0,0,-0.03,-0.02,-0.14,0,0,0,0.92,0,0,4.8444e-05
27117,2.1774e+07,0,0,0,0,-0.03,-0.02,-0.37,0,0,0,0.92,0,0,0.00033582
27155,2.1784e+07,0,0,0,0,-0.03,-0.02,-0.37,0,0,0,0.92,0,0,0.00033582
27196,2.1794e+07,0,0,0,0,-0.03,-0.02,-0.37,0,0,0,0.92,0,0,0.00033582
27237,2.1804e+07,0,0,0,0,-0.03,-0.02,-0.37,0,0,0,0.92,0,0,0.00033582
27278,2.1814e+07,0,0,0,0,-0.03,-0.02,-0.37,0,0,0,0.92,0,0,0.00033582
27326,2.1824e+07,0,0,0,0,-0.03,-0.02,-0.37,0,0,0,0.92,0,0,0.00033582
27366,2.1834e+07,0,0,0,0,-0.03,-0.02,-0.37,0,0,0,0.92,0,0,0.00033582
27408,2.1844e+07,0,0,0,0,-0.03,-0.02,-0.37,0,0,0,0.92,0,0,0.00033582
27448,2.1854e+07,0,0,0,0,-0.03,-0.02,-0.37,0,0,0,0.92,0,0,0.00033582
27489,2.1864e+07,0,0,0,0,-0.03,-0.02,0.01,0,0,0,0.92,0,0,4.3364e-07
27530,2.1874e+07,0,0,0,0,-0.03,-0.02,0.01,0,0,0,0.23,0,0,4.3364e-07
27567,2.1885e+07,0,0,0,0,-0.03,-0.02,0.01,0,0,0,0.23,0,0,4.3364e-07
27609,2.1895e+07,0,0,0,0,-0.03,-0.02,0.01,0,0,0,0.23,0,0,4.3364e-07
27650,2.1905e+07,0,0,0,0,-0.03,-0.02,0.01,0,0,0,0.23,0,0,4.3364e-07
27690,2.1915e+07,0,0,0,0,-0.03,-0.02,0.01,0,0,0,0.23,0,0,4.3364e-07
27738,2.1925e+07,0,0,0,0,-0.03,-0.02,0.01,0,0,0,0.23,0,0,4.3364e-07
27778,2.1935e+07,0,0,0,0,-0.03,-0.02,0.01,0,0,0,0.23,0,0,4.3364e-07
27819,2.1945e+07,0,0,0,0,-0.03,-0.02,0.01,0,0,0,0.23,0,0,4.3364e-07
27860,2.1955e+07,0,0,0,0,-0.03,-0.02,0.01,0,0,0,0.23,0,0,4.3364e-07
27898,2.1967e+07,0,0,0,0,-0.03,-0.02,-0.41,0,0,0,1.7,0,0,0.0004036
27938,2.1977e+07,0,0,0,0,-0.03,-0.02,-0.41,0,0,0,1.7,0,0,0.0004036
27981,2.1988e+07,0,0,0,0,-0.03,-0.02,-0.41,0,0,0,1.7,0,0,0.0004036
28022,2.1997e+07,0,0,0,0,-0.03,-0.02,-0.41,0,0,0,1.7,0,0,0.0004036
28063,2.2008e+07,0,0,0,0,-0.03,-0.02,-0.41,0,0,0,1.7,0,0,0.0004036
28104,2.2018e+07,0,0,0,0,-0.03,-0.02,-0.41,0,0,0,1.7,0,0,0.0004036
28149,2.2027e+07,0,0,0,0,-0.03,-0.02,-0.41,0,0,0,1.7,0,0,0.0004036
28190,2.2037e+07,0,0,0,0,-0.03,-0.02,-0.41,0,0,0,1.7,0,0,0.0004036
28230,2.2048e+07,0,0,0,0,-0.03,-0.02,-0.41,0,0,0,1.7,0,0,0.0004036
28272,2.2057e+07,0,0,0,0,-0.03,-0.02,-0.41,0,0,0,1.7,0,0,0.0004036
28310,2.2068e+07,0,0,0,0,-0.03,-0.02,-0.45,0,0,0,0.89,0,0,0.00048511
28350,2.2077e+07,0,0,0,0,-0.03,-0.02,-0.45,0,0,0,0.89,0,0,0.00048511
28388,2.2088e+07,0,0,0,0,-0.03,-0.02,-0.45,0,0,0,0.89,0,0,0.00048511
28428,2.2098e+07,0,0,0,0,-0.03,-0.02,-0.45,0,0,0,0.89,0,0,0.00048511
28470,2.2108e+07,0,0,0,0,-0.03,-0.02,-0.45,0,0,0,0.89,0,0,0.00048511
28510,2.2118e+07,0,0,0,0,-0.03,-0.02,-0.45,0,0,0,0.89,0,0,0.00048511
28559,2.2128e+07,0,0,0,0,-0.03,-0.02,-0.45,0,0,0,0.89,0,0,0.00048511
28607,2.2138e+07,0,0,0,0,-0.03,-0.02,-0.45,0,0,0,0.89,0,0,0.00048511
28651,2.2148e+07,0,0,0,0,-0.03,-0.02,-0.45,0,0,0,0.89,0,0,0.00048511
28696,2.2162e+07,0,0,0,0,-0.03,-0.02,-0.17,0,0,0,0.89,0,0,7.0055e-05
28743,2.2175e+07,0,0,0,0,-0.03,-0.02,-0.17,0,0,0,1.04,0,0,7.0055e-05
28788,2.2185e+07,0,0,0,0,-0.03,-0.02,-0.17,0,0,0,1.04,0,0,7.0055e-05
28834,2.2195e+07,0,0,0,0,-0.03,-0.02,-0.17,0,0,0,1.04,0,0,7.0055e-05
28875,2.2206e+07,0,0,0,0,-0.03,-0.02,-0.17,0,0,0,1.04,0,0,7.0055e-05
28920,2.2215e+07,0,0,0,0,-0.03,-0.02,-0.17,0,0,0,1.04,0,0,7.0055e-05
28969,2.2225e+07,0,0,0,0,-0.03,-0.02,-0.17,0,0,0,1.04,0,0,7.0055e-05
29014,2.2235e+07,0,0,0,0,-0.03,-0.02,-0.17,0,0,0,1.04,0,0,7.0055e-05
29060,2.2246e+07,0,0,0,0,-0.03,-0.02,-0.17,0,0,0,1.04,0,0,7.0055e-05
29104,2.2256e+07,0,0,0,0,-0.03,-0.02,-0.17,0,0,0,1.04,0,0,7.0055e-05
29149,2.2266e+07,0,0,0,0,-0.03,-0.02,-0.17,0,0,0,1.04,0,0,7.0055e-05
29187,2.2277e+07,0,0,0,0,-0.03,-0.02,-0.35,0,0,0,0.48,0,0,0.0003028
29235,2.229e+07,0,0,0,0,-0.03,-0.02,-0.35,0,0,0,0.48,0,0,0.0003028
29279,2.23e+07,0,0,0,0,-0.03,-0.02,-0.35,0,0,0,0.48,0,0,0.0003028
29324,2.231e+07,0,0,0,0,-0.03,-0.02,-0.35,0,0,0,0.48,0,0,0.0003028
29369,2.232e+07,0,0,0,0,-0.03,-0.02,-0.35,0,0,0,0.48,0,0,0.0003028
29418,2.233e+07,0,0,0,0,-0.03,-0.02,-0.35,0,0,0,0.48,0,0,0.0003028
29466,2.2341e+07,0,0,0,0,-0.03,-0.02,-0.35,0,0,0,0.48,0,0,0.0003028
29510,2.2351e+07,0,0,0,0,-0.03,-0.02,-0.35,0,0,0,0.48,0,0,0.0003028
29555,2.2361e+07,0,0,0,0,-0.03,-0.02,-0.35,0,0,0,0.48,0,0,0.0003028
29597,2.2371e+07,0,0,0,0,-0.03,-0.02,-0.38,0,0,0,-0.26,0,0,0.00035294
29641,2.2381e+07,0,0,0,0,-0.03,-0.02,-0.38,0,0,0,-0.26,0,0,0.00035294
29683,2.2391e+07,0,0,0,0,-0.03,-0.02,-0.38,0,0,0,-0.26,0,0,0.00035294
29727,2.2401e+07,0,0,0,0,-0.03,-0.02,-0.38,0,0,0,-0.26,0,0,0.00035294
29775,2.2414e+07,0,0,0,0,-0.03,-0.02,-0.38,0,0,0,-0.26,0,0,0.00035294
29820,2.2424e+07,0,0,0,0,-0.03,-0.02,-0.38,0,0,0,-0.26,0,0,0.00035294
29869,2.2434e+07,0,0,0,0,-0.03,-0.02,-0.38,0,0,0,-0.26,0,0,0.00035294
29914,2.2444e+07,0,0,0,0,-0.03,-0.02,-0.38,0,0,0,-0.26,0,0,0.00035294
29958,2.2454e+07,0,0,0,0,-0.03,-0.02,-0.38,0,0,0,-0.26,0,0,0.00035294
30000,2.2464e+07,0,0,0,0,-0.03,-0.02,-0.38,0,0,0,-0.26,0,0,0.00035294
30044,2.2476e+07,0,0,0,0,-0.03,-0.02,-0.08,0,0,0,2.25,0,0,1.7755e-05
30092,2.2486e+07,0,0,0,0,-0.03,-0.02,-0.08,0,0,0,2.25,0,0,1.7755e-05
30137,2.2497e+07,0,0,0,0,-0.03,-0.02,-0.08,0,0,0,2.25,0,0,1.7755e-05
30181,2.2507e+07,0,0,0,0,-0.03,-0.02,-0.08,0,0,0,2.25,0,0,1.7755e-05
30227,2.2518e+07,0,0,0,0,-0.03,-0.02,-0.08,0,0,0,2.25,0,0,1.7755e-05
30276,2.2527e+07,0,0,0,0,-0.03,-0.02,-0.08,0,0,0,2.25,0,0,1.7755e-05
30322,2.2538e+07,0,0,0,0,-0.03,-0.02,-0.08,0,0,0,2.25,0,0,1.7755e-05
30367,2.2548e+07,0,0,0,0,-0.03,-0.02,-0.08,0,0,0,2.25,0,0,1.7755e-05
30411,2.2558e+07,0,0,0,0,-0.03,-0.02,-0.08,0,0,0,2.25,0,0,1.7755e-05
30456,2.2571e+07,0,0,0,0,-0.03,-0.02,-0.24,0,0,0,2.26,0,0,0.00014333
30500,2.2581e+07,0,0,0,0,-0.03,-0.02,-0.24,0,0,0,2.26,0,0,0.00014333
30544,2.2591e+07,0,0,0,0,-0.03,-0.02,-0.24,0,0,0,2.26,0,0,0.00014333
30589,2.2601e+07,0,0,0,0,-0.03,-0.02,-0.24,0,0,0,2.26,0,0,0.00014333
30633,2.2611e+07,0,0,0,0,-0.03,-0.02,-0.24,0,0,0,2.26,0,0,0.00014333
30679,2.2622e+07,0,0,0,0,-0.03,-0.02,-0.24,0,0,0,2.26,0,0,0.00014333
30729,2.2632e+07,0,0,0,0,-0.03,-0.02,-0.24,0,0,0,2.26,0,0,0.00014333
30773,2.2642e+07,0,0,0,0,-0.03,-0.02,-0.24,0,0,0,2.26,0,0,0.00014333
30818,2.2652e+07,0,0,0,0,-0.03,-0.02,-0.24,0,0,0,2.26,0,0,0.00014333
30862,2.2662e+07,0,0,0,0,-0.03,-0.02,-0.24,0,0,0,2.26,0,0,0.00014333
30907,2.2675e+07,0,0,0,0,-0.03,-0.02,-0.07,0,0,0,0.79,0,0,1.3058e-05
30950,2.2685e+07,0,0,0,0,-0.03,-0.02,-0.07,0,0,0,0.79,0,0,1.3058e-05
30995,2.2696e+07,0,0,0,0,-0.03,-0.02,-0.07,0,0,0,0.79,0,0,1.3058e-05
31040,2.2706e+07,0,0,0,0,-0.03,-0.02,-0.07,0,0,0,0.79,0,0,1.3058e-05
31084,2.2716e+07,0,0,0,0,-0.03,-0.02,-0.07,0,0,0,0.79,0,0,1.3058e-05
31135,2.2728e+07,0,0,0,0,-0.03,-0.02,-0.07,0,0,0,0.79,0,0,1.3058e-05
31183,2.2739e+07,0,0,0,0,-0.03,-0.02,-0.07,0,0,0,0.79,0,0,1.3058e-05
31228,2.2749e+07,0,0,0,0,-0.03,-0.02,-0.07,0,0,0,0.79,0,0,1.3058e-05
31272,2.2759e+07,0,0,0,0,-0.03,-0.02,-0.07,0,0,0,0.79,0,0,1.3058e-05
31317,2.2769e+07,0,0,0,0,-0.03,-0.02,-0.07,0,0,0,0.79,0,0,1.3058e-05
31356,2.278e+07,0,0,0,0,-0.03,-0.02,0.13,0,0,0,0.68,0,0,4.1235e-05
31400,2.279e+07,0,0,0,0,-0.03,-0.02,0.13,0,0,0,0.68,0,0,4.1235e-05
31445,2.2801e+07,0,0,0,0,-0.03,-0.02,0.13,0,0,0,0.68,0,0,4.1235e-05
31492,2.2811e+07,0,0,0,0,-0.03,-0.02,0.13,0,0,0,0.68,0,0,4.1235e-05
31537,2.2821e+07,0,0,0,0,-0.03,-0.02,0.13,0,0,0,0.68,0,0,4.1235e-05
31581,2.2831e+07,0,0,0,0,-0.03,-0.02,0.13,0,0,0,0.68,0,0,4.1235e-05
31632,2.2841e+07,0,0,0,0,-0.03,-0.02,0.13,0,0,0,0.68,0,0,4.1235e-05
31677,2.2851e+07,0,0,0,0,-0.03,-0.02,0.13,0,0,0,0.68,0,0,4.1235e-05
31722,2.2861e+07,0,0,0,0,-0.03,-0.02,0.13,0,0,0,0.68,0,0,4.1235e-05
31767,2.2872e+07,0,0,0,0,-0.03,-0.02,0.13,0,0,0,0.68,0,0,4.1235e-05
31808,2.2882e+07,0,0,0,0,-0.04,-0.02,-0.33,0,0,0,-0.75,0,0,0.00027164
31853,2.2892e+07,0,0,0,0,-0.04,-0.02,-0.33,0,0,0,-0.75,0,0,0.00027164
31895,2.2903e+07,0,0,0,0,-0.04,-0.02,-0.33,0,0,0,-0.75,0,0,0.00027164
31940,2.2913e+07,0,0,0,0,-0.04,-0.02,-0.33,0,0,0,-0.75,0,0,0.00027164
31986,2.2924e+07,0,0,0,0,-0.04,-0.02,-0.33,0,0,0,-0.75,0,0,0.00027164
32032,2.2934e+07,0,0,0,0,-0.04,-0.02,-0.33,0,0,0,-0.75,0,0,0.00027164
32081,2.2944e+07,0,0,0,0,-0.04,-0.02,-0.33,0,0,0,-0.75,0,0,0.00027164
32125,2.2954e+07,0,0,0,0,-0.04,-0.02,-0.33,0,0,0,-0.75,0,0,0.00027164
32170,2.2964e+07,0,0,0,0,-0.04,-0.02,-0.33,0,0,0,-0.75,0,0,0.00027164
32216,2.2974e+07,0,0,0,0,-0.04,-0.02,-0.33,0,0,0,-0.75,0,0,0.00027164
32256,2.2985e+07,0,0,0,0,-0.04,-0.02,0.13,0,0,0,0.54,0,0,4.5449e-05
32302,2.2995e+07,0,0,0,0,-0.04,-0.02,0.13,0,0,0,0.54,0,0,4.5449e-05
32346,2.3005e+07,0,0,0,0,-0.04,-0.02,0.13,0,0,0,0.54,0,0,4.5449e-05
32392,2.3015e+07,0,0,0,0,-0.04,-0.02,0.13,0,0,0,0.54,0,0,4.5449e-05
32436,2.3025e+07,0,0,0,0,-0.04,-0.02,0.13,0,0,0,0.54,0,0,4.5449e-05
32481,2.3035e+07,0,0,0,0,-0.04,-0.02,0.13,0,0,0,0.54,0,0,4.5449e-05
32529,2.3045e+07,0,0,0,0,-0.04,-0.02,0.13,0,0,0,0.54,0,0,4.5449e-05
32575,2.3055e+07,0,0,0,0,-0.04,-0.02,0.13,0,0,0,0.54,0,0,4.5449e-05
32620,2.3066e+07,0,0,0,0,-0.04,-0.02,0.13,0,0,0,0.54,0,0,4.5449e-05
32664,2.3079e+07,0,0,0,0,-0.04,-0.02,-0.22,0,0,0,0.29,0,0,0.00012564
32709,2.309e+07,0,0,0,0,-0.04,-0.02,-0.22,0,0,0,0.29,0,0,0.00012564
32752,2.31e+07,0,0,0,0,-0.04,-0.02,-0.22,0,0,0,0.29,0,0,0.00012564
32796,2.3111e+07,0,0,0,0,-0.04,-0.02,-0.22,0,0,0,0.29,0,0,0.00012564
32843,2.3121e+07,0,0,0,0,-0.04,-0.02,-0.22,0,0,0,0.29,0,0,0.00012564
32887,2.3131e+07,0,0,0,0,-0.04,-0.02,-0.22,0,0,0,0.29,0,0,0.00012564
32941,2.3143e+07,0,0,0,0,-0.04,-0.02,-0.22,0,0,0,0.29,0,0,0.00012564
32986,2.3153e+07,0,0,0,0,-0.04,-0.02,-0.22,0,0,0,0.29,0,0,0.00012564
33030,2.3164e+07,0,0,0,0,-0.04,-0.02,-0.22,0,0,0,0.29,0,0,0.00012564
33075,2.3174e+07,0,0,0,0,-0.04,-0.02,-0.22,0,0,0,0.29,0,0,0.00012564
33117,2.3187e+07,0,0,0,0,-0.04,-0.02,0.11,0,0,0,-0.79,0,0,3.1893e-05
33162,2.3197e+07,0,0,0,0,-0.04,-0.02,0.11,0,0,0,-0.79,0,0,3.1893e-05
33206,2.3207e+07,0,0,0,0,-0.04,-0.02,0.11,0,0,0,-0.79,0,0,3.1893e-05
33251,2.3218e+07,0,0,0,0,-0.04,-0.02,0.11,0,0,0,-0.79,0,0,3.1893e-05
33297,2.3227e+07,0,0,0,0,-0.04,-0.02,0.11,0,0,0,-0.79,0,0,3.1893e-05
33342,2.3237e+07,0,0,0,0,-0.04,-0.02,0.11,0,0,0,-0.79,0,0,3.1893e-05
33391,2.3248e+07,0,0,0,0,-0.04,-0.02,0.11,0,0,0,-0.79,0,0,3.1893e-05
33435,2.3258e+07,0,0,0,0,-0.04,-0.02,0.11,0,0,0,-0.79,0,0,3.1893e-05
33481,2.3268e+07,0,0,0,0,-0.04,-0.02,0.11,0,0,0,-0.79,0,0,3.1893e-05
33526,2.3278e+07,0,0,0,0,-0.04,-0.02,0.11,0,0,0,-0.79,0,0,3.1893e-05
33567,2.3292e+07,0,0,0,0,-0.04,-0.01,0.15,0,0,0,0.53,0,0,5.8895e-05
33611,2.3302e+07,0,0,0,0,-0.04,-0.01,0.15,0,0,0,0.53,0,0,5.8895e-05
33656,2.3312e+07,0,0,0,0,-0.04,-0.01,0.15,0,0,0,0.53,0,0,5.8895e-05
33701,2.3323e+07,0,0,0,0,-0.04,-0.01,0.15,0,0,0,0.53,0,0,5.8895e-05
33745,2.3332e+07,0,0,0,0,-0.04,-0.01,0.15,0,0,0,0.53,0,0,5.8895e-05
33794,2.3343e+07,0,0,0,0,-0.04,-0.01,0.15,0,0,0,0.53,0,0,5.8895e-05
33843,2.3353e+07,0,0,0,0,-0.04,-0.01,0.15,0,0,0,0.53,0,0,5.8895e-05
33887,2.3363e+07,0,0,0,0,-0.04,-0.01,0.15,0,0,0,0.53,0,0,5.8895e-05
33932,2.3373e+07,0,0,0,0,-0.04,-0.01,0.15,0,0,0,0.53,0,0,5.8895e-05
33977,2.3383e+07,0,0,0,0,-0.04,-0.01,0.15,0,0,0,0.53,0,0,5.8895e-05
34025,2.3396e+07,0,0,0,0,-0.04,0,-0.25,0,0,0,0.53,0,0,0.00015673
34072,2.3409e+07,0,0,0,0,-0.04,0,-0.25,0,0,0,-0.57,0,0,0.00015673
34117,2.3419e+07,0,0,0,0,-0.04,0,-0.25,0,0,0,-0.57,0,0,0.00015673
34162,2.3429e+07,0,0,0,0,-0.04,0,-0.25,0,0,0,-0.57,0,0,0.00015673
34207,2.3439e+07,0,0,0,0,-0.04,0,-0.25,0,0,0,-0.57,0,0,0.00015673
34260,2.3452e+07,0,0,0,0,-0.04,0,-0.25,0,0,0,-0.57,0,0,0.00015673
34305,2.3462e+07,0,0,0,0,-0.04,0,-0.25,0,0,0,-0.57,0,0,0.00015673
34349,2.3473e+07,0,0,0,0,-0.04,0,-0.25,0,0,0,-0.57,0,0,0.00015673
34396,2.3483e+07,0,0,0,0,-0.04,0,-0.25,0,0,0,-0.57,0,0,0.00015673
34440,2.3496e+07,0,0,0,0,-0.04,0.01,-0.01,0,0,0,-0.79,0,0,8.058e-07
34485,2.3509e+07,0,0,0,0,-0.04,0.01,-0.01,0,0,0,-0.79,0,0,8.058e-07
34531,2.3519e+07,0,0,0,0,-0.04,0.01,-0.01,0,0,0,-0.79,0,0,8.058e-07
34577,2.3529e+07,0,0,0,0,-0.04,0.01,-0.01,0,0,0,-0.79,0,0,8.058e-07
34623,2.354e+07,0,0,0,0,-0.04,0.01,-0.01,0,0,0,-0.79,0,0,8.058e-07
34675,2.3553e+07,0,0,0,0,-0.04,0.01,-0.01,0,0,0,-0.79,0,0,8.058e-07
34719,2.3563e+07,0,0,0,0,-0.04,0.01,-0.01,0,0,0,-0.79,0,0,8.058e-07
34764,2.3574e+07,0,0,0,0,-0.04,0.01,-0.01,0,0,0,-0.79,0,0,8.058e-07
34809,2.3584e+07,0,0,0,0,-0.04,0.01,-0.01,0,0,0,-0.79,0,0,8.058e-07
34854,2.3595e+07,0,0,0,0,-0.04,0.03,-0.08,0,0,0,-0.79,0,0,1.5856e-05
34899,2.3606e+07,0,0,0,0,-0.04,0.03,-0.08,0,0,0,-0.17,0,0,1.5856e-05
34940,2.3616e+07,0,0,0,0,-0.04,0.03,-0.08,0,0,0,-0.17,0,0,1.5856e-05
34986,2.3627e+07,0,0,0,0,-0.04,0.03,-0.08,0,0,0,-0.17,0,0,1.5856e-05
35030,2.3637e+07,0,0,0,0,-0.04,0.03,-0.08,0,0,0,-0.17,0,0,1.5856e-05
35077,2.3647e+07,0,0,0,0,-0.04,0.03,-0.08,0,0,0,-0.17,0,0,1.5856e-05
35129,2.3659e+07,0,0,0,0,-0.04,0.03,-0.08,0,0,0,-0.17,0,0,1.5856e-05
35173,2.367e+07,0,0,0,0,-0.04,0.03,-0.08,0,0,0,-0.17,0,0,1.5856e-05
35218,2.368e+07,0,0,0,0,-0.04,0.03,-0.08,0,0,0,-0.17,0,0,1.5856e-05
35262,2.369e+07,0,0,0,0,-0.04,0.03,-0.08,0,0,0,-0.17,0,0,1.5856e-05
35307,2.37e+07,0,0,0,0,-0.04,0.03,-0.08,0,0,0,-0.17,0,0,1.5856e-05
35346,2.3711e+07,0,0,0,0,-0.05,0.05,-0.06,0,0,0,-0.33,0,0,9.8034e-06
35391,2.3721e+07,0,0,0,0,-0.05,0.05,-0.06,0,0,0,-0.33,0,0,9.8034e-06
35436,2.3731e+07,0,0,0,0,-0.05,0.05,-0.06,0,0,0,-0.33,0,0,9.8034e-06
35483,2.3742e+07,0,0,0,0,-0.05,0.05,-0.06,0,0,0,-0.33,0,0,9.8034e-06
35528,2.3752e+07,0,0,0,0,-0.05,0.05,-0.06,0,0,0,-0.33,0,0,9.8034e-06
35577,2.3762e+07,0,0,0,0,-0.05,0.05,-0.06,0,0,0,-0.33,0,0,9.8034e-06
35622,2.3772e+07,0,0,0,0,-0.05,0.05,-0.06,0,0,0,-0.33,0,0,9.8034e-06
35667,2.3782e+07,0,0,0,0,-0.05,0.05,-0.06,0,0,0,-0.33,0,0,9.8034e-06
35711,2.3792e+07,0,0,0,0,-0.05,0.05,-0.06,0,0,0,-0.33,0,0,9.8034e-06
35756,2.3802e+07,0,0,0,0,-0.05,0.07,-0.32,0,0,0,-0.33,0,0,0.00024877
35800,2.3812e+07,0,0,0,0,-0.05,0.07,-0.32,0,0,0,-1.09,0,0,0.00024877
35845,2.3822e+07,0,0,0,0,-0.05,0.07,-0.32,0,0,0,-1.09,0,0,0.00024877
35887,2.3832e+07,0,0,0,0,-0.05,0.07,-0.32,0,0,0,-1.09,0,0,0.00024877
35931,2.3843e+07,0,0,0,0,-0.05,0.07,-0.32,0,0,0,-1.09,0,0,0.00024877
35977,2.3853e+07,0,0,0,0,-0.05,0.07,-0.32,0,0,0,-1.09,0,0,0.00024877
36028,2.3863e+07,0,0,0,0,-0.05,0.07,-0.32,0,0,0,-1.09,0,0,0.00024877
36074,2.3873e+07,0,0,0,0,-0.05,0.07,-0.32,0,0,0,-1.09,0,0,0.00024877
36119,2.3883e+07,0,0,0,0,-0.05,0.07,-0.32,0,0,0,-1.09,0,0,0.00024877
36163,2.3893e+07,0,0,0,0,-0.05,0.07,-0.32,0,0,0,-1.09,0,0,0.00024877
36209,2.3903e+07,0,0,0,0,-0.05,0.07,-0.32,0,0,0,-1.09,0,0,0.00024877
36247,2.3914e+07,0,0,0,0,-0.05,0.09,0.14,0,0,0,-1.68,0,0,0.00018708
36293,2.3924e+07,0,0,0,0,-0.05,0.09,0.14,0,0,0,-1.68,0,0,0.00018708
36337,2.3934e+07,0,0,0,0,-0.05,0.09,0.14,0,0,0,-1.68,0,0,0.00018708
36384,2.3944e+07,0,0,0,0,-0.05,0.09,0.14,0,0,0,-1.68,0,0,0.00018708
36428,2.3954e+07,0,0,0,0,-0.05,0.09,0.14,0,0,0,-1.68,0,0,0.00018708
36478,2.3964e+07,0,0,0,0,-0.05,0.09,0.14,0,0,0,-1.68,0,0,0.00018708
36525,2.3975e+07,0,0,0,0,-0.05,0.09,0.14,0,0,0,-1.68,0,0,0.00018708
36570,2.3985e+07,0,0,0,0,-0.05,0.09,0.14,0,0,0,-1.68,0,0,0.00018708
36615,2.3995e+07,0,0,0,0,-0.05,0.09,0.14,0,0,0,-1.68,0,0,0.00018708
36656,2.4005e+07,0,0,0,0,-0.05,0.11,-0.15,0,0,0,-0.91,0,0,0.00020065
36700,2.4015e+07,0,0,0,0,-0.05,0.11,-0.15,0,0,0,-0.91,0,0,0.00020065
36741,2.4026e+07,0,0,0,0,-0.05,0.11,-0.15,0,0,0,-0.91,0,0,0.00020065
36786,2.4036e+07,0,0,0,0,-0.05,0.11,-0.15,0,0,0,-0.91,0,0,0.00020065
36830,2.4046e+07,0,0,0,0,-0.05,0.11,-0.15,0,0,0,-0.91,0,0,0.00020065
36874,2.4056e+07,0,0,0,0,-0.05,0.11,-0.15,0,0,0,-0.91,0,0,0.00020065
36923,2.4066e+07,0,0,0,0,-0.05,0.11,-0.15,0,0,0,-0.91,0,0,0.00020065
36967,2.4076e+07,0,0,0,0,-0.05,0.11,-0.15,0,0,0,-0.91,0,0,0.00020065
37014,2.4086e+07,0,0,0,0,-0.05,0.11,-0.15,0,0,0,-0.91,0,0,0.00020065
37059,2.4096e+07,0,0,0,0,-0.05,0.11,-0.15,0,0,0,-0.91,0,0,0.00020065
37103,2.4109e+07,0,0,0,0,-0.05,0.12,-0.31,0,0,0,-0.91,0,0,0.00088346
37152,2.4122e+07,0,0,0,0,-0.05,0.12,-0.31,0,0,0,-0.65,0,0,0.00088346
37195,2.4132e+07,0,0,0,0,-0.05,0.12,-0.31,0,0,0,-0.65,0,0,0.00088346
37241,2.4142e+07,0,0,0,0,-0.05,0.12,-0.31,0,0,0,-0.65,0,0,0.00088346
37286,2.4152e+07,0,0,0,0,-0.05,0.12,-0.31,0,0,0,-0.65,0,0,0.00088346
37333,2.4162e+07,0,0,0,0,-0.05,0.12,-0.31,0,0,0,-0.65,0,0,0.00088346
37379,2.4172e+07,0,0,0,0,-0.05,0.12,-0.31,0,0,0,-0.65,0,0,0.00088346
37423,2.4182e+07,0,0,0,0,-0.05,0.12,-0.31,0,0,0,-0.65,0,0,0.00088346
37468,2.4192e+07,0,0,0,0,-0.05,0.12,-0.31,0,0,0,-0.65,0,0,0.00088346
37513,2.4202e+07,0,0,0,0,-0.05,0.12,-0.31,0,0,0,-0.65,0,0,0.00088346
37559,2.4215e+07,0,0,0,0,-0.06,0.15,0.37,0,0,0,-0.53,0,0,0.0012087
37601,2.4225e+07,0,0,0,0,-0.06,0.15,0.37,0,0,0,-0.53,0,0,0.0012087
37645,2.4235e+07,0,0,0,0,-0.06,0.15,0.37,0,0,0,-0.53,0,0,0.0012087
37690,2.4245e+07,0,0,0,0,-0.06,0.15,0.37,0,0,0,-0.53,0,0,0.0012087
37734,2.4256e+07,0,0,0,0,-0.06,0.15,0.37,0,0,0,-0.53,0,0,0.0012087
37784,2.4266e+07,0,0,0,0,-0.06,0.15,0.37,0,0,0,-0.53,0,0,0.0012087
37828,2.4276e+07,0,0,0,0,-0.06,0.15,0.37,0,0,0,-0.53,0,0,0.0012087
37873,2.4286e+07,0,0,0,0,-0.06,0.15,0.37,0,0,0,-0.53,0,0,0.0012087
37918,2.4297e+07,0,0,0,0,-0.06,0.15,0.37,0,0,0,-0.53,0,0,0.0012087
37963,2.4308e+07,0,0,0,0,-0.06,0.17,-0.3,0,0,0,-0.53,0,0,0.00082394
38007,2.4318e+07,0,0,0,0,-0.06,0.17,-0.3,0,0,0,-1.48,0,0,0.00082394
38051,2.4328e+07,0,0,0,0,-0.06,0.17,-0.3,0,0,0,-1.48,0,0,0.00082394
38098,2.4338e+07,0,0,0,0,-0.06,0.17,-0.3,0,0,0,-1.48,0,0,0.00082394
38142,2.4349e+07,0,0,0,0,-0.06,0.17,-0.3,0,0,0,-1.48,0,0,0.00082394
38188,2.4359e+07,0,0,0,0,-0.06,0.17,-0.3,0,0,0,-1.48,0,0,0.00082394
38237,2.437e+07,0,0,0,0,-0.06,0.17,-0.3,0,0,0,-1.48,0,0,0.00082394
38281,2.438e+07,0,0,0,0,-0.06,0.17,-0.3,0,0,0,-1.48,0,0,0.00082394
38326,2.439e+07,0,0,0,0,-0.06,0.17,-0.3,0,0,0,-1.48,0,0,0.00082394
38370,2.44e+07,0,0,0,0,-0.06,0.17,-0.3,0,0,0,-1.48,0,0,0.00082394
38417,2.4411e+07,0,0,0,0,-0.06,0.17,-0.3,0,0,0,-1.48,0,0,0.00082394
38459,2.4421e+07,0,0,0,0,-0.07,0.2,0.04,0,0,0,-1.39,0,0,1.5723e-05
38500,2.4431e+07,0,0,0,0,-0.07,0.2,0.04,0,0,0,-1.39,0,0,1.5723e-05
38545,2.4442e+07,0,0,0,0,-0.07,0.2,0.04,0,0,0,-1.39,0,0,1.5723e-05
38589,2.4452e+07,0,0,0,0,-0.07,0.2,0.04,0,0,0,-1.39,0,0,1.5723e-05
38635,2.4462e+07,0,0,0,0,-0.07,0.2,0.04,0,0,0,-1.39,0,0,1.5723e-05
38685,2.4472e+07,0,0,0,0,-0.07,0.2,0.04,0,0,0,-1.39,0,0,1.5723e-05
38730,2.4483e+07,0,0,0,0,-0.07,0.2,0.04,0,0,0,-1.39,0,0,1.5723e-05
38774,2.4493e+07,0,0,0,0,-0.07,0.2,0.04,0,0,0,-1.39,0,0,1.5723e-05
38820,2.4503e+07,0,0,0,0,-0.07,0.2,0.04,0,0,0,-1.39,0,0,1.5723e-05
38864,2.4513e+07,0,0,0,0,-0.07,0.2,0.04,0,0,0,-1.39,0,0,1.5723e-05
38903,2.4523e+07,0,0,0,0,-0.08,0.23,0.04,0,0,0,-0.94,0,0,1.8582e-05
38948,2.4533e+07,0,0,0,0,-0.08,0.23,0.04,0,0,0,-0.94,0,0,1.8582e-05
38995,2.4544e+07,0,0,0,0,-0.08,0.23,0.04,0,0,0,-0.94,0,0,1.8582e-05
39039,2.4554e+07,0,0,0,0,-0.08,0.23,0.04,0,0,0,-0.94,0,0,1.8582e-05
39085,2.4564e+07,0,0,0,0,-0.08,0.23,0.04,0,0,0,-0.94,0,0,1.8582e-05
39133,2.4574e+07,0,0,0,0,-0.08,0.23,0.04,0,0,0,-0.94,0,0,1.8582e-05
39178,2.4584e+07,0,0,0,0,-0.08,0.23,0.04,0,0,0,-0.94,0,0,1.8582e-05
39222,2.4595e+07,0,0,0,0,-0.08,0.23,0.04,0,0,0,-0.94,0,0,1.8582e-05
39268,2.4605e+07,0,0,0,0,-0.08,0.23,0.04,0,0,0,-0.94,0,0,1.8582e-05
39313,2.4618e+07,0,0,0,0,-0.09,0.26,0.2,0,0,0,2.22,0,0,0.00037966
39355,2.4628e+07,0,0,0,0,-0.09,0.26,0.2,0,0,0,2.22,0,0,0.00037966
39400,2.4639e+07,0,0,0,0,-0.09,0.26,0.2,0,0,0,2.22,0,0,0.00037966
39445,2.4649e+07,0,0,0,0,-0.09,0.26,0.2,0,0,0,2.22,0,0,0.00037966
39490,2.466e+07,0,0,0,0,-0.09,0.26,0.2,0,0,0,2.22,0,0,0.00037966
39535,2.467e+07,0,0,0,0,-0.09,0.26,0.2,0,0,0,2.22,0,0,0.00037966
39584,2.4681e+07,0,0,0,0,-0.09,0.26,0.2,0,0,0,2.22,0,0,0.00037966
39628,2.4691e+07,0,0,0,0,-0.09,0.26,0.2,0,0,0,2.22,0,0,0.00037966
39673,2.4701e+07,0,0,0,0,-0.09,0.26,0.2,0,0,0,2.22,0,0,0.00037966
39721,2.4714e+07,0,0,0,0,-0.1,0.29,0.02,0,0,0,2.22,0,0,7.7384e-06
39766,2.4724e+07,0,0,0,0,-0.1,0.29,0.02,0,0,0,-0.53,0,0,7.7384e-06
39810,2.4735e+07,0,0,0,0,-0.1,0.29,0.02,0,0,0,-0.53,0,0,7.7384e-06
39854,2.4745e+07,0,0,0,0,-0.1,0.29,0.02,0,0,0,-0.53,0,0,7.7384e-06
39899,2.4756e+07,0,0,0,0,-0.1,0.29,0.02,0,0,0,-0.53,0,0,7.7384e-06
39944,2.4766e+07,0,0,0,0,-0.1,0.29,0.02,0,0,0,-0.53,0,0,7.7384e-06
39989,2.4776e+07,0,0,0,0,-0.1,0.29,0.02,0,0,0,-0.53,0,0,7.7384e-06
40039,2.4786e+07,0,0,0,0,-0.1,0.29,0.02,0,0,0,-0.53,0,0,7.7384e-06
40083,2.4796e+07,0,0,0,0,-0.1,0.29,0.02,0,0,0,-0.53,0,0,7.7384e-06
40128,2.4807e+07,0,0,0,0,-0.1,0.29,0.02,0,0,0,-0.53,0,0,7.7384e-06
40172,2.4817e+07,0,0,0,0,-0.1,0.29,0.02,0,0,0,-0.53,0,0,7.7384e-06
40212,2.4828e+07,0,0,0,0,-0.11,0.31,0.3,0,0,0,1.57,0,0,0.00087206
40256,2.4839e+07,0,0,0,0,-0.11,0.31,0.3,0,0,0,1.57,0,0,0.00087206
40303,2.4849e+07,0,0,0,0,-0.11,0.31,0.3,0,0,0,1.57,0,0,0.00087206
40347,2.4859e+07,0,0,0,0,-0.11,0.31,0.3,0,0,0,1.57,0,0,0.00087206
40391,2.487e+07,0,0,0,0,-0.11,0.31,0.3,0,0,0,1.57,0,0,0.00087206
40436,2.488e+07,0,0,0,0,-0.11,0.31,0.3,0,0,0,1.57,0,0,0.00087206
40486,2.4891e+07,0,0,0,0,-0.11,0.31,0.3,0,0,0,1.57,0,0,0.00087206
40532,2.4901e+07,0,0,0,0,-0.11,0.31,0.3,0,0,0,1.57,0,0,0.00087206
40577,2.4911e+07,0,0,0,0,-0.11,0.31,0.3,0,0,0,1.57,0,0,0.00087206
40622,2.4922e+07,0,0,0,0,-0.13,0.32,-0.06,0,0,0,1.57,0,0,4.4738e-05
40674,2.4938e+07,0,0,0,0,-0.13,0.32,-0.06,0,0,0,0,0,0,4.4738e-05
40718,2.4948e+07,0,0,0,0,-0.13,0.32,-0.06,0,0,0,0,0,0,4.4738e-05
40764,2.4958e+07,0,0,0,0,-0.13,0.32,-0.06,0,0,0,0,0,0,4.4738e-05
