LineNo,TimeUS,C,IVN,IVE,IVD,IPN,IPE,IPD,IMX,IMY,IMZ,IYAW,IVT,RErr,ErSc
204,1.5036e+07,1,0,0,0,0,0,0.24,0,0,0,-0.44,0,0,0
307,1.507e+07,1,0,0,0,0,0,-0.1,0,0,0,-0.44,0,0,0
649,1.5132e+07,1,0,0,0,0,0,-0.1,0,0,0,-0.44,0,0,0
762,1.5148e+07,1,0,0,0,0,0,-0.1,0,0,0,-0.44,0,0,0
875,1.5164e+07,1,0,0,0,0,0,-0.1,0,0,0,-0.44,0,0,0
988,1.5181e+07,1,0,0,0,0,0,-0.1,0,0,0,-0.44,0,0,0
1219,1.5259e+07,1,0,0,0,0,0,-0.22,0,0,0,-0.44,0,0,0
1603,1.5414e+07,1,0,0,0,0,0,-0.22,0,0,0,-0.8,0,0,0
1681,1.5425e+07,1,0,0,0,0,0,-0.22,0,0,0,-0.8,0,0,0
1723,1.5435e+07,1,0,0,0,0,0,-0.22,0,0,0,-0.8,0,0,0
1763,1.5445e+07,1,0,0,0,0,0,-0.22,0,0,0,-0.8,0,0,0
1804,1.5458e+07,1,0,0,0,0,0,-0.22,0,0,0,-0.97,0,0,0
1847,1.5472e+07,1,0,0,0,0,0,-0.15,0,0,0,-0.97,0,0,0
1889,1.5481e+07,1,0,0,0,0,0,-0.15,0,0,0,-0.97,0,0,0
1934,1.5491e+07,1,0,0,0,0,0,-0.15,0,0,0,-0.97,0,0,0
1974,1.5501e+07,1,0,0,0,0,0,-0.15,0,0,0,-0.97,0,0,0
2015,1.5511e+07,1,0,0,0,0,0,-0.15,0,0,0,-0.97,0,0,0
2058,1.5521e+07,1,0,0,0,0,0,-0.15,0,0,0,-0.97,0,0,0
2102,1.5537e+07,1,0,0,0,0,0,-0.28,0,0,0,-0.28,0,0,0
2146,1.5547e+07,1,0,0,0,0,0,-0.28,0,0,0,-0.28,0,0,0
2186,1.5557e+07,1,0,0,0,0,0,-0.28,0,0,0,-0.28,0,0,0
2227,1.5567e+07,1,0,0,0,0,0,-0.28,0,0,0,-0.28,0,0,0
2268,1.5577e+07,1,0,0,0,0,0,-0.28,0,0,0,-0.28,0,0,0
2312,1.5587e+07,1,0,0,0,0,0,-0.28,0,0,0,-0.28,0,0,0
2354,1.5597e+07,1,0,0,0,0,0,-0.28,0,0,0,-0.28,0,0,0
2395,1.5607e+07,1,0,0,0,0,0,-0.28,0,0,0,-0.28,0,0,0
2439,1.5617e+07,1,0,0,0,0,0,-0.28,0,0,0,-0.28,0,0,0
2479,1.5627e+07,1,0,0,0,0,0,-0.28,0,0,0,-0.28,0,0,0
2517,1.5638e+07,1,0,0,0,0,0,-0.29,0,0,0,0.14,0,0,0
2560,1.5648e+07,1,0,0,0,0,0,-0.29,0,0,0,0.14,0,0,0
2600,1.5658e+07,1,0,0,0,0,0,-0.29,0,0,0,0.14,0,0,0
2641,1.5668e+07,1,0,0,0,0,0,-0.29,0,0,0,0.14,0,0,0
2681,1.5678e+07,1,0,0,0,0,0,-0.29,0,0,0,0.14,0,0,0
2726,1.5688e+07,1,0,0,0,0,0,-0.29,0,0,0,0.14,0,0,0
2767,1.5698e+07,1,0,0,0,0,0,-0.29,0,0,0,0.14,0,0,0
2808,1.5708e+07,1,0,0,0,0,0,-0.29,0,0,0,0.14,0,0,0
2849,1.5718e+07,1,0,0,0,0,0,-0.29,0,0,0,0.14,0,0,0
2889,1.5728e+07,1,0,0,0,0,0,-0.29,0,0,0,0.14,0,0,0
2931,1.5738e+07,1,0,0,0,0,0,-0.29,0,0,0,0.14,0,0,0
2973,1.5748e+07,1,0,0,0,0,0,-0.29,0,0,0,0.14,0,0,0
3012,1.5758e+07,1,0,0,0,0,0,-0.01,0,0,0,-1.13,0,0,0
3054,1.5768e+07,1,0,0,0,0,0,-0.01,0,0,0,-1.13,0,0,0
3094,1.5778e+07,1,0,0,0,0,0,-0.01,0,0,0,-1.13,0,0,0
3140,1.5788e+07,1,0,0,0,0,0,-0.01,0,0,0,-1.13,0,0,0
3182,1.5798e+07,1,0,0,0,0,0,-0.01,0,0,0,-1.13,0,0,0
3223,1.5808e+07,1,0,0,0,0,0,-0.01,0,0,0,-1.13,0,0,0
3264,1.5819e+07,1,0,0,0,0,0,-0.01,0,0,0,-1.13,0,0,0
3306,1.5832e+07,1,0,0,0,0,0,-0.01,0,0,0,-1.13,0,0,0
3343,1.5842e+07,1,0,0,0,0,0.01,-0.25,0,0,0,-0.04,0,0,0
3385,1.5852e+07,1,0,0,0,0,0.01,-0.25,0,0,0,-0.04,0,0,0
3426,1.5862e+07,1,0,0,0,0,0.01,-0.25,0,0,0,-0.04,0,0,0
3466,1.5872e+07,1,0,0,0,0,0.01,-0.25,0,0,0,-0.04,0,0,0
3507,1.5882e+07,1,0,0,0,0,0.01,-0.25,0,0,0,-0.04,0,0,0
3551,1.5892e+07,1,0,0,0,0,0.01,-0.25,0,0,0,-0.04,0,0,0
3592,1.5902e+07,1,0,0,0,0,0.01,-0.25,0,0,0,-0.04,0,0,0
3634,1.5912e+07,1,0,0,0,0,0.01,-0.25,0,0,0,-0.04,0,0,0
3676,1.5922e+07,1,0,0,0,0,0.01,-0.25,0,0,0,-0.04,0,0,0
3714,1.5932e+07,1,0,0,0,0,0.01,-0.25,0,0,0,-0.04,0,0,0
3751,1.5942e+07,1,0,0,0,0,0.01,-0.2,0,0,0,-2.16,0,0,0
3793,1.5953e+07,1,0,0,0,0,0.01,-0.2,0,0,0,-2.16,0,0,0
3834,1.5963e+07,1,0,0,0,0,0.01,-0.2,0,0,0,-2.16,0,0,0
3874,1.5973e+07,1,0,0,0,0,0.01,-0.2,0,0,0,-2.16,0,0,0
3915,1.5983e+07,1,0,0,0,0,0.01,-0.2,0,0,0,-2.16,0,0,0
3959,1.5993e+07,1,0,0,0,0,0.01,-0.2,0,0,0,-2.16,0,0,0
4000,1.6003e+07,1,0,0,0,0,0.01,-0.2,0,0,0,-2.16,0,0,0
4043,1.6013e+07,1,0,0,0,0,0.01,-0.2,0,0,0,-2.16,0,0,0
4084,1.6023e+07,1,0,0,0,0,0.01,-0.2,0,0,0,-2.16,0,0,0
4125,1.6033e+07,1,0,0,0,0,0.01,-0.2,0,0,0,-2.16,0,0,0
4162,1.6043e+07,1,0,0,0,0,0.01,-0.2,0,0,0,-2.16,0,0,0
4204,1.6053e+07,1,0,0,0,0,0.01,-0.2,0,0,0,-2.16,0,0,0
4248,1.6066e+07,1,0,0,0,0,0.01,0,0,0,0,-2.16,0,0,0
4290,1.6076e+07,1,0,0,0,0,0.01,0,0,0,0,-2.16,0,0,0
4330,1.6086e+07,1,0,0,0,0,0.01,0,0,0,0,-0.08,0,0,0
4375,1.6096e+07,1,0,0,0,0,0.01,0,0,0,0,-0.08,0,0,0
4416,1.6106e+07,1,0,0,0,0,0.01,0,0,0,0,-0.08,0,0,0
4456,1.6116e+07,1,0,0,0,0,0.01,0,0,0,0,-0.08,0,0,0
4502,1.6131e+07,1,0,0,0,0,0.01,0,0,0,0,-0.08,0,0,0
4545,1.6144e+07,1,0,0,0,0,0.01,0.08,0,0,0,-0.08,0,0,0
4585,1.6154e+07,1,0,0,0,0,0.01,0.08,0,0,0,0,0,0,0
4626,1.6164e+07,1,0,0,0,0,0.01,0.08,0,0,0,0,0,0,0
4668,1.6174e+07,1,0,0,0,0,0.01,0.08,0,0,0,0,0,0,0
4708,1.6184e+07,1,0,0,0,0,0.01,0.08,0,0,0,0,0,0,0
4753,1.6194e+07,1,0,0,0,0,0.01,0.08,0,0,0,0,0,0,0
4793,1.6204e+07,1,0,0,0,0,0.01,0.08,0,0,0,0,0,0,0
4835,1.6214e+07,1,0,0,0,0,0.01,0.08,0,0,0,0,0,0,0
4875,1.6224e+07,1,0,0,0,0,0.01,0.08,0,0,0,0,0,0,0
4916,1.6234e+07,1,0,0,0,0,0.01,0.08,0,0,0,0.45,0,0,0
4954,1.6244e+07,1,0,0,0,0,0.01,0.08,0,0,0,0.45,0,0,0
4991,1.6254e+07,1,0,0,0,0,0.02,-0.12,0,0,0,0.45,0,0,0
5033,1.6264e+07,1,0,0,0,0,0.02,-0.12,0,0,0,0.45,0,0,0
5075,1.6274e+07,1,0,0,0,0,0.02,-0.12,0,0,0,0.45,0,0,0
5115,1.6284e+07,1,0,0,0,0,0.02,-0.12,0,0,0,0.45,0,0,0
5160,1.6294e+07,1,0,0,0,0,0.02,-0.12,0,0,0,0.45,0,0,0
5201,1.6304e+07,1,0,0,0,0,0.02,-0.12,0,0,0,0.45,0,0,0
5242,1.6314e+07,1,0,0,0,0,0.02,-0.12,0,0,0,0.45,0,0,0
5282,1.6324e+07,1,0,0,0,0,0.02,-0.12,0,0,0,0.45,0,0,0
5325,1.6337e+07,1,0,0,0,0,0.02,-0.24,0,0,0,-0.21,0,0,0
5362,1.6346e+07,1,0,0,0,0,0.02,-0.24,0,0,0,-0.21,0,0,0
5407,1.6359e+07,1,0,0,0,0,0.02,-0.24,0,0,0,-0.21,0,0,0
5448,1.6369e+07,1,0,0,0,0,0.02,-0.24,0,0,0,-0.21,0,0,0
5488,1.6379e+07,1,0,0,0,0,0.02,-0.24,0,0,0,-0.21,0,0,0
5530,1.6389e+07,1,0,0,0,0,0.02,-0.24,0,0,0,-0.21,0,0,0
5574,1.6399e+07,1,0,0,0,0,0.02,-0.24,0,0,0,-0.21,0,0,0
5616,1.6409e+07,1,0,0,0,0,0.02,-0.24,0,0,0,-0.21,0,0,0
5657,1.6419e+07,1,0,0,0,0,0.02,-0.24,0,0,0,-0.21,0,0,0
5697,1.6429e+07,1,0,0,0,0,0.02,-0.24,0,0,0,-0.21,0,0,0
5732,1.6439e+07,1,0,0,0,0,0.02,-0.39,0,0,0,-1.02,0,0,0
5773,1.645e+07,1,0,0,0,0,0.02,-0.39,0,0,0,-1.02,0,0,0
5814,1.646e+07,1,0,0,0,0,0.02,-0.39,0,0,0,-1.02,0,0,0
5854,1.647e+07,1,0,0,0,0,0.02,-0.39,0,0,0,-1.02,0,0,0
5896,1.648e+07,1,0,0,0,0,0.02,-0.39,0,0,0,-1.02,0,0,0
5938,1.649e+07,1,0,0,0,0,0.02,-0.39,0,0,0,-1.02,0,0,0
5982,1.65e+07,1,0,0,0,0,0.02,-0.39,0,0,0,-1.02,0,0,0
6025,1.651e+07,1,0,0,0,0,0.02,-0.39,0,0,0,-1.02,0,0,0
6065,1.652e+07,1,0,0,0,0,0.02,-0.39,0,0,0,-1.02,0,0,0
6109,1.653e+07,1,0,0,0,0,0.02,-0.39,0,0,0,-1.02,0,0,0
6146,1.6541e+07,1,0,0,0,0,0.02,-0.39,0,0,0,-1.02,0,0,0
6186,1.6551e+07,1,0,0,0,0,0.02,-0.39,0,0,0,-1.02,0,0,0
6226,1.6561e+07,1,0,0,0,0,0.02,-0.19,0,0,0,-1.02,0,0,0
6267,1.6571e+07,1,0,0,0,0,0.02,-0.19,0,0,0,0.76,0,0,0
6308,1.6581e+07,1,0,0,0,0,0.02,-0.19,0,0,0,0.76,0,0,0
6349,1.6591e+07,1,0,0,0,0,0.02,-0.19,0,0,0,0.76,0,0,0
6396,1.6602e+07,1,0,0,0,0,0.02,-0.19,0,0,0,0.76,0,0,0
6439,1.6611e+07,1,0,0,0,0,0.02,-0.19,0,0,0,0.76,0,0,0
6480,1.6622e+07,1,0,0,0,0,0.02,-0.19,0,0,0,0.76,0,0,0
6521,1.6632e+07,1,0,0,0,0,0.02,-0.19,0,0,0,0.76,0,0,0
6559,1.6644e+07,1,0,0,0,0,0.03,-0.33,0,0,0,0.36,0,0,0
6600,1.6654e+07,1,0,0,0,0,0.03,-0.33,0,0,0,0.36,0,0,0
6640,1.6664e+07,1,0,0,0,0,0.03,-0.33,0,0,0,0.36,0,0,0
6682,1.6674e+07,1,0,0,0,0,0.03,-0.33,0,0,0,0.36,0,0,0
6722,1.6684e+07,1,0,0,0,0,0.03,-0.33,0,0,0,0.36,0,0,0
6767,1.6694e+07,1,0,0,0,0,0.03,-0.33,0,0,0,0.36,0,0,0
6809,1.6704e+07,1,0,0,0,0,0.03,-0.33,0,0,0,0.36,0,0,0
6850,1.6714e+07,1,0,0,0,0,0.03,-0.33,0,0,0,0.36,0,0,0
6891,1.6724e+07,1,0,0,0,0,0.03,-0.33,0,0,0,0.36,0,0,0
6933,1.6734e+07,1,0,0,0,0,0.03,-0.33,0,0,0,0.36,0,0,0
6968,1.6744e+07,1,0,0,0,0,0.03,-0.5,0,0,0,2.14,0,0,0
7008,1.6754e+07,1,0,0,0,0,0.03,-0.5,0,0,0,2.14,0,0,0
7049,1.6764e+07,1,0,0,0,0,0.03,-0.5,0,0,0,2.14,0,0,0
7090,1.6774e+07,1,0,0,0,0,0.03,-0.5,0,0,0,2.14,0,0,0
7131,1.6784e+07,1,0,0,0,0,0.03,-0.5,0,0,0,2.14,0,0,0
7178,1.6794e+07,1,0,0,0,0,0.03,-0.5,0,0,0,2.14,0,0,0
7219,1.6804e+07,1,0,0,0,0,0.03,-0.5,0,0,0,2.14,0,0,0
7261,1.6814e+07,1,0,0,0,0,0.03,-0.5,0,0,0,2.14,0,0,0
7302,1.6824e+07,1,0,0,0,0,0.03,-0.5,0,0,0,2.14,0,0,0
7342,1.6834e+07,1,0,0,0,0,0.03,-0.5,0,0,0,2.14,0,0,0
7383,1.6844e+07,1,0,0,0,0,0.03,-0.5,0,0,0,2.14,0,0,0
7420,1.6855e+07,1,0,0,0,0.01,0.03,-0.5,0,0,0,-0.29,0,0,0
7461,1.6865e+07,1,0,0,0,0.01,0.03,-0.5,0,0,0,-0.29,0,0,0
7503,1.6875e+07,1,0,0,0,0.01,0.03,-0.5,0,0,0,-0.29,0,0,0
7543,1.6885e+07,1,0,0,0,0.01,0.03,-0.5,0,0,0,-0.29,0,0,0
7587,1.6895e+07,1,0,0,0,0.01,0.03,-0.5,0,0,0,-0.29,0,0,0
7629,1.6905e+07,1,0,0,0,0.01,0.03,-0.5,0,0,0,-0.29,0,0,0
7671,1.6915e+07,1,0,0,0,0.01,0.03,-0.5,0,0,0,-0.29,0,0,0
7712,1.6925e+07,1,0,0,0,0.01,0.03,-0.5,0,0,0,-0.29,0,0,0
7754,1.6938e+07,1,0,0,0,0.01,0.03,-0.5,0,0,0,-0.29,0,0,0
7795,1.6948e+07,1,0,0,0,0.01,0.03,-0.5,0,0,0,-0.29,0,0,0
7832,1.6958e+07,1,0,0,0,0.01,0.04,-0.5,0,0,0,-0.29,0,0,0
7874,1.6968e+07,1,0,0,0,0.01,0.04,-0.5,0,0,0,-0.18,0,0,0
7914,1.6978e+07,1,0,0,0,0.01,0.04,-0.5,0,0,0,-0.18,0,0,0
7955,1.6988e+07,1,0,0,0,0.01,0.04,-0.5,0,0,0,-0.18,0,0,0
8001,1.6998e+07,1,0,0,0,0.01,0.04,-0.5,0,0,0,-0.18,0,0,0
8045,1.7008e+07,1,0,0,0,0.01,0.04,-0.5,0,0,0,-0.18,0,0,0
8086,1.7019e+07,1,0,0,0,0.01,0.04,-0.5,0,0,0,-0.18,0,0,0
8126,1.7029e+07,1,0,0,0,0.01,0.04,-0.5,0,0,0,-0.18,0,0,0
8164,1.7039e+07,1,0,0,0,0.01,0.04,-0.5,0,0,0,-0.18,0,0,0
8201,1.7049e+07,1,0,0,0,0.01,0.04,-0.5,0,0,0,-0.18,0,0,0
8242,1.7059e+07,1,0,0,0,0.01,0.04,-0.5,0,0,0,-1.42,0,0,0
8282,1.7069e+07,1,0,0,0,0.01,0.04,-0.5,0,0,0,-1.42,0,0,0
8324,1.7079e+07,1,0,0,0,0.01,0.04,-0.5,0,0,0,-1.42,0,0,0
8366,1.7089e+07,1,0,0,0,0.01,0.04,-0.5,0,0,0,-1.42,0,0,0
8410,1.7099e+07,1,0,0,0,0.01,0.04,-0.5,0,0,0,-1.42,0,0,0
8451,1.7109e+07,1,0,0,0,0.01,0.04,-0.5,0,0,0,-1.42,0,0,0
8493,1.7119e+07,1,0,0,0,0.01,0.04,-0.5,0,0,0,-1.42,0,0,0
8534,1.7129e+07,1,0,0,0,0.01,0.04,-0.5,0,0,0,-1.42,0,0,0
8574,1.7139e+07,1,0,0,0,0.01,0.04,-0.5,0,0,0,-1.42,0,0,0
8614,1.7151e+07,1,0,0,0,0.01,0.04,-0.38,0,0,0,0.74,0,0,0
8655,1.7161e+07,1,0,0,0,0.01,0.04,-0.38,0,0,0,0.74,0,0,0
8695,1.7171e+07,1,0,0,0,0.01,0.04,-0.38,0,0,0,0.74,0,0,0
8736,1.7181e+07,1,0,0,0,0.01,0.04,-0.38,0,0,0,0.74,0,0,0
8777,1.7191e+07,1,0,0,0,0.01,0.04,-0.38,0,0,0,0.74,0,0,0
8821,1.7201e+07,1,0,0,0,0.01,0.04,-0.38,0,0,0,0.74,0,0,0
8862,1.7211e+07,1,0,0,0,0.01,0.04,-0.38,0,0,0,0.74,0,0,0
8902,1.7222e+07,1,0,0,0,0.01,0.04,-0.38,0,0,0,0.74,0,0,0
8944,1.7232e+07,1,0,0,0,0.01,0.04,-0.38,0,0,0,0.74,0,0,0
8981,1.7242e+07,1,0,0,0,0.01,0.04,-0.38,0,0,0,0.74,0,0,0
9019,1.7252e+07,1,0,0,0,0.01,0.05,-0.1,0,0,0,0.13,0,0,0
9060,1.7262e+07,1,0,0,0,0.01,0.05,-0.1,0,0,0,0.13,0,0,0
9100,1.7272e+07,1,0,0,0,0.01,0.05,-0.1,0,0,0,0.13,0,0,0
9141,1.7282e+07,1,0,0,0,0.01,0.05,-0.1,0,0,0,0.13,0,0,0
9181,1.7292e+07,1,0,0,0,0.01,0.05,-0.1,0,0,0,0.13,0,0,0
9226,1.7302e+07,1,0,0,0,0.01,0.05,-0.1,0,0,0,0.13,0,0,0
9261,1.7332e+07,1,0,0,0,0.01,0.05,-0.1,0,0,0,0.13,0,0,0
9304,1.7342e+07,1,0,0,0,0.01,0.05,-0.1,0,0,0,0.13,0,0,0
9341,1.7352e+07,1,0,0,0,0.01,0.05,-0.1,0,0,0,0.13,0,0,0
9379,1.7362e+07,1,0,0,0,0.01,0.05,-0.5,0,0,0,0.44,0,0,0
9420,1.7372e+07,1,0,0,0,0.01,0.05,-0.5,0,0,0,0.44,0,0,0
9460,1.7382e+07,1,0,0,0,0.01,0.05,-0.5,0,0,0,0.44,0,0,0
9502,1.7392e+07,1,0,0,0,0.01,0.05,-0.5,0,0,0,0.44,0,0,0
9546,1.7402e+07,1,0,0,0,0.01,0.05,-0.5,0,0,0,0.44,0,0,0
9587,1.7412e+07,1,0,0,0,0.01,0.05,-0.5,0,0,0,0.44,0,0,0
9627,1.7422e+07,1,0,0,0,0.01,0.05,-0.5,0,0,0,0.44,0,0,0
9670,1.7432e+07,1,0,0,0,0.01,0.05,-0.5,0,0,0,0.44,0,0,0
9711,1.7442e+07,1,0,0,0,0.01,0.05,-0.5,0,0,0,0.44,0,0,0
9748,1.7452e+07,1,0,0,0,0.01,0.05,-0.5,0,0,0,0.44,0,0,0
9790,1.7465e+07,1,0,0,0,0.02,0.05,-0.5,0,0,0,0.44,0,0,0
9831,1.7475e+07,1,0,0,0,0.02,0.05,-0.5,0,0,0,0.47,0,0,0
9871,1.7485e+07,1,0,0,0,0.02,0.05,-0.5,0,0,0,0.47,0,0,0
9912,1.7495e+07,1,0,0,0,0.02,0.05,-0.5,0,0,0,0.47,0,0,0
9958,1.7505e+07,1,0,0,0,0.02,0.05,-0.5,0,0,0,0.47,0,0,0
10000,1.7515e+07,1,0,0,0,0.02,0.05,-0.5,0,0,0,0.47,0,0,0
10040,1.7525e+07,1,0,0,0,0.02,0.05,-0.5,0,0,0,0.47,0,0,0
10081,1.7535e+07,1,0,0,0,0.02,0.05,-0.5,0,0,0,0.47,0,0,0
10120,1.7545e+07,1,0,0,0,0.02,0.06,-0.5,0,0,0,0.47,0,0,0
10159,1.7555e+07,1,0,0,0,0.02,0.06,-0.5,0,0,0,-0.62,0,0,0
10200,1.7565e+07,1,0,0,0,0.02,0.06,-0.5,0,0,0,-0.62,0,0,0
10240,1.7575e+07,1,0,0,0,0.02,0.06,-0.5,0,0,0,-0.62,0,0,0
10282,1.7585e+07,1,0,0,0,0.02,0.06,-0.5,0,0,0,-0.62,0,0,0
10322,1.7595e+07,1,0,0,0,0.02,0.06,-0.5,0,0,0,-0.62,0,0,0
10368,1.7605e+07,1,0,0,0,0.02,0.06,-0.5,0,0,0,-0.62,0,0,0
10409,1.7615e+07,1,0,0,0,0.02,0.06,-0.5,0,0,0,-0.62,0,0,0
10449,1.7625e+07,1,0,0,0,0.02,0.06,-0.5,0,0,0,-0.62,0,0,0
10491,1.7635e+07,1,0,0,0,0.02,0.06,-0.5,0,0,0,-0.62,0,0,0
10528,1.7648e+07,1,0,0,0,0.02,0.06,-0.5,0,0,0,0.5,0,0,0
10570,1.7658e+07,1,0,0,0,0.02,0.06,-0.5,0,0,0,0.5,0,0,0
10612,1.7668e+07,1,0,0,0,0.02,0.06,-0.5,0,0,0,0.5,0,0,0
10653,1.7678e+07,1,0,0,0,0.02,0.06,-0.5,0,0,0,0.5,0,0,0
10694,1.7688e+07,1,0,0,0,0.02,0.06,-0.5,0,0,0,0.5,0,0,0
10737,1.7698e+07,1,0,0,0,0.02,0.06,-0.5,0,0,0,0.5,0,0,0
10780,1.7709e+07,1,0,0,0,0.02,0.06,-0.5,0,0,0,0.5,0,0,0
10820,1.7719e+07,1,0,0,0,0.02,0.06,-0.5,0,0,0,0.5,0,0,0
10861,1.7729e+07,1,0,0,0,0.02,0.06,-0.5,0,0,0,0.5,0,0,0
10904,1.7739e+07,1,0,0,0,0.02,0.06,-0.5,0,0,0,0.5,0,0,0
10944,1.7752e+07,1,0,0,0,0.02,0.06,-0.5,0,0,0,0.5,0,0,0
10987,1.7762e+07,1,0,0,0,0.02,0.06,-0.5,0,0,0,-0.01,0,0,0
11027,1.7772e+07,1,0,0,0,0.02,0.06,-0.5,0,0,0,-0.01,0,0,0
11068,1.7782e+07,1,0,0,0,0.02,0.06,-0.5,0,0,0,-0.01,0,0,0
11108,1.7792e+07,1,0,0,0,0.02,0.06,-0.5,0,0,0,-0.01,0,0,0
11156,1.7802e+07,1,0,0,0,0.02,0.06,-0.5,0,0,0,-0.01,0,0,0
11197,1.7812e+07,1,0,0,0,0.02,0.06,-0.5,0,0,0,-0.01,0,0,0
11237,1.7822e+07,1,0,0,0,0.02,0.06,-0.5,0,0,0,-0.01,0,0,0
11279,1.7832e+07,1,0,0,0,0.02,0.06,-0.5,0,0,0,-0.01,0,0,0
11319,1.7842e+07,1,0,0,0,0.02,0.06,-0.5,0,0,0,-0.01,0,0,0
11357,1.7852e+07,1,0,0,0,0.02,0.07,-0.5,0,0,0,-0.01,0,0,0
11398,1.7862e+07,1,0,0,0,0.02,0.07,-0.5,0,0,0,-0.01,0,0,0
11442,1.7875e+07,1,0,0,0,0.02,0.07,-0.5,0,0,0,0.38,0,0,0
11483,1.7885e+07,1,0,0,0,0.02,0.07,-0.5,0,0,0,0.38,0,0,0
11525,1.7895e+07,1,0,0,0,0.02,0.07,-0.5,0,0,0,0.38,0,0,0
11570,1.7905e+07,1,0,0,0,0.02,0.07,-0.5,0,0,0,0.38,0,0,0
11611,1.7915e+07,1,0,0,0,0.02,0.07,-0.5,0,0,0,0.38,0,0,0
11651,1.7925e+07,1,0,0,0,0.02,0.07,-0.5,0,0,0,0.38,0,0,0
11692,1.7935e+07,1,0,0,0,0.02,0.07,-0.5,0,0,0,0.38,0,0,0
11734,1.7945e+07,1,0,0,0,0.02,0.07,-0.5,0,0,0,0.38,0,0,0
11772,1.7955e+07,1,0,0,0,0.01,0.07,-0.39,0,0,0,0.38,0,0,0
11813,1.7965e+07,1,0,0,0,0.01,0.07,-0.39,0,0,0,-0.09,0,0,0
11856,1.7976e+07,1,0,0,0,0.01,0.07,-0.39,0,0,0,-0.09,0,0,0
11897,1.7985e+07,1,0,0,0,0.01,0.07,-0.39,0,0,0,-0.09,0,0,0
11939,1.7996e+07,1,0,0,0,0.01,0.07,-0.39,0,0,0,-0.09,0,0,0
11984,1.8006e+07,1,0,0,0,0.01,0.07,-0.39,0,0,0,-0.09,0,0,0
12024,1.8016e+07,1,0,0,0,0.01,0.07,-0.39,0,0,0,-0.09,0,0,0
12066,1.8026e+07,1,0,0,0,0.01,0.07,-0.39,0,0,0,-0.09,0,0,0
12110,1.8041e+07,1,0,0,0,0.01,0.07,-0.5,0,0,0,-0.09,0,0,0
12151,1.8051e+07,1,0,0,0,0.01,0.07,-0.5,0,0,0,-0.09,0,0,0
12191,1.8061e+07,1,0,0,0,0.01,0.07,-0.5,0,0,0,0.59,0,0,0
12234,1.8071e+07,1,0,0,0,0.01,0.07,-0.5,0,0,0,0.59,0,0,0
12274,1.8081e+07,1,0,0,0,0.01,0.07,-0.5,0,0,0,0.59,0,0,0
12316,1.8091e+07,1,0,0,0,0.01,0.07,-0.5,0,0,0,0.59,0,0,0
12359,1.8101e+07,1,0,0,0,0.01,0.07,-0.5,0,0,0,0.59,0,0,0
12401,1.8111e+07,1,0,0,0,0.01,0.07,-0.5,0,0,0,0.59,0,0,0
12447,1.8123e+07,1,0,0,0,0.01,0.07,-0.5,0,0,0,0.59,0,0,0
12487,1.8133e+07,1,0,0,0,0.01,0.07,-0.5,0,0,0,0.59,0,0,0
12532,1.8146e+07,1,0,0,0,0.01,0.08,-0.5,0,0,0,0.59,0,0,0
12569,1.8156e+07,1,0,0,0,0.01,0.08,-0.5,0,0,0,0.84,0,0,0
12610,1.8167e+07,1,0,0,0,0.01,0.08,-0.5,0,0,0,0.84,0,0,0
12651,1.8177e+07,1,0,0,0,0.01,0.08,-0.5,0,0,0,0.84,0,0,0
12693,1.8187e+07,1,0,0,0,0.01,0.08,-0.5,0,0,0,0.84,0,0,0
12734,1.8197e+07,1,0,0,0,0.01,0.08,-0.5,0,0,0,0.84,0,0,0
12778,1.8207e+07,1,0,0,0,0.01,0.08,-0.5,0,0,0,0.84,0,0,0
12819,1.8217e+07,1,0,0,0,0.01,0.08,-0.5,0,0,0,0.84,0,0,0
12859,1.8227e+07,1,0,0,0,0.01,0.08,-0.5,0,0,0,0.84,0,0,0
12901,1.8237e+07,1,0,0,0,0.01,0.08,-0.5,0,0,0,0.84,0,0,0
12939,1.8247e+07,1,0,0,0,0.01,0.08,-0.5,0,0,0,0.84,0,0,0
12976,1.8257e+07,1,0,0,0,0.01,0.08,-0.37,0,0,0,0.84,0,0,0
13017,1.8267e+07,1,0,0,0,0.01,0.08,-0.37,0,0,0,0.62,0,0,0
13058,1.8277e+07,1,0,0,0,0.01,0.08,-0.37,0,0,0,0.62,0,0,0
13100,1.8287e+07,1,0,0,0,0.01,0.08,-0.37,0,0,0,0.62,0,0,0
13140,1.8298e+07,1,0,0,0,0.01,0.08,-0.37,0,0,0,0.62,0,0,0
13185,1.8307e+07,1,0,0,0,0.01,0.08,-0.37,0,0,0,0.62,0,0,0
13225,1.8317e+07,1,0,0,0,0.01,0.08,-0.37,0,0,0,0.62,0,0,0
13268,1.8327e+07,1,0,0,0,0.01,0.08,-0.37,0,0,0,0.62,0,0,0
13309,1.8338e+07,1,0,0,0,0.01,0.08,-0.37,0,0,0,0.62,0,0,0
13347,1.8351e+07,1,0,0,0,0,0.08,-0.5,0,0,0,0.22,0,0,0
13387,1.8361e+07,1,0,0,0,0,0.08,-0.5,0,0,0,0.22,0,0,0
13428,1.8371e+07,1,0,0,0,0,0.08,-0.5,0,0,0,0.22,0,0,0
13470,1.8381e+07,1,0,0,0,0,0.08,-0.5,0,0,0,0.22,0,0,0
13510,1.8391e+07,1,0,0,0,0,0.08,-0.5,0,0,0,0.22,0,0,0
13552,1.8401e+07,1,0,0,0,0,0.08,-0.5,0,0,0,0.22,0,0,0
13596,1.8411e+07,1,0,0,0,0,0.08,-0.5,0,0,0,0.22,0,0,0
13636,1.8421e+07,1,0,0,0,0,0.08,-0.5,0,0,0,0.22,0,0,0
13677,1.8431e+07,1,0,0,0,0,0.08,-0.5,0,0,0,0.22,0,0,0
13718,1.8441e+07,1,0,0,0,0,0.08,-0.5,0,0,0,0.22,0,0,0
13756,1.8451e+07,1,0,0,0,0,0.08,-0.5,0,0,0,0.22,0,0,0
13796,1.8461e+07,1,0,0,0,0,0.08,-0.5,0,0,0,0.22,0,0,0
13834,1.8472e+07,1,0,0,0,0,0.09,-0.11,0,0,0,1.86,0,0,0
13875,1.8482e+07,1,0,0,0,0,0.09,-0.11,0,0,0,1.86,0,0,0
13917,1.8492e+07,1,0,0,0,0,0.09,-0.11,0,0,0,1.86,0,0,0
13959,1.8502e+07,1,0,0,0,0,0.09,-0.11,0,0,0,1.86,0,0,0
14004,1.8511e+07,1,0,0,0,0,0.09,-0.11,0,0,0,1.86,0,0,0
14045,1.8522e+07,1,0,0,0,0,0.09,-0.11,0,0,0,1.86,0,0,0
14088,1.8532e+07,1,0,0,0,0,0.09,-0.11,0,0,0,1.86,0,0,0
14128,1.8542e+07,1,0,0,0,0,0.09,-0.11,0,0,0,1.86,0,0,0
14169,1.8555e+07,1,0,0,0,0,0.09,-0.5,0,0,0,1.86,0,0,0
14210,1.8564e+07,1,0,0,0,0,0.09,-0.5,0,0,0,0.72,0,0,0
14251,1.8575e+07,1,0,0,0,0,0.09,-0.5,0,0,0,0.72,0,0,0
14291,1.8585e+07,1,0,0,0,0,0.09,-0.5,0,0,0,0.72,0,0,0.0012552
14333,1.8595e+07,1,0,0,0,0,0.09,-0.5,0,0,0,0.72,0,0,0.0012552
14377,1.8605e+07,1,0,0,0,0,0.09,-0.5,0,0,0,0.72,0,0,0.0012552
14420,1.8615e+07,1,0,0,0,0,0.09,-0.5,0,0,0,0.72,0,0,0.0012552
14461,1.8625e+07,1,0,0,0,0,0.09,-0.5,0,0,0,0.72,0,0,0.0012552
14501,1.8635e+07,1,0,0,0,0,0.09,-0.5,0,0,0,0.72,0,0,0.0012552
14543,1.8645e+07,1,0,0,0,0,0.09,-0.5,0,0,0,0.72,0,0,0.0012552
14580,1.8655e+07,1,0,0,0,0,0.09,-0.5,0,0,0,1.23,0,0.0019685,0.0012552
14622,1.8666e+07,1,0,0,0,0,0.09,-0.5,0,0,0,1.23,0,0.0045931,0.0012552
14663,1.8676e+07,1,0,0,0,0,0.09,-0.49,0,0,0,1.23,0,0.0045931,0.00057293
14703,1.8686e+07,1,0,0,0,0,0.09,-0.49,0,0,0,1.23,0,0.0045931,0.00057293
14744,1.8696e+07,1,0,0,0,0,0.09,-0.49,0,0,0,1.23,0,0.0045931,0.00057293
14788,1.8706e+07,1,0,0,0,0,0.09,-0.49,0,0,0,1.23,0,0.0045931,0.00057293
14830,1.8716e+07,1,0,0,0,0,0.09,-0.49,0,0,0,1.23,0,0.0045931,0.00057293
14871,1.8726e+07,1,0,0,0,0,0.09,-0.49,0,0,0,1.23,0,0.0045931,0.00057293
14914,1.8736e+07,1,0,0,0,0,0.09,-0.49,0,0,0,1.23,0,0.0045931,0.00057293
14956,1.8746e+07,1,0,0,0,0,0.09,-0.49,0,0,0,1.23,0,0.0045931,0.00057293
14990,1.8757e+07,1,0,0,0,0,0.09,-0.33,0,0,0,1.11,0,0.0051806,0.00025908
15030,1.8766e+07,1,0,0,0,0,0.09,-0.33,0,0,0,1.11,0,0.0051806,0.00025908
15070,1.8776e+07,1,0,0,0,0,0.09,-0.33,0,0,0,1.11,0,0.0051806,0.00025908
15110,1.8787e+07,1,0,0,0,0,0.09,-0.33,0,0,0,1.11,0,0.0051806,0.00025908
15152,1.8797e+07,1,0,0,0,0,0.09,-0.33,0,0,0,1.11,0,0.0051806,0.00025908
15197,1.8807e+07,1,0,0,0,0,0.09,-0.33,0,0,0,1.11,0,0.0051806,0.00025908
15240,1.8817e+07,1,0,0,0,0,0.09,-0.33,0,0,0,1.11,0,0.0051806,0.00025908
15281,1.8827e+07,1,0,0,0,0,0.09,-0.33,0,0,0,1.11,0,0.0051806,0.00025908
15323,1.8837e+07,1,0,0,0,0,0.09,-0.33,0,0,0,1.11,0,0.0051806,0.00025908
15363,1.8847e+07,1,0,0,0,0,0.09,-0.33,0,0,0,1.11,0,0.0051806,0.00025908
15398,1.8857e+07,1,0,0,0,-0.01,0.09,-0.49,0,0,0,-0.59,0,0.0051806,0.00056918
15439,1.8867e+07,1,0,0,0,-0.01,0.09,-0.49,0,0,0,-0.59,0,0.0051806,0.00056918
15479,1.8877e+07,1,0,0,0,-0.01,0.09,-0.49,0,0,0,-0.59,0,0.0051806,0.00056918
15520,1.8887e+07,1,0,0,0,-0.01,0.09,-0.49,0,0,0,-0.59,0,0.0051806,0.00056918
15562,1.8897e+07,1,0,0,0,-0.01,0.09,-0.49,0,0,0,-0.59,0,0.0051806,0.00056918
15605,1.8908e+07,1,0,0,0,-0.01,0.09,-0.49,0,0,0,-0.59,0,0.0051806,0.00056918
15647,1.8918e+07,1,0,0,0,-0.01,0.09,-0.49,0,0,0,-0.59,0,0.0051806,0.00056918
15687,1.8928e+07,1,0,0,0,-0.01,0.09,-0.49,0,0,0,-0.59,0,0.0051806,0.00056918
15731,1.8938e+07,1,0,0,0,-0.01,0.09,-0.49,0,0,0,-0.59,0,0.0051806,0.00056918
15772,1.8951e+07,1,0,0,0,-0.01,0.09,-0.49,0,0,0,-0.59,0,0.0055667,0.00056918
15813,1.8961e+07,1,0,0,0,-0.01,0.09,-0.49,0,0,0,-0.59,0,0.0063391,0.00056918
15850,1.8971e+07,1,0,0,0,-0.01,0.09,-0.38,0,0,0,0.69,0,0.0063391,0.00034785
15891,1.8981e+07,1,0,0,0,-0.01,0.09,-0.38,0,0,0,0.69,0,0.0063391,0.00034785
15934,1.8991e+07,1,0,0,0,-0.01,0.09,-0.38,0,0,0,0.69,0,0.0063391,0.00034785
15974,1.9001e+07,1,0,0,0,-0.01,0.09,-0.38,0,0,0,0.69,0,0.0063391,0.00034785
16020,1.9011e+07,1,0,0,0,-0.01,0.09,-0.38,0,0,0,0.69,0,0.0063391,0.00034785
16060,1.9021e+07,1,0,0,0,-0.01,0.09,-0.38,0,0,0,0.69,0,0.0063391,0.00034785
16101,1.9031e+07,1,0,0,0,-0.01,0.09,-0.38,0,0,0,0.69,0,0.0063391,0.00034785
16144,1.9041e+07,1,0,0,0,-0.01,0.09,-0.38,0,0,0,0.69,0,0.0063391,0.00034785
16181,1.9054e+07,1,0,0,0,-0.02,0.09,-0.36,0,0,0,-0.47,0,0.0063458,0.00031247
16222,1.9064e+07,1,0,0,0,-0.02,0.09,-0.36,0,0,0,-0.47,0,0.0063458,0.00031247
16262,1.9074e+07,1,0,0,0,-0.02,0.09,-0.36,0,0,0,-0.47,0,0.0063458,0.00031247
16303,1.9084e+07,1,0,0,0,-0.02,0.09,-0.36,0,0,0,-0.47,0,0.0063458,0.00031247
16345,1.9094e+07,1,0,0,0,-0.02,0.09,-0.36,0,0,0,-0.47,0,0.0063458,0.00031247
16386,1.9104e+07,1,0,0,0,-0.02,0.09,-0.36,0,0,0,-0.47,0,0.0063458,0.00031247
16431,1.9114e+07,1,0,0,0,-0.02,0.09,-0.36,0,0,0,-0.47,0,0.0063458,0.00031247
16471,1.9124e+07,1,0,0,0,-0.02,0.09,-0.36,0,0,0,-0.47,0,0.0063458,0.00031247
16513,1.9134e+07,1,0,0,0,-0.02,0.09,-0.36,0,0,0,-0.47,0,0.0063458,0.00031247
16556,1.9144e+07,1,0,0,0,-0.02,0.09,-0.36,0,0,0,-0.47,0,0.0063458,0.00031247
16597,1.9159e+07,1,0,0,0,-0.03,0.09,0,0,0,0,1.41,0,0.0066566,8.8757e-07
16637,1.9169e+07,1,0,0,0,-0.03,0.09,0,0,0,0,1.41,0,0.0066566,8.8757e-07
16679,1.918e+07,1,0,0,0,-0.03,0.09,0,0,0,0,1.41,0,0.0066566,8.8757e-07
16720,1.919e+07,1,0,0,0,-0.03,0.09,0,0,0,0,1.41,0,0.0066566,8.8757e-07
16760,1.92e+07,1,0,0,0,-0.03,0.09,0,0,0,0,1.41,0,0.0066566,8.8757e-07
16804,1.921e+07,1,0,0,0,-0.03,0.09,0,0,0,0,1.41,0,0.0066566,8.8757e-07
16845,1.9221e+07,1,0,0,0,-0.03,0.09,0,0,0,0,1.41,0,0.0066566,8.8757e-07
16887,1.9231e+07,1,0,0,0,-0.03,0.09,0,0,0,0,1.41,0,0.0066566,8.8757e-07
16928,1.9241e+07,1,0,0,0,-0.03,0.09,0,0,0,0,1.41,0,0.0066566,8.8757e-07
16968,1.9251e+07,1,0,0,0,-0.03,0.09,0,0,0,0,1.41,0,0.0066566,8.8757e-07
17006,1.9264e+07,1,0,0,0,-0.03,0.09,-0.5,0,0,0,1.41,0,0.0066566,0.00095045
17051,1.9276e+07,1,0,0,0,-0.03,0.09,-0.5,0,0,0,-0.65,0,0.0066566,0.00095045
17092,1.9286e+07,1,0,0,0,-0.03,0.09,-0.5,0,0,0,-0.65,0,0.0066566,0.00095045
17133,1.9296e+07,1,0,0,0,-0.03,0.09,-0.5,0,0,0,-0.65,0,0.0066566,0.00095045
17173,1.9306e+07,1,0,0,0,-0.03,0.09,-0.5,0,0,0,-0.65,0,0.0066566,0.00095045
17221,1.9319e+07,1,0,0,0,-0.03,0.09,-0.5,0,0,0,-0.65,0,0.0066566,0.00095045
17265,1.9329e+07,1,0,0,0,-0.03,0.09,-0.5,0,0,0,-0.65,0,0.0066566,0.00095045
17305,1.9339e+07,1,0,0,0,-0.03,0.09,-0.5,0,0,0,-0.65,0,0.0066566,0.00095045
17346,1.9352e+07,1,0,0,0,-0.04,0.09,-0.28,0,0,0,-0.65,0,0.0066566,0.00019607
17383,1.9362e+07,1,0,0,0,-0.04,0.09,-0.28,0,0,0,-0.65,0,0.0066566,0.00019607
17424,1.9372e+07,1,0,0,0,-0.04,0.09,-0.28,0,0,0,0.95,0,0.0066566,0.00019607
17467,1.9382e+07,1,0,0,0,-0.04,0.09,-0.28,0,0,0,0.95,0,0.0066566,0.00019607
17507,1.9392e+07,1,0,0,0,-0.04,0.09,-0.28,0,0,0,0.95,0,0.0066566,0.00019607
17549,1.9402e+07,1,0,0,0,-0.04,0.09,-0.28,0,0,0,0.95,0,0.0066566,0.00019607
17592,1.9412e+07,1,0,0,0,-0.04,0.09,-0.28,0,0,0,0.95,0,0.0066566,0.00019607
17634,1.9422e+07,1,0,0,0,-0.04,0.09,-0.28,0,0,0,0.95,0,0.0066566,0.00019607
17674,1.9432e+07,1,0,0,0,-0.04,0.09,-0.28,0,0,0,0.95,0,0.0066566,0.00019607
17715,1.9442e+07,1,0,0,0,-0.04,0.09,-0.28,0,0,0,0.95,0,0.0066566,0.00019607
17756,1.9455e+07,1,0,0,0,-0.04,0.09,-0.28,0,0,0,0.95,0,0.0066566,0.00019607
17797,1.9465e+07,1,0,0,0,-0.04,0.09,-0.28,0,0,0,0.95,0,0.0066566,0.00019607
17838,1.9475e+07,1,0,0,0,-0.04,0.09,-0.28,0,0,0,0.95,0,0.0066566,0.00019607
17880,1.9485e+07,1,0,0,0,-0.04,0.09,-0.5,0,0,0,0.95,0,0.0066566,0.0011029
17922,1.9495e+07,1,0,0,0,-0.04,0.09,-0.5,0,0,0,0.95,0,0.0066566,0.0011029
17963,1.9505e+07,1,0,0,0,-0.04,0.09,-0.5,0,0,0,2.73,0,0.0066566,0.0011029
18008,1.9515e+07,1,0,0,0,-0.04,0.09,-0.5,0,0,0,2.73,0,0.0066566,0.0011029
18051,1.9525e+07,1,0,0,0,-0.04,0.09,-0.5,0,0,0,2.73,0,0.0066566,0.0011029
18091,1.9535e+07,1,0,0,0,-0.04,0.09,-0.5,0,0,0,2.73,0,0.0066566,0.0011029
18132,1.9545e+07,1,0,0,0,-0.04,0.09,-0.5,0,0,0,2.73,0,0.0066566,0.0011029
18172,1.9557e+07,1,0,0,0,-0.04,0.09,-0.5,0,0,0,2.73,0,0.0082342,0.0011029
18214,1.9568e+07,1,0,0,0,-0.04,0.09,-0.5,0,0,0,2.73,0,0.011389,0.0011029
18255,1.9578e+07,1,0,0,0,-0.04,0.09,-0.5,0,0,0,2.73,0,0.014544,0.0011029
18292,1.9588e+07,1,0,0,0,-0.05,0.09,-0.34,0,0,0,0.3,0,0.015333,0.0002761
18334,1.9598e+07,1,0,0,0,-0.05,0.09,-0.34,0,0,0,0.3,0,0.015333,0.0002761
18375,1.9608e+07,1,0,0,0,-0.05,0.09,-0.34,0,0,0,0.3,0,0.015333,0.0002761
18421,1.9618e+07,1,0,0,0,-0.05,0.09,-0.34,0,0,0,0.3,0,0.015333,0.0002761
18462,1.9628e+07,1,0,0,0,-0.05,0.09,-0.34,0,0,0,0.3,0,0.015333,0.0002761
18502,1.9638e+07,1,0,0,0,-0.05,0.09,-0.34,0,0,0,0.3,0,0.015333,0.0002761
18543,1.9648e+07,1,0,0,0,-0.05,0.09,-0.34,0,0,0,0.3,0,0.015333,0.0002761
18583,1.9658e+07,1,0,0,0,-0.05,0.09,-0.34,0,0,0,0.3,0,0.015333,0.0002761
18619,1.9668e+07,1,0,0,0,-0.06,0.09,-0.11,0,0,0,-0.16,0,0.015566,2.9906e-05
18661,1.9678e+07,1,0,0,0,-0.06,0.09,-0.11,0,0,0,-0.16,0,0.015566,2.9906e-05
18701,1.9688e+07,1,0,0,0,-0.06,0.09,-0.11,0,0,0,-0.16,0,0.015566,2.9906e-05
18742,1.9698e+07,1,0,0,0,-0.06,0.09,-0.11,0,0,0,-0.16,0,0.015566,2.9906e-05
18785,1.9708e+07,1,0,0,0,-0.06,0.09,-0.11,0,0,0,-0.16,0,0.015566,2.9906e-05
18829,1.9718e+07,1,0,0,0,-0.06,0.09,-0.11,0,0,0,-0.16,0,0.015566,2.9906e-05
18871,1.9728e+07,1,0,0,0,-0.06,0.09,-0.11,0,0,0,-0.16,0,0.015566,2.9906e-05
18912,1.9738e+07,1,0,0,0,-0.06,0.09,-0.11,0,0,0,-0.16,0,0.015566,2.9906e-05
18952,1.9748e+07,1,0,0,0,-0.06,0.09,-0.11,0,0,0,-0.16,0,0.015566,2.9906e-05
18994,1.9758e+07,1,0,0,0,-0.06,0.09,-0.11,0,0,0,-0.16,0,0.015566,2.9906e-05
19032,1.9768e+07,1,0,0,0,-0.06,0.09,-0.11,0,0,0,-0.16,0,0.015566,2.9906e-05
19072,1.9778e+07,1,0,0,0,-0.06,0.09,-0.11,0,0,0,-0.16,0,0.015566,2.9906e-05
19113,1.9789e+07,1,0,0,0,-0.06,0.09,-0.33,0,0,0,-0.16,0,0.015566,0.00027007
19153,1.9798e+07,1,0,0,0,-0.06,0.09,-0.33,0,0,0,0.14,0,0.015566,0.00027007
19196,1.9809e+07,1,0,0,0,-0.06,0.09,-0.33,0,0,0,0.14,0,0.015566,0.00027007
19242,1.9818e+07,1,0,0,0,-0.06,0.09,-0.33,0,0,0,0.14,0,0.015566,0.00027007
19283,1.9828e+07,1,0,0,0,-0.06,0.09,-0.33,0,0,0,0.14,0,0.015566,0.00027007
19324,1.9839e+07,1,0,0,0,-0.06,0.09,-0.33,0,0,0,0.14,0,0.015566,0.00027007
19364,1.9848e+07,1,0,0,0,-0.06,0.09,-0.33,0,0,0,0.14,0,0.015566,0.00027007
19406,1.9861e+07,1,0,0,0,-0.07,0.09,-0.34,0,0,0,0.28,0,0.015566,0.00028762
19446,1.9871e+07,1,0,0,0,-0.07,0.09,-0.34,0,0,0,0.28,0,0.015566,0.00028762
19487,1.9881e+07,1,0,0,0,-0.07,0.09,-0.34,0,0,0,0.28,0,0.015566,0.00028762
19528,1.9891e+07,1,0,0,0,-0.07,0.09,-0.34,0,0,0,0.28,0,0.015566,0.00028762
19569,1.9901e+07,1,0,0,0,-0.07,0.09,-0.34,0,0,0,0.28,0,0.015566,0.00028762
19617,1.9914e+07,1,0,0,0,-0.07,0.09,-0.34,0,0,0,0.28,0,0.015566,0.00028762
19658,1.9923e+07,1,0,0,0,-0.07,0.09,-0.34,0,0,0,0.28,0,0.015566,0.00028762
19701,1.9934e+07,1,0,0,0,-0.07,0.09,-0.34,0,0,0,0.28,0,0.015566,0.00028762
19742,1.9944e+07,1,0,0,0,-0.07,0.09,-0.34,0,0,0,0.28,0,0.015566,0.00028762
19780,1.9953e+07,1,0,0,0,-0.07,0.09,-0.34,0,0,0,0.28,0,0.015566,0.00028762
19818,1.9963e+07,1,0,0,0,-0.08,0.09,-0.33,0,0,0,2.03,0,0.015566,0.00026824
19859,1.9974e+07,1,0,0,0,-0.08,0.09,-0.33,0,0,0,2.03,0,0.015566,0.00026824
19902,1.9984e+07,1,0,0,0,-0.08,0.09,-0.33,0,0,0,2.03,0,0.015566,0.00026824
19942,1.9994e+07,1,0,0,0,-0.08,0.09,-0.33,0,0,0,2.03,0,0.015566,0.00026824
19984,2.0003e+07,1,0,0,0,-0.08,0.09,-0.33,0,0,0,2.03,0,0.015566,0.00026824
20028,2.0014e+07,1,0,0,0,-0.08,0.09,-0.33,0,0,0,2.03,0,0.015566,0.00026824
20070,2.0024e+07,1,0,0,0,-0.08,0.09,-0.33,0,0,0,2.03,0,0.015566,0.00026824
20111,2.0034e+07,1,0,0,0,-0.08,0.09,-0.33,0,0,0,2.03,0,0.015566,0.00026824
20151,2.0043e+07,1,0,0,0,-0.08,0.09,-0.33,0,0,0,2.03,0,0.015566,0.00026824
20192,2.0054e+07,1,0,0,0,-0.08,0.09,-0.33,0,0,0,2.03,0,0.015566,0.00026824
20227,2.0064e+07,1,0,0,0,-0.08,0.08,-0.35,0,0,0,-0.4,0,0.015566,0.00029941
20268,2.0074e+07,1,0,0,0,-0.08,0.08,-0.35,0,0,0,-0.4,0,0.015566,0.00029941
20309,2.0084e+07,1,0,0,0,-0.08,0.08,-0.35,0,0,0,-0.4,0,0.015566,0.00029941
20349,2.0094e+07,1,0,0,0,-0.08,0.08,-0.35,0,0,0,-0.4,0,0.015566,0.00029941
20391,2.0104e+07,1,0,0,0,-0.08,0.08,-0.35,0,0,0,-0.4,0,0.015566,0.00029941
20436,2.0114e+07,1,0,0,0,-0.08,0.08,-0.35,0,0,0,-0.4,0,0.015566,0.00029941
20477,2.0124e+07,1,0,0,0,-0.08,0.08,-0.35,0,0,0,-0.4,0,0.015566,0.00029941
20519,2.0134e+07,1,0,0,0,-0.08,0.08,-0.35,0,0,0,-0.4,0,0.015566,0.00029941
20559,2.0144e+07,1,0,0,0,-0.08,0.08,-0.35,0,0,0,-0.4,0,0.015566,0.00029941
20603,2.0156e+07,1,0,0,0,-0.09,0.08,-0.5,0,0,0,0.79,0,0.0162,0.00065955
20640,2.0166e+07,1,0,0,0,-0.09,0.08,-0.5,0,0,0,0.79,0,0.016517,0.00065955
20680,2.0176e+07,1,0,0,0,-0.09,0.08,-0.5,0,0,0,0.79,0,0.016517,0.00065955
20720,2.0186e+07,1,0,0,0,-0.09,0.08,-0.5,0,0,0,0.79,0,0.016517,0.00065955
20761,2.0196e+07,1,0,0,0,-0.09,0.08,-0.5,0,0,0,0.79,0,0.016517,0.00065955
20802,2.0206e+07,1,0,0,0,-0.09,0.08,-0.5,0,0,0,0.79,0,0.016517,0.00065955
20846,2.0216e+07,1,0,0,0,-0.09,0.08,-0.5,0,0,0,0.79,0,0.016517,0.00065955
20888,2.0226e+07,1,0,0,0,-0.09,0.08,-0.5,0,0,0,0.79,0,0.016517,0.00065955
20929,2.0236e+07,1,0,0,0,-0.09,0.08,-0.5,0,0,0,0.79,0,0.016517,0.00065955
20970,2.0246e+07,1,0,0,0,-0.09,0.08,-0.5,0,0,0,0.79,0,0.016517,0.00065955
21011,2.0259e+07,1,0,0,0,-0.1,0.08,-0.36,0,0,0,2.67,0,0.016517,0.00032282
21049,2.0269e+07,1,0,0,0,-0.1,0.08,-0.36,0,0,0,2.67,0,0.016517,0.00032282
21090,2.0279e+07,1,0,0,0,-0.1,0.08,-0.36,0,0,0,2.67,0,0.016517,0.00032282
21130,2.0288e+07,1,0,0,0,-0.1,0.08,-0.36,0,0,0,2.67,0,0.016517,0.00032282
21172,2.0299e+07,1,0,0,0,-0.1,0.08,-0.36,0,0,0,2.67,0,0.016517,0.00032282
21212,2.0308e+07,1,0,0,0,-0.1,0.08,-0.36,0,0,0,2.67,0,0.016517,0.00032282
21259,2.0319e+07,1,0,0,0,-0.1,0.08,-0.36,0,0,0,2.67,0,0.016517,0.00032282
21300,2.0329e+07,1,0,0,0,-0.1,0.08,-0.36,0,0,0,2.67,0,0.016517,0.00032282
21342,2.0338e+07,1,0,0,0,-0.1,0.08,-0.36,0,0,0,2.67,0,0.016517,0.00032282
21385,2.0349e+07,1,0,0,0,-0.1,0.08,-0.36,0,0,0,2.67,0,0.016517,0.00032282
21422,2.0358e+07,1,0,0,0,-0.1,0.08,-0.37,0,0,0,1.25,0,0.016517,0.00033959
21459,2.0368e+07,1,0,0,0,-0.1,0.08,-0.37,0,0,0,1.25,0,0.016517,0.00033959
21500,2.0378e+07,1,0,0,0,-0.1,0.08,-0.37,0,0,0,1.25,0,0.016517,0.00033959
21540,2.0388e+07,1,0,0,0,-0.1,0.08,-0.37,0,0,0,1.25,0,0.016517,0.00033959
21581,2.0398e+07,1,0,0,0,-0.1,0.08,-0.37,0,0,0,1.25,0,0.016517,0.00033959
21622,2.0409e+07,1,0,0,0,-0.1,0.08,-0.37,0,0,0,1.25,0,0.016517,0.00033959
21667,2.0419e+07,1,0,0,0,-0.1,0.08,-0.37,0,0,0,1.25,0,0.016517,0.00033959
21708,2.0429e+07,1,0,0,0,-0.1,0.08,-0.37,0,0,0,1.25,0,0.016517,0.00033959
21748,2.0439e+07,1,0,0,0,-0.1,0.08,-0.37,0,0,0,1.25,0,0.016517,0.00033959
21791,2.0449e+07,1,0,0,0,-0.1,0.08,-0.37,0,0,0,1.25,0,0.016517,0.00033959
21828,2.0462e+07,1,0,0,0,-0.11,0.08,-0.5,0,0,0,0.6,0,0.017613,0.00093717
21868,2.0471e+07,1,0,0,0,-0.11,0.08,-0.5,0,0,0,0.6,0,0.017613,0.00093717
21911,2.0482e+07,1,0,0,0,-0.11,0.08,-0.5,0,0,0,0.6,0,0.017613,0.00093717
21951,2.0492e+07,1,0,0,0,-0.11,0.08,-0.5,0,0,0,0.6,0,0.017613,0.00093717
21993,2.0502e+07,1,0,0,0,-0.11,0.08,-0.5,0,0,0,0.6,0,0.017613,0.00093717
22033,2.0512e+07,1,0,0,0,-0.11,0.08,-0.5,0,0,0,0.6,0,0.017613,0.00093717
22079,2.0522e+07,1,0,0,0,-0.11,0.08,-0.5,0,0,0,0.6,0,0.017613,0.00093717
22121,2.0532e+07,1,0,0,0,-0.11,0.08,-0.5,0,0,0,0.6,0,0.017613,0.00093717
22162,2.0542e+07,1,0,0,0,-0.11,0.08,-0.5,0,0,0,0.6,0,0.017613,0.00093717
22203,2.0552e+07,1,0,0,0,-0.11,0.08,-0.5,0,0,0,0.6,0,0.017613,0.00093717
22245,2.0564e+07,1,0,0,0,-0.11,0.08,-0.5,0,0,0,0.6,0,0.019188,0.00093717
22283,2.0574e+07,1,0,0,0,-0.12,0.08,-0.22,0,0,0,0.6,0,0.019188,0.00011772
22323,2.0584e+07,1,0,0,0,-0.12,0.08,-0.22,0,0,0,0.55,0,0.019188,0.00011772
22364,2.0595e+07,1,0,0,0,-0.12,0.08,-0.22,0,0,0,0.55,0,0.019188,0.00011772
22404,2.0605e+07,1,0,0,0,-0.12,0.08,-0.22,0,0,0,0.55,0,0.019188,0.00011772
22450,2.0615e+07,1,0,0,0,-0.12,0.08,-0.22,0,0,0,0.55,0,0.019188,0.00011772
22492,2.0625e+07,1,0,0,0,-0.12,0.08,-0.22,0,0,0,0.55,0,0.019188,0.00011772
22532,2.0635e+07,1,0,0,0,-0.12,0.08,-0.22,0,0,0,0.55,0,0.019188,0.00011772
22573,2.0645e+07,1,0,0,0,-0.12,0.08,-0.22,0,0,0,0.55,0,0.019188,0.00011772
22615,2.0655e+07,1,0,0,0,-0.12,0.08,-0.22,0,0,0,0.55,0,0.019188,0.00011772
22656,2.0665e+07,1,0,0,0,-0.12,0.08,-0.22,0,0,0,0.55,0,0.019188,0.00011772
22693,2.0675e+07,1,0,0,0,-0.12,0.08,-0.22,0,0,0,0.55,0,0.019188,0.00011772
22731,2.0685e+07,1,0,0,0,-0.12,0.08,-0.5,0,0,0,0.14,0,0.019188,0.0013164
22773,2.0695e+07,1,0,0,0,-0.12,0.08,-0.5,0,0,0,0.14,0,0.019188,0.0013164
22813,2.0705e+07,1,0,0,0,-0.12,0.08,-0.5,0,0,0,0.14,0,0.019188,0.0013164
22858,2.0715e+07,1,0,0,0,-0.12,0.08,-0.5,0,0,0,0.14,0,0.019188,0.0013164
22899,2.0725e+07,1,0,0,0,-0.12,0.08,-0.5,0,0,0,0.14,0,0.019188,0.0013164
22943,2.0735e+07,1,0,0,0,-0.12,0.08,-0.5,0,0,0,0.14,0,0.019188,0.0013164
22983,2.0745e+07,1,0,0,0,-0.12,0.08,-0.5,0,0,0,0.14,0,0.019188,0.0013164
23025,2.0757e+07,1,0,0,0,-0.12,0.08,-0.5,0,0,0,0.14,0,0.019435,0.0013164
23066,2.0768e+07,1,0,0,0,-0.12,0.08,-0.5,0,0,0,0.14,0,0.01993,0.0013164
23103,2.0778e+07,1,0,0,0,-0.13,0.07,-0.5,0,0,0,0.92,0,0.020178,0.0010949
23144,2.0788e+07,1,0,0,0,-0.13,0.07,-0.5,0,0,0,0.92,0,0.020178,0.0010949
23184,2.0798e+07,1,0,0,0,-0.13,0.07,-0.5,0,0,0,0.92,0,0.020178,0.0010949
23226,2.0808e+07,1,0,0,0,-0.13,0.07,-0.5,0,0,0,0.92,0,0.020178,0.0010949
23272,2.0818e+07,1,0,0,0,-0.13,0.07,-0.5,0,0,0,0.92,0,0.020178,0.0010949
23313,2.0828e+07,1,0,0,0,-0.13,0.07,-0.5,0,0,0,0.92,0,0.020178,0.0010949
23354,2.0838e+07,1,0,0,0,-0.13,0.07,-0.5,0,0,0,0.92,0,0.020178,0.0010949
23394,2.0848e+07,1,0,0,0,-0.13,0.07,-0.5,0,0,0,0.92,0,0.020178,0.0010949
23437,2.0858e+07,1,0,0,0,-0.13,0.07,-0.5,0,0,0,0.92,0,0.020178,0.0010949
23477,2.0871e+07,1,0,0,0,-0.14,0.07,-0.47,0,0,0,0.92,0,0.020673,0.00052656
23518,2.088e+07,1,0,0,0,-0.14,0.07,-0.47,0,0,0,0.92,0,0.020673,0.00052656
23559,2.089e+07,1,0,0,0,-0.14,0.07,-0.47,0,0,0,0.67,0,0.020673,0.00052656
23602,2.09e+07,1,0,0,0,-0.14,0.07,-0.47,0,0,0,0.67,0,0.020673,0.00052656
23643,2.091e+07,1,0,0,0,-0.14,0.07,-0.47,0,0,0,0.67,0,0.020673,0.00052656
23687,2.092e+07,1,0,0,0,-0.14,0.07,-0.47,0,0,0,0.67,0,0.020673,0.00052656
23728,2.093e+07,1,0,0,0,-0.14,0.07,-0.47,0,0,0,0.67,0,0.020673,0.00052656
23770,2.094e+07,1,0,0,0,-0.14,0.07,-0.47,0,0,0,0.67,0,0.020673,0.00052656
23812,2.095e+07,1,0,0,0,-0.14,0.07,-0.47,0,0,0,0.67,0,0.020673,0.00052656
23853,2.096e+07,1,0,0,0,-0.14,0.07,-0.47,0,0,0,0.67,0,0.020673,0.00052656
23894,2.097e+07,1,0,0,0,-0.14,0.07,-0.47,0,0,0,0.67,0,0.020673,0.00052656
23937,2.0983e+07,1,0,0,0,-0.14,0.07,-0.45,0,0,0,0.67,0,0.020673,0.00048135
23977,2.0993e+07,1,0,0,0,-0.14,0.07,-0.45,0,0,0,1.2,0,0.020673,0.00048135
24018,2.1003e+07,1,0,0,0,-0.14,0.07,-0.45,0,0,0,1.2,0,0.020673,0.00048135
24060,2.1013e+07,1,0,0,0,-0.14,0.07,-0.45,0,0,0,1.2,0,0.020673,0.00048135
24104,2.1023e+07,1,0,0,0,-0.14,0.07,-0.45,0,0,0,1.2,0,0.020673,0.00048135
24145,2.1033e+07,1,0,0,0,-0.14,0.07,-0.45,0,0,0,1.2,0,0.020673,0.00048135
24186,2.1043e+07,1,0,0,0,-0.14,0.07,-0.45,0,0,0,1.2,0,0.020673,0.00048135
24227,2.1053e+07,1,0,0,0,-0.14,0.07,-0.45,0,0,0,1.2,0,0.020673,0.00048135
24264,2.1063e+07,1,0,0,0,-0.14,0.07,-0.45,0,0,0,1.2,0,0.021392,0.00048135
24309,2.1078e+07,1,0,0,0,-0.15,0.06,-0.19,0,0,0,0.64,0,0.02283,9.0841e-05
24350,2.1088e+07,1,0,0,0,-0.15,0.06,-0.19,0,0,0,0.64,0,0.02283,9.0841e-05
24391,2.1098e+07,1,0,0,0,-0.15,0.06,-0.19,0,0,0,0.64,0,0.02283,9.0841e-05
24433,2.1108e+07,1,0,0,0,-0.15,0.06,-0.19,0,0,0,0.64,0,0.02283,9.0841e-05
24478,2.1118e+07,1,0,0,0,-0.15,0.06,-0.19,0,0,0,0.64,0,0.02283,9.0841e-05
24518,2.1128e+07,1,0,0,0,-0.15,0.06,-0.19,0,0,0,0.64,0,0.02283,9.0841e-05
24562,2.1138e+07,1,0,0,0,-0.15,0.06,-0.19,0,0,0,0.64,0,0.02283,9.0841e-05
24602,2.1149e+07,1,0,0,0,-0.15,0.06,-0.19,0,0,0,0.64,0,0.02283,9.0841e-05
24643,2.1159e+07,1,0,0,0,-0.15,0.06,-0.19,0,0,0,0.64,0,0.02283,9.0841e-05
24680,2.1169e+07,1,0,0,0,-0.15,0.06,-0.19,0,0,0,0.64,0,0.022962,9.0841e-05
24721,2.1179e+07,1,0,0,0,-0.16,0.06,-0.1,0,0,0,0.64,0,0.023006,2.8157e-05
24763,2.1189e+07,1,0,0,0,-0.16,0.06,-0.1,0,0,0,1.05,0,0.023006,2.8157e-05
24803,2.1199e+07,1,0,0,0,-0.16,0.06,-0.1,0,0,0,1.05,0,0.023006,2.8157e-05
24845,2.1209e+07,1,0,0,0,-0.16,0.06,-0.1,0,0,0,1.05,0,0.023006,2.8157e-05
24889,2.1219e+07,1,0,0,0,-0.16,0.06,-0.1,0,0,0,1.05,0,0.023006,2.8157e-05
24930,2.1229e+07,1,0,0,0,-0.16,0.06,-0.1,0,0,0,1.05,0,0.023006,2.8157e-05
24970,2.1239e+07,1,0,0,0,-0.16,0.06,-0.1,0,0,0,1.05,0,0.023006,2.8157e-05
25012,2.1249e+07,1,0,0,0,-0.16,0.06,-0.1,0,0,0,1.05,0,0.023006,2.8157e-05
25053,2.1259e+07,1,0,0,0,-0.16,0.06,-0.1,0,0,0,1.05,0,0.023006,2.8157e-05
25093,2.1272e+07,1,0,0,0,-0.17,0.06,-0.02,0,0,0,1.05,0,0.023026,2.6703e-06
25135,2.1282e+07,1,0,0,0,-0.17,0.06,-0.02,0,0,0,0.58,0,0.023026,2.6703e-06
25176,2.1292e+07,1,0,0,0,-0.17,0.06,-0.02,0,0,0,0.58,0,0.023026,2.6703e-06
25217,2.1302e+07,1,0,0,0,-0.17,0.06,-0.02,0,0,0,0.58,0,0.023026,2.6703e-06
25258,2.1312e+07,1,0,0,0,-0.17,0.06,-0.02,0,0,0,0.58,0,0.023026,2.6703e-06
25302,2.1322e+07,1,0,0,0,-0.17,0.06,-0.02,0,0,0,0.58,0,0.023026,2.6703e-06
25344,2.1332e+07,1,0,0,0,-0.17,0.06,-0.02,0,0,0,0.58,0,0.023026,2.6703e-06
25386,2.1342e+07,1,0,0,0,-0.17,0.06,-0.02,0,0,0,0.58,0,0.023026,2.6703e-06
25427,2.1352e+07,1,0,0,0,-0.17,0.06,-0.02,0,0,0,0.58,0,0.023026,2.6703e-06
25470,2.1365e+07,1,0,0,0,-0.18,0.05,-0.5,0,0,0,0.58,0,0.025279,0.0011355
25508,2.1375e+07,1,0,0,0,-0.18,0.05,-0.5,0,0,0,1.26,0,0.026406,0.0011355
25549,2.1385e+07,1,0,0,0,-0.18,0.05,-0.5,0,0,0,1.26,0,0.026406,0.0011355
25591,2.1395e+07,1,0,0,0,-0.18,0.05,-0.5,0,0,0,1.26,0,0.026406,0.0011355
25632,2.1405e+07,1,0,0,0,-0.18,0.05,-0.5,0,0,0,1.26,0,0.026406,0.0011355
25672,2.1415e+07,1,0,0,0,-0.18,0.05,-0.5,0,0,0,1.26,0,0.026406,0.0011355
25717,2.1425e+07,1,0,0,0,-0.18,0.05,-0.5,0,0,0,1.26,0,0.026406,0.0011355
25759,2.1435e+07,1,0,0,0,-0.18,0.05,-0.5,0,0,0,1.26,0,0.026406,0.0011355
25799,2.1445e+07,1,0,0,0,-0.18,0.05,-0.5,0,0,0,1.26,0,0.026406,0.0011355
25843,2.1457e+07,1,0,0,0,-0.18,0.05,-0.5,0,0,0,1.26,0,0.028342,0.0011355
25883,2.1467e+07,1,0,0,0,-0.18,0.05,-0.5,0,0,0,1.26,0,0.032213,0.0011355
25923,2.1478e+07,1,0,0,0,-0.19,0.05,-0.23,0,0,0,2.46,0,0.033181,0.00013107
25965,2.1488e+07,1,0,0,0,-0.19,0.05,-0.23,0,0,0,2.46,0,0.033181,0.00013107
26006,2.1498e+07,1,0,0,0,-0.19,0.05,-0.23,0,0,0,2.46,0,0.033181,0.00013107
26047,2.1508e+07,1,0,0,0,-0.19,0.05,-0.23,0,0,0,2.46,0,0.033181,0.00013107
26091,2.1518e+07,1,0,0,0,-0.19,0.05,-0.23,0,0,0,2.46,0,0.033181,0.00013107
26135,2.1528e+07,1,0,0,0,-0.19,0.05,-0.23,0,0,0,2.46,0,0.033181,0.00013107
26175,2.1538e+07,1,0,0,0,-0.19,0.05,-0.23,0,0,0,2.46,0,0.033181,0.00013107
26216,2.1548e+07,1,0,0,0,-0.19,0.05,-0.23,0,0,0,2.46,0,0.033181,0.00013107
26257,2.1558e+07,1,0,0,0,-0.19,0.05,-0.23,0,0,0,2.46,0,0.033181,0.00013107
26297,2.1568e+07,1,0,0,0,-0.19,0.05,-0.23,0,0,0,2.46,0,0.033181,0.00013107
26336,2.1581e+07,1,0,0,0,-0.19,0.04,-0.05,0,0,0,2.46,0,0.033181,7.5848e-06
26377,2.1591e+07,1,0,0,0,-0.19,0.04,-0.05,0,0,0,1.39,0,0.033181,7.5848e-06
26417,2.1601e+07,1,0,0,0,-0.19,0.04,-0.05,0,0,0,1.39,0,0.033181,7.5848e-06
26460,2.1611e+07,1,0,0,0,-0.19,0.04,-0.05,0,0,0,1.39,0,0.033181,7.5848e-06
26506,2.1621e+07,1,0,0,0,-0.19,0.04,-0.05,0,0,0,1.39,0,0.033181,7.5848e-06
26548,2.1631e+07,1,0,0,0,-0.19,0.04,-0.05,0,0,0,1.39,0,0.033181,7.5848e-06
26588,2.1641e+07,1,0,0,0,-0.19,0.04,-0.05,0,0,0,1.39,0,0.033181,7.5848e-06
26629,2.1651e+07,1,0,0,0,-0.19,0.04,-0.05,0,0,0,1.39,0,0.033181,7.5848e-06
26669,2.1661e+07,1,0,0,0,-0.19,0.04,-0.05,0,0,0,1.39,0,0.033181,7.5848e-06
26707,2.1671e+07,1,0,0,0,-0.19,0.04,-0.05,0,0,0,1.39,0,0.033181,7.5848e-06
26745,2.1681e+07,1,0,0,0,-0.2,0.04,-0.11,0,0,0,1.05,0,0.033181,3.0157e-05
26786,2.1692e+07,1,0,0,0,-0.2,0.04,-0.11,0,0,0,1.05,0,0.033181,3.0157e-05
26827,2.1702e+07,1,0,0,0,-0.2,0.04,-0.11,0,0,0,1.05,0,0.033181,3.0157e-05
26869,2.1712e+07,1,0,0,0,-0.2,0.04,-0.11,0,0,0,1.05,0,0.033181,3.0157e-05
26919,2.1724e+07,1,0,0,0,-0.2,0.04,-0.11,0,0,0,1.05,0,0.033181,3.0157e-05
26959,2.1734e+07,1,0,0,0,-0.2,0.04,-0.11,0,0,0,1.05,0,0.033181,3.0157e-05
27000,2.1744e+07,1,0,0,0,-0.2,0.04,-0.11,0,0,0,1.05,0,0.033181,3.0157e-05
27042,2.1754e+07,1,0,0,0,-0.2,0.04,-0.11,0,0,0,1.05,0,0.033181,3.0157e-05
27082,2.1764e+07,1,0,0,0,-0.2,0.04,-0.11,0,0,0,1.05,0,0.033181,3.0157e-05
27124,2.1774e+07,1,0,0,0,-0.2,0.04,-0.11,0,0,0,1.05,0,0.033181,3.0157e-05
27162,2.1784e+07,1,0,0,0,-0.21,0.03,-0.34,0,0,0,1.05,0,0.033181,0.00028419
27203,2.1794e+07,1,0,0,0,-0.21,0.03,-0.34,0,0,0,1.05,0,0.033181,0.00028419
27244,2.1804e+07,1,0,0,0,-0.21,0.03,-0.34,0,0,0,1.18,0,0.033181,0.00028419
27285,2.1814e+07,1,0,0,0,-0.21,0.03,-0.34,0,0,0,1.18,0,0.033181,0.00028419
27333,2.1824e+07,1,0,0,0,-0.21,0.03,-0.34,0,0,0,1.18,0,0.033181,0.00028419
27373,2.1834e+07,1,0,0,0,-0.21,0.03,-0.34,0,0,0,1.18,0,0.033181,0.00028419
27415,2.1844e+07,1,0,0,0,-0.21,0.03,-0.34,0,0,0,1.18,0,0.033181,0.00028419
27455,2.1854e+07,1,0,0,0,-0.21,0.03,-0.34,0,0,0,1.18,0,0.033181,0.00028419
27496,2.1864e+07,1,0,0,0,-0.21,0.03,-0.34,0,0,0,1.18,0,0.034033,0.00028419
27537,2.1874e+07,1,0,0,0,-0.21,0.03,-0.34,0,0,0,1.18,0,0.035168,0.00028419
27574,2.1885e+07,1,0,0,0,-0.22,0.03,0.04,0,0,0,0.56,0,0.035184,4.5421e-06
27616,2.1895e+07,1,0,0,0,-0.22,0.03,0.04,0,0,0,0.56,0,0.0352,4.5421e-06
27657,2.1905e+07,1,0,0,0,-0.22,0.03,0.04,0,0,0,0.56,0,0.035217,4.5421e-06
27697,2.1915e+07,1,0,0,0,-0.22,0.03,0.04,0,0,0,0.56,0,0.035233,4.5421e-06
27745,2.1925e+07,1,0,0,0,-0.22,0.03,0.04,0,0,0,0.56,0,0.03525,4.5421e-06
27785,2.1935e+07,1,0,0,0,-0.22,0.03,0.04,0,0,0,0.56,0,0.035266,4.5421e-06
27826,2.1945e+07,1,0,0,0,-0.22,0.03,0.04,0,0,0,0.56,0,0.035283,4.5421e-06
27867,2.1955e+07,1,0,0,0,-0.22,0.03,0.04,0,0,0,0.56,0,0.035299,4.5421e-06
27905,2.1967e+07,1,0,0,0,-0.23,0.02,-0.38,0,0,0,2.07,0,0.035307,0.00034734
27947,2.1977e+07,1,0,0,0,-0.23,0.02,-0.38,0,0,0,2.07,0,0.035307,0.00034734
27988,2.1988e+07,1,0,0,0,-0.23,0.02,-0.38,0,0,0,2.07,0,0.035307,0.00034734
28029,2.1997e+07,1,0,0,0,-0.23,0.02,-0.38,0,0,0,2.07,0,0.035307,0.00034734
28070,2.2008e+07,1,0,0,0,-0.23,0.02,-0.38,0,0,0,2.07,0,0.035307,0.00034734
28111,2.2018e+07,1,0,0,0,-0.23,0.02,-0.38,0,0,0,2.07,0,0.035307,0.00034734
28156,2.2027e+07,1,0,0,0,-0.23,0.02,-0.38,0,0,0,2.07,0,0.035307,0.00034734
28197,2.2037e+07,1,0,0,0,-0.23,0.02,-0.38,0,0,0,2.07,0,0.035307,0.00034734
28237,2.2048e+07,1,0,0,0,-0.23,0.02,-0.38,0,0,0,2.07,0,0.035307,0.00034734
28279,2.2057e+07,1,0,0,0,-0.23,0.02,-0.38,0,0,0,2.07,0,0.035307,0.00034734
28317,2.2068e+07,1,0,0,0,-0.23,0.02,-0.38,0,0,0,2.07,0,0.035307,0.00034734
28357,2.2077e+07,1,0,0,0,-0.23,0.02,-0.38,0,0,0,2.07,0,0.035307,0.00034734
28395,2.2088e+07,1,0,0,0,-0.24,0.02,-0.42,0,0,0,1.24,0,0.035307,0.00042179
28435,2.2098e+07,1,0,0,0,-0.24,0.02,-0.42,0,0,0,1.24,0,0.035307,0.00042179
28477,2.2108e+07,1,0,0,0,-0.24,0.02,-0.42,0,0,0,1.24,0,0.035307,0.00042179
28517,2.2118e+07,1,0,0,0,-0.24,0.02,-0.42,0,0,0,1.24,0,0.035307,0.00042179
28566,2.2128e+07,1,0,0,0,-0.24,0.02,-0.42,0,0,0,1.24,0,0.035307,0.00042179
28616,2.2138e+07,1,0,0,0,-0.24,0.02,-0.42,0,0,0,1.24,0,0.035307,0.00042179
28660,2.2148e+07,1,0,0,0,-0.24,0.02,-0.42,0,0,0,1.24,0,0.035307,0.00042179
28705,2.2162e+07,1,0,0,0,-0.24,0.02,-0.42,0,0,0,1.24,0,0.036011,0.00042179
28752,2.2175e+07,1,0,0,0,-0.24,0.02,-0.42,0,0,0,1.24,0,0.037769,0.00042179
28797,2.2185e+07,1,0,0,0,-0.24,0.02,-0.42,0,0,0,1.24,0,0.039176,0.00042179
28843,2.2195e+07,1,0,0,0,-0.24,0.02,-0.42,0,0,0,1.24,0,0.040583,0.00042179
28884,2.2206e+07,1,0,0,0,-0.25,0.01,-0.14,0,0,0,1.46,0,0.040583,4.7086e-05
28929,2.2215e+07,1,0,0,0,-0.25,0.01,-0.14,0,0,0,1.46,0,0.040583,4.7086e-05
28978,2.2225e+07,1,0,0,0,-0.25,0.01,-0.14,0,0,0,1.46,0,0.040583,4.7086e-05
29023,2.2235e+07,1,0,0,0,-0.25,0.01,-0.14,0,0,0,1.46,0,0.040583,4.7086e-05
29069,2.2246e+07,1,0,0,0,-0.25,0.01,-0.14,0,0,0,1.46,0,0.040583,4.7086e-05
29113,2.2256e+07,1,0,0,0,-0.25,0.01,-0.14,0,0,0,1.46,0,0.040583,4.7086e-05
29158,2.2266e+07,1,0,0,0,-0.25,0.01,-0.14,0,0,0,1.46,0,0.040583,4.7086e-05
29196,2.2277e+07,1,0,0,0,-0.26,0.01,-0.32,0,0,0,1.46,0,0.040583,0.0002536
29244,2.229e+07,1,0,0,0,-0.26,0.01,-0.32,0,0,0,0.85,0,0.040583,0.0002536
29288,2.23e+07,1,0,0,0,-0.26,0.01,-0.32,0,0,0,0.85,0,0.040583,0.0002536
29333,2.231e+07,1,0,0,0,-0.26,0.01,-0.32,0,0,0,0.85,0,0.040583,0.0002536
29378,2.232e+07,1,0,0,0,-0.26,0.01,-0.32,0,0,0,0.85,0,0.040583,0.0002536
29427,2.233e+07,1,0,0,0,-0.26,0.01,-0.32,0,0,0,0.85,0,0.040583,0.0002536
29475,2.2341e+07,1,0,0,0,-0.26,0.01,-0.32,0,0,0,0.85,0,0.040583,0.0002536
29519,2.2351e+07,1,0,0,0,-0.26,0.01,-0.32,0,0,0,0.85,0,0.040583,0.0002536
29564,2.2361e+07,1,0,0,0,-0.26,0.01,-0.32,0,0,0,0.85,0,0.040583,0.0002536
29606,2.2371e+07,1,0,0,0,-0.26,0.01,-0.32,0,0,0,0.85,0,0.040583,0.0002536
29650,2.2381e+07,1,0,0,0,-0.26,0.01,-0.32,0,0,0,0.85,0,0.040583,0.0002536
29692,2.2391e+07,1,0,0,0,-0.27,0,-0.35,0,0,0,0.85,0,0.040583,0.00029918
29736,2.2401e+07,1,0,0,0,-0.27,0,-0.35,0,0,0,0.02,0,0.040583,0.00029918
29784,2.2414e+07,1,0,0,0,-0.27,0,-0.35,0,0,0,0.02,0,0.040583,0.00029918
29829,2.2424e+07,1,0,0,0,-0.27,0,-0.35,0,0,0,0.02,0,0.040583,0.00029918
29878,2.2434e+07,1,0,0,0,-0.27,0,-0.35,0,0,0,0.02,0,0.040583,0.00029918
29923,2.2444e+07,1,0,0,0,-0.27,0,-0.35,0,0,0,0.02,0,0.040583,0.00029918
29967,2.2454e+07,1,0,0,0,-0.27,0,-0.35,0,0,0,0.02,0,0.040583,0.00029918
30009,2.2464e+07,1,0,0,0,-0.28,0,-0.05,0,0,0,0.02,0,0.040583,7.7751e-06
30055,2.2476e+07,1,0,0,0,-0.28,0,-0.05,0,0,0,2.39,0,0.040583,7.7751e-06
30101,2.2486e+07,1,0,0,0,-0.28,0,-0.05,0,0,0,2.39,0,0.040583,7.7751e-06
30146,2.2497e+07,1,0,0,0,-0.28,0,-0.05,0,0,0,2.39,0,0.040583,7.7751e-06
30190,2.2507e+07,1,0,0,0,-0.28,0,-0.05,0,0,0,2.39,0,0.040583,7.7751e-06
30236,2.2518e+07,1,0,0,0,-0.28,0,-0.05,0,0,0,2.39,0,0.040583,7.7751e-06
30285,2.2527e+07,1,0,0,0,-0.28,0,-0.05,0,0,0,2.39,0,0.040583,7.7751e-06
30331,2.2538e+07,1,0,0,0,-0.28,0,-0.05,0,0,0,2.39,0,0.040583,7.7751e-06
30376,2.2548e+07,1,0,0,0,-0.28,0,-0.05,0,0,0,2.39,0,0.040583,7.7751e-06
30420,2.2558e+07,1,0,0,0,-0.28,0,-0.05,0,0,0,2.39,0,0.040583,7.7751e-06
30465,2.2571e+07,1,0,0,0,-0.28,0,-0.05,0,0,0,2.39,0,0.040583,7.7751e-06
30509,2.2581e+07,1,0,0,0,-0.3,0,-0.21,0,0,0,2.4,0,0.040583,0.00011144
30553,2.2591e+07,1,0,0,0,-0.3,0,-0.21,0,0,0,2.4,0,0.040583,0.00011144
30598,2.2601e+07,1,0,0,0,-0.3,0,-0.21,0,0,0,2.4,0,0.040583,0.00011144
30642,2.2611e+07,1,0,0,0,-0.3,0,-0.21,0,0,0,2.4,0,0.040583,0.00011144
30688,2.2622e+07,1,0,0,0,-0.3,0,-0.21,0,0,0,2.4,0,0.040583,0.00011144
30738,2.2632e+07,1,0,0,0,-0.3,0,-0.21,0,0,0,2.4,0,0.040583,0.00011144
30782,2.2642e+07,1,0,0,0,-0.3,0,-0.21,0,0,0,2.4,0,0.040583,0.00011144
30827,2.2652e+07,1,0,0,0,-0.3,0,-0.21,0,0,0,2.4,0,0.040583,0.00011144
30871,2.2662e+07,1,0,0,0,-0.3,0,-0.21,0,0,0,2.4,0,0.040583,0.00011144
30916,2.2675e+07,1,0,0,0,-0.3,0,-0.21,0,0,0,2.4,0,0.04078,0.00011144
30959,2.2685e+07,1,0,0,0,-0.31,-0.01,-0.04,0,0,0,1.1,0,0.04078,7.6855e-06
31004,2.2696e+07,1,0,0,0,-0.31,-0.01,-0.04,0,0,0,1.1,0,0.04078,7.6855e-06
31049,2.2706e+07,1,0,0,0,-0.31,-0.01,-0.04,0,0,0,1.1,0,0.04078,7.6855e-06
31093,2.2716e+07,1,0,0,0,-0.31,-0.01,-0.04,0,0,0,1.1,0,0.04078,7.6855e-06
31144,2.2728e+07,1,0,0,0,-0.31,-0.01,-0.04,0,0,0,1.1,0,0.04078,7.6855e-06
31192,2.2739e+07,1,0,0,0,-0.31,-0.01,-0.04,0,0,0,1.1,0,0.04078,7.6855e-06
31237,2.2749e+07,1,0,0,0,-0.31,-0.01,-0.04,0,0,0,1.1,0,0.04078,7.6855e-06
31281,2.2759e+07,1,0,0,0,-0.31,-0.01,-0.04,0,0,0,1.1,0,0.04078,7.6855e-06
31326,2.2769e+07,1,0,0,0,-0.31,-0.01,-0.04,0,0,0,1.1,0,0.04078,7.6855e-06
31365,2.278e+07,1,0,0,0,-0.32,-0.01,0.15,0,0,0,1.01,0,0.040817,5.9715e-05
31409,2.279e+07,1,0,0,0,-0.32,-0.01,0.15,0,0,0,1.01,0,0.040891,5.9715e-05
31454,2.2801e+07,1,0,0,0,-0.32,-0.01,0.15,0,0,0,1.01,0,0.040965,5.9715e-05
31501,2.2811e+07,1,0,0,0,-0.32,-0.01,0.15,0,0,0,1.01,0,0.041039,5.9715e-05
31546,2.2821e+07,1,0,0,0,-0.32,-0.01,0.15,0,0,0,1.01,0,0.041113,5.9715e-05
31590,2.2831e+07,1,0,0,0,-0.32,-0.01,0.15,0,0,0,1.01,0,0.041187,5.9715e-05
31641,2.2841e+07,1,0,0,0,-0.32,-0.01,0.15,0,0,0,1.01,0,0.041261,5.9715e-05
31686,2.2851e+07,1,0,0,0,-0.32,-0.01,0.15,0,0,0,1.01,0,0.041334,5.9715e-05
31731,2.2861e+07,1,0,0,0,-0.32,-0.01,0.15,0,0,0,1.01,0,0.041408,5.9715e-05
31776,2.2872e+07,1,0,0,0,-0.32,-0.01,0.15,0,0,0,1.01,0,0.041482,5.9715e-05
31817,2.2882e+07,1,0,0,0,-0.32,-0.01,0.15,0,0,0,1.01,0,0.041519,5.9715e-05
31862,2.2892e+07,1,0,0,0,-0.32,-0.01,0.15,0,0,0,1.01,0,0.041519,5.9715e-05
31904,2.2903e+07,1,0,0,0,-0.33,-0.02,-0.31,0,0,0,-0.49,0,0.041519,0.00022987
31949,2.2913e+07,1,0,0,0,-0.33,-0.02,-0.31,0,0,0,-0.49,0,0.041519,0.00022987
31995,2.2924e+07,1,0,0,0,-0.33,-0.02,-0.31,0,0,0,-0.49,0,0.041519,0.00022987
32041,2.2934e+07,1,0,0,0,-0.33,-0.02,-0.31,0,0,0,-0.49,0,0.041519,0.00022987
32090,2.2944e+07,1,0,0,0,-0.33,-0.02,-0.31,0,0,0,-0.49,0,0.041519,0.00022987
32134,2.2954e+07,1,0,0,0,-0.33,-0.02,-0.31,0,0,0,-0.49,0,0.041519,0.00022987
32179,2.2964e+07,1,0,0,0,-0.33,-0.02,-0.31,0,0,0,-0.49,0,0.041519,0.00022987
32227,2.2974e+07,1,0,0,0,-0.33,-0.02,-0.31,0,0,0,-0.49,0,0.041519,0.00022987
32265,2.2985e+07,1,0,0,0,-0.34,-0.03,0.16,0,0,0,0.93,0,0.041741,6.4211e-05
32311,2.2995e+07,1,0,0,0,-0.34,-0.03,0.16,0,0,0,0.93,0,0.041816,6.4211e-05
32355,2.3005e+07,1,0,0,0,-0.34,-0.03,0.16,0,0,0,0.93,0,0.041891,6.4211e-05
32401,2.3015e+07,1,0,0,0,-0.34,-0.03,0.16,0,0,0,0.93,0,0.041966,6.4211e-05
32445,2.3025e+07,1,0,0,0,-0.34,-0.03,0.16,0,0,0,0.93,0,0.042041,6.4211e-05
32490,2.3035e+07,1,0,0,0,-0.34,-0.03,0.16,0,0,0,0.93,0,0.042116,6.4211e-05
32538,2.3045e+07,1,0,0,0,-0.34,-0.03,0.16,0,0,0,0.93,0,0.042191,6.4211e-05
32584,2.3055e+07,1,0,0,0,-0.34,-0.03,0.16,0,0,0,0.93,0,0.042267,6.4211e-05
32629,2.3066e+07,1,0,0,0,-0.34,-0.03,0.16,0,0,0,0.93,0,0.042342,6.4211e-05
32673,2.3079e+07,1,0,0,0,-0.34,-0.03,0.16,0,0,0,0.93,0,0.042398,6.4211e-05
32718,2.309e+07,1,0,0,0,-0.34,-0.03,0.16,0,0,0,0.93,0,0.042398,6.4211e-05
32761,2.31e+07,1,0,0,0,-0.35,-0.04,-0.2,0,0,0,0.6,0,0.042398,0.00010065
32805,2.3111e+07,1,0,0,0,-0.35,-0.04,-0.2,0,0,0,0.6,0,0.042398,0.00010065
32852,2.3121e+07,1,0,0,0,-0.35,-0.04,-0.2,0,0,0,0.6,0,0.042398,0.00010065
32896,2.3131e+07,1,0,0,0,-0.35,-0.04,-0.2,0,0,0,0.6,0,0.042398,0.00010065
32950,2.3143e+07,1,0,0,0,-0.35,-0.04,-0.2,0,0,0,0.6,0,0.042398,0.00010065
32995,2.3153e+07,1,0,0,0,-0.35,-0.04,-0.2,0,0,0,0.6,0,0.042398,0.00010065
33039,2.3164e+07,1,0,0,0,-0.35,-0.04,-0.2,0,0,0,0.6,0,0.042398,0.00010065
33084,2.3174e+07,1,0,0,0,-0.35,-0.04,-0.2,0,0,0,0.6,0,0.042398,0.00010065
33126,2.3187e+07,1,0,0,0,-0.36,-0.04,0.13,0,0,0,0.6,0,0.042425,4.562e-05
33171,2.3197e+07,1,0,0,0,-0.36,-0.04,0.13,0,0,0,-0.48,0,0.04248,4.562e-05
33215,2.3207e+07,1,0,0,0,-0.36,-0.04,0.13,0,0,0,-0.48,0,0.042535,4.562e-05
33260,2.3218e+07,1,0,0,0,-0.36,-0.04,0.13,0,0,0,-0.48,0,0.04259,4.562e-05
33306,2.3227e+07,1,0,0,0,-0.36,-0.04,0.13,0,0,0,-0.48,0,0.042645,4.562e-05
33351,2.3237e+07,1,0,0,0,-0.36,-0.04,0.13,0,0,0,-0.48,0,0.0427,4.562e-05
33400,2.3248e+07,1,0,0,0,-0.36,-0.04,0.13,0,0,0,-0.48,0,0.042755,4.562e-05
33444,2.3258e+07,1,0,0,0,-0.36,-0.04,0.13,0,0,0,-0.48,0,0.04281,4.562e-05
33490,2.3268e+07,1,0,0,0,-0.36,-0.04,0.13,0,0,0,-0.48,0,0.042865,4.562e-05
33535,2.3278e+07,1,0,0,0,-0.36,-0.04,0.13,0,0,0,-0.48,0,0.04292,4.562e-05
33576,2.3292e+07,1,0,0,0,-0.37,-0.04,0.17,0,0,0,0.8,0,0.042976,7.3394e-05
33620,2.3302e+07,1,0,0,0,-0.37,-0.04,0.17,0,0,0,0.8,0,0.043034,7.3394e-05
33665,2.3312e+07,1,0,0,0,-0.37,-0.04,0.17,0,0,0,0.8,0,0.043092,7.3394e-05
33710,2.3323e+07,1,0,0,0,-0.37,-0.04,0.17,0,0,0,0.8,0,0.04315,7.3394e-05
33754,2.3332e+07,1,0,0,0,-0.37,-0.04,0.17,0,0,0,0.8,0,0.043208,7.3394e-05
33803,2.3343e+07,1,0,0,0,-0.37,-0.04,0.17,0,0,0,0.8,0,0.043266,7.3394e-05
33852,2.3353e+07,1,0,0,0,-0.37,-0.04,0.17,0,0,0,0.8,0,0.043324,7.3394e-05
33896,2.3363e+07,1,0,0,0,-0.37,-0.04,0.17,0,0,0,0.8,0,0.043382,7.3394e-05
33941,2.3373e+07,1,0,0,0,-0.37,-0.04,0.17,0,0,0,0.8,0,0.04344,7.3394e-05
33986,2.3383e+07,1,0,0,0,-0.37,-0.04,0.17,0,0,0,0.8,0,0.043498,7.3394e-05
34034,2.3396e+07,1,0,0,0,-0.38,-0.04,-0.23,0,0,0,0.8,0,0.043512,0.00013654
34081,2.3409e+07,1,0,0,0,-0.38,-0.04,-0.23,0,0,0,-0.21,0,0.043512,0.00013654
34126,2.3419e+07,1,0,0,0,-0.38,-0.04,-0.23,0,0,0,-0.21,0,0.043512,0.00013654
34171,2.3429e+07,1,0,0,0,-0.38,-0.04,-0.23,0,0,0,-0.21,0,0.043512,0.00013654
34216,2.3439e+07,1,0,0,0,-0.38,-0.04,-0.23,0,0,0,-0.21,0,0.043512,0.00013654
34269,2.3452e+07,1,0,0,0,-0.38,-0.04,-0.23,0,0,0,-0.21,0,0.043512,0.00013654
34314,2.3462e+07,1,0,0,0,-0.38,-0.04,-0.23,0,0,0,-0.21,0,0.043512,0.00013654
34360,2.3473e+07,1,0,0,0,-0.38,-0.04,-0.23,0,0,0,-0.21,0,0.043512,0.00013654
34405,2.3483e+07,1,0,0,0,-0.38,-0.04,-0.23,0,0,0,-0.21,0,0.043512,0.00013654
34449,2.3496e+07,1,0,0,0,-0.38,-0.04,-0.23,0,0,0,-0.67,0,0.043784,0.00013654
34494,2.3509e+07,1,0,0,0,-0.39,-0.03,0,0,0,0,-0.67,0,0.044215,1.2712e-05
34540,2.3519e+07,1,0,0,0,-0.39,-0.03,0,0,0,0,-0.67,0,0.044263,1.2712e-05
34586,2.3529e+07,1,0,0,0,-0.39,-0.03,0,0,0,0,-0.67,0,0.04431,1.2712e-05
34632,2.354e+07,1,0,0,0,-0.39,-0.03,0,0,0,0,-0.67,0,0.044358,1.2712e-05
34684,2.3553e+07,1,0,0,0,-0.39,-0.03,0,0,0,0,-0.67,0,0.044417,1.2712e-05
34728,2.3563e+07,1,0,0,0,-0.39,-0.03,0,0,0,0,-0.67,0,0.044465,1.2712e-05
34773,2.3574e+07,1,0,0,0,-0.39,-0.03,0,0,0,0,-0.67,0,0.044513,1.2712e-05
34818,2.3584e+07,1,0,0,0,-0.39,-0.03,0,0,0,0,-0.67,0,0.04456,1.2712e-05
34863,2.3595e+07,1,0,0,0,-0.39,-0.03,0,0,0,0,-0.67,0,0.04456,1.2712e-05
34908,2.3606e+07,1,0,0,0,-0.39,-0.03,0,0,0,0,-0.67,0,0.04456,1.2712e-05
34949,2.3616e+07,1,0,0,0,-0.4,-0.02,-0.06,0,0,0,-0.67,0,0.04456,1.3268e-05
34995,2.3627e+07,1,0,0,0,-0.4,-0.02,-0.06,0,0,0,0.41,0,0.04456,1.3268e-05
35039,2.3637e+07,1,0,0,0,-0.4,-0.02,-0.06,0,0,0,0.41,0,0.04456,1.3268e-05
35086,2.3647e+07,1,0,0,0,-0.4,-0.02,-0.06,0,0,0,0.41,0,0.04456,1.3268e-05
35138,2.3659e+07,1,0,0,0,-0.4,-0.02,-0.06,0,0,0,0.41,0,0.04456,1.3268e-05
35182,2.367e+07,1,0,0,0,-0.4,-0.02,-0.06,0,0,0,0.41,0,0.04456,1.3268e-05
35227,2.368e+07,1,0,0,0,-0.4,-0.02,-0.06,0,0,0,0.41,0,0.04456,1.3268e-05
35271,2.369e+07,1,0,0,0,-0.4,-0.02,-0.06,0,0,0,0.41,0,0.04456,1.3268e-05
35316,2.37e+07,1,0,0,0,-0.4,-0.02,-0.06,0,0,0,0.41,0,0.04456,1.3268e-05
35355,2.3711e+07,1,0,0,0,-0.41,-0.01,-0.04,0,0,0,-0.01,0,0.044572,1.3869e-05
35400,2.3721e+07,1,0,0,0,-0.41,-0.01,-0.04,0,0,0,-0.01,0,0.044589,1.3869e-05
35445,2.3731e+07,1,0,0,0,-0.41,-0.01,-0.04,0,0,0,-0.01,0,0.044605,1.3869e-05
35492,2.3742e+07,1,0,0,0,-0.41,-0.01,-0.04,0,0,0,-0.01,0,0.044621,1.3869e-05
35537,2.3752e+07,1,0,0,0,-0.41,-0.01,-0.04,0,0,0,-0.01,0,0.044637,1.3869e-05
35586,2.3762e+07,1,0,0,0,-0.41,-0.01,-0.04,0,0,0,-0.01,0,0.044654,1.3869e-05
35631,2.3772e+07,1,0,0,0,-0.41,-0.01,-0.04,0,0,0,-0.01,0,0.04467,1.3869e-05
35676,2.3782e+07,1,0,0,0,-0.41,-0.01,-0.04,0,0,0,-0.01,0,0.044686,1.3869e-05
35720,2.3792e+07,1,0,0,0,-0.41,-0.01,-0.04,0,0,0,-0.01,0,0.044702,1.3869e-05
35765,2.3802e+07,1,0,0,0,-0.41,-0.01,-0.04,0,0,0,-0.01,0,0.044702,1.3869e-05
35809,2.3812e+07,1,0,0,0,-0.41,-0.01,-0.04,0,0,0,-0.01,0,0.044702,1.3869e-05
35854,2.3822e+07,1,0,0,0,-0.41,-0.01,-0.04,0,0,0,-0.01,0,0.044702,1.3869e-05
35896,2.3832e+07,1,0,0,0,-0.42,0,-0.32,0,0,0,-0.54,0,0.044702,0.00024517
35940,2.3843e+07,1,0,0,0,-0.42,0,-0.32,0,0,0,-0.54,0,0.044702,0.00024517
35986,2.3853e+07,1,0,0,0,-0.42,0,-0.32,0,0,0,-0.54,0,0.044702,0.00024517
36037,2.3863e+07,1,0,0,0,-0.42,0,-0.32,0,0,0,-0.54,0,0.044702,0.00024517
36083,2.3873e+07,1,0,0,0,-0.42,0,-0.32,0,0,0,-0.54,0,0.044702,0.00024517
36128,2.3883e+07,1,0,0,0,-0.42,0,-0.32,0,0,0,-0.54,0,0.044702,0.00024517
36172,2.3893e+07,1,0,0,0,-0.42,0,-0.32,0,0,0,-0.54,0,0.044702,0.00024517
36218,2.3903e+07,1,0,0,0,-0.42,0,-0.32,0,0,0,-0.54,0,0.044702,0.00024517
36256,2.3914e+07,1,0,0,0,-0.43,0.01,0.15,0,0,0,-0.94,0,0.044799,0.00020004
36302,2.3924e+07,1,0,0,0,-0.43,0.01,0.15,0,0,0,-0.94,0,0.044851,0.00020004
36346,2.3934e+07,1,0,0,0,-0.43,0.01,0.15,0,0,0,-0.94,0,0.044903,0.00020004
36393,2.3944e+07,1,0,0,0,-0.43,0.01,0.15,0,0,0,-0.94,0,0.044955,0.00020004
36437,2.3954e+07,1,0,0,0,-0.43,0.01,0.15,0,0,0,-0.94,0,0.045007,0.00020004
36489,2.3964e+07,1,0,0,0,-0.43,0.01,0.15,0,0,0,-0.94,0,0.045059,0.00020004
36534,2.3975e+07,1,0,0,0,-0.43,0.01,0.15,0,0,0,-0.94,0,0.04511,0.00020004
36579,2.3985e+07,1,0,0,0,-0.43,0.01,0.15,0,0,0,-0.94,0,0.045162,0.00020004
36624,2.3995e+07,1,0,0,0,-0.43,0.01,0.15,0,0,0,-0.94,0,0.045214,0.00020004
36665,2.4005e+07,1,0,0,0,-0.43,0.01,0.15,0,0,0,-0.94,0,0.045227,0.00020004
36709,2.4015e+07,1,0,0,0,-0.43,0.01,0.15,0,0,0,-0.94,0,0.045227,0.00020004
36750,2.4026e+07,1,0,0,0,-0.44,0.02,-0.15,0,0,0,-0.28,0,0.045227,0.0001957
36795,2.4036e+07,1,0,0,0,-0.44,0.02,-0.15,0,0,0,-0.28,0,0.045227,0.0001957
36839,2.4046e+07,1,0,0,0,-0.44,0.02,-0.15,0,0,0,-0.28,0,0.045227,0.0001957
36883,2.4056e+07,1,0,0,0,-0.44,0.02,-0.15,0,0,0,-0.28,0,0.045227,0.0001957
36932,2.4066e+07,1,0,0,0,-0.44,0.02,-0.15,0,0,0,-0.28,0,0.045227,0.0001957
36976,2.4076e+07,1,0,0,0,-0.44,0.02,-0.15,0,0,0,-0.28,0,0.045227,0.0001957
37023,2.4086e+07,1,0,0,0,-0.44,0.02,-0.15,0,0,0,-0.28,0,0.045227,0.0001957
37068,2.4096e+07,1,0,0,0,-0.44,0.02,-0.15,0,0,0,-0.28,0,0.045227,0.0001957
37112,2.4109e+07,1,0,0,0,-0.44,0.02,-0.15,0,0,0,-0.28,0,0.045227,0.0001957
37161,2.4122e+07,1,0,0,0,-0.44,0.02,-0.15,0,0,0,-0.28,0,0.045227,0.0001957
37204,2.4132e+07,1,0,0,0,-0.45,0.04,-0.31,0,0,0,-0.28,0,0.045227,0.00088087
37250,2.4142e+07,1,0,0,0,-0.45,0.04,-0.31,0,0,0,-0.02,0,0.045227,0.00088087
37295,2.4152e+07,1,0,0,0,-0.45,0.04,-0.31,0,0,0,-0.02,0,0.045227,0.00088087
37342,2.4162e+07,1,0,0,0,-0.45,0.04,-0.31,0,0,0,-0.02,0,0.045227,0.00088087
37388,2.4172e+07,1,0,0,0,-0.45,0.04,-0.31,0,0,0,-0.02,0,0.045227,0.00088087
37432,2.4182e+07,1,0,0,0,-0.45,0.04,-0.31,0,0,0,-0.02,0,0.045227,0.00088087
37477,2.4192e+07,1,0,0,0,-0.45,0.04,-0.31,0,0,0,-0.02,0,0.045227,0.00088087
37522,2.4202e+07,1,0,0,0,-0.45,0.04,-0.31,0,0,0,-0.02,0,0.045227,0.00088087
37568,2.4215e+07,1,0,0,0,-0.45,0.04,-0.31,0,0,0,-0.02,0,0.045227,0.00088087
37610,2.4225e+07,1,0,0,0,-0.46,0.05,0.37,0,0,0,0.18,0,0.045373,0.0012451
37654,2.4235e+07,1,0,0,0,-0.46,0.05,0.37,0,0,0,0.18,0,0.045518,0.0012451
37699,2.4245e+07,1,0,0,0,-0.46,0.05,0.37,0,0,0,0.18,0,0.045664,0.0012451
37743,2.4256e+07,1,0,0,0,-0.46,0.05,0.37,0,0,0,0.18,0,0.04581,0.0012451
37793,2.4266e+07,1,0,0,0,-0.46,0.05,0.37,0,0,0,0.18,0,0.045955,0.0012451
37837,2.4276e+07,1,0,0,0,-0.46,0.05,0.37,0,0,0,0.18,0,0.046101,0.0012451
37882,2.4286e+07,1,0,0,0,-0.46,0.05,0.37,0,0,0,0.18,0,0.046247,0.0012451
37927,2.4297e+07,1,0,0,0,-0.46,0.05,0.37,0,0,0,0.18,0,0.046392,0.0012451
37972,2.4308e+07,1,0,0,0,-0.46,0.05,0.37,0,0,0,0.18,0,0.047692,0.0012451
38016,2.4318e+07,1,0,0,0,-0.47,0.07,-0.3,0,0,0,0.18,0,0.048535,0.00082388
38060,2.4328e+07,1,0,0,0,-0.47,0.07,-0.3,0,0,0,0.18,0,0.048535,0.00082388
38107,2.4338e+07,1,0,0,0,-0.47,0.07,-0.3,0,0,0,-0.85,0,0.048535,0.00082388
38151,2.4349e+07,1,0,0,0,-0.47,0.07,-0.3,0,0,0,-0.85,0,0.048535,0.00082388
38197,2.4359e+07,1,0,0,0,-0.47,0.07,-0.3,0,0,0,-0.85,0,0.048535,0.00082388
38246,2.437e+07,1,0,0,0,-0.47,0.07,-0.3,0,0,0,-0.85,0,0.048535,0.00082388
38290,2.438e+07,1,0,0,0,-0.47,0.07,-0.3,0,0,0,-0.85,0,0.048535,0.00082388
38335,2.439e+07,1,0,0,0,-0.47,0.07,-0.3,0,0,0,-0.85,0,0.048535,0.00082388
38379,2.44e+07,1,0,0,0,-0.47,0.07,-0.3,0,0,0,-0.85,0,0.048535,0.00082388
38426,2.4411e+07,1,0,0,0,-0.47,0.07,-0.3,0,0,0,-0.85,0,0.048535,0.00082388
38468,2.4421e+07,1,0,0,0,-0.47,0.07,-0.3,0,0,0,-0.85,0,0.051767,0.00082388
38509,2.4431e+07,1,0,0,0,-0.49,0.09,0.04,0,0,0,-0.95,0,0.053394,2.0827e-05
38554,2.4442e+07,1,0,0,0,-0.49,0.09,0.04,0,0,0,-0.95,0,0.053414,2.0827e-05
38598,2.4452e+07,1,0,0,0,-0.49,0.09,0.04,0,0,0,-0.95,0,0.053435,2.0827e-05
38646,2.4462e+07,1,0,0,0,-0.49,0.09,0.04,0,0,0,-0.95,0,0.053455,2.0827e-05
38694,2.4472e+07,1,0,0,0,-0.49,0.09,0.04,0,0,0,-0.95,0,0.053475,2.0827e-05
38739,2.4483e+07,1,0,0,0,-0.49,0.09,0.04,0,0,0,-0.95,0,0.053496,2.0827e-05
38783,2.4493e+07,1,0,0,0,-0.49,0.09,0.04,0,0,0,-0.95,0,0.053516,2.0827e-05
38829,2.4503e+07,1,0,0,0,-0.49,0.09,0.04,0,0,0,-0.95,0,0.053537,2.0827e-05
38873,2.4513e+07,1,0,0,0,-0.49,0.09,0.04,0,0,0,-0.95,0,0.053557,2.0827e-05
