LineNo,TimeUS,C,NI,FIX,FIY,AFI,HAGL,offset,RI,rng,Herr,eAng,eVel,ePos
198,1.5036e+07,0,0,0,0,0,0.05,0.04,0,0,0.5,0.0005802,0.0088968,1.0502
301,1.507e+07,0,0,0,0,0,0.05,0.05,0,0,0.5,0.00040418,0.0036647,0.88998
643,1.5132e+07,0,0,0,0,0,0.05,0.05,0,0,0.5,0.00028505,0.00097907,0.75251
756,1.5148e+07,0,0,0,0,0,0.05,0.05,0,0,0.5,0.00026591,0.001271,0.70993
869,1.5164e+07,0,0,0,0,0,0.05,0.05,0,0,0.5,0.00024153,0.002084,0.6689
982,1.5181e+07,0,0,0,0,0,0.05,0.05,0,0,0.5,0.00020315,0.0029858,0.62968
1213,1.5259e+07,0,0,0,0,0,0.04,0.05,0,0,0.5,0.00011887,0.0088232,0.51383
1597,1.5414e+07,0,0,0,0,0,0.05,0.05,0,0,0.5,0.00064254,0.013157,0.30915
1675,1.5425e+07,0,0,0,0,0,0.05,0.05,0,0,0.5,0.00063651,0.013584,0.28536
1717,1.5435e+07,0,0,0,0,0,0.06,0.05,0,0,0.5,0.00063694,0.013958,0.26319
1757,1.5445e+07,0,0,0,0,0,0.06,0.05,0,0,0.5,0.00061907,0.014299,0.24187
1798,1.5458e+07,0,0,0,0,0,0.06,0.05,0,0,0.5,0.0013805,0.016916,0.21662
1841,1.5472e+07,0,0,0,0,0,0.07,0.05,0,0,0.5,0.0013817,0.017063,0.19761
1883,1.5481e+07,0,0,0,0,0,0.07,0.05,0,0,0.5,0.0013683,0.017201,0.17987
1928,1.5491e+07,0,0,0,0,0,0.07,0.05,0,0,0.5,0.0013683,0.017201,0.17987
1968,1.5501e+07,0,0,0,0,0,0.08,0.05,0,0,0.5,0.0013545,0.017329,0.16306
2009,1.5511e+07,0,0,0,0,0,0.08,0.05,0,0,0.5,0.0013368,0.017445,0.14705
2050,1.5521e+07,0,0,0,0,0,0.09,0.05,0,0,0.5,0.0013152,0.017547,0.13193
2096,1.5537e+07,0,0,0,0,0,0.09,0.05,0,0,0.5,0.001496,0.022194,0.10748
2140,1.5547e+07,0,0,0,0,0,0.09,0.05,0,0,0.5,0.0014677,0.022028,0.094466
2180,1.5557e+07,0,0,0,0,0,0.1,0.05,0,0,0.5,0.0014406,0.02186,0.082229
2221,1.5567e+07,0,0,0,0,0,0.1,0.05,0,0,0.5,0.0014406,0.02186,0.082229
2262,1.5577e+07,0,0,0,0,0,0.1,0.05,0,0,0.5,0.0013874,0.021691,0.070698
2306,1.5587e+07,0,0,0,0,0,0.11,0.05,0,0,0.5,0.0013014,0.02153,0.059695
2348,1.5597e+07,0,0,0,0,0,0.12,0.05,0,0,0.5,0.0012003,0.021368,0.049246
2389,1.5607e+07,0,0,0,0,0,0.12,0.05,0,0,0.5,0.0011211,0.021206,0.03946
2433,1.5617e+07,0,0,0,0,0,0.12,0.05,0,0,0.5,0.0011211,0.021206,0.03946
2473,1.5627e+07,0,0,0,0,0,0.13,0.05,0,0,0.5,0.0010406,0.021045,0.030198
2511,1.5638e+07,0,0,0,0,0,0.12,0.05,0,0,0.5,0.00081863,0.025932,0.010336
2554,1.5648e+07,0,0,0,0,0,0.13,0.05,0,0,0.5,0.00074514,0.0255,0.0036832
2594,1.5658e+07,0,0,0,0,0,0.13,0.05,0,0,0.5,0.00065306,0.025084,0.0058055
2635,1.5668e+07,0,0,0,0,0,0.13,0.05,0,0,0.5,0.00065306,0.025084,0.0058055
2675,1.5678e+07,0,0,0,0,0,0.14,0.05,0,0,0.5,0.00054435,0.024685,0.012267
2720,1.5688e+07,0,0,0,0,0,0.14,0.05,0,0,0.5,0.0004607,0.0243,0.018644
2761,1.5698e+07,0,0,0,0,0,0.15,0.05,0,0,0.5,0.00038234,0.023927,0.024694
2802,1.5708e+07,0,0,0,0,0,0.15,0.05,0,0,0.5,0.00030783,0.023568,0.030431
2843,1.5718e+07,0,0,0,0,0,0.15,0.05,0,0,0.5,0.00030783,0.023568,0.030431
2883,1.5728e+07,0,0,0,0,0,0.16,0.05,0,0,0.5,0.00023905,0.02322,0.035836
2925,1.5738e+07,0,0,0,0,0,0.17,0.05,0,0,0.5,0.0010211,0.023181,0.041625
2967,1.5748e+07,0,0,0,0,0,0.17,0.05,0,0,0.5,0.00098294,0.02283,0.046355
3006,1.5758e+07,0,0,0,0,0,0.18,0.05,0,0,0.5,0.00093943,0.02249,0.05082
3048,1.5768e+07,0,0,0,0,0,0.18,0.05,0,0,0.5,0.00089414,0.022158,0.055065
3088,1.5778e+07,0,0,0,0,0,0.18,0.05,0,0,0.5,0.00089414,0.022158,0.055065
3134,1.5788e+07,0,0,0,0,0,0.19,0.05,0,0,0.5,0.00086346,0.021835,0.059003
3176,1.5798e+07,0,0,0,0,0,0.19,0.05,0,0,0.5,0.00083778,0.021522,0.062673
3217,1.5808e+07,0,0,0,0,0,0.2,0.05,0,0,0.5,0.00081738,0.02122,0.066133
3258,1.5819e+07,0,0,0,0,0,0.21,0.05,0,0,0.5,0.00080103,0.020926,0.069358
3300,1.5832e+07,0,0,0,0,0,0.2,0.05,0,0,0.5,0.0008057,0.025205,0.083001
3337,1.5842e+07,0,0,0,0,0,0.21,0.05,0,0,0.5,0.00074313,0.024693,0.085294
3379,1.5852e+07,0,0,0,0,0,0.21,0.05,0,0,0.5,0.00069653,0.024201,0.087391
3420,1.5862e+07,0,0,0,0,0,0.21,0.05,0,0,0.5,0.00069653,0.024201,0.087391
3460,1.5872e+07,0,0,0,0,0,0.22,0.05,0,0,0.5,0.00063885,0.023729,0.089389
3501,1.5882e+07,0,0,0,0,0,0.22,0.05,0,0,0.5,0.00058301,0.023275,0.091227
3545,1.5892e+07,0,0,0,0,0,0.23,0.05,0,0,0.5,0.00052903,0.022838,0.092929
3586,1.5902e+07,0,0,0,0,0,0.23,0.05,0,0,0.5,0.00047668,0.022418,0.094524
3628,1.5912e+07,0,0,0,0,0,0.23,0.05,0,0,0.5,0.00047668,0.022418,0.094524
3670,1.5922e+07,0,0,0,0,0,0.24,0.05,0,0,0.5,0.00042616,0.022013,0.09598
3708,1.5932e+07,0,0,0,0,0,0.23,0.05,0,0,0.5,0.00038609,0.025445,0.10628
3745,1.5942e+07,0,0,0,0,0,0.24,0.05,0,0,0.5,0.001965,0.024871,0.1071
3787,1.5953e+07,0,0,0,0,0,0.25,0.05,0,0,0.5,0.0019196,0.024322,0.10785
3828,1.5963e+07,0,0,0,0,0,0.25,0.05,0,0,0.5,0.0019196,0.024322,0.10785
3868,1.5973e+07,0,0,0,0,0,0.25,0.05,0,0,0.5,0.0018787,0.023794,0.10853
3909,1.5983e+07,0,0,0,0,0,0.26,0.05,0,0,0.5,0.0018412,0.023288,0.10911
3953,1.5993e+07,0,0,0,0,0,0.26,0.05,0,0,0.5,0.0018073,0.022801,0.10962
3994,1.6003e+07,0,0,0,0,0,0.27,0.05,0,0,0.5,0.0017772,0.022335,0.11009
4035,1.6013e+07,0,0,0,0,0,0.27,0.05,0,0,0.5,0.0017772,0.022335,0.11009
4078,1.6023e+07,0,0,0,0,0,0.27,0.05,0,0,0.5,0.0017503,0.021885,0.11047
4119,1.6033e+07,0,0,0,0,0,0.28,0.05,0,0,0.5,0.0017268,0.021454,0.11082
4156,1.6043e+07,0,0,0,0,0,0.29,0.05,0,0,0.5,0.0017479,0.021258,0.11171
4198,1.6053e+07,0,0,0,0,0,0.29,0.05,0,0,0.5,0.0016532,0.020838,0.11186
4242,1.6066e+07,0,0,0,0,0,0.3,0.05,0,0,0.5,0.0015351,0.020434,0.11199
4284,1.6076e+07,0,0,0,0,0,0.3,0.05,0,0,0.5,0.0014197,0.020043,0.1121
4324,1.6086e+07,0,0,0,0,0,0.3,0.05,0,0,0.5,0.0014197,0.020043,0.1121
4369,1.6096e+07,0,0,0,0,0,0.31,0.05,0,0,0.5,0.0013077,0.019666,0.11212
4410,1.6106e+07,0,0,0,0,0,0.31,0.05,0,0,0.5,0.0011966,0.019303,0.11212
4450,1.6116e+07,0,0,0,0,0,0.32,0.05,0,0,0.5,0.0010863,0.018954,0.11207
4496,1.6131e+07,0,0,0,0,0,0.33,0.05,0,0,0.5,0.00097888,0.017026,0.10814
4539,1.6144e+07,0,0,0,0,0,0.33,0.05,0,0,0.5,0.0008986,0.016782,0.1082
4579,1.6154e+07,0,0,0,0,0,0.34,0.05,0,0,0.5,0.00078787,0.016545,0.10824
4620,1.6164e+07,0,0,0,0,0,0.34,0.05,0,0,0.5,0.00068518,0.016317,0.10822
4662,1.6174e+07,0,0,0,0,0,0.34,0.05,0,0,0.5,0.00068518,0.016317,0.10822
4702,1.6184e+07,0,0,0,0,0,0.35,0.05,0,0,0.5,0.00060893,0.016097,0.10815
4747,1.6194e+07,0,0,0,0,0,0.35,0.05,0,0,0.5,0.00051789,0.015884,0.10806
4787,1.6204e+07,0,0,0,0,0,0.36,0.05,0,0,0.5,0.00043496,0.015678,0.10796
4829,1.6214e+07,0,0,0,0,0,0.37,0.05,0,0,0.5,0.00035906,0.015479,0.1078
4869,1.6224e+07,0,0,0,0,0,0.37,0.05,0,0,0.5,0.00035906,0.015479,0.1078
4910,1.6234e+07,0,0,0,0,0,0.37,0.05,0,0,0.5,0.00029012,0.015286,0.10765
4948,1.6244e+07,0,0,0,0,0,0.37,0.05,0,0,0.5,7.4818e-05,0.017658,0.11376
4985,1.6254e+07,0,0,0,0,0,0.38,0.05,0,0,0.5,0.00013205,0.017355,0.11324
5027,1.6264e+07,0,0,0,0,0,0.38,0.05,0,0,0.5,0.00013205,0.017355,0.11324
5069,1.6274e+07,0,0,0,0,0,0.38,0.05,0,0,0.5,0.00018221,0.017065,0.11276
5109,1.6284e+07,0,0,0,0,0,0.39,0.05,0,0,0.5,0.0002261,0.016781,0.11223
5154,1.6294e+07,0,0,0,0,0,0.39,0.05,0,0,0.5,0.00026411,0.016507,0.11171
5195,1.6304e+07,0,0,0,0,0,0.4,0.05,0,0,0.5,0.00029637,0.016242,0.11116
5236,1.6314e+07,0,0,0,0,0,0.41,0.05,0,0,0.5,0.00032368,0.015986,0.11062
5276,1.6324e+07,0,0,0,0,0,0.41,0.05,0,0,0.5,0.00032368,0.015986,0.11062
5319,1.6337e+07,0,0,0,0,0,0.41,0.05,0,0,0.5,0.00034638,0.015739,0.11008
5356,1.6346e+07,0,0,0,0,0,0.4,0.05,0,0,0.5,0.0002414,0.020401,0.12175
5401,1.6359e+07,0,0,0,0,0,0.41,0.05,0,0,0.5,0.00023548,0.019928,0.12068
5442,1.6369e+07,0,0,0,0,0,0.42,0.05,0,0,0.5,0.0002269,0.01947,0.11957
5482,1.6379e+07,0,0,0,0,0,0.42,0.05,0,0,0.5,0.00021769,0.01903,0.11844
5524,1.6389e+07,0,0,0,0,0,0.42,0.05,0,0,0.5,0.00021769,0.01903,0.11844
5568,1.6399e+07,0,0,0,0,0,0.43,0.05,0,0,0.5,0.00020332,0.018611,0.11739
5610,1.6409e+07,0,0,0,0,0,0.43,0.05,0,0,0.5,0.00018627,0.018205,0.11634
5651,1.6419e+07,0,0,0,0,0,0.44,0.05,0,0,0.5,0.00016728,0.017816,0.11532
5691,1.6429e+07,0,0,0,0,0,0.44,0.05,0,0,0.5,0.00014676,0.017441,0.11429
5726,1.6439e+07,0,0,0,0,0,0.43,0.05,0,0,0.5,0.00069593,0.025112,0.13365
5767,1.645e+07,0,0,0,0,0,0.44,0.05,0,0,0.5,0.0007168,0.024361,0.13179
5808,1.646e+07,0,0,0,0,0,0.44,0.05,0,0,0.5,0.0007344,0.023636,0.1299
5848,1.647e+07,0,0,0,0,0,0.44,0.05,0,0,0.5,0.0007344,0.023636,0.1299
5890,1.648e+07,0,0,0,0,0,0.45,0.05,0,0,0.5,0.0007516,0.022943,0.12809
5932,1.649e+07,0,0,0,0,0,0.45,0.05,0,0,0.5,0.00076746,0.022279,0.1263
5976,1.65e+07,0,0,0,0,0,0.46,0.05,0,0,0.5,0.00077985,0.021641,0.12452
6017,1.651e+07,0,0,0,0,0,0.46,0.05,0,0,0.5,0.00079392,0.021036,0.12286
6059,1.652e+07,0,0,0,0,0,0.46,0.05,0,0,0.5,0.00079392,0.021036,0.12286
6103,1.653e+07,0,0,0,0,0,0.47,0.05,0,0,0.5,0.00080677,0.020455,0.12123
6140,1.6541e+07,0,0,0,0,0,0.46,0.05,0,0,0.5,0.00024823,0.023851,0.12977
6180,1.6551e+07,0,0,0,0,0,0.47,0.05,0,0,0.5,0.00020257,0.023111,0.12776
6220,1.6561e+07,0,0,0,0,0,0.47,0.05,0,0,0.5,0.00016445,0.022404,0.12578
6261,1.6571e+07,0,0,0,0,0,0.47,0.05,0,0,0.5,0.00016445,0.022404,0.12578
6302,1.6581e+07,0,0,0,0,0,0.48,0.05,0,0,0.5,0.00011416,0.021729,0.12389
6343,1.6591e+07,0,0,0,0,0,0.48,0.05,0,0,0.5,6.3254e-05,0.021082,0.12209
6389,1.6602e+07,0,0,0,0,0,0.49,0.05,0,0,0.5,1.797e-05,0.020463,0.1203
6433,1.6611e+07,0,0,0,0,0,0.49,0.05,0,0,0.5,1.797e-05,0.020463,0.1203
6474,1.6622e+07,0,0,0,0,0,0.49,0.05,0,0,0.5,4.6978e-05,0.019874,0.1186
6515,1.6632e+07,0,0,0,0,0,0.5,0.05,0,0,0.5,9.8771e-05,0.019308,0.11695
6553,1.6644e+07,0,0,0,0,0,0.49,0.05,0,0,0.5,0.00045784,0.025648,0.13327
6594,1.6654e+07,0,0,0,0,0,0.49,0.05,0,0,0.5,0.00047412,0.024782,0.13085
6634,1.6664e+07,0,0,0,0,0,0.5,0.05,0,0,0.5,0.00048739,0.023953,0.12854
6676,1.6674e+07,0,0,0,0,0,0.5,0.05,0,0,0.5,0.00049818,0.023161,0.12631
6716,1.6684e+07,0,0,0,0,0,0.5,0.05,0,0,0.5,0.00049818,0.023161,0.12631
6761,1.6694e+07,0,0,0,0,0,0.51,0.05,0,0,0.5,0.00050566,0.022401,0.12412
6803,1.6704e+07,0,0,0,0,0,0.51,0.05,0,0,0.5,0.00051005,0.021675,0.12203
6844,1.6714e+07,0,0,0,0,0,0.52,0.05,0,0,0.5,0.00051166,0.020985,0.12006
6885,1.6724e+07,0,0,0,0,0,0.52,0.05,0,0,0.5,0.00051166,0.020985,0.12006
6927,1.6734e+07,0,0,0,0,0,0.53,0.05,0,0,0.5,0.00050953,0.020317,0.11807
6962,1.6744e+07,0,0,0,0,0,0.5,0.05,0,0,0.5,0.0020131,0.030056,0.14349
7002,1.6754e+07,0,0,0,0,0,0.51,0.05,0,0,0.5,0.0019888,0.028931,0.14039
7043,1.6764e+07,0,0,0,0,0,0.51,0.05,0,0,0.5,0.0019888,0.028931,0.14039
7084,1.6774e+07,0,0,0,0,0,0.51,0.05,0,0,0.5,0.0019632,0.02785,0.13737
7125,1.6784e+07,0,0,0,0,0,0.52,0.05,0,0,0.5,0.001937,0.026819,0.1345
7172,1.6794e+07,0,0,0,0,0,0.52,0.05,0,0,0.5,0.0019098,0.025834,0.13169
7213,1.6804e+07,0,0,0,0,0,0.52,0.05,0,0,0.5,0.0019098,0.025834,0.13169
7255,1.6814e+07,0,0,0,0,0,0.53,0.05,0,0,0.5,0.0018825,0.024893,0.12902
7296,1.6824e+07,0,0,0,0,0,0.54,0.05,0,0,0.5,0.0018491,0.023996,0.1265
7336,1.6834e+07,0,0,0,0,0,0.54,0.05,0,0,0.5,0.001821,0.023133,0.12398
7377,1.6844e+07,0,0,0,0,0,0.54,0.05,0,0,0.5,0.001821,0.023133,0.12398
7414,1.6855e+07,0,0,0,0,0,0.52,0.05,0,0,0.5,0.0017937,0.03274,0.14951
7455,1.6865e+07,0,0,0,0,0,0.53,0.05,0,0,0.5,0.0014516,0.031421,0.146
7497,1.6875e+07,0,0,0,0,0,0.53,0.05,0,0,0.5,0.0013331,0.030152,0.14251
7537,1.6885e+07,0,0,0,0,0,0.54,0.05,0,0,0.5,0.0012162,0.028938,0.1391
7581,1.6895e+07,0,0,0,0,0,0.54,0.05,0,0,0.5,0.0012162,0.028938,0.1391
7623,1.6905e+07,0,0,0,0,0,0.54,0.05,0,0,0.5,0.0010792,0.027786,0.13593
7665,1.6915e+07,0,0,0,0,0,0.55,0.05,0,0,0.5,0.00096836,0.026677,0.1328
7706,1.6925e+07,0,0,0,0,0,0.55,0.05,0,0,0.5,0.00085809,0.025617,0.12974
7748,1.6938e+07,0,0,0,0,0,0.53,0.05,0,0,0.5,0.00058483,0.035021,0.15519
7789,1.6948e+07,0,0,0,0,0,0.54,0.05,0,0,0.5,0.00047858,0.033542,0.15107
7826,1.6958e+07,0,0,0,0,0,0.54,0.05,0,0,0.5,0.00047858,0.033542,0.15107
7868,1.6968e+07,0,0,0,0,0,0.54,0.05,0,0,0.5,0.00037286,0.032106,0.1471
7908,1.6978e+07,0,0,0,0,0,0.55,0.05,0,0,0.5,0.00028607,0.030735,0.14324
7949,1.6988e+07,0,0,0,0,0,0.55,0.05,0,0,0.5,0.00020708,0.029427,0.13957
7995,1.6998e+07,0,0,0,0,0,0.56,0.05,0,0,0.5,0.00013514,0.028179,0.13603
8037,1.7008e+07,0,0,0,0,0,0.56,0.05,0,0,0.5,0.00013514,0.028179,0.13603
8080,1.7019e+07,0,0,0,0,0,0.56,0.05,0,0,0.5,7.0652e-05,0.026986,0.13259
8120,1.7029e+07,0,0,0,0,0,0.57,0.05,0,0,0.5,1.8592e-05,0.025846,0.12927
8158,1.7039e+07,0,0,0,0,0,0.54,0.05,0,0,0.5,0.0010424,0.03518,0.15481
8195,1.7049e+07,0,0,0,0,0,0.55,0.05,0,0,0.5,0.0010811,0.033609,0.15043
8236,1.7059e+07,0,0,0,0,0,0.55,0.05,0,0,0.5,0.0011128,0.032108,0.14617
8276,1.7069e+07,0,0,0,0,0,0.55,0.05,0,0,0.5,0.0011128,0.032108,0.14617
8318,1.7079e+07,0,0,0,0,0,0.56,0.05,0,0,0.5,0.0011385,0.030679,0.14212
8360,1.7089e+07,0,0,0,0,0,0.56,0.05,0,0,0.5,0.0011586,0.029317,0.13819
8404,1.7099e+07,0,0,0,0,0,0.57,0.05,0,0,0.5,0.0011738,0.028015,0.13443
8445,1.7109e+07,0,0,0,0,0,0.57,0.05,0,0,0.5,0.0011738,0.028015,0.13443
8487,1.7119e+07,0,0,0,0,0,0.57,0.05,0,0,0.5,0.0011846,0.02677,0.13082
8528,1.7129e+07,0,0,0,0,0,0.58,0.05,0,0,0.5,0.0011911,0.025582,0.12731
8568,1.7139e+07,0,0,0,0,0,0.56,0.05,0,0,0.5,0.00070383,0.032413,0.14619
8608,1.7151e+07,0,0,0,0,0,0.56,0.05,0,0,0.5,0.00063789,0.030919,0.14189
8649,1.7161e+07,0,0,0,0,0,0.57,0.05,0,0,0.5,0.00058307,0.029491,0.13772
8689,1.7171e+07,0,0,0,0,0,0.57,0.05,0,0,0.5,0.00058307,0.029491,0.13772
8730,1.7181e+07,0,0,0,0,0,0.57,0.05,0,0,0.5,0.00051107,0.028133,0.13374
8771,1.7191e+07,0,0,0,0,0,0.58,0.05,0,0,0.5,0.00042359,0.026839,0.13002
8815,1.7201e+07,0,0,0,0,0,0.58,0.05,0,0,0.5,0.00035108,0.025601,0.12637
8856,1.7211e+07,0,0,0,0,0,0.59,0.05,0,0,0.5,0.00027708,0.024417,0.12283
8896,1.7222e+07,0,0,0,0,0,0.59,0.05,0,0,0.5,0.00020255,0.023288,0.11947
8938,1.7232e+07,0,0,0,0,0,0.59,0.05,0,0,0.5,0.00020255,0.023288,0.11947
8975,1.7242e+07,0,0,0,0,0,0.59,0.05,0,0,0.5,4.9361e-05,0.024213,0.12186
9013,1.7252e+07,0,0,0,0,0,0.6,0.05,0,0,0.5,9.1155e-05,0.023074,0.11848
9054,1.7262e+07,0,0,0,0,0,0.6,0.05,0,0,0.5,0.00013033,0.021984,0.11518
9094,1.7272e+07,0,0,0,0,0,0.6,0.05,0,0,0.5,0.00013033,0.021984,0.11518
9135,1.7282e+07,0,0,0,0,0,0.61,0.05,0,0,0.5,0.00016565,0.020949,0.11203
9175,1.7292e+07,0,0,0,0,0,0.61,0.05,0,0,0.5,0.00019676,0.019956,0.10896
9220,1.7302e+07,0,0,0,0,0,0.62,0.05,0,0,0.5,0.00022337,0.019009,0.10603
9255,1.7332e+07,0,0,0,0,0,0.63,0.05,0,0,0.5,0.00025954,0.017243,0.1004
9298,1.7342e+07,0,0,0,0,0,0.63,0.05,0,0,0.5,0.00053092,0.016423,0.097746
9335,1.7352e+07,0,0,0,0,0,0.61,0.05,0,0,0.5,0.00052902,0.026042,0.12507
9373,1.7362e+07,0,0,0,0,0,0.61,0.05,0,0,0.5,0.00052902,0.026042,0.12507
9414,1.7372e+07,0,0,0,0,0,0.61,0.05,0,0,0.5,0.00052425,0.024783,0.12121
9454,1.7382e+07,0,0,0,0,0,0.62,0.05,0,0,0.5,0.00051548,0.023583,0.1176
9496,1.7392e+07,0,0,0,0,0,0.62,0.05,0,0,0.5,0.00050579,0.02243,0.11408
9540,1.7402e+07,0,0,0,0,0,0.63,0.05,0,0,0.5,0.00049412,0.02133,0.11065
9581,1.7412e+07,0,0,0,0,0,0.63,0.05,0,0,0.5,0.00049412,0.02133,0.11065
9621,1.7422e+07,0,0,0,0,0,0.63,0.05,0,0,0.5,0.00048095,0.020282,0.10737
9664,1.7432e+07,0,0,0,0,0,0.63,0.05,0,0,0.5,0.00046637,0.019281,0.10421
9705,1.7442e+07,0,0,0,0,0,0.63,0.05,0,0,0.5,0.00046637,0.019281,0.10421
9742,1.7452e+07,0,0,0,0,0,0.61,0.05,0,0,0.5,0.00081376,0.028625,0.1311
9784,1.7465e+07,0,0,0,0,0,0.61,0.05,0,0,0.5,0.00078291,0.0272,0.12679
9825,1.7475e+07,0,0,0,0,0,0.62,0.05,0,0,0.5,0.00074568,0.025828,0.12274
9865,1.7485e+07,0,0,0,0,0,0.62,0.05,0,0,0.5,0.00071562,0.024514,0.11878
9906,1.7495e+07,0,0,0,0,0,0.63,0.05,0,0,0.5,0.00068549,0.023259,0.11495
9950,1.7505e+07,0,0,0,0,0,0.63,0.05,0,0,0.5,0.00068549,0.023259,0.11495
9994,1.7515e+07,0,0,0,0,0,0.63,0.05,0,0,0.5,0.00065631,0.022066,0.1113
10034,1.7525e+07,0,0,0,0,0,0.64,0.05,0,0,0.5,0.00062762,0.020921,0.10772
10075,1.7535e+07,0,0,0,0,0,0.64,0.05,0,0,0.5,0.00059963,0.019834,0.1043
10114,1.7545e+07,0,0,0,0,0,0.64,0.05,0,0,0.5,0.00059963,0.019834,0.1043
10153,1.7555e+07,0,0,0,0,0,0.62,0.05,0,0,0.5,2.8926e-05,0.029059,0.13138
10194,1.7565e+07,0,0,0,0,0,0.62,0.05,0,0,0.5,3.3758e-05,0.027535,0.1268
10234,1.7575e+07,0,0,0,0,0,0.63,0.05,0,0,0.5,7.651e-05,0.026085,0.12236
10276,1.7585e+07,0,0,0,0,0,0.63,0.05,0,0,0.5,0.00012114,0.024705,0.11819
10316,1.7595e+07,0,0,0,0,0,0.64,0.05,0,0,0.5,0.00016465,0.023388,0.11417
10362,1.7605e+07,0,0,0,0,0,0.64,0.05,0,0,0.5,0.00016465,0.023388,0.11417
10403,1.7615e+07,0,0,0,0,0,0.64,0.05,0,0,0.5,0.00021502,0.022136,0.1104
10443,1.7625e+07,0,0,0,0,0,0.65,0.05,0,0,0.5,0.00025489,0.020935,0.10663
10485,1.7635e+07,0,0,0,0,0,0.65,0.05,0,0,0.5,0.00029298,0.019795,0.10306
10522,1.7648e+07,0,0,0,0,0,0.62,0.05,0,0,0.5,0.00011413,0.028901,0.13012
10564,1.7658e+07,0,0,0,0,0,0.63,0.05,0,0,0.5,0.00011514,0.027344,0.12537
10606,1.7668e+07,0,0,0,0,0,0.63,0.05,0,0,0.5,0.00011329,0.025861,0.12089
10647,1.7678e+07,0,0,0,0,0,0.63,0.05,0,0,0.5,0.00011329,0.025861,0.12089
10688,1.7688e+07,0,0,0,0,0,0.64,0.05,0,0,0.5,0.00010834,0.024449,0.11648
10731,1.7698e+07,0,0,0,0,0,0.64,0.05,0,0,0.5,0.00010051,0.023097,0.11224
10774,1.7709e+07,0,0,0,0,0,0.65,0.05,0,0,0.5,8.9984e-05,0.021809,0.10831
10814,1.7719e+07,0,0,0,0,0,0.65,0.05,0,0,0.5,8.9984e-05,0.021809,0.10831
10855,1.7729e+07,0,0,0,0,0,0.65,0.05,0,0,0.5,7.881e-05,0.020578,0.10444
10898,1.7739e+07,0,0,0,0,0,0.65,0.05,0,0,0.5,6.1989e-05,0.019409,0.10078
10938,1.7752e+07,0,0,0,0,0,0.63,0.05,0,0,0.5,0.00013497,0.028387,0.12761
10981,1.7762e+07,0,0,0,0,0,0.63,0.05,0,0,0.5,0.00012745,0.026811,0.12276
11021,1.7772e+07,0,0,0,0,0,0.63,0.05,0,0,0.5,0.00012745,0.026811,0.12276
11062,1.7782e+07,0,0,0,0,0,0.64,0.05,0,0,0.5,0.0001198,0.025308,0.11819
11102,1.7792e+07,0,0,0,0,0,0.64,0.05,0,0,0.5,0.00011112,0.023871,0.11378
11150,1.7802e+07,0,0,0,0,0,0.65,0.05,0,0,0.5,0.00010477,0.022501,0.10948
11191,1.7812e+07,0,0,0,0,0,0.65,0.05,0,0,0.5,9.8931e-05,0.021195,0.10546
11231,1.7822e+07,0,0,0,0,0,0.65,0.05,0,0,0.5,9.3745e-05,0.01995,0.10148
11273,1.7832e+07,0,0,0,0,0,0.65,0.05,0,0,0.5,9.3745e-05,0.01995,0.10148
11313,1.7842e+07,0,0,0,0,0,0.66,0.05,0,0,0.5,8.9422e-05,0.018764,0.09769
11351,1.7852e+07,0,0,0,0,0,0.63,0.05,0,0,0.5,2.5794e-05,0.027651,0.12468
11392,1.7862e+07,0,0,0,0,0,0.64,0.05,0,0,0.5,2.6764e-05,0.026064,0.11975
11436,1.7875e+07,0,0,0,0,0,0.64,0.05,0,0,0.5,3.0783e-05,0.024553,0.11514
11477,1.7885e+07,0,0,0,0,0,0.64,0.05,0,0,0.5,3.0783e-05,0.024553,0.11514
11519,1.7895e+07,0,0,0,0,0,0.64,0.05,0,0,0.5,3.4219e-05,0.0231,0.11055
11564,1.7905e+07,0,0,0,0,0,0.65,0.05,0,0,0.5,3.9227e-05,0.021719,0.10616
11605,1.7915e+07,0,0,0,0,0,0.65,0.05,0,0,0.5,4.4551e-05,0.020402,0.10203
11645,1.7925e+07,0,0,0,0,0,0.66,0.05,0,0,0.5,4.9955e-05,0.019151,0.097995
11686,1.7935e+07,0,0,0,0,0,0.66,0.05,0,0,0.5,4.9955e-05,0.019151,0.097995
11728,1.7945e+07,0,0,0,0,0,0.66,0.05,0,0,0.5,5.5225e-05,0.017957,0.094113
11766,1.7955e+07,0,0,0,0,0,0.64,0.05,0,0,0.5,0.00016403,0.024751,0.11499
11807,1.7965e+07,0,0,0,0,0,0.64,0.05,0,0,0.5,0.00016437,0.023258,0.11027
11850,1.7976e+07,0,0,0,0,0,0.65,0.05,0,0,0.5,0.00016571,0.021837,0.10585
11891,1.7985e+07,0,0,0,0,0,0.65,0.05,0,0,0.5,0.00016772,0.020482,0.10156
11931,1.7996e+07,0,0,0,0,0,0.65,0.05,0,0,0.5,0.00016772,0.020482,0.10156
11978,1.8006e+07,0,0,0,0,0,0.66,0.05,0,0,0.5,0.00016997,0.019194,0.097405
12018,1.8016e+07,0,0,0,0,0,0.66,0.05,0,0,0.5,0.00017272,0.017964,0.093414
12060,1.8026e+07,0,0,0,0,0,0.66,0.05,0,0,0.5,0.00017581,0.016795,0.089657
12104,1.8041e+07,0,0,0,0,0,0.64,0.05,0,0,0.5,0.0001808,0.025451,0.1165
12145,1.8051e+07,0,0,0,0,0,0.64,0.05,0,0,0.5,7.6995e-05,0.023911,0.11161
12185,1.8061e+07,0,0,0,0,0,0.65,0.05,0,0,0.5,8.5537e-05,0.022426,0.10688
12228,1.8071e+07,0,0,0,0,0,0.65,0.05,0,0,0.5,8.5537e-05,0.022426,0.10688
12268,1.8081e+07,0,0,0,0,0,0.65,0.05,0,0,0.5,9.2699e-05,0.021009,0.10227
12310,1.8091e+07,0,0,0,0,0,0.65,0.05,0,0,0.5,0.00010267,0.019662,0.09794
12353,1.8101e+07,0,0,0,0,0,0.66,0.05,0,0,0.5,0.00011297,0.018379,0.093764
12395,1.8111e+07,0,0,0,0,0,0.66,0.05,0,0,0.5,0.00012346,0.017156,0.089756
12441,1.8123e+07,0,0,0,0,0,0.66,0.05,0,0,0.5,0.00013441,0.015992,0.085959
12481,1.8133e+07,0,0,0,0,0,0.66,0.05,0,0,0.5,0.00013441,0.015992,0.085959
12526,1.8146e+07,0,0,0,0,0,0.67,0.05,0,0,0.5,0.00014553,0.014882,0.082256
12563,1.8156e+07,0,0,0,0,0,0.64,0.05,0,0,0.5,0.00061689,0.023534,0.10952
12604,1.8167e+07,0,0,0,0,0,0.65,0.05,0,0,0.5,0.00061284,0.022033,0.10471
12645,1.8177e+07,0,0,0,0,0,0.65,0.05,0,0,0.5,0.00060815,0.020606,0.10008
12687,1.8187e+07,0,0,0,0,0,0.65,0.05,0,0,0.5,0.00060324,0.019246,0.095725
12728,1.8197e+07,0,0,0,0,0,0.66,0.05,0,0,0.5,0.00059751,0.01795,0.091423
12772,1.8207e+07,0,0,0,0,0,0.66,0.05,0,0,0.5,0.00059751,0.01795,0.091423
12813,1.8217e+07,0,0,0,0,0,0.66,0.05,0,0,0.5,0.00059114,0.016716,0.087367
12853,1.8227e+07,0,0,0,0,0,0.66,0.05,0,0,0.5,0.00058406,0.015539,0.083502
12895,1.8237e+07,0,0,0,0,0,0.67,0.05,0,0,0.5,0.00057642,0.014418,0.079746
12933,1.8247e+07,0,0,0,0,0,0.65,0.05,0,0,0.5,0.00081617,0.020731,0.099732
12970,1.8257e+07,0,0,0,0,0,0.65,0.05,0,0,0.5,0.00078558,0.019339,0.095152
13011,1.8267e+07,0,0,0,0,0,0.65,0.05,0,0,0.5,0.00078558,0.019339,0.095152
13052,1.8277e+07,0,0,0,0,0,0.65,0.05,0,0,0.5,0.00074713,0.018015,0.090828
13094,1.8287e+07,0,0,0,0,0,0.66,0.05,0,0,0.5,0.00070843,0.016751,0.086706
13134,1.8298e+07,0,0,0,0,0,0.66,0.05,0,0,0.5,0.00067058,0.01555,0.082709
13179,1.8307e+07,0,0,0,0,0,0.66,0.05,0,0,0.5,0.00063259,0.014402,0.078869
13219,1.8317e+07,0,0,0,0,0,0.66,0.05,0,0,0.5,0.00063259,0.014402,0.078869
13262,1.8327e+07,0,0,0,0,0,0.67,0.05,0,0,0.5,0.00059551,0.01331,0.075249
13303,1.8338e+07,0,0,0,0,0,0.67,0.05,0,0,0.5,0.00055838,0.012268,0.071716
13341,1.8351e+07,0,0,0,0,0,0.64,0.05,0,0,0.5,0.00051789,0.020776,0.098962
13381,1.8361e+07,0,0,0,0,0,0.65,0.05,0,0,0.5,0.00046484,0.019357,0.094266
13422,1.8371e+07,0,0,0,0,0,0.65,0.05,0,0,0.5,0.00046484,0.019357,0.094266
13464,1.8381e+07,0,0,0,0,0,0.65,0.05,0,0,0.5,0.0004151,0.018004,0.089799
13504,1.8391e+07,0,0,0,0,0,0.65,0.05,0,0,0.5,0.00036814,0.016708,0.085504
13546,1.8401e+07,0,0,0,0,0,0.66,0.05,0,0,0.5,0.00032309,0.015475,0.081395
13590,1.8411e+07,0,0,0,0,0,0.66,0.05,0,0,0.5,0.00028087,0.014302,0.077447
13630,1.8421e+07,0,0,0,0,0,0.67,0.05,0,0,0.5,0.00024068,0.013187,0.073689
13671,1.8431e+07,0,0,0,0,0,0.67,0.05,0,0,0.5,0.00024068,0.013187,0.073689
13712,1.8441e+07,0,0,0,0,0,0.67,0.05,0,0,0.5,0.00020314,0.012122,0.070087
13750,1.8451e+07,0,0,0,0,0,0.66,0.05,0,0,0.5,0.0011588,0.013568,0.074512
13790,1.8461e+07,0,0,0,0,0,0.67,0.05,0,0,0.5,0.0011293,0.012469,0.07082
13828,1.8472e+07,0,0,0,0,0,0.67,0.05,0,0,0.5,0.0011293,0.012469,0.07082
13869,1.8482e+07,0,0,0,0,0,0.67,0.05,0,0,0.5,0.0010972,0.011416,0.067321
13909,1.8492e+07,0,0,0,0,0,0.68,0.05,0,0,0.5,0.0010738,0.010409,0.063906
13953,1.8502e+07,0,0,0,0,0,0.68,0.05,0,0,0.5,0.0010578,0.0094525,0.060595
13998,1.8511e+07,0,0,0,0,0,0.68,0.05,0,0,0.5,0.0010398,0.0085417,0.057477
14039,1.8522e+07,0,0,0,0,0,0.68,0.05,0,0,0.5,0.0010398,0.0085417,0.057477
14082,1.8532e+07,0,0,0,0,0,0.69,0.05,0,0,0.5,0.0010245,0.0076766,0.054487
14122,1.8542e+07,0,0,0,0,0,0.69,0.05,0,0,0.5,0.0010115,0.0068517,0.051579
14163,1.8555e+07,0,0,0,0,0,0.66,0.05,0,0,0.5,0.0012852,0.015349,0.079414
14204,1.8564e+07,0,0,0,0,0,0.67,0.05,0,0,0.5,0.0011993,0.014147,0.075381
14245,1.8575e+07,0,0,0,0,0,0.67,0.05,0,0,0.5,0.0011314,0.012997,0.071453
14285,1.8585e+07,0,0,0,0,0,0.67,0.05,0,0,0.5,0.0011314,0.012997,0.071453
14327,1.8595e+07,0,0,0,0,0,0.67,0.05,0,0,0.5,0.0010633,0.011898,0.067718
14371,1.8605e+07,0,0,0,0,0,0.68,0.05,0,0,0.5,0.00099748,0.010855,0.064136
14414,1.8615e+07,0,0,0,0,0,0.68,0.05,0,0,0.5,0.00093442,0.009859,0.060666
14455,1.8625e+07,0,0,0,0,0,0.68,0.05,0,0,0.5,0.00087197,0.008914,0.057408
14495,1.8635e+07,0,0,0,0,0,0.68,0.05,0,0,0.5,0.00087197,0.008914,0.057408
14537,1.8645e+07,0,0,0,0,0,0.68,0.05,0,0,0.5,0.00081028,0.0080117,0.054258
14574,1.8655e+07,0,0,0,0,0,0.66,0.05,0,0,0.5,0.0013995,0.016337,0.081825
14616,1.8666e+07,0,0,0,0,0,0.66,0.05,0,0,0.5,0.0013231,0.015057,0.077527
14657,1.8676e+07,0,0,0,0,0,0.66,0.05,0,0,0.5,0.0012494,0.013832,0.073379
14697,1.8686e+07,0,0,0,0,0,0.66,0.05,0,0,0.5,0.0012494,0.013832,0.073379
14738,1.8696e+07,0,0,0,0,0,0.67,0.05,0,0,0.5,0.0011805,0.012666,0.069408
14782,1.8706e+07,0,0,0,0,0,0.67,0.05,0,0,0.5,0.001116,0.011559,0.065644
14824,1.8716e+07,0,0,0,0,0,0.67,0.05,0,0,0.5,0.0010547,0.010503,0.061988
14865,1.8726e+07,0,0,0,0,0,0.68,0.05,0,0,0.5,0.0009979,0.0094985,0.058551
14908,1.8736e+07,0,0,0,0,0,0.68,0.05,0,0,0.5,0.00094481,0.0085449,0.055219
14950,1.8746e+07,0,0,0,0,0,0.68,0.05,0,0,0.5,0.00094481,0.0085449,0.055219
14984,1.8757e+07,0,0,0,0,0,0.66,0.05,0,0,0.5,0.0015046,0.013939,0.073106
15024,1.8766e+07,0,0,0,0,0,0.67,0.05,0,0,0.5,0.0014016,0.012754,0.069127
15064,1.8776e+07,0,0,0,0,0,0.67,0.05,0,0,0.5,0.0013386,0.011624,0.065215
15104,1.8787e+07,0,0,0,0,0,0.67,0.05,0,0,0.5,0.0012628,0.010549,0.061485
15146,1.8797e+07,0,0,0,0,0,0.67,0.05,0,0,0.5,0.0012628,0.010549,0.061485
15191,1.8807e+07,0,0,0,0,0,0.67,0.05,0,0,0.5,0.0011906,0.0095239,0.057975
15234,1.8817e+07,0,0,0,0,0,0.68,0.05,0,0,0.5,0.0011231,0.0085501,0.054582
15275,1.8827e+07,0,0,0,0,0,0.68,0.05,0,0,0.5,0.0010717,0.0076221,0.051306
15317,1.8837e+07,0,0,0,0,0,0.68,0.05,0,0,0.5,0.0010097,0.0067407,0.04818
15357,1.8847e+07,0,0,0,0,0,0.68,0.05,0,0,0.5,0.0010097,0.0067407,0.04818
15392,1.8857e+07,0,0,0,0,0,0.66,0.05,0,0,0.5,0.00044223,0.014844,0.075589
15433,1.8867e+07,0,0,0,0,0,0.66,0.05,0,0,0.5,0.0003465,0.013598,0.071348
15473,1.8877e+07,0,0,0,0,0,0.66,0.05,0,0,0.5,0.00025464,0.012416,0.067259
15514,1.8887e+07,0,0,0,0,0,0.66,0.05,0,0,0.5,0.0001684,0.011291,0.06337
15556,1.8897e+07,0,0,0,0,0,0.67,0.05,0,0,0.5,8.996e-05,0.010218,0.059673
15599,1.8908e+07,0,0,0,0,0,0.67,0.05,0,0,0.5,8.996e-05,0.010218,0.059673
15641,1.8918e+07,0,0,0,0,0,0.67,0.05,0,0,0.5,3.5098e-05,0.0091985,0.056079
15681,1.8928e+07,0,0,0,0,0,0.67,0.05,0,0,0.5,7.5303e-05,0.0082257,0.052645
15725,1.8938e+07,0,0,0,0,0,0.68,0.05,0,0,0.5,0.00013879,0.0072996,0.049407
15766,1.8951e+07,0,0,0,0,0,0.66,0.05,0,0,0.5,0.00010896,0.013521,0.070507
15807,1.8961e+07,0,0,0,0,0,0.66,0.05,0,0,0.5,8.9098e-05,0.012321,0.066357
15844,1.8971e+07,0,0,0,0,0,0.66,0.05,0,0,0.5,8.9098e-05,0.012321,0.066357
15885,1.8981e+07,0,0,0,0,0,0.66,0.05,0,0,0.5,6.9847e-05,0.011178,0.062344
15926,1.8991e+07,0,0,0,0,0,0.66,0.05,0,0,0.5,5.675e-05,0.010092,0.058555
15968,1.9001e+07,0,0,0,0,0,0.67,0.05,0,0,0.5,4.8258e-05,0.0090561,0.054965
16014,1.9011e+07,0,0,0,0,0,0.67,0.05,0,0,0.5,4.3533e-05,0.0080729,0.051448
16054,1.9021e+07,0,0,0,0,0,0.67,0.05,0,0,0.5,4.3533e-05,0.0080729,0.051448
16095,1.9031e+07,0,0,0,0,0,0.67,0.05,0,0,0.5,4.1793e-05,0.0071359,0.048143
16138,1.9041e+07,0,0,0,0,0,0.67,0.05,0,0,0.5,4.3194e-05,0.0062418,0.044992
16175,1.9054e+07,0,0,0,0,0,0.65,0.05,0,0,0.5,0.00033714,0.012074,0.064923
16216,1.9064e+07,0,0,0,0,0,0.66,0.05,0,0,0.5,0.00034358,0.010929,0.060984
16256,1.9074e+07,0,0,0,0,0,0.66,0.05,0,0,0.5,0.00034841,0.0098441,0.057182
16297,1.9084e+07,0,0,0,0,0,0.66,0.05,0,0,0.5,0.00034841,0.0098441,0.057182
16339,1.9094e+07,0,0,0,0,0,0.66,0.05,0,0,0.5,0.00035204,0.008805,0.053486
16380,1.9104e+07,0,0,0,0,0,0.66,0.05,0,0,0.5,0.00035474,0.0078171,0.05002
16425,1.9114e+07,0,0,0,0,0,0.67,0.05,0,0,0.5,0.00035655,0.0068789,0.046641
16465,1.9124e+07,0,0,0,0,0,0.67,0.05,0,0,0.5,0.00035655,0.0068789,0.046641
16507,1.9134e+07,0,0,0,0,0,0.67,0.05,0,0,0.5,0.00035827,0.0059798,0.043394
16550,1.9144e+07,0,0,0,0,0,0.67,0.05,0,0,0.5,0.00036004,0.0051258,0.040347
16591,1.9159e+07,0,0,0,0,0,0.67,0.05,0,0,0.5,0.00044857,0.0051622,0.039236
16631,1.9169e+07,0,0,0,0,0,0.68,0.05,0,0,0.5,0.00046656,0.0043707,0.036326
16673,1.918e+07,0,0,0,0,0,0.68,0.05,0,0,0.5,0.0004944,0.0036352,0.033587
16714,1.919e+07,0,0,0,0,0,0.68,0.05,0,0,0.5,0.0004944,0.0036352,0.033587
16754,1.92e+07,0,0,0,0,0,0.68,0.05,0,0,0.5,0.00051735,0.002953,0.030829
16798,1.921e+07,0,0,0,0,0,0.68,0.05,0,0,0.5,0.00054073,0.0023363,0.028301
16839,1.9221e+07,0,0,0,0,0,0.69,0.05,0,0,0.5,0.00056892,0.001819,0.02594
16881,1.9231e+07,0,0,0,0,0,0.69,0.05,0,0,0.5,0.00059161,0.0014444,0.023525
16922,1.9241e+07,0,0,0,0,0,0.69,0.05,0,0,0.5,0.00061469,0.0012974,0.021282
16962,1.9251e+07,0,0,0,0,0,0.69,0.05,0,0,0.5,0.00061469,0.0012974,0.021282
17000,1.9264e+07,0,0,0,0,0,0.67,0.05,0,0,0.5,0.00010073,0.0079598,0.04917
17045,1.9276e+07,0,0,0,0,0,0.67,0.05,0,0,0.5,7.6578e-05,0.0070018,0.045673
17086,1.9286e+07,0,0,0,0,0,0.67,0.05,0,0,0.5,5.6184e-05,0.0060949,0.04233
17127,1.9296e+07,0,0,0,0,0,0.67,0.05,0,0,0.5,4.5457e-05,0.0052334,0.039232
17167,1.9306e+07,0,0,0,0,0,0.68,0.05,0,0,0.5,5.4231e-05,0.0044184,0.036174
17215,1.9319e+07,0,0,0,0,0,0.68,0.05,0,0,0.5,7.7694e-05,0.0036494,0.033268
17259,1.9329e+07,0,0,0,0,0,0.68,0.05,0,0,0.5,0.0001086,0.0029285,0.030531
17299,1.9339e+07,0,0,0,0,0,0.68,0.05,0,0,0.5,0.0001086,0.0029285,0.030531
17340,1.9352e+07,0,0,0,0,0,0.68,0.05,0,0,0.5,0.00013605,0.0022593,0.027862
17377,1.9362e+07,0,0,0,0,0,0.67,0.05,0,0,0.5,0.00039478,0.0067988,0.044123
17418,1.9372e+07,0,0,0,0,0,0.67,0.05,0,0,0.5,0.00038998,0.0058946,0.040807
17461,1.9382e+07,0,0,0,0,0,0.67,0.05,0,0,0.5,0.00038674,0.0050397,0.037629
17501,1.9392e+07,0,0,0,0,0,0.68,0.05,0,0,0.5,0.00038519,0.0042343,0.034688
17543,1.9402e+07,0,0,0,0,0,0.68,0.05,0,0,0.5,0.00038566,0.0034812,0.031802
17586,1.9412e+07,0,0,0,0,0,0.68,0.05,0,0,0.5,0.00038566,0.0034812,0.031802
17628,1.9422e+07,0,0,0,0,0,0.68,0.05,0,0,0.5,0.00038816,0.0027799,0.029051
17668,1.9432e+07,0,0,0,0,0,0.68,0.05,0,0,0.5,0.00039314,0.0021412,0.026492
17709,1.9442e+07,0,0,0,0,0,0.68,0.05,0,0,0.5,0.0004004,0.0015854,0.023937
17750,1.9455e+07,0,0,0,0,0,0.66,0.05,0,0,0.5,0.0019914,0.008845,0.051255
17791,1.9465e+07,0,0,0,0,0,0.66,0.05,0,0,0.5,0.0019696,0.0078293,0.047616
17832,1.9475e+07,0,0,0,0,0,0.66,0.05,0,0,0.5,0.0019696,0.0078293,0.047616
17872,1.9485e+07,0,0,0,0,0,0.66,0.05,0,0,0.5,0.0019525,0.0068631,0.044024
17916,1.9495e+07,0,0,0,0,0,0.66,0.05,0,0,0.5,0.0019305,0.0059437,0.040736
17957,1.9505e+07,0,0,0,0,0,0.67,0.05,0,0,0.5,0.0019087,0.0050804,0.037501
18002,1.9515e+07,0,0,0,0,0,0.67,0.05,0,0,0.5,0.0019087,0.0050804,0.037501
18045,1.9525e+07,0,0,0,0,0,0.67,0.05,0,0,0.5,0.0018873,0.0042594,0.034374
18085,1.9535e+07,0,0,0,0,0,0.67,0.05,0,0,0.5,0.0018613,0.0034744,0.031532
18126,1.9545e+07,0,0,0,0,0,0.67,0.05,0,0,0.5,0.0018396,0.0027486,0.028706
18166,1.9557e+07,0,0,0,0,0,0.65,0.05,0,0,0.5,0.0019625,0.0079695,0.047621
18208,1.9568e+07,0,0,0,0,0,0.66,0.05,0,0,0.5,0.0018345,0.006982,0.044026
18249,1.9578e+07,0,0,0,0,0,0.66,0.05,0,0,0.5,0.0018345,0.006982,0.044026
18286,1.9588e+07,0,0,0,0,0,0.66,0.05,0,0,0.5,0.0017095,0.0060486,0.040543
18328,1.9598e+07,0,0,0,0,0,0.66,0.05,0,0,0.5,0.0015891,0.0051598,0.037306
18369,1.9608e+07,0,0,0,0,0,0.66,0.05,0,0,0.5,0.001469,0.0043187,0.034181
18415,1.9618e+07,0,0,0,0,0,0.66,0.05,0,0,0.5,0.001469,0.0043187,0.034181
18456,1.9628e+07,0,0,0,0,0,0.67,0.05,0,0,0.5,0.001328,0.003528,0.031116
18496,1.9638e+07,0,0,0,0,0,0.67,0.05,0,0,0.5,0.001214,0.0027804,0.028223
18537,1.9648e+07,0,0,0,0,0,0.67,0.05,0,0,0.5,0.0010982,0.0020889,0.025501
18577,1.9658e+07,0,0,0,0,0,0.67,0.05,0,0,0.5,0.0010982,0.0020889,0.025501
18613,1.9668e+07,0,0,0,0,0,0.66,0.05,0,0,0.5,0.00084305,0.0039158,0.031206
18655,1.9678e+07,0,0,0,0,0,0.67,0.05,0,0,0.5,0.00074814,0.0031887,0.028314
18695,1.9688e+07,0,0,0,0,0,0.67,0.05,0,0,0.5,0.00061243,0.0025475,0.025565
18736,1.9698e+07,0,0,0,0,0,0.67,0.05,0,0,0.5,0.00050897,0.0020039,0.022864
18779,1.9708e+07,0,0,0,0,0,0.67,0.05,0,0,0.5,0.00050897,0.0020039,0.022864
18823,1.9718e+07,0,0,0,0,0,0.67,0.05,0,0,0.5,0.00041311,0.0016226,0.020344
18865,1.9728e+07,0,0,0,0,0,0.68,0.05,0,0,0.5,0.00030685,0.0014804,0.017941
18906,1.9738e+07,0,0,0,0,0,0.68,0.05,0,0,0.5,0.0002269,0.0015979,0.01559
18946,1.9748e+07,0,0,0,0,0,0.68,0.05,0,0,0.5,0.0002269,0.0015979,0.01559
18988,1.9758e+07,0,0,0,0,0,0.68,0.05,0,0,0.5,0.00015447,0.0018989,0.013381
19026,1.9768e+07,0,0,0,0,0,0.66,0.05,0,0,0.5,0.00011802,0.0042953,0.032644
19066,1.9778e+07,0,0,0,0,0,0.66,0.05,0,0,0.5,7.4657e-05,0.0035172,0.029558
19107,1.9789e+07,0,0,0,0,0,0.67,0.05,0,0,0.5,4.7682e-05,0.0028076,0.02664
19147,1.9798e+07,0,0,0,0,0,0.67,0.05,0,0,0.5,4.7682e-05,0.0028076,0.02664
19190,1.9809e+07,0,0,0,0,0,0.67,0.05,0,0,0.5,4.8479e-05,0.0021835,0.023864
19236,1.9818e+07,0,0,0,0,0,0.67,0.05,0,0,0.5,7.0665e-05,0.0016818,0.021189
19277,1.9828e+07,0,0,0,0,0,0.67,0.05,0,0,0.5,9.0416e-05,0.0013779,0.018656
19318,1.9839e+07,0,0,0,0,0,0.67,0.05,0,0,0.5,0.00010651,0.0013592,0.016247
19358,1.9848e+07,0,0,0,0,0,0.67,0.05,0,0,0.5,0.00010651,0.0013592,0.016247
19400,1.9861e+07,0,0,0,0,0,0.66,0.05,0,0,0.5,0.00012791,0.0051266,0.035595
19440,1.9871e+07,0,0,0,0,0,0.66,0.05,0,0,0.5,6.2938e-05,0.0042907,0.032359
19481,1.9881e+07,0,0,0,0,0,0.66,0.05,0,0,0.5,6.4156e-05,0.0035028,0.029263
19522,1.9891e+07,0,0,0,0,0,0.66,0.05,0,0,0.5,6.4398e-05,0.0027807,0.026324
19563,1.9901e+07,0,0,0,0,0,0.66,0.05,0,0,0.5,6.3106e-05,0.0021365,0.023547
19611,1.9914e+07,0,0,0,0,0,0.66,0.05,0,0,0.5,6.0268e-05,0.0016055,0.020873
19652,1.9923e+07,0,0,0,0,0,0.67,0.05,0,0,0.5,5.5854e-05,0.001269,0.018342
19695,1.9934e+07,0,0,0,0,0,0.67,0.05,0,0,0.5,5.5854e-05,0.001269,0.018342
19736,1.9944e+07,0,0,0,0,0,0.67,0.05,0,0,0.5,5.0317e-05,0.001233,0.015918
19774,1.9953e+07,0,0,0,0,0,0.65,0.05,0,0,0.5,5.9916e-05,0.0048927,0.034467
19812,1.9963e+07,0,0,0,0,0,0.65,0.05,0,0,0.5,0.0011241,0.0040796,0.03133
19853,1.9974e+07,0,0,0,0,0,0.65,0.05,0,0,0.5,0.0011273,0.0033061,0.028256
19894,1.9984e+07,0,0,0,0,0,0.65,0.05,0,0,0.5,0.0011273,0.0033061,0.028256
19936,1.9994e+07,0,0,0,0,0,0.65,0.05,0,0,0.5,0.0011315,0.0026,0.025349
19978,2.0003e+07,0,0,0,0,0,0.66,0.05,0,0,0.5,0.0011361,0.0019726,0.022551
20022,2.0014e+07,0,0,0,0,0,0.66,0.05,0,0,0.5,0.001141,0.0014673,0.019894
20064,2.0024e+07,0,0,0,0,0,0.66,0.05,0,0,0.5,0.0011456,0.0011869,0.017376
20105,2.0034e+07,0,0,0,0,0,0.66,0.05,0,0,0.5,0.0011456,0.0011869,0.017376
20145,2.0043e+07,0,0,0,0,0,0.66,0.05,0,0,0.5,0.0011503,0.0012391,0.014956
20186,2.0054e+07,0,0,0,0,0,0.66,0.05,0,0,0.5,0.0011544,0.0015411,0.012646
20221,2.0064e+07,0,0,0,0,0,0.64,0.05,0,0,0.5,0.00083278,0.0044074,0.032453
20262,2.0074e+07,0,0,0,0,0,0.65,0.05,0,0,0.5,0.00076042,0.003601,0.029297
20303,2.0084e+07,0,0,0,0,0,0.65,0.05,0,0,0.5,0.00076042,0.003601,0.029297
20343,2.0094e+07,0,0,0,0,0,0.65,0.05,0,0,0.5,0.00068931,0.0028576,0.026309
20385,2.0104e+07,0,0,0,0,0,0.65,0.05,0,0,0.5,0.00061793,0.00217,0.023397
20430,2.0114e+07,0,0,0,0,0,0.65,0.05,0,0,0.5,0.00054632,0.0015762,0.020665
20471,2.0124e+07,0,0,0,0,0,0.65,0.05,0,0,0.5,0.00047366,0.0011561,0.018088
20513,2.0134e+07,0,0,0,0,0,0.65,0.05,0,0,0.5,0.00047366,0.0011561,0.018088
20553,2.0144e+07,0,0,0,0,0,0.65,0.05,0,0,0.5,0.00040144,0.0010452,0.015542
20597,2.0156e+07,0,0,0,0,0,0.66,0.05,0,0,0.5,0.00032824,0.0012742,0.01317
20634,2.0166e+07,0,0,0,0,0,0.63,0.05,0,0,0.5,0.0006778,0.0062154,0.039555
20674,2.0176e+07,0,0,0,0,0,0.63,0.05,0,0,0.5,0.00062624,0.005292,0.035976
20714,2.0186e+07,0,0,0,0,0,0.63,0.05,0,0,0.5,0.00057931,0.0044167,0.032648
20755,2.0196e+07,0,0,0,0,0,0.63,0.05,0,0,0.5,0.00057931,0.0044167,0.032648
20796,2.0206e+07,0,0,0,0,0,0.63,0.05,0,0,0.5,0.00053726,0.0035886,0.02944
20840,2.0216e+07,0,0,0,0,0,0.64,0.05,0,0,0.5,0.00049928,0.0028111,0.026308
20882,2.0226e+07,0,0,0,0,0,0.64,0.05,0,0,0.5,0.00046561,0.0020825,0.023416
20923,2.0236e+07,0,0,0,0,0,0.64,0.05,0,0,0.5,0.00043665,0.0014222,0.020625
20964,2.0246e+07,0,0,0,0,0,0.64,0.05,0,0,0.5,0.00043665,0.0014222,0.020625
21005,2.0259e+07,0,0,0,0,0,0.64,0.05,0,0,0.5,0.00041214,0.00088979,0.017928
21043,2.0269e+07,0,0,0,0,0,0.62,0.05,0,0,0.5,0.0018398,0.0059006,0.038195
21084,2.0279e+07,0,0,0,0,0,0.62,0.05,0,0,0.5,0.0017992,0.0049867,0.034647
21124,2.0288e+07,0,0,0,0,0,0.62,0.05,0,0,0.5,0.0017625,0.0041213,0.031296
21166,2.0299e+07,0,0,0,0,0,0.62,0.05,0,0,0.5,0.0017288,0.0033088,0.028165
21206,2.0308e+07,0,0,0,0,0,0.62,0.05,0,0,0.5,0.0017288,0.0033088,0.028165
21253,2.0319e+07,0,0,0,0,0,0.63,0.05,0,0,0.5,0.0016974,0.0025411,0.025043
21294,2.0329e+07,0,0,0,0,0,0.63,0.05,0,0,0.5,0.0016684,0.0018292,0.022132
21336,2.0338e+07,0,0,0,0,0,0.63,0.05,0,0,0.5,0.0016417,0.0012079,0.019401
21379,2.0349e+07,0,0,0,0,0,0.63,0.05,0,0,0.5,0.0016169,0.00078173,0.016671
21416,2.0358e+07,0,0,0,0,0,0.63,0.05,0,0,0.5,0.0016169,0.00078173,0.016671
21453,2.0368e+07,0,0,0,0,0,0.61,0.05,0,0,0.5,0.0021009,0.0056719,0.037263
21494,2.0378e+07,0,0,0,0,0,0.61,0.05,0,0,0.5,0.0019867,0.004762,0.033756
21534,2.0388e+07,0,0,0,0,0,0.61,0.05,0,0,0.5,0.0018751,0.0039057,0.030348
21575,2.0398e+07,0,0,0,0,0,0.61,0.05,0,0,0.5,0.0017645,0.0030962,0.027234
21616,2.0409e+07,0,0,0,0,0,0.61,0.05,0,0,0.5,0.001657,0.0023332,0.024165
21661,2.0419e+07,0,0,0,0,0,0.61,0.05,0,0,0.5,0.001657,0.0023332,0.024165
21702,2.0429e+07,0,0,0,0,0,0.62,0.05,0,0,0.5,0.0015515,0.001631,0.021225
21742,2.0439e+07,0,0,0,0,0,0.62,0.05,0,0,0.5,0.0014479,0.0010384,0.018511
21785,2.0449e+07,0,0,0,0,0,0.62,0.05,0,0,0.5,0.0013458,0.00069017,0.015802
21822,2.0462e+07,0,0,0,0,0,0.59,0.05,0,0,0.5,0.001413,0.0066952,0.041375
21862,2.0471e+07,0,0,0,0,0,0.59,0.05,0,0,0.5,0.0012817,0.0057303,0.037651
21903,2.0482e+07,0,0,0,0,0,0.59,0.05,0,0,0.5,0.0011575,0.0048157,0.034005
21945,2.0492e+07,0,0,0,0,0,0.59,0.05,0,0,0.5,0.0011575,0.0048157,0.034005
21987,2.0502e+07,0,0,0,0,0,0.6,0.05,0,0,0.5,0.0010401,0.0039473,0.030663
22027,2.0512e+07,0,0,0,0,0,0.6,0.05,0,0,0.5,0.000952,0.0031269,0.027401
22073,2.0522e+07,0,0,0,0,0,0.6,0.05,0,0,0.5,0.00084658,0.0023466,0.024235
22115,2.0532e+07,0,0,0,0,0,0.6,0.05,0,0,0.5,0.00084658,0.0023466,0.024235
22156,2.0542e+07,0,0,0,0,0,0.6,0.05,0,0,0.5,0.00074791,0.001613,0.021328
22197,2.0552e+07,0,0,0,0,0,0.6,0.05,0,0,0.5,0.00065602,0.00094823,0.018441
22239,2.0564e+07,0,0,0,0,0,0.59,0.05,0,0,0.5,0.00072523,0.003931,0.030018
22277,2.0574e+07,0,0,0,0,0,0.59,0.05,0,0,0.5,0.00063556,0.0031081,0.02676
22317,2.0584e+07,0,0,0,0,0,0.59,0.05,0,0,0.5,0.00063556,0.0031081,0.02676
22358,2.0595e+07,0,0,0,0,0,0.59,0.05,0,0,0.5,0.00057067,0.00234,0.023567
22398,2.0605e+07,0,0,0,0,0,0.59,0.05,0,0,0.5,0.00049592,0.001642,0.020669
22444,2.0615e+07,0,0,0,0,0,0.59,0.05,0,0,0.5,0.00049592,0.001642,0.020669
22486,2.0625e+07,0,0,0,0,0,0.59,0.05,0,0,0.5,0.00041613,0.0010642,0.017844
22526,2.0635e+07,0,0,0,0,0,0.59,0.05,0,0,0.5,0.00035813,0.00076777,0.014976
22567,2.0645e+07,0,0,0,0,0,0.59,0.05,0,0,0.5,0.00030611,0.0009877,0.012399
22609,2.0655e+07,0,0,0,0,0,0.6,0.05,0,0,0.5,0.00025158,0.0014621,0.0099525
22650,2.0665e+07,0,0,0,0,0,0.6,0.05,0,0,0.5,0.00025158,0.0014621,0.0099525
22687,2.0675e+07,0,0,0,0,0,0.57,0.05,0,0,0.5,0.00016249,0.0051931,0.03521
22725,2.0685e+07,0,0,0,0,0,0.57,0.05,0,0,0.5,0.0001194,0.0042808,0.031599
22767,2.0695e+07,0,0,0,0,0,0.57,0.05,0,0,0.5,8.2243e-05,0.003418,0.028196
22807,2.0705e+07,0,0,0,0,0,0.57,0.05,0,0,0.5,5.1087e-05,0.0025998,0.024854
22852,2.0715e+07,0,0,0,0,0,0.57,0.05,0,0,0.5,5.1087e-05,0.0025998,0.024854
22893,2.0725e+07,0,0,0,0,0,0.57,0.05,0,0,0.5,2.3651e-05,0.0018385,0.021791
22937,2.0735e+07,0,0,0,0,0,0.57,0.05,0,0,0.5,3.0363e-05,0.0011306,0.018855
22977,2.0745e+07,0,0,0,0,0,0.58,0.05,0,0,0.5,4.6637e-05,0.00056687,0.015949
23019,2.0757e+07,0,0,0,0,0,0.55,0.05,0,0,0.5,0.00029416,0.006555,0.040706
23060,2.0768e+07,0,0,0,0,0,0.55,0.05,0,0,0.5,0.00029416,0.006555,0.040706
23097,2.0778e+07,0,0,0,0,0,0.55,0.05,0,0,0.5,0.0002798,0.0055753,0.036876
23138,2.0788e+07,0,0,0,0,0,0.55,0.05,0,0,0.5,0.00027103,0.0046285,0.033074
23178,2.0798e+07,0,0,0,0,0,0.55,0.05,0,0,0.5,0.00027103,0.0046285,0.033074
23220,2.0808e+07,0,0,0,0,0,0.55,0.05,0,0,0.5,0.00026518,0.0037268,0.029465
23266,2.0818e+07,0,0,0,0,0,0.55,0.05,0,0,0.5,0.0002615,0.0028633,0.026045
23307,2.0828e+07,0,0,0,0,0,0.55,0.05,0,0,0.5,0.00025993,0.0020462,0.022706
23348,2.0838e+07,0,0,0,0,0,0.55,0.05,0,0,0.5,0.00025993,0.0020462,0.022706
23388,2.0848e+07,0,0,0,0,0,0.56,0.05,0,0,0.5,0.00026092,0.0012835,0.019571
23431,2.0858e+07,0,0,0,0,0,0.56,0.05,0,0,0.5,0.00026343,0.00058942,0.016571
23471,2.0871e+07,0,0,0,0,0,0.53,0.05,0,0,0.5,0.00026929,0.0066118,0.041017
23512,2.088e+07,0,0,0,0,0,0.53,0.05,0,0,0.5,0.00026929,0.0066118,0.041017
23553,2.089e+07,0,0,0,0,0,0.53,0.05,0,0,0.5,0.00049234,0.0055987,0.037014
23596,2.09e+07,0,0,0,0,0,0.53,0.05,0,0,0.5,0.00047343,0.004618,0.033155
23637,2.091e+07,0,0,0,0,0,0.53,0.05,0,0,0.5,0.00045543,0.0036908,0.029458
23681,2.092e+07,0,0,0,0,0,0.53,0.05,0,0,0.5,0.00045543,0.0036908,0.029458
23722,2.093e+07,0,0,0,0,0,0.53,0.05,0,0,0.5,0.00044114,0.0028073,0.025902
23764,2.094e+07,0,0,0,0,0,0.53,0.05,0,0,0.5,0.00042717,0.0019654,0.022511
23806,2.095e+07,0,0,0,0,0,0.53,0.05,0,0,0.5,0.00042717,0.0019654,0.022511
23847,2.096e+07,0,0,0,0,0,0.53,0.05,0,0,0.5,0.00041079,0.0011728,0.019255
23888,2.097e+07,0,0,0,0,0,0.54,0.05,0,0,0.5,0.00039726,0.00044481,0.016121
23929,2.0983e+07,0,0,0,0,0,0.51,0.05,0,0,0.5,0.00090906,0.0061855,0.039581
23971,2.0993e+07,0,0,0,0,0,0.51,0.05,0,0,0.5,0.0008909,0.0051546,0.03552
24012,2.1003e+07,0,0,0,0,0,0.51,0.05,0,0,0.5,0.0008909,0.0051546,0.03552
24054,2.1013e+07,0,0,0,0,0,0.51,0.05,0,0,0.5,0.00086463,0.0041714,0.031526
24098,2.1023e+07,0,0,0,0,0,0.51,0.05,0,0,0.5,0.00083926,0.0032417,0.027734
24139,2.1033e+07,0,0,0,0,0,0.51,0.05,0,0,0.5,0.00080907,0.0023571,0.024163
24180,2.1043e+07,0,0,0,0,0,0.51,0.05,0,0,0.5,0.00080907,0.0023571,0.024163
24221,2.1053e+07,0,0,0,0,0,0.51,0.05,0,0,0.5,0.00078035,0.0015228,0.020791
24258,2.1063e+07,0,0,0,0,0,0.5,0.05,0,0,0.5,0.00075373,0.0038399,0.02996
24303,2.1078e+07,0,0,0,0,0,0.5,0.05,0,0,0.5,0.00094625,0.0029342,0.026174
24344,2.1088e+07,0,0,0,0,0,0.5,0.05,0,0,0.5,0.00092144,0.002079,0.022643
24385,2.1098e+07,0,0,0,0,0,0.5,0.05,0,0,0.5,0.00092144,0.002079,0.022643
24427,2.1108e+07,0,0,0,0,0,0.5,0.05,0,0,0.5,0.00087265,0.0012915,0.019263
24472,2.1118e+07,0,0,0,0,0,0.5,0.05,0,0,0.5,0.00082253,0.00064959,0.01596
24512,2.1128e+07,0,0,0,0,0,0.51,0.05,0,0,0.5,0.00076426,0.00063224,0.012895
24556,2.1138e+07,0,0,0,0,0,0.51,0.05,0,0,0.5,0.00071822,0.0012018,0.009958
24596,2.1149e+07,0,0,0,0,0,0.51,0.05,0,0,0.5,0.00071822,0.0012018,0.009958
24637,2.1159e+07,0,0,0,0,0,0.51,0.05,0,0,0.5,0.00067256,0.0018348,0.007119
24674,2.1169e+07,0,0,0,0,0,0.5,0.05,0,0,0.5,0.0010373,0.0011647,0.012509
24715,2.1179e+07,0,0,0,0,0,0.5,0.05,0,0,0.5,0.00099407,0.0015529,0.0096334
24757,2.1189e+07,0,0,0,0,0,0.5,0.05,0,0,0.5,0.0009392,0.00208,0.0068954
24797,2.1199e+07,0,0,0,0,0,0.5,0.05,0,0,0.5,0.00087376,0.0026398,0.004383
24839,2.1209e+07,0,0,0,0,0,0.5,0.05,0,0,0.5,0.00087376,0.0026398,0.004383
24883,2.1219e+07,0,0,0,0,0,0.5,0.05,0,0,0.5,0.00082353,0.0031923,0.0023454
24924,2.1229e+07,0,0,0,0,0,0.5,0.05,0,0,0.5,0.0007762,0.0037306,0.0020693
24964,2.1239e+07,0,0,0,0,0,0.5,0.05,0,0,0.5,0.00073098,0.0042454,0.0036811
25006,2.1249e+07,0,0,0,0,0,0.5,0.05,0,0,0.5,0.00073098,0.0042454,0.0036811
25047,2.1259e+07,0,0,0,0,0,0.5,0.05,0,0,0.5,0.00068909,0.0047367,0.0056377
25087,2.1272e+07,0,0,0,0,0,0.5,0.05,0,0,0.5,0.00081603,0.004498,0.005539
25129,2.1282e+07,0,0,0,0,0,0.5,0.05,0,0,0.5,0.00075319,0.0049508,0.0070518
25170,2.1292e+07,0,0,0,0,0,0.5,0.05,0,0,0.5,0.00075319,0.0049508,0.0070518
25211,2.1302e+07,0,0,0,0,0,0.5,0.05,0,0,0.5,0.00069384,0.005388,0.0087537
25252,2.1312e+07,0,0,0,0,0,0.5,0.05,0,0,0.5,0.00064856,0.0058108,0.010539
25296,2.1322e+07,0,0,0,0,0,0.5,0.05,0,0,0.5,0.00058227,0.0062132,0.012225
25338,2.1332e+07,0,0,0,0,0,0.5,0.05,0,0,0.5,0.00053114,0.0065955,0.013854
25380,2.1342e+07,0,0,0,0,0,0.5,0.05,0,0,0.5,0.00053114,0.0065955,0.013854
25421,2.1352e+07,0,0,0,0,0,0.5,0.05,0,0,0.5,0.00048349,0.0069596,0.015491
25464,2.1365e+07,0,0,0,0,0,0.5,0.05,0,0,0.5,0.00095498,0.007303,0.017004
25502,2.1375e+07,0,0,0,0,0,0.48,0.05,0,0,0.5,0.00091383,0.0014682,0.0087385
25543,2.1385e+07,0,0,0,0,0,0.48,0.05,0,0,0.5,0.00086482,0.0019991,0.0060527
25585,2.1395e+07,0,0,0,0,0,0.48,0.05,0,0,0.5,0.00080994,0.0025405,0.003671
25626,2.1405e+07,0,0,0,0,0,0.48,0.05,0,0,0.5,0.00076924,0.0030778,0.0020457
25666,2.1415e+07,0,0,0,0,0,0.48,0.05,0,0,0.5,0.00076924,0.0030778,0.0020457
25711,2.1425e+07,0,0,0,0,0,0.48,0.05,0,0,0.5,0.00073192,0.0035963,0.0024885
25753,2.1435e+07,0,0,0,0,0,0.48,0.05,0,0,0.5,0.0006978,0.0040899,0.004251
25793,2.1445e+07,0,0,0,0,0,0.48,0.05,0,0,0.5,0.00066636,0.0045617,0.0061438
25837,2.1457e+07,0,0,0,0,0,0.47,0.05,0,0,0.5,0.00063862,0.001822,0.0067135
25877,2.1467e+07,0,0,0,0,0,0.47,0.05,0,0,0.5,0.0016997,0.0023527,0.0045334
25915,2.1478e+07,0,0,0,0,0,0.47,0.05,0,0,0.5,0.0016997,0.0023527,0.0045334
25959,2.1488e+07,0,0,0,0,0,0.47,0.05,0,0,0.5,0.0016566,0.0028759,0.0027951
26000,2.1498e+07,0,0,0,0,0,0.47,0.05,0,0,0.5,0.0016045,0.0033943,0.0025739
26041,2.1508e+07,0,0,0,0,0,0.47,0.05,0,0,0.5,0.0016045,0.0033943,0.0025739
26085,2.1518e+07,0,0,0,0,0,0.47,0.05,0,0,0.5,0.0015549,0.0038914,0.0039403
26129,2.1528e+07,0,0,0,0,0,0.47,0.05,0,0,0.5,0.0015077,0.0043751,0.0058138
26169,2.1538e+07,0,0,0,0,0,0.47,0.05,0,0,0.5,0.0014631,0.0048337,0.0076948
26210,2.1548e+07,0,0,0,0,0,0.47,0.05,0,0,0.5,0.0014631,0.0048337,0.0076948
26251,2.1558e+07,0,0,0,0,0,0.47,0.05,0,0,0.5,0.0014206,0.0052701,0.0095268
26291,2.1568e+07,0,0,0,0,0,0.47,0.05,0,0,0.5,0.0013803,0.0056866,0.011379
26330,2.1581e+07,0,0,0,0,0,0.46,0.05,0,0,0.5,0.0019055,0.0050156,0.0089409
26371,2.1591e+07,0,0,0,0,0,0.46,0.05,0,0,0.5,0.0019055,0.0050156,0.0089409
26411,2.1601e+07,0,0,0,0,0,0.46,0.05,0,0,0.5,0.0017773,0.0054274,0.010564
26453,2.1611e+07,0,0,0,0,0,0.46,0.05,0,0,0.5,0.001678,0.005825,0.012268
26500,2.1621e+07,0,0,0,0,0,0.46,0.05,0,0,0.5,0.0015433,0.0062022,0.013987
26542,2.1631e+07,0,0,0,0,0,0.46,0.05,0,0,0.5,0.0014541,0.0065618,0.015508
26582,2.1641e+07,0,0,0,0,0,0.46,0.05,0,0,0.5,0.0014541,0.0065618,0.015508
26623,2.1651e+07,0,0,0,0,0,0.46,0.05,0,0,0.5,0.0013679,0.0069027,0.016963
26663,2.1661e+07,0,0,0,0,0,0.46,0.05,0,0,0.5,0.0012672,0.0072248,0.018468
26701,2.1671e+07,0,0,0,0,0,0.46,0.05,0,0,0.5,0.0015689,0.005798,0.012692
26739,2.1681e+07,0,0,0,0,0,0.46,0.05,0,0,0.5,0.0014924,0.0061572,0.014158
26780,2.1692e+07,0,0,0,0,0,0.46,0.05,0,0,0.5,0.0014924,0.0061572,0.014158
26821,2.1702e+07,0,0,0,0,0,0.46,0.05,0,0,0.5,0.0013641,0.0065005,0.015726
26863,2.1712e+07,0,0,0,0,0,0.46,0.05,0,0,0.5,0.0012644,0.0068277,0.017154
26913,2.1724e+07,0,0,0,0,0,0.46,0.05,0,0,0.5,0.0011694,0.0071402,0.018464
26953,2.1734e+07,0,0,0,0,0,0.46,0.05,0,0,0.5,0.0010789,0.0074365,0.019862
26994,2.1744e+07,0,0,0,0,0,0.46,0.05,0,0,0.5,0.0010789,0.0074365,0.019862
27036,2.1754e+07,0,0,0,0,0,0.46,0.05,0,0,0.5,0.00099352,0.0077154,0.02113
27076,2.1764e+07,0,0,0,0,0,0.46,0.05,0,0,0.5,0.0013817,0.0079796,0.022235
27118,2.1774e+07,0,0,0,0,0,0.44,0.05,0,0,0.5,0.0013065,0.0037003,0.0046715
27156,2.1784e+07,0,0,0,0,0,0.44,0.05,0,0,0.5,0.0012117,0.0041435,0.0062789
27197,2.1794e+07,0,0,0,0,0,0.44,0.05,0,0,0.5,0.0011215,0.0045697,0.007971
27238,2.1804e+07,0,0,0,0,0,0.44,0.05,0,0,0.5,0.0011215,0.0045697,0.007971
27279,2.1814e+07,0,0,0,0,0,0.44,0.05,0,0,0.5,0.0010204,0.0049743,0.0097011
27327,2.1824e+07,0,0,0,0,0,0.44,0.05,0,0,0.5,0.00094454,0.0053601,0.011336
27367,2.1834e+07,0,0,0,0,0,0.44,0.05,0,0,0.5,0.00087397,0.0057251,0.012882
27409,2.1844e+07,0,0,0,0,0,0.44,0.05,0,0,0.5,0.00087397,0.0057251,0.012882
27449,2.1854e+07,0,0,0,0,0,0.44,0.05,0,0,0.5,0.0008088,0.0060753,0.014394
27490,2.1864e+07,0,0,0,0,0,0.44,0.05,0,0,0.5,0.0007613,0.0065623,0.016627
27531,2.1874e+07,0,0,0,0,0,0.44,0.05,0,0,0.5,0.00079371,0.0068528,0.017843
27568,2.1885e+07,0,0,0,0,0,0.44,0.05,0,0,0.5,0.00079371,0.0068528,0.017843
27610,2.1895e+07,0,0,0,0,0,0.44,0.05,0,0,0.5,0.00071311,0.0071373,0.018987
27651,2.1905e+07,0,0,0,0,0,0.44,0.05,0,0,0.5,0.00063757,0.0074076,0.020064
27691,2.1915e+07,0,0,0,0,0,0.44,0.05,0,0,0.5,0.0005677,0.0076623,0.021105
27739,2.1925e+07,0,0,0,0,0,0.44,0.05,0,0,0.5,0.00050225,0.0079032,0.0221
27779,2.1935e+07,0,0,0,0,0,0.44,0.05,0,0,0.5,0.00050225,0.0079032,0.0221
27820,2.1945e+07,0,0,0,0,0,0.44,0.05,0,0,0.5,0.00043026,0.008129,0.023151
27861,2.1955e+07,0,0,0,0,0,0.44,0.05,0,0,0.5,0.00037569,0.008343,0.024162
27899,2.1967e+07,0,0,0,0,0,0.42,0.05,0,0,0.5,0.0011767,0.0037119,0.0046501
27939,2.1977e+07,0,0,0,0,0,0.42,0.05,0,0,0.5,0.0011227,0.0041289,0.0062943
27982,2.1988e+07,0,0,0,0,0,0.42,0.05,0,0,0.5,0.0010762,0.0045287,0.0080305
28023,2.1997e+07,0,0,0,0,0,0.42,0.05,0,0,0.5,0.0010344,0.0049075,0.0097503
28064,2.2008e+07,0,0,0,0,0,0.42,0.05,0,0,0.5,0.0010344,0.0049075,0.0097503
28105,2.2018e+07,0,0,0,0,0,0.42,0.05,0,0,0.5,0.00099728,0.0052654,0.011421
28150,2.2027e+07,0,0,0,0,0,0.42,0.05,0,0,0.5,0.00096413,0.005607,0.013
28191,2.2037e+07,0,0,0,0,0,0.42,0.05,0,0,0.5,0.00093502,0.0059287,0.0145
28231,2.2048e+07,0,0,0,0,0,0.42,0.05,0,0,0.5,0.00093502,0.0059287,0.0145
28273,2.2057e+07,0,0,0,0,0,0.42,0.05,0,0,0.5,0.00090985,0.0062336,0.015904
28311,2.2068e+07,0,0,0,0,0,0.39,0.05,0,0,0.5,0.001334,0.0013119,0.0060807
28351,2.2077e+07,0,0,0,0,0,0.39,0.05,0,0,0.5,0.0012623,0.0018178,0.0037919
28389,2.2088e+07,0,0,0,0,0,0.39,0.05,0,0,0.5,0.0012065,0.002319,0.0018581
28429,2.2098e+07,0,0,0,0,0,0.39,0.05,0,0,0.5,0.0011383,0.0027999,0.0014174
28471,2.2108e+07,0,0,0,0,0,0.39,0.05,0,0,0.5,0.0011383,0.0027999,0.0014174
28511,2.2118e+07,0,0,0,0,0,0.39,0.05,0,0,0.5,0.0010728,0.0032594,0.0029477
28560,2.2128e+07,0,0,0,0,0,0.39,0.05,0,0,0.5,0.0010101,0.0036947,0.0047741
28608,2.2138e+07,0,0,0,0,0,0.39,0.05,0,0,0.5,0.00094899,0.004103,0.0066407
28652,2.2148e+07,0,0,0,0,0,0.39,0.05,0,0,0.5,0.00087625,0.0044883,0.00835
28697,2.2162e+07,0,0,0,0,0,0.38,0.05,0,0,0.5,0.00081984,0.0028587,0.0023701
28744,2.2175e+07,0,0,0,0,0,0.38,0.05,0,0,0.5,0.0012544,0.0033017,0.0036433
28789,2.2185e+07,0,0,0,0,0,0.38,0.05,0,0,0.5,0.0011759,0.0037224,0.0052402
28835,2.2195e+07,0,0,0,0,0,0.38,0.05,0,0,0.5,0.0011169,0.0041232,0.0069862
28876,2.2206e+07,0,0,0,0,0,0.38,0.05,0,0,0.5,0.0011169,0.0041232,0.0069862
28921,2.2215e+07,0,0,0,0,0,0.38,0.05,0,0,0.5,0.0010462,0.0045018,0.0087137
28970,2.2225e+07,0,0,0,0,0,0.38,0.05,0,0,0.5,0.00099289,0.0048626,0.010374
29015,2.2235e+07,0,0,0,0,0,0.38,0.05,0,0,0.5,0.00092839,0.0052035,0.01194
29061,2.2246e+07,0,0,0,0,0,0.38,0.05,0,0,0.5,0.00086846,0.0055262,0.013446
29105,2.2256e+07,0,0,0,0,0,0.38,0.05,0,0,0.5,0.00086846,0.0055262,0.013446
29150,2.2266e+07,0,0,0,0,0,0.38,0.05,0,0,0.5,0.00081079,0.0058328,0.014799
29188,2.2277e+07,0,0,0,0,0,0.36,0.05,0,0,0.5,0.00099625,0.0020359,0.0025485
29236,2.229e+07,0,0,0,0,0,0.36,0.05,0,0,0.5,0.00091482,0.002501,0.0012463
29280,2.23e+07,0,0,0,0,0,0.36,0.05,0,0,0.5,0.00085368,0.0029455,0.0022066
29325,2.231e+07,0,0,0,0,0,0.36,0.05,0,0,0.5,0.00078033,0.003368,0.0039783
29370,2.232e+07,0,0,0,0,0,0.36,0.05,0,0,0.5,0.00071223,0.003769,0.0058173
29419,2.233e+07,0,0,0,0,0,0.36,0.05,0,0,0.5,0.00064948,0.004148,0.007589
29467,2.2341e+07,0,0,0,0,0,0.36,0.05,0,0,0.5,0.00064948,0.004148,0.007589
29511,2.2351e+07,0,0,0,0,0,0.35,0.05,0,0,0.5,0.00059019,0.0045081,0.0092523
29556,2.2361e+07,0,0,0,0,0,0.35,0.05,0,0,0.5,0.00053518,0.0048504,0.010779
29598,2.2371e+07,0,0,0,0,0,0.33,0.05,0,0,0.5,0.00035531,0.00084498,0.0073112
29642,2.2381e+07,0,0,0,0,0,0.33,0.05,0,0,0.5,0.00030412,0.0013341,0.0050294
29684,2.2391e+07,0,0,0,0,0,0.33,0.05,0,0,0.5,0.00030412,0.0013341,0.0050294
29728,2.2401e+07,0,0,0,0,0,0.33,0.05,0,0,0.5,0.00024495,0.0018218,0.0029046
29776,2.2414e+07,0,0,0,0,0,0.33,0.05,0,0,0.5,0.0002016,0.0022909,0.0010881
29821,2.2424e+07,0,0,0,0,0,0.33,0.05,0,0,0.5,0.00015097,0.0027384,0.0013583
29870,2.2434e+07,0,0,0,0,0,0.33,0.05,0,0,0.5,0.00010494,0.0031676,0.0031327
29915,2.2444e+07,0,0,0,0,0,0.33,0.05,0,0,0.5,6.3782e-05,0.0035746,0.0049842
29959,2.2454e+07,0,0,0,0,0,0.33,0.05,0,0,0.5,6.3782e-05,0.0035746,0.0049842
30001,2.2464e+07,0,0,0,0,0,0.33,0.05,0,0,0.5,2.9069e-05,0.0039587,0.006759
30045,2.2476e+07,0,0,0,0,0,0.32,0.05,0,0,0.5,0.0010841,0.0033167,0.0044771
30093,2.2486e+07,0,0,0,0,0,0.32,0.05,0,0,0.5,0.0010621,0.0037023,0.0059085
30138,2.2497e+07,0,0,0,0,0,0.32,0.05,0,0,0.5,0.0010435,0.0040704,0.0074037
30182,2.2507e+07,0,0,0,0,0,0.32,0.05,0,0,0.5,0.001029,0.0044233,0.0088962
30228,2.2518e+07,0,0,0,0,0,0.32,0.05,0,0,0.5,0.001029,0.0044233,0.0088962
30277,2.2527e+07,0,0,0,0,0,0.32,0.05,0,0,0.5,0.001015,0.0047566,0.01044
30323,2.2538e+07,0,0,0,0,0,0.32,0.05,0,0,0.5,0.0010065,0.0050756,0.011958
30368,2.2548e+07,0,0,0,0,0,0.32,0.05,0,0,0.5,0.0010021,0.0053781,0.013327
30412,2.2558e+07,0,0,0,0,0,0.32,0.05,0,0,0.5,0.00099895,0.0056633,0.014601
30457,2.2571e+07,0,0,0,0,0,0.31,0.05,0,0,0.5,0.0020953,0.0032081,0.0043892
30501,2.2581e+07,0,0,0,0,0,0.31,0.05,0,0,0.5,0.0020282,0.0035822,0.0057386
30545,2.2591e+07,0,0,0,0,0,0.31,0.05,0,0,0.5,0.0020282,0.0035822,0.0057386
30590,2.2601e+07,0,0,0,0,0,0.3,0.05,0,0,0.5,0.0019633,0.0039463,0.0072234
30634,2.2611e+07,0,0,0,0,0,0.3,0.05,0,0,0.5,0.0018995,0.0042871,0.008725
30680,2.2622e+07,0,0,0,0,0,0.3,0.05,0,0,0.5,0.0018369,0.0046165,0.010155
30730,2.2632e+07,0,0,0,0,0,0.3,0.05,0,0,0.5,0.0018369,0.0046165,0.010155
30774,2.2642e+07,0,0,0,0,0,0.3,0.05,0,0,0.5,0.0017744,0.0049323,0.011595
30819,2.2652e+07,0,0,0,0,0,0.3,0.05,0,0,0.5,0.0017244,0.0052302,0.012987
30863,2.2662e+07,0,0,0,0,0,0.3,0.05,0,0,0.5,0.0016623,0.0055154,0.014235
30908,2.2675e+07,0,0,0,0,0,0.3,0.05,0,0,0.5,0.0019837,0.0049474,0.012
30951,2.2685e+07,0,0,0,0,0,0.3,0.05,0,0,0.5,0.0018528,0.005234,0.013295
30996,2.2696e+07,0,0,0,0,0,0.3,0.05,0,0,0.5,0.0018528,0.005234,0.013295
31041,2.2706e+07,0,0,0,0,0,0.29,0.05,0,0,0.5,0.0017249,0.0055053,0.014561
31085,2.2716e+07,0,0,0,0,0,0.29,0.05,0,0,0.5,0.001601,0.0057685,0.015728
31136,2.2728e+07,0,0,0,0,0,0.29,0.05,0,0,0.5,0.0014588,0.0060144,0.016827
31184,2.2739e+07,0,0,0,0,0,0.29,0.05,0,0,0.5,0.001345,0.0062509,0.01791
31229,2.2749e+07,0,0,0,0,0,0.29,0.05,0,0,0.5,0.0012362,0.0064743,0.018901
31273,2.2759e+07,0,0,0,0,0,0.29,0.05,0,0,0.5,0.0012362,0.0064743,0.018901
31318,2.2769e+07,0,0,0,0,0,0.29,0.05,0,0,0.5,0.0011335,0.0066854,0.019866
31357,2.278e+07,0,0,0,0,0,0.3,0.05,0,0,0.5,0.0013603,0.0082852,0.027368
31401,2.279e+07,0,0,0,0,0,0.29,0.05,0,0,0.5,0.0012408,0.008395,0.028033
31446,2.2801e+07,0,0,0,0,0,0.29,0.05,0,0,0.5,0.0011301,0.0084978,0.028716
31493,2.2811e+07,0,0,0,0,0,0.29,0.05,0,0,0.5,0.0011301,0.0084978,0.028716
31538,2.2821e+07,0,0,0,0,0,0.29,0.05,0,0,0.5,0.0010274,0.0085921,0.02935
31582,2.2831e+07,0,0,0,0,0,0.29,0.05,0,0,0.5,0.00091199,0.0086838,0.029985
31633,2.2841e+07,0,0,0,0,0,0.29,0.05,0,0,0.5,0.00084182,0.0087726,0.030563
31678,2.2851e+07,0,0,0,0,0,0.29,0.05,0,0,0.5,0.00084182,0.0087726,0.030563
31723,2.2861e+07,0,0,0,0,0,0.29,0.05,0,0,0.5,0.0007595,0.0088551,0.031119
31768,2.2872e+07,0,0,0,0,0,0.29,0.05,0,0,0.5,0.00068305,0.0089323,0.031667
31809,2.2882e+07,0,0,0,0,0,0.27,0.05,0,0,0.5,0.00025736,0.0053741,0.015857
31854,2.2892e+07,0,0,0,0,0,0.27,0.05,0,0,0.5,0.00019004,0.0056118,0.017066
31896,2.2903e+07,0,0,0,0,0,0.27,0.05,0,0,0.5,0.00012762,0.005836,0.018192
31941,2.2913e+07,0,0,0,0,0,0.27,0.05,0,0,0.5,0.00012762,0.005836,0.018192
31987,2.2924e+07,0,0,0,0,0,0.27,0.05,0,0,0.5,2.8703e-05,0.0060464,0.019208
32033,2.2934e+07,0,0,0,0,0,0.27,0.05,0,0,0.5,5.491e-05,0.006249,0.020147
32082,2.2944e+07,0,0,0,0,0,0.27,0.05,0,0,0.5,0.00011025,0.0064418,0.021032
32126,2.2954e+07,0,0,0,0,0,0.27,0.05,0,0,0.5,0.00016171,0.0066239,0.021889
32171,2.2964e+07,0,0,0,0,0,0.27,0.05,0,0,0.5,0.00016171,0.0066239,0.021889
32217,2.2974e+07,0,0,0,0,0,0.27,0.05,0,0,0.5,0.00020795,0.0067966,0.022655
32257,2.2985e+07,0,0,0,0,0,0.27,0.05,0,0,0.5,2.6302e-05,0.0084015,0.030101
32303,2.2995e+07,0,0,0,0,0,0.27,0.05,0,0,0.5,2.4966e-05,0.0084767,0.030418
32347,2.3005e+07,0,0,0,0,0,0.27,0.05,0,0,0.5,2.8929e-05,0.0085464,0.030756
32393,2.3015e+07,0,0,0,0,0,0.27,0.05,0,0,0.5,3.3519e-05,0.0086111,0.031075
32437,2.3025e+07,0,0,0,0,0,0.27,0.05,0,0,0.5,3.3519e-05,0.0086111,0.031075
32482,2.3035e+07,0,0,0,0,0,0.27,0.05,0,0,0.5,3.4344e-05,0.0086715,0.031415
32530,2.3045e+07,0,0,0,0,0,0.27,0.05,0,0,0.5,3.1551e-05,0.0087276,0.031661
32576,2.3055e+07,0,0,0,0,0,0.27,0.05,0,0,0.5,2.6452e-05,0.0087801,0.031933
32621,2.3066e+07,0,0,0,0,0,0.27,0.05,0,0,0.5,2.0552e-05,0.0088283,0.032179
32665,2.3079e+07,0,0,0,0,0,0.25,0.05,0,0,0.5,0.00014441,0.0064462,0.0214
32710,2.309e+07,0,0,0,0,0,0.25,0.05,0,0,0.5,0.00014314,0.006595,0.0221
32753,2.31e+07,0,0,0,0,0,0.25,0.05,0,0,0.5,0.00014259,0.0067345,0.022736
32797,2.3111e+07,0,0,0,0,0,0.25,0.05,0,0,0.5,0.00014259,0.0067345,0.022736
32844,2.3121e+07,0,0,0,0,0,0.25,0.05,0,0,0.5,0.00014285,0.0068675,0.023354
32888,2.3131e+07,0,0,0,0,0,0.25,0.05,0,0,0.5,0.00014357,0.0069944,0.023995
32942,2.3143e+07,0,0,0,0,0,0.25,0.05,0,0,0.5,0.00014427,0.0071131,0.024548
32987,2.3153e+07,0,0,0,0,0,0.25,0.05,0,0,0.5,0.00014487,0.0072245,0.025088
33031,2.3164e+07,0,0,0,0,0,0.25,0.05,0,0,0.5,0.00014506,0.007329,0.025602
33076,2.3174e+07,0,0,0,0,0,0.26,0.05,0,0,0.5,0.0001448,0.0074267,0.026058
33118,2.3187e+07,0,0,0,0,0,0.26,0.05,0,0,0.5,0.00023808,0.008705,0.032055
33163,2.3197e+07,0,0,0,0,0,0.26,0.05,0,0,0.5,0.00024841,0.0087249,0.032181
33207,2.3207e+07,0,0,0,0,0,0.26,0.05,0,0,0.5,0.00024841,0.0087249,0.032181
33252,2.3218e+07,0,0,0,0,0,0.27,0.05,0,0,0.5,0.00025867,0.0087434,0.032362
33298,2.3227e+07,0,0,0,0,0,0.27,0.05,0,0,0.5,0.00026896,0.0087601,0.032472
33343,2.3237e+07,0,0,0,0,0,0.27,0.05,0,0,0.5,0.00027728,0.0087739,0.032535
33392,2.3248e+07,0,0,0,0,0,0.27,0.05,0,0,0.5,0.00028779,0.0087866,0.032621
33436,2.3258e+07,0,0,0,0,0,0.27,0.05,0,0,0.5,0.00028779,0.0087866,0.032621
33482,2.3268e+07,0,0,0,0,0,0.28,0.05,0,0,0.5,0.00029828,0.0087975,0.032696
33527,2.3278e+07,0,0,0,0,0,0.28,0.05,0,0,0.5,0.00030873,0.0088069,0.032759
33568,2.3292e+07,0,0,0,0,0,0.29,0.05,0,0,0.5,7.9852e-05,0.010424,0.040329
33612,2.3302e+07,0,0,0,0,0,0.29,0.05,0,0,0.5,6.6469e-05,0.010339,0.040029
33657,2.3312e+07,0,0,0,0,0,0.3,0.05,0,0,0.5,5.3229e-05,0.010259,0.039707
33702,2.3323e+07,0,0,0,0,0,0.3,0.05,0,0,0.5,5.3229e-05,0.010259,0.039707
33746,2.3332e+07,0,0,0,0,0,0.3,0.05,0,0,0.5,4.1757e-05,0.010181,0.03939
33795,2.3343e+07,0,0,0,0,0,0.31,0.05,0,0,0.5,3.4538e-05,0.010104,0.039099
33844,2.3353e+07,0,0,0,0,0,0.32,0.05,0,0,0.5,3.5415e-05,0.010032,0.038812
33888,2.3363e+07,0,0,0,0,0,0.32,0.05,0,0,0.5,3.5415e-05,0.010032,0.038812
33933,2.3373e+07,0,0,0,0,0,0.32,0.05,0,0,0.5,4.4424e-05,0.0099616,0.038568
33978,2.3383e+07,0,0,0,0,0,0.33,0.05,0,0,0.5,5.8297e-05,0.0098935,0.038282
34026,2.3396e+07,0,0,0,0,0,0.32,0.05,0,0,0.5,7.3205e-05,0.0072021,0.025904
34073,2.3409e+07,0,0,0,0,0,0.33,0.05,0,0,0.5,0.00019728,0.0072554,0.026202
34118,2.3419e+07,0,0,0,0,0,0.34,0.05,0,0,0.5,0.00019456,0.0073081,0.02644
34163,2.3429e+07,0,0,0,0,0,0.34,0.05,0,0,0.5,0.00019295,0.0073576,0.026722
34208,2.3439e+07,0,0,0,0,0,0.35,0.05,0,0,0.5,0.00019227,0.0074037,0.02696
34261,2.3452e+07,0,0,0,0,0,0.36,0.05,0,0,0.5,0.00019293,0.0074474,0.027185
34306,2.3462e+07,0,0,0,0,0,0.36,0.05,0,0,0.5,0.00019293,0.0074474,0.027185
34350,2.3473e+07,0,0,0,0,0,0.37,0.05,0,0,0.5,0.00019469,0.0074885,0.027391
34397,2.3483e+07,0,0,0,0,0,0.38,0.05,0,0,0.5,0.00019731,0.0075265,0.027585
34441,2.3496e+07,0,0,0,0,0,0.38,0.05,0,0,0.5,0.00056534,0.0073869,0.026996
34486,2.3509e+07,0,0,0,0,0,0.39,0.05,0,0,0.5,0.0005707,0.0074249,0.027198
34532,2.3519e+07,0,0,0,0,0,0.4,0.05,0,0,0.5,0.00055982,0.0074597,0.027345
34578,2.3529e+07,0,0,0,0,0,0.41,0.05,0,0,0.5,0.00054885,0.0074915,0.027478
34624,2.354e+07,0,0,0,0,0,0.42,0.05,0,0,0.5,0.00053808,0.00752,0.027599
34676,2.3553e+07,0,0,0,0,0,0.43,0.05,0,0,0.5,0.00052721,0.0075459,0.027715
34720,2.3563e+07,0,0,0,0,0,0.44,0.05,0,0,0.5,0.00051653,0.0075711,0.027827
34765,2.3574e+07,0,0,0,0,0,0.45,0.05,0,0,0.5,0.0005037,0.0075918,0.027997
34810,2.3584e+07,0,0,0,0,0,0.45,0.05,0,0,0.5,0.0005037,0.0075918,0.027997
34855,2.3595e+07,0,0,0,0,0,0.45,0.05,0,0,0.5,0.00049345,0.0068706,0.024669
34900,2.3606e+07,0,0,0,0,0,0.46,0.05,0,0,0.5,0.00054898,0.0069124,0.024868
34941,2.3616e+07,0,0,0,0,0,0.47,0.05,0,0,0.5,0.00051482,0.0069553,0.025072
34987,2.3627e+07,0,0,0,0,0,0.47,0.05,0,0,0.5,0.00051482,0.0069553,0.025072
35031,2.3637e+07,0,0,0,0,0,0.48,0.05,0,0,0.5,0.00048834,0.0069964,0.02523
35078,2.3647e+07,0,0,0,0,0,0.49,0.05,0,0,0.5,0.00045476,0.007034,0.025412
35130,2.3659e+07,0,0,0,0,0,0.5,0.05,0,0,0.5,0.00042884,0.0070694,0.025564
35174,2.367e+07,0,0,0,0,0,0.5,0.05,0,0,0.5,0.00039555,0.0071022,0.025728
35219,2.368e+07,0,0,0,0,0,0.5,0.05,0,0,0.5,0.00039555,0.0071022,0.025728
35263,2.369e+07,0,0,0,0,0,0.51,0.05,0,0,0.5,0.00036943,0.0071343,0.025896
35308,2.37e+07,0,0,0,0,0,0.52,0.05,0,0,0.5,0.00033583,0.0071636,0.026082
35347,2.3711e+07,0,0,0,0,0,0.53,0.05,0,0,0.5,0.00045222,0.0067524,0.024112
35392,2.3721e+07,0,0,0,0,0,0.54,0.05,0,0,0.5,0.00041873,0.0067829,0.024305
35437,2.3731e+07,0,0,0,0,0,0.55,0.05,0,0,0.5,0.00038743,0.0068129,0.024434
35484,2.3742e+07,0,0,0,0,0,0.55,0.05,0,0,0.5,0.00038743,0.0068129,0.024434
35529,2.3752e+07,0,0,0,0,0,0.56,0.05,0,0,0.5,0.00035866,0.0068427,0.024602
35578,2.3762e+07,0,0,0,0,0,0.57,0.05,0,0,0.5,0.00032592,0.0068697,0.024763
