LineNo,TimeUS,C,YC,YCS,Y0,Y1,Y2,Y3,Y4,W0,W1,W2,W3,W4
28612,2.2138e+07,1,0,4.756,216,288,0,72,144,0.2,0.2,0.2,0.2,0.2
28656,2.2148e+07,1,166.54,14.575,216.03,288.03,0.028806,72.029,144.03,0.2,0.2,0.2,0.2,0.2
28701,2.2162e+07,1,149.57,14.287,216.04,288.04,0.042551,72.043,144.04,0.2,0.2,0.2,0.2,0.2
28748,2.2175e+07,1,286.1,14.27,216.02,288.02,0.015117,72.015,144.02,0.2,0.2,0.2,0.2,0.2
28793,2.2185e+07,1,286.1,14.27,216.02,288.02,0.015117,72.015,144.02,0.2,0.2,0.2,0.2,0.2
28839,2.2195e+07,1,286.1,14.27,216.02,288.02,0.015117,72.015,144.02,0.2,0.2,0.2,0.2,0.2
28880,2.2206e+07,1,346.45,14.381,216.05,288.05,0.046166,72.046,144.05,0.2,0.2,0.2,0.2,0.2
28925,2.2215e+07,1,359.64,14.268,216.05,288.05,0.049657,72.05,144.05,0.2,0.2,0.2,0.2,0.2
28974,2.2225e+07,1,9.7247,14.325,216.03,288.03,0.030585,72.031,144.03,0.2,0.2,0.2,0.2,0.2
29019,2.2235e+07,1,338.14,14.558,216.04,288.04,0.036266,72.036,144.04,0.2,0.2,0.2,0.2,0.2
29065,2.2246e+07,1,338.14,14.558,216.04,288.04,0.036266,72.036,144.04,0.2,0.2,0.2,0.2,0.2
29109,2.2256e+07,1,349.32,14.338,216.05,288.05,0.050429,72.05,144.05,0.2,0.2,0.2,0.2,0.2
29154,2.2266e+07,1,5.0226,14.283,216.07,288.07,0.072263,72.072,144.07,0.2,0.2,0.2,0.2,0.2
29192,2.2277e+07,1,13.387,14.376,216.05,288.05,0.053951,72.054,144.05,0.2,0.2,0.2,0.2,0.2
29240,2.229e+07,1,14.805,14.4,216.07,288.07,0.071532,72.072,144.07,0.2,0.2,0.2,0.2,0.2
29284,2.23e+07,1,24.819,14.638,216.08,288.08,0.076857,72.077,144.08,0.2,0.2,0.2,0.2,0.2
29329,2.231e+07,1,24.819,14.638,216.08,288.08,0.076857,72.077,144.08,0.2,0.2,0.2,0.2,0.2
29374,2.232e+07,1,3.0363,14.273,216.08,288.08,0.08328,72.083,144.08,0.2,0.2,0.2,0.2,0.2
29423,2.233e+07,1,23.121,14.589,216.08,288.08,0.078602,72.079,144.08,0.2,0.2,0.2,0.2,0.2
29471,2.2341e+07,1,23.121,14.589,216.08,288.08,0.078602,72.079,144.08,0.2,0.2,0.2,0.2,0.2
29515,2.2351e+07,1,22.212,14.564,216.13,288.09,0.055097,72.072,144.12,0.20013,0.20035,0.20008,0.19971,0.19973
29560,2.2361e+07,1,22.212,14.564,216.13,288.09,0.055097,72.072,144.12,0.20013,0.20035,0.20008,0.19971,0.19973
29602,2.2371e+07,1,284.23,14.267,216.12,288.08,0.049261,72.066,144.11,0.20013,0.20035,0.20008,0.19971,0.19973
29646,2.2381e+07,1,284.23,14.267,216.12,288.08,0.047364,72.064,144.11,0.20013,0.20035,0.20008,0.19971,0.19973
29688,2.2391e+07,1,284.23,14.267,216.12,288.08,0.046062,72.063,144.11,0.20013,0.20035,0.20008,0.19971,0.19973
29732,2.2401e+07,1,284.23,14.267,216.12,288.08,0.048623,72.066,144.11,0.20013,0.20035,0.20008,0.19971,0.19973
29780,2.2414e+07,1,284.25,14.267,216.14,288.1,0.065484,72.083,144.13,0.20013,0.20035,0.20008,0.19971,0.19973
29825,2.2424e+07,1,284.27,14.267,216.15,288.11,0.077941,72.095,144.14,0.20013,0.20035,0.20008,0.19971,0.19973
29874,2.2434e+07,1,284.27,14.267,216.15,288.11,0.077941,72.095,144.14,0.20013,0.20035,0.20008,0.19971,0.19973
29919,2.2444e+07,1,284.28,14.267,216.16,288.12,0.08909,72.106,144.15,0.20013,0.20035,0.20008,0.19971,0.19973
29963,2.2454e+07,1,284.28,14.267,216.17,288.13,0.094529,72.112,144.16,0.20013,0.20035,0.20008,0.19971,0.19973
30005,2.2464e+07,1,284.28,14.267,216.17,288.13,0.091865,72.109,144.15,0.20013,0.20035,0.20008,0.19971,0.19973
30051,2.2476e+07,1,284.28,14.267,216.17,288.13,0.091536,72.109,144.15,0.20013,0.20035,0.20008,0.19971,0.19973
30097,2.2486e+07,1,284.28,14.267,216.17,288.13,0.094059,72.111,144.16,0.20013,0.20035,0.20008,0.19971,0.19973
30142,2.2497e+07,1,284.28,14.267,216.17,288.13,0.094059,72.111,144.16,0.20013,0.20035,0.20008,0.19971,0.19973
30186,2.2507e+07,1,284.3,14.267,216.19,288.15,0.11106,72.128,144.17,0.20013,0.20035,0.20008,0.19971,0.19973
30232,2.2518e+07,1,284.31,14.267,216.19,288.16,0.12067,72.138,144.18,0.20013,0.20035,0.20008,0.19971,0.19973
30281,2.2527e+07,1,284.33,14.267,216.24,288.17,0.11291,72.136,144.21,0.20018,0.20057,0.20017,0.19954,0.19954
30327,2.2538e+07,1,287.99,14.251,216.22,288.16,0.10172,72.125,144.2,0.20018,0.20057,0.20017,0.19954,0.19954
30372,2.2548e+07,1,287.99,14.251,216.22,288.16,0.10172,72.125,144.2,0.20018,0.20057,0.20017,0.19954,0.19954
30416,2.2558e+07,1,288,14.251,216.23,288.17,0.10957,72.133,144.21,0.20018,0.20057,0.20017,0.19954,0.19954
30461,2.2571e+07,1,288.02,14.251,216.25,288.19,0.12612,72.15,144.23,0.20018,0.20057,0.20017,0.19954,0.19954
30505,2.2581e+07,1,288,14.251,216.24,288.18,0.11554,72.139,144.21,0.20018,0.20057,0.20017,0.19954,0.19954
30549,2.2591e+07,1,288.01,14.251,216.24,288.18,0.12165,72.145,144.22,0.20018,0.20057,0.20017,0.19954,0.19954
30594,2.2601e+07,1,288.04,14.251,216.27,288.21,0.15082,72.174,144.25,0.20018,0.20057,0.20017,0.19954,0.19954
30638,2.2611e+07,1,288.03,14.251,216.27,288.21,0.1461,72.17,144.25,0.20018,0.20057,0.20017,0.19954,0.19954
30684,2.2622e+07,1,288.03,14.251,216.27,288.21,0.1461,72.17,144.25,0.20018,0.20057,0.20017,0.19954,0.19954
30734,2.2632e+07,1,288.03,14.251,216.26,288.2,0.13986,72.163,144.24,0.20018,0.20057,0.20017,0.19954,0.19954
30778,2.2642e+07,1,288.06,14.251,216.29,288.23,0.17197,72.196,144.27,0.20018,0.20057,0.20017,0.19954,0.19954
30823,2.2652e+07,1,288.06,14.251,216.29,288.23,0.17197,72.196,144.27,0.20018,0.20057,0.20017,0.19954,0.19954
30867,2.2662e+07,1,288.07,14.251,216.31,288.25,0.18438,72.208,144.28,0.20018,0.20057,0.20017,0.19954,0.19954
30912,2.2675e+07,1,288.07,14.251,216.3,288.24,0.18009,72.204,144.28,0.20018,0.20057,0.20017,0.19954,0.19954
30955,2.2685e+07,1,288.09,14.251,216.32,288.26,0.19964,72.223,144.3,0.20018,0.20057,0.20017,0.19954,0.19954
31000,2.2696e+07,1,288.1,14.251,216.33,288.27,0.21103,72.235,144.31,0.20018,0.20057,0.20017,0.19954,0.19954
31045,2.2706e+07,1,288.11,14.251,216.34,288.28,0.21986,72.243,144.32,0.20018,0.20057,0.20017,0.19954,0.19954
31089,2.2716e+07,1,288.12,14.251,216.35,288.29,0.22973,72.253,144.33,0.20018,0.20057,0.20017,0.19954,0.19954
31140,2.2728e+07,1,288.13,14.251,216.34,288.33,0.28312,72.265,144.3,0.19987,0.20026,0.2003,0.19992,0.19966
31188,2.2739e+07,1,288.13,14.251,216.34,288.33,0.28312,72.265,144.3,0.19987,0.20026,0.2003,0.19992,0.19966
31233,2.2749e+07,1,329.1,14.837,216.34,288.33,0.28623,72.269,144.3,0.19987,0.20026,0.2003,0.19992,0.19966
31277,2.2759e+07,1,329.09,14.837,216.34,288.33,0.28524,72.268,144.3,0.19987,0.20026,0.2003,0.19992,0.19966
31322,2.2769e+07,1,329.1,14.837,216.35,288.34,0.29107,72.273,144.31,0.19987,0.20026,0.2003,0.19992,0.19966
31361,2.278e+07,1,329.1,14.837,216.35,288.34,0.29217,72.275,144.31,0.19987,0.20026,0.2003,0.19992,0.19966
31405,2.279e+07,1,329.11,14.837,216.36,288.35,0.30754,72.29,144.32,0.19987,0.20026,0.2003,0.19992,0.19966
31450,2.2801e+07,1,329.11,14.837,216.36,288.35,0.30754,72.29,144.32,0.19987,0.20026,0.2003,0.19992,0.19966
31497,2.2811e+07,1,329.12,14.837,216.37,288.36,0.31455,72.297,144.33,0.19987,0.20026,0.2003,0.19992,0.19966
31542,2.2821e+07,1,329.12,14.837,216.37,288.36,0.31455,72.297,144.33,0.19987,0.20026,0.2003,0.19992,0.19966
31586,2.2831e+07,1,329.14,14.837,216.38,288.37,0.32597,72.308,144.34,0.19987,0.20026,0.2003,0.19992,0.19966
31637,2.2841e+07,1,329.14,14.837,216.38,288.37,0.32597,72.308,144.34,0.19987,0.20026,0.2003,0.19992,0.19966
31682,2.2851e+07,1,329.15,14.837,216.4,288.39,0.3394,72.322,144.36,0.19987,0.20026,0.2003,0.19992,0.19966
31727,2.2861e+07,1,329.16,14.837,216.4,288.39,0.34552,72.328,144.36,0.19987,0.20026,0.2003,0.19992,0.19966
31772,2.2872e+07,1,329.17,14.837,216.42,288.4,0.35894,72.341,144.38,0.19987,0.20026,0.2003,0.19992,0.19966
31813,2.2882e+07,1,329.17,14.837,216.42,288.41,0.3609,72.343,144.38,0.19987,0.20026,0.2003,0.19992,0.19966
31858,2.2892e+07,1,329.17,14.837,216.42,288.41,0.3609,72.343,144.38,0.19987,0.20026,0.2003,0.19992,0.19966
31900,2.2903e+07,1,329.17,14.837,216.42,288.41,0.36426,72.347,144.38,0.19987,0.20026,0.2003,0.19992,0.19966
31945,2.2913e+07,1,329.18,14.837,216.43,288.42,0.37491,72.357,144.39,0.19987,0.20026,0.2003,0.19992,0.19966
31991,2.2924e+07,1,329.18,14.837,216.43,288.41,0.36923,72.352,144.39,0.19987,0.20026,0.2003,0.19992,0.19966
32037,2.2934e+07,1,329.19,14.837,216.44,288.43,0.38384,72.366,144.4,0.19987,0.20026,0.2003,0.19992,0.19966
32086,2.2944e+07,1,329.2,14.837,216.41,288.43,0.43466,72.411,144.39,0.19982,0.19986,0.20009,0.2002,0.20003
32130,2.2954e+07,1,329.2,14.837,216.41,288.43,0.43466,72.411,144.39,0.19982,0.19986,0.20009,0.2002,0.20003
32175,2.2964e+07,1,63.775,14.297,216.41,288.44,0.43879,72.416,144.4,0.19982,0.19986,0.20009,0.2002,0.20003
32223,2.2974e+07,1,63.767,14.297,216.41,288.43,0.43713,72.414,144.4,0.19982,0.19986,0.20009,0.2002,0.20003
32261,2.2985e+07,1,63.773,14.297,216.41,288.44,0.44208,72.419,144.4,0.19982,0.19986,0.20009,0.2002,0.20003
32307,2.2995e+07,1,63.778,14.297,216.42,288.44,0.44503,72.422,144.4,0.19982,0.19986,0.20009,0.2002,0.20003
32351,2.3005e+07,1,63.778,14.297,216.42,288.44,0.44503,72.422,144.4,0.19982,0.19986,0.20009,0.2002,0.20003
32397,2.3015e+07,1,63.778,14.297,216.42,288.44,0.44503,72.422,144.4,0.19982,0.19986,0.20009,0.2002,0.20003
32441,2.3025e+07,1,63.796,14.297,216.43,288.46,0.4621,72.439,144.42,0.19982,0.19986,0.20009,0.2002,0.20003
32486,2.3035e+07,1,63.797,14.297,216.44,288.46,0.46621,72.443,144.42,0.19982,0.19986,0.20009,0.2002,0.20003
32534,2.3045e+07,1,63.813,14.297,216.45,288.48,0.47883,72.456,144.44,0.19982,0.19986,0.20009,0.2002,0.20003
32580,2.3055e+07,1,63.818,14.297,216.46,288.48,0.48463,72.461,144.44,0.19982,0.19986,0.20009,0.2002,0.20003
32625,2.3066e+07,1,63.832,14.297,216.47,288.49,0.49461,72.471,144.45,0.19982,0.19986,0.20009,0.2002,0.20003
32669,2.3079e+07,1,63.86,14.297,216.47,288.5,0.50227,72.479,144.46,0.19982,0.19986,0.20009,0.2002,0.20003
32714,2.309e+07,1,63.86,14.297,216.47,288.5,0.50227,72.479,144.46,0.19982,0.19986,0.20009,0.2002,0.20003
32757,2.31e+07,1,63.884,14.297,216.5,288.52,0.52703,72.504,144.49,0.19982,0.19986,0.20009,0.2002,0.20003
32801,2.3111e+07,1,63.899,14.297,216.52,288.55,0.54895,72.526,144.51,0.19982,0.19986,0.20009,0.2002,0.20003
32848,2.3121e+07,1,63.892,14.297,216.56,288.59,0.59166,72.568,144.55,0.19982,0.19986,0.20009,0.2002,0.20003
32892,2.3131e+07,1,63.911,14.297,216.6,288.62,0.62804,72.605,144.59,0.19982,0.19986,0.20009,0.2002,0.20003
32946,2.3143e+07,1,63.902,14.298,216.74,288.49,0.43522,72.644,144.83,0.20161,0.20144,0.19928,0.19812,0.19956
32991,2.3153e+07,1,248.24,14.795,216.78,288.54,0.47874,72.688,144.88,0.20161,0.20144,0.19928,0.19812,0.19956
33035,2.3164e+07,1,248.28,14.795,216.82,288.57,0.51178,72.721,144.91,0.20161,0.20144,0.19928,0.19812,0.19956
33080,2.3174e+07,1,248.28,14.795,216.82,288.57,0.51178,72.721,144.91,0.20161,0.20144,0.19928,0.19812,0.19956
33122,2.3187e+07,1,248.33,14.795,216.87,288.62,0.5656,72.775,144.96,0.20161,0.20144,0.19928,0.19812,0.19956
33167,2.3197e+07,1,248.4,14.795,216.94,288.69,0.63651,72.845,145.03,0.20161,0.20144,0.19928,0.19812,0.19956
33211,2.3207e+07,1,248.46,14.795,216.99,288.75,0.68953,72.898,145.09,0.20161,0.20144,0.19928,0.19812,0.19956
33256,2.3218e+07,1,248.53,14.795,217.06,288.82,0.75714,72.966,145.15,0.20161,0.20144,0.19928,0.19812,0.19956
33302,2.3227e+07,1,248.61,14.795,217.15,288.9,0.8421,73.051,145.24,0.20161,0.20144,0.19928,0.19812,0.19956
33347,2.3237e+07,1,248.68,14.795,217.22,288.97,0.91385,73.123,145.31,0.20161,0.20144,0.19928,0.19812,0.19956
33396,2.3248e+07,1,248.68,14.795,217.22,288.97,0.91385,73.123,145.31,0.20161,0.20144,0.19928,0.19812,0.19956
33440,2.3258e+07,1,248.77,14.795,217.31,289.06,1.0031,73.212,145.4,0.20161,0.20144,0.19928,0.19812,0.19956
33486,2.3268e+07,1,248.85,14.795,217.38,289.14,1.0812,73.29,145.48,0.20161,0.20144,0.19928,0.19812,0.19956
33531,2.3278e+07,1,248.95,14.795,217.49,289.24,1.1826,73.391,145.58,0.20161,0.20144,0.19928,0.19812,0.19956
33572,2.3292e+07,1,249.05,14.795,217.59,289.34,1.2838,73.493,145.68,0.20161,0.20144,0.19928,0.19812,0.19956
33616,2.3302e+07,1,249.15,14.795,217.68,289.44,1.3809,73.59,145.78,0.20161,0.20144,0.19928,0.19812,0.19956
33661,2.3312e+07,1,249.15,14.795,217.68,289.44,1.3809,73.59,145.78,0.20161,0.20144,0.19928,0.19812,0.19956
33706,2.3323e+07,1,249.24,14.795,217.77,289.53,1.4698,73.679,145.87,0.20161,0.20144,0.19928,0.19812,0.19956
33750,2.3332e+07,1,249.35,14.795,217.89,289.64,1.5821,73.791,145.98,0.20161,0.20144,0.19928,0.19812,0.19956
33799,2.3343e+07,1,249.35,14.795,217.89,289.64,1.5821,73.791,145.98,0.20161,0.20144,0.19928,0.19812,0.19956
33848,2.3353e+07,1,249.44,14.795,218.53,290.05,1.3188,73.35,146.1,0.20023,0.20581,0.20331,0.19626,0.19439
33892,2.3363e+07,1,305.56,14.23,218.65,290.16,1.4365,73.468,146.22,0.20023,0.20581,0.20331,0.19626,0.19439
33937,2.3373e+07,1,305.68,14.23,218.77,290.29,1.5621,73.593,146.34,0.20023,0.20581,0.20331,0.19626,0.19439
33982,2.3383e+07,1,305.78,14.23,218.87,290.39,1.6601,73.691,146.44,0.20023,0.20581,0.20331,0.19626,0.19439
34030,2.3396e+07,1,305.91,14.23,219,290.52,1.7918,73.823,146.57,0.20023,0.20581,0.20331,0.19626,0.19439
34077,2.3409e+07,1,306.03,14.23,219.12,290.64,1.9109,73.942,146.69,0.20023,0.20581,0.20331,0.19626,0.19439
34122,2.3419e+07,1,306.03,14.23,219.12,290.64,1.9109,73.942,146.69,0.20023,0.20581,0.20331,0.19626,0.19439
34167,2.3429e+07,1,306.18,14.23,219.27,290.79,2.0614,74.093,146.84,0.20023,0.20581,0.20331,0.19626,0.19439
34212,2.3439e+07,1,306.3,14.23,219.4,290.91,2.1838,74.215,146.97,0.20023,0.20581,0.20331,0.19626,0.19439
34265,2.3452e+07,1,306.51,14.23,219.6,291.12,2.39,74.421,147.17,0.20023,0.20581,0.20331,0.19626,0.19439
34310,2.3462e+07,1,306.63,14.23,219.72,291.23,2.5055,74.537,147.29,0.20023,0.20581,0.20331,0.19626,0.19439
34356,2.3473e+07,1,306.63,14.23,219.72,291.23,2.5055,74.537,147.29,0.20023,0.20581,0.20331,0.19626,0.19439
34401,2.3483e+07,1,306.77,14.23,219.86,291.38,2.6504,74.682,147.43,0.20023,0.20581,0.20331,0.19626,0.19439
34445,2.3496e+07,1,306.93,14.23,220.02,291.54,2.8102,74.841,147.59,0.20023,0.20581,0.20331,0.19626,0.19439
34490,2.3509e+07,1,307.08,14.23,220.16,291.68,2.9531,74.984,147.73,0.20023,0.20581,0.20331,0.19626,0.19439
34536,2.3519e+07,1,307.22,14.23,220.31,291.82,3.0976,75.129,147.88,0.20023,0.20581,0.20331,0.19626,0.19439
34582,2.3529e+07,1,307.22,14.23,220.31,291.82,3.0976,75.129,147.88,0.20023,0.20581,0.20331,0.19626,0.19439
34628,2.354e+07,1,307.39,14.23,221.37,292.04,2.414,74.721,148.56,0.20231,0.21442,0.20626,0.18967,0.18735
34680,2.3553e+07,1,300.15,13.889,221.53,292.2,2.5673,74.875,148.71,0.20231,0.21442,0.20626,0.18967,0.18735
34724,2.3563e+07,1,300.15,13.889,221.53,292.2,2.5673,74.875,148.71,0.20231,0.21442,0.20626,0.18967,0.18735
34769,2.3574e+07,1,300.34,13.889,221.73,292.4,2.7696,75.078,148.92,0.20231,0.21442,0.20626,0.18967,0.18735
34814,2.3584e+07,1,300.49,13.889,221.87,292.54,2.9172,75.225,149.06,0.20231,0.21442,0.20626,0.18967,0.18735
34859,2.3595e+07,1,300.67,13.889,222.05,292.72,3.0971,75.405,149.24,0.20231,0.21442,0.20626,0.18967,0.18735
34904,2.3606e+07,1,300.67,13.889,222.05,292.72,3.0971,75.405,149.24,0.20231,0.21442,0.20626,0.18967,0.18735
34945,2.3616e+07,1,300.91,13.889,222.3,292.97,3.3411,75.649,149.49,0.20231,0.21442,0.20626,0.18967,0.18735
34991,2.3627e+07,1,301.03,13.889,222.42,293.09,3.463,75.771,149.61,0.20231,0.21442,0.20626,0.18967,0.18735
35035,2.3637e+07,1,301.17,13.889,222.56,293.23,3.5988,75.907,149.74,0.20231,0.21442,0.20626,0.18967,0.18735
35082,2.3647e+07,1,301.17,13.889,222.56,293.23,3.5988,75.907,149.74,0.20231,0.21442,0.20626,0.18967,0.18735
35134,2.3659e+07,1,301.5,13.889,222.89,293.56,3.9296,76.238,150.08,0.20231,0.21442,0.20626,0.18967,0.18735
35178,2.367e+07,1,301.5,13.889,222.89,293.56,3.9296,76.238,150.08,0.20231,0.21442,0.20626,0.18967,0.18735
35223,2.368e+07,1,301.68,13.889,223.07,293.74,4.1187,76.427,150.26,0.20231,0.21442,0.20626,0.18967,0.18735
35267,2.369e+07,1,301.87,13.889,223.26,293.93,4.3056,76.614,150.45,0.20231,0.21442,0.20626,0.18967,0.18735
35312,2.37e+07,1,301.87,13.889,223.26,293.93,4.3056,76.614,150.45,0.20231,0.21442,0.20626,0.18967,0.18735
35351,2.3711e+07,1,302,13.889,223.39,294.06,4.4328,76.742,150.58,0.20231,0.21442,0.20626,0.18967,0.18735
35396,2.3721e+07,1,302.12,13.889,223.51,294.18,4.5571,76.866,150.7,0.20231,0.21442,0.20626,0.18967,0.18735
35441,2.3731e+07,1,302.25,13.889,223.64,294.31,4.688,76.997,150.83,0.20231,0.21442,0.20626,0.18967,0.18735
35488,2.3742e+07,1,302.25,13.889,223.64,294.31,4.688,76.997,150.83,0.20231,0.21442,0.20626,0.18967,0.18735
35533,2.3752e+07,1,302.4,13.889,224.38,295.99,5.2359,75.868,149.82,0.18904,0.21525,0.22044,0.19683,0.17844
35582,2.3762e+07,1,302.4,13.889,224.38,295.99,5.2359,75.868,149.82,0.18904,0.21525,0.22044,0.19683,0.17844
35627,2.3772e+07,1,341.15,13.995,224.54,296.15,5.3915,76.023,149.97,0.18904,0.21525,0.22044,0.19683,0.17844
35672,2.3782e+07,1,341.26,13.995,224.65,296.26,5.5024,76.134,150.08,0.18904,0.21525,0.22044,0.19683,0.17844
35716,2.3792e+07,1,341.39,13.995,224.78,296.39,5.6291,76.261,150.21,0.18904,0.21525,0.22044,0.19683,0.17844
35761,2.3802e+07,1,341.39,13.995,224.78,296.39,5.6291,76.261,150.21,0.18904,0.21525,0.22044,0.19683,0.17844
35805,2.3812e+07,1,341.5,13.995,224.89,296.5,5.7419,76.374,150.32,0.18904,0.21525,0.22044,0.19683,0.17844
35850,2.3822e+07,1,341.5,13.995,224.89,296.5,5.7419,76.374,150.32,0.18904,0.21525,0.22044,0.19683,0.17844
35892,2.3832e+07,1,341.67,13.995,225.06,296.67,5.9147,76.547,150.5,0.18904,0.21525,0.22044,0.19683,0.17844
35936,2.3843e+07,1,341.79,13.995,225.18,296.79,6.0365,76.668,150.62,0.18904,0.21525,0.22044,0.19683,0.17844
35982,2.3853e+07,1,341.89,13.995,225.28,296.89,6.1319,76.764,150.71,0.18904,0.21525,0.22044,0.19683,0.17844
36033,2.3863e+07,1,342.03,13.995,225.43,297.03,6.2767,76.909,150.86,0.18904,0.21525,0.22044,0.19683,0.17844
36079,2.3873e+07,1,342.17,13.995,225.56,297.17,6.4116,77.044,150.99,0.18904,0.21525,0.22044,0.19683,0.17844
36124,2.3883e+07,1,342.17,13.995,225.56,297.17,6.4116,77.044,150.99,0.18904,0.21525,0.22044,0.19683,0.17844
36168,2.3893e+07,1,342.26,13.995,225.65,297.26,6.5014,77.133,151.08,0.18904,0.21525,0.22044,0.19683,0.17844
36214,2.3903e+07,1,342.34,13.995,225.73,297.34,6.5849,77.217,151.17,0.18904,0.21525,0.22044,0.19683,0.17844
36252,2.3914e+07,1,342.46,13.995,225.85,297.46,6.7036,77.336,151.28,0.18904,0.21525,0.22044,0.19683,0.17844
36298,2.3924e+07,1,342.57,13.995,225.96,297.57,6.8118,77.444,151.39,0.18904,0.21525,0.22044,0.19683,0.17844
36342,2.3934e+07,1,342.62,13.995,226.01,297.62,6.8591,77.491,151.44,0.18904,0.21525,0.22044,0.19683,0.17844
36389,2.3944e+07,1,342.62,13.995,226.01,297.62,6.8591,77.491,151.44,0.18904,0.21525,0.22044,0.19683,0.17844
36433,2.3954e+07,1,342.69,13.995,226.55,297.87,6.5704,77.144,151.62,0.18844,0.21953,0.22355,0.19437,0.17412
36485,2.3964e+07,1,338.84,13.99,226.6,297.91,6.6137,77.187,151.67,0.18844,0.21953,0.22355,0.19437,0.17412
36530,2.3975e+07,1,338.91,13.99,226.66,297.98,6.6813,77.255,151.73,0.18844,0.21953,0.22355,0.19437,0.17412
36575,2.3985e+07,1,338.94,13.99,226.69,298.01,6.7117,77.285,151.76,0.18844,0.21953,0.22355,0.19437,0.17412
36620,2.3995e+07,1,338.94,13.99,226.69,298.01,6.7117,77.285,151.76,0.18844,0.21953,0.22355,0.19437,0.17412
36661,2.4005e+07,1,338.98,13.99,226.74,298.05,6.7521,77.326,151.81,0.18844,0.21953,0.22355,0.19437,0.17412
36705,2.4015e+07,1,338.98,13.99,226.74,298.05,6.7521,77.326,151.81,0.18844,0.21953,0.22355,0.19437,0.17412
36746,2.4026e+07,1,339,13.99,226.76,298.08,6.7757,77.35,151.83,0.18844,0.21953,0.22355,0.19437,0.17412
36791,2.4036e+07,1,339.04,13.991,226.8,298.11,6.8144,77.388,151.87,0.18844,0.21953,0.22355,0.19437,0.17412
36835,2.4046e+07,1,339.07,13.991,226.83,298.14,6.8433,77.417,151.9,0.18844,0.21953,0.22355,0.19437,0.17412
36879,2.4056e+07,1,339.07,13.991,226.83,298.14,6.8433,77.417,151.9,0.18844,0.21953,0.22355,0.19437,0.17412
36928,2.4066e+07,1,339.07,13.991,226.83,298.15,6.8464,77.421,151.9,0.18844,0.21953,0.22355,0.19437,0.17412
36972,2.4076e+07,1,339.07,13.991,226.83,298.15,6.8464,77.421,151.9,0.18844,0.21953,0.22355,0.19437,0.17412
37019,2.4086e+07,1,339.08,13.991,226.84,298.16,6.86,77.434,151.91,0.18844,0.21953,0.22355,0.19437,0.17412
37064,2.4096e+07,1,339.08,13.991,226.84,298.16,6.8563,77.431,151.91,0.18844,0.21953,0.22355,0.19437,0.17412
37108,2.4109e+07,1,339.08,13.991,226.84,298.16,6.8563,77.431,151.91,0.18844,0.21953,0.22355,0.19437,0.17412
37157,2.4122e+07,1,339.08,13.991,226.84,298.16,6.8563,77.431,151.91,0.18844,0.21953,0.22355,0.19437,0.17412
37200,2.4132e+07,1,339.04,13.991,226.81,298.12,6.8227,77.398,151.88,0.18844,0.21953,0.22355,0.19437,0.17412
37246,2.4142e+07,1,339,13.991,227.23,298.57,6.6341,76.756,151.62,0.18471,0.22261,0.2293,0.1944,0.16899
37291,2.4152e+07,1,339,13.991,227.23,298.57,6.6341,76.756,151.62,0.18471,0.22261,0.2293,0.1944,0.16899
37338,2.4162e+07,1,341.45,13.748,227.19,298.53,6.5924,76.715,151.58,0.18471,0.22261,0.2293,0.1944,0.16899
37384,2.4172e+07,1,341.38,13.748,227.12,298.46,6.5235,76.646,151.51,0.18471,0.22261,0.2293,0.1944,0.16899
37428,2.4182e+07,1,341.29,13.747,227.02,298.36,6.4211,76.537,151.4,0.18471,0.22261,0.2293,0.1944,0.16899
37473,2.4192e+07,1,341.29,13.747,227.02,298.36,6.4211,76.537,151.4,0.18471,0.22261,0.2293,0.1944,0.16899
37518,2.4202e+07,1,341.17,13.747,226.89,298.24,6.2971,76.413,151.28,0.18471,0.22261,0.2293,0.1944,0.16899
37564,2.4215e+07,1,341.08,13.747,226.81,298.15,6.2083,76.324,151.19,0.18471,0.22261,0.2293,0.1944,0.16899
37606,2.4225e+07,1,340.94,13.747,226.66,298.01,6.0672,76.183,151.05,0.18471,0.22261,0.2293,0.1944,0.16899
37650,2.4235e+07,1,340.7,13.748,226.45,297.79,5.8521,75.975,150.84,0.18471,0.22261,0.2293,0.1944,0.16899
37695,2.4245e+07,1,340.56,13.748,226.3,297.64,5.7091,75.832,150.69,0.18471,0.22261,0.2293,0.1944,0.16899
37739,2.4256e+07,1,340.56,13.748,226.3,297.64,5.7091,75.832,150.69,0.18471,0.22261,0.2293,0.1944,0.16899
37789,2.4266e+07,1,340.32,13.748,226.06,297.4,5.4673,75.59,150.45,0.18471,0.22261,0.2293,0.1944,0.16899
37833,2.4276e+07,1,340.15,13.748,225.89,297.23,5.2945,75.417,150.28,0.18471,0.22261,0.2293,0.1944,0.16899
37878,2.4286e+07,1,339.95,13.748,225.69,297.03,5.0988,75.221,150.08,0.18471,0.22261,0.2293,0.1944,0.16899
37923,2.4297e+07,1,339.95,13.748,225.69,297.03,5.0988,75.221,150.08,0.18471,0.22261,0.2293,0.1944,0.16899
37968,2.4308e+07,1,339.74,13.748,225.48,296.82,4.8867,75.009,149.87,0.18471,0.22261,0.2293,0.1944,0.16899
38012,2.4318e+07,1,339.57,13.748,225.31,296.65,4.7166,74.839,149.7,0.18471,0.22261,0.2293,0.1944,0.16899
38056,2.4328e+07,1,339.57,13.748,225.31,296.65,4.7166,74.839,149.7,0.18471,0.22261,0.2293,0.1944,0.16899
38103,2.4338e+07,1,339.36,13.748,227.44,296.18,2.0348,73.184,151.14,0.19235,0.24901,0.23469,0.17295,0.15099
38147,2.4349e+07,1,317.87,13.09,227.16,295.91,1.7596,72.908,150.86,0.19235,0.24901,0.23469,0.17295,0.15099
38193,2.4359e+07,1,317.66,13.09,226.95,295.7,1.5498,72.699,150.65,0.19235,0.24901,0.23469,0.17295,0.15099
38242,2.437e+07,1,317.66,13.09,226.95,295.7,1.5498,72.699,150.65,0.19235,0.24901,0.23469,0.17295,0.15099
38286,2.438e+07,1,317.43,13.09,226.72,295.47,1.3209,72.47,150.42,0.19235,0.24901,0.23469,0.17295,0.15099
38331,2.439e+07,1,317.21,13.09,226.48,295.24,1.08,72.222,150.18,0.19235,0.24901,0.23469,0.17295,0.15099
38375,2.44e+07,1,317.21,13.09,226.48,295.24,1.08,72.222,150.18,0.19235,0.24901,0.23469,0.17295,0.15099
38422,2.4411e+07,1,316.98,13.09,226.27,295.02,0.86871,72.017,149.97,0.19235,0.24901,0.23469,0.17295,0.15099
38464,2.4421e+07,1,316.76,13.09,226.05,294.8,0.65235,71.801,149.75,0.19235,0.24901,0.23469,0.17295,0.15099
38505,2.4431e+07,1,316.52,13.09,225.81,294.56,0.40865,71.557,149.51,0.19235,0.24901,0.23469,0.17295,0.15099
38550,2.4442e+07,1,316.23,13.09,225.52,294.27,0.1195,71.268,149.22,0.19235,0.24901,0.23469,0.17295,0.15099
38594,2.4452e+07,1,316.23,13.09,225.52,294.27,0.1195,71.268,149.22,0.19235,0.24901,0.23469,0.17295,0.15099
38642,2.4462e+07,1,316.02,13.09,225.31,294.06,359.91,71.06,149.01,0.19235,0.24901,0.23469,0.17295,0.15099
38690,2.4472e+07,1,315.82,13.09,225.11,293.86,359.71,70.856,148.81,0.19235,0.24901,0.23469,0.17295,0.15099
38735,2.4483e+07,1,315.61,13.09,224.9,293.65,359.5,70.653,148.61,0.19235,0.24901,0.23469,0.17295,0.15099
38779,2.4493e+07,1,315.42,13.09,224.71,293.46,359.31,70.459,148.41,0.19235,0.24901,0.23469,0.17295,0.15099
38825,2.4503e+07,1,315.42,13.09,224.71,293.46,359.31,70.459,148.41,0.19235,0.24901,0.23469,0.17295,0.15099
38869,2.4513e+07,1,315.16,13.09,224.45,293.2,359.05,70.203,148.15,0.19235,0.24901,0.23469,0.17295,0.15099
38908,2.4523e+07,1,314.97,13.09,224.26,293,358.86,70.005,147.96,0.19235,0.24901,0.23469,0.17295,0.15099
38953,2.4533e+07,1,314.8,13.09,224.09,292.84,358.69,69.841,147.79,0.19235,0.24901,0.23469,0.17295,0.15099
39000,2.4544e+07,1,314.61,13.09,226.08,296.06,358.73,66.317,145.43,0.16189,0.25809,0.2736,0.18088,0.12554
39044,2.4554e+07,1,314.61,13.09,226.08,296.06,358.73,66.317,145.43,0.16189,0.25809,0.2736,0.18088,0.12554
39090,2.4564e+07,1,334.08,12.364,225.9,295.88,358.56,66.139,145.25,0.16189,0.25809,0.2736,0.18088,0.12554
39138,2.4574e+07,1,333.92,12.364,225.74,295.72,358.39,65.977,145.09,0.16189,0.25809,0.2736,0.18088,0.12554
39183,2.4584e+07,1,333.75,12.364,225.58,295.56,358.23,65.811,144.92,0.16189,0.25809,0.2736,0.18088,0.12554
39227,2.4595e+07,1,333.75,12.364,225.58,295.56,358.23,65.811,144.92,0.16189,0.25809,0.2736,0.18088,0.12554
39273,2.4605e+07,1,333.6,12.364,225.43,295.41,358.08,65.663,144.77,0.16189,0.25809,0.2736,0.18088,0.12554
39318,2.4618e+07,1,333.4,12.364,225.22,295.2,357.88,65.457,144.57,0.16189,0.25809,0.2736,0.18088,0.12554
39360,2.4628e+07,1,333.25,12.364,225.08,295.06,357.73,65.316,144.42,0.16189,0.25809,0.2736,0.18088,0.12554
39405,2.4639e+07,1,333.09,12.364,224.91,294.89,357.57,65.147,144.26,0.16189,0.25809,0.2736,0.18088,0.12554
39450,2.4649e+07,1,332.89,12.364,224.72,294.7,357.37,64.955,144.06,0.16189,0.25809,0.2736,0.18088,0.12554
39495,2.466e+07,1,332.89,12.364,224.72,294.7,357.37,64.955,144.06,0.16189,0.25809,0.2736,0.18088,0.12554
39540,2.467e+07,1,332.89,12.364,224.72,294.7,357.37,64.955,144.06,0.16189,0.25809,0.2736,0.18088,0.12554
39589,2.4681e+07,1,332.73,12.364,224.56,294.54,357.21,64.794,143.9,0.16189,0.25809,0.2736,0.18088,0.12554
39633,2.4691e+07,1,332.56,12.364,224.39,294.37,357.04,64.626,143.73,0.16189,0.25809,0.2736,0.18088,0.12554
39678,2.4701e+07,1,332.39,12.364,224.21,294.19,356.87,64.447,143.56,0.16189,0.25809,0.2736,0.18088,0.12554
39726,2.4714e+07,1,332.23,12.364,224.05,294.03,356.71,64.29,143.4,0.16189,0.25809,0.2736,0.18088,0.12554
39771,2.4724e+07,1,332.08,12.364,223.9,293.88,356.56,64.139,143.25,0.16189,0.25809,0.2736,0.18088,0.12554
39815,2.4735e+07,1,331.95,12.364,226.77,293.72,353.35,61.7,144.94,0.16576,0.29544,0.28348,0.15285,0.10247
39859,2.4745e+07,1,319.93,11.63,226.64,293.59,353.22,61.569,144.81,0.16576,0.29544,0.28348,0.15285,0.10247
39904,2.4756e+07,1,319.77,11.63,226.48,293.43,353.06,61.408,144.65,0.16576,0.29544,0.28348,0.15285,0.10247
39949,2.4766e+07,1,319.77,11.63,226.48,293.43,353.06,61.408,144.65,0.16576,0.29544,0.28348,0.15285,0.10247
39994,2.4776e+07,1,319.5,11.63,226.21,293.16,352.8,61.141,144.38,0.16576,0.29544,0.28348,0.15285,0.10247
40044,2.4786e+07,1,319.39,11.63,226.11,293.05,352.69,61.032,144.28,0.16576,0.29544,0.28348,0.15285,0.10247
40088,2.4796e+07,1,319.28,11.63,225.99,292.94,352.57,60.918,144.16,0.16576,0.29544,0.28348,0.15285,0.10247
40133,2.4807e+07,1,319.28,11.63,225.99,292.94,352.57,60.918,144.16,0.16576,0.29544,0.28348,0.15285,0.10247
40177,2.4817e+07,1,319.16,11.63,225.87,292.81,352.45,60.793,144.04,0.16576,0.29544,0.28348,0.15285,0.10247
40217,2.4828e+07,1,319.05,11.63,225.76,292.7,352.34,60.682,143.93,0.16576,0.29544,0.28348,0.15285,0.10247
40261,2.4839e+07,1,319.05,11.63,225.76,292.7,352.34,60.682,143.93,0.16576,0.29544,0.28348,0.15285,0.10247
40308,2.4849e+07,1,318.93,11.63,225.64,292.59,352.22,60.569,143.81,0.16576,0.29544,0.28348,0.15285,0.10247
40352,2.4859e+07,1,318.81,11.63,225.52,292.47,352.1,60.448,143.69,0.16576,0.29544,0.28348,0.15285,0.10247
40396,2.487e+07,1,318.72,11.63,225.43,292.37,352.01,60.355,143.6,0.16576,0.29544,0.28348,0.15285,0.10247
40441,2.488e+07,1,318.61,11.63,225.32,292.27,351.9,60.248,143.49,0.16576,0.29544,0.28348,0.15285,0.10247
40491,2.4891e+07,1,318.61,11.63,225.32,292.27,351.9,60.248,143.49,0.16576,0.29544,0.28348,0.15285,0.10247
40537,2.4901e+07,1,318.48,11.63,225.19,292.14,351.77,60.118,143.36,0.16576,0.29544,0.28348,0.15285,0.10247
40582,2.4911e+07,1,318.39,11.63,225.1,292.05,351.68,60.027,143.27,0.16576,0.29544,0.28348,0.15285,0.10247
40627,2.4922e+07,1,318.28,11.63,224.99,291.94,351.57,59.916,143.16,0.16576,0.29544,0.28348,0.15285,0.10247
40679,2.4938e+07,1,318.17,11.63,224.88,291.83,351.46,59.807,143.05,0.16576,0.29544,0.28348,0.15285,0.10247
40723,2.4948e+07,1,318.17,11.63,224.88,291.83,351.46,59.807,143.05,0.16576,0.29544,0.28348,0.15285,0.10247
40771,2.4958e+07,1,318.07,11.63,225.84,291.98,350.51,58.694,143.29,0.16399,0.30874,0.2895,0.1443,0.093472
40816,2.4968e+07,1,316.37,11.207,225.73,291.88,350.41,58.592,143.19,0.16399,0.30874,0.2895,0.1443,0.093472
40862,2.4978e+07,1,316.29,11.207,225.65,291.79,350.32,58.505,143.1,0.16399,0.30874,0.2895,0.1443,0.093472
40911,2.4988e+07,1,316.21,11.207,225.57,291.72,350.25,58.427,143.02,0.16399,0.30874,0.2895,0.1443,0.093472
40955,2.4998e+07,1,316.13,11.207,225.48,291.63,350.16,58.342,142.94,0.16399,0.30874,0.2895,0.1443,0.093472
41000,2.5009e+07,1,316.13,11.207,225.48,291.63,350.16,58.342,142.94,0.16399,0.30874,0.2895,0.1443,0.093472
41045,2.5019e+07,1,316.07,11.207,225.43,291.58,350.1,58.286,142.88,0.16399,0.30874,0.2895,0.1443,0.093472
41090,2.5029e+07,1,316,11.207,225.36,291.51,350.04,58.219,142.81,0.16399,0.30874,0.2895,0.1443,0.093472
41132,2.5045e+07,1,315.9,11.207,225.26,291.41,349.94,58.116,142.71,0.16399,0.30874,0.2895,0.1443,0.093472
41177,2.5056e+07,1,315.83,11.207,225.18,291.33,349.86,58.042,142.64,0.16399,0.30874,0.2895,0.1443,0.093472
41221,2.5067e+07,1,315.76,11.207,225.12,291.27,349.79,57.974,142.57,0.16399,0.30874,0.2895,0.1443,0.093472
41267,2.5077e+07,1,315.7,11.207,225.05,291.2,349.73,57.912,142.51,0.16399,0.30874,0.2895,0.1443,0.093472
41311,2.5088e+07,1,315.7,11.207,225.05,291.2,349.73,57.912,142.51,0.16399,0.30874,0.2895,0.1443,0.093472
41360,2.5098e+07,1,315.64,11.207,224.99,291.14,349.67,57.85,142.45,0.16399,0.30874,0.2895,0.1443,0.093472
41405,2.5107e+07,1,315.56,11.207,224.92,291.07,349.6,57.779,142.37,0.16399,0.30874,0.2895,0.1443,0.093472
41450,2.5118e+07,1,315.47,11.207,224.83,290.98,349.51,57.686,142.28,0.16399,0.30874,0.2895,0.1443,0.093472
41497,2.5128e+07,1,315.42,11.207,225.3,290.33,348.42,57.392,143.16,0.17095,0.32165,0.28444,0.1334,0.089566
41539,2.5142e+07,1,310.66,10.884,225.62,289.89,347.68,57.147,143.72,0.17568,0.33112,0.28091,0.12577,0.086519
41581,2.5154e+07,1,307.63,10.655,225.56,289.83,347.62,57.09,143.67,0.17568,0.33112,0.28091,0.12577,0.086519
41625,2.5164e+07,1,307.57,10.655,225.5,289.78,347.56,57.031,143.61,0.17568,0.33112,0.28091,0.12577,0.086519
41669,2.5174e+07,1,307.57,10.655,225.5,289.78,347.56,57.031,143.61,0.17568,0.33112,0.28091,0.12577,0.086519
41716,2.5184e+07,1,307.52,10.655,225.44,289.72,347.5,56.976,143.55,0.17568,0.33112,0.28091,0.12577,0.086519
41760,2.5194e+07,1,307.45,10.655,225.38,289.66,347.44,56.914,143.49,0.17568,0.33112,0.28091,0.12577,0.086519
41809,2.5204e+07,1,307.4,10.655,225.32,289.6,347.38,56.855,143.43,0.17568,0.33112,0.28091,0.12577,0.086519
41853,2.5214e+07,1,307.4,10.655,225.32,289.6,347.38,56.855,143.43,0.17568,0.33112,0.28091,0.12577,0.086519
41898,2.5224e+07,1,307.34,10.655,225.27,289.55,347.33,56.801,143.38,0.17568,0.33112,0.28091,0.12577,0.086519
41943,2.5234e+07,1,307.29,10.655,225.22,289.49,347.28,56.747,143.32,0.17568,0.33112,0.28091,0.12577,0.086519
41981,2.5248e+07,1,307.24,10.655,225.16,289.44,347.22,56.697,143.27,0.17568,0.33112,0.28091,0.12577,0.086519
42026,2.5258e+07,1,307.2,10.655,225.12,289.4,347.18,56.655,143.23,0.17568,0.33112,0.28091,0.12577,0.086519
42071,2.5268e+07,1,307.15,10.655,225.08,289.35,347.14,56.608,143.19,0.17568,0.33112,0.28091,0.12577,0.086519
42116,2.5278e+07,1,307.11,10.655,225.04,289.32,347.1,56.572,143.15,0.17568,0.33112,0.28091,0.12577,0.086519
42162,2.5288e+07,1,307.07,10.655,225,289.27,347.06,56.529,143.11,0.17568,0.33112,0.28091,0.12577,0.086519
42206,2.5299e+07,1,307.07,10.655,225,289.27,347.06,56.529,143.11,0.17568,0.33112,0.28091,0.12577,0.086519
42255,2.5309e+07,1,307.03,10.655,224.96,289.23,347.01,56.487,143.06,0.17568,0.33112,0.28091,0.12577,0.086519
42301,2.5319e+07,1,306.99,10.655,224.92,289.19,346.98,56.45,143.03,0.17568,0.33112,0.28091,0.12577,0.086519
42347,2.5329e+07,1,306.99,10.655,224.92,289.19,346.98,56.45,143.03,0.17568,0.33112,0.28091,0.12577,0.086519
42393,2.534e+07,1,306.97,10.655,224.89,289.17,346.95,56.427,143,0.17568,0.33112,0.28091,0.12577,0.086519
42435,2.5352e+07,1,306.94,10.655,223.82,290.1,348.87,57.1,141.33,0.16477,0.30935,0.28849,0.14372,0.093667
42477,2.5365e+07,1,314.39,11.138,223.11,290.72,350.14,57.52,140.2,0.15677,0.29396,0.2936,0.15711,0.098559
42521,2.5375e+07,1,320.53,11.485,223.11,290.72,350.14,57.513,140.19,0.15677,0.29396,0.2936,0.15711,0.098559
42566,2.5385e+07,1,320.53,11.485,223.11,290.72,350.14,57.513,140.19,0.15677,0.29396,0.2936,0.15711,0.098559
42611,2.5395e+07,1,320.52,11.485,223.1,290.71,350.13,57.504,140.18,0.15677,0.29396,0.2936,0.15711,0.098559
42655,2.5405e+07,1,320.49,11.485,223.07,290.68,350.1,57.48,140.16,0.15677,0.29396,0.2936,0.15711,0.098559
42705,2.5415e+07,1,320.49,11.485,223.07,290.68,350.1,57.473,140.15,0.15677,0.29396,0.2936,0.15711,0.098559
42750,2.5425e+07,1,320.48,11.485,223.06,290.67,350.09,57.468,140.15,0.15677,0.29396,0.2936,0.15711,0.098559
42795,2.5435e+07,1,320.48,11.485,223.06,290.67,350.09,57.468,140.15,0.15677,0.29396,0.2936,0.15711,0.098559
42839,2.5445e+07,1,320.48,11.485,223.06,290.67,350.09,57.466,140.15,0.15677,0.29396,0.2936,0.15711,0.098559
42883,2.5457e+07,1,320.48,11.485,223.06,290.67,350.09,57.466,140.15,0.15677,0.29396,0.2936,0.15711,0.098559
42927,2.5468e+07,1,320.48,11.485,223.06,290.67,350.09,57.466,140.15,0.15677,0.29396,0.2936,0.15711,0.098559
42969,2.548e+07,1,320.48,11.485,223.06,290.67,350.09,57.47,140.15,0.15677,0.29396,0.2936,0.15711,0.098559
43014,2.549e+07,1,320.48,11.485,223.06,290.67,350.09,57.47,140.15,0.15677,0.29396,0.2936,0.15711,0.098559
43060,2.5501e+07,1,320.48,11.485,223.06,290.67,350.09,57.47,140.15,0.15677,0.29396,0.2936,0.15711,0.098559
43105,2.5511e+07,1,320.48,11.485,223.06,290.67,350.09,57.47,140.15,0.15677,0.29396,0.2936,0.15711,0.098559
43154,2.5521e+07,1,320.49,11.485,223.07,290.68,350.1,57.48,140.16,0.15677,0.29396,0.2936,0.15711,0.098559
43200,2.5531e+07,1,320.49,11.485,223.07,290.69,350.1,57.481,140.16,0.15677,0.29396,0.2936,0.15711,0.098559
43245,2.5541e+07,1,320.51,11.485,224.06,290.91,349.38,56.559,140.5,0.15497,0.30579,0.29947,0.14932,0.09046
43289,2.5552e+07,1,320.51,11.485,224.06,290.91,349.38,56.559,140.5,0.15497,0.30579,0.29947,0.14932,0.09046
43334,2.5562e+07,1,318.83,11.122,224.07,290.92,349.39,56.568,140.51,0.15497,0.30579,0.29947,0.14932,0.09046
43375,2.5574e+07,1,318.85,11.122,224.09,290.94,349.41,56.59,140.53,0.15497,0.30579,0.29947,0.14932,0.09046
43420,2.5588e+07,1,318.88,11.122,224.12,290.97,349.44,56.62,140.56,0.15497,0.30579,0.29947,0.14932,0.09046
43465,2.5598e+07,1,318.88,11.122,224.13,290.97,349.44,56.625,140.57,0.15497,0.30579,0.29947,0.14932,0.09046
43510,2.5608e+07,1,318.9,11.122,224.15,291,349.46,56.647,140.59,0.15497,0.30579,0.29947,0.14932,0.09046
43558,2.5619e+07,1,318.9,11.122,224.15,291,349.46,56.647,140.59,0.15497,0.30579,0.29947,0.14932,0.09046
43604,2.5629e+07,1,318.94,11.122,224.18,291.03,349.5,56.679,140.62,0.15497,0.30579,0.29947,0.14932,0.09046
43649,2.5639e+07,1,318.97,11.122,224.22,291.07,349.53,56.716,140.66,0.15497,0.30579,0.29947,0.14932,0.09046
43694,2.5649e+07,1,319,11.122,224.24,291.09,349.56,56.743,140.68,0.15497,0.30579,0.29947,0.14932,0.09046
43739,2.5667e+07,1,319.03,11.122,224.27,291.12,349.59,56.774,140.72,0.15497,0.30579,0.29947,0.14932,0.09046
43784,2.5678e+07,1,319.05,11.122,224.29,291.14,349.61,56.793,140.74,0.15497,0.30579,0.29947,0.14932,0.09046
43829,2.5688e+07,1,319.07,11.122,224.31,291.16,349.63,56.808,140.75,0.15497,0.30579,0.29947,0.14932,0.09046
43874,2.5698e+07,1,319.08,11.122,224.33,291.17,349.64,56.824,140.77,0.15497,0.30579,0.29947,0.14932,0.09046
43920,2.5708e+07,1,319.08,11.122,224.32,291.17,349.64,56.822,140.76,0.15497,0.30579,0.29947,0.14932,0.09046
43964,2.5719e+07,1,319.08,11.122,224.33,291.17,349.64,56.824,140.77,0.15497,0.30579,0.29947,0.14932,0.09046
44013,2.5729e+07,1,319.08,11.122,224.33,291.17,349.64,56.824,140.77,0.15497,0.30579,0.29947,0.14932,0.09046
44058,2.574e+07,1,319.09,11.122,224.33,291.18,349.65,56.833,140.78,0.15497,0.30579,0.29947,0.14932,0.09046
44104,2.5751e+07,1,319.09,11.122,224.33,291.18,349.65,56.828,140.77,0.15497,0.30579,0.29947,0.14932,0.09046
44149,2.5761e+07,1,319.08,11.122,223.84,292.95,351.7,56.887,138.56,0.1344,0.28056,0.31805,0.17414,0.092847
44187,2.5774e+07,1,331.67,10.897,223.66,294.22,353,56.774,137.06,0.11975,0.26362,0.33197,0.19187,0.092787
44231,2.5785e+07,1,340.18,10.624,223.66,294.21,352.99,56.766,137.05,0.11975,0.26362,0.33197,0.19187,0.092787
44275,2.5796e+07,1,340.16,10.624,223.63,294.19,352.97,56.741,137.02,0.11975,0.26362,0.33197,0.19187,0.092787
44321,2.5806e+07,1,340.13,10.624,223.61,294.16,352.94,56.718,137,0.11975,0.26362,0.33197,0.19187,0.092787
44366,2.5816e+07,1,340.11,10.624,223.58,294.14,352.92,56.693,136.97,0.11975,0.26362,0.33197,0.19187,0.092787
44410,2.5826e+07,1,340.11,10.624,223.58,294.14,352.92,56.693,136.97,0.11975,0.26362,0.33197,0.19187,0.092787
44459,2.5836e+07,1,340.07,10.624,223.54,294.1,352.88,56.65,136.93,0.11975,0.26362,0.33197,0.19187,0.092787
44503,2.5847e+07,1,340.03,10.624,223.51,294.06,352.84,56.616,136.9,0.11975,0.26362,0.33197,0.19187,0.092787
44548,2.5858e+07,1,340.03,10.624,223.51,294.06,352.84,56.616,136.9,0.11975,0.26362,0.33197,0.19187,0.092787
44594,2.5868e+07,1,339.99,10.624,223.47,294.02,352.8,56.575,136.86,0.11975,0.26362,0.33197,0.19187,0.092787
44635,2.588e+07,1,339.94,10.624,223.41,293.96,352.75,56.518,136.8,0.11975,0.26362,0.33197,0.19187,0.092787
44680,2.5894e+07,1,339.89,10.624,223.36,293.92,352.7,56.47,136.75,0.11975,0.26362,0.33197,0.19187,0.092787
44724,2.5904e+07,1,339.82,10.624,223.29,293.85,352.63,56.399,136.68,0.11975,0.26362,0.33197,0.19187,0.092787
44770,2.5914e+07,1,339.82,10.624,223.29,293.85,352.63,56.399,136.68,0.11975,0.26362,0.33197,0.19187,0.092787
44815,2.5924e+07,1,339.76,10.624,223.23,293.78,352.57,56.336,136.62,0.11975,0.26362,0.33197,0.19187,0.092787
44861,2.5934e+07,1,339.7,10.624,223.16,293.72,352.51,56.275,136.56,0.11975,0.26362,0.33197,0.19187,0.092787
44913,2.5945e+07,1,339.62,10.624,224.72,297.41,354.15,53.952,133.25,0.08215,0.2424,0.38471,0.21746,0.073278
44962,2.5955e+07,1,339.62,10.624,224.72,297.41,354.15,53.952,133.25,0.08215,0.2424,0.38471,0.21746,0.073278
45006,2.5965e+07,1,350.74,9.4427,224.64,297.33,354.07,53.867,133.16,0.08215,0.2424,0.38471,0.21746,0.073278
45051,2.5975e+07,1,350.74,9.4427,224.64,297.33,354.07,53.867,133.16,0.08215,0.2424,0.38471,0.21746,0.073278
45096,2.5989e+07,1,350.61,9.4427,224.51,297.2,353.94,53.736,133.03,0.08215,0.2424,0.38471,0.21746,0.073278
45138,2.6001e+07,1,350.54,9.4427,224.44,297.13,353.87,53.669,132.96,0.08215,0.2424,0.38471,0.21746,0.073278
45182,2.6011e+07,1,350.46,9.4427,224.36,297.05,353.79,53.587,132.88,0.08215,0.2424,0.38471,0.21746,0.073278
45229,2.6021e+07,1,350.37,9.4427,224.27,296.96,353.7,53.5,132.8,0.08215,0.2424,0.38471,0.21746,0.073278
45274,2.6031e+07,1,350.37,9.4427,224.27,296.96,353.7,53.5,132.8,0.08215,0.2424,0.38471,0.21746,0.073278
45321,2.6041e+07,1,350.31,9.4427,224.21,296.9,353.64,53.438,132.73,0.08215,0.2424,0.38471,0.21746,0.073278
45367,2.6051e+07,1,350.26,9.4428,224.16,296.85,353.59,53.389,132.68,0.08215,0.2424,0.38471,0.21746,0.073278
45412,2.6061e+07,1,350.2,9.4428,224.1,296.79,353.53,53.326,132.62,0.08215,0.2424,0.38471,0.21746,0.073278
45457,2.6071e+07,1,350.2,9.4428,224.1,296.79,353.53,53.326,132.62,0.08215,0.2424,0.38471,0.21746,0.073278
45502,2.6085e+07,1,350.13,9.4428,224.03,296.72,353.46,53.257,132.55,0.08215,0.2424,0.38471,0.21746,0.073278
45543,2.6097e+07,1,350.08,9.4428,223.97,296.66,353.41,53.202,132.5,0.08215,0.2424,0.38471,0.21746,0.073278
45588,2.6108e+07,1,350.03,9.4428,223.93,296.62,353.36,53.157,132.45,0.08215,0.2424,0.38471,0.21746,0.073278
45633,2.6118e+07,1,350.01,9.4428,223.91,296.6,353.34,53.138,132.43,0.08215,0.2424,0.38471,0.21746,0.073278
45679,2.6128e+07,1,349.98,9.4428,228.89,306.16,356.77,46.852,124.23,0.020669,0.17765,0.51764,0.25679,0.027246
45725,2.6139e+07,1,1.5715,6.5665,228.85,306.12,356.72,46.801,124.17,0.020669,0.17765,0.51764,0.25679,0.027246
45774,2.6149e+07,1,1.5715,6.5665,228.85,306.12,356.72,46.801,124.17,0.020669,0.17765,0.51764,0.25679,0.027246
45819,2.6158e+07,1,1.5359,6.5665,228.81,306.08,356.69,46.766,124.14,0.020669,0.17765,0.51764,0.25679,0.027246
45863,2.6169e+07,1,1.5141,6.5665,228.79,306.06,356.67,46.744,124.12,0.020669,0.17765,0.51764,0.25679,0.027246
45909,2.6179e+07,1,1.4948,6.5665,228.77,306.04,356.65,46.724,124.1,0.020669,0.17765,0.51764,0.25679,0.027246
45951,2.6196e+07,1,1.4784,6.5665,228.76,306.02,356.63,46.708,124.08,0.020669,0.17765,0.51764,0.25679,0.027246
45999,2.6209e+07,1,1.4483,6.5665,228.73,305.99,356.6,46.678,124.05,0.020669,0.17765,0.51764,0.25679,0.027246
46044,2.6218e+07,1,1.4276,6.5665,228.71,305.97,356.58,46.657,124.03,0.020669,0.17765,0.51764,0.25679,0.027246
46089,2.6229e+07,1,1.4276,6.5665,228.71,305.97,356.58,46.657,124.03,0.020669,0.17765,0.51764,0.25679,0.027246
46135,2.624e+07,1,1.407,6.5665,228.68,305.95,356.56,46.637,124.01,0.020669,0.17765,0.51764,0.25679,0.027246
46179,2.625e+07,1,1.3962,6.5666,228.67,305.94,356.55,46.626,124,0.020669,0.17765,0.51764,0.25679,0.027246
46228,2.626e+07,1,1.393,6.5666,228.67,305.94,356.55,46.623,124,0.020669,0.17765,0.51764,0.25679,0.027246
46272,2.627e+07,1,1.393,6.5666,228.67,305.94,356.55,46.623,124,0.020669,0.17765,0.51764,0.25679,0.027246
46317,2.6281e+07,1,1.3751,6.5666,228.65,305.92,356.53,46.605,123.98,0.020669,0.17765,0.51764,0.25679,0.027246
46362,2.6291e+07,1,1.3753,6.5666,228.65,305.92,356.53,46.605,123.98,0.020669,0.17765,0.51764,0.25679,0.027246
46404,2.6303e+07,1,1.3745,6.5666,228.65,305.92,356.53,46.604,123.98,0.020669,0.17765,0.51764,0.25679,0.027246
46446,2.6315e+07,1,1.3894,6.5666,228.67,305.93,356.54,46.618,123.99,0.020669,0.17765,0.51764,0.25679,0.027246
46490,2.6325e+07,1,1.3894,6.5666,228.67,305.93,356.54,46.618,123.99,0.020669,0.17765,0.51764,0.25679,0.027246
46537,2.6335e+07,1,1.407,6.5666,228.68,305.95,356.56,46.635,124.01,0.020669,0.17765,0.51764,0.25679,0.027246
46582,2.6345e+07,1,1.4147,6.5666,231.81,316.48,2.4753,42.804,113.75,0.00147,0.07327,0.59324,0.32478,0.0072415
46627,2.6356e+07,1,1.4147,6.5666,231.81,316.48,2.4753,42.804,113.75,0.00147,0.07327,0.59324,0.32478,0.0072415
46676,2.6366e+07,1,12.902,4.4715,231.84,316.5,2.4969,42.821,113.76,0.00147,0.07327,0.59324,0.32478,0.0072415
46721,2.6376e+07,1,12.92,4.4715,231.85,316.52,2.5147,42.837,113.78,0.00147,0.07327,0.59324,0.32478,0.0072415
46766,2.6387e+07,1,12.92,4.4715,231.85,316.52,2.5147,42.837,113.78,0.00147,0.07327,0.59324,0.32478,0.0072415
46810,2.6397e+07,1,12.93,4.4715,231.86,316.53,2.5262,42.846,113.79,0.00147,0.07327,0.59324,0.32478,0.0072415
46851,2.6409e+07,1,12.944,4.4714,231.87,316.54,2.5404,42.859,113.8,0.00147,0.07327,0.59324,0.32478,0.0072415
46899,2.6423e+07,1,12.949,4.4714,231.88,316.54,2.5457,42.863,113.81,0.00147,0.07327,0.59324,0.32478,0.0072415
46945,2.6433e+07,1,12.949,4.4714,231.88,316.54,2.5457,42.863,113.81,0.00147,0.07327,0.59324,0.32478,0.0072415
46987,2.6445e+07,1,12.956,4.4714,231.88,316.55,2.5529,42.869,113.81,0.00147,0.07327,0.59324,0.32478,0.0072415
47033,2.6455e+07,1,12.959,4.4713,231.89,316.55,2.5578,42.87,113.81,0.00147,0.07327,0.59324,0.32478,0.0072415
47081,2.6465e+07,1,12.955,4.4713,231.88,316.55,2.5548,42.865,113.81,0.00147,0.07327,0.59324,0.32478,0.0072415
47127,2.6476e+07,1,12.955,4.4713,231.88,316.55,2.5548,42.865,113.81,0.00147,0.07327,0.59324,0.32478,0.0072415
47172,2.6486e+07,1,12.962,4.4713,231.89,316.55,2.5621,42.871,113.82,0.00147,0.07327,0.59324,0.32478,0.0072415
47218,2.6496e+07,1,12.947,4.4713,231.87,316.54,2.547,42.855,113.8,0.00147,0.07327,0.59324,0.32478,0.0072415
47265,2.651e+07,1,12.947,4.4713,231.87,316.54,2.5478,42.855,113.8,0.00147,0.07327,0.59324,0.32478,0.0072415
47310,2.6524e+07,1,12.931,4.4713,231.86,316.52,2.5311,42.838,113.78,0.00147,0.07327,0.59324,0.32478,0.0072415
47357,2.6535e+07,1,12.931,4.4713,231.86,316.52,2.5311,42.838,113.78,0.00147,0.07327,0.59324,0.32478,0.0072415
47398,2.6547e+07,1,12.924,4.4713,231.85,316.51,2.5242,42.831,113.78,0.00147,0.07327,0.59324,0.32478,0.0072415
47443,2.6558e+07,1,12.939,4.4713,235.57,324.75,6.0911,39.041,105.69,6.1646e-05,0.030906,0.62759,0.34011,0.0013366
47490,2.6567e+07,1,16.121,3.487,235.56,324.73,6.0738,39.02,105.67,6.1646e-05,0.030906,0.62759,0.34011,0.0013366
47538,2.6577e+07,1,16.121,3.487,235.56,324.73,6.0738,39.02,105.67,6.1646e-05,0.030906,0.62759,0.34011,0.0013366
47583,2.6587e+07,1,16.128,3.487,235.56,324.74,6.0805,39.027,105.68,6.1646e-05,0.030906,0.62759,0.34011,0.0013366
47627,2.6597e+07,1,16.133,3.4871,235.57,324.75,6.0858,39.032,105.69,6.1646e-05,0.030906,0.62759,0.34011,0.0013366
47672,2.6608e+07,1,16.133,3.4871,235.57,324.75,6.0858,39.032,105.69,6.1646e-05,0.030906,0.62759,0.34011,0.0013366
47718,2.6619e+07,1,16.139,3.4871,235.58,324.75,6.0922,39.038,105.69,6.1646e-05,0.030906,0.62759,0.34011,0.0013366
47762,2.663e+07,1,16.178,3.4871,235.62,324.79,6.1312,39.077,105.73,6.1646e-05,0.030906,0.62759,0.34011,0.0013366
47804,2.6642e+07,1,16.174,3.4871,235.61,324.79,6.1274,39.074,105.73,6.1646e-05,0.030906,0.62759,0.34011,0.0013366
47848,2.6652e+07,1,16.201,3.4871,235.64,324.81,6.1539,39.1,105.75,6.1646e-05,0.030906,0.62759,0.34011,0.0013366
47893,2.6662e+07,1,15.873,3.4909,235.34,324.53,5.788,38.845,105.51,6.1646e-05,0.030906,0.62759,0.34011,0.0013366
47937,2.6672e+07,1,15.873,3.4909,235.34,324.53,5.788,38.845,105.51,6.1646e-05,0.030906,0.62759,0.34011,0.0013366
47987,2.6682e+07,1,15.895,3.4909,235.36,324.56,5.8095,38.866,105.53,6.1646e-05,0.030906,0.62759,0.34011,0.0013366
48032,2.6692e+07,1,15.932,3.4909,235.4,324.59,5.8472,38.904,105.57,6.1646e-05,0.030906,0.62759,0.34011,0.0013366
48076,2.6702e+07,1,15.932,3.4909,235.4,324.59,5.8472,38.904,105.57,6.1646e-05,0.030906,0.62759,0.34011,0.0013366
48121,2.6712e+07,1,15.96,3.4909,235.43,324.62,5.8744,38.931,105.6,6.1646e-05,0.030906,0.62759,0.34011,0.0013366
48163,2.6724e+07,1,15.991,3.4909,235.46,324.65,5.9058,38.962,105.63,6.1646e-05,0.030906,0.62759,0.34011,0.0013366
48208,2.6734e+07,1,15.991,3.4909,235.46,324.65,5.9058,38.962,105.63,6.1646e-05,0.030906,0.62759,0.34011,0.0013366
48251,2.6745e+07,1,16,3.491,235.47,324.66,5.9147,38.971,105.64,6.1646e-05,0.030906,0.62759,0.34011,0.0013366
48297,2.6756e+07,1,16.04,3.491,238.78,328.06,5.9769,35.61,102.53,2.1923e-05,0.024172,0.67152,0.30396,0.00032152
48342,2.6766e+07,1,16.04,3.491,238.78,328.06,5.9769,35.61,102.53,2.1923e-05,0.024172,0.67152,0.30396,0.00032152
48387,2.6776e+07,1,14.092,3.1314,238.8,328.08,5.9987,35.636,102.55,2.1923e-05,0.024172,0.67152,0.30396,0.00032152
48436,2.6786e+07,1,14.116,3.1314,238.82,328.1,6.0235,35.661,102.58,2.1923e-05,0.024172,0.67152,0.30396,0.00032152
48481,2.6796e+07,1,14.137,3.1314,238.84,328.12,6.0442,35.682,102.6,2.1923e-05,0.024172,0.67152,0.30396,0.00032152
48525,2.6806e+07,1,14.17,3.1315,238.88,328.16,6.0769,35.714,102.63,2.1923e-05,0.024172,0.67152,0.30396,0.00032152
48570,2.6816e+07,1,14.228,3.1315,238.93,328.21,6.1353,35.773,102.69,2.1923e-05,0.024172,0.67152,0.30396,0.00032152
48619,2.6834e+07,1,14.267,3.1315,238.97,328.25,6.1741,35.812,102.73,2.1923e-05,0.024172,0.67152,0.30396,0.00032152
48660,2.6846e+07,1,14.325,3.1315,239.03,328.31,6.2323,35.87,102.78,2.1923e-05,0.024172,0.67152,0.30396,0.00032152
48705,2.6856e+07,1,14.356,3.1315,239.06,328.34,6.2635,35.901,102.81,2.1923e-05,0.024172,0.67152,0.30396,0.00032152
48749,2.6866e+07,1,14.743,3.1278,239.43,328.68,6.686,36.205,103.12,2.1923e-05,0.024172,0.67152,0.30396,0.00032152
48794,2.6876e+07,1,14.782,3.1278,239.47,328.72,6.7253,36.244,103.16,2.1923e-05,0.024172,0.67152,0.30396,0.00032152
48841,2.6886e+07,1,14.782,3.1278,239.47,328.72,6.7253,36.244,103.16,2.1923e-05,0.024172,0.67152,0.30396,0.00032152
48888,2.6897e+07,1,14.84,3.1278,239.52,328.78,6.7836,36.302,103.21,2.1923e-05,0.024172,0.67152,0.30396,0.00032152
48934,2.6907e+07,1,14.896,3.1278,239.58,328.84,6.8399,36.358,103.27,2.1923e-05,0.024172,0.67152,0.30396,0.00032152
48979,2.6918e+07,1,14.896,3.1278,239.58,328.84,6.8399,36.358,103.27,2.1923e-05,0.024172,0.67152,0.30396,0.00032152
49023,2.6929e+07,1,14.954,3.1278,239.64,328.89,6.8978,36.415,103.33,2.1923e-05,0.024172,0.67152,0.30396,0.00032152
49065,2.6942e+07,1,15.014,3.1278,239.7,328.95,6.9578,36.475,103.39,2.1923e-05,0.024172,0.67152,0.30396,0.00032152
49111,2.6953e+07,1,15.084,3.1278,241.11,331.81,8.1961,35.053,100.58,2.1063e-05,0.017137,0.6797,0.30301,0.00013558
49156,2.6963e+07,1,15.755,2.9159,241.17,331.87,8.2585,35.114,100.65,2.1063e-05,0.017137,0.6797,0.30301,0.00013558
49201,2.6973e+07,1,15.755,2.9159,241.17,331.87,8.2585,35.114,100.65,2.1063e-05,0.017137,0.6797,0.30301,0.00013558
49245,2.6983e+07,1,15.825,2.9159,241.24,331.94,8.328,35.184,100.72,2.1063e-05,0.017137,0.6797,0.30301,0.00013558
49296,2.6993e+07,1,15.885,2.9159,241.3,332,8.3876,35.243,100.78,2.1063e-05,0.017137,0.6797,0.30301,0.00013558
49341,2.7004e+07,1,15.976,2.9159,241.39,332.09,8.4787,35.334,100.87,2.1063e-05,0.017137,0.6797,0.30301,0.00013558
49386,2.7014e+07,1,16.057,2.9159,241.47,332.17,8.5599,35.415,100.95,2.1063e-05,0.017137,0.6797,0.30301,0.00013558
49431,2.7024e+07,1,16.057,2.9159,241.47,332.17,8.5599,35.415,100.95,2.1063e-05,0.017137,0.6797,0.30301,0.00013558
49480,2.7041e+07,1,16.195,2.9159,241.61,332.31,8.6985,35.554,101.09,2.1063e-05,0.017137,0.6797,0.30301,0.00013558
49521,2.7053e+07,1,16.255,2.9159,241.67,332.37,8.7578,35.613,101.15,2.1063e-05,0.017137,0.6797,0.30301,0.00013558
49566,2.7063e+07,1,16.33,2.9159,241.75,332.45,8.8337,35.688,101.22,2.1063e-05,0.017137,0.6797,0.30301,0.00013558
49611,2.7073e+07,1,16.434,2.916,241.85,332.55,8.9369,35.791,101.33,2.1063e-05,0.017137,0.6797,0.30301,0.00013558
49655,2.7084e+07,1,16.434,2.916,241.85,332.55,8.9369,35.791,101.33,2.1063e-05,0.017137,0.6797,0.30301,0.00013558
49701,2.7094e+07,1,16.488,2.916,241.91,332.61,8.9911,35.845,101.38,2.1063e-05,0.017137,0.6797,0.30301,0.00013558
49750,2.7104e+07,1,16.571,2.916,241.99,332.69,9.074,35.928,101.46,2.1063e-05,0.017137,0.6797,0.30301,0.00013558
49794,2.7115e+07,1,16.625,2.916,242.04,332.74,9.1282,35.982,101.52,2.1063e-05,0.017137,0.6797,0.30301,0.00013558
49841,2.7125e+07,1,16.625,2.916,242.04,332.74,9.1282,35.982,101.52,2.1063e-05,0.017137,0.6797,0.30301,0.00013558
49886,2.7135e+07,1,16.709,2.916,244.11,335.11,9.5486,34.374,99.057,2.0611e-05,0.013897,0.6964,0.28963,5.2883e-05
49933,2.7149e+07,1,16.709,2.916,244.11,335.11,9.5486,34.374,99.057,2.0611e-05,0.013897,0.6964,0.28963,5.2883e-05
49974,2.7161e+07,1,16.272,2.745,245.32,336.65,9.9182,33.485,97.449,1.9435e-05,0.011795,0.70413,0.28403,2.8334e-05
50019,2.7172e+07,1,16.253,2.6407,245.38,336.72,9.9805,33.547,97.511,1.9435e-05,0.011795,0.70413,0.28403,2.8334e-05
50064,2.7182e+07,1,16.253,2.6407,245.38,336.72,9.9805,33.547,97.511,1.9435e-05,0.011795,0.70413,0.28403,2.8334e-05
50109,2.7192e+07,1,16.322,2.6408,245.45,336.79,10.049,33.615,97.58,1.9435e-05,0.011795,0.70413,0.28403,2.8334e-05
50153,2.7202e+07,1,16.383,2.6408,245.51,336.85,10.11,33.676,97.641,1.9435e-05,0.011795,0.70413,0.28403,2.8334e-05
50202,2.7212e+07,1,16.383,2.6408,245.51,336.85,10.11,33.676,97.641,1.9435e-05,0.011795,0.70413,0.28403,2.8334e-05
50246,2.7222e+07,1,16.455,2.6408,245.58,336.92,10.182,33.749,97.713,1.9435e-05,0.011795,0.70413,0.28403,2.8334e-05
50293,2.7232e+07,1,16.553,2.6408,245.68,337.02,10.28,33.846,97.811,1.9435e-05,0.011795,0.70413,0.28403,2.8334e-05
50337,2.7242e+07,1,16.553,2.6408,245.68,337.02,10.28,33.846,97.811,1.9435e-05,0.011795,0.70413,0.28403,2.8334e-05
50379,2.7253e+07,1,16.618,2.6408,245.75,337.08,10.345,33.912,97.876,1.9435e-05,0.011795,0.70413,0.28403,2.8334e-05
50423,2.7264e+07,1,16.676,2.6409,245.8,337.14,10.403,33.969,97.934,1.9435e-05,0.011795,0.70413,0.28403,2.8334e-05
50468,2.7275e+07,1,16.676,2.6409,245.8,337.14,10.403,33.969,97.934,1.9435e-05,0.011795,0.70413,0.28403,2.8334e-05
50510,2.7286e+07,1,16.815,2.6409,245.94,337.28,10.542,34.108,98.073,1.9435e-05,0.011795,0.70413,0.28403,2.8334e-05
50554,2.7296e+07,1,16.892,2.641,246.02,337.36,10.619,34.185,98.15,1.9435e-05,0.011795,0.70413,0.28403,2.8334e-05
50600,2.7306e+07,1,17.012,2.641,246.14,337.48,10.739,34.306,98.27,1.9435e-05,0.011795,0.70413,0.28403,2.8334e-05
50648,2.7317e+07,1,17.094,2.641,246.22,337.56,10.82,34.388,98.352,1.9435e-05,0.011795,0.70413,0.28403,2.8334e-05
50693,2.7327e+07,1,17.094,2.641,246.22,337.56,10.82,34.388,98.352,1.9435e-05,0.011795,0.70413,0.28403,2.8334e-05
50741,2.7337e+07,1,17.222,2.6411,246.35,337.69,10.949,34.516,98.48,1.9435e-05,0.011795,0.70413,0.28403,2.8334e-05
50785,2.7347e+07,1,17.318,2.6411,245.8,338.84,12.384,35.75,97.762,2.4191e-05,0.0081056,0.68184,0.31,2.7205e-05
50827,2.7359e+07,1,19.455,2.5783,245.93,338.97,12.513,35.882,97.892,2.4191e-05,0.0081056,0.68184,0.31,2.7205e-05
50871,2.7374e+07,1,19.635,2.5783,246.11,339.15,12.693,36.062,98.072,2.4191e-05,0.0081056,0.68184,0.31,2.7205e-05
50916,2.7385e+07,1,19.715,2.5783,246.19,339.23,12.773,36.142,98.152,2.4191e-05,0.0081056,0.68184,0.31,2.7205e-05
50961,2.7395e+07,1,19.817,2.5783,246.29,339.33,12.875,36.244,98.255,2.4191e-05,0.0081056,0.68184,0.31,2.7205e-05
51006,2.7405e+07,1,19.817,2.5783,246.29,339.33,12.875,36.244,98.255,2.4191e-05,0.0081056,0.68184,0.31,2.7205e-05
51054,2.7415e+07,1,19.897,2.5783,246.37,339.41,12.955,36.324,98.335,2.4191e-05,0.0081056,0.68184,0.31,2.7205e-05
51100,2.7425e+07,1,19.99,2.5783,246.46,339.5,13.048,36.416,98.428,2.4191e-05,0.0081056,0.68184,0.31,2.7205e-05
51144,2.7435e+07,1,20.148,2.5784,246.62,339.66,13.206,36.574,98.586,2.4191e-05,0.0081056,0.68184,0.31,2.7205e-05
51192,2.7444e+07,1,20.223,2.5784,246.7,339.74,13.281,36.649,98.661,2.4191e-05,0.0081056,0.68184,0.31,2.7205e-05
51237,2.7463e+07,1,20.289,2.5784,246.76,339.8,13.347,36.715,98.727,2.4191e-05,0.0081056,0.68184,0.31,2.7205e-05
51282,2.7473e+07,1,20.394,2.5784,246.87,339.91,13.452,36.82,98.832,2.4191e-05,0.0081056,0.68184,0.31,2.7205e-05
51327,2.7484e+07,1,20.394,2.5784,246.87,339.91,13.452,36.82,98.832,2.4191e-05,0.0081056,0.68184,0.31,2.7205e-05
51371,2.7494e+07,1,20.438,2.5784,246.91,339.95,13.496,36.864,98.877,2.4191e-05,0.0081056,0.68184,0.31,2.7205e-05
51416,2.7504e+07,1,20.501,2.5785,246.98,340.01,13.559,36.927,98.94,2.4191e-05,0.0081056,0.68184,0.31,2.7205e-05
51461,2.7514e+07,1,20.547,2.5785,247.02,340.06,13.606,36.973,98.986,2.4191e-05,0.0081056,0.68184,0.31,2.7205e-05
51510,2.7524e+07,1,20.547,2.5785,247.02,340.06,13.606,36.973,98.986,2.4191e-05,0.0081056,0.68184,0.31,2.7205e-05
51557,2.7534e+07,1,20.591,2.5785,247.06,340.1,13.649,37.017,99.029,2.4191e-05,0.0081056,0.68184,0.31,2.7205e-05
51601,2.7545e+07,1,20.652,2.5785,249.93,342.09,13.482,35.295,95.84,2.0761e-05,0.0070272,0.7046,0.28834,2.0761e-05
51646,2.7555e+07,1,20.652,2.5785,249.93,342.09,13.482,35.295,95.84,2.0761e-05,0.0070272,0.7046,0.28834,2.0761e-05
51691,2.7565e+07,1,19.542,2.4287,249.96,342.12,13.504,35.315,95.863,2.0761e-05,0.0070272,0.7046,0.28834,2.0761e-05
51731,2.7577e+07,1,19.588,2.4288,250.01,342.16,13.55,35.361,95.909,2.0761e-05,0.0070272,0.7046,0.28834,2.0761e-05
51772,2.7589e+07,1,19.602,2.4288,250.02,342.18,13.564,35.374,95.922,2.0761e-05,0.0070272,0.7046,0.28834,2.0761e-05
51817,2.7599e+07,1,19.624,2.4288,250.04,342.2,13.586,35.396,95.944,2.0761e-05,0.0070272,0.7046,0.28834,2.0761e-05
51861,2.7609e+07,1,19.632,2.4288,250.05,342.21,13.594,35.405,95.953,2.0761e-05,0.0070272,0.7046,0.28834,2.0761e-05
51906,2.7619e+07,1,19.657,2.4289,250.08,342.23,13.619,35.43,95.978,2.0761e-05,0.0070272,0.7046,0.28834,2.0761e-05
51957,2.7629e+07,1,19.657,2.4289,250.08,342.23,13.619,35.43,95.978,2.0761e-05,0.0070272,0.7046,0.28834,2.0761e-05
52001,2.7639e+07,1,19.645,2.4289,250.06,342.22,13.607,35.418,95.966,2.0761e-05,0.0070272,0.7046,0.28834,2.0761e-05
52046,2.7649e+07,1,19.661,2.4289,250.08,342.24,13.624,35.434,95.982,2.0761e-05,0.0070272,0.7046,0.28834,2.0761e-05
52090,2.7659e+07,1,19.651,2.4289,250.07,342.23,13.613,35.423,95.972,2.0761e-05,0.0070272,0.7046,0.28834,2.0761e-05
52133,2.7671e+07,1,19.651,2.4289,250.07,342.23,13.613,35.423,95.972,2.0761e-05,0.0070272,0.7046,0.28834,2.0761e-05
52174,2.7683e+07,1,19.633,2.429,250.05,342.21,13.596,35.406,95.954,2.0761e-05,0.0070272,0.7046,0.28834,2.0761e-05
52218,2.7693e+07,1,19.665,2.429,250.08,342.24,13.627,35.437,95.985,2.0761e-05,0.0070272,0.7046,0.28834,2.0761e-05
52264,2.7703e+07,1,19.629,2.429,250.05,342.21,13.592,35.402,95.95,2.0761e-05,0.0070272,0.7046,0.28834,2.0761e-05
52309,2.7713e+07,1,19.636,2.429,250.05,342.21,13.599,35.409,95.957,2.0761e-05,0.0070272,0.7046,0.28834,2.0761e-05
52356,2.7724e+07,1,19.636,2.429,250.05,342.21,13.599,35.409,95.957,2.0761e-05,0.0070272,0.7046,0.28834,2.0761e-05
52404,2.7734e+07,1,19.605,2.429,252.54,344.54,13.952,34.169,92.412,2.0456e-05,0.0055115,0.71487,0.27958,2.0456e-05
52449,2.7744e+07,1,19.404,2.2923,252.53,344.53,13.942,34.157,92.402,2.0456e-05,0.0055115,0.71487,0.27958,2.0456e-05
52493,2.7754e+07,1,19.404,2.2923,252.53,344.53,13.942,34.157,92.402,2.0456e-05,0.0055115,0.71487,0.27958,2.0456e-05
52538,2.7764e+07,1,19.401,2.2923,252.53,344.53,13.939,34.154,92.399,2.0456e-05,0.0055115,0.71487,0.27958,2.0456e-05
52579,2.7776e+07,1,19.379,2.2923,252.5,344.51,13.917,34.132,92.377,2.0456e-05,0.0055115,0.71487,0.27958,2.0456e-05
52619,2.7788e+07,1,19.363,2.2923,252.49,344.49,13.901,34.116,92.361,2.0456e-05,0.0055115,0.71487,0.27958,2.0456e-05
52664,2.7798e+07,1,19.341,2.2924,252.47,344.47,13.879,34.093,92.339,2.0456e-05,0.0055115,0.71487,0.27958,2.0456e-05
52709,2.7809e+07,1,19.305,2.2924,252.43,344.43,13.843,34.057,92.303,2.0456e-05,0.0055115,0.71487,0.27958,2.0456e-05
52754,2.7819e+07,1,19.299,2.2924,252.42,344.43,13.837,34.052,92.298,2.0456e-05,0.0055115,0.71487,0.27958,2.0456e-05
52800,2.7829e+07,1,19.267,2.2924,252.39,344.39,13.805,34.02,92.265,2.0456e-05,0.0055115,0.71487,0.27958,2.0456e-05
52848,2.784e+07,1,19.267,2.2924,252.39,344.39,13.805,34.02,92.265,2.0456e-05,0.0055115,0.71487,0.27958,2.0456e-05
52894,2.785e+07,1,19.226,2.2924,252.35,344.35,13.764,33.978,92.224,2.0456e-05,0.0055115,0.71487,0.27958,2.0456e-05
52938,2.786e+07,1,19.196,2.2925,252.32,344.32,13.735,33.949,92.195,2.0456e-05,0.0055115,0.71487,0.27958,2.0456e-05
52986,2.7873e+07,1,19.154,2.2925,252.28,344.28,13.692,33.906,92.152,2.0456e-05,0.0055115,0.71487,0.27958,2.0456e-05
53024,2.7886e+07,1,19.116,2.2925,252.24,344.24,13.654,33.869,92.114,2.0456e-05,0.0055115,0.71487,0.27958,2.0456e-05
53070,2.7896e+07,1,19.101,2.2925,252.23,344.23,13.639,33.853,92.099,2.0456e-05,0.0055115,0.71487,0.27958,2.0456e-05
53114,2.7906e+07,1,19.101,2.2925,252.23,344.23,13.639,33.853,92.099,2.0456e-05,0.0055115,0.71487,0.27958,2.0456e-05
53159,2.7916e+07,1,19.074,2.2925,252.2,344.2,13.612,33.826,92.072,2.0456e-05,0.0055115,0.71487,0.27958,2.0456e-05
53204,2.7927e+07,1,19.074,2.2925,252.2,344.2,13.612,33.826,92.072,2.0456e-05,0.0055115,0.71487,0.27958,2.0456e-05
53254,2.7938e+07,1,19.029,2.2925,252.15,344.16,13.568,33.782,92.028,2.0456e-05,0.0055115,0.71487,0.27958,2.0456e-05
53302,2.7948e+07,1,18.994,2.2926,254.28,347.8,15.317,33.714,87.923,2.1566e-05,0.0033075,0.69843,0.29822,2.1566e-05
53347,2.7958e+07,1,20.668,2.1613,254.26,347.78,15.294,33.692,87.901,2.1566e-05,0.0033075,0.69843,0.29822,2.1566e-05
53391,2.7968e+07,1,20.668,2.1613,254.26,347.78,15.294,33.692,87.901,2.1566e-05,0.0033075,0.69843,0.29822,2.1566e-05
53440,2.7982e+07,1,20.622,2.1613,254.22,347.73,15.248,33.646,87.855,2.1566e-05,0.0033075,0.69843,0.29822,2.1566e-05
53485,2.7991e+07,1,20.553,2.1613,254.15,347.66,15.179,33.576,87.786,2.1566e-05,0.0033075,0.69843,0.29822,2.1566e-05
53523,2.8005e+07,1,20.528,2.1613,254.12,347.64,15.154,33.552,87.761,2.1566e-05,0.0033075,0.69843,0.29822,2.1566e-05
