LineNo,TimeUS,C,IVN0,IVN1,IVN2,IVN3,IVN4,IVE0,IVE1,IVE2,IVE3,IVE4
28604,2.2138e+07,0,0,0,0,0,0,0,0,0,0,0
28648,2.2148e+07,0,0,0,0,0,0,0,0,0,0,0
28693,2.2162e+07,0,0,0,0,0,0,0,0,0,0,0
28740,2.2175e+07,0,0,0,0,0,0,0,0,0,0,0
28785,2.2185e+07,0,0,0,0,0,0,0,0,0,0,0
28831,2.2195e+07,0,0,0,0,0,0,0,0,0,0,0
28872,2.2206e+07,0,0,0,0,0,0,0,0,0,0,0
28917,2.2215e+07,0,0,0,0,0,0,0,0,0,0,0
28966,2.2225e+07,0,0,0,0,0,0,0,0,0,0,0
29011,2.2235e+07,0,0,0,0,0,0,0,0,0,0,0
29057,2.2246e+07,0,0,0,0,0,0,0,0,0,0,0
29101,2.2256e+07,0,0,0,0,0,0,0,0,0,0,0
29146,2.2266e+07,0,0,0,0,0,0,0,0,0,0,0
29184,2.2277e+07,0,0,0,0,0,0,0,0,0,0,0
29232,2.229e+07,0,0,0,0,0,0,0,0,0,0,0
29276,2.23e+07,0,0,0,0,0,0,0,0,0,0,0
29321,2.231e+07,0,0,0,0,0,0,0,0,0,0,0
29366,2.232e+07,0,0,0,0,0,0,0,0,0,0,0
29415,2.233e+07,0,0,0,0,0,0,0,0,0,0,0
29463,2.2341e+07,0,0,0,0,0,0,0,0,0,0,0
29507,2.2351e+07,0,0.0047923,0.031355,0.039462,0.017909,-0.0035181,-0.034334,-0.034227,-0.0089308,0.0065958,-0.0091042
29552,2.2361e+07,0,0.0047923,0.031355,0.039462,0.017909,-0.0035181,-0.034334,-0.034227,-0.0089308,0.0065958,-0.0091042
29594,2.2371e+07,0,0.0047923,0.031355,0.039462,0.017909,-0.0035181,-0.034334,-0.034227,-0.0089308,0.0065958,-0.0091042
29638,2.2381e+07,0,0.0047923,0.031355,0.039462,0.017909,-0.0035181,-0.034334,-0.034227,-0.0089308,0.0065958,-0.0091042
29680,2.2391e+07,0,0.0047923,0.031355,0.039462,0.017909,-0.0035181,-0.034334,-0.034227,-0.0089308,0.0065958,-0.0091042
29724,2.2401e+07,0,0.0047923,0.031355,0.039462,0.017909,-0.0035181,-0.034334,-0.034227,-0.0089308,0.0065958,-0.0091042
29772,2.2414e+07,0,0.0047923,0.031355,0.039462,0.017909,-0.0035181,-0.034334,-0.034227,-0.0089308,0.0065958,-0.0091042
29817,2.2424e+07,0,0.0047923,0.031355,0.039462,0.017909,-0.0035181,-0.034334,-0.034227,-0.0089308,0.0065958,-0.0091042
29866,2.2434e+07,0,0.0047923,0.031355,0.039462,0.017909,-0.0035181,-0.034334,-0.034227,-0.0089308,0.0065958,-0.0091042
29911,2.2444e+07,0,0.0047923,0.031355,0.039462,0.017909,-0.0035181,-0.034334,-0.034227,-0.0089308,0.0065958,-0.0091042
29955,2.2454e+07,0,0.0047923,0.031355,0.039462,0.017909,-0.0035181,-0.034334,-0.034227,-0.0089308,0.0065958,-0.0091042
29997,2.2464e+07,0,0.0047923,0.031355,0.039462,0.017909,-0.0035181,-0.034334,-0.034227,-0.0089308,0.0065958,-0.0091042
30041,2.2476e+07,0,0.0047923,0.031355,0.039462,0.017909,-0.0035181,-0.034334,-0.034227,-0.0089308,0.0065958,-0.0091042
30089,2.2486e+07,0,0.0047923,0.031355,0.039462,0.017909,-0.0035181,-0.034334,-0.034227,-0.0089308,0.0065958,-0.0091042
30134,2.2497e+07,0,0.0047923,0.031355,0.039462,0.017909,-0.0035181,-0.034334,-0.034227,-0.0089308,0.0065958,-0.0091042
30178,2.2507e+07,0,0.0047923,0.031355,0.039462,0.017909,-0.0035181,-0.034334,-0.034227,-0.0089308,0.0065958,-0.0091042
30224,2.2518e+07,0,0.0047923,0.031355,0.039462,0.017909,-0.0035181,-0.034334,-0.034227,-0.0089308,0.0065958,-0.0091042
30273,2.2527e+07,0,0.0047923,0.031355,0.039462,0.017909,-0.0035181,-0.034334,-0.034227,-0.0089308,0.0065958,-0.0091042
30319,2.2538e+07,0,-0.0065894,0.024676,0.036773,0.012984,-0.013801,-0.028057,-0.030628,-0.0016805,0.018758,0.0024613
30364,2.2548e+07,0,-0.0065894,0.024676,0.036773,0.012984,-0.013801,-0.028057,-0.030628,-0.0016805,0.018758,0.0024613
30408,2.2558e+07,0,-0.0065894,0.024676,0.036773,0.012984,-0.013801,-0.028057,-0.030628,-0.0016805,0.018758,0.0024613
30453,2.2571e+07,0,-0.0065894,0.024676,0.036773,0.012984,-0.013801,-0.028057,-0.030628,-0.0016805,0.018758,0.0024613
30497,2.2581e+07,0,-0.0065894,0.024676,0.036773,0.012984,-0.013801,-0.028057,-0.030628,-0.0016805,0.018758,0.0024613
30541,2.2591e+07,0,-0.0065894,0.024676,0.036773,0.012984,-0.013801,-0.028057,-0.030628,-0.0016805,0.018758,0.0024613
30586,2.2601e+07,0,-0.0065894,0.024676,0.036773,0.012984,-0.013801,-0.028057,-0.030628,-0.0016805,0.018758,0.0024613
30630,2.2611e+07,0,-0.0065894,0.024676,0.036773,0.012984,-0.013801,-0.028057,-0.030628,-0.0016805,0.018758,0.0024613
30676,2.2622e+07,0,-0.0065894,0.024676,0.036773,0.012984,-0.013801,-0.028057,-0.030628,-0.0016805,0.018758,0.0024613
30726,2.2632e+07,0,-0.0065894,0.024676,0.036773,0.012984,-0.013801,-0.028057,-0.030628,-0.0016805,0.018758,0.0024613
30770,2.2642e+07,0,-0.0065894,0.024676,0.036773,0.012984,-0.013801,-0.028057,-0.030628,-0.0016805,0.018758,0.0024613
30815,2.2652e+07,0,-0.0065894,0.024676,0.036773,0.012984,-0.013801,-0.028057,-0.030628,-0.0016805,0.018758,0.0024613
30859,2.2662e+07,0,-0.0065894,0.024676,0.036773,0.012984,-0.013801,-0.028057,-0.030628,-0.0016805,0.018758,0.0024613
30904,2.2675e+07,0,-0.0065894,0.024676,0.036773,0.012984,-0.013801,-0.028057,-0.030628,-0.0016805,0.018758,0.0024613
30947,2.2685e+07,0,-0.0065894,0.024676,0.036773,0.012984,-0.013801,-0.028057,-0.030628,-0.0016805,0.018758,0.0024613
30992,2.2696e+07,0,-0.0065894,0.024676,0.036773,0.012984,-0.013801,-0.028057,-0.030628,-0.0016805,0.018758,0.0024613
31037,2.2706e+07,0,-0.0065894,0.024676,0.036773,0.012984,-0.013801,-0.028057,-0.030628,-0.0016805,0.018758,0.0024613
31081,2.2716e+07,0,-0.0065894,0.024676,0.036773,0.012984,-0.013801,-0.028057,-0.030628,-0.0016805,0.018758,0.0024613
31132,2.2728e+07,0,-0.0065894,0.024676,0.036773,0.012984,-0.013801,-0.028057,-0.030628,-0.0016805,0.018758,0.0024613
31180,2.2739e+07,0,-0.02551,0.0085767,0.025248,0.0014569,-0.029883,-0.011269,-0.017742,0.012695,0.03793,0.023124
31225,2.2749e+07,0,-0.02551,0.0085767,0.025248,0.0014569,-0.029883,-0.011269,-0.017742,0.012695,0.03793,0.023124
31269,2.2759e+07,0,-0.02551,0.0085767,0.025248,0.0014569,-0.029883,-0.011269,-0.017742,0.012695,0.03793,0.023124
31314,2.2769e+07,0,-0.02551,0.0085767,0.025248,0.0014569,-0.029883,-0.011269,-0.017742,0.012695,0.03793,0.023124
31353,2.278e+07,0,-0.02551,0.0085767,0.025248,0.0014569,-0.029883,-0.011269,-0.017742,0.012695,0.03793,0.023124
31397,2.279e+07,0,-0.02551,0.0085767,0.025248,0.0014569,-0.029883,-0.011269,-0.017742,0.012695,0.03793,0.023124
31442,2.2801e+07,0,-0.02551,0.0085767,0.025248,0.0014569,-0.029883,-0.011269,-0.017742,0.012695,0.03793,0.023124
31489,2.2811e+07,0,-0.02551,0.0085767,0.025248,0.0014569,-0.029883,-0.011269,-0.017742,0.012695,0.03793,0.023124
31534,2.2821e+07,0,-0.02551,0.0085767,0.025248,0.0014569,-0.029883,-0.011269,-0.017742,0.012695,0.03793,0.023124
31578,2.2831e+07,0,-0.02551,0.0085767,0.025248,0.0014569,-0.029883,-0.011269,-0.017742,0.012695,0.03793,0.023124
31629,2.2841e+07,0,-0.02551,0.0085767,0.025248,0.0014569,-0.029883,-0.011269,-0.017742,0.012695,0.03793,0.023124
31674,2.2851e+07,0,-0.02551,0.0085767,0.025248,0.0014569,-0.029883,-0.011269,-0.017742,0.012695,0.03793,0.023124
31719,2.2861e+07,0,-0.02551,0.0085767,0.025248,0.0014569,-0.029883,-0.011269,-0.017742,0.012695,0.03793,0.023124
31764,2.2872e+07,0,-0.02551,0.0085767,0.025248,0.0014569,-0.029883,-0.011269,-0.017742,0.012695,0.03793,0.023124
31805,2.2882e+07,0,-0.02551,0.0085767,0.025248,0.0014569,-0.029883,-0.011269,-0.017742,0.012695,0.03793,0.023124
31850,2.2892e+07,0,-0.02551,0.0085767,0.025248,0.0014569,-0.029883,-0.011269,-0.017742,0.012695,0.03793,0.023124
31892,2.2903e+07,0,-0.02551,0.0085767,0.025248,0.0014569,-0.029883,-0.011269,-0.017742,0.012695,0.03793,0.023124
31937,2.2913e+07,0,-0.02551,0.0085767,0.025248,0.0014569,-0.029883,-0.011269,-0.017742,0.012695,0.03793,0.023124
31983,2.2924e+07,0,-0.02551,0.0085767,0.025248,0.0014569,-0.029883,-0.011269,-0.017742,0.012695,0.03793,0.023124
32029,2.2934e+07,0,-0.02551,0.0085767,0.025248,0.0014569,-0.029883,-0.011269,-0.017742,0.012695,0.03793,0.023124
32078,2.2944e+07,0,-0.022965,0.0039364,0.014504,-0.005873,-0.029015,-0.013911,-0.01629,0.0085697,0.02629,0.012396
32122,2.2954e+07,0,-0.022965,0.0039364,0.014504,-0.005873,-0.029015,-0.013911,-0.01629,0.0085697,0.02629,0.012396
32167,2.2964e+07,0,-0.022965,0.0039364,0.014504,-0.005873,-0.029015,-0.013911,-0.01629,0.0085697,0.02629,0.012396
32213,2.2974e+07,0,-0.022965,0.0039364,0.014504,-0.005873,-0.029015,-0.013911,-0.01629,0.0085697,0.02629,0.012396
32253,2.2985e+07,0,-0.022965,0.0039364,0.014504,-0.005873,-0.029015,-0.013911,-0.01629,0.0085697,0.02629,0.012396
32299,2.2995e+07,0,-0.022965,0.0039364,0.014504,-0.005873,-0.029015,-0.013911,-0.01629,0.0085697,0.02629,0.012396
32343,2.3005e+07,0,-0.022965,0.0039364,0.014504,-0.005873,-0.029015,-0.013911,-0.01629,0.0085697,0.02629,0.012396
32389,2.3015e+07,0,-0.022965,0.0039364,0.014504,-0.005873,-0.029015,-0.013911,-0.01629,0.0085697,0.02629,0.012396
32433,2.3025e+07,0,-0.022965,0.0039364,0.014504,-0.005873,-0.029015,-0.013911,-0.01629,0.0085697,0.02629,0.012396
32478,2.3035e+07,0,-0.022965,0.0039364,0.014504,-0.005873,-0.029015,-0.013911,-0.01629,0.0085697,0.02629,0.012396
32526,2.3045e+07,0,-0.022965,0.0039364,0.014504,-0.005873,-0.029015,-0.013911,-0.01629,0.0085697,0.02629,0.012396
32572,2.3055e+07,0,-0.022965,0.0039364,0.014504,-0.005873,-0.029015,-0.013911,-0.01629,0.0085697,0.02629,0.012396
32617,2.3066e+07,0,-0.022965,0.0039364,0.014504,-0.005873,-0.029015,-0.013911,-0.01629,0.0085697,0.02629,0.012396
32661,2.3079e+07,0,-0.022965,0.0039364,0.014504,-0.005873,-0.029015,-0.013911,-0.01629,0.0085697,0.02629,0.012396
32706,2.309e+07,0,-0.022965,0.0039364,0.014504,-0.005873,-0.029015,-0.013911,-0.01629,0.0085697,0.02629,0.012396
32749,2.31e+07,0,-0.022965,0.0039364,0.014504,-0.005873,-0.029015,-0.013911,-0.01629,0.0085697,0.02629,0.012396
32793,2.3111e+07,0,-0.022965,0.0039364,0.014504,-0.005873,-0.029015,-0.013911,-0.01629,0.0085697,0.02629,0.012396
32840,2.3121e+07,0,-0.022965,0.0039364,0.014504,-0.005873,-0.029015,-0.013911,-0.01629,0.0085697,0.02629,0.012396
32884,2.3131e+07,0,-0.022965,0.0039364,0.014504,-0.005873,-0.029015,-0.013911,-0.01629,0.0085697,0.02629,0.012396
32938,2.3143e+07,0,-0.022965,0.0039364,0.014504,-0.005873,-0.029015,-0.013911,-0.01629,0.0085697,0.02629,0.012396
32983,2.3153e+07,0,-0.013768,0.045303,0.037684,-0.026086,-0.05787,-0.09267,-0.065481,-0.00089552,0.011804,-0.044904
33027,2.3164e+07,0,-0.013768,0.045303,0.037684,-0.026086,-0.05787,-0.09267,-0.065481,-0.00089552,0.011804,-0.044904
33072,2.3174e+07,0,-0.013768,0.045303,0.037684,-0.026086,-0.05787,-0.09267,-0.065481,-0.00089552,0.011804,-0.044904
33114,2.3187e+07,0,-0.013768,0.045303,0.037684,-0.026086,-0.05787,-0.09267,-0.065481,-0.00089552,0.011804,-0.044904
33159,2.3197e+07,0,-0.013768,0.045303,0.037684,-0.026086,-0.05787,-0.09267,-0.065481,-0.00089552,0.011804,-0.044904
33203,2.3207e+07,0,-0.013768,0.045303,0.037684,-0.026086,-0.05787,-0.09267,-0.065481,-0.00089552,0.011804,-0.044904
33248,2.3218e+07,0,-0.013768,0.045303,0.037684,-0.026086,-0.05787,-0.09267,-0.065481,-0.00089552,0.011804,-0.044904
33294,2.3227e+07,0,-0.013768,0.045303,0.037684,-0.026086,-0.05787,-0.09267,-0.065481,-0.00089552,0.011804,-0.044904
33339,2.3237e+07,0,-0.013768,0.045303,0.037684,-0.026086,-0.05787,-0.09267,-0.065481,-0.00089552,0.011804,-0.044904
33388,2.3248e+07,0,-0.013768,0.045303,0.037684,-0.026086,-0.05787,-0.09267,-0.065481,-0.00089552,0.011804,-0.044904
33432,2.3258e+07,0,-0.013768,0.045303,0.037684,-0.026086,-0.05787,-0.09267,-0.065481,-0.00089552,0.011804,-0.044904
33478,2.3268e+07,0,-0.013768,0.045303,0.037684,-0.026086,-0.05787,-0.09267,-0.065481,-0.00089552,0.011804,-0.044904
33523,2.3278e+07,0,-0.013768,0.045303,0.037684,-0.026086,-0.05787,-0.09267,-0.065481,-0.00089552,0.011804,-0.044904
33564,2.3292e+07,0,-0.013768,0.045303,0.037684,-0.026086,-0.05787,-0.09267,-0.065481,-0.00089552,0.011804,-0.044904
33608,2.3302e+07,0,-0.013768,0.045303,0.037684,-0.026086,-0.05787,-0.09267,-0.065481,-0.00089552,0.011804,-0.044904
33653,2.3312e+07,0,-0.013768,0.045303,0.037684,-0.026086,-0.05787,-0.09267,-0.065481,-0.00089552,0.011804,-0.044904
33698,2.3323e+07,0,-0.013768,0.045303,0.037684,-0.026086,-0.05787,-0.09267,-0.065481,-0.00089552,0.011804,-0.044904
33742,2.3332e+07,0,-0.013768,0.045303,0.037684,-0.026086,-0.05787,-0.09267,-0.065481,-0.00089552,0.011804,-0.044904
33791,2.3343e+07,0,-0.013768,0.045303,0.037684,-0.026086,-0.05787,-0.09267,-0.065481,-0.00089552,0.011804,-0.044904
33840,2.3353e+07,0,0.037967,0.15674,0.092717,-0.064965,-0.099144,-0.26426,-0.15841,-0.01313,-0.028833,-0.18373
33884,2.3363e+07,0,0.037967,0.15674,0.092717,-0.064965,-0.099144,-0.26426,-0.15841,-0.01313,-0.028833,-0.18373
33929,2.3373e+07,0,0.037967,0.15674,0.092717,-0.064965,-0.099144,-0.26426,-0.15841,-0.01313,-0.028833,-0.18373
33974,2.3383e+07,0,0.037967,0.15674,0.092717,-0.064965,-0.099144,-0.26426,-0.15841,-0.01313,-0.028833,-0.18373
34022,2.3396e+07,0,0.037967,0.15674,0.092717,-0.064965,-0.099144,-0.26426,-0.15841,-0.01313,-0.028833,-0.18373
34069,2.3409e+07,0,0.037967,0.15674,0.092717,-0.064965,-0.099144,-0.26426,-0.15841,-0.01313,-0.028833,-0.18373
34114,2.3419e+07,0,0.037967,0.15674,0.092717,-0.064965,-0.099144,-0.26426,-0.15841,-0.01313,-0.028833,-0.18373
34159,2.3429e+07,0,0.037967,0.15674,0.092717,-0.064965,-0.099144,-0.26426,-0.15841,-0.01313,-0.028833,-0.18373
34204,2.3439e+07,0,0.037967,0.15674,0.092717,-0.064965,-0.099144,-0.26426,-0.15841,-0.01313,-0.028833,-0.18373
34257,2.3452e+07,0,0.037967,0.15674,0.092717,-0.064965,-0.099144,-0.26426,-0.15841,-0.01313,-0.028833,-0.18373
34302,2.3462e+07,0,0.037967,0.15674,0.092717,-0.064965,-0.099144,-0.26426,-0.15841,-0.01313,-0.028833,-0.18373
34346,2.3473e+07,0,0.037967,0.15674,0.092717,-0.064965,-0.099144,-0.26426,-0.15841,-0.01313,-0.028833,-0.18373
34393,2.3483e+07,0,0.037967,0.15674,0.092717,-0.064965,-0.099144,-0.26426,-0.15841,-0.01313,-0.028833,-0.18373
34437,2.3496e+07,0,0.037967,0.15674,0.092717,-0.064965,-0.099144,-0.26426,-0.15841,-0.01313,-0.028833,-0.18373
34482,2.3509e+07,0,0.037967,0.15674,0.092717,-0.064965,-0.099144,-0.26426,-0.15841,-0.01313,-0.028833,-0.18373
34528,2.3519e+07,0,0.037967,0.15674,0.092717,-0.064965,-0.099144,-0.26426,-0.15841,-0.01313,-0.028833,-0.18373
34574,2.3529e+07,0,0.037967,0.15674,0.092717,-0.064965,-0.099144,-0.26426,-0.15841,-0.01313,-0.028833,-0.18373
34620,2.354e+07,0,-0.075023,0.081491,-0.022477,-0.23578,-0.27328,-0.28005,-0.11953,0.073841,0.038993,-0.17648
34672,2.3553e+07,0,-0.075023,0.081491,-0.022477,-0.23578,-0.27328,-0.28005,-0.11953,0.073841,0.038993,-0.17648
34716,2.3563e+07,0,-0.075023,0.081491,-0.022477,-0.23578,-0.27328,-0.28005,-0.11953,0.073841,0.038993,-0.17648
34761,2.3574e+07,0,-0.075023,0.081491,-0.022477,-0.23578,-0.27328,-0.28005,-0.11953,0.073841,0.038993,-0.17648
34806,2.3584e+07,0,-0.075023,0.081491,-0.022477,-0.23578,-0.27328,-0.28005,-0.11953,0.073841,0.038993,-0.17648
34851,2.3595e+07,0,-0.075023,0.081491,-0.022477,-0.23578,-0.27328,-0.28005,-0.11953,0.073841,0.038993,-0.17648
34896,2.3606e+07,0,-0.075023,0.081491,-0.022477,-0.23578,-0.27328,-0.28005,-0.11953,0.073841,0.038993,-0.17648
34937,2.3616e+07,0,-0.075023,0.081491,-0.022477,-0.23578,-0.27328,-0.28005,-0.11953,0.073841,0.038993,-0.17648
34983,2.3627e+07,0,-0.075023,0.081491,-0.022477,-0.23578,-0.27328,-0.28005,-0.11953,0.073841,0.038993,-0.17648
35027,2.3637e+07,0,-0.075023,0.081491,-0.022477,-0.23578,-0.27328,-0.28005,-0.11953,0.073841,0.038993,-0.17648
35074,2.3647e+07,0,-0.075023,0.081491,-0.022477,-0.23578,-0.27328,-0.28005,-0.11953,0.073841,0.038993,-0.17648
35126,2.3659e+07,0,-0.075023,0.081491,-0.022477,-0.23578,-0.27328,-0.28005,-0.11953,0.073841,0.038993,-0.17648
35170,2.367e+07,0,-0.075023,0.081491,-0.022477,-0.23578,-0.27328,-0.28005,-0.11953,0.073841,0.038993,-0.17648
35215,2.368e+07,0,-0.075023,0.081491,-0.022477,-0.23578,-0.27328,-0.28005,-0.11953,0.073841,0.038993,-0.17648
35259,2.369e+07,0,-0.075023,0.081491,-0.022477,-0.23578,-0.27328,-0.28005,-0.11953,0.073841,0.038993,-0.17648
35304,2.37e+07,0,-0.075023,0.081491,-0.022477,-0.23578,-0.27328,-0.28005,-0.11953,0.073841,0.038993,-0.17648
35343,2.3711e+07,0,-0.075023,0.081491,-0.022477,-0.23578,-0.27328,-0.28005,-0.11953,0.073841,0.038993,-0.17648
35388,2.3721e+07,0,-0.075023,0.081491,-0.022477,-0.23578,-0.27328,-0.28005,-0.11953,0.073841,0.038993,-0.17648
35433,2.3731e+07,0,-0.075023,0.081491,-0.022477,-0.23578,-0.27328,-0.28005,-0.11953,0.073841,0.038993,-0.17648
35480,2.3742e+07,0,-0.075023,0.081491,-0.022477,-0.23578,-0.27328,-0.28005,-0.11953,0.073841,0.038993,-0.17648
35525,2.3752e+07,0,0.13883,0.29888,0.20375,-0.0097667,-0.061554,-0.3589,-0.20042,-0.0070555,-0.028022,-0.24556
35574,2.3762e+07,0,0.13883,0.29888,0.20375,-0.0097667,-0.061554,-0.3589,-0.20042,-0.0070555,-0.028022,-0.24556
35619,2.3772e+07,0,0.13883,0.29888,0.20375,-0.0097667,-0.061554,-0.3589,-0.20042,-0.0070555,-0.028022,-0.24556
35664,2.3782e+07,0,0.13883,0.29888,0.20375,-0.0097667,-0.061554,-0.3589,-0.20042,-0.0070555,-0.028022,-0.24556
35708,2.3792e+07,0,0.13883,0.29888,0.20375,-0.0097667,-0.061554,-0.3589,-0.20042,-0.0070555,-0.028022,-0.24556
35753,2.3802e+07,0,0.13883,0.29888,0.20375,-0.0097667,-0.061554,-0.3589,-0.20042,-0.0070555,-0.028022,-0.24556
35797,2.3812e+07,0,0.13883,0.29888,0.20375,-0.0097667,-0.061554,-0.3589,-0.20042,-0.0070555,-0.028022,-0.24556
35842,2.3822e+07,0,0.13883,0.29888,0.20375,-0.0097667,-0.061554,-0.3589,-0.20042,-0.0070555,-0.028022,-0.24556
35884,2.3832e+07,0,0.13883,0.29888,0.20375,-0.0097667,-0.061554,-0.3589,-0.20042,-0.0070555,-0.028022,-0.24556
35928,2.3843e+07,0,0.13883,0.29888,0.20375,-0.0097667,-0.061554,-0.3589,-0.20042,-0.0070555,-0.028022,-0.24556
35974,2.3853e+07,0,0.13883,0.29888,0.20375,-0.0097667,-0.061554,-0.3589,-0.20042,-0.0070555,-0.028022,-0.24556
36025,2.3863e+07,0,0.13883,0.29888,0.20375,-0.0097667,-0.061554,-0.3589,-0.20042,-0.0070555,-0.028022,-0.24556
36071,2.3873e+07,0,0.13883,0.29888,0.20375,-0.0097667,-0.061554,-0.3589,-0.20042,-0.0070555,-0.028022,-0.24556
36116,2.3883e+07,0,0.13883,0.29888,0.20375,-0.0097667,-0.061554,-0.3589,-0.20042,-0.0070555,-0.028022,-0.24556
36160,2.3893e+07,0,0.13883,0.29888,0.20375,-0.0097667,-0.061554,-0.3589,-0.20042,-0.0070555,-0.028022,-0.24556
36206,2.3903e+07,0,0.13883,0.29888,0.20375,-0.0097667,-0.061554,-0.3589,-0.20042,-0.0070555,-0.028022,-0.24556
36244,2.3914e+07,0,0.13883,0.29888,0.20375,-0.0097667,-0.061554,-0.3589,-0.20042,-0.0070555,-0.028022,-0.24556
36290,2.3924e+07,0,0.13883,0.29888,0.20375,-0.0097667,-0.061554,-0.3589,-0.20042,-0.0070555,-0.028022,-0.24556
36334,2.3934e+07,0,0.13883,0.29888,0.20375,-0.0097667,-0.061554,-0.3589,-0.20042,-0.0070555,-0.028022,-0.24556
36381,2.3944e+07,0,0.0097748,0.1657,0.071911,-0.12118,-0.17568,-0.26715,-0.115,0.064825,0.044838,-0.15162
36425,2.3954e+07,0,0.0097748,0.1657,0.071911,-0.12118,-0.17568,-0.26715,-0.115,0.064825,0.044838,-0.15162
36475,2.3964e+07,0,0.0097748,0.1657,0.071911,-0.12118,-0.17568,-0.26715,-0.115,0.064825,0.044838,-0.15162
36522,2.3975e+07,0,0.0097748,0.1657,0.071911,-0.12118,-0.17568,-0.26715,-0.115,0.064825,0.044838,-0.15162
36567,2.3985e+07,0,0.0097748,0.1657,0.071911,-0.12118,-0.17568,-0.26715,-0.115,0.064825,0.044838,-0.15162
36612,2.3995e+07,0,0.0097748,0.1657,0.071911,-0.12118,-0.17568,-0.26715,-0.115,0.064825,0.044838,-0.15162
36653,2.4005e+07,0,0.0097748,0.1657,0.071911,-0.12118,-0.17568,-0.26715,-0.115,0.064825,0.044838,-0.15162
36697,2.4015e+07,0,0.0097748,0.1657,0.071911,-0.12118,-0.17568,-0.26715,-0.115,0.064825,0.044838,-0.15162
36738,2.4026e+07,0,0.0097748,0.1657,0.071911,-0.12118,-0.17568,-0.26715,-0.115,0.064825,0.044838,-0.15162
36783,2.4036e+07,0,0.0097748,0.1657,0.071911,-0.12118,-0.17568,-0.26715,-0.115,0.064825,0.044838,-0.15162
36827,2.4046e+07,0,0.0097748,0.1657,0.071911,-0.12118,-0.17568,-0.26715,-0.115,0.064825,0.044838,-0.15162
36871,2.4056e+07,0,0.0097748,0.1657,0.071911,-0.12118,-0.17568,-0.26715,-0.115,0.064825,0.044838,-0.15162
36920,2.4066e+07,0,0.0097748,0.1657,0.071911,-0.12118,-0.17568,-0.26715,-0.115,0.064825,0.044838,-0.15162
36964,2.4076e+07,0,0.0097748,0.1657,0.071911,-0.12118,-0.17568,-0.26715,-0.115,0.064825,0.044838,-0.15162
37011,2.4086e+07,0,0.0097748,0.1657,0.071911,-0.12118,-0.17568,-0.26715,-0.115,0.064825,0.044838,-0.15162
37056,2.4096e+07,0,0.0097748,0.1657,0.071911,-0.12118,-0.17568,-0.26715,-0.115,0.064825,0.044838,-0.15162
37100,2.4109e+07,0,0.0097748,0.1657,0.071911,-0.12118,-0.17568,-0.26715,-0.115,0.064825,0.044838,-0.15162
37149,2.4122e+07,0,0.0097748,0.1657,0.071911,-0.12118,-0.17568,-0.26715,-0.115,0.064825,0.044838,-0.15162
37192,2.4132e+07,0,0.0097748,0.1657,0.071911,-0.12118,-0.17568,-0.26715,-0.115,0.064825,0.044838,-0.15162
37238,2.4142e+07,0,0.078717,0.23184,0.10783,-0.098627,-0.1392,-0.2791,-0.092121,0.091621,0.049408,-0.17102
37283,2.4152e+07,0,0.078717,0.23184,0.10783,-0.098627,-0.1392,-0.2791,-0.092121,0.091621,0.049408,-0.17102
37330,2.4162e+07,0,0.078717,0.23184,0.10783,-0.098627,-0.1392,-0.2791,-0.092121,0.091621,0.049408,-0.17102
37376,2.4172e+07,0,0.078717,0.23184,0.10783,-0.098627,-0.1392,-0.2791,-0.092121,0.091621,0.049408,-0.17102
37420,2.4182e+07,0,0.078717,0.23184,0.10783,-0.098627,-0.1392,-0.2791,-0.092121,0.091621,0.049408,-0.17102
37465,2.4192e+07,0,0.078717,0.23184,0.10783,-0.098627,-0.1392,-0.2791,-0.092121,0.091621,0.049408,-0.17102
37510,2.4202e+07,0,0.078717,0.23184,0.10783,-0.098627,-0.1392,-0.2791,-0.092121,0.091621,0.049408,-0.17102
37556,2.4215e+07,0,0.078717,0.23184,0.10783,-0.098627,-0.1392,-0.2791,-0.092121,0.091621,0.049408,-0.17102
37598,2.4225e+07,0,0.078717,0.23184,0.10783,-0.098627,-0.1392,-0.2791,-0.092121,0.091621,0.049408,-0.17102
37642,2.4235e+07,0,0.078717,0.23184,0.10783,-0.098627,-0.1392,-0.2791,-0.092121,0.091621,0.049408,-0.17102
37687,2.4245e+07,0,0.078717,0.23184,0.10783,-0.098627,-0.1392,-0.2791,-0.092121,0.091621,0.049408,-0.17102
37731,2.4256e+07,0,0.078717,0.23184,0.10783,-0.098627,-0.1392,-0.2791,-0.092121,0.091621,0.049408,-0.17102
37781,2.4266e+07,0,0.078717,0.23184,0.10783,-0.098627,-0.1392,-0.2791,-0.092121,0.091621,0.049408,-0.17102
37825,2.4276e+07,0,0.078717,0.23184,0.10783,-0.098627,-0.1392,-0.2791,-0.092121,0.091621,0.049408,-0.17102
37870,2.4286e+07,0,0.078717,0.23184,0.10783,-0.098627,-0.1392,-0.2791,-0.092121,0.091621,0.049408,-0.17102
37915,2.4297e+07,0,0.078717,0.23184,0.10783,-0.098627,-0.1392,-0.2791,-0.092121,0.091621,0.049408,-0.17102
37960,2.4308e+07,0,0.078717,0.23184,0.10783,-0.098627,-0.1392,-0.2791,-0.092121,0.091621,0.049408,-0.17102
38004,2.4318e+07,0,0.078717,0.23184,0.10783,-0.098627,-0.1392,-0.2791,-0.092121,0.091621,0.049408,-0.17102
38048,2.4328e+07,0,0.078717,0.23184,0.10783,-0.098627,-0.1392,-0.2791,-0.092121,0.091621,0.049408,-0.17102
38095,2.4338e+07,0,-0.055454,0.08866,-0.1113,-0.35203,-0.35255,-0.38468,-0.11259,0.081257,-0.019931,-0.29972
38139,2.4349e+07,0,-0.055454,0.08866,-0.1113,-0.35203,-0.35255,-0.38468,-0.11259,0.081257,-0.019931,-0.29972
38185,2.4359e+07,0,-0.055454,0.08866,-0.1113,-0.35203,-0.35255,-0.38468,-0.11259,0.081257,-0.019931,-0.29972
38234,2.437e+07,0,-0.055454,0.08866,-0.1113,-0.35203,-0.35255,-0.38468,-0.11259,0.081257,-0.019931,-0.29972
38278,2.438e+07,0,-0.055454,0.08866,-0.1113,-0.35203,-0.35255,-0.38468,-0.11259,0.081257,-0.019931,-0.29972
38323,2.439e+07,0,-0.055454,0.08866,-0.1113,-0.35203,-0.35255,-0.38468,-0.11259,0.081257,-0.019931,-0.29972
38367,2.44e+07,0,-0.055454,0.08866,-0.1113,-0.35203,-0.35255,-0.38468,-0.11259,0.081257,-0.019931,-0.29972
38414,2.4411e+07,0,-0.055454,0.08866,-0.1113,-0.35203,-0.35255,-0.38468,-0.11259,0.081257,-0.019931,-0.29972
38456,2.4421e+07,0,-0.055454,0.08866,-0.1113,-0.35203,-0.35255,-0.38468,-0.11259,0.081257,-0.019931,-0.29972
38497,2.4431e+07,0,-0.055454,0.08866,-0.1113,-0.35203,-0.35255,-0.38468,-0.11259,0.081257,-0.019931,-0.29972
38542,2.4442e+07,0,-0.055454,0.08866,-0.1113,-0.35203,-0.35255,-0.38468,-0.11259,0.081257,-0.019931,-0.29972
38586,2.4452e+07,0,-0.055454,0.08866,-0.1113,-0.35203,-0.35255,-0.38468,-0.11259,0.081257,-0.019931,-0.29972
38632,2.4462e+07,0,-0.055454,0.08866,-0.1113,-0.35203,-0.35255,-0.38468,-0.11259,0.081257,-0.019931,-0.29972
38682,2.4472e+07,0,-0.055454,0.08866,-0.1113,-0.35203,-0.35255,-0.38468,-0.11259,0.081257,-0.019931,-0.29972
38727,2.4483e+07,0,-0.055454,0.08866,-0.1113,-0.35203,-0.35255,-0.38468,-0.11259,0.081257,-0.019931,-0.29972
38771,2.4493e+07,0,-0.055454,0.08866,-0.1113,-0.35203,-0.35255,-0.38468,-0.11259,0.081257,-0.019931,-0.29972
38817,2.4503e+07,0,-0.055454,0.08866,-0.1113,-0.35203,-0.35255,-0.38468,-0.11259,0.081257,-0.019931,-0.29972
38861,2.4513e+07,0,-0.055454,0.08866,-0.1113,-0.35203,-0.35255,-0.38468,-0.11259,0.081257,-0.019931,-0.29972
38900,2.4523e+07,0,-0.055454,0.08866,-0.1113,-0.35203,-0.35255,-0.38468,-0.11259,0.081257,-0.019931,-0.29972
38945,2.4533e+07,0,-0.055454,0.08866,-0.1113,-0.35203,-0.35255,-0.38468,-0.11259,0.081257,-0.019931,-0.29972
38992,2.4544e+07,0,-0.055454,0.08866,-0.1113,-0.35203,-0.35255,-0.38468,-0.11259,0.081257,-0.019931,-0.29972
39036,2.4554e+07,0,0.34415,0.43493,0.21926,-0.0057182,0.027221,-0.41393,-0.12399,0.031596,-0.091016,-0.37776
39082,2.4564e+07,0,0.34415,0.43493,0.21926,-0.0057182,0.027221,-0.41393,-0.12399,0.031596,-0.091016,-0.37776
39130,2.4574e+07,0,0.34415,0.43493,0.21926,-0.0057182,0.027221,-0.41393,-0.12399,0.031596,-0.091016,-0.37776
39175,2.4584e+07,0,0.34415,0.43493,0.21926,-0.0057182,0.027221,-0.41393,-0.12399,0.031596,-0.091016,-0.37776
39219,2.4595e+07,0,0.34415,0.43493,0.21926,-0.0057182,0.027221,-0.41393,-0.12399,0.031596,-0.091016,-0.37776
39265,2.4605e+07,0,0.34415,0.43493,0.21926,-0.0057182,0.027221,-0.41393,-0.12399,0.031596,-0.091016,-0.37776
39310,2.4618e+07,0,0.34415,0.43493,0.21926,-0.0057182,0.027221,-0.41393,-0.12399,0.031596,-0.091016,-0.37776
39352,2.4628e+07,0,0.34415,0.43493,0.21926,-0.0057182,0.027221,-0.41393,-0.12399,0.031596,-0.091016,-0.37776
39397,2.4639e+07,0,0.34415,0.43493,0.21926,-0.0057182,0.027221,-0.41393,-0.12399,0.031596,-0.091016,-0.37776
39442,2.4649e+07,0,0.34415,0.43493,0.21926,-0.0057182,0.027221,-0.41393,-0.12399,0.031596,-0.091016,-0.37776
39487,2.466e+07,0,0.34415,0.43493,0.21926,-0.0057182,0.027221,-0.41393,-0.12399,0.031596,-0.091016,-0.37776
39532,2.467e+07,0,0.34415,0.43493,0.21926,-0.0057182,0.027221,-0.41393,-0.12399,0.031596,-0.091016,-0.37776
39581,2.4681e+07,0,0.34415,0.43493,0.21926,-0.0057182,0.027221,-0.41393,-0.12399,0.031596,-0.091016,-0.37776
39625,2.4691e+07,0,0.34415,0.43493,0.21926,-0.0057182,0.027221,-0.41393,-0.12399,0.031596,-0.091016,-0.37776
39670,2.4701e+07,0,0.34415,0.43493,0.21926,-0.0057182,0.027221,-0.41393,-0.12399,0.031596,-0.091016,-0.37776
39718,2.4714e+07,0,0.34415,0.43493,0.21926,-0.0057182,0.027221,-0.41393,-0.12399,0.031596,-0.091016,-0.37776
39763,2.4724e+07,0,0.34415,0.43493,0.21926,-0.0057182,0.027221,-0.41393,-0.12399,0.031596,-0.091016,-0.37776
39807,2.4735e+07,0,0.12345,0.15073,-0.017748,-0.14793,-0.1038,-0.41255,-0.19489,-0.12234,-0.22675,-0.41491
39851,2.4745e+07,0,0.12345,0.15073,-0.017748,-0.14793,-0.1038,-0.41255,-0.19489,-0.12234,-0.22675,-0.41491
39896,2.4756e+07,0,0.12345,0.15073,-0.017748,-0.14793,-0.1038,-0.41255,-0.19489,-0.12234,-0.22675,-0.41491
39941,2.4766e+07,0,0.12345,0.15073,-0.017748,-0.14793,-0.1038,-0.41255,-0.19489,-0.12234,-0.22675,-0.41491
39986,2.4776e+07,0,0.12345,0.15073,-0.017748,-0.14793,-0.1038,-0.41255,-0.19489,-0.12234,-0.22675,-0.41491
40036,2.4786e+07,0,0.12345,0.15073,-0.017748,-0.14793,-0.1038,-0.41255,-0.19489,-0.12234,-0.22675,-0.41491
40080,2.4796e+07,0,0.12345,0.15073,-0.017748,-0.14793,-0.1038,-0.41255,-0.19489,-0.12234,-0.22675,-0.41491
40125,2.4807e+07,0,0.12345,0.15073,-0.017748,-0.14793,-0.1038,-0.41255,-0.19489,-0.12234,-0.22675,-0.41491
40169,2.4817e+07,0,0.12345,0.15073,-0.017748,-0.14793,-0.1038,-0.41255,-0.19489,-0.12234,-0.22675,-0.41491
40209,2.4828e+07,0,0.12345,0.15073,-0.017748,-0.14793,-0.1038,-0.41255,-0.19489,-0.12234,-0.22675,-0.41491
40253,2.4839e+07,0,0.12345,0.15073,-0.017748,-0.14793,-0.1038,-0.41255,-0.19489,-0.12234,-0.22675,-0.41491
40300,2.4849e+07,0,0.12345,0.15073,-0.017748,-0.14793,-0.1038,-0.41255,-0.19489,-0.12234,-0.22675,-0.41491
40344,2.4859e+07,0,0.12345,0.15073,-0.017748,-0.14793,-0.1038,-0.41255,-0.19489,-0.12234,-0.22675,-0.41491
40388,2.487e+07,0,0.12345,0.15073,-0.017748,-0.14793,-0.1038,-0.41255,-0.19489,-0.12234,-0.22675,-0.41491
40433,2.488e+07,0,0.12345,0.15073,-0.017748,-0.14793,-0.1038,-0.41255,-0.19489,-0.12234,-0.22675,-0.41491
40483,2.4891e+07,0,0.12345,0.15073,-0.017748,-0.14793,-0.1038,-0.41255,-0.19489,-0.12234,-0.22675,-0.41491
40529,2.4901e+07,0,0.12345,0.15073,-0.017748,-0.14793,-0.1038,-0.41255,-0.19489,-0.12234,-0.22675,-0.41491
40574,2.4911e+07,0,0.12345,0.15073,-0.017748,-0.14793,-0.1038,-0.41255,-0.19489,-0.12234,-0.22675,-0.41491
40619,2.4922e+07,0,0.12345,0.15073,-0.017748,-0.14793,-0.1038,-0.41255,-0.19489,-0.12234,-0.22675,-0.41491
40671,2.4938e+07,0,0.12345,0.15073,-0.017748,-0.14793,-0.1038,-0.41255,-0.19489,-0.12234,-0.22675,-0.41491
40715,2.4948e+07,0,0.15441,0.095906,0.022021,0.010356,0.080109,-0.068393,0.0072061,-0.020776,-0.089919,-0.14004
40761,2.4958e+07,0,0.15441,0.095906,0.022021,0.010356,0.080109,-0.068393,0.0072061,-0.020776,-0.089919,-0.14004
40808,2.4968e+07,0,0.15441,0.095906,0.022021,0.010356,0.080109,-0.068393,0.0072061,-0.020776,-0.089919,-0.14004
40854,2.4978e+07,0,0.15441,0.095906,0.022021,0.010356,0.080109,-0.068393,0.0072061,-0.020776,-0.089919,-0.14004
40903,2.4988e+07,0,0.15441,0.095906,0.022021,0.010356,0.080109,-0.068393,0.0072061,-0.020776,-0.089919,-0.14004
40947,2.4998e+07,0,0.15441,0.095906,0.022021,0.010356,0.080109,-0.068393,0.0072061,-0.020776,-0.089919,-0.14004
40992,2.5009e+07,0,0.15441,0.095906,0.022021,0.010356,0.080109,-0.068393,0.0072061,-0.020776,-0.089919,-0.14004
41037,2.5019e+07,0,0.15441,0.095906,0.022021,0.010356,0.080109,-0.068393,0.0072061,-0.020776,-0.089919,-0.14004
41082,2.5029e+07,0,0.15441,0.095906,0.022021,0.010356,0.080109,-0.068393,0.0072061,-0.020776,-0.089919,-0.14004
41124,2.5045e+07,0,0.15441,0.095906,0.022021,0.010356,0.080109,-0.068393,0.0072061,-0.020776,-0.089919,-0.14004
41169,2.5056e+07,0,0.15441,0.095906,0.022021,0.010356,0.080109,-0.068393,0.0072061,-0.020776,-0.089919,-0.14004
41213,2.5067e+07,0,0.15441,0.095906,0.022021,0.010356,0.080109,-0.068393,0.0072061,-0.020776,-0.089919,-0.14004
41259,2.5077e+07,0,0.15441,0.095906,0.022021,0.010356,0.080109,-0.068393,0.0072061,-0.020776,-0.089919,-0.14004
41303,2.5088e+07,0,0.15441,0.095906,0.022021,0.010356,0.080109,-0.068393,0.0072061,-0.020776,-0.089919,-0.14004
41352,2.5098e+07,0,0.15441,0.095906,0.022021,0.010356,0.080109,-0.068393,0.0072061,-0.020776,-0.089919,-0.14004
41397,2.5107e+07,0,0.15441,0.095906,0.022021,0.010356,0.080109,-0.068393,0.0072061,-0.020776,-0.089919,-0.14004
41442,2.5118e+07,0,0.15441,0.095906,0.022021,0.010356,0.080109,-0.068393,0.0072061,-0.020776,-0.089919,-0.14004
41489,2.5128e+07,0,0.15441,0.095906,0.022021,0.010356,0.080109,-0.068393,0.0072061,-0.020776,-0.089919,-0.14004
41531,2.5142e+07,0,0.054996,-0.0060911,-0.0094123,0.029852,0.078663,-0.044568,-0.061985,-0.11401,-0.13855,-0.10955
41573,2.5154e+07,0,0.032367,0.0023566,0.0078625,0.032682,0.054743,-0.045772,-0.064537,-0.093077,-0.10025,-0.077358
41617,2.5164e+07,0,0.032367,0.0023566,0.0078625,0.032682,0.054743,-0.045772,-0.064537,-0.093077,-0.10025,-0.077358
41661,2.5174e+07,0,0.032367,0.0023566,0.0078625,0.032682,0.054743,-0.045772,-0.064537,-0.093077,-0.10025,-0.077358
41708,2.5184e+07,0,0.032367,0.0023566,0.0078625,0.032682,0.054743,-0.045772,-0.064537,-0.093077,-0.10025,-0.077358
41752,2.5194e+07,0,0.032367,0.0023566,0.0078625,0.032682,0.054743,-0.045772,-0.064537,-0.093077,-0.10025,-0.077358
41801,2.5204e+07,0,0.032367,0.0023566,0.0078625,0.032682,0.054743,-0.045772,-0.064537,-0.093077,-0.10025,-0.077358
41845,2.5214e+07,0,0.032367,0.0023566,0.0078625,0.032682,0.054743,-0.045772,-0.064537,-0.093077,-0.10025,-0.077358
41890,2.5224e+07,0,0.032367,0.0023566,0.0078625,0.032682,0.054743,-0.045772,-0.064537,-0.093077,-0.10025,-0.077358
41935,2.5234e+07,0,0.032367,0.0023566,0.0078625,0.032682,0.054743,-0.045772,-0.064537,-0.093077,-0.10025,-0.077358
41973,2.5248e+07,0,0.032367,0.0023566,0.0078625,0.032682,0.054743,-0.045772,-0.064537,-0.093077,-0.10025,-0.077358
42018,2.5258e+07,0,0.032367,0.0023566,0.0078625,0.032682,0.054743,-0.045772,-0.064537,-0.093077,-0.10025,-0.077358
42063,2.5268e+07,0,0.032367,0.0023566,0.0078625,0.032682,0.054743,-0.045772,-0.064537,-0.093077,-0.10025,-0.077358
42108,2.5278e+07,0,0.032367,0.0023566,0.0078625,0.032682,0.054743,-0.045772,-0.064537,-0.093077,-0.10025,-0.077358
42154,2.5288e+07,0,0.032367,0.0023566,0.0078625,0.032682,0.054743,-0.045772,-0.064537,-0.093077,-0.10025,-0.077358
42198,2.5299e+07,0,0.032367,0.0023566,0.0078625,0.032682,0.054743,-0.045772,-0.064537,-0.093077,-0.10025,-0.077358
42247,2.5309e+07,0,0.032367,0.0023566,0.0078625,0.032682,0.054743,-0.045772,-0.064537,-0.093077,-0.10025,-0.077358
42293,2.5319e+07,0,0.032367,0.0023566,0.0078625,0.032682,0.054743,-0.045772,-0.064537,-0.093077,-0.10025,-0.077358
42339,2.5329e+07,0,0.032367,0.0023566,0.0078625,0.032682,0.054743,-0.045772,-0.064537,-0.093077,-0.10025,-0.077358
42385,2.534e+07,0,-0.15121,-0.12762,-0.071652,-0.046459,-0.082515,0.18668,0.11918,0.11955,0.1653,0.21709
42427,2.5352e+07,0,-0.13167,-0.11713,-0.061993,-0.030736,-0.058703,0.16612,0.096108,0.088881,0.13022,0.18677
42469,2.5365e+07,0,-0.13167,-0.11713,-0.061993,-0.030736,-0.058703,0.16612,0.096108,0.088881,0.13022,0.18677
42513,2.5375e+07,0,-0.13167,-0.11713,-0.061993,-0.030736,-0.058703,0.16612,0.096108,0.088881,0.13022,0.18677
42558,2.5385e+07,0,-0.13167,-0.11713,-0.061993,-0.030736,-0.058703,0.16612,0.096108,0.088881,0.13022,0.18677
42603,2.5395e+07,0,-0.13167,-0.11713,-0.061993,-0.030736,-0.058703,0.16612,0.096108,0.088881,0.13022,0.18677
42647,2.5405e+07,0,-0.13167,-0.11713,-0.061993,-0.030736,-0.058703,0.16612,0.096108,0.088881,0.13022,0.18677
42697,2.5415e+07,0,-0.13167,-0.11713,-0.061993,-0.030736,-0.058703,0.16612,0.096108,0.088881,0.13022,0.18677
42742,2.5425e+07,0,-0.13167,-0.11713,-0.061993,-0.030736,-0.058703,0.16612,0.096108,0.088881,0.13022,0.18677
42787,2.5435e+07,0,-0.13167,-0.11713,-0.061993,-0.030736,-0.058703,0.16612,0.096108,0.088881,0.13022,0.18677
42831,2.5445e+07,0,-0.13167,-0.11713,-0.061993,-0.030736,-0.058703,0.16612,0.096108,0.088881,0.13022,0.18677
42873,2.5457e+07,0,-0.13167,-0.11713,-0.061993,-0.030736,-0.058703,0.16612,0.096108,0.088881,0.13022,0.18677
42919,2.5468e+07,0,-0.13167,-0.11713,-0.061993,-0.030736,-0.058703,0.16612,0.096108,0.088881,0.13022,0.18677
42961,2.548e+07,0,-0.13167,-0.11713,-0.061993,-0.030736,-0.058703,0.16612,0.096108,0.088881,0.13022,0.18677
43006,2.549e+07,0,-0.13167,-0.11713,-0.061993,-0.030736,-0.058703,0.16612,0.096108,0.088881,0.13022,0.18677
43052,2.5501e+07,0,-0.13167,-0.11713,-0.061993,-0.030736,-0.058703,0.16612,0.096108,0.088881,0.13022,0.18677
43097,2.5511e+07,0,-0.13167,-0.11713,-0.061993,-0.030736,-0.058703,0.16612,0.096108,0.088881,0.13022,0.18677
43146,2.5521e+07,0,-0.13167,-0.11713,-0.061993,-0.030736,-0.058703,0.16612,0.096108,0.088881,0.13022,0.18677
43192,2.5531e+07,0,0.021448,0.096628,0.20959,0.24434,0.15227,0.051453,-0.07682,-0.053219,0.047823,0.14147
43237,2.5541e+07,0,0.021448,0.096628,0.20959,0.24434,0.15227,0.051453,-0.07682,-0.053219,0.047823,0.14147
43281,2.5552e+07,0,0.021448,0.096628,0.20959,0.24434,0.15227,0.051453,-0.07682,-0.053219,0.047823,0.14147
43326,2.5562e+07,0,0.021448,0.096628,0.20959,0.24434,0.15227,0.051453,-0.07682,-0.053219,0.047823,0.14147
43367,2.5574e+07,0,0.021448,0.096628,0.20959,0.24434,0.15227,0.051453,-0.07682,-0.053219,0.047823,0.14147
43412,2.5588e+07,0,0.021448,0.096628,0.20959,0.24434,0.15227,0.051453,-0.07682,-0.053219,0.047823,0.14147
43457,2.5598e+07,0,0.021448,0.096628,0.20959,0.24434,0.15227,0.051453,-0.07682,-0.053219,0.047823,0.14147
43502,2.5608e+07,0,0.021448,0.096628,0.20959,0.24434,0.15227,0.051453,-0.07682,-0.053219,0.047823,0.14147
43550,2.5619e+07,0,0.021448,0.096628,0.20959,0.24434,0.15227,0.051453,-0.07682,-0.053219,0.047823,0.14147
43596,2.5629e+07,0,0.021448,0.096628,0.20959,0.24434,0.15227,0.051453,-0.07682,-0.053219,0.047823,0.14147
43641,2.5639e+07,0,0.021448,0.096628,0.20959,0.24434,0.15227,0.051453,-0.07682,-0.053219,0.047823,0.14147
43686,2.5649e+07,0,0.021448,0.096628,0.20959,0.24434,0.15227,0.051453,-0.07682,-0.053219,0.047823,0.14147
43731,2.5667e+07,0,0.021448,0.096628,0.20959,0.24434,0.15227,0.051453,-0.07682,-0.053219,0.047823,0.14147
43776,2.5678e+07,0,0.021448,0.096628,0.20959,0.24434,0.15227,0.051453,-0.07682,-0.053219,0.047823,0.14147
43821,2.5688e+07,0,0.021448,0.096628,0.20959,0.24434,0.15227,0.051453,-0.07682,-0.053219,0.047823,0.14147
43866,2.5698e+07,0,0.021448,0.096628,0.20959,0.24434,0.15227,0.051453,-0.07682,-0.053219,0.047823,0.14147
43912,2.5708e+07,0,0.021448,0.096628,0.20959,0.24434,0.15227,0.051453,-0.07682,-0.053219,0.047823,0.14147
43956,2.5719e+07,0,0.021448,0.096628,0.20959,0.24434,0.15227,0.051453,-0.07682,-0.053219,0.047823,0.14147
44005,2.5729e+07,0,0.021448,0.096628,0.20959,0.24434,0.15227,0.051453,-0.07682,-0.053219,0.047823,0.14147
44050,2.574e+07,0,0.021448,0.096628,0.20959,0.24434,0.15227,0.051453,-0.07682,-0.053219,0.047823,0.14147
44096,2.5751e+07,0,0.021448,0.096628,0.20959,0.24434,0.15227,0.051453,-0.07682,-0.053219,0.047823,0.14147
44141,2.5761e+07,0,-0.42828,-0.26749,-0.030825,0.038719,-0.16197,0.14416,-0.11741,-0.064192,0.15014,0.34225
44179,2.5774e+07,0,-0.36925,-0.20565,-0.0090864,0.040505,-0.13694,0.10705,-0.11287,-0.050072,0.13289,0.29588
44223,2.5785e+07,0,-0.36925,-0.20565,-0.0090864,0.040505,-0.13694,0.10705,-0.11287,-0.050072,0.13289,0.29588
44267,2.5796e+07,0,-0.36925,-0.20565,-0.0090864,0.040505,-0.13694,0.10705,-0.11287,-0.050072,0.13289,0.29588
44313,2.5806e+07,0,-0.36925,-0.20565,-0.0090864,0.040505,-0.13694,0.10705,-0.11287,-0.050072,0.13289,0.29588
44358,2.5816e+07,0,-0.36925,-0.20565,-0.0090864,0.040505,-0.13694,0.10705,-0.11287,-0.050072,0.13289,0.29588
44402,2.5826e+07,0,-0.36925,-0.20565,-0.0090864,0.040505,-0.13694,0.10705,-0.11287,-0.050072,0.13289,0.29588
44451,2.5836e+07,0,-0.36925,-0.20565,-0.0090864,0.040505,-0.13694,0.10705,-0.11287,-0.050072,0.13289,0.29588
44495,2.5847e+07,0,-0.36925,-0.20565,-0.0090864,0.040505,-0.13694,0.10705,-0.11287,-0.050072,0.13289,0.29588
44540,2.5858e+07,0,-0.36925,-0.20565,-0.0090864,0.040505,-0.13694,0.10705,-0.11287,-0.050072,0.13289,0.29588
44586,2.5868e+07,0,-0.36925,-0.20565,-0.0090864,0.040505,-0.13694,0.10705,-0.11287,-0.050072,0.13289,0.29588
44627,2.588e+07,0,-0.36925,-0.20565,-0.0090864,0.040505,-0.13694,0.10705,-0.11287,-0.050072,0.13289,0.29588
44672,2.5894e+07,0,-0.36925,-0.20565,-0.0090864,0.040505,-0.13694,0.10705,-0.11287,-0.050072,0.13289,0.29588
44716,2.5904e+07,0,-0.36925,-0.20565,-0.0090864,0.040505,-0.13694,0.10705,-0.11287,-0.050072,0.13289,0.29588
44762,2.5914e+07,0,-0.36925,-0.20565,-0.0090864,0.040505,-0.13694,0.10705,-0.11287,-0.050072,0.13289,0.29588
44807,2.5924e+07,0,-0.36925,-0.20565,-0.0090864,0.040505,-0.13694,0.10705,-0.11287,-0.050072,0.13289,0.29588
44853,2.5934e+07,0,-0.36925,-0.20565,-0.0090864,0.040505,-0.13694,0.10705,-0.11287,-0.050072,0.13289,0.29588
44905,2.5945e+07,0,-0.41503,-0.3014,0.042153,0.2421,0.089197,0.41495,-0.043259,-0.074159,0.16765,0.54687
44952,2.5955e+07,0,-0.41503,-0.3014,0.042153,0.2421,0.089197,0.41495,-0.043259,-0.074159,0.16765,0.54687
44998,2.5965e+07,0,-0.41503,-0.3014,0.042153,0.2421,0.089197,0.41495,-0.043259,-0.074159,0.16765,0.54687
45043,2.5975e+07,0,-0.41503,-0.3014,0.042153,0.2421,0.089197,0.41495,-0.043259,-0.074159,0.16765,0.54687
45088,2.5989e+07,0,-0.41503,-0.3014,0.042153,0.2421,0.089197,0.41495,-0.043259,-0.074159,0.16765,0.54687
45130,2.6001e+07,0,-0.41503,-0.3014,0.042153,0.2421,0.089197,0.41495,-0.043259,-0.074159,0.16765,0.54687
45174,2.6011e+07,0,-0.41503,-0.3014,0.042153,0.2421,0.089197,0.41495,-0.043259,-0.074159,0.16765,0.54687
45221,2.6021e+07,0,-0.41503,-0.3014,0.042153,0.2421,0.089197,0.41495,-0.043259,-0.074159,0.16765,0.54687
45266,2.6031e+07,0,-0.41503,-0.3014,0.042153,0.2421,0.089197,0.41495,-0.043259,-0.074159,0.16765,0.54687
45313,2.6041e+07,0,-0.41503,-0.3014,0.042153,0.2421,0.089197,0.41495,-0.043259,-0.074159,0.16765,0.54687
45359,2.6051e+07,0,-0.41503,-0.3014,0.042153,0.2421,0.089197,0.41495,-0.043259,-0.074159,0.16765,0.54687
45404,2.6061e+07,0,-0.41503,-0.3014,0.042153,0.2421,0.089197,0.41495,-0.043259,-0.074159,0.16765,0.54687
45449,2.6071e+07,0,-0.41503,-0.3014,0.042153,0.2421,0.089197,0.41495,-0.043259,-0.074159,0.16765,0.54687
45494,2.6085e+07,0,-0.41503,-0.3014,0.042153,0.2421,0.089197,0.41495,-0.043259,-0.074159,0.16765,0.54687
45535,2.6097e+07,0,-0.41503,-0.3014,0.042153,0.2421,0.089197,0.41495,-0.043259,-0.074159,0.16765,0.54687
45580,2.6108e+07,0,-0.41503,-0.3014,0.042153,0.2421,0.089197,0.41495,-0.043259,-0.074159,0.16765,0.54687
45625,2.6118e+07,0,-0.41503,-0.3014,0.042153,0.2421,0.089197,0.41495,-0.043259,-0.074159,0.16765,0.54687
45671,2.6128e+07,0,-0.41503,-0.3014,0.042153,0.2421,0.089197,0.41495,-0.043259,-0.074159,0.16765,0.54687
45717,2.6139e+07,0,-0.55,-0.50796,-0.020809,0.36016,0.30495,0.85686,0.11125,-0.038761,0.22629,0.86625
45766,2.6149e+07,0,-0.55,-0.50796,-0.020809,0.36016,0.30495,0.85686,0.11125,-0.038761,0.22629,0.86625
45811,2.6158e+07,0,-0.55,-0.50796,-0.020809,0.36016,0.30495,0.85686,0.11125,-0.038761,0.22629,0.86625
45855,2.6169e+07,0,-0.55,-0.50796,-0.020809,0.36016,0.30495,0.85686,0.11125,-0.038761,0.22629,0.86625
45901,2.6179e+07,0,-0.55,-0.50796,-0.020809,0.36016,0.30495,0.85686,0.11125,-0.038761,0.22629,0.86625
45943,2.6196e+07,0,-0.55,-0.50796,-0.020809,0.36016,0.30495,0.85686,0.11125,-0.038761,0.22629,0.86625
45991,2.6209e+07,0,-0.55,-0.50796,-0.020809,0.36016,0.30495,0.85686,0.11125,-0.038761,0.22629,0.86625
46036,2.6218e+07,0,-0.55,-0.50796,-0.020809,0.36016,0.30495,0.85686,0.11125,-0.038761,0.22629,0.86625
46081,2.6229e+07,0,-0.55,-0.50796,-0.020809,0.36016,0.30495,0.85686,0.11125,-0.038761,0.22629,0.86625
46127,2.624e+07,0,-0.55,-0.50796,-0.020809,0.36016,0.30495,0.85686,0.11125,-0.038761,0.22629,0.86625
46171,2.625e+07,0,-0.55,-0.50796,-0.020809,0.36016,0.30495,0.85686,0.11125,-0.038761,0.22629,0.86625
46220,2.626e+07,0,-0.55,-0.50796,-0.020809,0.36016,0.30495,0.85686,0.11125,-0.038761,0.22629,0.86625
46264,2.627e+07,0,-0.55,-0.50796,-0.020809,0.36016,0.30495,0.85686,0.11125,-0.038761,0.22629,0.86625
46309,2.6281e+07,0,-0.55,-0.50796,-0.020809,0.36016,0.30495,0.85686,0.11125,-0.038761,0.22629,0.86625
46354,2.6291e+07,0,-0.55,-0.50796,-0.020809,0.36016,0.30495,0.85686,0.11125,-0.038761,0.22629,0.86625
46396,2.6303e+07,0,-0.55,-0.50796,-0.020809,0.36016,0.30495,0.85686,0.11125,-0.038761,0.22629,0.86625
46438,2.6315e+07,0,-0.55,-0.50796,-0.020809,0.36016,0.30495,0.85686,0.11125,-0.038761,0.22629,0.86625
46482,2.6325e+07,0,-0.55,-0.50796,-0.020809,0.36016,0.30495,0.85686,0.11125,-0.038761,0.22629,0.86625
46529,2.6335e+07,0,-0.55,-0.50796,-0.020809,0.36016,0.30495,0.85686,0.11125,-0.038761,0.22629,0.86625
46574,2.6345e+07,0,-0.79092,-0.73287,-0.18242,0.29566,0.43853,1.0564,0.041058,-0.14648,0.066928,0.89472
46619,2.6356e+07,0,-0.79092,-0.73287,-0.18242,0.29566,0.43853,1.0564,0.041058,-0.14648,0.066928,0.89472
46668,2.6366e+07,0,-0.79092,-0.73287,-0.18242,0.29566,0.43853,1.0564,0.041058,-0.14648,0.066928,0.89472
46713,2.6376e+07,0,-0.79092,-0.73287,-0.18242,0.29566,0.43853,1.0564,0.041058,-0.14648,0.066928,0.89472
46758,2.6387e+07,0,-0.79092,-0.73287,-0.18242,0.29566,0.43853,1.0564,0.041058,-0.14648,0.066928,0.89472
46802,2.6397e+07,0,-0.79092,-0.73287,-0.18242,0.29566,0.43853,1.0564,0.041058,-0.14648,0.066928,0.89472
46843,2.6409e+07,0,-0.79092,-0.73287,-0.18242,0.29566,0.43853,1.0564,0.041058,-0.14648,0.066928,0.89472
46891,2.6423e+07,0,-0.79092,-0.73287,-0.18242,0.29566,0.43853,1.0564,0.041058,-0.14648,0.066928,0.89472
46937,2.6433e+07,0,-0.79092,-0.73287,-0.18242,0.29566,0.43853,1.0564,0.041058,-0.14648,0.066928,0.89472
46979,2.6445e+07,0,-0.79092,-0.73287,-0.18242,0.29566,0.43853,1.0564,0.041058,-0.14648,0.066928,0.89472
47023,2.6455e+07,0,-0.79092,-0.73287,-0.18242,0.29566,0.43853,1.0564,0.041058,-0.14648,0.066928,0.89472
47073,2.6465e+07,0,-0.79092,-0.73287,-0.18242,0.29566,0.43853,1.0564,0.041058,-0.14648,0.066928,0.89472
47119,2.6476e+07,0,-0.79092,-0.73287,-0.18242,0.29566,0.43853,1.0564,0.041058,-0.14648,0.066928,0.89472
47164,2.6486e+07,0,-0.79092,-0.73287,-0.18242,0.29566,0.43853,1.0564,0.041058,-0.14648,0.066928,0.89472
47210,2.6496e+07,0,-0.79092,-0.73287,-0.18242,0.29566,0.43853,1.0564,0.041058,-0.14648,0.066928,0.89472
47257,2.651e+07,0,-0.79092,-0.73287,-0.18242,0.29566,0.43853,1.0564,0.041058,-0.14648,0.066928,0.89472
47302,2.6524e+07,0,-0.79092,-0.73287,-0.18242,0.29566,0.43853,1.0564,0.041058,-0.14648,0.066928,0.89472
47349,2.6535e+07,0,-0.77577,-0.59466,-0.076688,0.32033,0.56276,1.1515,0.066764,-0.024471,0.14584,0.9136
47390,2.6547e+07,0,-0.77577,-0.59466,-0.076688,0.32033,0.56276,1.1515,0.066764,-0.024471,0.14584,0.9136
47435,2.6558e+07,0,-0.77577,-0.59466,-0.076688,0.32033,0.56276,1.1515,0.066764,-0.024471,0.14584,0.9136
47482,2.6567e+07,0,-0.77577,-0.59466,-0.076688,0.32033,0.56276,1.1515,0.066764,-0.024471,0.14584,0.9136
47530,2.6577e+07,0,-0.77577,-0.59466,-0.076688,0.32033,0.56276,1.1515,0.066764,-0.024471,0.14584,0.9136
47575,2.6587e+07,0,-0.77577,-0.59466,-0.076688,0.32033,0.56276,1.1515,0.066764,-0.024471,0.14584,0.9136
47619,2.6597e+07,0,-0.77577,-0.59466,-0.076688,0.32033,0.56276,1.1515,0.066764,-0.024471,0.14584,0.9136
47664,2.6608e+07,0,-0.77577,-0.59466,-0.076688,0.32033,0.56276,1.1515,0.066764,-0.024471,0.14584,0.9136
47709,2.6619e+07,0,-0.77577,-0.59466,-0.076688,0.32033,0.56276,1.1515,0.066764,-0.024471,0.14584,0.9136
47754,2.663e+07,0,-0.77577,-0.59466,-0.076688,0.32033,0.56276,1.1515,0.066764,-0.024471,0.14584,0.9136
47796,2.6642e+07,0,-0.77577,-0.59466,-0.076688,0.32033,0.56276,1.1515,0.066764,-0.024471,0.14584,0.9136
47840,2.6652e+07,0,-0.77577,-0.59466,-0.076688,0.32033,0.56276,1.1515,0.066764,-0.024471,0.14584,0.9136
47885,2.6662e+07,0,-0.77577,-0.59466,-0.076688,0.32033,0.56276,1.1515,0.066764,-0.024471,0.14584,0.9136
47929,2.6672e+07,0,-0.77577,-0.59466,-0.076688,0.32033,0.56276,1.1515,0.066764,-0.024471,0.14584,0.9136
47979,2.6682e+07,0,-0.77577,-0.59466,-0.076688,0.32033,0.56276,1.1515,0.066764,-0.024471,0.14584,0.9136
48024,2.6692e+07,0,-0.77577,-0.59466,-0.076688,0.32033,0.56276,1.1515,0.066764,-0.024471,0.14584,0.9136
48068,2.6702e+07,0,-0.77577,-0.59466,-0.076688,0.32033,0.56276,1.1515,0.066764,-0.024471,0.14584,0.9136
48113,2.6712e+07,0,-0.77577,-0.59466,-0.076688,0.32033,0.56276,1.1515,0.066764,-0.024471,0.14584,0.9136
48155,2.6724e+07,0,-0.77577,-0.59466,-0.076688,0.32033,0.56276,1.1515,0.066764,-0.024471,0.14584,0.9136
48200,2.6734e+07,0,-0.77577,-0.59466,-0.076688,0.32033,0.56276,1.1515,0.066764,-0.024471,0.14584,0.9136
48243,2.6745e+07,0,-0.77577,-0.59466,-0.076688,0.32033,0.56276,1.1515,0.066764,-0.024471,0.14584,0.9136
48289,2.6756e+07,0,-0.57269,-0.22104,0.16772,0.42793,0.61938,0.88163,0.021504,0.054411,0.18909,0.80936
48334,2.6766e+07,0,-0.57269,-0.22104,0.16772,0.42793,0.61938,0.88163,0.021504,0.054411,0.18909,0.80936
48379,2.6776e+07,0,-0.57269,-0.22104,0.16772,0.42793,0.61938,0.88163,0.021504,0.054411,0.18909,0.80936
48428,2.6786e+07,0,-0.57269,-0.22104,0.16772,0.42793,0.61938,0.88163,0.021504,0.054411,0.18909,0.80936
48473,2.6796e+07,0,-0.57269,-0.22104,0.16772,0.42793,0.61938,0.88163,0.021504,0.054411,0.18909,0.80936
48517,2.6806e+07,0,-0.57269,-0.22104,0.16772,0.42793,0.61938,0.88163,0.021504,0.054411,0.18909,0.80936
48562,2.6816e+07,0,-0.57269,-0.22104,0.16772,0.42793,0.61938,0.88163,0.021504,0.054411,0.18909,0.80936
48611,2.6834e+07,0,-0.57269,-0.22104,0.16772,0.42793,0.61938,0.88163,0.021504,0.054411,0.18909,0.80936
48652,2.6846e+07,0,-0.57269,-0.22104,0.16772,0.42793,0.61938,0.88163,0.021504,0.054411,0.18909,0.80936
48697,2.6856e+07,0,-0.57269,-0.22104,0.16772,0.42793,0.61938,0.88163,0.021504,0.054411,0.18909,0.80936
48741,2.6866e+07,0,-0.57269,-0.22104,0.16772,0.42793,0.61938,0.88163,0.021504,0.054411,0.18909,0.80936
48786,2.6876e+07,0,-0.57269,-0.22104,0.16772,0.42793,0.61938,0.88163,0.021504,0.054411,0.18909,0.80936
48833,2.6886e+07,0,-0.57269,-0.22104,0.16772,0.42793,0.61938,0.88163,0.021504,0.054411,0.18909,0.80936
48880,2.6897e+07,0,-0.57269,-0.22104,0.16772,0.42793,0.61938,0.88163,0.021504,0.054411,0.18909,0.80936
48926,2.6907e+07,0,-0.57269,-0.22104,0.16772,0.42793,0.61938,0.88163,0.021504,0.054411,0.18909,0.80936
48971,2.6918e+07,0,-0.57269,-0.22104,0.16772,0.42793,0.61938,0.88163,0.021504,0.054411,0.18909,0.80936
49015,2.6929e+07,0,-0.57269,-0.22104,0.16772,0.42793,0.61938,0.88163,0.021504,0.054411,0.18909,0.80936
49057,2.6942e+07,0,-0.69256,-0.30009,0.010569,0.22666,0.40039,0.73627,0.024182,0.076962,0.17899,0.74564
49101,2.6953e+07,0,-0.69256,-0.30009,0.010569,0.22666,0.40039,0.73627,0.024182,0.076962,0.17899,0.74564
49148,2.6963e+07,0,-0.69256,-0.30009,0.010569,0.22666,0.40039,0.73627,0.024182,0.076962,0.17899,0.74564
49193,2.6973e+07,0,-0.69256,-0.30009,0.010569,0.22666,0.40039,0.73627,0.024182,0.076962,0.17899,0.74564
49237,2.6983e+07,0,-0.69256,-0.30009,0.010569,0.22666,0.40039,0.73627,0.024182,0.076962,0.17899,0.74564
49288,2.6993e+07,0,-0.69256,-0.30009,0.010569,0.22666,0.40039,0.73627,0.024182,0.076962,0.17899,0.74564
49333,2.7004e+07,0,-0.69256,-0.30009,0.010569,0.22666,0.40039,0.73627,0.024182,0.076962,0.17899,0.74564
49378,2.7014e+07,0,-0.69256,-0.30009,0.010569,0.22666,0.40039,0.73627,0.024182,0.076962,0.17899,0.74564
49423,2.7024e+07,0,-0.69256,-0.30009,0.010569,0.22666,0.40039,0.73627,0.024182,0.076962,0.17899,0.74564
49472,2.7041e+07,0,-0.69256,-0.30009,0.010569,0.22666,0.40039,0.73627,0.024182,0.076962,0.17899,0.74564
49513,2.7053e+07,0,-0.69256,-0.30009,0.010569,0.22666,0.40039,0.73627,0.024182,0.076962,0.17899,0.74564
49558,2.7063e+07,0,-0.69256,-0.30009,0.010569,0.22666,0.40039,0.73627,0.024182,0.076962,0.17899,0.74564
49603,2.7073e+07,0,-0.69256,-0.30009,0.010569,0.22666,0.40039,0.73627,0.024182,0.076962,0.17899,0.74564
49647,2.7084e+07,0,-0.69256,-0.30009,0.010569,0.22666,0.40039,0.73627,0.024182,0.076962,0.17899,0.74564
49693,2.7094e+07,0,-0.69256,-0.30009,0.010569,0.22666,0.40039,0.73627,0.024182,0.076962,0.17899,0.74564
49742,2.7104e+07,0,-0.69256,-0.30009,0.010569,0.22666,0.40039,0.73627,0.024182,0.076962,0.17899,0.74564
49786,2.7115e+07,0,-0.69256,-0.30009,0.010569,0.22666,0.40039,0.73627,0.024182,0.076962,0.17899,0.74564
49833,2.7125e+07,0,-0.69256,-0.30009,0.010569,0.22666,0.40039,0.73627,0.024182,0.076962,0.17899,0.74564
49878,2.7135e+07,0,-0.58637,-0.18058,0.10551,0.30867,0.51745,0.71614,0.016835,0.066746,0.14825,0.69608
49925,2.7149e+07,0,-0.50551,-0.15164,0.075751,0.24552,0.45266,0.58263,-0.0041154,0.036276,0.089182,0.54989
49966,2.7161e+07,0,-0.50551,-0.15164,0.075751,0.24552,0.45266,0.58263,-0.0041154,0.036276,0.089182,0.54989
50011,2.7172e+07,0,-0.50551,-0.15164,0.075751,0.24552,0.45266,0.58263,-0.0041154,0.036276,0.089182,0.54989
50056,2.7182e+07,0,-0.50551,-0.15164,0.075751,0.24552,0.45266,0.58263,-0.0041154,0.036276,0.089182,0.54989
50101,2.7192e+07,0,-0.50551,-0.15164,0.075751,0.24552,0.45266,0.58263,-0.0041154,0.036276,0.089182,0.54989
50145,2.7202e+07,0,-0.50551,-0.15164,0.075751,0.24552,0.45266,0.58263,-0.0041154,0.036276,0.089182,0.54989
50194,2.7212e+07,0,-0.50551,-0.15164,0.075751,0.24552,0.45266,0.58263,-0.0041154,0.036276,0.089182,0.54989
50238,2.7222e+07,0,-0.50551,-0.15164,0.075751,0.24552,0.45266,0.58263,-0.0041154,0.036276,0.089182,0.54989
50285,2.7232e+07,0,-0.50551,-0.15164,0.075751,0.24552,0.45266,0.58263,-0.0041154,0.036276,0.089182,0.54989
50329,2.7242e+07,0,-0.50551,-0.15164,0.075751,0.24552,0.45266,0.58263,-0.0041154,0.036276,0.089182,0.54989
50371,2.7253e+07,0,-0.50551,-0.15164,0.075751,0.24552,0.45266,0.58263,-0.0041154,0.036276,0.089182,0.54989
50415,2.7264e+07,0,-0.50551,-0.15164,0.075751,0.24552,0.45266,0.58263,-0.0041154,0.036276,0.089182,0.54989
50460,2.7275e+07,0,-0.50551,-0.15164,0.075751,0.24552,0.45266,0.58263,-0.0041154,0.036276,0.089182,0.54989
50502,2.7286e+07,0,-0.50551,-0.15164,0.075751,0.24552,0.45266,0.58263,-0.0041154,0.036276,0.089182,0.54989
50546,2.7296e+07,0,-0.50551,-0.15164,0.075751,0.24552,0.45266,0.58263,-0.0041154,0.036276,0.089182,0.54989
50592,2.7306e+07,0,-0.50551,-0.15164,0.075751,0.24552,0.45266,0.58263,-0.0041154,0.036276,0.089182,0.54989
50640,2.7317e+07,0,-0.50551,-0.15164,0.075751,0.24552,0.45266,0.58263,-0.0041154,0.036276,0.089182,0.54989
50685,2.7327e+07,0,-0.50551,-0.15164,0.075751,0.24552,0.45266,0.58263,-0.0041154,0.036276,0.089182,0.54989
50733,2.7337e+07,0,-0.50551,-0.15164,0.075751,0.24552,0.45266,0.58263,-0.0041154,0.036276,0.089182,0.54989
50777,2.7347e+07,0,-0.77449,-0.36567,-0.10977,0.088054,0.37199,0.37737,-0.32905,-0.30256,-0.25029,0.27691
50819,2.7359e+07,0,-0.66564,-0.28514,-0.063696,0.09896,0.32711,0.30467,-0.2964,-0.26065,-0.20735,0.24135
50863,2.7374e+07,0,-0.66564,-0.28514,-0.063696,0.09896,0.32711,0.30467,-0.2964,-0.26065,-0.20735,0.24135
50908,2.7385e+07,0,-0.66564,-0.28514,-0.063696,0.09896,0.32711,0.30467,-0.2964,-0.26065,-0.20735,0.24135
50953,2.7395e+07,0,-0.66564,-0.28514,-0.063696,0.09896,0.32711,0.30467,-0.2964,-0.26065,-0.20735,0.24135
50998,2.7405e+07,0,-0.66564,-0.28514,-0.063696,0.09896,0.32711,0.30467,-0.2964,-0.26065,-0.20735,0.24135
51046,2.7415e+07,0,-0.66564,-0.28514,-0.063696,0.09896,0.32711,0.30467,-0.2964,-0.26065,-0.20735,0.24135
51092,2.7425e+07,0,-0.66564,-0.28514,-0.063696,0.09896,0.32711,0.30467,-0.2964,-0.26065,-0.20735,0.24135
51136,2.7435e+07,0,-0.66564,-0.28514,-0.063696,0.09896,0.32711,0.30467,-0.2964,-0.26065,-0.20735,0.24135
51182,2.7444e+07,0,-0.66564,-0.28514,-0.063696,0.09896,0.32711,0.30467,-0.2964,-0.26065,-0.20735,0.24135
51229,2.7463e+07,0,-0.66564,-0.28514,-0.063696,0.09896,0.32711,0.30467,-0.2964,-0.26065,-0.20735,0.24135
51274,2.7473e+07,0,-0.66564,-0.28514,-0.063696,0.09896,0.32711,0.30467,-0.2964,-0.26065,-0.20735,0.24135
51319,2.7484e+07,0,-0.66564,-0.28514,-0.063696,0.09896,0.32711,0.30467,-0.2964,-0.26065,-0.20735,0.24135
51363,2.7494e+07,0,-0.66564,-0.28514,-0.063696,0.09896,0.32711,0.30467,-0.2964,-0.26065,-0.20735,0.24135
51408,2.7504e+07,0,-0.66564,-0.28514,-0.063696,0.09896,0.32711,0.30467,-0.2964,-0.26065,-0.20735,0.24135
51453,2.7514e+07,0,-0.66564,-0.28514,-0.063696,0.09896,0.32711,0.30467,-0.2964,-0.26065,-0.20735,0.24135
51502,2.7524e+07,0,-0.66564,-0.28514,-0.063696,0.09896,0.32711,0.30467,-0.2964,-0.26065,-0.20735,0.24135
51549,2.7534e+07,0,-0.56092,-0.098256,0.15983,0.3442,0.60465,0.66225,-0.042496,-0.0034771,0.066684,0.58159
51593,2.7545e+07,0,-0.56092,-0.098256,0.15983,0.3442,0.60465,0.66225,-0.042496,-0.0034771,0.066684,0.58159
51638,2.7555e+07,0,-0.56092,-0.098256,0.15983,0.3442,0.60465,0.66225,-0.042496,-0.0034771,0.066684,0.58159
51683,2.7565e+07,0,-0.56092,-0.098256,0.15983,0.3442,0.60465,0.66225,-0.042496,-0.0034771,0.066684,0.58159
51723,2.7577e+07,0,-0.56092,-0.098256,0.15983,0.3442,0.60465,0.66225,-0.042496,-0.0034771,0.066684,0.58159
51764,2.7589e+07,0,-0.56092,-0.098256,0.15983,0.3442,0.60465,0.66225,-0.042496,-0.0034771,0.066684,0.58159
51809,2.7599e+07,0,-0.56092,-0.098256,0.15983,0.3442,0.60465,0.66225,-0.042496,-0.0034771,0.066684,0.58159
51853,2.7609e+07,0,-0.56092,-0.098256,0.15983,0.3442,0.60465,0.66225,-0.042496,-0.0034771,0.066684,0.58159
51898,2.7619e+07,0,-0.56092,-0.098256,0.15983,0.3442,0.60465,0.66225,-0.042496,-0.0034771,0.066684,0.58159
51949,2.7629e+07,0,-0.56092,-0.098256,0.15983,0.3442,0.60465,0.66225,-0.042496,-0.0034771,0.066684,0.58159
51993,2.7639e+07,0,-0.56092,-0.098256,0.15983,0.3442,0.60465,0.66225,-0.042496,-0.0034771,0.066684,0.58159
52038,2.7649e+07,0,-0.56092,-0.098256,0.15983,0.3442,0.60465,0.66225,-0.042496,-0.0034771,0.066684,0.58159
52082,2.7659e+07,0,-0.56092,-0.098256,0.15983,0.3442,0.60465,0.66225,-0.042496,-0.0034771,0.066684,0.58159
52125,2.7671e+07,0,-0.56092,-0.098256,0.15983,0.3442,0.60465,0.66225,-0.042496,-0.0034771,0.066684,0.58159
52166,2.7683e+07,0,-0.56092,-0.098256,0.15983,0.3442,0.60465,0.66225,-0.042496,-0.0034771,0.066684,0.58159
52210,2.7693e+07,0,-0.56092,-0.098256,0.15983,0.3442,0.60465,0.66225,-0.042496,-0.0034771,0.066684,0.58159
52256,2.7703e+07,0,-0.56092,-0.098256,0.15983,0.3442,0.60465,0.66225,-0.042496,-0.0034771,0.066684,0.58159
52301,2.7713e+07,0,-0.56092,-0.098256,0.15983,0.3442,0.60465,0.66225,-0.042496,-0.0034771,0.066684,0.58159
52348,2.7724e+07,0,-0.56092,-0.098256,0.15983,0.3442,0.60465,0.66225,-0.042496,-0.0034771,0.066684,0.58159
52396,2.7734e+07,0,-0.78902,-0.18942,0.082642,0.27778,0.55258,0.63832,-0.088238,-0.032674,0.052485,0.6414
52441,2.7744e+07,0,-0.78902,-0.18942,0.082642,0.27778,0.55258,0.63832,-0.088238,-0.032674,0.052485,0.6414
52485,2.7754e+07,0,-0.78902,-0.18942,0.082642,0.27778,0.55258,0.63832,-0.088238,-0.032674,0.052485,0.6414
52530,2.7764e+07,0,-0.78902,-0.18942,0.082642,0.27778,0.55258,0.63832,-0.088238,-0.032674,0.052485,0.6414
52571,2.7776e+07,0,-0.78902,-0.18942,0.082642,0.27778,0.55258,0.63832,-0.088238,-0.032674,0.052485,0.6414
52611,2.7788e+07,0,-0.78902,-0.18942,0.082642,0.27778,0.55258,0.63832,-0.088238,-0.032674,0.052485,0.6414
52656,2.7798e+07,0,-0.78902,-0.18942,0.082642,0.27778,0.55258,0.63832,-0.088238,-0.032674,0.052485,0.6414
52701,2.7809e+07,0,-0.78902,-0.18942,0.082642,0.27778,0.55258,0.63832,-0.088238,-0.032674,0.052485,0.6414
52746,2.7819e+07,0,-0.78902,-0.18942,0.082642,0.27778,0.55258,0.63832,-0.088238,-0.032674,0.052485,0.6414
52792,2.7829e+07,0,-0.78902,-0.18942,0.082642,0.27778,0.55258,0.63832,-0.088238,-0.032674,0.052485,0.6414
52840,2.784e+07,0,-0.78902,-0.18942,0.082642,0.27778,0.55258,0.63832,-0.088238,-0.032674,0.052485,0.6414
52886,2.785e+07,0,-0.78902,-0.18942,0.082642,0.27778,0.55258,0.63832,-0.088238,-0.032674,0.052485,0.6414
52930,2.786e+07,0,-0.78902,-0.18942,0.082642,0.27778,0.55258,0.63832,-0.088238,-0.032674,0.052485,0.6414
52978,2.7873e+07,0,-0.78902,-0.18942,0.082642,0.27778,0.55258,0.63832,-0.088238,-0.032674,0.052485,0.6414
53016,2.7886e+07,0,-0.78902,-0.18942,0.082642,0.27778,0.55258,0.63832,-0.088238,-0.032674,0.052485,0.6414
53062,2.7896e+07,0,-0.78902,-0.18942,0.082642,0.27778,0.55258,0.63832,-0.088238,-0.032674,0.052485,0.6414
53106,2.7906e+07,0,-0.78902,-0.18942,0.082642,0.27778,0.55258,0.63832,-0.088238,-0.032674,0.052485,0.6414
53151,2.7916e+07,0,-0.78902,-0.18942,0.082642,0.27778,0.55258,0.63832,-0.088238,-0.032674,0.052485,0.6414
53196,2.7927e+07,0,-0.78902,-0.18942,0.082642,0.27778,0.55258,0.63832,-0.088238,-0.032674,0.052485,0.6414
53244,2.7938e+07,0,-0.78902,-0.18942,0.082642,0.27778,0.55258,0.63832,-0.088238,-0.032674,0.052485,0.6414
53294,2.7948e+07,0,-1.0974,-0.41376,-0.13343,0.071901,0.40326,0.65189,-0.12188,-0.067593,0.016293,0.63786
53339,2.7958e+07,0,-1.0974,-0.41376,-0.13343,0.071901,0.40326,0.65189,-0.12188,-0.067593,0.016293,0.63786
53383,2.7968e+07,0,-1.0974,-0.41376,-0.13343,0.071901,0.40326,0.65189,-0.12188,-0.067593,0.016293,0.63786
53432,2.7982e+07,0,-1.0974,-0.41376,-0.13343,0.071901,0.40326,0.65189,-0.12188,-0.067593,0.016293,0.63786
53477,2.7991e+07,0,-1.0974,-0.41376,-0.13343,0.071901,0.40326,0.65189,-0.12188,-0.067593,0.016293,0.63786
53515,2.8005e+07,0,-1.0974,-0.41376,-0.13343,0.071901,0.40326,0.65189,-0.12188,-0.067593,0.016293,0.63786
53560,2.8015e+07,0,-1.0974,-0.41376,-0.13343,0.071901,0.40326,0.65189,-0.12188,-0.067593,0.016293,0.63786
53604,2.8025e+07,0,-1.0974,-0.41376,-0.13343,0.071901,0.40326,0.65189,-0.12188,-0.067593,0.016293,0.63786
53650,2.8035e+07,0,-1.0974,-0.41376,-0.13343,0.071901,0.40326,0.65189,-0.12188,-0.067593,0.016293,0.63786
53702,2.8045e+07,0,-1.0974,-0.41376,-0.13343,0.071901,0.40326,0.65189,-0.12188,-0.067593,0.016293,0.63786
53747,2.8056e+07,0,-1.0974,-0.41376,-0.13343,0.071901,0.40326,0.65189,-0.12188,-0.067593,0.016293,0.63786
53792,2.8066e+07,0,-1.0974,-0.41376,-0.13343,0.071901,0.40326,0.65189,-0.12188,-0.067593,0.016293,0.63786
53836,2.8076e+07,0,-1.0974,-0.41376,-0.13343,0.071901,0.40326,0.65189,-0.12188,-0.067593,0.016293,0.63786
53877,2.8088e+07,0,-1.0974,-0.41376,-0.13343,0.071901,0.40326,0.65189,-0.12188,-0.067593,0.016293,0.63786
53919,2.81e+07,0,-1.0974,-0.41376,-0.13343,0.071901,0.40326,0.65189,-0.12188,-0.067593,0.016293,0.63786
53963,2.811e+07,0,-1.0974,-0.41376,-0.13343,0.071901,0.40326,0.65189,-0.12188,-0.067593,0.016293,0.63786
54009,2.8121e+07,0,-1.0974,-0.41376,-0.13343,0.071901,0.40326,0.65189,-0.12188,-0.067593,0.016293,0.63786
