LineNo,TimeUS,C,IVN0,IVN1,IVN2,IVN3,IVN4,IVE0,IVE1,IVE2,IVE3,IVE4
28613,2.2138e+07,1,0,0,0,0,0,0,0,0,0,0
28657,2.2148e+07,1,0,0,0,0,0,0,0,0,0,0
28702,2.2162e+07,1,0,0,0,0,0,0,0,0,0,0
28749,2.2175e+07,1,0,0,0,0,0,0,0,0,0,0
28794,2.2185e+07,1,0,0,0,0,0,0,0,0,0,0
28840,2.2195e+07,1,0,0,0,0,0,0,0,0,0,0
28881,2.2206e+07,1,0,0,0,0,0,0,0,0,0,0
28926,2.2215e+07,1,0,0,0,0,0,0,0,0,0,0
28975,2.2225e+07,1,0,0,0,0,0,0,0,0,0,0
29020,2.2235e+07,1,0,0,0,0,0,0,0,0,0,0
29066,2.2246e+07,1,0,0,0,0,0,0,0,0,0,0
29110,2.2256e+07,1,0,0,0,0,0,0,0,0,0,0
29155,2.2266e+07,1,0,0,0,0,0,0,0,0,0,0
29193,2.2277e+07,1,0,0,0,0,0,0,0,0,0,0
29241,2.229e+07,1,0,0,0,0,0,0,0,0,0,0
29285,2.23e+07,1,0,0,0,0,0,0,0,0,0,0
29330,2.231e+07,1,0,0,0,0,0,0,0,0,0,0
29375,2.232e+07,1,0,0,0,0,0,0,0,0,0,0
29424,2.233e+07,1,0,0,0,0,0,0,0,0,0,0
29472,2.2341e+07,1,0,0,0,0,0,0,0,0,0,0
29516,2.2351e+07,1,0.030482,-0.011165,-0.012507,0.028311,0.054879,0.018722,0.0066005,-0.036754,-0.051427,-0.017141
29561,2.2361e+07,1,0.030482,-0.011165,-0.012507,0.028311,0.054879,0.018722,0.0066005,-0.036754,-0.051427,-0.017141
29603,2.2371e+07,1,0.030482,-0.011165,-0.012507,0.028311,0.054879,0.018722,0.0066005,-0.036754,-0.051427,-0.017141
29647,2.2381e+07,1,0.030482,-0.011165,-0.012507,0.028311,0.054879,0.018722,0.0066005,-0.036754,-0.051427,-0.017141
29689,2.2391e+07,1,0.030482,-0.011165,-0.012507,0.028311,0.054879,0.018722,0.0066005,-0.036754,-0.051427,-0.017141
29733,2.2401e+07,1,0.030482,-0.011165,-0.012507,0.028311,0.054879,0.018722,0.0066005,-0.036754,-0.051427,-0.017141
29781,2.2414e+07,1,0.030482,-0.011165,-0.012507,0.028311,0.054879,0.018722,0.0066005,-0.036754,-0.051427,-0.017141
29826,2.2424e+07,1,0.030482,-0.011165,-0.012507,0.028311,0.054879,0.018722,0.0066005,-0.036754,-0.051427,-0.017141
29875,2.2434e+07,1,0.030482,-0.011165,-0.012507,0.028311,0.054879,0.018722,0.0066005,-0.036754,-0.051427,-0.017141
29920,2.2444e+07,1,0.030482,-0.011165,-0.012507,0.028311,0.054879,0.018722,0.0066005,-0.036754,-0.051427,-0.017141
29964,2.2454e+07,1,0.030482,-0.011165,-0.012507,0.028311,0.054879,0.018722,0.0066005,-0.036754,-0.051427,-0.017141
30006,2.2464e+07,1,0.030482,-0.011165,-0.012507,0.028311,0.054879,0.018722,0.0066005,-0.036754,-0.051427,-0.017141
30052,2.2476e+07,1,0.030482,-0.011165,-0.012507,0.028311,0.054879,0.018722,0.0066005,-0.036754,-0.051427,-0.017141
30098,2.2486e+07,1,0.030482,-0.011165,-0.012507,0.028311,0.054879,0.018722,0.0066005,-0.036754,-0.051427,-0.017141
30143,2.2497e+07,1,0.030482,-0.011165,-0.012507,0.028311,0.054879,0.018722,0.0066005,-0.036754,-0.051427,-0.017141
30187,2.2507e+07,1,0.030482,-0.011165,-0.012507,0.028311,0.054879,0.018722,0.0066005,-0.036754,-0.051427,-0.017141
30233,2.2518e+07,1,0.030482,-0.011165,-0.012507,0.028311,0.054879,0.018722,0.0066005,-0.036754,-0.051427,-0.017141
30282,2.2527e+07,1,0.023857,-0.014076,-0.017716,0.017994,0.043705,0.022598,0.014074,-0.024635,-0.040075,-0.010859
30328,2.2538e+07,1,0.023857,-0.014076,-0.017716,0.017994,0.043705,0.022598,0.014074,-0.024635,-0.040075,-0.010859
30373,2.2548e+07,1,0.023857,-0.014076,-0.017716,0.017994,0.043705,0.022598,0.014074,-0.024635,-0.040075,-0.010859
30417,2.2558e+07,1,0.023857,-0.014076,-0.017716,0.017994,0.043705,0.022598,0.014074,-0.024635,-0.040075,-0.010859
30462,2.2571e+07,1,0.023857,-0.014076,-0.017716,0.017994,0.043705,0.022598,0.014074,-0.024635,-0.040075,-0.010859
30506,2.2581e+07,1,0.023857,-0.014076,-0.017716,0.017994,0.043705,0.022598,0.014074,-0.024635,-0.040075,-0.010859
30550,2.2591e+07,1,0.023857,-0.014076,-0.017716,0.017994,0.043705,0.022598,0.014074,-0.024635,-0.040075,-0.010859
30595,2.2601e+07,1,0.023857,-0.014076,-0.017716,0.017994,0.043705,0.022598,0.014074,-0.024635,-0.040075,-0.010859
30639,2.2611e+07,1,0.023857,-0.014076,-0.017716,0.017994,0.043705,0.022598,0.014074,-0.024635,-0.040075,-0.010859
30685,2.2622e+07,1,0.023857,-0.014076,-0.017716,0.017994,0.043705,0.022598,0.014074,-0.024635,-0.040075,-0.010859
30735,2.2632e+07,1,0.023857,-0.014076,-0.017716,0.017994,0.043705,0.022598,0.014074,-0.024635,-0.040075,-0.010859
30779,2.2642e+07,1,0.023857,-0.014076,-0.017716,0.017994,0.043705,0.022598,0.014074,-0.024635,-0.040075,-0.010859
30824,2.2652e+07,1,0.023857,-0.014076,-0.017716,0.017994,0.043705,0.022598,0.014074,-0.024635,-0.040075,-0.010859
30868,2.2662e+07,1,0.023857,-0.014076,-0.017716,0.017994,0.043705,0.022598,0.014074,-0.024635,-0.040075,-0.010859
30913,2.2675e+07,1,0.023857,-0.014076,-0.017716,0.017994,0.043705,0.022598,0.014074,-0.024635,-0.040075,-0.010859
30956,2.2685e+07,1,0.023857,-0.014076,-0.017716,0.017994,0.043705,0.022598,0.014074,-0.024635,-0.040075,-0.010859
31001,2.2696e+07,1,0.023857,-0.014076,-0.017716,0.017994,0.043705,0.022598,0.014074,-0.024635,-0.040075,-0.010859
31046,2.2706e+07,1,0.023857,-0.014076,-0.017716,0.017994,0.043705,0.022598,0.014074,-0.024635,-0.040075,-0.010859
31090,2.2716e+07,1,0.023857,-0.014076,-0.017716,0.017994,0.043705,0.022598,0.014074,-0.024635,-0.040075,-0.010859
31141,2.2728e+07,1,0.0090286,-0.06336,-0.053946,0.02437,0.06334,0.075619,0.042112,-0.037098,-0.052664,0.017087
31189,2.2739e+07,1,0.0090286,-0.06336,-0.053946,0.02437,0.06334,0.075619,0.042112,-0.037098,-0.052664,0.017087
31234,2.2749e+07,1,0.0090286,-0.06336,-0.053946,0.02437,0.06334,0.075619,0.042112,-0.037098,-0.052664,0.017087
31278,2.2759e+07,1,0.0090286,-0.06336,-0.053946,0.02437,0.06334,0.075619,0.042112,-0.037098,-0.052664,0.017087
31323,2.2769e+07,1,0.0090286,-0.06336,-0.053946,0.02437,0.06334,0.075619,0.042112,-0.037098,-0.052664,0.017087
31362,2.278e+07,1,0.0090286,-0.06336,-0.053946,0.02437,0.06334,0.075619,0.042112,-0.037098,-0.052664,0.017087
31406,2.279e+07,1,0.0090286,-0.06336,-0.053946,0.02437,0.06334,0.075619,0.042112,-0.037098,-0.052664,0.017087
31451,2.2801e+07,1,0.0090286,-0.06336,-0.053946,0.02437,0.06334,0.075619,0.042112,-0.037098,-0.052664,0.017087
31498,2.2811e+07,1,0.0090286,-0.06336,-0.053946,0.02437,0.06334,0.075619,0.042112,-0.037098,-0.052664,0.017087
31543,2.2821e+07,1,0.0090286,-0.06336,-0.053946,0.02437,0.06334,0.075619,0.042112,-0.037098,-0.052664,0.017087
31587,2.2831e+07,1,0.0090286,-0.06336,-0.053946,0.02437,0.06334,0.075619,0.042112,-0.037098,-0.052664,0.017087
31638,2.2841e+07,1,0.0090286,-0.06336,-0.053946,0.02437,0.06334,0.075619,0.042112,-0.037098,-0.052664,0.017087
31683,2.2851e+07,1,0.0090286,-0.06336,-0.053946,0.02437,0.06334,0.075619,0.042112,-0.037098,-0.052664,0.017087
31728,2.2861e+07,1,0.0090286,-0.06336,-0.053946,0.02437,0.06334,0.075619,0.042112,-0.037098,-0.052664,0.017087
31773,2.2872e+07,1,0.0090286,-0.06336,-0.053946,0.02437,0.06334,0.075619,0.042112,-0.037098,-0.052664,0.017087
31814,2.2882e+07,1,0.0090286,-0.06336,-0.053946,0.02437,0.06334,0.075619,0.042112,-0.037098,-0.052664,0.017087
31859,2.2892e+07,1,0.0090286,-0.06336,-0.053946,0.02437,0.06334,0.075619,0.042112,-0.037098,-0.052664,0.017087
31901,2.2903e+07,1,0.0090286,-0.06336,-0.053946,0.02437,0.06334,0.075619,0.042112,-0.037098,-0.052664,0.017087
31946,2.2913e+07,1,0.0090286,-0.06336,-0.053946,0.02437,0.06334,0.075619,0.042112,-0.037098,-0.052664,0.017087
31992,2.2924e+07,1,0.0090286,-0.06336,-0.053946,0.02437,0.06334,0.075619,0.042112,-0.037098,-0.052664,0.017087
32038,2.2934e+07,1,0.0090286,-0.06336,-0.053946,0.02437,0.06334,0.075619,0.042112,-0.037098,-0.052664,0.017087
32087,2.2944e+07,1,0.015869,-0.073269,-0.072148,0.017674,0.072141,0.079885,0.049695,-0.04437,-0.072431,0.0043799
32131,2.2954e+07,1,0.015869,-0.073269,-0.072148,0.017674,0.072141,0.079885,0.049695,-0.04437,-0.072431,0.0043799
32176,2.2964e+07,1,0.015869,-0.073269,-0.072148,0.017674,0.072141,0.079885,0.049695,-0.04437,-0.072431,0.0043799
32224,2.2974e+07,1,0.015869,-0.073269,-0.072148,0.017674,0.072141,0.079885,0.049695,-0.04437,-0.072431,0.0043799
32262,2.2985e+07,1,0.015869,-0.073269,-0.072148,0.017674,0.072141,0.079885,0.049695,-0.04437,-0.072431,0.0043799
32308,2.2995e+07,1,0.015869,-0.073269,-0.072148,0.017674,0.072141,0.079885,0.049695,-0.04437,-0.072431,0.0043799
32352,2.3005e+07,1,0.015869,-0.073269,-0.072148,0.017674,0.072141,0.079885,0.049695,-0.04437,-0.072431,0.0043799
32398,2.3015e+07,1,0.015869,-0.073269,-0.072148,0.017674,0.072141,0.079885,0.049695,-0.04437,-0.072431,0.0043799
32442,2.3025e+07,1,0.015869,-0.073269,-0.072148,0.017674,0.072141,0.079885,0.049695,-0.04437,-0.072431,0.0043799
32487,2.3035e+07,1,0.015869,-0.073269,-0.072148,0.017674,0.072141,0.079885,0.049695,-0.04437,-0.072431,0.0043799
32535,2.3045e+07,1,0.015869,-0.073269,-0.072148,0.017674,0.072141,0.079885,0.049695,-0.04437,-0.072431,0.0043799
32581,2.3055e+07,1,0.015869,-0.073269,-0.072148,0.017674,0.072141,0.079885,0.049695,-0.04437,-0.072431,0.0043799
32626,2.3066e+07,1,0.015869,-0.073269,-0.072148,0.017674,0.072141,0.079885,0.049695,-0.04437,-0.072431,0.0043799
32670,2.3079e+07,1,0.015869,-0.073269,-0.072148,0.017674,0.072141,0.079885,0.049695,-0.04437,-0.072431,0.0043799
32715,2.309e+07,1,0.015869,-0.073269,-0.072148,0.017674,0.072141,0.079885,0.049695,-0.04437,-0.072431,0.0043799
32758,2.31e+07,1,0.015869,-0.073269,-0.072148,0.017674,0.072141,0.079885,0.049695,-0.04437,-0.072431,0.0043799
32802,2.3111e+07,1,0.015869,-0.073269,-0.072148,0.017674,0.072141,0.079885,0.049695,-0.04437,-0.072431,0.0043799
32849,2.3121e+07,1,0.015869,-0.073269,-0.072148,0.017674,0.072141,0.079885,0.049695,-0.04437,-0.072431,0.0043799
32893,2.3131e+07,1,0.015869,-0.073269,-0.072148,0.017674,0.072141,0.079885,0.049695,-0.04437,-0.072431,0.0043799
32947,2.3143e+07,1,0.04805,-0.05512,-0.086135,-0.0021987,0.080726,0.032977,0.032102,-0.06627,-0.12616,-0.064867
32992,2.3153e+07,1,0.04805,-0.05512,-0.086135,-0.0021987,0.080726,0.032977,0.032102,-0.06627,-0.12616,-0.064867
33036,2.3164e+07,1,0.04805,-0.05512,-0.086135,-0.0021987,0.080726,0.032977,0.032102,-0.06627,-0.12616,-0.064867
33081,2.3174e+07,1,0.04805,-0.05512,-0.086135,-0.0021987,0.080726,0.032977,0.032102,-0.06627,-0.12616,-0.064867
33123,2.3187e+07,1,0.04805,-0.05512,-0.086135,-0.0021987,0.080726,0.032977,0.032102,-0.06627,-0.12616,-0.064867
33168,2.3197e+07,1,0.04805,-0.05512,-0.086135,-0.0021987,0.080726,0.032977,0.032102,-0.06627,-0.12616,-0.064867
33212,2.3207e+07,1,0.04805,-0.05512,-0.086135,-0.0021987,0.080726,0.032977,0.032102,-0.06627,-0.12616,-0.064867
33257,2.3218e+07,1,0.04805,-0.05512,-0.086135,-0.0021987,0.080726,0.032977,0.032102,-0.06627,-0.12616,-0.064867
33303,2.3227e+07,1,0.04805,-0.05512,-0.086135,-0.0021987,0.080726,0.032977,0.032102,-0.06627,-0.12616,-0.064867
33348,2.3237e+07,1,0.04805,-0.05512,-0.086135,-0.0021987,0.080726,0.032977,0.032102,-0.06627,-0.12616,-0.064867
33397,2.3248e+07,1,0.04805,-0.05512,-0.086135,-0.0021987,0.080726,0.032977,0.032102,-0.06627,-0.12616,-0.064867
33441,2.3258e+07,1,0.04805,-0.05512,-0.086135,-0.0021987,0.080726,0.032977,0.032102,-0.06627,-0.12616,-0.064867
33487,2.3268e+07,1,0.04805,-0.05512,-0.086135,-0.0021987,0.080726,0.032977,0.032102,-0.06627,-0.12616,-0.064867
33532,2.3278e+07,1,0.04805,-0.05512,-0.086135,-0.0021987,0.080726,0.032977,0.032102,-0.06627,-0.12616,-0.064867
33573,2.3292e+07,1,0.04805,-0.05512,-0.086135,-0.0021987,0.080726,0.032977,0.032102,-0.06627,-0.12616,-0.064867
33617,2.3302e+07,1,0.04805,-0.05512,-0.086135,-0.0021987,0.080726,0.032977,0.032102,-0.06627,-0.12616,-0.064867
33662,2.3312e+07,1,0.04805,-0.05512,-0.086135,-0.0021987,0.080726,0.032977,0.032102,-0.06627,-0.12616,-0.064867
33707,2.3323e+07,1,0.04805,-0.05512,-0.086135,-0.0021987,0.080726,0.032977,0.032102,-0.06627,-0.12616,-0.064867
33751,2.3332e+07,1,0.04805,-0.05512,-0.086135,-0.0021987,0.080726,0.032977,0.032102,-0.06627,-0.12616,-0.064867
33800,2.3343e+07,1,0.04805,-0.05512,-0.086135,-0.0021987,0.080726,0.032977,0.032102,-0.06627,-0.12616,-0.064867
33849,2.3353e+07,1,0.086856,0.048515,-0.022628,-0.028257,0.039692,-0.13424,-0.072106,-0.089221,-0.16241,-0.19014
33893,2.3363e+07,1,0.086856,0.048515,-0.022628,-0.028257,0.039692,-0.13424,-0.072106,-0.089221,-0.16241,-0.19014
33938,2.3373e+07,1,0.086856,0.048515,-0.022628,-0.028257,0.039692,-0.13424,-0.072106,-0.089221,-0.16241,-0.19014
33983,2.3383e+07,1,0.086856,0.048515,-0.022628,-0.028257,0.039692,-0.13424,-0.072106,-0.089221,-0.16241,-0.19014
34031,2.3396e+07,1,0.086856,0.048515,-0.022628,-0.028257,0.039692,-0.13424,-0.072106,-0.089221,-0.16241,-0.19014
34078,2.3409e+07,1,0.086856,0.048515,-0.022628,-0.028257,0.039692,-0.13424,-0.072106,-0.089221,-0.16241,-0.19014
34123,2.3419e+07,1,0.086856,0.048515,-0.022628,-0.028257,0.039692,-0.13424,-0.072106,-0.089221,-0.16241,-0.19014
34168,2.3429e+07,1,0.086856,0.048515,-0.022628,-0.028257,0.039692,-0.13424,-0.072106,-0.089221,-0.16241,-0.19014
34213,2.3439e+07,1,0.086856,0.048515,-0.022628,-0.028257,0.039692,-0.13424,-0.072106,-0.089221,-0.16241,-0.19014
34266,2.3452e+07,1,0.086856,0.048515,-0.022628,-0.028257,0.039692,-0.13424,-0.072106,-0.089221,-0.16241,-0.19014
34311,2.3462e+07,1,0.086856,0.048515,-0.022628,-0.028257,0.039692,-0.13424,-0.072106,-0.089221,-0.16241,-0.19014
34357,2.3473e+07,1,0.086856,0.048515,-0.022628,-0.028257,0.039692,-0.13424,-0.072106,-0.089221,-0.16241,-0.19014
34402,2.3483e+07,1,0.086856,0.048515,-0.022628,-0.028257,0.039692,-0.13424,-0.072106,-0.089221,-0.16241,-0.19014
34446,2.3496e+07,1,0.086856,0.048515,-0.022628,-0.028257,0.039692,-0.13424,-0.072106,-0.089221,-0.16241,-0.19014
34491,2.3509e+07,1,0.086856,0.048515,-0.022628,-0.028257,0.039692,-0.13424,-0.072106,-0.089221,-0.16241,-0.19014
34537,2.3519e+07,1,0.086856,0.048515,-0.022628,-0.028257,0.039692,-0.13424,-0.072106,-0.089221,-0.16241,-0.19014
34583,2.3529e+07,1,0.086856,0.048515,-0.022628,-0.028257,0.039692,-0.13424,-0.072106,-0.089221,-0.16241,-0.19014
34629,2.354e+07,1,-0.024664,-0.031617,-0.1377,-0.1986,-0.12817,-0.14456,-0.034643,-0.0062433,-0.098833,-0.18563
34681,2.3553e+07,1,-0.024664,-0.031617,-0.1377,-0.1986,-0.12817,-0.14456,-0.034643,-0.0062433,-0.098833,-0.18563
34725,2.3563e+07,1,-0.024664,-0.031617,-0.1377,-0.1986,-0.12817,-0.14456,-0.034643,-0.0062433,-0.098833,-0.18563
34770,2.3574e+07,1,-0.024664,-0.031617,-0.1377,-0.1986,-0.12817,-0.14456,-0.034643,-0.0062433,-0.098833,-0.18563
34815,2.3584e+07,1,-0.024664,-0.031617,-0.1377,-0.1986,-0.12817,-0.14456,-0.034643,-0.0062433,-0.098833,-0.18563
34860,2.3595e+07,1,-0.024664,-0.031617,-0.1377,-0.1986,-0.12817,-0.14456,-0.034643,-0.0062433,-0.098833,-0.18563
34905,2.3606e+07,1,-0.024664,-0.031617,-0.1377,-0.1986,-0.12817,-0.14456,-0.034643,-0.0062433,-0.098833,-0.18563
34946,2.3616e+07,1,-0.024664,-0.031617,-0.1377,-0.1986,-0.12817,-0.14456,-0.034643,-0.0062433,-0.098833,-0.18563
34992,2.3627e+07,1,-0.024664,-0.031617,-0.1377,-0.1986,-0.12817,-0.14456,-0.034643,-0.0062433,-0.098833,-0.18563
35036,2.3637e+07,1,-0.024664,-0.031617,-0.1377,-0.1986,-0.12817,-0.14456,-0.034643,-0.0062433,-0.098833,-0.18563
35083,2.3647e+07,1,-0.024664,-0.031617,-0.1377,-0.1986,-0.12817,-0.14456,-0.034643,-0.0062433,-0.098833,-0.18563
35135,2.3659e+07,1,-0.024664,-0.031617,-0.1377,-0.1986,-0.12817,-0.14456,-0.034643,-0.0062433,-0.098833,-0.18563
35179,2.367e+07,1,-0.024664,-0.031617,-0.1377,-0.1986,-0.12817,-0.14456,-0.034643,-0.0062433,-0.098833,-0.18563
35224,2.368e+07,1,-0.024664,-0.031617,-0.1377,-0.1986,-0.12817,-0.14456,-0.034643,-0.0062433,-0.098833,-0.18563
35268,2.369e+07,1,-0.024664,-0.031617,-0.1377,-0.1986,-0.12817,-0.14456,-0.034643,-0.0062433,-0.098833,-0.18563
35313,2.37e+07,1,-0.024664,-0.031617,-0.1377,-0.1986,-0.12817,-0.14456,-0.034643,-0.0062433,-0.098833,-0.18563
35352,2.3711e+07,1,-0.024664,-0.031617,-0.1377,-0.1986,-0.12817,-0.14456,-0.034643,-0.0062433,-0.098833,-0.18563
35397,2.3721e+07,1,-0.024664,-0.031617,-0.1377,-0.1986,-0.12817,-0.14456,-0.034643,-0.0062433,-0.098833,-0.18563
35442,2.3731e+07,1,-0.024664,-0.031617,-0.1377,-0.1986,-0.12817,-0.14456,-0.034643,-0.0062433,-0.098833,-0.18563
35489,2.3742e+07,1,-0.024664,-0.031617,-0.1377,-0.1986,-0.12817,-0.14456,-0.034643,-0.0062433,-0.098833,-0.18563
35534,2.3752e+07,1,0.20362,0.19865,0.07883,0.0035628,0.082609,-0.23097,-0.10516,-0.06802,-0.17208,-0.27624
35583,2.3762e+07,1,0.20362,0.19865,0.07883,0.0035628,0.082609,-0.23097,-0.10516,-0.06802,-0.17208,-0.27624
35628,2.3772e+07,1,0.20362,0.19865,0.07883,0.0035628,0.082609,-0.23097,-0.10516,-0.06802,-0.17208,-0.27624
35673,2.3782e+07,1,0.20362,0.19865,0.07883,0.0035628,0.082609,-0.23097,-0.10516,-0.06802,-0.17208,-0.27624
35717,2.3792e+07,1,0.20362,0.19865,0.07883,0.0035628,0.082609,-0.23097,-0.10516,-0.06802,-0.17208,-0.27624
35762,2.3802e+07,1,0.20362,0.19865,0.07883,0.0035628,0.082609,-0.23097,-0.10516,-0.06802,-0.17208,-0.27624
35806,2.3812e+07,1,0.20362,0.19865,0.07883,0.0035628,0.082609,-0.23097,-0.10516,-0.06802,-0.17208,-0.27624
35851,2.3822e+07,1,0.20362,0.19865,0.07883,0.0035628,0.082609,-0.23097,-0.10516,-0.06802,-0.17208,-0.27624
35893,2.3832e+07,1,0.20362,0.19865,0.07883,0.0035628,0.082609,-0.23097,-0.10516,-0.06802,-0.17208,-0.27624
35937,2.3843e+07,1,0.20362,0.19865,0.07883,0.0035628,0.082609,-0.23097,-0.10516,-0.06802,-0.17208,-0.27624
35983,2.3853e+07,1,0.20362,0.19865,0.07883,0.0035628,0.082609,-0.23097,-0.10516,-0.06802,-0.17208,-0.27624
36034,2.3863e+07,1,0.20362,0.19865,0.07883,0.0035628,0.082609,-0.23097,-0.10516,-0.06802,-0.17208,-0.27624
36080,2.3873e+07,1,0.20362,0.19865,0.07883,0.0035628,0.082609,-0.23097,-0.10516,-0.06802,-0.17208,-0.27624
36125,2.3883e+07,1,0.20362,0.19865,0.07883,0.0035628,0.082609,-0.23097,-0.10516,-0.06802,-0.17208,-0.27624
36169,2.3893e+07,1,0.20362,0.19865,0.07883,0.0035628,0.082609,-0.23097,-0.10516,-0.06802,-0.17208,-0.27624
36215,2.3903e+07,1,0.20362,0.19865,0.07883,0.0035628,0.082609,-0.23097,-0.10516,-0.06802,-0.17208,-0.27624
36253,2.3914e+07,1,0.20362,0.19865,0.07883,0.0035628,0.082609,-0.23097,-0.10516,-0.06802,-0.17208,-0.27624
36299,2.3924e+07,1,0.20362,0.19865,0.07883,0.0035628,0.082609,-0.23097,-0.10516,-0.06802,-0.17208,-0.27624
36343,2.3934e+07,1,0.20362,0.19865,0.07883,0.0035628,0.082609,-0.23097,-0.10516,-0.06802,-0.17208,-0.27624
36390,2.3944e+07,1,0.20362,0.19865,0.07883,0.0035628,0.082609,-0.23097,-0.10516,-0.06802,-0.17208,-0.27624
36434,2.3954e+07,1,0.068256,0.027947,-0.061973,-0.08423,-0.002756,-0.10426,-0.020321,-0.029927,-0.11919,-0.16946
36486,2.3964e+07,1,0.068256,0.027947,-0.061973,-0.08423,-0.002756,-0.10426,-0.020321,-0.029927,-0.11919,-0.16946
36531,2.3975e+07,1,0.068256,0.027947,-0.061973,-0.08423,-0.002756,-0.10426,-0.020321,-0.029927,-0.11919,-0.16946
36576,2.3985e+07,1,0.068256,0.027947,-0.061973,-0.08423,-0.002756,-0.10426,-0.020321,-0.029927,-0.11919,-0.16946
36621,2.3995e+07,1,0.068256,0.027947,-0.061973,-0.08423,-0.002756,-0.10426,-0.020321,-0.029927,-0.11919,-0.16946
36662,2.4005e+07,1,0.068256,0.027947,-0.061973,-0.08423,-0.002756,-0.10426,-0.020321,-0.029927,-0.11919,-0.16946
36706,2.4015e+07,1,0.068256,0.027947,-0.061973,-0.08423,-0.002756,-0.10426,-0.020321,-0.029927,-0.11919,-0.16946
36747,2.4026e+07,1,0.068256,0.027947,-0.061973,-0.08423,-0.002756,-0.10426,-0.020321,-0.029927,-0.11919,-0.16946
36792,2.4036e+07,1,0.068256,0.027947,-0.061973,-0.08423,-0.002756,-0.10426,-0.020321,-0.029927,-0.11919,-0.16946
36836,2.4046e+07,1,0.068256,0.027947,-0.061973,-0.08423,-0.002756,-0.10426,-0.020321,-0.029927,-0.11919,-0.16946
36880,2.4056e+07,1,0.068256,0.027947,-0.061973,-0.08423,-0.002756,-0.10426,-0.020321,-0.029927,-0.11919,-0.16946
36929,2.4066e+07,1,0.068256,0.027947,-0.061973,-0.08423,-0.002756,-0.10426,-0.020321,-0.029927,-0.11919,-0.16946
36973,2.4076e+07,1,0.068256,0.027947,-0.061973,-0.08423,-0.002756,-0.10426,-0.020321,-0.029927,-0.11919,-0.16946
37020,2.4086e+07,1,0.068256,0.027947,-0.061973,-0.08423,-0.002756,-0.10426,-0.020321,-0.029927,-0.11919,-0.16946
37065,2.4096e+07,1,0.068256,0.027947,-0.061973,-0.08423,-0.002756,-0.10426,-0.020321,-0.029927,-0.11919,-0.16946
37109,2.4109e+07,1,0.068256,0.027947,-0.061973,-0.08423,-0.002756,-0.10426,-0.020321,-0.029927,-0.11919,-0.16946
37158,2.4122e+07,1,0.068256,0.027947,-0.061973,-0.08423,-0.002756,-0.10426,-0.020321,-0.029927,-0.11919,-0.16946
37201,2.4132e+07,1,0.068256,0.027947,-0.061973,-0.08423,-0.002756,-0.10426,-0.020321,-0.029927,-0.11919,-0.16946
37247,2.4142e+07,1,0.12935,0.087482,-0.019655,-0.053881,0.039615,-0.10927,-0.0067025,-0.01087,-0.11515,-0.18211
37292,2.4152e+07,1,0.12935,0.087482,-0.019655,-0.053881,0.039615,-0.10927,-0.0067025,-0.01087,-0.11515,-0.18211
37339,2.4162e+07,1,0.12935,0.087482,-0.019655,-0.053881,0.039615,-0.10927,-0.0067025,-0.01087,-0.11515,-0.18211
37385,2.4172e+07,1,0.12935,0.087482,-0.019655,-0.053881,0.039615,-0.10927,-0.0067025,-0.01087,-0.11515,-0.18211
37429,2.4182e+07,1,0.12935,0.087482,-0.019655,-0.053881,0.039615,-0.10927,-0.0067025,-0.01087,-0.11515,-0.18211
37474,2.4192e+07,1,0.12935,0.087482,-0.019655,-0.053881,0.039615,-0.10927,-0.0067025,-0.01087,-0.11515,-0.18211
37519,2.4202e+07,1,0.12935,0.087482,-0.019655,-0.053881,0.039615,-0.10927,-0.0067025,-0.01087,-0.11515,-0.18211
37565,2.4215e+07,1,0.12935,0.087482,-0.019655,-0.053881,0.039615,-0.10927,-0.0067025,-0.01087,-0.11515,-0.18211
37607,2.4225e+07,1,0.12935,0.087482,-0.019655,-0.053881,0.039615,-0.10927,-0.0067025,-0.01087,-0.11515,-0.18211
37651,2.4235e+07,1,0.12935,0.087482,-0.019655,-0.053881,0.039615,-0.10927,-0.0067025,-0.01087,-0.11515,-0.18211
37696,2.4245e+07,1,0.12935,0.087482,-0.019655,-0.053881,0.039615,-0.10927,-0.0067025,-0.01087,-0.11515,-0.18211
37740,2.4256e+07,1,0.12935,0.087482,-0.019655,-0.053881,0.039615,-0.10927,-0.0067025,-0.01087,-0.11515,-0.18211
37790,2.4266e+07,1,0.12935,0.087482,-0.019655,-0.053881,0.039615,-0.10927,-0.0067025,-0.01087,-0.11515,-0.18211
37834,2.4276e+07,1,0.12935,0.087482,-0.019655,-0.053881,0.039615,-0.10927,-0.0067025,-0.01087,-0.11515,-0.18211
37879,2.4286e+07,1,0.12935,0.087482,-0.019655,-0.053881,0.039615,-0.10927,-0.0067025,-0.01087,-0.11515,-0.18211
37924,2.4297e+07,1,0.12935,0.087482,-0.019655,-0.053881,0.039615,-0.10927,-0.0067025,-0.01087,-0.11515,-0.18211
37969,2.4308e+07,1,0.12935,0.087482,-0.019655,-0.053881,0.039615,-0.10927,-0.0067025,-0.01087,-0.11515,-0.18211
38013,2.4318e+07,1,0.12935,0.087482,-0.019655,-0.053881,0.039615,-0.10927,-0.0067025,-0.01087,-0.11515,-0.18211
38057,2.4328e+07,1,0.12935,0.087482,-0.019655,-0.053881,0.039615,-0.10927,-0.0067025,-0.01087,-0.11515,-0.18211
38104,2.4338e+07,1,0.017807,-0.040765,-0.24204,-0.32974,-0.16824,-0.2176,-0.015625,-0.0011491,-0.18878,-0.33695
38148,2.4349e+07,1,0.017807,-0.040765,-0.24204,-0.32974,-0.16824,-0.2176,-0.015625,-0.0011491,-0.18878,-0.33695
38194,2.4359e+07,1,0.017807,-0.040765,-0.24204,-0.32974,-0.16824,-0.2176,-0.015625,-0.0011491,-0.18878,-0.33695
38243,2.437e+07,1,0.017807,-0.040765,-0.24204,-0.32974,-0.16824,-0.2176,-0.015625,-0.0011491,-0.18878,-0.33695
38287,2.438e+07,1,0.017807,-0.040765,-0.24204,-0.32974,-0.16824,-0.2176,-0.015625,-0.0011491,-0.18878,-0.33695
38332,2.439e+07,1,0.017807,-0.040765,-0.24204,-0.32974,-0.16824,-0.2176,-0.015625,-0.0011491,-0.18878,-0.33695
38376,2.44e+07,1,0.017807,-0.040765,-0.24204,-0.32974,-0.16824,-0.2176,-0.015625,-0.0011491,-0.18878,-0.33695
38423,2.4411e+07,1,0.017807,-0.040765,-0.24204,-0.32974,-0.16824,-0.2176,-0.015625,-0.0011491,-0.18878,-0.33695
38465,2.4421e+07,1,0.017807,-0.040765,-0.24204,-0.32974,-0.16824,-0.2176,-0.015625,-0.0011491,-0.18878,-0.33695
38506,2.4431e+07,1,0.017807,-0.040765,-0.24204,-0.32974,-0.16824,-0.2176,-0.015625,-0.0011491,-0.18878,-0.33695
38551,2.4442e+07,1,0.017807,-0.040765,-0.24204,-0.32974,-0.16824,-0.2176,-0.015625,-0.0011491,-0.18878,-0.33695
38595,2.4452e+07,1,0.017807,-0.040765,-0.24204,-0.32974,-0.16824,-0.2176,-0.015625,-0.0011491,-0.18878,-0.33695
38643,2.4462e+07,1,0.017807,-0.040765,-0.24204,-0.32974,-0.16824,-0.2176,-0.015625,-0.0011491,-0.18878,-0.33695
38691,2.4472e+07,1,0.017807,-0.040765,-0.24204,-0.32974,-0.16824,-0.2176,-0.015625,-0.0011491,-0.18878,-0.33695
38736,2.4483e+07,1,0.017807,-0.040765,-0.24204,-0.32974,-0.16824,-0.2176,-0.015625,-0.0011491,-0.18878,-0.33695
38780,2.4493e+07,1,0.017807,-0.040765,-0.24204,-0.32974,-0.16824,-0.2176,-0.015625,-0.0011491,-0.18878,-0.33695
38826,2.4503e+07,1,0.017807,-0.040765,-0.24204,-0.32974,-0.16824,-0.2176,-0.015625,-0.0011491,-0.18878,-0.33695
38870,2.4513e+07,1,0.017807,-0.040765,-0.24204,-0.32974,-0.16824,-0.2176,-0.015625,-0.0011491,-0.18878,-0.33695
38909,2.4523e+07,1,0.017807,-0.040765,-0.24204,-0.32974,-0.16824,-0.2176,-0.015625,-0.0011491,-0.18878,-0.33695
38954,2.4533e+07,1,0.017807,-0.040765,-0.24204,-0.32974,-0.16824,-0.2176,-0.015625,-0.0011491,-0.18878,-0.33695
39001,2.4544e+07,1,0.40524,0.29201,0.078301,0.022908,0.24047,-0.22306,-0.029707,-0.058183,-0.28225,-0.40444
39045,2.4554e+07,1,0.40524,0.29201,0.078301,0.022908,0.24047,-0.22306,-0.029707,-0.058183,-0.28225,-0.40444
39091,2.4564e+07,1,0.40524,0.29201,0.078301,0.022908,0.24047,-0.22306,-0.029707,-0.058183,-0.28225,-0.40444
39139,2.4574e+07,1,0.40524,0.29201,0.078301,0.022908,0.24047,-0.22306,-0.029707,-0.058183,-0.28225,-0.40444
39184,2.4584e+07,1,0.40524,0.29201,0.078301,0.022908,0.24047,-0.22306,-0.029707,-0.058183,-0.28225,-0.40444
39228,2.4595e+07,1,0.40524,0.29201,0.078301,0.022908,0.24047,-0.22306,-0.029707,-0.058183,-0.28225,-0.40444
39274,2.4605e+07,1,0.40524,0.29201,0.078301,0.022908,0.24047,-0.22306,-0.029707,-0.058183,-0.28225,-0.40444
39319,2.4618e+07,1,0.40524,0.29201,0.078301,0.022908,0.24047,-0.22306,-0.029707,-0.058183,-0.28225,-0.40444
39361,2.4628e+07,1,0.40524,0.29201,0.078301,0.022908,0.24047,-0.22306,-0.029707,-0.058183,-0.28225,-0.40444
39406,2.4639e+07,1,0.40524,0.29201,0.078301,0.022908,0.24047,-0.22306,-0.029707,-0.058183,-0.28225,-0.40444
39451,2.4649e+07,1,0.40524,0.29201,0.078301,0.022908,0.24047,-0.22306,-0.029707,-0.058183,-0.28225,-0.40444
39496,2.466e+07,1,0.40524,0.29201,0.078301,0.022908,0.24047,-0.22306,-0.029707,-0.058183,-0.28225,-0.40444
39541,2.467e+07,1,0.40524,0.29201,0.078301,0.022908,0.24047,-0.22306,-0.029707,-0.058183,-0.28225,-0.40444
39590,2.4681e+07,1,0.40524,0.29201,0.078301,0.022908,0.24047,-0.22306,-0.029707,-0.058183,-0.28225,-0.40444
39634,2.4691e+07,1,0.40524,0.29201,0.078301,0.022908,0.24047,-0.22306,-0.029707,-0.058183,-0.28225,-0.40444
39679,2.4701e+07,1,0.40524,0.29201,0.078301,0.022908,0.24047,-0.22306,-0.029707,-0.058183,-0.28225,-0.40444
39727,2.4714e+07,1,0.40524,0.29201,0.078301,0.022908,0.24047,-0.22306,-0.029707,-0.058183,-0.28225,-0.40444
39772,2.4724e+07,1,0.40524,0.29201,0.078301,0.022908,0.24047,-0.22306,-0.029707,-0.058183,-0.28225,-0.40444
39816,2.4735e+07,1,0.1901,-0.0023578,-0.17251,-0.13722,0.11317,-0.20702,-0.086208,-0.20219,-0.41935,-0.45105
39860,2.4745e+07,1,0.1901,-0.0023578,-0.17251,-0.13722,0.11317,-0.20702,-0.086208,-0.20219,-0.41935,-0.45105
39905,2.4756e+07,1,0.1901,-0.0023578,-0.17251,-0.13722,0.11317,-0.20702,-0.086208,-0.20219,-0.41935,-0.45105
39950,2.4766e+07,1,0.1901,-0.0023578,-0.17251,-0.13722,0.11317,-0.20702,-0.086208,-0.20219,-0.41935,-0.45105
39995,2.4776e+07,1,0.1901,-0.0023578,-0.17251,-0.13722,0.11317,-0.20702,-0.086208,-0.20219,-0.41935,-0.45105
40045,2.4786e+07,1,0.1901,-0.0023578,-0.17251,-0.13722,0.11317,-0.20702,-0.086208,-0.20219,-0.41935,-0.45105
40089,2.4796e+07,1,0.1901,-0.0023578,-0.17251,-0.13722,0.11317,-0.20702,-0.086208,-0.20219,-0.41935,-0.45105
40134,2.4807e+07,1,0.1901,-0.0023578,-0.17251,-0.13722,0.11317,-0.20702,-0.086208,-0.20219,-0.41935,-0.45105
40178,2.4817e+07,1,0.1901,-0.0023578,-0.17251,-0.13722,0.11317,-0.20702,-0.086208,-0.20219,-0.41935,-0.45105
40218,2.4828e+07,1,0.1901,-0.0023578,-0.17251,-0.13722,0.11317,-0.20702,-0.086208,-0.20219,-0.41935,-0.45105
40262,2.4839e+07,1,0.1901,-0.0023578,-0.17251,-0.13722,0.11317,-0.20702,-0.086208,-0.20219,-0.41935,-0.45105
40309,2.4849e+07,1,0.1901,-0.0023578,-0.17251,-0.13722,0.11317,-0.20702,-0.086208,-0.20219,-0.41935,-0.45105
40353,2.4859e+07,1,0.1901,-0.0023578,-0.17251,-0.13722,0.11317,-0.20702,-0.086208,-0.20219,-0.41935,-0.45105
40397,2.487e+07,1,0.1901,-0.0023578,-0.17251,-0.13722,0.11317,-0.20702,-0.086208,-0.20219,-0.41935,-0.45105
40442,2.488e+07,1,0.1901,-0.0023578,-0.17251,-0.13722,0.11317,-0.20702,-0.086208,-0.20219,-0.41935,-0.45105
40492,2.4891e+07,1,0.1901,-0.0023578,-0.17251,-0.13722,0.11317,-0.20702,-0.086208,-0.20219,-0.41935,-0.45105
40538,2.4901e+07,1,0.1901,-0.0023578,-0.17251,-0.13722,0.11317,-0.20702,-0.086208,-0.20219,-0.41935,-0.45105
40583,2.4911e+07,1,0.1901,-0.0023578,-0.17251,-0.13722,0.11317,-0.20702,-0.086208,-0.20219,-0.41935,-0.45105
40628,2.4922e+07,1,0.1901,-0.0023578,-0.17251,-0.13722,0.11317,-0.20702,-0.086208,-0.20219,-0.41935,-0.45105
40680,2.4938e+07,1,0.1901,-0.0023578,-0.17251,-0.13722,0.11317,-0.20702,-0.086208,-0.20219,-0.41935,-0.45105
40724,2.4948e+07,1,0.1901,-0.0023578,-0.17251,-0.13722,0.11317,-0.20702,-0.086208,-0.20219,-0.41935,-0.45105
40772,2.4958e+07,1,0.18086,-0.059435,-0.13666,0.030703,0.28508,0.13325,0.10843,-0.094384,-0.27352,-0.13229
40817,2.4968e+07,1,0.18086,-0.059435,-0.13666,0.030703,0.28508,0.13325,0.10843,-0.094384,-0.27352,-0.13229
40863,2.4978e+07,1,0.18086,-0.059435,-0.13666,0.030703,0.28508,0.13325,0.10843,-0.094384,-0.27352,-0.13229
40912,2.4988e+07,1,0.18086,-0.059435,-0.13666,0.030703,0.28508,0.13325,0.10843,-0.094384,-0.27352,-0.13229
40956,2.4998e+07,1,0.18086,-0.059435,-0.13666,0.030703,0.28508,0.13325,0.10843,-0.094384,-0.27352,-0.13229
41001,2.5009e+07,1,0.18086,-0.059435,-0.13666,0.030703,0.28508,0.13325,0.10843,-0.094384,-0.27352,-0.13229
41046,2.5019e+07,1,0.18086,-0.059435,-0.13666,0.030703,0.28508,0.13325,0.10843,-0.094384,-0.27352,-0.13229
41091,2.5029e+07,1,0.18086,-0.059435,-0.13666,0.030703,0.28508,0.13325,0.10843,-0.094384,-0.27352,-0.13229
41133,2.5045e+07,1,0.18086,-0.059435,-0.13666,0.030703,0.28508,0.13325,0.10843,-0.094384,-0.27352,-0.13229
41178,2.5056e+07,1,0.18086,-0.059435,-0.13666,0.030703,0.28508,0.13325,0.10843,-0.094384,-0.27352,-0.13229
41222,2.5067e+07,1,0.18086,-0.059435,-0.13666,0.030703,0.28508,0.13325,0.10843,-0.094384,-0.27352,-0.13229
41268,2.5077e+07,1,0.18086,-0.059435,-0.13666,0.030703,0.28508,0.13325,0.10843,-0.094384,-0.27352,-0.13229
41312,2.5088e+07,1,0.18086,-0.059435,-0.13666,0.030703,0.28508,0.13325,0.10843,-0.094384,-0.27352,-0.13229
41361,2.5098e+07,1,0.18086,-0.059435,-0.13666,0.030703,0.28508,0.13325,0.10843,-0.094384,-0.27352,-0.13229
41406,2.5107e+07,1,0.18086,-0.059435,-0.13666,0.030703,0.28508,0.13325,0.10843,-0.094384,-0.27352,-0.13229
41451,2.5118e+07,1,0.18086,-0.059435,-0.13666,0.030703,0.28508,0.13325,0.10843,-0.094384,-0.27352,-0.13229
41498,2.5128e+07,1,0.082268,-0.14552,-0.17422,0.030624,0.25222,0.13125,0.048087,-0.16634,-0.30633,-0.10544
41540,2.5142e+07,1,0.075369,-0.1239,-0.15863,0.016621,0.21846,0.11934,0.055023,-0.12992,-0.26256,-0.090875
41582,2.5154e+07,1,0.075369,-0.1239,-0.15863,0.016621,0.21846,0.11934,0.055023,-0.12992,-0.26256,-0.090875
41626,2.5164e+07,1,0.075369,-0.1239,-0.15863,0.016621,0.21846,0.11934,0.055023,-0.12992,-0.26256,-0.090875
41670,2.5174e+07,1,0.075369,-0.1239,-0.15863,0.016621,0.21846,0.11934,0.055023,-0.12992,-0.26256,-0.090875
41717,2.5184e+07,1,0.075369,-0.1239,-0.15863,0.016621,0.21846,0.11934,0.055023,-0.12992,-0.26256,-0.090875
41761,2.5194e+07,1,0.075369,-0.1239,-0.15863,0.016621,0.21846,0.11934,0.055023,-0.12992,-0.26256,-0.090875
41810,2.5204e+07,1,0.075369,-0.1239,-0.15863,0.016621,0.21846,0.11934,0.055023,-0.12992,-0.26256,-0.090875
41854,2.5214e+07,1,0.075369,-0.1239,-0.15863,0.016621,0.21846,0.11934,0.055023,-0.12992,-0.26256,-0.090875
41899,2.5224e+07,1,0.075369,-0.1239,-0.15863,0.016621,0.21846,0.11934,0.055023,-0.12992,-0.26256,-0.090875
41944,2.5234e+07,1,0.075369,-0.1239,-0.15863,0.016621,0.21846,0.11934,0.055023,-0.12992,-0.26256,-0.090875
41982,2.5248e+07,1,0.075369,-0.1239,-0.15863,0.016621,0.21846,0.11934,0.055023,-0.12992,-0.26256,-0.090875
42027,2.5258e+07,1,0.075369,-0.1239,-0.15863,0.016621,0.21846,0.11934,0.055023,-0.12992,-0.26256,-0.090875
42072,2.5268e+07,1,0.075369,-0.1239,-0.15863,0.016621,0.21846,0.11934,0.055023,-0.12992,-0.26256,-0.090875
42117,2.5278e+07,1,0.075369,-0.1239,-0.15863,0.016621,0.21846,0.11934,0.055023,-0.12992,-0.26256,-0.090875
42163,2.5288e+07,1,0.075369,-0.1239,-0.15863,0.016621,0.21846,0.11934,0.055023,-0.12992,-0.26256,-0.090875
42207,2.5299e+07,1,0.075369,-0.1239,-0.15863,0.016621,0.21846,0.11934,0.055023,-0.12992,-0.26256,-0.090875
42256,2.5309e+07,1,0.075369,-0.1239,-0.15863,0.016621,0.21846,0.11934,0.055023,-0.12992,-0.26256,-0.090875
42302,2.5319e+07,1,0.075369,-0.1239,-0.15863,0.016621,0.21846,0.11934,0.055023,-0.12992,-0.26256,-0.090875
42348,2.5329e+07,1,0.075369,-0.1239,-0.15863,0.016621,0.21846,0.11934,0.055023,-0.12992,-0.26256,-0.090875
42394,2.534e+07,1,0.075369,-0.1239,-0.15863,0.016621,0.21846,0.11934,0.055023,-0.12992,-0.26256,-0.090875
42436,2.5352e+07,1,-0.094208,-0.2543,-0.25276,-0.075959,0.069138,0.34281,0.252,0.085816,0.00019852,0.18769
42478,2.5365e+07,1,-0.078591,-0.21141,-0.20396,-0.059318,0.054975,0.28249,0.20411,0.066316,0.0035392,0.1544
42522,2.5375e+07,1,-0.078591,-0.21141,-0.20396,-0.059318,0.054975,0.28249,0.20411,0.066316,0.0035392,0.1544
42567,2.5385e+07,1,-0.078591,-0.21141,-0.20396,-0.059318,0.054975,0.28249,0.20411,0.066316,0.0035392,0.1544
42612,2.5395e+07,1,-0.078591,-0.21141,-0.20396,-0.059318,0.054975,0.28249,0.20411,0.066316,0.0035392,0.1544
42656,2.5405e+07,1,-0.078591,-0.21141,-0.20396,-0.059318,0.054975,0.28249,0.20411,0.066316,0.0035392,0.1544
42706,2.5415e+07,1,-0.078591,-0.21141,-0.20396,-0.059318,0.054975,0.28249,0.20411,0.066316,0.0035392,0.1544
42751,2.5425e+07,1,-0.078591,-0.21141,-0.20396,-0.059318,0.054975,0.28249,0.20411,0.066316,0.0035392,0.1544
42796,2.5435e+07,1,-0.078591,-0.21141,-0.20396,-0.059318,0.054975,0.28249,0.20411,0.066316,0.0035392,0.1544
42840,2.5445e+07,1,-0.078591,-0.21141,-0.20396,-0.059318,0.054975,0.28249,0.20411,0.066316,0.0035392,0.1544
42884,2.5457e+07,1,-0.078591,-0.21141,-0.20396,-0.059318,0.054975,0.28249,0.20411,0.066316,0.0035392,0.1544
42928,2.5468e+07,1,-0.078591,-0.21141,-0.20396,-0.059318,0.054975,0.28249,0.20411,0.066316,0.0035392,0.1544
42970,2.548e+07,1,-0.078591,-0.21141,-0.20396,-0.059318,0.054975,0.28249,0.20411,0.066316,0.0035392,0.1544
43015,2.549e+07,1,-0.078591,-0.21141,-0.20396,-0.059318,0.054975,0.28249,0.20411,0.066316,0.0035392,0.1544
43061,2.5501e+07,1,-0.078591,-0.21141,-0.20396,-0.059318,0.054975,0.28249,0.20411,0.066316,0.0035392,0.1544
43106,2.5511e+07,1,-0.078591,-0.21141,-0.20396,-0.059318,0.054975,0.28249,0.20411,0.066316,0.0035392,0.1544
43155,2.5521e+07,1,-0.078591,-0.21141,-0.20396,-0.059318,0.054975,0.28249,0.20411,0.066316,0.0035392,0.1544
43201,2.5531e+07,1,-0.078591,-0.21141,-0.20396,-0.059318,0.054975,0.28249,0.20411,0.066316,0.0035392,0.1544
43246,2.5541e+07,1,0.075767,-0.0081212,0.063802,0.2188,0.25267,0.16066,0.028731,-0.090387,-0.078128,0.1046
43290,2.5552e+07,1,0.075767,-0.0081212,0.063802,0.2188,0.25267,0.16066,0.028731,-0.090387,-0.078128,0.1046
43335,2.5562e+07,1,0.075767,-0.0081212,0.063802,0.2188,0.25267,0.16066,0.028731,-0.090387,-0.078128,0.1046
43376,2.5574e+07,1,0.075767,-0.0081212,0.063802,0.2188,0.25267,0.16066,0.028731,-0.090387,-0.078128,0.1046
43421,2.5588e+07,1,0.075767,-0.0081212,0.063802,0.2188,0.25267,0.16066,0.028731,-0.090387,-0.078128,0.1046
43466,2.5598e+07,1,0.075767,-0.0081212,0.063802,0.2188,0.25267,0.16066,0.028731,-0.090387,-0.078128,0.1046
43511,2.5608e+07,1,0.075767,-0.0081212,0.063802,0.2188,0.25267,0.16066,0.028731,-0.090387,-0.078128,0.1046
43559,2.5619e+07,1,0.075767,-0.0081212,0.063802,0.2188,0.25267,0.16066,0.028731,-0.090387,-0.078128,0.1046
43605,2.5629e+07,1,0.075767,-0.0081212,0.063802,0.2188,0.25267,0.16066,0.028731,-0.090387,-0.078128,0.1046
43650,2.5639e+07,1,0.075767,-0.0081212,0.063802,0.2188,0.25267,0.16066,0.028731,-0.090387,-0.078128,0.1046
43695,2.5649e+07,1,0.075767,-0.0081212,0.063802,0.2188,0.25267,0.16066,0.028731,-0.090387,-0.078128,0.1046
43740,2.5667e+07,1,0.075767,-0.0081212,0.063802,0.2188,0.25267,0.16066,0.028731,-0.090387,-0.078128,0.1046
43785,2.5678e+07,1,0.075767,-0.0081212,0.063802,0.2188,0.25267,0.16066,0.028731,-0.090387,-0.078128,0.1046
43830,2.5688e+07,1,0.075767,-0.0081212,0.063802,0.2188,0.25267,0.16066,0.028731,-0.090387,-0.078128,0.1046
43875,2.5698e+07,1,0.075767,-0.0081212,0.063802,0.2188,0.25267,0.16066,0.028731,-0.090387,-0.078128,0.1046
43921,2.5708e+07,1,0.075767,-0.0081212,0.063802,0.2188,0.25267,0.16066,0.028731,-0.090387,-0.078128,0.1046
43965,2.5719e+07,1,0.075767,-0.0081212,0.063802,0.2188,0.25267,0.16066,0.028731,-0.090387,-0.078128,0.1046
44014,2.5729e+07,1,0.075767,-0.0081212,0.063802,0.2188,0.25267,0.16066,0.028731,-0.090387,-0.078128,0.1046
44059,2.574e+07,1,0.075767,-0.0081212,0.063802,0.2188,0.25267,0.16066,0.028731,-0.090387,-0.078128,0.1046
44105,2.5751e+07,1,0.075767,-0.0081212,0.063802,0.2188,0.25267,0.16066,0.028731,-0.090387,-0.078128,0.1046
44150,2.5761e+07,1,-0.34338,-0.3824,-0.22378,-0.020281,-0.072652,0.24937,0.02782,-0.092845,0.0044664,0.27271
44188,2.5774e+07,1,-0.29493,-0.30789,-0.16291,-0.0078569,-0.067219,0.19598,0.0032862,-0.080007,0.017616,0.23253
44232,2.5785e+07,1,-0.29493,-0.30789,-0.16291,-0.0078569,-0.067219,0.19598,0.0032862,-0.080007,0.017616,0.23253
44276,2.5796e+07,1,-0.29493,-0.30789,-0.16291,-0.0078569,-0.067219,0.19598,0.0032862,-0.080007,0.017616,0.23253
44322,2.5806e+07,1,-0.29493,-0.30789,-0.16291,-0.0078569,-0.067219,0.19598,0.0032862,-0.080007,0.017616,0.23253
44367,2.5816e+07,1,-0.29493,-0.30789,-0.16291,-0.0078569,-0.067219,0.19598,0.0032862,-0.080007,0.017616,0.23253
44411,2.5826e+07,1,-0.29493,-0.30789,-0.16291,-0.0078569,-0.067219,0.19598,0.0032862,-0.080007,0.017616,0.23253
44460,2.5836e+07,1,-0.29493,-0.30789,-0.16291,-0.0078569,-0.067219,0.19598,0.0032862,-0.080007,0.017616,0.23253
44504,2.5847e+07,1,-0.29493,-0.30789,-0.16291,-0.0078569,-0.067219,0.19598,0.0032862,-0.080007,0.017616,0.23253
44549,2.5858e+07,1,-0.29493,-0.30789,-0.16291,-0.0078569,-0.067219,0.19598,0.0032862,-0.080007,0.017616,0.23253
44595,2.5868e+07,1,-0.29493,-0.30789,-0.16291,-0.0078569,-0.067219,0.19598,0.0032862,-0.080007,0.017616,0.23253
44636,2.588e+07,1,-0.29493,-0.30789,-0.16291,-0.0078569,-0.067219,0.19598,0.0032862,-0.080007,0.017616,0.23253
44681,2.5894e+07,1,-0.29493,-0.30789,-0.16291,-0.0078569,-0.067219,0.19598,0.0032862,-0.080007,0.017616,0.23253
44725,2.5904e+07,1,-0.29493,-0.30789,-0.16291,-0.0078569,-0.067219,0.19598,0.0032862,-0.080007,0.017616,0.23253
44771,2.5914e+07,1,-0.29493,-0.30789,-0.16291,-0.0078569,-0.067219,0.19598,0.0032862,-0.080007,0.017616,0.23253
44816,2.5924e+07,1,-0.29493,-0.30789,-0.16291,-0.0078569,-0.067219,0.19598,0.0032862,-0.080007,0.017616,0.23253
44862,2.5934e+07,1,-0.29493,-0.30789,-0.16291,-0.0078569,-0.067219,0.19598,0.0032862,-0.080007,0.017616,0.23253
44914,2.5945e+07,1,-0.32676,-0.38772,-0.13068,0.17055,0.11033,0.47342,0.11028,-0.068657,0.081612,0.48865
44963,2.5955e+07,1,-0.32676,-0.38772,-0.13068,0.17055,0.11033,0.47342,0.11028,-0.068657,0.081612,0.48865
45007,2.5965e+07,1,-0.32676,-0.38772,-0.13068,0.17055,0.11033,0.47342,0.11028,-0.068657,0.081612,0.48865
45052,2.5975e+07,1,-0.32676,-0.38772,-0.13068,0.17055,0.11033,0.47342,0.11028,-0.068657,0.081612,0.48865
45097,2.5989e+07,1,-0.32676,-0.38772,-0.13068,0.17055,0.11033,0.47342,0.11028,-0.068657,0.081612,0.48865
45139,2.6001e+07,1,-0.32676,-0.38772,-0.13068,0.17055,0.11033,0.47342,0.11028,-0.068657,0.081612,0.48865
45183,2.6011e+07,1,-0.32676,-0.38772,-0.13068,0.17055,0.11033,0.47342,0.11028,-0.068657,0.081612,0.48865
45230,2.6021e+07,1,-0.32676,-0.38772,-0.13068,0.17055,0.11033,0.47342,0.11028,-0.068657,0.081612,0.48865
45275,2.6031e+07,1,-0.32676,-0.38772,-0.13068,0.17055,0.11033,0.47342,0.11028,-0.068657,0.081612,0.48865
45322,2.6041e+07,1,-0.32676,-0.38772,-0.13068,0.17055,0.11033,0.47342,0.11028,-0.068657,0.081612,0.48865
45368,2.6051e+07,1,-0.32676,-0.38772,-0.13068,0.17055,0.11033,0.47342,0.11028,-0.068657,0.081612,0.48865
45413,2.6061e+07,1,-0.32676,-0.38772,-0.13068,0.17055,0.11033,0.47342,0.11028,-0.068657,0.081612,0.48865
45458,2.6071e+07,1,-0.32676,-0.38772,-0.13068,0.17055,0.11033,0.47342,0.11028,-0.068657,0.081612,0.48865
45503,2.6085e+07,1,-0.32676,-0.38772,-0.13068,0.17055,0.11033,0.47342,0.11028,-0.068657,0.081612,0.48865
45544,2.6097e+07,1,-0.32676,-0.38772,-0.13068,0.17055,0.11033,0.47342,0.11028,-0.068657,0.081612,0.48865
45589,2.6108e+07,1,-0.32676,-0.38772,-0.13068,0.17055,0.11033,0.47342,0.11028,-0.068657,0.081612,0.48865
45634,2.6118e+07,1,-0.32676,-0.38772,-0.13068,0.17055,0.11033,0.47342,0.11028,-0.068657,0.081612,0.48865
45680,2.6128e+07,1,-0.48593,-0.60258,-0.18623,0.30965,0.28528,0.89945,0.27132,-0.027695,0.17851,0.86677
45726,2.6139e+07,1,-0.48593,-0.60258,-0.18623,0.30965,0.28528,0.89945,0.27132,-0.027695,0.17851,0.86677
45775,2.6149e+07,1,-0.48593,-0.60258,-0.18623,0.30965,0.28528,0.89945,0.27132,-0.027695,0.17851,0.86677
45820,2.6158e+07,1,-0.48593,-0.60258,-0.18623,0.30965,0.28528,0.89945,0.27132,-0.027695,0.17851,0.86677
45864,2.6169e+07,1,-0.48593,-0.60258,-0.18623,0.30965,0.28528,0.89945,0.27132,-0.027695,0.17851,0.86677
45910,2.6179e+07,1,-0.48593,-0.60258,-0.18623,0.30965,0.28528,0.89945,0.27132,-0.027695,0.17851,0.86677
45952,2.6196e+07,1,-0.48593,-0.60258,-0.18623,0.30965,0.28528,0.89945,0.27132,-0.027695,0.17851,0.86677
46000,2.6209e+07,1,-0.48593,-0.60258,-0.18623,0.30965,0.28528,0.89945,0.27132,-0.027695,0.17851,0.86677
46045,2.6218e+07,1,-0.48593,-0.60258,-0.18623,0.30965,0.28528,0.89945,0.27132,-0.027695,0.17851,0.86677
46090,2.6229e+07,1,-0.48593,-0.60258,-0.18623,0.30965,0.28528,0.89945,0.27132,-0.027695,0.17851,0.86677
46136,2.624e+07,1,-0.48593,-0.60258,-0.18623,0.30965,0.28528,0.89945,0.27132,-0.027695,0.17851,0.86677
46180,2.625e+07,1,-0.48593,-0.60258,-0.18623,0.30965,0.28528,0.89945,0.27132,-0.027695,0.17851,0.86677
46229,2.626e+07,1,-0.48593,-0.60258,-0.18623,0.30965,0.28528,0.89945,0.27132,-0.027695,0.17851,0.86677
46273,2.627e+07,1,-0.48593,-0.60258,-0.18623,0.30965,0.28528,0.89945,0.27132,-0.027695,0.17851,0.86677
46318,2.6281e+07,1,-0.48593,-0.60258,-0.18623,0.30965,0.28528,0.89945,0.27132,-0.027695,0.17851,0.86677
46363,2.6291e+07,1,-0.48593,-0.60258,-0.18623,0.30965,0.28528,0.89945,0.27132,-0.027695,0.17851,0.86677
46405,2.6303e+07,1,-0.48593,-0.60258,-0.18623,0.30965,0.28528,0.89945,0.27132,-0.027695,0.17851,0.86677
46447,2.6315e+07,1,-0.48593,-0.60258,-0.18623,0.30965,0.28528,0.89945,0.27132,-0.027695,0.17851,0.86677
46491,2.6325e+07,1,-0.48593,-0.60258,-0.18623,0.30965,0.28528,0.89945,0.27132,-0.027695,0.17851,0.86677
46538,2.6335e+07,1,-0.48593,-0.60258,-0.18623,0.30965,0.28528,0.89945,0.27132,-0.027695,0.17851,0.86677
46583,2.6345e+07,1,-0.74113,-0.87871,-0.34177,0.26724,0.43227,1.1227,0.19438,-0.16012,0.016279,0.94326
46628,2.6356e+07,1,-0.74113,-0.87871,-0.34177,0.26724,0.43227,1.1227,0.19438,-0.16012,0.016279,0.94326
46677,2.6366e+07,1,-0.74113,-0.87871,-0.34177,0.26724,0.43227,1.1227,0.19438,-0.16012,0.016279,0.94326
46722,2.6376e+07,1,-0.74113,-0.87871,-0.34177,0.26724,0.43227,1.1227,0.19438,-0.16012,0.016279,0.94326
46767,2.6387e+07,1,-0.74113,-0.87871,-0.34177,0.26724,0.43227,1.1227,0.19438,-0.16012,0.016279,0.94326
46811,2.6397e+07,1,-0.74113,-0.87871,-0.34177,0.26724,0.43227,1.1227,0.19438,-0.16012,0.016279,0.94326
46852,2.6409e+07,1,-0.74113,-0.87871,-0.34177,0.26724,0.43227,1.1227,0.19438,-0.16012,0.016279,0.94326
46900,2.6423e+07,1,-0.74113,-0.87871,-0.34177,0.26724,0.43227,1.1227,0.19438,-0.16012,0.016279,0.94326
46946,2.6433e+07,1,-0.74113,-0.87871,-0.34177,0.26724,0.43227,1.1227,0.19438,-0.16012,0.016279,0.94326
46988,2.6445e+07,1,-0.74113,-0.87871,-0.34177,0.26724,0.43227,1.1227,0.19438,-0.16012,0.016279,0.94326
47034,2.6455e+07,1,-0.74113,-0.87871,-0.34177,0.26724,0.43227,1.1227,0.19438,-0.16012,0.016279,0.94326
47082,2.6465e+07,1,-0.74113,-0.87871,-0.34177,0.26724,0.43227,1.1227,0.19438,-0.16012,0.016279,0.94326
47128,2.6476e+07,1,-0.74113,-0.87871,-0.34177,0.26724,0.43227,1.1227,0.19438,-0.16012,0.016279,0.94326
47173,2.6486e+07,1,-0.74113,-0.87871,-0.34177,0.26724,0.43227,1.1227,0.19438,-0.16012,0.016279,0.94326
47219,2.6496e+07,1,-0.74113,-0.87871,-0.34177,0.26724,0.43227,1.1227,0.19438,-0.16012,0.016279,0.94326
47266,2.651e+07,1,-0.74113,-0.87871,-0.34177,0.26724,0.43227,1.1227,0.19438,-0.16012,0.016279,0.94326
47311,2.6524e+07,1,-0.74113,-0.87871,-0.34177,0.26724,0.43227,1.1227,0.19438,-0.16012,0.016279,0.94326
47358,2.6535e+07,1,-0.74113,-0.87871,-0.34177,0.26724,0.43227,1.1227,0.19438,-0.16012,0.016279,0.94326
47399,2.6547e+07,1,-0.74113,-0.87871,-0.34177,0.26724,0.43227,1.1227,0.19438,-0.16012,0.016279,0.94326
47444,2.6558e+07,1,-0.69267,-0.78996,-0.24691,0.26198,0.57719,1.2493,0.21852,-0.055781,0.076635,0.9203
47491,2.6567e+07,1,-0.69267,-0.78996,-0.24691,0.26198,0.57719,1.2493,0.21852,-0.055781,0.076635,0.9203
47539,2.6577e+07,1,-0.69267,-0.78996,-0.24691,0.26198,0.57719,1.2493,0.21852,-0.055781,0.076635,0.9203
47584,2.6587e+07,1,-0.69267,-0.78996,-0.24691,0.26198,0.57719,1.2493,0.21852,-0.055781,0.076635,0.9203
47628,2.6597e+07,1,-0.69267,-0.78996,-0.24691,0.26198,0.57719,1.2493,0.21852,-0.055781,0.076635,0.9203
47673,2.6608e+07,1,-0.69267,-0.78996,-0.24691,0.26198,0.57719,1.2493,0.21852,-0.055781,0.076635,0.9203
47719,2.6619e+07,1,-0.69267,-0.78996,-0.24691,0.26198,0.57719,1.2493,0.21852,-0.055781,0.076635,0.9203
47763,2.663e+07,1,-0.69267,-0.78996,-0.24691,0.26198,0.57719,1.2493,0.21852,-0.055781,0.076635,0.9203
47805,2.6642e+07,1,-0.69267,-0.78996,-0.24691,0.26198,0.57719,1.2493,0.21852,-0.055781,0.076635,0.9203
47849,2.6652e+07,1,-0.69267,-0.78996,-0.24691,0.26198,0.57719,1.2493,0.21852,-0.055781,0.076635,0.9203
47894,2.6662e+07,1,-0.69267,-0.78996,-0.24691,0.26198,0.57719,1.2493,0.21852,-0.055781,0.076635,0.9203
47938,2.6672e+07,1,-0.69267,-0.78996,-0.24691,0.26198,0.57719,1.2493,0.21852,-0.055781,0.076635,0.9203
47988,2.6682e+07,1,-0.69267,-0.78996,-0.24691,0.26198,0.57719,1.2493,0.21852,-0.055781,0.076635,0.9203
48033,2.6692e+07,1,-0.69267,-0.78996,-0.24691,0.26198,0.57719,1.2493,0.21852,-0.055781,0.076635,0.9203
48077,2.6702e+07,1,-0.69267,-0.78996,-0.24691,0.26198,0.57719,1.2493,0.21852,-0.055781,0.076635,0.9203
48122,2.6712e+07,1,-0.69267,-0.78996,-0.24691,0.26198,0.57719,1.2493,0.21852,-0.055781,0.076635,0.9203
48164,2.6724e+07,1,-0.69267,-0.78996,-0.24691,0.26198,0.57719,1.2493,0.21852,-0.055781,0.076635,0.9203
48209,2.6734e+07,1,-0.69267,-0.78996,-0.24691,0.26198,0.57719,1.2493,0.21852,-0.055781,0.076635,0.9203
48252,2.6745e+07,1,-0.69267,-0.78996,-0.24691,0.26198,0.57719,1.2493,0.21852,-0.055781,0.076635,0.9203
48298,2.6756e+07,1,-0.45282,-0.42706,0.0025655,0.32676,0.61036,0.99424,0.1473,0.024102,0.12488,0.7454
48343,2.6766e+07,1,-0.45282,-0.42706,0.0025655,0.32676,0.61036,0.99424,0.1473,0.024102,0.12488,0.7454
48388,2.6776e+07,1,-0.45282,-0.42706,0.0025655,0.32676,0.61036,0.99424,0.1473,0.024102,0.12488,0.7454
48437,2.6786e+07,1,-0.45282,-0.42706,0.0025655,0.32676,0.61036,0.99424,0.1473,0.024102,0.12488,0.7454
48482,2.6796e+07,1,-0.45282,-0.42706,0.0025655,0.32676,0.61036,0.99424,0.1473,0.024102,0.12488,0.7454
48526,2.6806e+07,1,-0.45282,-0.42706,0.0025655,0.32676,0.61036,0.99424,0.1473,0.024102,0.12488,0.7454
48571,2.6816e+07,1,-0.45282,-0.42706,0.0025655,0.32676,0.61036,0.99424,0.1473,0.024102,0.12488,0.7454
48620,2.6834e+07,1,-0.45282,-0.42706,0.0025655,0.32676,0.61036,0.99424,0.1473,0.024102,0.12488,0.7454
48661,2.6846e+07,1,-0.45282,-0.42706,0.0025655,0.32676,0.61036,0.99424,0.1473,0.024102,0.12488,0.7454
48706,2.6856e+07,1,-0.45282,-0.42706,0.0025655,0.32676,0.61036,0.99424,0.1473,0.024102,0.12488,0.7454
48750,2.6866e+07,1,-0.45282,-0.42706,0.0025655,0.32676,0.61036,0.99424,0.1473,0.024102,0.12488,0.7454
48795,2.6876e+07,1,-0.45282,-0.42706,0.0025655,0.32676,0.61036,0.99424,0.1473,0.024102,0.12488,0.7454
48842,2.6886e+07,1,-0.45282,-0.42706,0.0025655,0.32676,0.61036,0.99424,0.1473,0.024102,0.12488,0.7454
48889,2.6897e+07,1,-0.45282,-0.42706,0.0025655,0.32676,0.61036,0.99424,0.1473,0.024102,0.12488,0.7454
48935,2.6907e+07,1,-0.45282,-0.42706,0.0025655,0.32676,0.61036,0.99424,0.1473,0.024102,0.12488,0.7454
48980,2.6918e+07,1,-0.45282,-0.42706,0.0025655,0.32676,0.61036,0.99424,0.1473,0.024102,0.12488,0.7454
49024,2.6929e+07,1,-0.45282,-0.42706,0.0025655,0.32676,0.61036,0.99424,0.1473,0.024102,0.12488,0.7454
49066,2.6942e+07,1,-0.45282,-0.42706,0.0025655,0.32676,0.61036,0.99424,0.1473,0.024102,0.12488,0.7454
49112,2.6953e+07,1,-0.55865,-0.48013,-0.13513,0.10892,0.3588,0.84172,0.14113,0.075408,0.14713,0.66412
49157,2.6963e+07,1,-0.55865,-0.48013,-0.13513,0.10892,0.3588,0.84172,0.14113,0.075408,0.14713,0.66412
49202,2.6973e+07,1,-0.55865,-0.48013,-0.13513,0.10892,0.3588,0.84172,0.14113,0.075408,0.14713,0.66412
49246,2.6983e+07,1,-0.55865,-0.48013,-0.13513,0.10892,0.3588,0.84172,0.14113,0.075408,0.14713,0.66412
49297,2.6993e+07,1,-0.55865,-0.48013,-0.13513,0.10892,0.3588,0.84172,0.14113,0.075408,0.14713,0.66412
49342,2.7004e+07,1,-0.55865,-0.48013,-0.13513,0.10892,0.3588,0.84172,0.14113,0.075408,0.14713,0.66412
49387,2.7014e+07,1,-0.55865,-0.48013,-0.13513,0.10892,0.3588,0.84172,0.14113,0.075408,0.14713,0.66412
49432,2.7024e+07,1,-0.55865,-0.48013,-0.13513,0.10892,0.3588,0.84172,0.14113,0.075408,0.14713,0.66412
49481,2.7041e+07,1,-0.55865,-0.48013,-0.13513,0.10892,0.3588,0.84172,0.14113,0.075408,0.14713,0.66412
49522,2.7053e+07,1,-0.55865,-0.48013,-0.13513,0.10892,0.3588,0.84172,0.14113,0.075408,0.14713,0.66412
49567,2.7063e+07,1,-0.55865,-0.48013,-0.13513,0.10892,0.3588,0.84172,0.14113,0.075408,0.14713,0.66412
49612,2.7073e+07,1,-0.55865,-0.48013,-0.13513,0.10892,0.3588,0.84172,0.14113,0.075408,0.14713,0.66412
49656,2.7084e+07,1,-0.55865,-0.48013,-0.13513,0.10892,0.3588,0.84172,0.14113,0.075408,0.14713,0.66412
49702,2.7094e+07,1,-0.55865,-0.48013,-0.13513,0.10892,0.3588,0.84172,0.14113,0.075408,0.14713,0.66412
49751,2.7104e+07,1,-0.55865,-0.48013,-0.13513,0.10892,0.3588,0.84172,0.14113,0.075408,0.14713,0.66412
49795,2.7115e+07,1,-0.55865,-0.48013,-0.13513,0.10892,0.3588,0.84172,0.14113,0.075408,0.14713,0.66412
49842,2.7125e+07,1,-0.55865,-0.48013,-0.13513,0.10892,0.3588,0.84172,0.14113,0.075408,0.14713,0.66412
49887,2.7135e+07,1,-0.45433,-0.37431,-0.036151,0.19607,0.48714,0.84468,0.11614,0.049136,0.10597,0.60643
49934,2.7149e+07,1,-0.45433,-0.37431,-0.036151,0.19607,0.48714,0.84468,0.11614,0.049136,0.10597,0.60643
49975,2.7161e+07,1,-0.37975,-0.32068,-0.046802,0.13882,0.418,0.70175,0.080356,0.025105,0.057114,0.45789
50020,2.7172e+07,1,-0.37975,-0.32068,-0.046802,0.13882,0.418,0.70175,0.080356,0.025105,0.057114,0.45789
50065,2.7182e+07,1,-0.37975,-0.32068,-0.046802,0.13882,0.418,0.70175,0.080356,0.025105,0.057114,0.45789
50110,2.7192e+07,1,-0.37975,-0.32068,-0.046802,0.13882,0.418,0.70175,0.080356,0.025105,0.057114,0.45789
50154,2.7202e+07,1,-0.37975,-0.32068,-0.046802,0.13882,0.418,0.70175,0.080356,0.025105,0.057114,0.45789
50203,2.7212e+07,1,-0.37975,-0.32068,-0.046802,0.13882,0.418,0.70175,0.080356,0.025105,0.057114,0.45789
50247,2.7222e+07,1,-0.37975,-0.32068,-0.046802,0.13882,0.418,0.70175,0.080356,0.025105,0.057114,0.45789
50294,2.7232e+07,1,-0.37975,-0.32068,-0.046802,0.13882,0.418,0.70175,0.080356,0.025105,0.057114,0.45789
50338,2.7242e+07,1,-0.37975,-0.32068,-0.046802,0.13882,0.418,0.70175,0.080356,0.025105,0.057114,0.45789
50380,2.7253e+07,1,-0.37975,-0.32068,-0.046802,0.13882,0.418,0.70175,0.080356,0.025105,0.057114,0.45789
50424,2.7264e+07,1,-0.37975,-0.32068,-0.046802,0.13882,0.418,0.70175,0.080356,0.025105,0.057114,0.45789
50469,2.7275e+07,1,-0.37975,-0.32068,-0.046802,0.13882,0.418,0.70175,0.080356,0.025105,0.057114,0.45789
50511,2.7286e+07,1,-0.37975,-0.32068,-0.046802,0.13882,0.418,0.70175,0.080356,0.025105,0.057114,0.45789
50555,2.7296e+07,1,-0.37975,-0.32068,-0.046802,0.13882,0.418,0.70175,0.080356,0.025105,0.057114,0.45789
50601,2.7306e+07,1,-0.37975,-0.32068,-0.046802,0.13882,0.418,0.70175,0.080356,0.025105,0.057114,0.45789
50649,2.7317e+07,1,-0.37975,-0.32068,-0.046802,0.13882,0.418,0.70175,0.080356,0.025105,0.057114,0.45789
50694,2.7327e+07,1,-0.37975,-0.32068,-0.046802,0.13882,0.418,0.70175,0.080356,0.025105,0.057114,0.45789
50742,2.7337e+07,1,-0.37975,-0.32068,-0.046802,0.13882,0.418,0.70175,0.080356,0.025105,0.057114,0.45789
50786,2.7347e+07,1,-0.6432,-0.54372,-0.22565,-0.0086759,0.33696,0.51732,-0.24295,-0.3113,-0.27511,0.19938
50828,2.7359e+07,1,-0.6432,-0.54372,-0.22565,-0.0086759,0.33696,0.51732,-0.24295,-0.3113,-0.27511,0.19938
50872,2.7374e+07,1,-0.6432,-0.54372,-0.22565,-0.0086759,0.33696,0.51732,-0.24295,-0.3113,-0.27511,0.19938
50917,2.7385e+07,1,-0.6432,-0.54372,-0.22565,-0.0086759,0.33696,0.51732,-0.24295,-0.3113,-0.27511,0.19938
50962,2.7395e+07,1,-0.6432,-0.54372,-0.22565,-0.0086759,0.33696,0.51732,-0.24295,-0.3113,-0.27511,0.19938
51007,2.7405e+07,1,-0.6432,-0.54372,-0.22565,-0.0086759,0.33696,0.51732,-0.24295,-0.3113,-0.27511,0.19938
51055,2.7415e+07,1,-0.6432,-0.54372,-0.22565,-0.0086759,0.33696,0.51732,-0.24295,-0.3113,-0.27511,0.19938
51101,2.7425e+07,1,-0.6432,-0.54372,-0.22565,-0.0086759,0.33696,0.51732,-0.24295,-0.3113,-0.27511,0.19938
51145,2.7435e+07,1,-0.6432,-0.54372,-0.22565,-0.0086759,0.33696,0.51732,-0.24295,-0.3113,-0.27511,0.19938
51193,2.7444e+07,1,-0.6432,-0.54372,-0.22565,-0.0086759,0.33696,0.51732,-0.24295,-0.3113,-0.27511,0.19938
51238,2.7463e+07,1,-0.6432,-0.54372,-0.22565,-0.0086759,0.33696,0.51732,-0.24295,-0.3113,-0.27511,0.19938
51283,2.7473e+07,1,-0.6432,-0.54372,-0.22565,-0.0086759,0.33696,0.51732,-0.24295,-0.3113,-0.27511,0.19938
51328,2.7484e+07,1,-0.6432,-0.54372,-0.22565,-0.0086759,0.33696,0.51732,-0.24295,-0.3113,-0.27511,0.19938
51372,2.7494e+07,1,-0.6432,-0.54372,-0.22565,-0.0086759,0.33696,0.51732,-0.24295,-0.3113,-0.27511,0.19938
51417,2.7504e+07,1,-0.6432,-0.54372,-0.22565,-0.0086759,0.33696,0.51732,-0.24295,-0.3113,-0.27511,0.19938
51462,2.7514e+07,1,-0.6432,-0.54372,-0.22565,-0.0086759,0.33696,0.51732,-0.24295,-0.3113,-0.27511,0.19938
51511,2.7524e+07,1,-0.6432,-0.54372,-0.22565,-0.0086759,0.33696,0.51732,-0.24295,-0.3113,-0.27511,0.19938
51558,2.7534e+07,1,-0.6432,-0.54372,-0.22565,-0.0086759,0.33696,0.51732,-0.24295,-0.3113,-0.27511,0.19938
51602,2.7545e+07,1,-0.52561,-0.34248,0.02723,0.26919,0.61937,0.87244,-0.001884,-0.060475,0.0050302,0.55542
51647,2.7555e+07,1,-0.52561,-0.34248,0.02723,0.26919,0.61937,0.87244,-0.001884,-0.060475,0.0050302,0.55542
51692,2.7565e+07,1,-0.52561,-0.34248,0.02723,0.26919,0.61937,0.87244,-0.001884,-0.060475,0.0050302,0.55542
51732,2.7577e+07,1,-0.52561,-0.34248,0.02723,0.26919,0.61937,0.87244,-0.001884,-0.060475,0.0050302,0.55542
51773,2.7589e+07,1,-0.52561,-0.34248,0.02723,0.26919,0.61937,0.87244,-0.001884,-0.060475,0.0050302,0.55542
51818,2.7599e+07,1,-0.52561,-0.34248,0.02723,0.26919,0.61937,0.87244,-0.001884,-0.060475,0.0050302,0.55542
51862,2.7609e+07,1,-0.52561,-0.34248,0.02723,0.26919,0.61937,0.87244,-0.001884,-0.060475,0.0050302,0.55542
51907,2.7619e+07,1,-0.52561,-0.34248,0.02723,0.26919,0.61937,0.87244,-0.001884,-0.060475,0.0050302,0.55542
51958,2.7629e+07,1,-0.52561,-0.34248,0.02723,0.26919,0.61937,0.87244,-0.001884,-0.060475,0.0050302,0.55542
52002,2.7639e+07,1,-0.52561,-0.34248,0.02723,0.26919,0.61937,0.87244,-0.001884,-0.060475,0.0050302,0.55542
52047,2.7649e+07,1,-0.52561,-0.34248,0.02723,0.26919,0.61937,0.87244,-0.001884,-0.060475,0.0050302,0.55542
52091,2.7659e+07,1,-0.52561,-0.34248,0.02723,0.26919,0.61937,0.87244,-0.001884,-0.060475,0.0050302,0.55542
52134,2.7671e+07,1,-0.52561,-0.34248,0.02723,0.26919,0.61937,0.87244,-0.001884,-0.060475,0.0050302,0.55542
52175,2.7683e+07,1,-0.52561,-0.34248,0.02723,0.26919,0.61937,0.87244,-0.001884,-0.060475,0.0050302,0.55542
52219,2.7693e+07,1,-0.52561,-0.34248,0.02723,0.26919,0.61937,0.87244,-0.001884,-0.060475,0.0050302,0.55542
52265,2.7703e+07,1,-0.52561,-0.34248,0.02723,0.26919,0.61937,0.87244,-0.001884,-0.060475,0.0050302,0.55542
52310,2.7713e+07,1,-0.52561,-0.34248,0.02723,0.26919,0.61937,0.87244,-0.001884,-0.060475,0.0050302,0.55542
52357,2.7724e+07,1,-0.52561,-0.34248,0.02723,0.26919,0.61937,0.87244,-0.001884,-0.060475,0.0050302,0.55542
52405,2.7734e+07,1,-0.7213,-0.41296,-0.047407,0.18342,0.51567,0.83268,-0.035511,-0.05729,0.021377,0.59705
52450,2.7744e+07,1,-0.7213,-0.41296,-0.047407,0.18342,0.51567,0.83268,-0.035511,-0.05729,0.021377,0.59705
52494,2.7754e+07,1,-0.7213,-0.41296,-0.047407,0.18342,0.51567,0.83268,-0.035511,-0.05729,0.021377,0.59705
52539,2.7764e+07,1,-0.7213,-0.41296,-0.047407,0.18342,0.51567,0.83268,-0.035511,-0.05729,0.021377,0.59705
52580,2.7776e+07,1,-0.7213,-0.41296,-0.047407,0.18342,0.51567,0.83268,-0.035511,-0.05729,0.021377,0.59705
52620,2.7788e+07,1,-0.7213,-0.41296,-0.047407,0.18342,0.51567,0.83268,-0.035511,-0.05729,0.021377,0.59705
52665,2.7798e+07,1,-0.7213,-0.41296,-0.047407,0.18342,0.51567,0.83268,-0.035511,-0.05729,0.021377,0.59705
52710,2.7809e+07,1,-0.7213,-0.41296,-0.047407,0.18342,0.51567,0.83268,-0.035511,-0.05729,0.021377,0.59705
52755,2.7819e+07,1,-0.7213,-0.41296,-0.047407,0.18342,0.51567,0.83268,-0.035511,-0.05729,0.021377,0.59705
52801,2.7829e+07,1,-0.7213,-0.41296,-0.047407,0.18342,0.51567,0.83268,-0.035511,-0.05729,0.021377,0.59705
52849,2.784e+07,1,-0.7213,-0.41296,-0.047407,0.18342,0.51567,0.83268,-0.035511,-0.05729,0.021377,0.59705
52895,2.785e+07,1,-0.7213,-0.41296,-0.047407,0.18342,0.51567,0.83268,-0.035511,-0.05729,0.021377,0.59705
52939,2.786e+07,1,-0.7213,-0.41296,-0.047407,0.18342,0.51567,0.83268,-0.035511,-0.05729,0.021377,0.59705
52987,2.7873e+07,1,-0.7213,-0.41296,-0.047407,0.18342,0.51567,0.83268,-0.035511,-0.05729,0.021377,0.59705
53025,2.7886e+07,1,-0.7213,-0.41296,-0.047407,0.18342,0.51567,0.83268,-0.035511,-0.05729,0.021377,0.59705
53071,2.7896e+07,1,-0.7213,-0.41296,-0.047407,0.18342,0.51567,0.83268,-0.035511,-0.05729,0.021377,0.59705
53115,2.7906e+07,1,-0.7213,-0.41296,-0.047407,0.18342,0.51567,0.83268,-0.035511,-0.05729,0.021377,0.59705
53160,2.7916e+07,1,-0.7213,-0.41296,-0.047407,0.18342,0.51567,0.83268,-0.035511,-0.05729,0.021377,0.59705
53205,2.7927e+07,1,-0.7213,-0.41296,-0.047407,0.18342,0.51567,0.83268,-0.035511,-0.05729,0.021377,0.59705
53255,2.7938e+07,1,-0.7213,-0.41296,-0.047407,0.18342,0.51567,0.83268,-0.035511,-0.05729,0.021377,0.59705
53303,2.7948e+07,1,-1.0271,-0.60748,-0.22954,0.0041544,0.36065,0.83932,-0.084289,-0.0858,0.0014998,0.61198
53348,2.7958e+07,1,-1.0271,-0.60748,-0.22954,0.0041544,0.36065,0.83932,-0.084289,-0.0858,0.0014998,0.61198
53392,2.7968e+07,1,-1.0271,-0.60748,-0.22954,0.0041544,0.36065,0.83932,-0.084289,-0.0858,0.0014998,0.61198
53441,2.7982e+07,1,-1.0271,-0.60748,-0.22954,0.0041544,0.36065,0.83932,-0.084289,-0.0858,0.0014998,0.61198
53486,2.7991e+07,1,-1.0271,-0.60748,-0.22954,0.0041544,0.36065,0.83932,-0.084289,-0.0858,0.0014998,0.61198
53524,2.8005e+07,1,-1.0271,-0.60748,-0.22954,0.0041544,0.36065,0.83932,-0.084289,-0.0858,0.0014998,0.61198
53569,2.8015e+07,1,-1.0271,-0.60748,-0.22954,0.0041544,0.36065,0.83932,-0.084289,-0.0858,0.0014998,0.61198
53613,2.8025e+07,1,-1.0271,-0.60748,-0.22954,0.0041544,0.36065,0.83932,-0.084289,-0.0858,0.0014998,0.61198
53659,2.8035e+07,1,-1.0271,-0.60748,-0.22954,0.0041544,0.36065,0.83932,-0.084289,-0.0858,0.0014998,0.61198
53711,2.8045e+07,1,-1.0271,-0.60748,-0.22954,0.0041544,0.36065,0.83932,-0.084289,-0.0858,0.0014998,0.61198
53756,2.8056e+07,1,-1.0271,-0.60748,-0.22954,0.0041544,0.36065,0.83932,-0.084289,-0.0858,0.0014998,0.61198
53801,2.8066e+07,1,-1.0271,-0.60748,-0.22954,0.0041544,0.36065,0.83932,-0.084289,-0.0858,0.0014998,0.61198
53845,2.8076e+07,1,-1.0271,-0.60748,-0.22954,0.0041544,0.36065,0.83932,-0.084289,-0.0858,0.0014998,0.61198
53886,2.8088e+07,1,-1.0271,-0.60748,-0.22954,0.0041544,0.36065,0.83932,-0.084289,-0.0858,0.0014998,0.61198
53928,2.81e+07,1,-1.0271,-0.60748,-0.22954,0.0041544,0.36065,0.83932,-0.084289,-0.0858,0.0014998,0.61198
53972,2.811e+07,1,-1.0271,-0.60748,-0.22954,0.0041544,0.36065,0.83932,-0.084289,-0.0858,0.0014998,0.61198
54018,2.8121e+07,1,-1.0271,-0.60748,-0.22954,0.0041544,0.36065,0.83932,-0.084289,-0.0858,0.0014998,0.61198
54064,2.8131e+07,1,-1.0271,-0.60748,-0.22954,0.0041544,0.36065,0.83932,-0.084289,-0.0858,0.0014998,0.61198
54110,2.8142e+07,1,-0.81759,-0.37231,0.0047298,0.23509,0.65145,1.0575,0.053885,0.048613,0.12475,0.69724
