LineNo,TimeUS,DesRoll,Roll,DesPitch,Pitch,DesYaw,Yaw,ErrRP,ErrYaw,AEKF
185,64898252,0.01,-0.52,0,-0.55,0.12,355.54,0,0,3
634,65008635,0.01,-0.51,0,-0.55,5.06,355.54,0,0,3
974,65092850,0.01,-0.51,0,-0.55,9.27,355.53,0,0,3
1199,65224890,0.01,-0.51,0,-0.55,15.02,355.54,0,0,3
1568,65345747,0.01,-0.51,0,-0.55,22.16,355.54,0.01,0,3
1614,65355603,0.01,-0.51,0,-0.55,22.43,355.54,0.01,0,3
1659,65365759,0.01,-0.51,0,-0.55,22.42,355.54,0.01,0,3
1704,65375863,0.01,-0.51,0,-0.55,22.41,355.54,0.01,0,3
1748,65386396,0.01,-0.51,0,-0.55,22.4,355.53,0.01,0,3
1797,65397189,0.01,-0.51,0,-0.55,22.4,355.53,0.01,0,3
1841,65407880,0.01,-0.52,0,-0.55,22.39,355.53,0.01,0,3
1886,65417952,0.01,-0.52,0,-0.55,22.38,355.53,0.01,0,3
1932,65428181,0.01,-0.52,0,-0.55,22.37,355.53,0.01,0,3
1977,65439055,0.01,-0.52,0,-0.55,22.37,355.53,0.01,0,3
2022,65449244,0.01,-0.52,0,-0.55,22.36,355.53,0.01,0,3
2066,65459314,0.01,-0.52,0,-0.55,22.35,355.53,0.01,0,3
2111,65470063,0,-0.52,0,-0.55,22.34,355.53,0.01,0,3
2157,65486049,0,-0.52,0,-0.55,22.33,355.53,0.01,0,3
2203,65496614,0,-0.52,0,-0.55,22.32,355.52,0.01,0,3
2252,65506948,0,-0.52,0,-0.55,22.31,355.52,0.01,0,3
2296,65517595,0,-0.52,0,-0.55,22.3,355.52,0.01,0,3
2341,65527829,0,-0.52,0,-0.55,22.3,355.52,0.01,0,3
2385,65537890,0,-0.52,0,-0.55,22.29,355.52,0.01,0,3
2430,65548666,0,-0.52,0,-0.55,22.28,355.52,0.01,0,3
2477,65558648,0,-0.52,0,-0.55,22.27,355.52,0.01,0,3
2523,65569182,0,-0.52,0,-0.55,22.26,355.51,0.01,0,3
2569,65579761,0,-0.52,0,-0.55,22.25,355.51,0.01,0,3
2613,65589644,0,-0.52,0,-0.55,22.25,355.51,0.01,0,3
2658,65599787,0,-0.52,0,-0.55,22.24,355.51,0.01,0,3
2706,65610217,0,-0.52,0,-0.55,22.23,355.51,0.01,0.01,3
2751,65620803,0,-0.52,0,-0.55,22.22,355.51,0.01,0.01,3
2797,65630828,0,-0.52,0,-0.55,22.22,355.51,0.01,0.01,3
2841,65641668,0,-0.52,0,-0.55,22.21,355.51,0.01,0.01,3
2887,65652665,0,-0.52,0,-0.55,22.2,355.51,0.01,0.01,3
2933,65665369,0,-0.52,0,-0.5600000000000001,22.19,355.51,0.01,0.01,3
2978,65678936,0,-0.52,0,-0.5600000000000001,22.19,355.51,0.01,0.01,3
3026,65688863,0,-0.52,0,-0.55,22.18,355.51,0.01,0.01,3
3070,65699286,0,-0.52,0,-0.55,22.17,355.51,0.01,0.01,3
3122,65711819,0,-0.52,0,-0.55,22.16,355.51,0.01,0.01,3
3166,65722778,0,-0.52,0,-0.55,22.15,355.5,0.01,0.01,3
3212,65732614,0,-0.52,0,-0.55,22.15,355.5,0.01,0.01,3
3257,65742927,0,-0.52,0,-0.55,22.15,355.5,0.01,0.01,3
3301,65753365,0,-0.52,0,-0.55,22.15,355.5,0.01,0.01,3
3347,65763663,0,-0.52,0,-0.5600000000000001,22.15,355.5,0.01,0.01,3
3392,65773777,0,-0.52,0,-0.5600000000000001,22.15,355.5,0.01,0.01,3
3437,65783956,0,-0.52,0,-0.5600000000000001,22.14,355.5,0.01,0.01,3
3482,65793651,0,-0.52,0,-0.5600000000000001,22.14,355.49,0.01,0.01,3
3527,65803782,0,-0.52,0,-0.55,22.14,355.49,0.01,0.01,3
3576,65813976,0,-0.52,0,-0.55,22.14,355.49,0.01,0.01,3
3620,65824261,0,-0.52,0,-0.55,22.14,355.49,0.01,0.01,3
3665,65834824,0,-0.52,0,-0.55,22.14,355.49,0.01,0.01,3
3709,65844864,0,-0.52,0,-0.55,22.14,355.49,0.01,0.01,3
3756,65854857,0,-0.52,0,-0.55,22.14,355.49,0.01,0.01,3
3802,65864985,0,-0.52,0,-0.55,22.14,355.49,0.01,0.01,3
3843,65878196,0,-0.52,0,-0.55,22.14,355.49,0.01,0.01,3
3887,65888670,0,-0.52,0,-0.5600000000000001,22.14,355.49,0.01,0.01,3
3932,65898937,0,-0.52,0,-0.5600000000000001,22.14,355.49,0.01,0.01,3
3978,65909232,0,-0.52,0,-0.5600000000000001,22.14,355.49,0.01,0.01,3
4029,65920160,0,-0.52,0,-0.5600000000000001,22.14,355.49,0.01,0.01,3
4073,65930412,0,-0.52,0,-0.5600000000000001,22.14,355.49,0.01,0.01,3
4118,65940619,0,-0.52,0,-0.55,22.14,355.49,0.01,0.01,3
4162,65950225,0,-0.52,0,-0.55,22.14,355.49,0.01,0.01,3
4207,65960252,0,-0.52,0,-0.55,22.14,355.49,0.01,0.01,3
4254,65970739,0,-0.52,0,-0.55,22.14,355.49,0.01,0.01,3
4299,65980860,0,-0.52,0,-0.55,22.14,355.49,0.01,0.01,3
4344,65990871,0,-0.52,0,-0.55,22.14,355.49,0.01,0.01,3
4388,66000890,0,-0.52,0,-0.55,22.14,355.49,0.01,0.01,3
4433,66011003,0,-0.52,0,-0.5600000000000001,22.14,355.49,0.01,0.01,3
4481,66021431,0,-0.52,0,-0.5600000000000001,22.14,355.49,0.01,0.01,3
4526,66031799,0,-0.52,0,-0.5600000000000001,22.14,355.49,0.01,0.01,3
4570,66042399,0,-0.51,0,-0.5600000000000001,22.14,355.49,0.01,0.01,3
4615,66052657,0,-0.51,0,-0.5600000000000001,22.14,355.49,0.01,0.01,3
4659,66062571,0,-0.51,0,-0.5600000000000001,22.13,355.49,0.01,0.01,3
4705,66075458,0,-0.51,0,-0.55,22.13,355.48,0.01,0.01,3
4748,66086248,0,-0.51,0,-0.55,22.13,355.48,0.01,0.01,3
4792,66096267,0,-0.51,0,-0.55,22.13,355.48,0.01,0.01,3
4838,66106658,0,-0.51,0,-0.55,22.13,355.48,0.01,0.01,3
4883,66117187,0,-0.51,0,-0.55,22.13,355.48,0.01,0.01,3
4931,66127883,0,-0.52,0,-0.5600000000000001,22.13,355.48,0.01,0.01,3
4976,66137989,0,-0.52,0,-0.5600000000000001,22.13,355.48,0.01,0.01,3
5020,66148011,0,-0.52,0,-0.5600000000000001,22.13,355.49,0.01,0.01,3
5064,66157991,0,-0.52,0,-0.5600000000000001,22.13,355.49,0.01,0.01,3
5108,66168813,0,-0.51,0,-0.5600000000000001,22.13,355.49,0.01,0.01,3
5153,66179269,0,-0.52,0,-0.5600000000000001,22.13,355.49,0.01,0.01,3
5199,66189790,0,-0.51,0,-0.55,22.13,355.48,0.01,0.01,3
5243,66199305,0,-0.51,0,-0.55,22.13,355.48,0.01,0.01,3
5288,66209876,0,-0.51,0,-0.55,22.13,355.48,0.01,0.01,3
5332,66219800,0,-0.51,0,-0.55,22.13,355.48,0.01,0.01,3
5381,66229671,0,-0.51,0,-0.55,22.13,355.48,0.01,0.01,3
5426,66240163,0,-0.51,0,-0.55,22.13,355.48,0.01,0.01,3
5471,66250665,0,-0.51,0,-0.55,22.13,355.48,0.01,0.01,3
5515,66264376,0,-0.51,0,-0.5600000000000001,22.13,355.48,0.01,0.01,3
5559,66274997,0,-0.51,0,-0.5600000000000001,22.12,355.48,0.01,0.01,3
5604,66285830,0,-0.51,0,-0.5600000000000001,22.12,355.48,0.01,0.01,3
5650,66295806,0,-0.51,0,-0.5600000000000001,22.12,355.48,0.01,0.01,3
5694,66305995,0,-0.51,0,-0.55,22.12,355.48,0.01,0.01,3
5740,66316195,0,-0.51,0,-0.55,22.12,355.48,0.01,0.01,3
5788,66326365,0,-0.51,0,-0.55,22.12,355.48,0.01,0.01,3
5833,66336594,0,-0.51,0,-0.55,22.12,355.48,0.01,0,3
5879,66346601,0,-0.51,0,-0.55,22.12,355.48,0.01,0,3
5924,66357000,0,-0.51,0,-0.55,22.12,355.48,0.01,0,3
5972,66369721,0,-0.51,0,-0.55,22.12,355.48,0.01,0,3
6016,66379988,0,-0.51,0,-0.55,22.12,355.48,0.01,0,3
6061,66390282,0,-0.51,0,-0.55,22.12,355.48,0.01,0,3
6105,66400665,0,-0.51,0,-0.5600000000000001,22.12,355.48,0.01,0,3
6151,66410763,0,-0.51,0,-0.55,22.12,355.47,0.01,0,3
6196,66420618,0,-0.52,0,-0.55,22.12,355.47,0.01,0,3
6244,66430648,0,-0.51,0,-0.55,22.12,355.47,0.01,0,3
6290,66441000,0,-0.51,0,-0.55,22.12,355.47,0.01,0,3
6334,66451476,0,-0.51,0,-0.55,22.12,355.47,0.01,0,3
6381,66462166,0,-0.51,0,-0.55,22.12,355.47,0.01,0,3
6420,66473467,0,-0.51,0,-0.55,22.12,355.47,0.01,0,3
6464,66483752,0,-0.51,0,-0.55,22.12,355.47,0.01,0,3
6509,66493210,0,-0.51,0,-0.55,22.12,355.47,0.01,0,3
6554,66503994,0,-0.51,0,-0.55,22.12,355.47,0.01,0,3
6600,66514069,0,-0.51,0,-0.5600000000000001,22.12,355.47,0.01,0,3
6645,66524643,0,-0.51,0,-0.5600000000000001,22.12,355.47,0.01,0,3
6693,66534557,0,-0.51,0,-0.5600000000000001,22.12,355.47,0.01,0,3
6738,66544431,0,-0.51,0,-0.55,22.12,355.47,0.01,0,3
6783,66554589,0,-0.51,0,-0.55,22.12,355.47,0.01,0,3
6827,66565215,0,-0.5,0,-0.55,22.11,355.47,0.01,0,3
6872,66576218,0,-0.51,0,-0.55,22.11,355.47,0.01,0,3
6916,66586665,0,-0.5,0,-0.55,22.11,355.47,0.01,0,3
6962,66596599,0,-0.51,0,-0.55,22.11,355.47,0.01,0,3
7007,66606770,0,-0.51,0,-0.55,22.11,355.47,0.01,0,3
7053,66617203,0,-0.51,0,-0.55,22.11,355.47,0.01,0,3
7098,66627271,0,-0.51,0,-0.5600000000000001,22.11,355.47,0.01,0,3
7146,66637391,0,-0.51,0,-0.5600000000000001,22.11,355.47,0.01,0.01,3
7191,66648017,0,-0.51,0,-0.5600000000000001,22.11,355.47,0.01,0.01,3
7236,66658550,0,-0.51,0,-0.5600000000000001,22.11,355.47,0.01,0.01,3
7283,66669134,0,-0.51,0,-0.5600000000000001,22.11,355.47,0.01,0.01,3
7321,66680047,0,-0.51,0,-0.5600000000000001,22.11,355.47,0.01,0.01,3
7365,66691165,0,-0.51,0,-0.55,22.11,355.47,0.01,0.01,3
7412,66701209,0,-0.51,0,-0.55,22.11,355.47,0.01,0.01,3
7458,66711155,0,-0.51,0,-0.55,355.45,355.47,0.01,0.01,3
7503,66722013,0,-0.51,0,-0.55,355.45,355.47,0.01,0.01,3
7548,66732851,0,-0.51,0,-0.5600000000000001,355.45,355.46,0.01,0.01,3
7597,66743188,0,-0.51,0,-0.5600000000000001,355.44,355.46,0.01,0.01,3
7641,66753414,0,-0.51,0,-0.5600000000000001,355.44,355.46,0.01,0.01,3
7686,66763626,0,-0.51,0,-0.55,355.44,355.46,0.01,0.01,3
7732,66773881,0,-0.5,0,-0.55,355.44,355.46,0.01,0.01,3
7777,66784072,0,-0.5,0,-0.55,355.44,355.46,0.01,0.01,3
7821,66794663,0,-0.5,0,-0.5600000000000001,355.44,355.46,0.01,0.01,3
7866,66804671,0,-0.5,0,-0.5600000000000001,355.44,355.46,0.01,0.01,3
7911,66814652,0,-0.5,0,-0.5600000000000001,355.44,355.46,0.01,0.01,3
7955,66824788,0,-0.5,0,-0.55,355.45,355.46,0.01,0.01,3
8001,66835176,0,-0.51,0,-0.5600000000000001,355.44,355.46,0.01,0.01,3
8051,66845839,0,-0.5,0,-0.5600000000000001,355.44,355.46,0.01,0.01,3
8099,66855940,0,-0.5,0,-0.5600000000000001,355.44,355.45,0.01,0.01,3
8138,66866955,0,-0.5,0,-0.55,355.43,355.45,0.01,0.01,3
8182,66876905,0,-0.5,0,-0.55,355.43,355.44,0.01,0.01,3
8227,66887156,0,-0.52,0,-0.55,355.42,355.44,0.01,0.01,3
8272,66896907,0,-0.52,0,-0.55,355.42,355.43,0.01,0.01,3
8318,66907469,0,-0.51,0,-0.5600000000000001,355.41,355.43,0.01,0.01,3
8363,66917749,0,-0.5,0,-0.5600000000000001,355.41,355.43,0.01,0.01,3
8407,66927872,0,-0.51,0,-0.5600000000000001,355.42,355.43,0.01,0.01,3
8452,66937597,0,-0.51,0,-0.55,355.42,355.44,0.01,0.01,3
8502,66948438,0,-0.51,0,-0.5600000000000001,355.43,355.45,0.01,0.01,3
8548,66959048,0,-0.5,0,-0.55,355.43,355.45,0.01,0.01,3
8593,66969622,0,-0.49,0,-0.55,355.43,355.45,0.01,0.01,3
8638,66980000,0,-0.49,0,-0.55,355.43,355.45,0.01,0.01,3
8682,66990156,0,-0.49,0,-0.55,355.43,355.45,0.01,0.01,3
8727,67000658,0,-0.5,0,-0.55,355.43,355.44,0.01,0.01,3
8771,67010801,0,-0.5,0,-0.55,355.43,355.45,0.01,0.01,3
8816,67020983,0,-0.5,0,-0.55,355.43,355.44,0.01,0.01,3
8861,67031228,0,-0.48,0,-0.55,355.42,355.43,0.01,0.01,3
8907,67041910,0,-0.48,0,-0.5600000000000001,355.41,355.43,0.01,0.01,3
8956,67052422,0,-0.49,0,-0.5600000000000001,355.41,355.42,0.01,0,3
9002,67063246,0,-0.49,0,-0.57,355.41,355.43,0.01,0,3
9047,67079293,0,-0.47,0,-0.55,355.41,355.42,0.01,0,3
9091,67089849,0,-0.47,0,-0.57,355.41,355.43,0.01,0,3
9136,67100030,0,-0.48,0,-0.5600000000000001,355.41,355.43,0.01,0,3
9181,67110424,0,-0.47,0,-0.57,355.42,355.44,0.01,0,3
9226,67120905,0,-0.45,0,-0.54,355.43,355.45,0.01,0,3
9271,67131411,0,-0.45,0,-0.57,355.42,355.43,0.01,0,3
9317,67141575,0,-0.47,0,-0.55,355.43,355.45,0.01,0,3
9361,67151589,0,-0.47,0,-0.5600000000000001,355.42,355.44,0.01,0,3
9410,67161991,0,-0.47,0,-0.54,355.44,355.46,0.01,0,3
9454,67172381,0,-0.46,0,-0.5600000000000001,355.41,355.43,0.01,0,3
9500,67182315,0,-0.48,0,-0.55,355.42,355.44,0.01,0,3
9547,67194837,0,-0.48,0,-0.57,355.42,355.43,0.01,0,3
9592,67205661,0,-0.5,0,-0.58,355.42,355.43,0.01,0,3
9637,67215613,0,-0.48,0,-0.57,355.4,355.42,0.01,0,3
9681,67226072,0,-0.5,0,-0.6,355.4,355.41,0.01,0,3
9726,67236144,0,-0.49,0,-0.57,355.42,355.43,0.01,0,3
9772,67246158,0,-0.51,0,-0.59,355.4,355.42,0.01,0,3
9821,67256396,0,-0.48,0,-0.5600000000000001,355.41,355.42,0.01,0,3
9866,67266452,0,-0.5,0,-0.59,355.4,355.41,0.01,0,3
9906,67278133,0,-0.48,0,-0.52,355.43,355.45,0.01,0,3
9950,67288627,0,-0.47,0,-0.5600000000000001,355.41,355.43,0.01,0,3
9995,67298636,0,-0.46,0,-0.52,355.42,355.44,0.01,0,3
10041,67308780,0,-0.47,0,-0.58,355.42,355.43,0.01,0,3
10086,67319072,0,-0.46,0,-0.52,355.43,355.45,0.01,0,3
10130,67329032,0,-0.44,0,-0.57,355.42,355.43,0.01,0,3
10177,67339215,0,-0.46,0,-0.54,355.41,355.43,0.01,0,3
10222,67349865,0,-0.47,0,-0.58,355.42,355.43,0.01,0,3
10271,67360263,0,-0.48,0,-0.5600000000000001,355.42,355.43,0.01,0,3
10316,67370249,0,-0.45,0,-0.5600000000000001,355.41,355.43,0.01,0,3
10361,67380068,0,-0.48,0,-0.6,355.39,355.41,0.01,0,3
10405,67390756,0,-0.46,0,-0.55,355.41,355.43,0.01,0,3
10450,67400802,0,-0.48,0,-0.59,355.4,355.42,0.01,0,3
10495,67411559,0,-0.46,0,-0.54,355.41,355.42,0.01,0,3
10539,67421739,0,-0.48,0,-0.61,355.4,355.42,0.01,0,3
10584,67432182,0,-0.47,0,-0.53,355.43,355.44,0.01,0,3
10628,67442233,0,-0.47,0,-0.58,355.42,355.43,0.01,0,3
10675,67452790,0,-0.49,0,-0.55,355.42,355.43,0.01,0,3
10723,67463806,0,-0.47,0,-0.58,355.42,355.44,0.01,0,3
10767,67474171,0,-0.48,0,-0.57,355.43,355.44,0.01,0,3
10809,67484798,0,-0.43,0,-0.5600000000000001,355.43,355.44,0.01,0,3
10854,67495171,0,-0.46,0,-0.61,355.41,355.42,0.01,0,3
10902,67508441,0,-0.48,0,-0.53,355.43,355.44,0.01,0,3
10947,67519293,0,-0.47,0,-0.57,355.41,355.42,0.01,0,3
10991,67529996,0,-0.49,0,-0.57,355.4,355.42,0.01,0,3
11036,67540149,0,-0.47,0,-0.57,355.4,355.42,0.01,0,3
11080,67550160,0,-0.49,0,-0.57,355.41,355.42,0.01,0,3
11125,67559834,0,-0.44,0,-0.55,355.41,355.42,0.01,0,3
11175,67570372,0,-0.47,0,-0.59,355.4,355.41,0.01,0,3
11219,67580668,0,-0.47,0,-0.54,355.42,355.44,0.01,0,3
11265,67590736,0,-0.48,0,-0.57,355.41,355.43,0.01,0,3
11309,67600584,0,-0.47,0,-0.54,355.42,355.44,0.01,0,3
11357,67613438,0,-0.48,0,-0.57,355.42,355.43,0.01,0,3
11402,67623788,0,-0.48,0,-0.5600000000000001,355.43,355.44,0.01,0,3
11446,67633801,0,-0.43,0,-0.55,355.42,355.44,0.01,0,3
11492,67644009,0,-0.46,0,-0.58,355.41,355.43,0.01,0,3
11536,67653929,0,-0.44,0,-0.55,355.42,355.44,0.01,0,3
11583,67664599,0,-0.45,0,-0.58,355.42,355.43,0.01,0,3
11626,67675964,0,-0.46,0,-0.54,355.41,355.43,0.01,0,3
11672,67685960,0,-0.49,0,-0.59,355.4,355.41,0.01,0,3
11716,67695841,0,-0.5,0,-0.55,355.41,355.43,0.01,0,3
11762,67706814,0,-0.49,0,-0.5600000000000001,355.4,355.42,0.01,0,3
11806,67717856,0,-0.49,0,-0.58,355.39,355.41,0.01,0,3
11851,67728361,0,-0.47,0,-0.55,355.41,355.42,0.01,0,3
11895,67738833,0,-0.48,0,-0.57,355.4,355.41,0.01,0,3
11940,67749034,0,-0.46,0,-0.54,355.41,355.43,0.01,0,3
11985,67759357,0,-0.48,0,-0.59,355.39,355.41,0.01,0,3
12029,67769229,0,-0.49,0,-0.55,355.41,355.43,0.01,0,3
12079,67779220,0,-0.47,0,-0.55,355.41,355.43,0.01,0,3
12123,67789774,0,-0.47,0,-0.5600000000000001,355.4,355.42,0.01,0,3
12168,67799468,0,-0.46,0,-0.57,355.41,355.42,0.01,0,3
12213,67810062,0,-0.46,0,-0.57,355.41,355.42,0.01,0,3
12259,67820410,0,-0.44,0,-0.53,355.42,355.43,0.01,0,3
12306,67830672,0,-0.46,0,-0.57,355.39,355.41,0.01,0,3
12350,67841280,0,-0.47,0,-0.54,355.41,355.42,0.01,0,3
12394,67851849,0,-0.47,0,-0.5600000000000001,355.39,355.41,0.01,0,3
12438,67862431,0,-0.47,0,-0.55,355.4,355.42,0.01,0,3
12487,67873253,0,-0.47,0,-0.58,355.38,355.4,0.01,0,3
12532,67883986,0,-0.48,0,-0.5600000000000001,355.39,355.41,0.01,0,3
12573,67894561,0,-0.46,0,-0.54,355.4,355.41,0.01,0,3
12618,67904827,0,-0.48,0,-0.5600000000000001,355.38,355.4,0.01,0,3
12663,67915012,0,-0.48,0,-0.54,355.4,355.41,0.01,0,3
12707,67925148,0,-0.49,0,-0.5600000000000001,355.4,355.41,0.01,0,3
12752,67935637,0,-0.48,0,-0.53,355.41,355.42,0.01,0,3
12797,67945922,0,-0.49,0,-0.58,355.39,355.4,0.01,0,3
12841,67956403,0,-0.5,0,-0.5600000000000001,355.4,355.42,0.01,0,3
12886,67966782,0,-0.47,0,-0.55,355.4,355.42,0.01,0,3
12931,67976917,0,-0.47,0,-0.58,355.39,355.4,0.01,0,3
12982,67986977,0,-0.46,0,-0.54,355.39,355.41,0.01,0,3
13026,67996864,0,-0.47,0,-0.58,355.39,355.4,0.01,0,3
13071,68007438,0,-0.46,0,-0.5,355.4,355.42,0.01,0,3
13116,68018372,0,-0.47,0,-0.57,355.37,355.39,0.01,0,3
13163,68030824,0,-0.47,0,-0.57,355.38,355.4,0.01,0,3
13208,68041627,0,-0.46,0,-0.51,355.4,355.41,0.01,0,3
13252,68051659,0,-0.47,0,-0.59,355.38,355.4,0.01,0,3
13299,68061650,0,-0.48,0,-0.52,355.39,355.41,0.01,0,3
13340,68072281,0,-0.5,0,-0.57,355.39,355.41,0.01,0,3
13381,68083150,0,-0.5,0,-0.52,355.4,355.42,0.01,0,3
13406,68133134,0,-0.46,0,-0.54,355.39,355.4,0.01,0,3
13452,68143663,0,-0.48,0,-0.5600000000000001,355.39,355.4,0.01,0,3
13496,68154060,0,-0.45,0,-0.52,355.4,355.41,0.01,0,3
13541,68164615,0,-0.45,0,-0.57,355.38,355.4,0.01,0,3
13585,68174427,0,-0.47,0,-0.55,355.38,355.4,0.01,0,3
13630,68184828,0,-0.47,0,-0.57,355.39,355.4,0.01,0,3
13679,68194867,0,-0.48,0,-0.54,355.39,355.41,0.01,0.01,3
13724,68204969,0,-0.47,0,-0.57,355.38,355.4,0.01,0.01,3
13769,68215356,0,-0.51,0,-0.5600000000000001,355.38,355.4,0.01,0.01,3
13813,68225823,0,-0.46,0,-0.53,355.39,355.41,0.01,0.01,3
13859,68235701,0,-0.45,0,-0.57,355.39,355.4,0.01,0.01,3
13903,68245798,0,-0.45,0,-0.53,355.39,355.41,0.01,0.01,3
13948,68256064,0,-0.47,0,-0.57,355.39,355.41,0.01,0.01,3
13995,68266227,0,-0.49,0,-0.5,355.41,355.43,0.01,0.01,3
14034,68277305,0,-0.48,0,-0.5600000000000001,355.39,355.41,0.01,0.01,3
14079,68287223,0,-0.52,0,-0.55,355.39,355.41,0.01,0.01,3
14127,68297904,0,-0.48,0,-0.55,355.4,355.42,0.01,0.01,3
14172,68308049,0,-0.51,0,-0.5600000000000001,355.4,355.41,0.01,0.01,3
14216,68317968,0,-0.47,0,-0.55,355.39,355.41,0.01,0.01,3
14263,68327987,0,-0.49,0,-0.58,355.38,355.4,0.01,0.01,3
14307,68338880,0,-0.44,0,-0.52,355.4,355.42,0.01,0.01,3
14352,68349152,0,-0.44,0,-0.58,355.38,355.4,0.01,0.01,3
14397,68359267,0,-0.44,0,-0.54,355.38,355.4,0.01,0.01,3
14443,68369847,0,-0.45,0,-0.58,355.38,355.4,0.01,0.01,3
14488,68379611,0,-0.47,0,-0.54,355.39,355.41,0.01,0.01,3
14532,68390255,0,-0.45,0,-0.5600000000000001,355.38,355.4,0.01,0.01,3
14581,68400210,0,-0.5,0,-0.57,355.38,355.4,0.01,0.01,3
14625,68410247,0,-0.47,0,-0.54,355.4,355.41,0.01,0.01,3
14670,68420788,0,-0.49,0,-0.5600000000000001,355.39,355.41,0.01,0.01,3
14716,68430944,0,-0.47,0,-0.53,355.39,355.41,0.01,0.01,3
14763,68443622,0,-0.48,0,-0.5600000000000001,355.39,355.41,0.01,0.01,3
14808,68453919,0,-0.49,0,-0.53,355.41,355.42,0.01,0.01,3
14852,68463850,0,-0.46,0,-0.5600000000000001,355.38,355.4,0.01,0.01,3
14900,68479619,0,-0.48,0,-0.55,355.38,355.4,0.01,0.01,3
14945,68489995,0,-0.47,0,-0.53,355.4,355.41,0.01,0.01,3
14994,68500012,0,-0.45,0,-0.5600000000000001,355.37,355.38,0.01,0.01,3
15039,68509886,0,-0.49,0,-0.5600000000000001,355.37,355.39,0.01,0.01,3
15084,68520435,0,-0.48,0,-0.5600000000000001,355.37,355.39,0.01,0.01,3
15128,68530435,0,-0.51,0,-0.54,355.38,355.4,0.01,0.01,3
15173,68540446,0,-0.47,0,-0.55,355.37,355.38,0.01,0.01,3
15217,68550823,0,-0.5,0,-0.55,355.37,355.38,0.01,0.01,3
15262,68560921,0,-0.48,0,-0.54,355.38,355.4,0.01,0.01,3
15306,68571449,0,-0.48,0,-0.54,355.38,355.4,0.01,0.01,3
15352,68581780,0,-0.47,0,-0.53,355.38,355.4,0.01,0.01,3
15397,68591812,0,-0.47,0,-0.55,355.38,355.4,0.01,0.01,3
15446,68602470,0,-0.47,0,-0.53,355.4,355.41,0.01,0.01,3
15491,68613007,0,-0.45,0,-0.55,355.38,355.39,0.01,0.01,3
15535,68623168,0,-0.49,0,-0.5600000000000001,355.38,355.39,0.01,0.01,3
15580,68633443,0,-0.47,0,-0.54,355.38,355.4,0.01,0.01,3
15624,68643813,0,-0.49,0,-0.54,355.39,355.4,0.01,0.01,3
15672,68654421,0,-0.46,0,-0.54,355.38,355.39,0.01,0.01,3
15711,68665044,0,-0.47,0,-0.5600000000000001,355.37,355.39,0.01,0.01,3
15756,68675767,0,-0.47,0,-0.53,355.39,355.4,0.01,0.01,3
15801,68686144,0,-0.47,0,-0.5600000000000001,355.37,355.39,0.01,0.01,3
15846,68696655,0,-0.5,0,-0.55,355.37,355.39,0.01,0.01,3
15895,68706936,0,-0.5,0,-0.54,355.38,355.39,0.01,0.01,3
15941,68717201,0,-0.51,0,-0.53,355.39,355.4,0.01,0.01,3
15985,68727247,0,-0.47,0,-0.53,355.38,355.39,0.01,0.01,3
16031,68738195,0,-0.49,0,-0.5600000000000001,355.38,355.39,0.01,0.01,3
16076,68748172,0,-0.46,0,-0.52,355.4,355.41,0.01,0.01,3
16122,68758904,0,-0.46,0,-0.55,355.39,355.4,0.01,0.01,3
16167,68769411,0,-0.48,0,-0.54,355.39,355.4,0.01,0.01,3
16212,68779421,0,-0.49,0,-0.55,355.38,355.4,0.01,0.01,3
16257,68789410,0,-0.49,0,-0.54,355.39,355.41,0.01,0.01,3
16303,68799776,0,-0.47,0,-0.54,355.38,355.39,0.01,0.01,3
16352,68809850,0,-0.48,0,-0.5600000000000001,355.37,355.39,0.01,0.01,3
16399,68820261,0,-0.48,0,-0.53,355.38,355.39,0.01,0.01,3
16443,68830748,0,-0.45,0,-0.55,355.38,355.39,0.01,0.01,3
16488,68840808,0,-0.44,0,-0.53,355.37,355.39,0.01,0.01,3
16535,68853315,0,-0.48,0,-0.55,355.37,355.39,0.01,0.01,3
16582,68869506,0,-0.46,0,-0.5600000000000001,355.38,355.39,0.01,0.01,3
16626,68880589,0,-0.47,0,-0.55,355.37,355.39,0.01,0.01,3
16671,68891143,0,-0.49,0,-0.55,355.38,355.39,0.01,0.01,3
16718,68901817,0,-0.5,0,-0.57,355.38,355.4,0.01,0.01,3
16766,68912895,0,-0.46,0,-0.53,355.37,355.39,0.01,0.01,3
16811,68923623,0,-0.46,0,-0.58,355.36,355.38,0.01,0.01,3
16855,68933601,0,-0.46,0,-0.52,355.38,355.4,0.01,0.01,3
16900,68943850,0,-0.45,0,-0.5600000000000001,355.37,355.38,0.01,0.01,3
16945,68953853,0,-0.45,0,-0.53,355.36,355.38,0.01,0.01,3
16990,68964149,0,-0.46,0,-0.57,355.36,355.37,0.01,0.01,3
17035,68974346,0,-0.48,0,-0.55,355.37,355.39,0.01,0.01,3
17080,68984343,0,-0.45,0,-0.55,355.37,355.38,0.01,0.01,3
17126,68994973,0,-0.46,0,-0.58,355.35,355.37,0.01,0.01,3
17170,69005294,0,-0.46,0,-0.54,355.37,355.39,0.01,0.01,3
17225,69018185,0,-0.45,0,-0.58,355.37,355.38,0.01,0.01,3
17269,69028823,0,-0.45,0,-0.55,355.37,355.38,0.01,0.01,3
17314,69038475,0,-0.47,0,-0.57,355.36,355.38,0.01,0.01,3
17359,69049007,0,-0.49,0,-0.5600000000000001,355.37,355.39,0.01,0.01,3
17403,69058814,0,-0.48,0,-0.55,355.37,355.39,0.01,0.01,3
17449,69069207,0,-0.49,0,-0.57,355.35,355.37,0.01,0.01,3
17490,69083225,0,-0.49,0,-0.53,355.37,355.39,0.01,0.01,3
17535,69093775,0,-0.48,0,-0.55,355.36,355.38,0.01,0.01,3
17581,69103936,0,-0.47,0,-0.55,355.35,355.37,0.01,0.01,3
17625,69113774,0,-0.47,0,-0.57,355.35,355.37,0.01,0.01,3
17675,69124155,0,-0.47,0,-0.57,355.35,355.37,0.01,0.01,3
17719,69134205,0,-0.46,0,-0.53,355.36,355.38,0.01,0.01,3
17764,69144146,0,-0.46,0,-0.58,355.34,355.35,0.01,0.01,3
17810,69154632,0,-0.46,0,-0.53,355.36,355.37,0.01,0.01,3
17854,69164628,0,-0.44,0,-0.58,355.35,355.37,0.01,0.01,3
17899,69174760,0,-0.45,0,-0.53,355.36,355.37,0.01,0.01,3
17943,69184984,0,-0.45,0,-0.58,355.34,355.36,0.01,0.01,3
17988,69195041,0,-0.48,0,-0.55,355.36,355.38,0.01,0.01,3
18033,69204907,0,-0.45,0,-0.55,355.36,355.37,0.01,0.01,3
18077,69215385,0,-0.46,0,-0.57,355.35,355.36,0.01,0.01,3
18128,69225644,0,-0.45,0,-0.5600000000000001,355.35,355.36,0.01,0.01,3
18172,69235479,0,-0.48,0,-0.58,355.35,355.37,0.01,0.01,3
18217,69245650,0,-0.46,0,-0.53,355.36,355.37,0.01,0.01,3
18264,69255791,0,-0.47,0,-0.58,355.34,355.35,0.01,0.01,3
18305,69270477,0,-0.53,0,-0.55,355.35,355.36,0.01,0.01,3
18349,69281044,0,-0.48,0,-0.53,355.35,355.36,0.01,0.01,3
18394,69291445,0,-0.46,0,-0.57,355.33,355.35,0.01,0.01,3
18440,69301276,0,-0.44,0,-0.53,355.34,355.35,0.01,0.01,3
18487,69311664,0,-0.44,0,-0.57,355.34,355.36,0.01,0.01,3
18531,69321736,0,-0.44,0,-0.51,355.35,355.36,0.01,0.01,3
18580,69331967,0,-0.43,0,-0.5600000000000001,355.33,355.35,0.01,0.01,3
18625,69342022,0,-0.46,0,-0.52,355.35,355.36,0.01,0.01,3
18670,69352855,0,-0.45,0,-0.55,355.35,355.36,0.01,0.01,3
18718,69366038,0,-0.44,0,-0.57,355.34,355.35,0.01,0.01,3
18763,69376822,0,-0.43,0,-0.54,355.34,355.36,0.01,0.01,3
18808,69386853,0,-0.44,0,-0.57,355.35,355.36,0.01,0.01,3
18852,69397038,0,-0.45,0,-0.52,355.36,355.37,0.01,0.01,3
18896,69406820,0,-0.44,0,-0.57,355.34,355.35,0.01,0.01,3
18940,69417279,0,-0.48,0,-0.54,355.35,355.36,0.01,0.01,3
18989,69428148,0,-0.46,0,-0.5600000000000001,355.35,355.36,0.01,0.01,3
19034,69438618,0,-0.48,0,-0.5600000000000001,355.33,355.35,0.01,0.01,3
19080,69448670,0,-0.46,0,-0.55,355.33,355.35,0.01,0.01,3
19125,69458737,0,-0.5,0,-0.5600000000000001,355.34,355.35,0.01,0.01,3
19168,69469606,0,-0.45,0,-0.51,355.34,355.36,0.01,0.01,3
19210,69480186,0,-0.44,0,-0.5600000000000001,355.33,355.34,0.01,0.01,3
19255,69490804,0,-0.46,0,-0.54,355.34,355.35,0.01,0.01,3
19299,69500694,0,-0.44,0,-0.5600000000000001,355.34,355.36,0.01,0.01,3
19345,69510600,0,-0.47,0,-0.54,355.35,355.36,0.01,0.01,3
19389,69521215,0,-0.45,0,-0.5600000000000001,355.34,355.35,0.01,0.01,3
19438,69531871,0,-0.5,0,-0.55,355.35,355.36,0.01,0.01,3
19482,69542052,0,-0.45,0,-0.52,355.36,355.37,0.01,0.01,3
19527,69552156,0,-0.45,0,-0.5600000000000001,355.35,355.36,0.01,0.01,3
19572,69562885,0,-0.45,0,-0.54,355.35,355.36,0.01,0.01,3
19621,69575453,0,-0.44,0,-0.57,355.36,355.37,0.01,0.01,3
19666,69586221,0,-0.47,0,-0.54,355.35,355.37,0.01,0.01,3
19710,69596760,0,-0.45,0,-0.5600000000000001,355.34,355.36,0.01,0.01,3
19755,69606620,0,-0.49,0,-0.55,355.34,355.36,0.01,0.01,3
19799,69616630,0,-0.44,0,-0.54,355.35,355.37,0.01,0.01,3
19844,69626739,0,-0.46,0,-0.5600000000000001,355.33,355.35,0.01,0.01,3
19892,69636905,0,-0.44,0,-0.54,355.33,355.35,0.01,0.01,3
19937,69647848,0,-0.46,0,-0.5600000000000001,355.34,355.36,0.01,0.01,3
19982,69657970,0,-0.45,0,-0.52,355.35,355.37,0.01,0.01,3
20029,69668605,0,-0.43,0,-0.57,355.34,355.35,0.01,0.01,3
20068,69679298,0,-0.48,0,-0.5600000000000001,355.34,355.36,0.01,0.01,3
20113,69689757,0,-0.44,0,-0.57,355.35,355.37,0.01,0.01,3
20157,69700064,0,-0.47,0,-0.5600000000000001,355.35,355.36,0.01,0.01,3
20203,69709867,0,-0.45,0,-0.55,355.34,355.36,0.01,0.01,3
20248,69720272,0,-0.48,0,-0.55,355.35,355.36,0.01,0.01,3
20294,69730655,0,-0.46,0,-0.52,355.36,355.37,0.01,0.01,3
20343,69740671,0,-0.45,0,-0.5600000000000001,355.34,355.36,0.01,0.01,3
20387,69750827,0,-0.47,0,-0.54,355.34,355.36,0.01,0.01,3
20432,69760650,0,-0.47,0,-0.57,355.35,355.36,0.01,0.01,3
20478,69771614,0,-0.49,0,-0.55,355.35,355.37,0.01,0.01,3
20527,69784869,0,-0.46,0,-0.55,355.34,355.36,0.01,0.01,3
20571,69795546,0,-0.47,0,-0.5600000000000001,355.34,355.36,0.01,0.01,3
20618,69805621,0,-0.46,0,-0.52,355.35,355.37,0.01,0.01,3
20662,69815538,0,-0.45,0,-0.5600000000000001,355.34,355.35,0.01,0.01,3
20708,69825625,0,-0.48,0,-0.54,355.34,355.36,0.01,0.01,3
20753,69835385,0,-0.46,0,-0.55,355.35,355.36,0.01,0.01,3
20801,69845921,0,-0.48,0,-0.53,355.35,355.37,0.01,0.01,3
20848,69861606,0,-0.46,0,-0.53,355.34,355.36,0.01,0.01,3
20892,69871790,0,-0.46,0,-0.54,355.35,355.36,0.01,0.01,3
20938,69882559,0,-0.5,0,-0.53,355.35,355.37,0.01,0.01,3
20983,69893273,0,-0.45,0,-0.55,355.34,355.36,0.01,0.01,3
21027,69903865,0,-0.5,0,-0.58,355.33,355.35,0.01,0.01,3
21073,69914215,0,-0.44,0,-0.57,355.34,355.36,0.01,0.01,3
21118,69924162,0,-0.45,0,-0.58,355.33,355.35,0.01,0.01,3
21163,69934368,0,-0.44,0,-0.57,355.33,355.34,0.01,0.01,3
21211,69944890,0,-0.46,0,-0.58,355.33,355.34,0.01,0.01,3
21256,69954958,0,-0.45,0,-0.55,355.34,355.35,0.01,0.01,3
21301,69965243,0,-0.43,0,-0.5600000000000001,355.33,355.34,0.01,0.01,3
21345,69975870,0,-0.48,0,-0.57,355.32,355.33,0.01,0.01,3
21392,69985961,0,-0.46,0,-0.54,355.33,355.35,0.01,0.01,3
21436,69995851,0,-0.48,0,-0.55,355.33,355.35,0.01,0.01,3
21481,70006664,0,-0.44,0,-0.55,355.33,355.34,0.01,0.01,3
21526,70016952,0,-0.48,0,-0.59,355.32,355.34,0.01,0.01,3
21570,70027029,0,-0.43,0,-0.5600000000000001,355.34,355.36,0.01,0.01,3
21616,70037032,0,-0.43,0,-0.58,355.33,355.35,0.01,0.01,3
21666,70049648,0,-0.47,0,-0.57,355.33,355.34,0.01,0.01,3
21713,70060668,0,-0.47,0,-0.5600000000000001,355.33,355.35,0.01,0.01,3
21758,70070791,0,-0.5,0,-0.55,355.33,355.35,0.01,0.01,3
21796,70081984,0,-0.45,0,-0.55,355.32,355.34,0.01,0.01,3
21841,70091871,0,-0.45,0,-0.57,355.31,355.33,0.01,0.01,3
21886,70102177,0,-0.42,0,-0.54,355.33,355.34,0.01,0.01,3
21931,70111835,0,-0.41,0,-0.5600000000000001,355.31,355.33,0.01,0.01,3
21976,70122306,0,-0.41,0,-0.55,355.31,355.33,0.01,0.01,3
22020,70132060,0,-0.43,0,-0.5600000000000001,355.31,355.32,0.01,0.01,3
22065,70142467,0,-0.43,0,-0.54,355.33,355.34,0.01,0.01,3
22114,70152863,0,-0.42,0,-0.55,355.32,355.33,0.01,0.01,3
22159,70163143,0,-0.46,0,-0.5600000000000001,355.32,355.33,0.01,0.01,3
22204,70172994,0,-0.46,0,-0.55,355.32,355.34,0.01,0.01,3
22248,70184174,0,-0.49,0,-0.55,355.33,355.35,0.01,0.01,3
22293,70194072,0,-0.43,0,-0.55,355.32,355.34,0.01,0.01,3
22338,70203978,0,-0.46,0,-0.59,355.31,355.33,0.01,0.01,3
22383,70214042,0,-0.43,0,-0.54,355.33,355.35,0.01,0.01,3
22427,70224741,0,-0.44,0,-0.58,355.32,355.33,0.01,0.01,3
22472,70234760,0,-0.44,0,-0.55,355.32,355.33,0.01,0.01,3
22517,70244667,0,-0.45,0,-0.58,355.31,355.32,0.01,0.01,3
22565,70254815,0,-0.45,0,-0.55,355.33,355.34,0.01,0.01,3
22612,70264891,0,-0.42,0,-0.5600000000000001,355.31,355.33,0.01,0.01,3
22653,70278431,0,-0.47,0,-0.58,355.3,355.31,0,0.01,3
22698,70289004,0,-0.44,0,-0.53,355.32,355.34,0,0.01,3
22747,70301448,0,-0.42,0,-0.57,355.31,355.33,0,0.01,3
22795,70312244,0,-0.47,0,-0.57,355.31,355.32,0,0.01,3
22839,70322816,0,-0.46,0,-0.54,355.32,355.33,0,0.01,3
22883,70332828,0,-0.48,0,-0.55,355.32,355.34,0,0.01,3
22928,70342811,0,-0.44,0,-0.52,355.32,355.34,0,0.01,3
22973,70352761,0,-0.48,0,-0.58,355.31,355.32,0,0.01,3
23022,70362898,0,-0.46,0,-0.51,355.33,355.34,0,0.01,3
23066,70373276,0,-0.48,0,-0.55,355.32,355.33,0,0.01,3
23111,70383791,0,-0.47,0,-0.53,355.31,355.33,0,0.01,3
23157,70393807,0,-0.47,0,-0.5600000000000001,355.31,355.32,0,0.01,3
23201,70403768,0,-0.47,0,-0.53,355.32,355.33,0,0.01,3
23249,70416156,0,-0.43,0,-0.52,355.31,355.33,0,0.01,3
23293,70426665,0,-0.46,0,-0.59,355.29,355.31,0,0.01,3
23339,70436980,0,-0.45,0,-0.52,355.31,355.33,0,0.01,3
23384,70447169,0,-0.46,0,-0.58,355.3,355.32,0,0.01,3
23432,70458100,0,-0.43,0,-0.53,355.31,355.32,0,0.01,3
23478,70468197,0,-0.46,0,-0.59,355.29,355.31,0,0.01,3
23521,70478316,0,-0.46,0,-0.54,355.31,355.33,0,0.01,3
23563,70489236,0,-0.43,0,-0.54,355.31,355.32,0,0.01,3
23611,70501765,0,-0.45,0,-0.59,355.29,355.3,0,0.01,3
23655,70512019,0,-0.44,0,-0.51,355.32,355.33,0,0.01,3
23700,70521884,0,-0.46,0,-0.57,355.3,355.32,0,0.01,3
23746,70532799,0,-0.44,0,-0.51,355.31,355.32,0,0.01,3
23791,70543024,0,-0.47,0,-0.59,355.29,355.31,0,0.01,3
23835,70552973,0,-0.46,0,-0.53,355.31,355.32,0,0.01,3
23884,70562769,0,-0.46,0,-0.57,355.3,355.31,0,0.01,3
23928,70573298,0,-0.48,0,-0.55,355.29,355.31,0,0.01,3
23973,70583842,0,-0.46,0,-0.54,355.29,355.31,0,0.01,3
24018,70594052,0,-0.46,0,-0.57,355.29,355.31,0,0.01,3
24062,70603901,0,-0.42,0,-0.52,355.3,355.31,0,0.01,3
24107,70614798,0,-0.43,0,-0.59,355.28,355.29,0,0.01,3
24153,70624916,0,-0.43,0,-0.51,355.3,355.32,0,0.01,3
24197,70635402,0,-0.44,0,-0.57,355.29,355.3,0,0.01,3
24242,70645949,0,-0.47,0,-0.53,355.29,355.3,0,0.01,3
24292,70661146,0,-0.43,0,-0.51,355.3,355.32,0.01,0.01,3
24338,70671955,0,-0.44,0,-0.57,355.29,355.3,0.01,0.01,3
24382,70682464,0,-0.43,0,-0.53,355.3,355.31,0.01,0.01,3
24426,70692977,0,-0.47,0,-0.58,355.28,355.3,0.01,0.01,3
24475,70705461,0,-0.46,0,-0.5600000000000001,355.29,355.3,0.01,0.01,3
24519,70715851,0,-0.43,0,-0.53,355.29,355.31,0.01,0.01,3
24565,70725897,0,-0.44,0,-0.58,355.27,355.29,0.01,0.01,3
24610,70735913,0,-0.44,0,-0.51,355.29,355.31,0.01,0.01,3
24656,70746223,0,-0.45,0,-0.5600000000000001,355.28,355.3,0.01,0.01,3
24701,70756815,0,-0.45,0,-0.52,355.28,355.3,0.01,0.01,3
24750,70767045,0,-0.46,0,-0.57,355.27,355.28,0.01,0.01,3
24798,70779632,0,-0.48,0,-0.5600000000000001,355.28,355.29,0.01,0.01,3
24846,70790224,0,-0.44,0,-0.52,355.28,355.29,0.01,0.01,3
24895,70802818,0,-0.43,0,-0.59,355.27,355.28,0.01,0.01,3
24943,70815214,0,-0.49,0,-0.5600000000000001,355.28,355.3,0.01,0.01,3
24988,70825631,0,-0.47,0,-0.54,355.28,355.3,0.01,0.01,3
25030,70835668,0,-0.49,0,-0.57,355.27,355.29,0.01,0.01,3
25075,70845813,0,-0.48,0,-0.54,355.28,355.3,0.01,0.01,3
25122,70856155,0,-0.47,0,-0.5600000000000001,355.28,355.3,0.01,0.01,3
25172,70869199,0,-0.44,0,-0.52,355.29,355.3,0.01,0.01,3
25214,70879777,0,-0.47,0,-0.57,355.27,355.29,0.01,0.01,3
25258,70890279,0,-0.49,0,-0.53,355.28,355.3,0.01,0.01,3
25303,70900776,0,-0.48,0,-0.54,355.28,355.29,0.01,0.01,3
25347,70910822,0,-0.5,0,-0.5600000000000001,355.26,355.28,0.01,0.01,3
25393,70921189,0,-0.48,0,-0.53,355.27,355.29,0.01,0.01,3
25435,70931291,0,-0.45,0,-0.57,355.27,355.28,0.01,0.01,3
25479,70941462,0,-0.4,0,-0.52,355.28,355.29,0.01,0.01,3
25525,70951756,0,-0.41,0,-0.59,355.25,355.27,0.01,0.01,3
25569,70961898,0,-0.42,0,-0.52,355.28,355.29,0.01,0.01,3
25622,70974287,0,-0.45,0,-0.55,355.27,355.29,0.01,0.01,3
25667,70984476,0,-0.48,0,-0.58,355.26,355.27,0.01,0.01,3
25711,70994603,0,-0.46,0,-0.54,355.26,355.28,0.01,0.01,3
25756,71004282,0,-0.47,0,-0.57,355.27,355.28,0.01,0.01,3
25800,71014357,0,-0.44,0,-0.51,355.28,355.3,0.01,0.01,3
25845,71024824,0,-0.46,0,-0.58,355.26,355.27,0.01,0.01,3
25890,71034878,0,-0.46,0,-0.51,355.28,355.3,0.01,0.01,3
25935,71044979,0,-0.46,0,-0.57,355.27,355.29,0.01,0.01,3
25980,71054886,0,-0.44,0,-0.52,355.28,355.3,0.01,0.01,3
26025,71064877,0,-0.45,0,-0.59,355.26,355.27,0.01,0.01,3
26078,71077609,0,-0.49,0,-0.58,355.27,355.28,0.01,0.01,3
26119,71088618,0,-0.46,0,-0.52,355.28,355.29,0.01,0.01,3
26165,71098874,0,-0.48,0,-0.59,355.25,355.27,0.01,0.01,3
26209,71109104,0,-0.46,0,-0.52,355.27,355.29,0.01,0.01,3
26251,71120046,0,-0.44,0,-0.5600000000000001,355.26,355.28,0.01,0.01,3
26296,71130073,0,-0.42,0,-0.54,355.28,355.29,0.01,0.01,3
26340,71140214,0,-0.42,0,-0.5600000000000001,355.26,355.27,0.01,0.01,3
26385,71150393,0,-0.44,0,-0.55,355.28,355.29,0.01,0.01,3
26430,71160671,0,-0.43,0,-0.54,355.28,355.29,0.01,0.01,3
26475,71170201,0,-0.44,0,-0.57,355.27,355.29,0.01,0.01,3
26524,71180819,0,-0.44,0,-0.54,355.27,355.28,0.01,0.01,3
26568,71191053,0,-0.45,0,-0.57,355.27,355.29,0.01,0.01,3
26614,71200990,0,-0.43,0,-0.53,355.29,355.3,0.01,0.01,3
26658,71211210,0,-0.43,0,-0.57,355.27,355.28,0.01,0.01,3
26703,71221872,0,-0.44,0,-0.57,355.28,355.29,0.01,0.01,3
26747,71232612,0,-0.45,0,-0.53,355.27,355.29,0.01,0.01,3
26793,71242947,0,-0.43,0,-0.57,355.26,355.28,0.01,0.01,3
26840,71255370,0,-0.43,0,-0.58,355.26,355.27,0.01,0.01,3
26882,71269286,0,-0.42,0.01,-0.57,355.26,355.28,0.01,0.01,3
26931,71279905,0,-0.42,0.02,-0.55,355.26,355.28,0.01,0.01,3
26977,71290417,0,-0.39,0.04,-0.5600000000000001,355.26,355.28,0.01,0.01,3
27022,71300974,0,-0.38,0.05,-0.54,355.26,355.28,0.01,0.01,3
27067,71311602,0,-0.42,0.06,-0.5600000000000001,355.26,355.29,0.01,0.01,3
27108,71324814,0,-0.4,0.07000000000000001,-0.53,355.26,355.29,0.01,0.01,3
27152,71335143,0,-0.45,0.08,-0.55,355.26,355.3,0.01,0.01,3
27197,71345430,0,-0.4,0.09,-0.54,355.26,355.3,0.01,0.01,3
27241,71355605,0,-0.32,0.1,-0.53,355.26,355.3,0.01,0.01,3
27286,71365985,0,-0.29,0.1,-0.54,355.26,355.3,0.01,0.01,3
27330,71376640,0.01,-0.31,0.11,-0.55,355.26,355.29,0.01,0.01,3
27380,71386946,0.02,-0.43,0.12,-0.5,355.26,355.3,0.01,0.01,3
27424,71397153,0.02,-0.49,0.12,-0.52,355.26,355.3,0.01,0.01,3
27470,71407288,0.02,-0.44,0.13,-0.49,355.26,355.3,0.01,0.01,3
27515,71417752,0.03,-0.25,0.13,-0.55,355.26,355.28,0.01,0.01,3
27559,71430055,0.04,-0.22,0.14,-0.52,355.26,355.29,0.01,0.01,3
27604,71440992,0.04,-0.3,0.15,-0.54,355.26,355.3,0.01,0.01,3
27648,71451433,0.05,-0.37,0.16,-0.5600000000000001,355.26,355.31,0.01,0.01,3
27693,71462196,0.06,-0.52,0.17,-0.49,355.26,355.32,0.01,0.01,3
27739,71473164,0.06,-0.51,0.17,-0.55,355.26,355.33,0,0.01,3
27778,71484158,0.07000000000000001,-0.35,0.18,-0.49,355.26,355.34,0,0.01,3
27826,71494409,0.08,-0.24,0.19,-0.57,355.26,355.32,0,0.01,3
27871,71504825,0.08,-0.27,0.19,-0.54,355.26,355.33,0,0.01,3
27917,71515046,0.08,-0.39,0.19,-0.49,355.26,355.34,0,0.01,3
27962,71525309,0.08,-0.44,0.19,-0.51,355.26,355.32,0,0.01,3
28006,71535879,0.08,-0.35,0.2,-0.49,355.26,355.32,0,0.01,3
28051,71545996,0.07000000000000001,-0.23,0.2,-0.5600000000000001,355.26,355.32,0,0.01,3
28095,71556766,0.07000000000000001,-0.24,0.2,-0.54,355.26,355.31,0,0.01,3
28140,71566836,0.08,-0.33,0.2,-0.46,355.26,355.31,0,0.01,3
28184,71577309,0.08,-0.49,0.2,-0.52,355.26,355.32,0,0.01,3
28231,71587967,0.09,-0.47,0.2,-0.57,355.26,355.32,0,0.01,3
28280,71598779,0.1,-0.28,0.19,-0.44,355.26,355.32,0,0.01,3
28325,71609152,0.11,-0.37,0.2,-0.43,355.26,355.32,0,0.01,3
28370,71619834,0.11,-0.54,0.19,-0.55,355.26,355.34,0,0.01,3
28414,71630010,0.11,-0.31,0.19,-0.57,355.26,355.33,0,0.01,3
28456,71640411,0.11,-0.11,0.19,-0.46,355.26,355.33,0,0.01,3
28498,71650855,0.1,-0.31,0.2,-0.37,355.26,355.33,0,0.01,3
28542,71661289,0.09,-0.5600000000000001,0.2,-0.48,355.26,355.35,0,0.01,3
28587,71672144,0.08,-0.37,0.19,-0.5,355.26,355.36,0,0.01,3
28633,71685046,0.07000000000000001,-0.46,0.18,-0.4,355.26,355.36,0.01,0.01,3
28675,71695745,0.04,-0.1,0.17,-0.45,355.26,355.37,0.01,0.01,3
28724,71706645,0.03,0.1,0.16,-0.47,355.26,355.36,0.01,0.01,3
28769,71716773,0.02,0.05,0.15,-0.48,355.26,355.35,0.01,0.01,3
28814,71726805,0,-0.14,0.14,-0.4,355.26,355.36,0.01,0.01,3
28860,71737711,-0.02,-0.21,0.13,-0.34,355.26,355.38,0.01,0.01,3
28908,71750670,-0.04,-0.25,0.1,-0.32,355.26,355.37,0.01,0.01,3
28952,71761451,-0.05,-0.09,0.09,-0.33,355.26,355.38,0.01,0.01,3
28997,71772203,-0.08,0.06,0.08,-0.32,355.26,355.37,0.01,0.01,3
29044,71782851,-0.12,0.1,0.08,-0.26,355.26,355.35,0.01,0.01,3
29089,71793159,-0.16,-0.01,0.07000000000000001,-0.19,355.26,355.36,0.01,0.01,3
29138,71803406,-0.18,-0.11,0.06,-0.08,355.26,355.4,0.01,0.01,3
29183,71813881,-0.2,-0.03,0.04,0,355.26,355.43,0.01,0.01,3
29228,71824254,-0.23,0.16,0.02,0,355.26,355.42,0.01,0.01,3
29275,71834846,-0.27,0.32,0.01,0.01,355.26,355.43,0.01,0.01,3
29319,71844990,-0.31,0.34,0,0.04,355.26,355.46,0.01,0.01,3
29364,71855755,-0.36,0.35,-0.01,0.08,355.26,355.49,0.01,0.01,3
29414,71868644,-0.41,0.38,-0.03,0.19,355.26,355.55,0.01,0.01,3
29452,71880228,-0.43,0.52,-0.04,0.21,355.27,355.59,0.01,0.01,3
29497,71890289,-0.47,0.64,-0.06,0.24,355.27,355.63,0.01,0.01,3
29541,71900374,-0.51,0.77,-0.08,0.27,355.27,355.68,0.01,0.01,3
29590,71910615,-0.54,0.8100000000000001,-0.1,0.3,355.27,355.74,0.01,0.01,3
29634,71920780,-0.57,0.78,-0.11,0.36,355.27,355.82,0.01,0.01,3
29679,71930827,-0.61,0.8100000000000001,-0.13,0.44,355.27,355.9,0.01,0.01,3
29724,71940867,-0.65,0.9399999999999999,-0.16,0.43,355.27,355.98,0.01,0.01,3
29769,71951401,-0.6899999999999999,1.09,-0.18,0.4,355.27,356.06,0.01,0.01,3
29814,71962288,-0.75,1.11,-0.2,0.45,355.27,356.15,0.01,0.01,3
29858,71973192,-0.82,1.14,-0.21,0.49,355.27,356.22,0.01,0.01,3
29904,71983887,-0.89,1.23,-0.23,0.49,355.27,356.34,0.01,0.01,3
29948,71994260,-0.96,1.34,-0.24,0.47,355.27,356.42,0.01,0.01,3
29993,72005038,-1.04,1.46,-0.26,0.42,355.27,356.55,0.01,0.01,3
30042,72015184,-1.11,1.52,-0.27,0.45,355.27,356.66,0.01,0.01,3
30087,72025061,-1.18,1.54,-0.28,0.45,355.27,356.77,0.01,0.01,3
30132,72035141,-1.24,1.53,-0.29,0.4,355.27,356.89,0.01,0.01,3
30176,72045407,-1.28,1.53,-0.29,0.36,355.27,357,0.01,0.01,3
30224,72055467,-1.33,1.54,-0.31,0.29,355.27,357.13,0.01,0.01,3
30263,72068163,-1.34,1.43,-0.31,0.32,355.27,357.26,0.01,0.01,3
30307,72078384,-1.38,1.36,-0.33,0.32,355.27,357.41,0.01,0.01,3
30351,72088565,-1.43,1.33,-0.34,0.25,355.27,357.53,0.01,0.01,3
30395,72098850,-1.48,1.31,-0.35,0.22,355.27,357.67,0.01,0.01,3
30440,72109287,-1.54,1.27,-0.37,0.19,355.27,357.79,0.01,0.01,3
30491,72119758,-1.6,1.24,-0.38,0.17,355.27,357.94,0.01,0.01,3
30535,72130045,-1.67,1.19,-0.4,0.19,355.27,358.08,0.01,0.01,3
30579,72140032,-1.76,1.15,-0.43,0.2,355.27,358.22,0.01,0.01,3
30625,72150570,-1.85,1.12,-0.45,0.24,355.27,358.36,0.01,0.01,3
30670,72161024,-1.94,1.06,-0.47,0.21,355.27,358.51,0.01,0.01,3
30714,72171454,-2.03,1.05,-0.47,0.12,355.27,358.67,0.01,0.01,3
30759,72182015,-2.11,1.01,-0.48,0.11,355.27,358.81,0.01,0.01,3
30804,72192896,-2.2,0.89,-0.49,0.16,355.27,358.96,0.01,0.01,3
30849,72203783,-2.29,0.77,-0.49,0.2,355.27,359.12,0.01,0.01,3
30893,72214029,-2.36,0.68,-0.5,0.19,355.27,359.25,0.01,0.01,3
30942,72224000,-2.43,0.61,-0.5,0.13,355.27,359.4,0.01,0.01,3
30987,72233868,-2.5,0.5600000000000001,-0.49,0.11,355.27,359.54,0.01,0.01,3
31031,72244542,-2.56,0.49,-0.48,0.08,355.27,359.68,0.01,0.01,3
31076,72255000,-2.63,0.47,-0.49,0,355.27,359.83,0.01,0.01,3
31123,72268911,-2.71,0.33,-0.51,0.07000000000000001,355.27,0.02,0.03,0.01,3
31170,72282985,-2.8,0.22,-0.52,0,355.28,0.21,0.03,0.01,3
31216,72293363,-2.88,0.12,-0.54,0,355.28,0.35,0.03,0.01,3
31260,72303654,-2.97,0.03,-0.5600000000000001,0.01,355.28,0.49,0.03,0.01,3
31305,72314058,-3.06,-0.03,-0.6,0.05,355.28,0.61,0.03,0.01,3
31349,72324924,-3.14,-0.1,-0.64,0.11,355.28,0.75,0.03,0.01,3
31398,72335215,-3.22,-0.14,-0.68,0.08,355.28,0.89,0.03,0.01,3
31443,72345284,-3.3,-0.19,-0.72,0.09,355.29,1.02,0.03,0.01,3
31487,72355819,-3.38,-0.2,-0.76,0.07000000000000001,355.29,1.14,0.03,0.01,3
31532,72366176,-3.46,-0.2,-0.79,0.02,355.29,1.27,0.03,0.01,3
31576,72377057,-3.55,-0.2,-0.83,-0.09,355.29,1.38,0.03,0.01,3
31623,72390265,-3.66,-0.29,-0.86,-0.07000000000000001,355.29,1.56,0.03,0.01,3
31668,72400821,-3.75,-0.32,-0.88,-0.12,355.3,1.69,0.03,0.01,3
31714,72411274,-3.84,-0.33,-0.9,-0.16,355.3,1.8,0.03,0.01,3
31759,72421305,-3.92,-0.3,-0.92,-0.27,355.3,1.93,0.03,0.01,3
31807,72432408,-4.01,-0.33,-0.9399999999999999,-0.37,355.3,2.04,0.03,0.01,3
31852,72442986,-4.08,-0.32,-0.96,-0.47,355.3,2.16,0.03,0.01,3
31901,72455885,-4.17,-0.45,-0.98,-0.51,355.3,2.29,0.05,0.01,3
31940,72467732,-4.22,-0.5600000000000001,-0.99,-0.53,355.3,2.42,0.05,0.01,3
31984,72478224,-4.29,-0.63,-0.99,-0.64,355.3,2.53,0.05,0.01,3
32029,72488658,-4.35,-0.72,-1,-0.71,355.3,2.64,0.05,0.01,3
32073,72499200,-4.4,-0.8,-1,-0.77,355.3,2.74,0.05,0.01,3
32118,72509354,-4.45,-0.86,-1,-0.93,355.3,2.84,0.05,0.01,3
32163,72519411,-4.49,-1.01,-0.99,-0.99,355.3,2.93,0.05,0.01,3
32207,72529961,-4.52,-1.09,-0.99,-1.07,355.3,3.02,0.05,0.01,3
32256,72540760,-4.55,-1.18,-0.98,-1.2,355.3,3.09,0.05,0.01,3
32301,72550974,-4.58,-1.32,-0.97,-1.23,355.3,3.17,0.05,0.01,3
32345,72561393,-4.6,-1.47,-0.96,-1.28,355.3,3.24,0.05,0.01,3
32393,72574234,-4.64,-1.51,-0.9399999999999999,-1.44,355.3,3.34,0.05,0.01,3
32437,72584811,-4.68,-1.59,-0.92,-1.48,355.3,3.39,0.05,0.01,3
32482,72595417,-4.72,-1.71,-0.9,-1.55,355.3,3.46,0.05,0.01,3
32527,72605637,-4.76,-1.76,-0.88,-1.59,355.29,3.51,0.05,0.01,3
32571,72615637,-4.8,-1.8,-0.86,-1.64,355.29,3.57,0.05,0.01,3
32617,72625587,-4.83,-1.93,-0.84,-1.67,355.29,3.61,0.05,0.01,3
32661,72636010,-4.86,-2.03,-0.83,-1.64,355.29,3.67,0.05,0.01,3
32710,72646430,-4.89,-2.09,-0.82,-1.64,355.29,3.71,0.05,0.01,3
32756,72656474,-4.92,-2.11,-0.8100000000000001,-1.66,355.29,3.76,0.05,0.01,3
32802,72666622,-4.95,-2.18,-0.8,-1.65,355.29,3.8,0.06,0.01,3
32841,72678246,-4.96,-2.35,-0.79,-1.53,355.29,3.82,0.06,0.01,3
32885,72689988,-4.99,-2.48,-0.77,-1.41,355.29,3.85,0.06,0.01,3
32930,72700781,-5.02,-2.62,-0.75,-1.36,355.28,3.9,0.06,0.01,3
32974,72711385,-5.05,-2.68,-0.72,-1.33,355.28,3.91,0.06,0.01,3
33019,72722248,-5.08,-2.73,-0.7,-1.22,355.28,3.94,0.06,0.01,3
33064,72733057,-5.11,-2.8,-0.68,-1.18,355.28,3.97,0.06,0.01,3
33110,72743748,-5.13,-2.81,-0.66,-1.16,355.28,3.97,0.06,0.01,3
33159,72754171,-5.16,-2.91,-0.64,-1.06,355.27,3.99,0.06,0.01,3
33203,72764416,-5.19,-2.97,-0.61,-1.04,355.27,4.01,0.06,0.01,3
33249,72774668,-5.23,-3.01,-0.58,-1.01,355.26,4.01,0.06,0.01,3
33294,72785873,-5.27,-3,-0.5600000000000001,-0.95,355.25,4.02,0.06,0.01,3
33339,72797072,-5.31,-3.04,-0.52,-0.86,355.24,4,0.06,0.01,3
33385,72808032,-5.35,-3.08,-0.48,-0.76,355.24,4.01,0.06,0.01,3
33429,72818572,-5.39,-3.11,-0.45,-0.65,355.23,3.99,0.06,0.01,3
33474,72829166,-5.43,-3.17,-0.41,-0.59,355.23,3.99,0.06,0.01,3
33520,72839296,-5.46,-3.23,-0.38,-0.49,355.23,3.99,0.06,0.01,3
33564,72849390,-5.49,-3.22,-0.35,-0.43,355.22,3.97,0.06,0.01,3
33613,72864023,-5.52,-3.15,-0.31,-0.48,355.22,3.96,0.05,0,3
33657,72874485,-5.54,-3.16,-0.28,-0.4,355.22,3.92,0.05,0,3
33702,72885068,-5.55,-3.24,-0.26,-0.32,355.21,3.92,0.05,0,3
33753,72901414,-5.58,-3.39,-0.23,-0.14,355.21,3.88,0.05,0,3
33798,72911986,-5.59,-3.46,-0.21,-0.06,355.21,3.86,0.05,0,3
33843,72922313,-5.61,-3.47,-0.2,0,355.21,3.83,0.05,0,3
33888,72933140,-5.62,-3.53,-0.18,0.01,355.21,3.8,0.05,0,3
33932,72944020,-5.64,-3.63,-0.16,0.09,355.2,3.77,0.05,0,3
33979,72954157,-5.65,-3.68,-0.13,0.15,355.2,3.74,0.05,0,3
34027,72964220,-5.67,-3.72,-0.11,0.21,355.2,3.71,0.05,0.01,3
34071,72974378,-5.68,-3.82,-0.1,0.3,355.2,3.68,0.05,0.01,3
34115,72985065,-5.7,-3.89,-0.08,0.35,355.2,3.65,0.05,0.01,3
34160,72995058,-5.72,-3.91,-0.06,0.41,355.19,3.61,0.05,0.01,3
34208,73007961,-5.73,-3.88,-0.05,0.36,355.19,3.59,0.05,0.01,3
34252,73018865,-5.75,-3.84,-0.04,0.32,355.19,3.55,0.05,0.01,3
34298,73029247,-5.77,-3.8,-0.03,0.34,355.19,3.51,0.05,0.01,3
34342,73039747,-5.8,-3.8,-0.03,0.34,355.19,3.47,0.05,0.01,3
34388,73049905,-5.83,-3.8,-0.02,0.35,355.19,3.44,0.05,0.01,3
34432,73060659,-5.86,-3.82,-0.01,0.42,355.19,3.39,0.05,0.01,3
34480,73075030,-5.88,-3.84,0,0.46,355.19,3.36,0.05,0.01,3
34525,73085292,-5.9,-3.79,0,0.47,355.19,3.32,0.05,0.01,3
34569,73095569,-5.91,-3.76,0,0.45,355.19,3.27,0.05,0.01,3
34614,73106171,-5.92,-3.74,0,0.48,355.19,3.24,0.05,0.01,3
34658,73116960,-5.92,-3.77,-0.01,0.52,355.19,3.18,0.05,0.01,3
34703,73127829,-5.91,-3.78,-0.02,0.6,355.19,3.15,0.05,0.01,3
34747,73138668,-5.9,-3.87,-0.03,0.7,355.19,3.1,0.05,0.01,3
34792,73149445,-5.89,-3.94,-0.04,0.78,355.19,3.07,0.05,0.01,3
34838,73160143,-5.88,-3.98,-0.05,0.82,355.19,3.02,0.05,0.01,3
34886,73171034,-5.86,-3.98,-0.07000000000000001,0.84,355.19,2.99,0.05,0.01,3
34934,73181695,-5.84,-3.98,-0.08,0.82,355.2,2.95,0.05,0.01,3
34979,73192832,-5.82,-4,-0.1,0.86,355.2,2.88,0.05,0.01,3
35023,73203562,-5.81,-4.04,-0.11,0.9399999999999999,355.2,2.83,0.05,0.01,3
35068,73214197,-5.8,-4.08,-0.12,1,355.2,2.79,0.05,0.01,3
35114,73224663,-5.78,-4.1,-0.13,1.04,355.2,2.74,0.05,0.01,3
35158,73235236,-5.77,-4.12,-0.15,1.11,355.2,2.69,0.05,0.01,3
35203,73245179,-5.76,-4.15,-0.17,1.12,355.21,2.67,0.05,0.01,3
35248,73255789,-5.75,-4.13,-0.19,1.07,355.21,2.62,0.05,0.01,3
35296,73269349,-5.74,-4.1,-0.22,1.05,355.21,2.55,0.07000000000000001,0.01,3
35342,73280928,-5.74,-4.15,-0.24,1.04,355.21,2.5,0.07000000000000001,0.01,3
35388,73291138,-5.73,-4.12,-0.26,1.02,355.21,2.46,0.07000000000000001,0.01,3
35432,73301800,-5.71,-4.12,-0.28,1,355.22,2.42,0.07000000000000001,0.01,3
35476,73312189,-5.69,-4.15,-0.32,0.93,355.22,2.39,0.07000000000000001,0.01,3
35520,73323206,-5.67,-4.19,-0.37,0.9,355.22,2.34,0.07000000000000001,0.01,3
35564,73334057,-5.64,-4.2,-0.42,0.92,355.23,2.3,0.07000000000000001,0.01,3
35608,73344814,-5.61,-4.28,-0.47,0.98,355.24,2.26,0.07000000000000001,0.01,3
35652,73354920,-5.57,-4.31,-0.53,0.96,355.24,2.24,0.07000000000000001,0.01,3
35696,73364863,-5.53,-4.35,-0.59,0.93,355.25,2.2,0.07000000000000001,0.01,3
35742,73375185,-5.49,-4.35,-0.64,0.92,355.25,2.19,0.07000000000000001,0.01,3
35792,73386000,-5.45,-4.35,-0.7,0.86,355.26,2.17,0.07000000000000001,0.01,3
35836,73396301,-5.4,-4.35,-0.75,0.78,355.26,2.16,0.07000000000000001,0.01,3
35881,73407043,-5.36,-4.32,-0.8,0.73,355.27,2.12,0.07000000000000001,0.01,3
35925,73417614,-5.33,-4.36,-0.85,0.72,355.27,2.12,0.07000000000000001,0.01,3
35971,73428060,-5.29,-4.39,-0.9,0.67,355.28,2.11,0.07000000000000001,0.01,3
36016,73439181,-5.25,-4.34,-0.9399999999999999,0.58,355.28,2.11,0.07000000000000001,0.01,3
36060,73449661,-5.22,-4.29,-0.98,0.5,355.28,2.12,0.07000000000000001,0.01,3
36104,73459456,-5.18,-4.27,-1.02,0.4,355.29,2.13,0.07000000000000001,0.01,3
36149,73470287,-5.15,-4.24,-1.06,0.3,355.29,2.15,0.07000000000000001,0.01,3
36194,73480988,-5.12,-4.26,-1.09,0.26,355.29,2.14,0.07000000000000001,0.01,3
36245,73491758,-5.09,-4.34,-1.12,0.19,355.3,2.17,0.07000000000000001,0.01,3
36284,73504041,-5.06,-4.32,-1.14,0.09,355.3,2.2,0.07000000000000001,0.01,3
36329,73514057,-5.03,-4.26,-1.17,0.01,355.3,2.24,0.07000000000000001,0.01,3
36373,73524823,-5,-4.19,-1.19,-0.09,355.3,2.27,0.07000000000000001,0.01,3
36419,73535754,-4.97,-4.11,-1.22,-0.21,355.31,2.32,0.07000000000000001,0.01,3
36463,73546881,-4.95,-4.07,-1.25,-0.24,355.31,2.35,0.07000000000000001,0.01,3
36508,73557854,-4.92,-4.08,-1.28,-0.29,355.31,2.42,0.07000000000000001,0.01,3
36552,73568166,-4.9,-4.08,-1.31,-0.36,355.31,2.46,0.07000000000000001,0.01,3
36597,73578151,-4.88,-4.03,-1.34,-0.41,355.32,2.51,0.07000000000000001,0.01,3
36642,73588136,-4.87,-3.95,-1.36,-0.46,355.32,2.55,0.07000000000000001,0.01,3
36690,73599219,-4.85,-3.87,-1.39,-0.58,355.32,2.62,0.07000000000000001,0.01,3
36735,73610019,-4.84,-3.77,-1.42,-0.6899999999999999,355.32,2.67,0.07000000000000001,0.02,3
36779,73620836,-4.83,-3.78,-1.43,-0.71,355.32,2.71,0.07000000000000001,0.02,3
36824,73631999,-4.83,-3.77,-1.44,-0.73,355.32,2.76,0.07000000000000001,0.02,3
36869,73643258,-4.82,-3.71,-1.45,-0.78,355.32,2.82,0.07000000000000001,0.02,3
36914,73653592,-4.82,-3.69,-1.45,-0.82,355.33,2.87,0.07000000000000001,0.02,3
36961,73664126,-4.82,-3.64,-1.45,-0.86,355.32,2.92,0.07000000000000001,0.02,3
37000,73675963,-4.81,-3.54,-1.45,-0.99,355.32,2.99,0.07000000000000001,0.02,3
37044,73686022,-4.8,-3.5,-1.44,-1.05,355.32,3.02,0.07000000000000001,0.02,3
37089,73695844,-4.79,-3.46,-1.42,-1.11,355.32,3.07,0.07000000000000001,0.02,3
37138,73706846,-4.78,-3.43,-1.4,-1.16,355.32,3.11,0.07000000000000001,0.02,3
37183,73717904,-4.77,-3.46,-1.38,-1.09,355.32,3.16,0.07000000000000001,0.02,3
37228,73728204,-4.76,-3.45,-1.36,-1.11,355.32,3.2,0.07000000000000001,0.02,3
37273,73739069,-4.74,-3.48,-1.33,-1.06,355.32,3.25,0.07000000000000001,0.02,3
37321,73752181,-4.72,-3.36,-1.31,-1.15,355.31,3.3,0.07000000000000001,0.02,3
37370,73763201,-4.69,-3.39,-1.29,-1.12,355.31,3.34,0.07000000000000001,0.02,3
37415,73773667,-4.67,-3.37,-1.28,-1.11,355.31,3.37,0.07000000000000001,0.02,3
37460,73784621,-4.66,-3.36,-1.26,-1.1,355.31,3.41,0.07000000000000001,0.02,3
37505,73795154,-4.64,-3.39,-1.23,-1.05,355.31,3.43,0.07000000000000001,0.02,3
37550,73805791,-4.63,-3.4,-1.2,-0.93,355.3,3.47,0.07000000000000001,0.02,3
37598,73815913,-4.61,-3.44,-1.18,-0.91,355.3,3.5,0.07000000000000001,0.02,3
37644,73826260,-4.6,-3.47,-1.15,-0.88,355.3,3.53,0.07000000000000001,0.02,3
37689,73836844,-4.59,-3.42,-1.12,-0.85,355.3,3.55,0.07000000000000001,0.02,3
37734,73847225,-4.58,-3.42,-1.09,-0.86,355.3,3.59,0.07000000000000001,0.02,3
37781,73860936,-4.57,-3.3,-1.06,-0.9,355.29,3.61,0.08,0.02,3
37822,73872845,-4.56,-3.38,-1.03,-0.82,355.29,3.64,0.08,0.02,3
37867,73883845,-4.55,-3.35,-0.99,-0.8100000000000001,355.29,3.66,0.08,0.02,3
37913,73894756,-4.54,-3.36,-0.9399999999999999,-0.76,355.28,3.69,0.08,0.02,3
37957,73905061,-4.53,-3.34,-0.89,-0.76,355.28,3.74,0.08,0.02,3
38003,73915835,-4.52,-3.31,-0.84,-0.79,355.28,3.75,0.08,0.02,3
38051,73926003,-4.51,-3.26,-0.78,-0.76,355.27,3.77,0.08,0.02,3
38095,73936212,-4.51,-3.23,-0.73,-0.76,355.27,3.79,0.08,0.02,3
38140,73946743,-4.5,-3.21,-0.67,-0.72,355.26,3.82,0.08,0.02,3
38184,73957659,-4.49,-3.21,-0.62,-0.61,355.26,3.83,0.08,0.02,3
38228,73968805,-4.48,-3.19,-0.57,-0.55,355.25,3.85,0.08,0.02,3
38272,73978995,-4.47,-3.23,-0.52,-0.42,355.25,3.87,0.08,0.02,3
38318,73989655,-4.46,-3.24,-0.48,-0.33,355.25,3.9,0.08,0.02,3
38363,74000166,-4.44,-3.23,-0.45,-0.19,355.25,3.91,0.08,0.02,3
38408,74011014,-4.42,-3.16,-0.43,-0.1,355.24,3.93,0.08,0.02,3
38453,74021620,-4.4,-3.13,-0.41,-0.06,355.24,3.95,0.08,0.02,3
38501,74031887,-4.38,-3.12,-0.38,0.03,355.24,3.96,0.08,0.02,3
38545,74042464,-4.37,-3.02,-0.36,0.11,355.24,3.97,0.08,0.02,3
38589,74053255,-4.36,-3.02,-0.33,0.19,355.24,3.97,0.08,0.02,3
38635,74064062,-4.35,-3.05,-0.31,0.31,355.23,3.97,0.08,0.02,3
38681,74078406,-4.34,-3.01,-0.27,0.42,355.23,4.01,0.08,0.02,3
38722,74089952,-4.32,-2.92,-0.25,0.46,355.23,4.01,0.08,0.02,3
38767,74100827,-4.3,-2.94,-0.21,0.52,355.23,4.01,0.08,0.02,3
38812,74111139,-4.28,-2.95,-0.18,0.59,355.22,4.02,0.08,0.02,3
38856,74121178,-4.26,-2.97,-0.15,0.7,355.22,4.03,0.08,0.02,3
38901,74131268,-4.23,-3,-0.12,0.77,355.22,4.04,0.08,0.02,3
38949,74141855,-4.21,-3.06,-0.1,0.84,355.22,4.06,0.08,0.01,3
38993,74152809,-4.18,-3.06,-0.07000000000000001,0.9,355.22,4.07,0.08,0.01,3
39038,74162895,-4.15,-3.04,-0.05,0.9399999999999999,355.21,4.08,0.08,0.01,3
39083,74173063,-4.12,-3,-0.04,0.9399999999999999,355.21,4.1,0.08,0.01,3
39129,74183751,-4.11,-2.98,-0.03,0.95,355.21,4.1,0.08,0.01,3
39173,74194658,-4.09,-2.94,-0.02,1.01,355.21,4.11,0.08,0.01,3
39218,74204829,-4.08,-2.9,-0.01,1.05,355.21,4.12,0.08,0.01,3
39262,74214835,-4.07,-2.89,-0.01,1.08,355.21,4.14,0.08,0.01,3
39307,74225214,-4.06,-2.82,-0.01,1.16,355.21,4.15,0.08,0.01,3
39353,74236074,-4.05,-2.79,-0.01,1.24,355.21,4.18,0.08,0.01,3
39402,74246660,-4.04,-2.78,-0.02,1.28,355.21,4.21,0.08,0.02,3
39448,74256870,-4.04,-2.73,-0.03,1.33,355.21,4.22,0.08,0.02,3
39492,74268463,-4.03,-2.61,-0.03,1.25,355.21,4.26,0.08,0.02,3
39534,74279483,-4.03,-2.54,-0.03,1.24,355.21,4.28,0.08,0.02,3
39581,74293757,-4.03,-2.59,-0.04,1.33,355.21,4.34,0.08,0.02,3
39626,74304291,-4.04,-2.52,-0.03,1.31,355.21,4.36,0.08,0.02,3
39672,74314847,-4.04,-2.44,-0.02,1.27,355.21,4.4,0.08,0.02,3
39716,74325385,-4.05,-2.32,-0.01,1.2,355.21,4.44,0.08,0.02,3
39761,74335616,-4.06,-2.26,0,1.11,355.21,4.47,0.08,0.02,3
39809,74345821,-4.08,-2.18,0.01,1.07,355.21,4.49,0.08,0.02,3
39855,74356644,-4.09,-2.14,0.03,1.05,355.21,4.52,0.08,0.02,3
39900,74367007,-4.11,-2.15,0.05,1.03,355.21,4.56,0.08,0.02,3
39944,74378212,-4.12,-2.13,0.06,1.03,355.21,4.58,0.08,0.02,3
39989,74389440,-4.14,-2.14,0.08,1.03,355.2,4.62,0.08,0.02,3
40034,74400072,-4.15,-2.12,0.09,1.01,355.2,4.64,0.08,0.02,3
40079,74410792,-4.17,-2.1,0.1,0.98,355.2,4.67,0.08,0.02,3
40123,74420851,-4.18,-2.16,0.11,0.96,355.2,4.7,0.08,0.02,3
40169,74430709,-4.19,-2.19,0.12,0.92,355.2,4.72,0.08,0.02,3
40214,74441419,-4.2,-2.23,0.12,0.89,355.2,4.74,0.08,0.02,3
40267,74457861,-4.22,-2.35,0.14,0.91,355.2,4.76,0.09,0.02,3
40310,74469001,-4.23,-2.38,0.14,0.9,355.2,4.79,0.09,0.02,3
40355,74479183,-4.25,-2.38,0.15,0.82,355.2,4.81,0.09,0.02,3
40399,74489962,-4.26,-2.35,0.15,0.78,355.2,4.81,0.09,0.02,3
40444,74501282,-4.29,-2.31,0.14,0.71,355.2,4.83,0.09,0.02,3
40488,74511988,-4.32,-2.29,0.13,0.64,355.2,4.84,0.09,0.02,3
40533,74522978,-4.35,-2.34,0.12,0.67,355.2,4.84,0.09,0.02,3
40578,74533787,-4.38,-2.46,0.11,0.73,355.2,4.85,0.09,0.02,3
40624,74543847,-4.41,-2.45,0.1,0.73,355.2,4.85,0.09,0.02,3
40669,74553976,-4.44,-2.44,0.08,0.74,355.2,4.85,0.09,0.02,3
40717,74564386,-4.47,-2.5,0.06,0.77,355.21,4.86,0.09,0.02,3
40761,74575190,-4.49,-2.54,0.04,0.82,355.21,4.87,0.09,0.02,3
40805,74585152,-4.52,-2.56,0.01,0.83,355.21,4.88,0.09,0.02,3
40850,74595908,-4.54,-2.65,0,0.86,355.21,4.89,0.09,0.02,3
40899,74609751,-4.48,-2.57,-0.09,0.73,355.93,5.58,0.09,0.02,3
40944,74620839,-4.51,-2.69,-0.1,0.76,355.94,5.59,0.09,0.02,3
40989,74631630,-4.54,-2.76,-0.11,0.78,355.94,5.58,0.09,0.02,3
41034,74641847,-4.57,-2.74,-0.12,0.77,355.94,5.59,0.09,0.02,3
41078,74651819,-4.6,-2.74,-0.13,0.77,355.94,5.59,0.09,0.02,3
41123,74662240,-4.62,-2.77,-0.14,0.75,355.94,5.59,0.09,0.02,3
41173,74676272,-4.64,-2.87,-0.16,0.66,355.94,5.59,0.09,0.02,3
41214,74687288,-4.66,-2.89,-0.18,0.7,355.94,5.58,0.09,0.02,3
41258,74698417,-4.68,-2.96,-0.19,0.7,355.94,5.62,0.09,0.02,3
41299,74713762,-4.68,-2.86,-0.2,0.57,355.94,5.64,0.09,0.02,3
41344,74724206,-4.68,-2.91,-0.22,0.6,355.95,5.67,0.09,0.02,3
41388,74734453,-4.68,-2.96,-0.23,0.6,355.95,5.69,0.09,0.02,3
41433,74744843,-4.67,-3,-0.24,0.6,355.95,5.73,0.09,0.02,3
41482,74755812,-4.66,-3.03,-0.25,0.59,355.95,5.76,0.09,0.02,3
41527,74766250,-4.65,-3.02,-0.26,0.6,355.95,5.77,0.09,0.02,3
41576,74776873,-4.63,-2.98,-0.27,0.51,355.95,5.81,0.09,0.02,3
41620,74787399,-4.61,-2.99,-0.28,0.42,355.95,5.82,0.09,0.02,3
41666,74798257,-4.59,-2.98,-0.29,0.39,355.95,5.83,0.09,0.02,3
41712,74808616,-4.57,-3.01,-0.3,0.38,355.95,5.83,0.09,0.02,3
41753,74819999,-4.56,-3.05,-0.3,0.4,355.95,5.83,0.09,0.02,3
41795,74831878,-4.55,-3.07,-0.32,0.4,355.95,5.84,0.09,0.02,3
41841,74842431,-4.53,-3.04,-0.33,0.32,355.95,5.82,0.09,0.02,3
41885,74853055,-4.5,-3.06,-0.34,0.3,355.96,5.8,0.09,0.02,3
41932,74864408,-4.47,-3.08,-0.35,0.21,355.96,5.79,0.09,0.02,3
41973,74879430,-4.44,-3.22,-0.37,0.31,355.96,5.75,0.1,0.02,3
42022,74890175,-4.4,-3.26,-0.38,0.29,355.96,5.79,0.1,0.02,3
42067,74901037,-4.37,-3.3,-0.4,0.31,355.96,5.81,0.1,0.02,3
42111,74911421,-4.33,-3.32,-0.43,0.28,355.96,5.85,0.1,0.02,3
42156,74921813,-4.28,-3.3,-0.46,0.26,355.96,5.87,0.1,0.02,3
42195,74934220,-4.26,-3.32,-0.48,0.33,355.97,5.86,0.1,0.02,3
42239,74944882,-4.22,-3.33,-0.53,0.36,355.97,5.87,0.1,0.02,3
42287,74955137,-4.18,-3.33,-0.57,0.43,355.97,5.87,0.1,0.02,3
42332,74965008,-4.15,-3.36,-0.62,0.41,355.98,5.89,0.1,0.02,3
42376,74975052,-4.11,-3.38,-0.67,0.45,355.98,5.9,0.1,0.02,3
42421,74984875,-4.07,-3.35,-0.72,0.42,355.98,5.9,0.1,0.02,3
42470,74995295,-4.04,-3.35,-0.77,0.43,355.99,5.89,0.1,0.02,3
42515,75006181,-4.01,-3.33,-0.82,0.43,355.99,5.89,0.1,0.02,3
42560,75016937,-3.98,-3.29,-0.86,0.33,355.99,5.87,0.1,0.02,3
42604,75027191,-3.95,-3.22,-0.9,0.28,356,5.84,0.1,0.02,3
42646,75042786,-3.93,-3.26,-0.92,0.32,356,5.76,0.1,0.02,3
42690,75053133,-3.91,-3.22,-0.95,0.31,356,5.72,0.1,0.02,3
42737,75069940,-3.86,-3.23,-1.01,0.27,356,5.62,0.09,0.02,3
42782,75080607,-3.82,-3.22,-1.06,0.2,356.01,5.56,0.09,0.02,3
42827,75090870,-3.78,-3.21,-1.11,0.18,356.01,5.51,0.09,0.02,3
42877,75101644,-3.74,-3.18,-1.16,0.16,356.01,5.45,0.09,0.02,3
42921,75112190,-3.7,-3.15,-1.21,0.05,356.02,5.38,0.09,0.02,3
42966,75123095,-3.66,-3.11,-1.26,0,356.02,5.3,0.09,0.02,3
43010,75136844,-3.62,-3.2,-1.31,0.09,356.02,5.19,0.09,0.02,3
43052,75148378,-3.59,-3.12,-1.35,0.01,356.03,5.1,0.09,0.02,3
43097,75159271,-3.55,-3.13,-1.41,-0.03,356.03,5.03,0.09,0.02,3
43142,75169849,-3.5,-3.07,-1.47,-0.15,356.03,4.95,0.09,0.02,3
43187,75180290,-3.46,-3.05,-1.52,-0.21,356.04,4.85,0.09,0.02,3
43233,75190820,-3.43,-3.04,-1.56,-0.22,356.04,4.75,0.09,0.02,3
43277,75201157,-3.4,-3.06,-1.6,-0.28,356.04,4.66,0.09,0.02,3
43326,75211254,-3.37,-3.1,-1.63,-0.33,356.04,4.59,0.09,0.02,3
43370,75221289,-3.35,-3.11,-1.66,-0.34,356.04,4.48,0.09,0.02,3
43415,75231851,-3.32,-3.14,-1.69,-0.4,356.05,4.41,0.09,0.02,3
43459,75242874,-3.3,-3.08,-1.71,-0.5,356.05,4.32,0.09,0.02,3
43508,75256599,-3.28,-2.93,-1.74,-0.68,356.05,4.2,0.09,0.02,3
43547,75268989,-3.27,-2.99,-1.77,-0.6899999999999999,356.05,4.07,0.09,0.02,3
43588,75280060,-3.24,-3.07,-1.79,-0.6899999999999999,356.05,3.92,0.09,0.02,3
43635,75290607,-3.21,-3.04,-1.82,-0.75,356.05,3.77,0.09,0.02,3
43680,75300695,-3.19,-2.96,-1.83,-0.84,356.05,3.62,0.09,0.02,3
43726,75311738,-3.16,-2.9,-1.85,-0.89,356.06,3.46,0.09,0.02,3
43777,75322454,-3.14,-2.92,-1.85,-0.98,356.06,3.32,0.09,0.02,3
43821,75333047,-3.12,-2.91,-1.85,-1.06,356.06,3.17,0.09,0.02,3
43866,75343645,-3.1,-2.88,-1.83,-1.1,356.05,3,0.09,0.02,3
43911,75353789,-3.09,-2.88,-1.8,-1.09,356.05,2.85,0.09,0.02,3
43950,75366235,-3.08,-2.94,-1.79,-1.07,356.05,2.7,0.09,0.02,3
43994,75376753,-3.07,-2.91,-1.76,-1.11,356.05,2.57,0.09,0.02,3
44038,75386983,-3.05,-2.83,-1.73,-1.13,356.05,2.44,0.09,0.02,3
44083,75397791,-3.03,-2.8,-1.69,-1.2,356.05,2.3,0.09,0.02,3
44128,75408174,-3.02,-2.76,-1.66,-1.27,356.05,2.18,0.09,0.02,3
44172,75418628,-3,-2.72,-1.61,-1.3,356.04,2.03,0.09,0.02,3
44221,75429033,-2.99,-2.73,-1.57,-1.3,356.04,1.92,0.09,0.02,3
44266,75439359,-2.97,-2.79,-1.52,-1.28,356.04,1.8,0.09,0.02,3
44310,75449750,-2.96,-2.75,-1.47,-1.29,356.04,1.7,0.09,0.02,3
44356,75460171,-2.96,-2.67,-1.43,-1.28,356.03,1.6,0.09,0.02,3
44402,75471422,-2.96,-2.68,-1.39,-1.24,356.03,1.5,0.08,0.02,3
44440,75483877,-2.96,-2.54,-1.37,-1.32,356.03,1.4,0.08,0.02,3
44482,75498786,-2.96,-2.5,-1.32,-1.2,356.03,1.25,0.08,0.02,3
44528,75509345,-2.97,-2.41,-1.28,-1.2,356.03,1.12,0.08,0.02,3
44573,75519619,-2.98,-2.37,-1.22,-1.2,356.02,1,0.08,0.02,3
44621,75529761,-3,-2.32,-1.16,-1.21,356.02,0.89,0.08,0.02,3
44666,75540374,-3.02,-2.24,-1.1,-1.2,356.02,0.75,0.08,0.02,3
44711,75550857,-3.04,-2.23,-1.03,-1.11,356.01,0.63,0.08,0.02,3
44756,75561848,-3.06,-2.22,-0.96,-1,356.01,0.52,0.08,0.02,3
44802,75576041,-3.09,-2.2,-0.89,-0.93,356,0.42,0.08,0.02,3
44846,75586616,-3.13,-2.15,-0.8100000000000001,-0.89,356,0.3,0.08,0.02,3
44891,75596964,-3.18,-2.11,-0.74,-0.8,356,0.21,0.08,0.02,3
44932,75608998,-3.21,-2.16,-0.6899999999999999,-0.59,355.99,0.1,0.08,0.02,3
44976,75619255,-3.25,-2.17,-0.63,-0.49,355.99,0.04,0.08,0.02,3
45021,75629420,-3.3,-2.21,-0.58,-0.38,355.99,359.97,0.08,0.02,3
45069,75639365,-3.35,-2.25,-0.55,-0.3,355.99,359.89,0.08,0.02,3
45115,75649970,-3.4,-2.32,-0.54,-0.21,355.99,359.83,0.08,0.02,3
45160,75660178,-3.44,-2.42,-0.53,-0.07000000000000001,355.98,359.75,0.08,0.02,3
45203,75671237,-3.49,-2.59,-0.52,0.06,355.98,359.68,0.07000000000000001,0.02,3
45245,75690172,-3.54,-2.75,-0.52,0.22,355.98,359.54,0.07000000000000001,0.02,3
45289,75700223,-3.6,-2.9,-0.52,0.31,355.98,359.45,0.07000000000000001,0.02,3
45334,75711311,-3.67,-3,-0.53,0.37,355.98,359.39,0.07000000000000001,0.02,3
45381,75722162,-3.75,-3.1,-0.54,0.42,355.99,359.31,0.07000000000000001,0.02,3
45426,75733028,-3.82,-3.22,-0.55,0.47,355.99,359.22,0.07000000000000001,0.02,3
45472,75743863,-3.9,-3.34,-0.5600000000000001,0.5600000000000001,355.99,359.14,0.07000000000000001,0.02,3
45521,75754417,-3.99,-3.48,-0.57,0.63,355.99,359.09,0.07000000000000001,0.02,3
45565,75764611,-4.06,-3.6,-0.59,0.64,355.99,359.02,0.07000000000000001,0.02,3
45611,75774671,-4.13,-3.74,-0.61,0.68,355.99,358.97,0.07000000000000001,0.02,3
45655,75785732,-4.2,-3.78,-0.63,0.7,355.99,358.91,0.07000000000000001,0.02,3
