LineNo,TimeUS,DesRoll,Roll,DesPitch,Pitch,DesYaw,Yaw,ErrRP,ErrYaw,AEKF
185,6.4898e+07,0.01,-0.52,0,-0.55,0.12,355.54,0,0,3
634,6.5009e+07,0.01,-0.51,0,-0.55,5.06,355.54,0,0,3
974,6.5093e+07,0.01,-0.51,0,-0.55,9.27,355.53,0,0,3
1199,6.5225e+07,0.01,-0.51,0,-0.55,15.02,355.54,0,0,3
1568,6.5346e+07,0.01,-0.51,0,-0.55,22.16,355.54,0.01,0,3
1614,6.5356e+07,0.01,-0.51,0,-0.55,22.43,355.54,0.01,0,3
1659,6.5366e+07,0.01,-0.51,0,-0.55,22.42,355.54,0.01,0,3
1704,6.5376e+07,0.01,-0.51,0,-0.55,22.41,355.54,0.01,0,3
1748,6.5386e+07,0.01,-0.51,0,-0.55,22.4,355.53,0.01,0,3
1797,6.5397e+07,0.01,-0.51,0,-0.55,22.4,355.53,0.01,0,3
1841,6.5408e+07,0.01,-0.52,0,-0.55,22.39,355.53,0.01,0,3
1886,6.5418e+07,0.01,-0.52,0,-0.55,22.38,355.53,0.01,0,3
1932,6.5428e+07,0.01,-0.52,0,-0.55,22.37,355.53,0.01,0,3
1977,6.5439e+07,0.01,-0.52,0,-0.55,22.37,355.53,0.01,0,3
2022,6.5449e+07,0.01,-0.52,0,-0.55,22.36,355.53,0.01,0,3
2066,6.5459e+07,0.01,-0.52,0,-0.55,22.35,355.53,0.01,0,3
2111,6.547e+07,0,-0.52,0,-0.55,22.34,355.53,0.01,0,3
2157,6.5486e+07,0,-0.52,0,-0.55,22.33,355.53,0.01,0,3
2203,6.5497e+07,0,-0.52,0,-0.55,22.32,355.52,0.01,0,3
2252,6.5507e+07,0,-0.52,0,-0.55,22.31,355.52,0.01,0,3
2296,6.5518e+07,0,-0.52,0,-0.55,22.3,355.52,0.01,0,3
2341,6.5528e+07,0,-0.52,0,-0.55,22.3,355.52,0.01,0,3
2385,6.5538e+07,0,-0.52,0,-0.55,22.29,355.52,0.01,0,3
2430,6.5549e+07,0,-0.52,0,-0.55,22.28,355.52,0.01,0,3
2477,6.5559e+07,0,-0.52,0,-0.55,22.27,355.52,0.01,0,3
2523,6.5569e+07,0,-0.52,0,-0.55,22.26,355.51,0.01,0,3
2569,6.558e+07,0,-0.52,0,-0.55,22.25,355.51,0.01,0,3
2613,6.559e+07,0,-0.52,0,-0.55,22.25,355.51,0.01,0,3
2658,6.56e+07,0,-0.52,0,-0.55,22.24,355.51,0.01,0,3
2706,6.561e+07,0,-0.52,0,-0.55,22.23,355.51,0.01,0.01,3
2751,6.5621e+07,0,-0.52,0,-0.55,22.22,355.51,0.01,0.01,3
2797,6.5631e+07,0,-0.52,0,-0.55,22.22,355.51,0.01,0.01,3
2841,6.5642e+07,0,-0.52,0,-0.55,22.21,355.51,0.01,0.01,3
2887,6.5653e+07,0,-0.52,0,-0.55,22.2,355.51,0.01,0.01,3
2933,6.5665e+07,0,-0.52,0,-0.56,22.19,355.51,0.01,0.01,3
2978,6.5679e+07,0,-0.52,0,-0.56,22.19,355.51,0.01,0.01,3
3026,6.5689e+07,0,-0.52,0,-0.55,22.18,355.51,0.01,0.01,3
3070,6.5699e+07,0,-0.52,0,-0.55,22.17,355.51,0.01,0.01,3
3122,6.5712e+07,0,-0.52,0,-0.55,22.16,355.51,0.01,0.01,3
3166,6.5723e+07,0,-0.52,0,-0.55,22.15,355.5,0.01,0.01,3
3212,6.5733e+07,0,-0.52,0,-0.55,22.15,355.5,0.01,0.01,3
3257,6.5743e+07,0,-0.52,0,-0.55,22.15,355.5,0.01,0.01,3
3301,6.5753e+07,0,-0.52,0,-0.55,22.15,355.5,0.01,0.01,3
3347,6.5764e+07,0,-0.52,0,-0.56,22.15,355.5,0.01,0.01,3
3392,6.5774e+07,0,-0.52,0,-0.56,22.15,355.5,0.01,0.01,3
3437,6.5784e+07,0,-0.52,0,-0.56,22.14,355.5,0.01,0.01,3
3482,6.5794e+07,0,-0.52,0,-0.56,22.14,355.49,0.01,0.01,3
3527,6.5804e+07,0,-0.52,0,-0.55,22.14,355.49,0.01,0.01,3
3576,6.5814e+07,0,-0.52,0,-0.55,22.14,355.49,0.01,0.01,3
3620,6.5824e+07,0,-0.52,0,-0.55,22.14,355.49,0.01,0.01,3
3665,6.5835e+07,0,-0.52,0,-0.55,22.14,355.49,0.01,0.01,3
3709,6.5845e+07,0,-0.52,0,-0.55,22.14,355.49,0.01,0.01,3
3756,6.5855e+07,0,-0.52,0,-0.55,22.14,355.49,0.01,0.01,3
3802,6.5865e+07,0,-0.52,0,-0.55,22.14,355.49,0.01,0.01,3
3843,6.5878e+07,0,-0.52,0,-0.55,22.14,355.49,0.01,0.01,3
3887,6.5889e+07,0,-0.52,0,-0.56,22.14,355.49,0.01,0.01,3
3932,6.5899e+07,0,-0.52,0,-0.56,22.14,355.49,0.01,0.01,3
3978,6.5909e+07,0,-0.52,0,-0.56,22.14,355.49,0.01,0.01,3
4029,6.592e+07,0,-0.52,0,-0.56,22.14,355.49,0.01,0.01,3
4073,6.593e+07,0,-0.52,0,-0.56,22.14,355.49,0.01,0.01,3
4118,6.5941e+07,0,-0.52,0,-0.55,22.14,355.49,0.01,0.01,3
4162,6.595e+07,0,-0.52,0,-0.55,22.14,355.49,0.01,0.01,3
4207,6.596e+07,0,-0.52,0,-0.55,22.14,355.49,0.01,0.01,3
4254,6.5971e+07,0,-0.52,0,-0.55,22.14,355.49,0.01,0.01,3
4299,6.5981e+07,0,-0.52,0,-0.55,22.14,355.49,0.01,0.01,3
4344,6.5991e+07,0,-0.52,0,-0.55,22.14,355.49,0.01,0.01,3
4388,6.6001e+07,0,-0.52,0,-0.55,22.14,355.49,0.01,0.01,3
4433,6.6011e+07,0,-0.52,0,-0.56,22.14,355.49,0.01,0.01,3
4481,6.6021e+07,0,-0.52,0,-0.56,22.14,355.49,0.01,0.01,3
4526,6.6032e+07,0,-0.52,0,-0.56,22.14,355.49,0.01,0.01,3
4570,6.6042e+07,0,-0.51,0,-0.56,22.14,355.49,0.01,0.01,3
4615,6.6053e+07,0,-0.51,0,-0.56,22.14,355.49,0.01,0.01,3
4659,6.6063e+07,0,-0.51,0,-0.56,22.13,355.49,0.01,0.01,3
4705,6.6075e+07,0,-0.51,0,-0.55,22.13,355.48,0.01,0.01,3
4748,6.6086e+07,0,-0.51,0,-0.55,22.13,355.48,0.01,0.01,3
4792,6.6096e+07,0,-0.51,0,-0.55,22.13,355.48,0.01,0.01,3
4838,6.6107e+07,0,-0.51,0,-0.55,22.13,355.48,0.01,0.01,3
4883,6.6117e+07,0,-0.51,0,-0.55,22.13,355.48,0.01,0.01,3
4931,6.6128e+07,0,-0.52,0,-0.56,22.13,355.48,0.01,0.01,3
4976,6.6138e+07,0,-0.52,0,-0.56,22.13,355.48,0.01,0.01,3
5020,6.6148e+07,0,-0.52,0,-0.56,22.13,355.49,0.01,0.01,3
5064,6.6158e+07,0,-0.52,0,-0.56,22.13,355.49,0.01,0.01,3
5108,6.6169e+07,0,-0.51,0,-0.56,22.13,355.49,0.01,0.01,3
5153,6.6179e+07,0,-0.52,0,-0.56,22.13,355.49,0.01,0.01,3
5199,6.619e+07,0,-0.51,0,-0.55,22.13,355.48,0.01,0.01,3
5243,6.6199e+07,0,-0.51,0,-0.55,22.13,355.48,0.01,0.01,3
5288,6.621e+07,0,-0.51,0,-0.55,22.13,355.48,0.01,0.01,3
5332,6.622e+07,0,-0.51,0,-0.55,22.13,355.48,0.01,0.01,3
5381,6.623e+07,0,-0.51,0,-0.55,22.13,355.48,0.01,0.01,3
5426,6.624e+07,0,-0.51,0,-0.55,22.13,355.48,0.01,0.01,3
5471,6.6251e+07,0,-0.51,0,-0.55,22.13,355.48,0.01,0.01,3
5515,6.6264e+07,0,-0.51,0,-0.56,22.13,355.48,0.01,0.01,3
5559,6.6275e+07,0,-0.51,0,-0.56,22.12,355.48,0.01,0.01,3
5604,6.6286e+07,0,-0.51,0,-0.56,22.12,355.48,0.01,0.01,3
5650,6.6296e+07,0,-0.51,0,-0.56,22.12,355.48,0.01,0.01,3
5694,6.6306e+07,0,-0.51,0,-0.55,22.12,355.48,0.01,0.01,3
5740,6.6316e+07,0,-0.51,0,-0.55,22.12,355.48,0.01,0.01,3
5788,6.6326e+07,0,-0.51,0,-0.55,22.12,355.48,0.01,0.01,3
5833,6.6337e+07,0,-0.51,0,-0.55,22.12,355.48,0.01,0,3
5879,6.6347e+07,0,-0.51,0,-0.55,22.12,355.48,0.01,0,3
5924,6.6357e+07,0,-0.51,0,-0.55,22.12,355.48,0.01,0,3
5972,6.637e+07,0,-0.51,0,-0.55,22.12,355.48,0.01,0,3
6016,6.638e+07,0,-0.51,0,-0.55,22.12,355.48,0.01,0,3
6061,6.639e+07,0,-0.51,0,-0.55,22.12,355.48,0.01,0,3
6105,6.6401e+07,0,-0.51,0,-0.56,22.12,355.48,0.01,0,3
6151,6.6411e+07,0,-0.51,0,-0.55,22.12,355.47,0.01,0,3
6196,6.6421e+07,0,-0.52,0,-0.55,22.12,355.47,0.01,0,3
6244,6.6431e+07,0,-0.51,0,-0.55,22.12,355.47,0.01,0,3
6290,6.6441e+07,0,-0.51,0,-0.55,22.12,355.47,0.01,0,3
6334,6.6451e+07,0,-0.51,0,-0.55,22.12,355.47,0.01,0,3
6381,6.6462e+07,0,-0.51,0,-0.55,22.12,355.47,0.01,0,3
6420,6.6473e+07,0,-0.51,0,-0.55,22.12,355.47,0.01,0,3
6464,6.6484e+07,0,-0.51,0,-0.55,22.12,355.47,0.01,0,3
6509,6.6493e+07,0,-0.51,0,-0.55,22.12,355.47,0.01,0,3
6554,6.6504e+07,0,-0.51,0,-0.55,22.12,355.47,0.01,0,3
6600,6.6514e+07,0,-0.51,0,-0.56,22.12,355.47,0.01,0,3
6645,6.6525e+07,0,-0.51,0,-0.56,22.12,355.47,0.01,0,3
6693,6.6535e+07,0,-0.51,0,-0.56,22.12,355.47,0.01,0,3
6738,6.6544e+07,0,-0.51,0,-0.55,22.12,355.47,0.01,0,3
6783,6.6555e+07,0,-0.51,0,-0.55,22.12,355.47,0.01,0,3
6827,6.6565e+07,0,-0.5,0,-0.55,22.11,355.47,0.01,0,3
6872,6.6576e+07,0,-0.51,0,-0.55,22.11,355.47,0.01,0,3
6916,6.6587e+07,0,-0.5,0,-0.55,22.11,355.47,0.01,0,3
6962,6.6597e+07,0,-0.51,0,-0.55,22.11,355.47,0.01,0,3
7007,6.6607e+07,0,-0.51,0,-0.55,22.11,355.47,0.01,0,3
7053,6.6617e+07,0,-0.51,0,-0.55,22.11,355.47,0.01,0,3
7098,6.6627e+07,0,-0.51,0,-0.56,22.11,355.47,0.01,0,3
7146,6.6637e+07,0,-0.51,0,-0.56,22.11,355.47,0.01,0.01,3
7191,6.6648e+07,0,-0.51,0,-0.56,22.11,355.47,0.01,0.01,3
7236,6.6659e+07,0,-0.51,0,-0.56,22.11,355.47,0.01,0.01,3
7283,6.6669e+07,0,-0.51,0,-0.56,22.11,355.47,0.01,0.01,3
7321,6.668e+07,0,-0.51,0,-0.56,22.11,355.47,0.01,0.01,3
7365,6.6691e+07,0,-0.51,0,-0.55,22.11,355.47,0.01,0.01,3
7412,6.6701e+07,0,-0.51,0,-0.55,22.11,355.47,0.01,0.01,3
7458,6.6711e+07,0,-0.51,0,-0.55,355.45,355.47,0.01,0.01,3
7503,6.6722e+07,0,-0.51,0,-0.55,355.45,355.47,0.01,0.01,3
7548,6.6733e+07,0,-0.51,0,-0.56,355.45,355.46,0.01,0.01,3
7597,6.6743e+07,0,-0.51,0,-0.56,355.44,355.46,0.01,0.01,3
7641,6.6753e+07,0,-0.51,0,-0.56,355.44,355.46,0.01,0.01,3
7686,6.6764e+07,0,-0.51,0,-0.55,355.44,355.46,0.01,0.01,3
7732,6.6774e+07,0,-0.5,0,-0.55,355.44,355.46,0.01,0.01,3
7777,6.6784e+07,0,-0.5,0,-0.55,355.44,355.46,0.01,0.01,3
7821,6.6795e+07,0,-0.5,0,-0.56,355.44,355.46,0.01,0.01,3
7866,6.6805e+07,0,-0.5,0,-0.56,355.44,355.46,0.01,0.01,3
7911,6.6815e+07,0,-0.5,0,-0.56,355.44,355.46,0.01,0.01,3
7955,6.6825e+07,0,-0.5,0,-0.55,355.45,355.46,0.01,0.01,3
8001,6.6835e+07,0,-0.51,0,-0.56,355.44,355.46,0.01,0.01,3
8051,6.6846e+07,0,-0.5,0,-0.56,355.44,355.46,0.01,0.01,3
8099,6.6856e+07,0,-0.5,0,-0.56,355.44,355.45,0.01,0.01,3
8138,6.6867e+07,0,-0.5,0,-0.55,355.43,355.45,0.01,0.01,3
8182,6.6877e+07,0,-0.5,0,-0.55,355.43,355.44,0.01,0.01,3
8227,6.6887e+07,0,-0.52,0,-0.55,355.42,355.44,0.01,0.01,3
8272,6.6897e+07,0,-0.52,0,-0.55,355.42,355.43,0.01,0.01,3
8318,6.6907e+07,0,-0.51,0,-0.56,355.41,355.43,0.01,0.01,3
8363,6.6918e+07,0,-0.5,0,-0.56,355.41,355.43,0.01,0.01,3
8407,6.6928e+07,0,-0.51,0,-0.56,355.42,355.43,0.01,0.01,3
8452,6.6938e+07,0,-0.51,0,-0.55,355.42,355.44,0.01,0.01,3
8502,6.6948e+07,0,-0.51,0,-0.56,355.43,355.45,0.01,0.01,3
8548,6.6959e+07,0,-0.5,0,-0.55,355.43,355.45,0.01,0.01,3
8593,6.697e+07,0,-0.49,0,-0.55,355.43,355.45,0.01,0.01,3
8638,6.698e+07,0,-0.49,0,-0.55,355.43,355.45,0.01,0.01,3
8682,6.699e+07,0,-0.49,0,-0.55,355.43,355.45,0.01,0.01,3
8727,6.7001e+07,0,-0.5,0,-0.55,355.43,355.44,0.01,0.01,3
8771,6.7011e+07,0,-0.5,0,-0.55,355.43,355.45,0.01,0.01,3
8816,6.7021e+07,0,-0.5,0,-0.55,355.43,355.44,0.01,0.01,3
8861,6.7031e+07,0,-0.48,0,-0.55,355.42,355.43,0.01,0.01,3
8907,6.7042e+07,0,-0.48,0,-0.56,355.41,355.43,0.01,0.01,3
8956,6.7052e+07,0,-0.49,0,-0.56,355.41,355.42,0.01,0,3
9002,6.7063e+07,0,-0.49,0,-0.57,355.41,355.43,0.01,0,3
9047,6.7079e+07,0,-0.47,0,-0.55,355.41,355.42,0.01,0,3
9091,6.709e+07,0,-0.47,0,-0.57,355.41,355.43,0.01,0,3
9136,6.71e+07,0,-0.48,0,-0.56,355.41,355.43,0.01,0,3
9181,6.711e+07,0,-0.47,0,-0.57,355.42,355.44,0.01,0,3
9226,6.7121e+07,0,-0.45,0,-0.54,355.43,355.45,0.01,0,3
9271,6.7131e+07,0,-0.45,0,-0.57,355.42,355.43,0.01,0,3
9317,6.7142e+07,0,-0.47,0,-0.55,355.43,355.45,0.01,0,3
9361,6.7152e+07,0,-0.47,0,-0.56,355.42,355.44,0.01,0,3
9410,6.7162e+07,0,-0.47,0,-0.54,355.44,355.46,0.01,0,3
9454,6.7172e+07,0,-0.46,0,-0.56,355.41,355.43,0.01,0,3
9500,6.7182e+07,0,-0.48,0,-0.55,355.42,355.44,0.01,0,3
9547,6.7195e+07,0,-0.48,0,-0.57,355.42,355.43,0.01,0,3
9592,6.7206e+07,0,-0.5,0,-0.58,355.42,355.43,0.01,0,3
9637,6.7216e+07,0,-0.48,0,-0.57,355.4,355.42,0.01,0,3
9681,6.7226e+07,0,-0.5,0,-0.6,355.4,355.41,0.01,0,3
9726,6.7236e+07,0,-0.49,0,-0.57,355.42,355.43,0.01,0,3
9772,6.7246e+07,0,-0.51,0,-0.59,355.4,355.42,0.01,0,3
9821,6.7256e+07,0,-0.48,0,-0.56,355.41,355.42,0.01,0,3
9866,6.7266e+07,0,-0.5,0,-0.59,355.4,355.41,0.01,0,3
9906,6.7278e+07,0,-0.48,0,-0.52,355.43,355.45,0.01,0,3
9950,6.7289e+07,0,-0.47,0,-0.56,355.41,355.43,0.01,0,3
9995,6.7299e+07,0,-0.46,0,-0.52,355.42,355.44,0.01,0,3
10041,6.7309e+07,0,-0.47,0,-0.58,355.42,355.43,0.01,0,3
10086,6.7319e+07,0,-0.46,0,-0.52,355.43,355.45,0.01,0,3
10130,6.7329e+07,0,-0.44,0,-0.57,355.42,355.43,0.01,0,3
10177,6.7339e+07,0,-0.46,0,-0.54,355.41,355.43,0.01,0,3
10222,6.735e+07,0,-0.47,0,-0.58,355.42,355.43,0.01,0,3
10271,6.736e+07,0,-0.48,0,-0.56,355.42,355.43,0.01,0,3
10316,6.737e+07,0,-0.45,0,-0.56,355.41,355.43,0.01,0,3
10361,6.738e+07,0,-0.48,0,-0.6,355.39,355.41,0.01,0,3
10405,6.7391e+07,0,-0.46,0,-0.55,355.41,355.43,0.01,0,3
10450,6.7401e+07,0,-0.48,0,-0.59,355.4,355.42,0.01,0,3
10495,6.7412e+07,0,-0.46,0,-0.54,355.41,355.42,0.01,0,3
10539,6.7422e+07,0,-0.48,0,-0.61,355.4,355.42,0.01,0,3
10584,6.7432e+07,0,-0.47,0,-0.53,355.43,355.44,0.01,0,3
10628,6.7442e+07,0,-0.47,0,-0.58,355.42,355.43,0.01,0,3
10675,6.7453e+07,0,-0.49,0,-0.55,355.42,355.43,0.01,0,3
10723,6.7464e+07,0,-0.47,0,-0.58,355.42,355.44,0.01,0,3
10767,6.7474e+07,0,-0.48,0,-0.57,355.43,355.44,0.01,0,3
10809,6.7485e+07,0,-0.43,0,-0.56,355.43,355.44,0.01,0,3
10854,6.7495e+07,0,-0.46,0,-0.61,355.41,355.42,0.01,0,3
10902,6.7508e+07,0,-0.48,0,-0.53,355.43,355.44,0.01,0,3
10947,6.7519e+07,0,-0.47,0,-0.57,355.41,355.42,0.01,0,3
10991,6.753e+07,0,-0.49,0,-0.57,355.4,355.42,0.01,0,3
11036,6.754e+07,0,-0.47,0,-0.57,355.4,355.42,0.01,0,3
11080,6.755e+07,0,-0.49,0,-0.57,355.41,355.42,0.01,0,3
11125,6.756e+07,0,-0.44,0,-0.55,355.41,355.42,0.01,0,3
11175,6.757e+07,0,-0.47,0,-0.59,355.4,355.41,0.01,0,3
11219,6.7581e+07,0,-0.47,0,-0.54,355.42,355.44,0.01,0,3
11265,6.7591e+07,0,-0.48,0,-0.57,355.41,355.43,0.01,0,3
11309,6.7601e+07,0,-0.47,0,-0.54,355.42,355.44,0.01,0,3
11357,6.7613e+07,0,-0.48,0,-0.57,355.42,355.43,0.01,0,3
11402,6.7624e+07,0,-0.48,0,-0.56,355.43,355.44,0.01,0,3
11446,6.7634e+07,0,-0.43,0,-0.55,355.42,355.44,0.01,0,3
11492,6.7644e+07,0,-0.46,0,-0.58,355.41,355.43,0.01,0,3
11536,6.7654e+07,0,-0.44,0,-0.55,355.42,355.44,0.01,0,3
11583,6.7665e+07,0,-0.45,0,-0.58,355.42,355.43,0.01,0,3
11626,6.7676e+07,0,-0.46,0,-0.54,355.41,355.43,0.01,0,3
11672,6.7686e+07,0,-0.49,0,-0.59,355.4,355.41,0.01,0,3
11716,6.7696e+07,0,-0.5,0,-0.55,355.41,355.43,0.01,0,3
11762,6.7707e+07,0,-0.49,0,-0.56,355.4,355.42,0.01,0,3
11806,6.7718e+07,0,-0.49,0,-0.58,355.39,355.41,0.01,0,3
11851,6.7728e+07,0,-0.47,0,-0.55,355.41,355.42,0.01,0,3
11895,6.7739e+07,0,-0.48,0,-0.57,355.4,355.41,0.01,0,3
11940,6.7749e+07,0,-0.46,0,-0.54,355.41,355.43,0.01,0,3
11985,6.7759e+07,0,-0.48,0,-0.59,355.39,355.41,0.01,0,3
12029,6.7769e+07,0,-0.49,0,-0.55,355.41,355.43,0.01,0,3
12079,6.7779e+07,0,-0.47,0,-0.55,355.41,355.43,0.01,0,3
12123,6.779e+07,0,-0.47,0,-0.56,355.4,355.42,0.01,0,3
12168,6.7799e+07,0,-0.46,0,-0.57,355.41,355.42,0.01,0,3
12213,6.781e+07,0,-0.46,0,-0.57,355.41,355.42,0.01,0,3
12259,6.782e+07,0,-0.44,0,-0.53,355.42,355.43,0.01,0,3
12306,6.7831e+07,0,-0.46,0,-0.57,355.39,355.41,0.01,0,3
12350,6.7841e+07,0,-0.47,0,-0.54,355.41,355.42,0.01,0,3
12394,6.7852e+07,0,-0.47,0,-0.56,355.39,355.41,0.01,0,3
12438,6.7862e+07,0,-0.47,0,-0.55,355.4,355.42,0.01,0,3
12487,6.7873e+07,0,-0.47,0,-0.58,355.38,355.4,0.01,0,3
12532,6.7884e+07,0,-0.48,0,-0.56,355.39,355.41,0.01,0,3
12573,6.7895e+07,0,-0.46,0,-0.54,355.4,355.41,0.01,0,3
12618,6.7905e+07,0,-0.48,0,-0.56,355.38,355.4,0.01,0,3
12663,6.7915e+07,0,-0.48,0,-0.54,355.4,355.41,0.01,0,3
12707,6.7925e+07,0,-0.49,0,-0.56,355.4,355.41,0.01,0,3
12752,6.7936e+07,0,-0.48,0,-0.53,355.41,355.42,0.01,0,3
12797,6.7946e+07,0,-0.49,0,-0.58,355.39,355.4,0.01,0,3
12841,6.7956e+07,0,-0.5,0,-0.56,355.4,355.42,0.01,0,3
12886,6.7967e+07,0,-0.47,0,-0.55,355.4,355.42,0.01,0,3
12931,6.7977e+07,0,-0.47,0,-0.58,355.39,355.4,0.01,0,3
12982,6.7987e+07,0,-0.46,0,-0.54,355.39,355.41,0.01,0,3
13026,6.7997e+07,0,-0.47,0,-0.58,355.39,355.4,0.01,0,3
13071,6.8007e+07,0,-0.46,0,-0.5,355.4,355.42,0.01,0,3
13116,6.8018e+07,0,-0.47,0,-0.57,355.37,355.39,0.01,0,3
13163,6.8031e+07,0,-0.47,0,-0.57,355.38,355.4,0.01,0,3
13208,6.8042e+07,0,-0.46,0,-0.51,355.4,355.41,0.01,0,3
13252,6.8052e+07,0,-0.47,0,-0.59,355.38,355.4,0.01,0,3
13299,6.8062e+07,0,-0.48,0,-0.52,355.39,355.41,0.01,0,3
13340,6.8072e+07,0,-0.5,0,-0.57,355.39,355.41,0.01,0,3
13381,6.8083e+07,0,-0.5,0,-0.52,355.4,355.42,0.01,0,3
13406,6.8133e+07,0,-0.46,0,-0.54,355.39,355.4,0.01,0,3
13452,6.8144e+07,0,-0.48,0,-0.56,355.39,355.4,0.01,0,3
13496,6.8154e+07,0,-0.45,0,-0.52,355.4,355.41,0.01,0,3
13541,6.8165e+07,0,-0.45,0,-0.57,355.38,355.4,0.01,0,3
13585,6.8174e+07,0,-0.47,0,-0.55,355.38,355.4,0.01,0,3
13630,6.8185e+07,0,-0.47,0,-0.57,355.39,355.4,0.01,0,3
13679,6.8195e+07,0,-0.48,0,-0.54,355.39,355.41,0.01,0.01,3
13724,6.8205e+07,0,-0.47,0,-0.57,355.38,355.4,0.01,0.01,3
13769,6.8215e+07,0,-0.51,0,-0.56,355.38,355.4,0.01,0.01,3
13813,6.8226e+07,0,-0.46,0,-0.53,355.39,355.41,0.01,0.01,3
13859,6.8236e+07,0,-0.45,0,-0.57,355.39,355.4,0.01,0.01,3
13903,6.8246e+07,0,-0.45,0,-0.53,355.39,355.41,0.01,0.01,3
13948,6.8256e+07,0,-0.47,0,-0.57,355.39,355.41,0.01,0.01,3
13995,6.8266e+07,0,-0.49,0,-0.5,355.41,355.43,0.01,0.01,3
14034,6.8277e+07,0,-0.48,0,-0.56,355.39,355.41,0.01,0.01,3
14079,6.8287e+07,0,-0.52,0,-0.55,355.39,355.41,0.01,0.01,3
14127,6.8298e+07,0,-0.48,0,-0.55,355.4,355.42,0.01,0.01,3
14172,6.8308e+07,0,-0.51,0,-0.56,355.4,355.41,0.01,0.01,3
14216,6.8318e+07,0,-0.47,0,-0.55,355.39,355.41,0.01,0.01,3
14263,6.8328e+07,0,-0.49,0,-0.58,355.38,355.4,0.01,0.01,3
14307,6.8339e+07,0,-0.44,0,-0.52,355.4,355.42,0.01,0.01,3
14352,6.8349e+07,0,-0.44,0,-0.58,355.38,355.4,0.01,0.01,3
14397,6.8359e+07,0,-0.44,0,-0.54,355.38,355.4,0.01,0.01,3
14443,6.837e+07,0,-0.45,0,-0.58,355.38,355.4,0.01,0.01,3
14488,6.838e+07,0,-0.47,0,-0.54,355.39,355.41,0.01,0.01,3
14532,6.839e+07,0,-0.45,0,-0.56,355.38,355.4,0.01,0.01,3
14581,6.84e+07,0,-0.5,0,-0.57,355.38,355.4,0.01,0.01,3
14625,6.841e+07,0,-0.47,0,-0.54,355.4,355.41,0.01,0.01,3
14670,6.8421e+07,0,-0.49,0,-0.56,355.39,355.41,0.01,0.01,3
14716,6.8431e+07,0,-0.47,0,-0.53,355.39,355.41,0.01,0.01,3
14763,6.8444e+07,0,-0.48,0,-0.56,355.39,355.41,0.01,0.01,3
14808,6.8454e+07,0,-0.49,0,-0.53,355.41,355.42,0.01,0.01,3
14852,6.8464e+07,0,-0.46,0,-0.56,355.38,355.4,0.01,0.01,3
14900,6.848e+07,0,-0.48,0,-0.55,355.38,355.4,0.01,0.01,3
14945,6.849e+07,0,-0.47,0,-0.53,355.4,355.41,0.01,0.01,3
14994,6.85e+07,0,-0.45,0,-0.56,355.37,355.38,0.01,0.01,3
15039,6.851e+07,0,-0.49,0,-0.56,355.37,355.39,0.01,0.01,3
15084,6.852e+07,0,-0.48,0,-0.56,355.37,355.39,0.01,0.01,3
15128,6.853e+07,0,-0.51,0,-0.54,355.38,355.4,0.01,0.01,3
15173,6.854e+07,0,-0.47,0,-0.55,355.37,355.38,0.01,0.01,3
15217,6.8551e+07,0,-0.5,0,-0.55,355.37,355.38,0.01,0.01,3
15262,6.8561e+07,0,-0.48,0,-0.54,355.38,355.4,0.01,0.01,3
15306,6.8571e+07,0,-0.48,0,-0.54,355.38,355.4,0.01,0.01,3
15352,6.8582e+07,0,-0.47,0,-0.53,355.38,355.4,0.01,0.01,3
15397,6.8592e+07,0,-0.47,0,-0.55,355.38,355.4,0.01,0.01,3
15446,6.8602e+07,0,-0.47,0,-0.53,355.4,355.41,0.01,0.01,3
15491,6.8613e+07,0,-0.45,0,-0.55,355.38,355.39,0.01,0.01,3
15535,6.8623e+07,0,-0.49,0,-0.56,355.38,355.39,0.01,0.01,3
15580,6.8633e+07,0,-0.47,0,-0.54,355.38,355.4,0.01,0.01,3
15624,6.8644e+07,0,-0.49,0,-0.54,355.39,355.4,0.01,0.01,3
15672,6.8654e+07,0,-0.46,0,-0.54,355.38,355.39,0.01,0.01,3
15711,6.8665e+07,0,-0.47,0,-0.56,355.37,355.39,0.01,0.01,3
15756,6.8676e+07,0,-0.47,0,-0.53,355.39,355.4,0.01,0.01,3
15801,6.8686e+07,0,-0.47,0,-0.56,355.37,355.39,0.01,0.01,3
15846,6.8697e+07,0,-0.5,0,-0.55,355.37,355.39,0.01,0.01,3
15895,6.8707e+07,0,-0.5,0,-0.54,355.38,355.39,0.01,0.01,3
15941,6.8717e+07,0,-0.51,0,-0.53,355.39,355.4,0.01,0.01,3
15985,6.8727e+07,0,-0.47,0,-0.53,355.38,355.39,0.01,0.01,3
16031,6.8738e+07,0,-0.49,0,-0.56,355.38,355.39,0.01,0.01,3
16076,6.8748e+07,0,-0.46,0,-0.52,355.4,355.41,0.01,0.01,3
16122,6.8759e+07,0,-0.46,0,-0.55,355.39,355.4,0.01,0.01,3
16167,6.8769e+07,0,-0.48,0,-0.54,355.39,355.4,0.01,0.01,3
16212,6.8779e+07,0,-0.49,0,-0.55,355.38,355.4,0.01,0.01,3
16257,6.8789e+07,0,-0.49,0,-0.54,355.39,355.41,0.01,0.01,3
16303,6.88e+07,0,-0.47,0,-0.54,355.38,355.39,0.01,0.01,3
16352,6.881e+07,0,-0.48,0,-0.56,355.37,355.39,0.01,0.01,3
16399,6.882e+07,0,-0.48,0,-0.53,355.38,355.39,0.01,0.01,3
16443,6.8831e+07,0,-0.45,0,-0.55,355.38,355.39,0.01,0.01,3
16488,6.8841e+07,0,-0.44,0,-0.53,355.37,355.39,0.01,0.01,3
16535,6.8853e+07,0,-0.48,0,-0.55,355.37,355.39,0.01,0.01,3
16582,6.887e+07,0,-0.46,0,-0.56,355.38,355.39,0.01,0.01,3
16626,6.8881e+07,0,-0.47,0,-0.55,355.37,355.39,0.01,0.01,3
16671,6.8891e+07,0,-0.49,0,-0.55,355.38,355.39,0.01,0.01,3
16718,6.8902e+07,0,-0.5,0,-0.57,355.38,355.4,0.01,0.01,3
16766,6.8913e+07,0,-0.46,0,-0.53,355.37,355.39,0.01,0.01,3
16811,6.8924e+07,0,-0.46,0,-0.58,355.36,355.38,0.01,0.01,3
16855,6.8934e+07,0,-0.46,0,-0.52,355.38,355.4,0.01,0.01,3
16900,6.8944e+07,0,-0.45,0,-0.56,355.37,355.38,0.01,0.01,3
16945,6.8954e+07,0,-0.45,0,-0.53,355.36,355.38,0.01,0.01,3
16990,6.8964e+07,0,-0.46,0,-0.57,355.36,355.37,0.01,0.01,3
17035,6.8974e+07,0,-0.48,0,-0.55,355.37,355.39,0.01,0.01,3
17080,6.8984e+07,0,-0.45,0,-0.55,355.37,355.38,0.01,0.01,3
17126,6.8995e+07,0,-0.46,0,-0.58,355.35,355.37,0.01,0.01,3
17170,6.9005e+07,0,-0.46,0,-0.54,355.37,355.39,0.01,0.01,3
17225,6.9018e+07,0,-0.45,0,-0.58,355.37,355.38,0.01,0.01,3
17269,6.9029e+07,0,-0.45,0,-0.55,355.37,355.38,0.01,0.01,3
17314,6.9038e+07,0,-0.47,0,-0.57,355.36,355.38,0.01,0.01,3
17359,6.9049e+07,0,-0.49,0,-0.56,355.37,355.39,0.01,0.01,3
17403,6.9059e+07,0,-0.48,0,-0.55,355.37,355.39,0.01,0.01,3
17449,6.9069e+07,0,-0.49,0,-0.57,355.35,355.37,0.01,0.01,3
17490,6.9083e+07,0,-0.49,0,-0.53,355.37,355.39,0.01,0.01,3
17535,6.9094e+07,0,-0.48,0,-0.55,355.36,355.38,0.01,0.01,3
17581,6.9104e+07,0,-0.47,0,-0.55,355.35,355.37,0.01,0.01,3
17625,6.9114e+07,0,-0.47,0,-0.57,355.35,355.37,0.01,0.01,3
17675,6.9124e+07,0,-0.47,0,-0.57,355.35,355.37,0.01,0.01,3
17719,6.9134e+07,0,-0.46,0,-0.53,355.36,355.38,0.01,0.01,3
17764,6.9144e+07,0,-0.46,0,-0.58,355.34,355.35,0.01,0.01,3
17810,6.9155e+07,0,-0.46,0,-0.53,355.36,355.37,0.01,0.01,3
17854,6.9165e+07,0,-0.44,0,-0.58,355.35,355.37,0.01,0.01,3
17899,6.9175e+07,0,-0.45,0,-0.53,355.36,355.37,0.01,0.01,3
17943,6.9185e+07,0,-0.45,0,-0.58,355.34,355.36,0.01,0.01,3
17988,6.9195e+07,0,-0.48,0,-0.55,355.36,355.38,0.01,0.01,3
18033,6.9205e+07,0,-0.45,0,-0.55,355.36,355.37,0.01,0.01,3
18077,6.9215e+07,0,-0.46,0,-0.57,355.35,355.36,0.01,0.01,3
18128,6.9226e+07,0,-0.45,0,-0.56,355.35,355.36,0.01,0.01,3
18172,6.9235e+07,0,-0.48,0,-0.58,355.35,355.37,0.01,0.01,3
18217,6.9246e+07,0,-0.46,0,-0.53,355.36,355.37,0.01,0.01,3
18264,6.9256e+07,0,-0.47,0,-0.58,355.34,355.35,0.01,0.01,3
18305,6.927e+07,0,-0.53,0,-0.55,355.35,355.36,0.01,0.01,3
18349,6.9281e+07,0,-0.48,0,-0.53,355.35,355.36,0.01,0.01,3
18394,6.9291e+07,0,-0.46,0,-0.57,355.33,355.35,0.01,0.01,3
18440,6.9301e+07,0,-0.44,0,-0.53,355.34,355.35,0.01,0.01,3
18487,6.9312e+07,0,-0.44,0,-0.57,355.34,355.36,0.01,0.01,3
18531,6.9322e+07,0,-0.44,0,-0.51,355.35,355.36,0.01,0.01,3
18580,6.9332e+07,0,-0.43,0,-0.56,355.33,355.35,0.01,0.01,3
18625,6.9342e+07,0,-0.46,0,-0.52,355.35,355.36,0.01,0.01,3
18670,6.9353e+07,0,-0.45,0,-0.55,355.35,355.36,0.01,0.01,3
18718,6.9366e+07,0,-0.44,0,-0.57,355.34,355.35,0.01,0.01,3
18763,6.9377e+07,0,-0.43,0,-0.54,355.34,355.36,0.01,0.01,3
18808,6.9387e+07,0,-0.44,0,-0.57,355.35,355.36,0.01,0.01,3
18852,6.9397e+07,0,-0.45,0,-0.52,355.36,355.37,0.01,0.01,3
18896,6.9407e+07,0,-0.44,0,-0.57,355.34,355.35,0.01,0.01,3
18940,6.9417e+07,0,-0.48,0,-0.54,355.35,355.36,0.01,0.01,3
18989,6.9428e+07,0,-0.46,0,-0.56,355.35,355.36,0.01,0.01,3
19034,6.9439e+07,0,-0.48,0,-0.56,355.33,355.35,0.01,0.01,3
19080,6.9449e+07,0,-0.46,0,-0.55,355.33,355.35,0.01,0.01,3
19125,6.9459e+07,0,-0.5,0,-0.56,355.34,355.35,0.01,0.01,3
19168,6.947e+07,0,-0.45,0,-0.51,355.34,355.36,0.01,0.01,3
19210,6.948e+07,0,-0.44,0,-0.56,355.33,355.34,0.01,0.01,3
19255,6.9491e+07,0,-0.46,0,-0.54,355.34,355.35,0.01,0.01,3
19299,6.9501e+07,0,-0.44,0,-0.56,355.34,355.36,0.01,0.01,3
19345,6.9511e+07,0,-0.47,0,-0.54,355.35,355.36,0.01,0.01,3
19389,6.9521e+07,0,-0.45,0,-0.56,355.34,355.35,0.01,0.01,3
19438,6.9532e+07,0,-0.5,0,-0.55,355.35,355.36,0.01,0.01,3
19482,6.9542e+07,0,-0.45,0,-0.52,355.36,355.37,0.01,0.01,3
19527,6.9552e+07,0,-0.45,0,-0.56,355.35,355.36,0.01,0.01,3
19572,6.9563e+07,0,-0.45,0,-0.54,355.35,355.36,0.01,0.01,3
19621,6.9575e+07,0,-0.44,0,-0.57,355.36,355.37,0.01,0.01,3
19666,6.9586e+07,0,-0.47,0,-0.54,355.35,355.37,0.01,0.01,3
19710,6.9597e+07,0,-0.45,0,-0.56,355.34,355.36,0.01,0.01,3
19755,6.9607e+07,0,-0.49,0,-0.55,355.34,355.36,0.01,0.01,3
19799,6.9617e+07,0,-0.44,0,-0.54,355.35,355.37,0.01,0.01,3
19844,6.9627e+07,0,-0.46,0,-0.56,355.33,355.35,0.01,0.01,3
19892,6.9637e+07,0,-0.44,0,-0.54,355.33,355.35,0.01,0.01,3
19937,6.9648e+07,0,-0.46,0,-0.56,355.34,355.36,0.01,0.01,3
19982,6.9658e+07,0,-0.45,0,-0.52,355.35,355.37,0.01,0.01,3
20029,6.9669e+07,0,-0.43,0,-0.57,355.34,355.35,0.01,0.01,3
20068,6.9679e+07,0,-0.48,0,-0.56,355.34,355.36,0.01,0.01,3
20113,6.969e+07,0,-0.44,0,-0.57,355.35,355.37,0.01,0.01,3
20157,6.97e+07,0,-0.47,0,-0.56,355.35,355.36,0.01,0.01,3
20203,6.971e+07,0,-0.45,0,-0.55,355.34,355.36,0.01,0.01,3
20248,6.972e+07,0,-0.48,0,-0.55,355.35,355.36,0.01,0.01,3
20294,6.9731e+07,0,-0.46,0,-0.52,355.36,355.37,0.01,0.01,3
20343,6.9741e+07,0,-0.45,0,-0.56,355.34,355.36,0.01,0.01,3
20387,6.9751e+07,0,-0.47,0,-0.54,355.34,355.36,0.01,0.01,3
20432,6.9761e+07,0,-0.47,0,-0.57,355.35,355.36,0.01,0.01,3
20478,6.9772e+07,0,-0.49,0,-0.55,355.35,355.37,0.01,0.01,3
20527,6.9785e+07,0,-0.46,0,-0.55,355.34,355.36,0.01,0.01,3
20571,6.9796e+07,0,-0.47,0,-0.56,355.34,355.36,0.01,0.01,3
20618,6.9806e+07,0,-0.46,0,-0.52,355.35,355.37,0.01,0.01,3
20662,6.9816e+07,0,-0.45,0,-0.56,355.34,355.35,0.01,0.01,3
20708,6.9826e+07,0,-0.48,0,-0.54,355.34,355.36,0.01,0.01,3
20753,6.9835e+07,0,-0.46,0,-0.55,355.35,355.36,0.01,0.01,3
20801,6.9846e+07,0,-0.48,0,-0.53,355.35,355.37,0.01,0.01,3
20848,6.9862e+07,0,-0.46,0,-0.53,355.34,355.36,0.01,0.01,3
20892,6.9872e+07,0,-0.46,0,-0.54,355.35,355.36,0.01,0.01,3
20938,6.9883e+07,0,-0.5,0,-0.53,355.35,355.37,0.01,0.01,3
20983,6.9893e+07,0,-0.45,0,-0.55,355.34,355.36,0.01,0.01,3
21027,6.9904e+07,0,-0.5,0,-0.58,355.33,355.35,0.01,0.01,3
21073,6.9914e+07,0,-0.44,0,-0.57,355.34,355.36,0.01,0.01,3
21118,6.9924e+07,0,-0.45,0,-0.58,355.33,355.35,0.01,0.01,3
21163,6.9934e+07,0,-0.44,0,-0.57,355.33,355.34,0.01,0.01,3
21211,6.9945e+07,0,-0.46,0,-0.58,355.33,355.34,0.01,0.01,3
21256,6.9955e+07,0,-0.45,0,-0.55,355.34,355.35,0.01,0.01,3
21301,6.9965e+07,0,-0.43,0,-0.56,355.33,355.34,0.01,0.01,3
21345,6.9976e+07,0,-0.48,0,-0.57,355.32,355.33,0.01,0.01,3
21392,6.9986e+07,0,-0.46,0,-0.54,355.33,355.35,0.01,0.01,3
21436,6.9996e+07,0,-0.48,0,-0.55,355.33,355.35,0.01,0.01,3
21481,7.0007e+07,0,-0.44,0,-0.55,355.33,355.34,0.01,0.01,3
21526,7.0017e+07,0,-0.48,0,-0.59,355.32,355.34,0.01,0.01,3
21570,7.0027e+07,0,-0.43,0,-0.56,355.34,355.36,0.01,0.01,3
21616,7.0037e+07,0,-0.43,0,-0.58,355.33,355.35,0.01,0.01,3
21666,7.005e+07,0,-0.47,0,-0.57,355.33,355.34,0.01,0.01,3
21713,7.0061e+07,0,-0.47,0,-0.56,355.33,355.35,0.01,0.01,3
21758,7.0071e+07,0,-0.5,0,-0.55,355.33,355.35,0.01,0.01,3
21796,7.0082e+07,0,-0.45,0,-0.55,355.32,355.34,0.01,0.01,3
21841,7.0092e+07,0,-0.45,0,-0.57,355.31,355.33,0.01,0.01,3
21886,7.0102e+07,0,-0.42,0,-0.54,355.33,355.34,0.01,0.01,3
21931,7.0112e+07,0,-0.41,0,-0.56,355.31,355.33,0.01,0.01,3
21976,7.0122e+07,0,-0.41,0,-0.55,355.31,355.33,0.01,0.01,3
22020,7.0132e+07,0,-0.43,0,-0.56,355.31,355.32,0.01,0.01,3
22065,7.0142e+07,0,-0.43,0,-0.54,355.33,355.34,0.01,0.01,3
22114,7.0153e+07,0,-0.42,0,-0.55,355.32,355.33,0.01,0.01,3
22159,7.0163e+07,0,-0.46,0,-0.56,355.32,355.33,0.01,0.01,3
22204,7.0173e+07,0,-0.46,0,-0.55,355.32,355.34,0.01,0.01,3
22248,7.0184e+07,0,-0.49,0,-0.55,355.33,355.35,0.01,0.01,3
22293,7.0194e+07,0,-0.43,0,-0.55,355.32,355.34,0.01,0.01,3
22338,7.0204e+07,0,-0.46,0,-0.59,355.31,355.33,0.01,0.01,3
22383,7.0214e+07,0,-0.43,0,-0.54,355.33,355.35,0.01,0.01,3
22427,7.0225e+07,0,-0.44,0,-0.58,355.32,355.33,0.01,0.01,3
22472,7.0235e+07,0,-0.44,0,-0.55,355.32,355.33,0.01,0.01,3
22517,7.0245e+07,0,-0.45,0,-0.58,355.31,355.32,0.01,0.01,3
22565,7.0255e+07,0,-0.45,0,-0.55,355.33,355.34,0.01,0.01,3
22612,7.0265e+07,0,-0.42,0,-0.56,355.31,355.33,0.01,0.01,3
22653,7.0278e+07,0,-0.47,0,-0.58,355.3,355.31,0,0.01,3
22698,7.0289e+07,0,-0.44,0,-0.53,355.32,355.34,0,0.01,3
22747,7.0301e+07,0,-0.42,0,-0.57,355.31,355.33,0,0.01,3
22795,7.0312e+07,0,-0.47,0,-0.57,355.31,355.32,0,0.01,3
22839,7.0323e+07,0,-0.46,0,-0.54,355.32,355.33,0,0.01,3
22883,7.0333e+07,0,-0.48,0,-0.55,355.32,355.34,0,0.01,3
22928,7.0343e+07,0,-0.44,0,-0.52,355.32,355.34,0,0.01,3
22973,7.0353e+07,0,-0.48,0,-0.58,355.31,355.32,0,0.01,3
23022,7.0363e+07,0,-0.46,0,-0.51,355.33,355.34,0,0.01,3
23066,7.0373e+07,0,-0.48,0,-0.55,355.32,355.33,0,0.01,3
23111,7.0384e+07,0,-0.47,0,-0.53,355.31,355.33,0,0.01,3
23157,7.0394e+07,0,-0.47,0,-0.56,355.31,355.32,0,0.01,3
23201,7.0404e+07,0,-0.47,0,-0.53,355.32,355.33,0,0.01,3
23249,7.0416e+07,0,-0.43,0,-0.52,355.31,355.33,0,0.01,3
23293,7.0427e+07,0,-0.46,0,-0.59,355.29,355.31,0,0.01,3
23339,7.0437e+07,0,-0.45,0,-0.52,355.31,355.33,0,0.01,3
23384,7.0447e+07,0,-0.46,0,-0.58,355.3,355.32,0,0.01,3
23432,7.0458e+07,0,-0.43,0,-0.53,355.31,355.32,0,0.01,3
23478,7.0468e+07,0,-0.46,0,-0.59,355.29,355.31,0,0.01,3
23521,7.0478e+07,0,-0.46,0,-0.54,355.31,355.33,0,0.01,3
23563,7.0489e+07,0,-0.43,0,-0.54,355.31,355.32,0,0.01,3
23611,7.0502e+07,0,-0.45,0,-0.59,355.29,355.3,0,0.01,3
23655,7.0512e+07,0,-0.44,0,-0.51,355.32,355.33,0,0.01,3
23700,7.0522e+07,0,-0.46,0,-0.57,355.3,355.32,0,0.01,3
23746,7.0533e+07,0,-0.44,0,-0.51,355.31,355.32,0,0.01,3
23791,7.0543e+07,0,-0.47,0,-0.59,355.29,355.31,0,0.01,3
23835,7.0553e+07,0,-0.46,0,-0.53,355.31,355.32,0,0.01,3
23884,7.0563e+07,0,-0.46,0,-0.57,355.3,355.31,0,0.01,3
23928,7.0573e+07,0,-0.48,0,-0.55,355.29,355.31,0,0.01,3
23973,7.0584e+07,0,-0.46,0,-0.54,355.29,355.31,0,0.01,3
24018,7.0594e+07,0,-0.46,0,-0.57,355.29,355.31,0,0.01,3
24062,7.0604e+07,0,-0.42,0,-0.52,355.3,355.31,0,0.01,3
24107,7.0615e+07,0,-0.43,0,-0.59,355.28,355.29,0,0.01,3
24153,7.0625e+07,0,-0.43,0,-0.51,355.3,355.32,0,0.01,3
24197,7.0635e+07,0,-0.44,0,-0.57,355.29,355.3,0,0.01,3
24242,7.0646e+07,0,-0.47,0,-0.53,355.29,355.3,0,0.01,3
24292,7.0661e+07,0,-0.43,0,-0.51,355.3,355.32,0.01,0.01,3
24338,7.0672e+07,0,-0.44,0,-0.57,355.29,355.3,0.01,0.01,3
24382,7.0682e+07,0,-0.43,0,-0.53,355.3,355.31,0.01,0.01,3
24426,7.0693e+07,0,-0.47,0,-0.58,355.28,355.3,0.01,0.01,3
24475,7.0705e+07,0,-0.46,0,-0.56,355.29,355.3,0.01,0.01,3
24519,7.0716e+07,0,-0.43,0,-0.53,355.29,355.31,0.01,0.01,3
24565,7.0726e+07,0,-0.44,0,-0.58,355.27,355.29,0.01,0.01,3
24610,7.0736e+07,0,-0.44,0,-0.51,355.29,355.31,0.01,0.01,3
24656,7.0746e+07,0,-0.45,0,-0.56,355.28,355.3,0.01,0.01,3
24701,7.0757e+07,0,-0.45,0,-0.52,355.28,355.3,0.01,0.01,3
24750,7.0767e+07,0,-0.46,0,-0.57,355.27,355.28,0.01,0.01,3
24798,7.078e+07,0,-0.48,0,-0.56,355.28,355.29,0.01,0.01,3
24846,7.079e+07,0,-0.44,0,-0.52,355.28,355.29,0.01,0.01,3
24895,7.0803e+07,0,-0.43,0,-0.59,355.27,355.28,0.01,0.01,3
24943,7.0815e+07,0,-0.49,0,-0.56,355.28,355.3,0.01,0.01,3
24988,7.0826e+07,0,-0.47,0,-0.54,355.28,355.3,0.01,0.01,3
25030,7.0836e+07,0,-0.49,0,-0.57,355.27,355.29,0.01,0.01,3
25075,7.0846e+07,0,-0.48,0,-0.54,355.28,355.3,0.01,0.01,3
25122,7.0856e+07,0,-0.47,0,-0.56,355.28,355.3,0.01,0.01,3
25172,7.0869e+07,0,-0.44,0,-0.52,355.29,355.3,0.01,0.01,3
25214,7.088e+07,0,-0.47,0,-0.57,355.27,355.29,0.01,0.01,3
25258,7.089e+07,0,-0.49,0,-0.53,355.28,355.3,0.01,0.01,3
25303,7.0901e+07,0,-0.48,0,-0.54,355.28,355.29,0.01,0.01,3
25347,7.0911e+07,0,-0.5,0,-0.56,355.26,355.28,0.01,0.01,3
25393,7.0921e+07,0,-0.48,0,-0.53,355.27,355.29,0.01,0.01,3
25435,7.0931e+07,0,-0.45,0,-0.57,355.27,355.28,0.01,0.01,3
25479,7.0941e+07,0,-0.4,0,-0.52,355.28,355.29,0.01,0.01,3
25525,7.0952e+07,0,-0.41,0,-0.59,355.25,355.27,0.01,0.01,3
25569,7.0962e+07,0,-0.42,0,-0.52,355.28,355.29,0.01,0.01,3
25622,7.0974e+07,0,-0.45,0,-0.55,355.27,355.29,0.01,0.01,3
25667,7.0984e+07,0,-0.48,0,-0.58,355.26,355.27,0.01,0.01,3
25711,7.0995e+07,0,-0.46,0,-0.54,355.26,355.28,0.01,0.01,3
25756,7.1004e+07,0,-0.47,0,-0.57,355.27,355.28,0.01,0.01,3
25800,7.1014e+07,0,-0.44,0,-0.51,355.28,355.3,0.01,0.01,3
25845,7.1025e+07,0,-0.46,0,-0.58,355.26,355.27,0.01,0.01,3
25890,7.1035e+07,0,-0.46,0,-0.51,355.28,355.3,0.01,0.01,3
25935,7.1045e+07,0,-0.46,0,-0.57,355.27,355.29,0.01,0.01,3
25980,7.1055e+07,0,-0.44,0,-0.52,355.28,355.3,0.01,0.01,3
26025,7.1065e+07,0,-0.45,0,-0.59,355.26,355.27,0.01,0.01,3
26078,7.1078e+07,0,-0.49,0,-0.58,355.27,355.28,0.01,0.01,3
26119,7.1089e+07,0,-0.46,0,-0.52,355.28,355.29,0.01,0.01,3
26165,7.1099e+07,0,-0.48,0,-0.59,355.25,355.27,0.01,0.01,3
26209,7.1109e+07,0,-0.46,0,-0.52,355.27,355.29,0.01,0.01,3
26251,7.112e+07,0,-0.44,0,-0.56,355.26,355.28,0.01,0.01,3
26296,7.113e+07,0,-0.42,0,-0.54,355.28,355.29,0.01,0.01,3
26340,7.114e+07,0,-0.42,0,-0.56,355.26,355.27,0.01,0.01,3
26385,7.115e+07,0,-0.44,0,-0.55,355.28,355.29,0.01,0.01,3
26430,7.1161e+07,0,-0.43,0,-0.54,355.28,355.29,0.01,0.01,3
26475,7.117e+07,0,-0.44,0,-0.57,355.27,355.29,0.01,0.01,3
26524,7.1181e+07,0,-0.44,0,-0.54,355.27,355.28,0.01,0.01,3
26568,7.1191e+07,0,-0.45,0,-0.57,355.27,355.29,0.01,0.01,3
26614,7.1201e+07,0,-0.43,0,-0.53,355.29,355.3,0.01,0.01,3
26658,7.1211e+07,0,-0.43,0,-0.57,355.27,355.28,0.01,0.01,3
26703,7.1222e+07,0,-0.44,0,-0.57,355.28,355.29,0.01,0.01,3
26747,7.1233e+07,0,-0.45,0,-0.53,355.27,355.29,0.01,0.01,3
26793,7.1243e+07,0,-0.43,0,-0.57,355.26,355.28,0.01,0.01,3
26840,7.1255e+07,0,-0.43,0,-0.58,355.26,355.27,0.01,0.01,3
26882,7.1269e+07,0,-0.42,0.01,-0.57,355.26,355.28,0.01,0.01,3
26931,7.128e+07,0,-0.42,0.02,-0.55,355.26,355.28,0.01,0.01,3
26977,7.129e+07,0,-0.39,0.04,-0.56,355.26,355.28,0.01,0.01,3
27022,7.1301e+07,0,-0.38,0.05,-0.54,355.26,355.28,0.01,0.01,3
27067,7.1312e+07,0,-0.42,0.06,-0.56,355.26,355.29,0.01,0.01,3
27108,7.1325e+07,0,-0.4,0.07,-0.53,355.26,355.29,0.01,0.01,3
27152,7.1335e+07,0,-0.45,0.08,-0.55,355.26,355.3,0.01,0.01,3
27197,7.1345e+07,0,-0.4,0.09,-0.54,355.26,355.3,0.01,0.01,3
27241,7.1356e+07,0,-0.32,0.1,-0.53,355.26,355.3,0.01,0.01,3
27286,7.1366e+07,0,-0.29,0.1,-0.54,355.26,355.3,0.01,0.01,3
27330,7.1377e+07,0.01,-0.31,0.11,-0.55,355.26,355.29,0.01,0.01,3
27380,7.1387e+07,0.02,-0.43,0.12,-0.5,355.26,355.3,0.01,0.01,3
27424,7.1397e+07,0.02,-0.49,0.12,-0.52,355.26,355.3,0.01,0.01,3
27470,7.1407e+07,0.02,-0.44,0.13,-0.49,355.26,355.3,0.01,0.01,3
27515,7.1418e+07,0.03,-0.25,0.13,-0.55,355.26,355.28,0.01,0.01,3
27559,7.143e+07,0.04,-0.22,0.14,-0.52,355.26,355.29,0.01,0.01,3
27604,7.1441e+07,0.04,-0.3,0.15,-0.54,355.26,355.3,0.01,0.01,3
27648,7.1451e+07,0.05,-0.37,0.16,-0.56,355.26,355.31,0.01,0.01,3
27693,7.1462e+07,0.06,-0.52,0.17,-0.49,355.26,355.32,0.01,0.01,3
27739,7.1473e+07,0.06,-0.51,0.17,-0.55,355.26,355.33,0,0.01,3
27778,7.1484e+07,0.07,-0.35,0.18,-0.49,355.26,355.34,0,0.01,3
27826,7.1494e+07,0.08,-0.24,0.19,-0.57,355.26,355.32,0,0.01,3
27871,7.1505e+07,0.08,-0.27,0.19,-0.54,355.26,355.33,0,0.01,3
27917,7.1515e+07,0.08,-0.39,0.19,-0.49,355.26,355.34,0,0.01,3
27962,7.1525e+07,0.08,-0.44,0.19,-0.51,355.26,355.32,0,0.01,3
28006,7.1536e+07,0.08,-0.35,0.2,-0.49,355.26,355.32,0,0.01,3
28051,7.1546e+07,0.07,-0.23,0.2,-0.56,355.26,355.32,0,0.01,3
28095,7.1557e+07,0.07,-0.24,0.2,-0.54,355.26,355.31,0,0.01,3
28140,7.1567e+07,0.08,-0.33,0.2,-0.46,355.26,355.31,0,0.01,3
28184,7.1577e+07,0.08,-0.49,0.2,-0.52,355.26,355.32,0,0.01,3
28231,7.1588e+07,0.09,-0.47,0.2,-0.57,355.26,355.32,0,0.01,3
28280,7.1599e+07,0.1,-0.28,0.19,-0.44,355.26,355.32,0,0.01,3
28325,7.1609e+07,0.11,-0.37,0.2,-0.43,355.26,355.32,0,0.01,3
28370,7.162e+07,0.11,-0.54,0.19,-0.55,355.26,355.34,0,0.01,3
28414,7.163e+07,0.11,-0.31,0.19,-0.57,355.26,355.33,0,0.01,3
28456,7.164e+07,0.11,-0.11,0.19,-0.46,355.26,355.33,0,0.01,3
28498,7.1651e+07,0.1,-0.31,0.2,-0.37,355.26,355.33,0,0.01,3
28542,7.1661e+07,0.09,-0.56,0.2,-0.48,355.26,355.35,0,0.01,3
28587,7.1672e+07,0.08,-0.37,0.19,-0.5,355.26,355.36,0,0.01,3
28633,7.1685e+07,0.07,-0.46,0.18,-0.4,355.26,355.36,0.01,0.01,3
28675,7.1696e+07,0.04,-0.1,0.17,-0.45,355.26,355.37,0.01,0.01,3
28724,7.1707e+07,0.03,0.1,0.16,-0.47,355.26,355.36,0.01,0.01,3
28769,7.1717e+07,0.02,0.05,0.15,-0.48,355.26,355.35,0.01,0.01,3
28814,7.1727e+07,0,-0.14,0.14,-0.4,355.26,355.36,0.01,0.01,3
28860,7.1738e+07,-0.02,-0.21,0.13,-0.34,355.26,355.38,0.01,0.01,3
28908,7.1751e+07,-0.04,-0.25,0.1,-0.32,355.26,355.37,0.01,0.01,3
28952,7.1761e+07,-0.05,-0.09,0.09,-0.33,355.26,355.38,0.01,0.01,3
28997,7.1772e+07,-0.08,0.06,0.08,-0.32,355.26,355.37,0.01,0.01,3
29044,7.1783e+07,-0.12,0.1,0.08,-0.26,355.26,355.35,0.01,0.01,3
29089,7.1793e+07,-0.16,-0.01,0.07,-0.19,355.26,355.36,0.01,0.01,3
29138,7.1803e+07,-0.18,-0.11,0.06,-0.08,355.26,355.4,0.01,0.01,3
29183,7.1814e+07,-0.2,-0.03,0.04,0,355.26,355.43,0.01,0.01,3
29228,7.1824e+07,-0.23,0.16,0.02,0,355.26,355.42,0.01,0.01,3
29275,7.1835e+07,-0.27,0.32,0.01,0.01,355.26,355.43,0.01,0.01,3
29319,7.1845e+07,-0.31,0.34,0,0.04,355.26,355.46,0.01,0.01,3
29364,7.1856e+07,-0.36,0.35,-0.01,0.08,355.26,355.49,0.01,0.01,3
29414,7.1869e+07,-0.41,0.38,-0.03,0.19,355.26,355.55,0.01,0.01,3
29452,7.188e+07,-0.43,0.52,-0.04,0.21,355.27,355.59,0.01,0.01,3
29497,7.189e+07,-0.47,0.64,-0.06,0.24,355.27,355.63,0.01,0.01,3
29541,7.19e+07,-0.51,0.77,-0.08,0.27,355.27,355.68,0.01,0.01,3
29590,7.1911e+07,-0.54,0.81,-0.1,0.3,355.27,355.74,0.01,0.01,3
29634,7.1921e+07,-0.57,0.78,-0.11,0.36,355.27,355.82,0.01,0.01,3
29679,7.1931e+07,-0.61,0.81,-0.13,0.44,355.27,355.9,0.01,0.01,3
29724,7.1941e+07,-0.65,0.94,-0.16,0.43,355.27,355.98,0.01,0.01,3
29769,7.1951e+07,-0.69,1.09,-0.18,0.4,355.27,356.06,0.01,0.01,3
29814,7.1962e+07,-0.75,1.11,-0.2,0.45,355.27,356.15,0.01,0.01,3
29858,7.1973e+07,-0.82,1.14,-0.21,0.49,355.27,356.22,0.01,0.01,3
29904,7.1984e+07,-0.89,1.23,-0.23,0.49,355.27,356.34,0.01,0.01,3
29948,7.1994e+07,-0.96,1.34,-0.24,0.47,355.27,356.42,0.01,0.01,3
29993,7.2005e+07,-1.04,1.46,-0.26,0.42,355.27,356.55,0.01,0.01,3
30042,7.2015e+07,-1.11,1.52,-0.27,0.45,355.27,356.66,0.01,0.01,3
30087,7.2025e+07,-1.18,1.54,-0.28,0.45,355.27,356.77,0.01,0.01,3
30132,7.2035e+07,-1.24,1.53,-0.29,0.4,355.27,356.89,0.01,0.01,3
30176,7.2045e+07,-1.28,1.53,-0.29,0.36,355.27,357,0.01,0.01,3
30224,7.2055e+07,-1.33,1.54,-0.31,0.29,355.27,357.13,0.01,0.01,3
30263,7.2068e+07,-1.34,1.43,-0.31,0.32,355.27,357.26,0.01,0.01,3
30307,7.2078e+07,-1.38,1.36,-0.33,0.32,355.27,357.41,0.01,0.01,3
30351,7.2089e+07,-1.43,1.33,-0.34,0.25,355.27,357.53,0.01,0.01,3
30395,7.2099e+07,-1.48,1.31,-0.35,0.22,355.27,357.67,0.01,0.01,3
30440,7.2109e+07,-1.54,1.27,-0.37,0.19,355.27,357.79,0.01,0.01,3
30491,7.212e+07,-1.6,1.24,-0.38,0.17,355.27,357.94,0.01,0.01,3
30535,7.213e+07,-1.67,1.19,-0.4,0.19,355.27,358.08,0.01,0.01,3
30579,7.214e+07,-1.76,1.15,-0.43,0.2,355.27,358.22,0.01,0.01,3
30625,7.2151e+07,-1.85,1.12,-0.45,0.24,355.27,358.36,0.01,0.01,3
30670,7.2161e+07,-1.94,1.06,-0.47,0.21,355.27,358.51,0.01,0.01,3
30714,7.2171e+07,-2.03,1.05,-0.47,0.12,355.27,358.67,0.01,0.01,3
30759,7.2182e+07,-2.11,1.01,-0.48,0.11,355.27,358.81,0.01,0.01,3
30804,7.2193e+07,-2.2,0.89,-0.49,0.16,355.27,358.96,0.01,0.01,3
30849,7.2204e+07,-2.29,0.77,-0.49,0.2,355.27,359.12,0.01,0.01,3
30893,7.2214e+07,-2.36,0.68,-0.5,0.19,355.27,359.25,0.01,0.01,3
30942,7.2224e+07,-2.43,0.61,-0.5,0.13,355.27,359.4,0.01,0.01,3
30987,7.2234e+07,-2.5,0.56,-0.49,0.11,355.27,359.54,0.01,0.01,3
31031,7.2245e+07,-2.56,0.49,-0.48,0.08,355.27,359.68,0.01,0.01,3
31076,7.2255e+07,-2.63,0.47,-0.49,0,355.27,359.83,0.01,0.01,3
31123,7.2269e+07,-2.71,0.33,-0.51,0.07,355.27,0.02,0.03,0.01,3
31170,7.2283e+07,-2.8,0.22,-0.52,0,355.28,0.21,0.03,0.01,3
31216,7.2293e+07,-2.88,0.12,-0.54,0,355.28,0.35,0.03,0.01,3
31260,7.2304e+07,-2.97,0.03,-0.56,0.01,355.28,0.49,0.03,0.01,3
31305,7.2314e+07,-3.06,-0.03,-0.6,0.05,355.28,0.61,0.03,0.01,3
31349,7.2325e+07,-3.14,-0.1,-0.64,0.11,355.28,0.75,0.03,0.01,3
31398,7.2335e+07,-3.22,-0.14,-0.68,0.08,355.28,0.89,0.03,0.01,3
31443,7.2345e+07,-3.3,-0.19,-0.72,0.09,355.29,1.02,0.03,0.01,3
31487,7.2356e+07,-3.38,-0.2,-0.76,0.07,355.29,1.14,0.03,0.01,3
31532,7.2366e+07,-3.46,-0.2,-0.79,0.02,355.29,1.27,0.03,0.01,3
31576,7.2377e+07,-3.55,-0.2,-0.83,-0.09,355.29,1.38,0.03,0.01,3
31623,7.239e+07,-3.66,-0.29,-0.86,-0.07,355.29,1.56,0.03,0.01,3
31668,7.2401e+07,-3.75,-0.32,-0.88,-0.12,355.3,1.69,0.03,0.01,3
31714,7.2411e+07,-3.84,-0.33,-0.9,-0.16,355.3,1.8,0.03,0.01,3
31759,7.2421e+07,-3.92,-0.3,-0.92,-0.27,355.3,1.93,0.03,0.01,3
31807,7.2432e+07,-4.01,-0.33,-0.94,-0.37,355.3,2.04,0.03,0.01,3
31852,7.2443e+07,-4.08,-0.32,-0.96,-0.47,355.3,2.16,0.03,0.01,3
31901,7.2456e+07,-4.17,-0.45,-0.98,-0.51,355.3,2.29,0.05,0.01,3
31940,7.2468e+07,-4.22,-0.56,-0.99,-0.53,355.3,2.42,0.05,0.01,3
31984,7.2478e+07,-4.29,-0.63,-0.99,-0.64,355.3,2.53,0.05,0.01,3
32029,7.2489e+07,-4.35,-0.72,-1,-0.71,355.3,2.64,0.05,0.01,3
32073,7.2499e+07,-4.4,-0.8,-1,-0.77,355.3,2.74,0.05,0.01,3
32118,7.2509e+07,-4.45,-0.86,-1,-0.93,355.3,2.84,0.05,0.01,3
32163,7.2519e+07,-4.49,-1.01,-0.99,-0.99,355.3,2.93,0.05,0.01,3
32207,7.253e+07,-4.52,-1.09,-0.99,-1.07,355.3,3.02,0.05,0.01,3
32256,7.2541e+07,-4.55,-1.18,-0.98,-1.2,355.3,3.09,0.05,0.01,3
32301,7.2551e+07,-4.58,-1.32,-0.97,-1.23,355.3,3.17,0.05,0.01,3
32345,7.2561e+07,-4.6,-1.47,-0.96,-1.28,355.3,3.24,0.05,0.01,3
32393,7.2574e+07,-4.64,-1.51,-0.94,-1.44,355.3,3.34,0.05,0.01,3
32437,7.2585e+07,-4.68,-1.59,-0.92,-1.48,355.3,3.39,0.05,0.01,3
32482,7.2595e+07,-4.72,-1.71,-0.9,-1.55,355.3,3.46,0.05,0.01,3
32527,7.2606e+07,-4.76,-1.76,-0.88,-1.59,355.29,3.51,0.05,0.01,3
32571,7.2616e+07,-4.8,-1.8,-0.86,-1.64,355.29,3.57,0.05,0.01,3
32617,7.2626e+07,-4.83,-1.93,-0.84,-1.67,355.29,3.61,0.05,0.01,3
32661,7.2636e+07,-4.86,-2.03,-0.83,-1.64,355.29,3.67,0.05,0.01,3
32710,7.2646e+07,-4.89,-2.09,-0.82,-1.64,355.29,3.71,0.05,0.01,3
32756,7.2656e+07,-4.92,-2.11,-0.81,-1.66,355.29,3.76,0.05,0.01,3
32802,7.2667e+07,-4.95,-2.18,-0.8,-1.65,355.29,3.8,0.06,0.01,3
32841,7.2678e+07,-4.96,-2.35,-0.79,-1.53,355.29,3.82,0.06,0.01,3
32885,7.269e+07,-4.99,-2.48,-0.77,-1.41,355.29,3.85,0.06,0.01,3
32930,7.2701e+07,-5.02,-2.62,-0.75,-1.36,355.28,3.9,0.06,0.01,3
32974,7.2711e+07,-5.05,-2.68,-0.72,-1.33,355.28,3.91,0.06,0.01,3
33019,7.2722e+07,-5.08,-2.73,-0.7,-1.22,355.28,3.94,0.06,0.01,3
33064,7.2733e+07,-5.11,-2.8,-0.68,-1.18,355.28,3.97,0.06,0.01,3
33110,7.2744e+07,-5.13,-2.81,-0.66,-1.16,355.28,3.97,0.06,0.01,3
33159,7.2754e+07,-5.16,-2.91,-0.64,-1.06,355.27,3.99,0.06,0.01,3
33203,7.2764e+07,-5.19,-2.97,-0.61,-1.04,355.27,4.01,0.06,0.01,3
33249,7.2775e+07,-5.23,-3.01,-0.58,-1.01,355.26,4.01,0.06,0.01,3
33294,7.2786e+07,-5.27,-3,-0.56,-0.95,355.25,4.02,0.06,0.01,3
33339,7.2797e+07,-5.31,-3.04,-0.52,-0.86,355.24,4,0.06,0.01,3
33385,7.2808e+07,-5.35,-3.08,-0.48,-0.76,355.24,4.01,0.06,0.01,3
33429,7.2819e+07,-5.39,-3.11,-0.45,-0.65,355.23,3.99,0.06,0.01,3
33474,7.2829e+07,-5.43,-3.17,-0.41,-0.59,355.23,3.99,0.06,0.01,3
33520,7.2839e+07,-5.46,-3.23,-0.38,-0.49,355.23,3.99,0.06,0.01,3
33564,7.2849e+07,-5.49,-3.22,-0.35,-0.43,355.22,3.97,0.06,0.01,3
33613,7.2864e+07,-5.52,-3.15,-0.31,-0.48,355.22,3.96,0.05,0,3
33657,7.2874e+07,-5.54,-3.16,-0.28,-0.4,355.22,3.92,0.05,0,3
33702,7.2885e+07,-5.55,-3.24,-0.26,-0.32,355.21,3.92,0.05,0,3
33753,7.2901e+07,-5.58,-3.39,-0.23,-0.14,355.21,3.88,0.05,0,3
33798,7.2912e+07,-5.59,-3.46,-0.21,-0.06,355.21,3.86,0.05,0,3
33843,7.2922e+07,-5.61,-3.47,-0.2,0,355.21,3.83,0.05,0,3
33888,7.2933e+07,-5.62,-3.53,-0.18,0.01,355.21,3.8,0.05,0,3
33932,7.2944e+07,-5.64,-3.63,-0.16,0.09,355.2,3.77,0.05,0,3
33979,7.2954e+07,-5.65,-3.68,-0.13,0.15,355.2,3.74,0.05,0,3
34027,7.2964e+07,-5.67,-3.72,-0.11,0.21,355.2,3.71,0.05,0.01,3
34071,7.2974e+07,-5.68,-3.82,-0.1,0.3,355.2,3.68,0.05,0.01,3
34115,7.2985e+07,-5.7,-3.89,-0.08,0.35,355.2,3.65,0.05,0.01,3
34160,7.2995e+07,-5.72,-3.91,-0.06,0.41,355.19,3.61,0.05,0.01,3
34208,7.3008e+07,-5.73,-3.88,-0.05,0.36,355.19,3.59,0.05,0.01,3
34252,7.3019e+07,-5.75,-3.84,-0.04,0.32,355.19,3.55,0.05,0.01,3
34298,7.3029e+07,-5.77,-3.8,-0.03,0.34,355.19,3.51,0.05,0.01,3
34342,7.304e+07,-5.8,-3.8,-0.03,0.34,355.19,3.47,0.05,0.01,3
34388,7.305e+07,-5.83,-3.8,-0.02,0.35,355.19,3.44,0.05,0.01,3
34432,7.3061e+07,-5.86,-3.82,-0.01,0.42,355.19,3.39,0.05,0.01,3
34480,7.3075e+07,-5.88,-3.84,0,0.46,355.19,3.36,0.05,0.01,3
34525,7.3085e+07,-5.9,-3.79,0,0.47,355.19,3.32,0.05,0.01,3
34569,7.3096e+07,-5.91,-3.76,0,0.45,355.19,3.27,0.05,0.01,3
34614,7.3106e+07,-5.92,-3.74,0,0.48,355.19,3.24,0.05,0.01,3
34658,7.3117e+07,-5.92,-3.77,-0.01,0.52,355.19,3.18,0.05,0.01,3
34703,7.3128e+07,-5.91,-3.78,-0.02,0.6,355.19,3.15,0.05,0.01,3
34747,7.3139e+07,-5.9,-3.87,-0.03,0.7,355.19,3.1,0.05,0.01,3
34792,7.3149e+07,-5.89,-3.94,-0.04,0.78,355.19,3.07,0.05,0.01,3
34838,7.316e+07,-5.88,-3.98,-0.05,0.82,355.19,3.02,0.05,0.01,3
34886,7.3171e+07,-5.86,-3.98,-0.07,0.84,355.19,2.99,0.05,0.01,3
34934,7.3182e+07,-5.84,-3.98,-0.08,0.82,355.2,2.95,0.05,0.01,3
34979,7.3193e+07,-5.82,-4,-0.1,0.86,355.2,2.88,0.05,0.01,3
35023,7.3204e+07,-5.81,-4.04,-0.11,0.94,355.2,2.83,0.05,0.01,3
35068,7.3214e+07,-5.8,-4.08,-0.12,1,355.2,2.79,0.05,0.01,3
35114,7.3225e+07,-5.78,-4.1,-0.13,1.04,355.2,2.74,0.05,0.01,3
35158,7.3235e+07,-5.77,-4.12,-0.15,1.11,355.2,2.69,0.05,0.01,3
35203,7.3245e+07,-5.76,-4.15,-0.17,1.12,355.21,2.67,0.05,0.01,3
35248,7.3256e+07,-5.75,-4.13,-0.19,1.07,355.21,2.62,0.05,0.01,3
35296,7.3269e+07,-5.74,-4.1,-0.22,1.05,355.21,2.55,0.07,0.01,3
35342,7.3281e+07,-5.74,-4.15,-0.24,1.04,355.21,2.5,0.07,0.01,3
35388,7.3291e+07,-5.73,-4.12,-0.26,1.02,355.21,2.46,0.07,0.01,3
35432,7.3302e+07,-5.71,-4.12,-0.28,1,355.22,2.42,0.07,0.01,3
35476,7.3312e+07,-5.69,-4.15,-0.32,0.93,355.22,2.39,0.07,0.01,3
35520,7.3323e+07,-5.67,-4.19,-0.37,0.9,355.22,2.34,0.07,0.01,3
35564,7.3334e+07,-5.64,-4.2,-0.42,0.92,355.23,2.3,0.07,0.01,3
35608,7.3345e+07,-5.61,-4.28,-0.47,0.98,355.24,2.26,0.07,0.01,3
35652,7.3355e+07,-5.57,-4.31,-0.53,0.96,355.24,2.24,0.07,0.01,3
35696,7.3365e+07,-5.53,-4.35,-0.59,0.93,355.25,2.2,0.07,0.01,3
35742,7.3375e+07,-5.49,-4.35,-0.64,0.92,355.25,2.19,0.07,0.01,3
35792,7.3386e+07,-5.45,-4.35,-0.7,0.86,355.26,2.17,0.07,0.01,3
35836,7.3396e+07,-5.4,-4.35,-0.75,0.78,355.26,2.16,0.07,0.01,3
35881,7.3407e+07,-5.36,-4.32,-0.8,0.73,355.27,2.12,0.07,0.01,3
35925,7.3418e+07,-5.33,-4.36,-0.85,0.72,355.27,2.12,0.07,0.01,3
35971,7.3428e+07,-5.29,-4.39,-0.9,0.67,355.28,2.11,0.07,0.01,3
36016,7.3439e+07,-5.25,-4.34,-0.94,0.58,355.28,2.11,0.07,0.01,3
36060,7.345e+07,-5.22,-4.29,-0.98,0.5,355.28,2.12,0.07,0.01,3
36104,7.3459e+07,-5.18,-4.27,-1.02,0.4,355.29,2.13,0.07,0.01,3
36149,7.347e+07,-5.15,-4.24,-1.06,0.3,355.29,2.15,0.07,0.01,3
36194,7.3481e+07,-5.12,-4.26,-1.09,0.26,355.29,2.14,0.07,0.01,3
36245,7.3492e+07,-5.09,-4.34,-1.12,0.19,355.3,2.17,0.07,0.01,3
36284,7.3504e+07,-5.06,-4.32,-1.14,0.09,355.3,2.2,0.07,0.01,3
36329,7.3514e+07,-5.03,-4.26,-1.17,0.01,355.3,2.24,0.07,0.01,3
36373,7.3525e+07,-5,-4.19,-1.19,-0.09,355.3,2.27,0.07,0.01,3
36419,7.3536e+07,-4.97,-4.11,-1.22,-0.21,355.31,2.32,0.07,0.01,3
36463,7.3547e+07,-4.95,-4.07,-1.25,-0.24,355.31,2.35,0.07,0.01,3
36508,7.3558e+07,-4.92,-4.08,-1.28,-0.29,355.31,2.42,0.07,0.01,3
36552,7.3568e+07,-4.9,-4.08,-1.31,-0.36,355.31,2.46,0.07,0.01,3
36597,7.3578e+07,-4.88,-4.03,-1.34,-0.41,355.32,2.51,0.07,0.01,3
36642,7.3588e+07,-4.87,-3.95,-1.36,-0.46,355.32,2.55,0.07,0.01,3
36690,7.3599e+07,-4.85,-3.87,-1.39,-0.58,355.32,2.62,0.07,0.01,3
36735,7.361e+07,-4.84,-3.77,-1.42,-0.69,355.32,2.67,0.07,0.02,3
36779,7.3621e+07,-4.83,-3.78,-1.43,-0.71,355.32,2.71,0.07,0.02,3
36824,7.3632e+07,-4.83,-3.77,-1.44,-0.73,355.32,2.76,0.07,0.02,3
36869,7.3643e+07,-4.82,-3.71,-1.45,-0.78,355.32,2.82,0.07,0.02,3
36914,7.3654e+07,-4.82,-3.69,-1.45,-0.82,355.33,2.87,0.07,0.02,3
36961,7.3664e+07,-4.82,-3.64,-1.45,-0.86,355.32,2.92,0.07,0.02,3
37000,7.3676e+07,-4.81,-3.54,-1.45,-0.99,355.32,2.99,0.07,0.02,3
37044,7.3686e+07,-4.8,-3.5,-1.44,-1.05,355.32,3.02,0.07,0.02,3
37089,7.3696e+07,-4.79,-3.46,-1.42,-1.11,355.32,3.07,0.07,0.02,3
37138,7.3707e+07,-4.78,-3.43,-1.4,-1.16,355.32,3.11,0.07,0.02,3
37183,7.3718e+07,-4.77,-3.46,-1.38,-1.09,355.32,3.16,0.07,0.02,3
37228,7.3728e+07,-4.76,-3.45,-1.36,-1.11,355.32,3.2,0.07,0.02,3
37273,7.3739e+07,-4.74,-3.48,-1.33,-1.06,355.32,3.25,0.07,0.02,3
37321,7.3752e+07,-4.72,-3.36,-1.31,-1.15,355.31,3.3,0.07,0.02,3
37370,7.3763e+07,-4.69,-3.39,-1.29,-1.12,355.31,3.34,0.07,0.02,3
37415,7.3774e+07,-4.67,-3.37,-1.28,-1.11,355.31,3.37,0.07,0.02,3
37460,7.3785e+07,-4.66,-3.36,-1.26,-1.1,355.31,3.41,0.07,0.02,3
37505,7.3795e+07,-4.64,-3.39,-1.23,-1.05,355.31,3.43,0.07,0.02,3
37550,7.3806e+07,-4.63,-3.4,-1.2,-0.93,355.3,3.47,0.07,0.02,3
37598,7.3816e+07,-4.61,-3.44,-1.18,-0.91,355.3,3.5,0.07,0.02,3
37644,7.3826e+07,-4.6,-3.47,-1.15,-0.88,355.3,3.53,0.07,0.02,3
37689,7.3837e+07,-4.59,-3.42,-1.12,-0.85,355.3,3.55,0.07,0.02,3
37734,7.3847e+07,-4.58,-3.42,-1.09,-0.86,355.3,3.59,0.07,0.02,3
37781,7.3861e+07,-4.57,-3.3,-1.06,-0.9,355.29,3.61,0.08,0.02,3
37822,7.3873e+07,-4.56,-3.38,-1.03,-0.82,355.29,3.64,0.08,0.02,3
37867,7.3884e+07,-4.55,-3.35,-0.99,-0.81,355.29,3.66,0.08,0.02,3
37913,7.3895e+07,-4.54,-3.36,-0.94,-0.76,355.28,3.69,0.08,0.02,3
37957,7.3905e+07,-4.53,-3.34,-0.89,-0.76,355.28,3.74,0.08,0.02,3
38003,7.3916e+07,-4.52,-3.31,-0.84,-0.79,355.28,3.75,0.08,0.02,3
38051,7.3926e+07,-4.51,-3.26,-0.78,-0.76,355.27,3.77,0.08,0.02,3
38095,7.3936e+07,-4.51,-3.23,-0.73,-0.76,355.27,3.79,0.08,0.02,3
38140,7.3947e+07,-4.5,-3.21,-0.67,-0.72,355.26,3.82,0.08,0.02,3
38184,7.3958e+07,-4.49,-3.21,-0.62,-0.61,355.26,3.83,0.08,0.02,3
38228,7.3969e+07,-4.48,-3.19,-0.57,-0.55,355.25,3.85,0.08,0.02,3
38272,7.3979e+07,-4.47,-3.23,-0.52,-0.42,355.25,3.87,0.08,0.02,3
38318,7.399e+07,-4.46,-3.24,-0.48,-0.33,355.25,3.9,0.08,0.02,3
38363,7.4e+07,-4.44,-3.23,-0.45,-0.19,355.25,3.91,0.08,0.02,3
38408,7.4011e+07,-4.42,-3.16,-0.43,-0.1,355.24,3.93,0.08,0.02,3
38453,7.4022e+07,-4.4,-3.13,-0.41,-0.06,355.24,3.95,0.08,0.02,3
38501,7.4032e+07,-4.38,-3.12,-0.38,0.03,355.24,3.96,0.08,0.02,3
38545,7.4042e+07,-4.37,-3.02,-0.36,0.11,355.24,3.97,0.08,0.02,3
38589,7.4053e+07,-4.36,-3.02,-0.33,0.19,355.24,3.97,0.08,0.02,3
38635,7.4064e+07,-4.35,-3.05,-0.31,0.31,355.23,3.97,0.08,0.02,3
38681,7.4078e+07,-4.34,-3.01,-0.27,0.42,355.23,4.01,0.08,0.02,3
38722,7.409e+07,-4.32,-2.92,-0.25,0.46,355.23,4.01,0.08,0.02,3
38767,7.4101e+07,-4.3,-2.94,-0.21,0.52,355.23,4.01,0.08,0.02,3
38812,7.4111e+07,-4.28,-2.95,-0.18,0.59,355.22,4.02,0.08,0.02,3
38856,7.4121e+07,-4.26,-2.97,-0.15,0.7,355.22,4.03,0.08,0.02,3
38901,7.4131e+07,-4.23,-3,-0.12,0.77,355.22,4.04,0.08,0.02,3
38949,7.4142e+07,-4.21,-3.06,-0.1,0.84,355.22,4.06,0.08,0.01,3
38993,7.4153e+07,-4.18,-3.06,-0.07,0.9,355.22,4.07,0.08,0.01,3
39038,7.4163e+07,-4.15,-3.04,-0.05,0.94,355.21,4.08,0.08,0.01,3
39083,7.4173e+07,-4.12,-3,-0.04,0.94,355.21,4.1,0.08,0.01,3
39129,7.4184e+07,-4.11,-2.98,-0.03,0.95,355.21,4.1,0.08,0.01,3
39173,7.4195e+07,-4.09,-2.94,-0.02,1.01,355.21,4.11,0.08,0.01,3
39218,7.4205e+07,-4.08,-2.9,-0.01,1.05,355.21,4.12,0.08,0.01,3
39262,7.4215e+07,-4.07,-2.89,-0.01,1.08,355.21,4.14,0.08,0.01,3
39307,7.4225e+07,-4.06,-2.82,-0.01,1.16,355.21,4.15,0.08,0.01,3
39353,7.4236e+07,-4.05,-2.79,-0.01,1.24,355.21,4.18,0.08,0.01,3
39402,7.4247e+07,-4.04,-2.78,-0.02,1.28,355.21,4.21,0.08,0.02,3
39448,7.4257e+07,-4.04,-2.73,-0.03,1.33,355.21,4.22,0.08,0.02,3
39492,7.4268e+07,-4.03,-2.61,-0.03,1.25,355.21,4.26,0.08,0.02,3
39534,7.4279e+07,-4.03,-2.54,-0.03,1.24,355.21,4.28,0.08,0.02,3
39581,7.4294e+07,-4.03,-2.59,-0.04,1.33,355.21,4.34,0.08,0.02,3
39626,7.4304e+07,-4.04,-2.52,-0.03,1.31,355.21,4.36,0.08,0.02,3
39672,7.4315e+07,-4.04,-2.44,-0.02,1.27,355.21,4.4,0.08,0.02,3
39716,7.4325e+07,-4.05,-2.32,-0.01,1.2,355.21,4.44,0.08,0.02,3
39761,7.4336e+07,-4.06,-2.26,0,1.11,355.21,4.47,0.08,0.02,3
39809,7.4346e+07,-4.08,-2.18,0.01,1.07,355.21,4.49,0.08,0.02,3
39855,7.4357e+07,-4.09,-2.14,0.03,1.05,355.21,4.52,0.08,0.02,3
39900,7.4367e+07,-4.11,-2.15,0.05,1.03,355.21,4.56,0.08,0.02,3
39944,7.4378e+07,-4.12,-2.13,0.06,1.03,355.21,4.58,0.08,0.02,3
39989,7.4389e+07,-4.14,-2.14,0.08,1.03,355.2,4.62,0.08,0.02,3
40034,7.44e+07,-4.15,-2.12,0.09,1.01,355.2,4.64,0.08,0.02,3
40079,7.4411e+07,-4.17,-2.1,0.1,0.98,355.2,4.67,0.08,0.02,3
40123,7.4421e+07,-4.18,-2.16,0.11,0.96,355.2,4.7,0.08,0.02,3
40169,7.4431e+07,-4.19,-2.19,0.12,0.92,355.2,4.72,0.08,0.02,3
40214,7.4441e+07,-4.2,-2.23,0.12,0.89,355.2,4.74,0.08,0.02,3
40267,7.4458e+07,-4.22,-2.35,0.14,0.91,355.2,4.76,0.09,0.02,3
40310,7.4469e+07,-4.23,-2.38,0.14,0.9,355.2,4.79,0.09,0.02,3
40355,7.4479e+07,-4.25,-2.38,0.15,0.82,355.2,4.81,0.09,0.02,3
40399,7.449e+07,-4.26,-2.35,0.15,0.78,355.2,4.81,0.09,0.02,3
40444,7.4501e+07,-4.29,-2.31,0.14,0.71,355.2,4.83,0.09,0.02,3
40488,7.4512e+07,-4.32,-2.29,0.13,0.64,355.2,4.84,0.09,0.02,3
40533,7.4523e+07,-4.35,-2.34,0.12,0.67,355.2,4.84,0.09,0.02,3
40578,7.4534e+07,-4.38,-2.46,0.11,0.73,355.2,4.85,0.09,0.02,3
40624,7.4544e+07,-4.41,-2.45,0.1,0.73,355.2,4.85,0.09,0.02,3
40669,7.4554e+07,-4.44,-2.44,0.08,0.74,355.2,4.85,0.09,0.02,3
40717,7.4564e+07,-4.47,-2.5,0.06,0.77,355.21,4.86,0.09,0.02,3
40761,7.4575e+07,-4.49,-2.54,0.04,0.82,355.21,4.87,0.09,0.02,3
40805,7.4585e+07,-4.52,-2.56,0.01,0.83,355.21,4.88,0.09,0.02,3
40850,7.4596e+07,-4.54,-2.65,0,0.86,355.21,4.89,0.09,0.02,3
40899,7.461e+07,-4.48,-2.57,-0.09,0.73,355.93,5.58,0.09,0.02,3
40944,7.4621e+07,-4.51,-2.69,-0.1,0.76,355.94,5.59,0.09,0.02,3
40989,7.4632e+07,-4.54,-2.76,-0.11,0.78,355.94,5.58,0.09,0.02,3
41034,7.4642e+07,-4.57,-2.74,-0.12,0.77,355.94,5.59,0.09,0.02,3
41078,7.4652e+07,-4.6,-2.74,-0.13,0.77,355.94,5.59,0.09,0.02,3
41123,7.4662e+07,-4.62,-2.77,-0.14,0.75,355.94,5.59,0.09,0.02,3
41173,7.4676e+07,-4.64,-2.87,-0.16,0.66,355.94,5.59,0.09,0.02,3
41214,7.4687e+07,-4.66,-2.89,-0.18,0.7,355.94,5.58,0.09,0.02,3
41258,7.4698e+07,-4.68,-2.96,-0.19,0.7,355.94,5.62,0.09,0.02,3
41299,7.4714e+07,-4.68,-2.86,-0.2,0.57,355.94,5.64,0.09,0.02,3
41344,7.4724e+07,-4.68,-2.91,-0.22,0.6,355.95,5.67,0.09,0.02,3
41388,7.4734e+07,-4.68,-2.96,-0.23,0.6,355.95,5.69,0.09,0.02,3
41433,7.4745e+07,-4.67,-3,-0.24,0.6,355.95,5.73,0.09,0.02,3
41482,7.4756e+07,-4.66,-3.03,-0.25,0.59,355.95,5.76,0.09,0.02,3
41527,7.4766e+07,-4.65,-3.02,-0.26,0.6,355.95,5.77,0.09,0.02,3
41576,7.4777e+07,-4.63,-2.98,-0.27,0.51,355.95,5.81,0.09,0.02,3
41620,7.4787e+07,-4.61,-2.99,-0.28,0.42,355.95,5.82,0.09,0.02,3
41666,7.4798e+07,-4.59,-2.98,-0.29,0.39,355.95,5.83,0.09,0.02,3
41712,7.4809e+07,-4.57,-3.01,-0.3,0.38,355.95,5.83,0.09,0.02,3
41753,7.482e+07,-4.56,-3.05,-0.3,0.4,355.95,5.83,0.09,0.02,3
41795,7.4832e+07,-4.55,-3.07,-0.32,0.4,355.95,5.84,0.09,0.02,3
41841,7.4842e+07,-4.53,-3.04,-0.33,0.32,355.95,5.82,0.09,0.02,3
41885,7.4853e+07,-4.5,-3.06,-0.34,0.3,355.96,5.8,0.09,0.02,3
41932,7.4864e+07,-4.47,-3.08,-0.35,0.21,355.96,5.79,0.09,0.02,3
41973,7.4879e+07,-4.44,-3.22,-0.37,0.31,355.96,5.75,0.1,0.02,3
42022,7.489e+07,-4.4,-3.26,-0.38,0.29,355.96,5.79,0.1,0.02,3
42067,7.4901e+07,-4.37,-3.3,-0.4,0.31,355.96,5.81,0.1,0.02,3
42111,7.4911e+07,-4.33,-3.32,-0.43,0.28,355.96,5.85,0.1,0.02,3
42156,7.4922e+07,-4.28,-3.3,-0.46,0.26,355.96,5.87,0.1,0.02,3
42195,7.4934e+07,-4.26,-3.32,-0.48,0.33,355.97,5.86,0.1,0.02,3
42239,7.4945e+07,-4.22,-3.33,-0.53,0.36,355.97,5.87,0.1,0.02,3
42287,7.4955e+07,-4.18,-3.33,-0.57,0.43,355.97,5.87,0.1,0.02,3
42332,7.4965e+07,-4.15,-3.36,-0.62,0.41,355.98,5.89,0.1,0.02,3
42376,7.4975e+07,-4.11,-3.38,-0.67,0.45,355.98,5.9,0.1,0.02,3
42421,7.4985e+07,-4.07,-3.35,-0.72,0.42,355.98,5.9,0.1,0.02,3
42470,7.4995e+07,-4.04,-3.35,-0.77,0.43,355.99,5.89,0.1,0.02,3
42515,7.5006e+07,-4.01,-3.33,-0.82,0.43,355.99,5.89,0.1,0.02,3
42560,7.5017e+07,-3.98,-3.29,-0.86,0.33,355.99,5.87,0.1,0.02,3
42604,7.5027e+07,-3.95,-3.22,-0.9,0.28,356,5.84,0.1,0.02,3
42646,7.5043e+07,-3.93,-3.26,-0.92,0.32,356,5.76,0.1,0.02,3
42690,7.5053e+07,-3.91,-3.22,-0.95,0.31,356,5.72,0.1,0.02,3
42737,7.507e+07,-3.86,-3.23,-1.01,0.27,356,5.62,0.09,0.02,3
42782,7.5081e+07,-3.82,-3.22,-1.06,0.2,356.01,5.56,0.09,0.02,3
42827,7.5091e+07,-3.78,-3.21,-1.11,0.18,356.01,5.51,0.09,0.02,3
42877,7.5102e+07,-3.74,-3.18,-1.16,0.16,356.01,5.45,0.09,0.02,3
42921,7.5112e+07,-3.7,-3.15,-1.21,0.05,356.02,5.38,0.09,0.02,3
42966,7.5123e+07,-3.66,-3.11,-1.26,0,356.02,5.3,0.09,0.02,3
43010,7.5137e+07,-3.62,-3.2,-1.31,0.09,356.02,5.19,0.09,0.02,3
43052,7.5148e+07,-3.59,-3.12,-1.35,0.01,356.03,5.1,0.09,0.02,3
43097,7.5159e+07,-3.55,-3.13,-1.41,-0.03,356.03,5.03,0.09,0.02,3
43142,7.517e+07,-3.5,-3.07,-1.47,-0.15,356.03,4.95,0.09,0.02,3
43187,7.518e+07,-3.46,-3.05,-1.52,-0.21,356.04,4.85,0.09,0.02,3
43233,7.5191e+07,-3.43,-3.04,-1.56,-0.22,356.04,4.75,0.09,0.02,3
43277,7.5201e+07,-3.4,-3.06,-1.6,-0.28,356.04,4.66,0.09,0.02,3
43326,7.5211e+07,-3.37,-3.1,-1.63,-0.33,356.04,4.59,0.09,0.02,3
43370,7.5221e+07,-3.35,-3.11,-1.66,-0.34,356.04,4.48,0.09,0.02,3
43415,7.5232e+07,-3.32,-3.14,-1.69,-0.4,356.05,4.41,0.09,0.02,3
43459,7.5243e+07,-3.3,-3.08,-1.71,-0.5,356.05,4.32,0.09,0.02,3
43508,7.5257e+07,-3.28,-2.93,-1.74,-0.68,356.05,4.2,0.09,0.02,3
43547,7.5269e+07,-3.27,-2.99,-1.77,-0.69,356.05,4.07,0.09,0.02,3
43588,7.528e+07,-3.24,-3.07,-1.79,-0.69,356.05,3.92,0.09,0.02,3
43635,7.5291e+07,-3.21,-3.04,-1.82,-0.75,356.05,3.77,0.09,0.02,3
43680,7.5301e+07,-3.19,-2.96,-1.83,-0.84,356.05,3.62,0.09,0.02,3
43726,7.5312e+07,-3.16,-2.9,-1.85,-0.89,356.06,3.46,0.09,0.02,3
43777,7.5322e+07,-3.14,-2.92,-1.85,-0.98,356.06,3.32,0.09,0.02,3
43821,7.5333e+07,-3.12,-2.91,-1.85,-1.06,356.06,3.17,0.09,0.02,3
43866,7.5344e+07,-3.1,-2.88,-1.83,-1.1,356.05,3,0.09,0.02,3
43911,7.5354e+07,-3.09,-2.88,-1.8,-1.09,356.05,2.85,0.09,0.02,3
43950,7.5366e+07,-3.08,-2.94,-1.79,-1.07,356.05,2.7,0.09,0.02,3
43994,7.5377e+07,-3.07,-2.91,-1.76,-1.11,356.05,2.57,0.09,0.02,3
44038,7.5387e+07,-3.05,-2.83,-1.73,-1.13,356.05,2.44,0.09,0.02,3
44083,7.5398e+07,-3.03,-2.8,-1.69,-1.2,356.05,2.3,0.09,0.02,3
44128,7.5408e+07,-3.02,-2.76,-1.66,-1.27,356.05,2.18,0.09,0.02,3
44172,7.5419e+07,-3,-2.72,-1.61,-1.3,356.04,2.03,0.09,0.02,3
44221,7.5429e+07,-2.99,-2.73,-1.57,-1.3,356.04,1.92,0.09,0.02,3
44266,7.5439e+07,-2.97,-2.79,-1.52,-1.28,356.04,1.8,0.09,0.02,3
44310,7.545e+07,-2.96,-2.75,-1.47,-1.29,356.04,1.7,0.09,0.02,3
44356,7.546e+07,-2.96,-2.67,-1.43,-1.28,356.03,1.6,0.09,0.02,3
44402,7.5471e+07,-2.96,-2.68,-1.39,-1.24,356.03,1.5,0.08,0.02,3
44440,7.5484e+07,-2.96,-2.54,-1.37,-1.32,356.03,1.4,0.08,0.02,3
44482,7.5499e+07,-2.96,-2.5,-1.32,-1.2,356.03,1.25,0.08,0.02,3
44528,7.5509e+07,-2.97,-2.41,-1.28,-1.2,356.03,1.12,0.08,0.02,3
44573,7.552e+07,-2.98,-2.37,-1.22,-1.2,356.02,1,0.08,0.02,3
44621,7.553e+07,-3,-2.32,-1.16,-1.21,356.02,0.89,0.08,0.02,3
44666,7.554e+07,-3.02,-2.24,-1.1,-1.2,356.02,0.75,0.08,0.02,3
44711,7.5551e+07,-3.04,-2.23,-1.03,-1.11,356.01,0.63,0.08,0.02,3
44756,7.5562e+07,-3.06,-2.22,-0.96,-1,356.01,0.52,0.08,0.02,3
44802,7.5576e+07,-3.09,-2.2,-0.89,-0.93,356,0.42,0.08,0.02,3
44846,7.5587e+07,-3.13,-2.15,-0.81,-0.89,356,0.3,0.08,0.02,3
44891,7.5597e+07,-3.18,-2.11,-0.74,-0.8,356,0.21,0.08,0.02,3
44932,7.5609e+07,-3.21,-2.16,-0.69,-0.59,355.99,0.1,0.08,0.02,3
44976,7.5619e+07,-3.25,-2.17,-0.63,-0.49,355.99,0.04,0.08,0.02,3
45021,7.5629e+07,-3.3,-2.21,-0.58,-0.38,355.99,359.97,0.08,0.02,3
45069,7.5639e+07,-3.35,-2.25,-0.55,-0.3,355.99,359.89,0.08,0.02,3
45115,7.565e+07,-3.4,-2.32,-0.54,-0.21,355.99,359.83,0.08,0.02,3
45160,7.566e+07,-3.44,-2.42,-0.53,-0.07,355.98,359.75,0.08,0.02,3
45203,7.5671e+07,-3.49,-2.59,-0.52,0.06,355.98,359.68,0.07,0.02,3
45245,7.569e+07,-3.54,-2.75,-0.52,0.22,355.98,359.54,0.07,0.02,3
45289,7.57e+07,-3.6,-2.9,-0.52,0.31,355.98,359.45,0.07,0.02,3
45334,7.5711e+07,-3.67,-3,-0.53,0.37,355.98,359.39,0.07,0.02,3
45381,7.5722e+07,-3.75,-3.1,-0.54,0.42,355.99,359.31,0.07,0.02,3
45426,7.5733e+07,-3.82,-3.22,-0.55,0.47,355.99,359.22,0.07,0.02,3
45472,7.5744e+07,-3.9,-3.34,-0.56,0.56,355.99,359.14,0.07,0.02,3
45521,7.5754e+07,-3.99,-3.48,-0.57,0.63,355.99,359.09,0.07,0.02,3
45565,7.5765e+07,-4.06,-3.6,-0.59,0.64,355.99,359.02,0.07,0.02,3
45611,7.5775e+07,-4.13,-3.74,-0.61,0.68,355.99,358.97,0.07,0.02,3
45655,7.5786e+07,-4.2,-3.78,-0.63,0.7,355.99,358.91,0.07,0.02,3
45697,7.5801e+07,-4.26,-3.99,-0.65,0.71,355.99,358.84,0.07,0.02,3
45743,7.5811e+07,-4.33,-4.12,-0.68,0.74,356,358.77,0.07,0.02,3
45787,7.5822e+07,-4.4,-4.25,-0.71,0.74,356,358.73,0.07,0.02,3
45832,7.5832e+07,-4.45,-4.36,-0.72,0.7,356,358.7,0.07,0.02,3
45878,7.5843e+07,-4.51,-4.43,-0.74,0.57,356,358.66,0.07,0.02,3
45927,7.5854e+07,-4.56,-4.5,-0.75,0.47,356,358.63,0.07,0.02,3
45973,7.5865e+07,-4.6,-4.64,-0.75,0.36,356,358.59,0.07,0.02,3
46014,7.5879e+07,-4.64,-4.85,-0.76,0.26,356,358.57,0.07,0.02,3
46059,7.589e+07,-4.66,-4.99,-0.77,0.21,356,358.58,0.07,0.02,3
46098,7.5902e+07,-4.67,-5.2,-0.78,0.23,356,358.56,0.07,0.02,3
46143,7.5913e+07,-4.68,-5.34,-0.82,0.23,356.01,358.56,0.07,0.02,3
46188,7.5923e+07,-4.67,-5.49,-0.87,0.21,356.01,358.57,0.07,0.02,3
46234,7.5933e+07,-4.66,-5.61,-0.95,0.26,356.02,358.55,0.07,0.02,3
46278,7.5944e+07,-4.64,-5.75,-1.04,0.36,356.02,358.55,0.07,0.02,3
46324,7.5954e+07,-4.61,-5.95,-1.13,0.49,356.03,358.54,0.07,0.02,3
46372,7.5965e+07,-4.58,-6.05,-1.23,0.55,356.04,358.55,0.07,0.03,3
46416,7.5975e+07,-4.55,-6.1,-1.32,0.57,356.05,358.54,0.07,0.03,3
46460,7.5985e+07,-4.52,-6.14,-1.4,0.59,356.05,358.55,0.07,0.03,3
46505,7.5996e+07,-4.48,-6.28,-1.48,0.58,356.06,358.57,0.07,0.03,3
46548,7.6011e+07,-4.46,-6.36,-1.53,0.63,356.06,358.57,0.07,0.03,3
46593,7.6021e+07,-4.41,-6.42,-1.6,0.59,356.07,358.58,0.07,0.03,3
46638,7.6032e+07,-4.37,-6.45,-1.67,0.59,356.07,358.58,0.07,0.03,3
