LineNo,TimeUS,ThI,ABst,ThO,ThH,DAlt,Alt,BAlt,DSAlt,SAlt,TAlt,DCRt,CRt
1793,65396985,0,0,0,0.2585996,0.5980158,0.5980158,0.36,NaN,0,0.05829052,47,47
2242,65501757,0,0,0,0.2585996,0.6368458,0.6368458,0.66,NaN,0,0.09712042999999999,47,47
2696,65605273,0,0,0,0.2585996,0.6595504,0.6595504,0.51,NaN,0,0.1200845,46,46
3115,65710151,0,0,0,0.2585996,0.6747549,0.6747549,0.57,NaN,0,0.1352126,45,45
3569,65811808,0,0,0,0.2585996,0.6905661,0.6905661,0.53,NaN,0,0.1511612,43,43
4017,65914815,0,0,0,0.2585996,0.702624,0.702624,0.71,NaN,0,0.1632191,42,42
4471,66015824,0,0,0,0.2585996,0.712643,0.712643,0.42,NaN,0,0.1732381,41,41
4918,66119857,0,0,0,0.2585996,0.7187305,0.7187305,0.57,NaN,0,0.1795851,40,40
5367,66222852,0,0,0,0.2585996,0.7266529,0.7266529,0.59,NaN,0,0.1875074,39,39
5784,66326150,0,0,0,0.2585996,0.7286388,0.7286388,0.48,NaN,0,0.1893407,37,37
6237,66428999,0,0,0,0.2585996,0.7377039,0.7377039,0.55,NaN,0,0.1984058,36,36
6686,66532069,0,0,0,0.2585996,0.7404271,0.7404271,0.43,NaN,0,0.2012587,35,35
7139,66635164,0,0,0,0.2585996,0.7439727,0.7439727,0.67,NaN,0,0.2048043,34,34
7590,66740173,0,0,0,0.2585996,0.746966,0.746966,0.38,NaN,0,0.2077976,33,33
8044,66843047,0,0,0,0.2585996,0.7527028,0.7527028,0.38,NaN,0,0.2133818,31,31
8493,66945857,0,0,0,0.2585996,0.7455617,0.7455617,0.42,NaN,0,0.2065155,30,30
8949,67049842,0,0,0,0.2585996,0.7502309,0.7502309,0.55,NaN,0,0.2109481,29,29
9396,67154218,0,0,0,0.2585996,0.7447428,0.7447428,-0.02,NaN,0,0.20546,28,28
9817,67256197,0,0,0,0.2585996,0.7469062,0.7469062,0.28,NaN,0,0.2076234,27,27
10267,67360042,0,0,0,0.2585996,0.7414619,0.7414619,0.7,NaN,0,0.2021485,25,25
10719,67463456,0,0,0,0.2585996,0.7385306,0.7385306,0.31,NaN,0,0.1992172,25,25
11168,67567880,0,0,0,0.2585996,0.7297072,0.7297072,0.31,NaN,0,0.1902412,23,23
11618,67673443,0,0,0,0.2585996,0.7303159,0.7303159,0.38,NaN,0,0.1908499,22,22
12071,67777255,0,0,0,0.2585996,0.7231686000000001,0.7231686000000001,0.26,NaN,0,0.1837561,21,21
12525,67881246,0,0,0,0.2585996,0.7238569,0.7238569,0.44,NaN,0,0.1844445,20,20
12975,67984393,0,0,0,0.2585996,0.7138662,0.7138662,0.41,NaN,0,0.1744918,19,19
13668,68190049,0,0,0,0.2585996,0.703379,0.703379,0.59,NaN,0,0.1640047,18,18
14117,68292298,0,0,0,0.2585996,0.7019622,0.7019622,0.46,NaN,0,0.1624276,16,16
14571,68395817,0,0,0,0.2585996,0.6944467,0.6944467,0.64,NaN,0,0.1550495,16,16
14986,68497776,0,0,0,0.2585996,0.6907222,0.6907222,0.35,NaN,0,0.1513249,14,14
15439,68599432,0,0,0,0.2585996,0.6845791,0.6845791,0.66,NaN,0,0.145449,13,13
15887,68704611,0,0,0,0.2585996,0.6790327,0.6790327,0.66,NaN,0,0.1399024,12,12
16344,68808068,0,0,0,0.2585996,0.6724229,0.6724229,0.38,NaN,0,0.1332698,11,11
16762,68912718,0,0,0,0.2585996,0.6642978,0.6642978,0.67,NaN,0,0.1254117,11,11
17218,69016238,0,0,0,0.2585996,0.6590877000000001,0.6590877000000001,0.62,NaN,0,0.1202017,9,9
17665,69119159,0,0,0,0.2585996,0.6536951,0.6536951,0.25,NaN,0,0.1149388,8,8
18116,69220298,0,0,0,0.2585996,0.6475005,0.6475005,0.2,NaN,0,0.1087441,7,7
18566,69324640,0,0,0,0.2585996,0.6391376,0.6391376,0.7,NaN,0,0.1003812,6,6
18985,69427959,0,0,0,0.2585996,0.6314532,0.6314532,0.13,NaN,0,0.0926815,6,6
19434,69531665,0,0,0,0.2585996,0.6242761999999999,0.6242761999999999,0.36,NaN,0,0.0855045,5,5
19885,69634835,0,0,0,0.2585996,0.6176666,0.6176666,0.25,NaN,0,0.07916197,5,5
20336,69738183,0,0,0,0.2585996,0.6103948,0.6103948,0.38,NaN,0,0.0720199,4,4
20791,69840524,0,0,0,0.2585996,0.6045221,0.6045221,0.66,NaN,0,0.06598696,4,4
21207,69944733,0,0,0,0.2585996,0.5956858,0.5956858,0.73,NaN,0,0.05742535,2,2
21662,70048176,0,0,0,0.2585996,0.5915602,0.5915602,0.25,NaN,0,0.05329982,3,3
22106,70150003,0,0,0,0.2585996,0.5828201,0.5828201,0.34,NaN,0,0.04468933,2,2
22558,70252279,0,0,0,0.2585996,0.5753562,0.5753562,0.24,NaN,0,0.0372254,2,2
23008,70355232,0,0,0,0.2585996,0.5657422,0.5657422,0.48,NaN,0,0.02774874,1,1
23428,70457862,0,0,0,0.2585996,0.5574409,0.5574409,0.27,NaN,0,0.01948557,0,0
23877,70560893,0,0,0,0.2585996,0.5465255,0.5465255,0.14,NaN,0,0.008570168,0,0
24328,70664009,0,0,0,0.2585996,0.5363527,0.5363527,0.6,NaN,0,-0.001602616,0,0
24746,70766871,0,0,0,0.2585996,0.5267288,0.5267288,0.39,NaN,0,-0.0111731,-1,-1
25168,70869015,0,0,0,0.2585996,0.5197482,0.5197482,0.55,NaN,0,-0.01788672,-2,-2
25615,70972416,0,0,0,0.2585996,0.511453,0.511453,0.3,NaN,0,-0.02618184,-2,-2
26071,71072459,0,0,0,0.2585996,0.5045615,0.5045615,0.82,NaN,0,-0.032936,-2,-2
26513,71175284,0,0,0,0.2585996,0.4960062,0.4960062,0.53,NaN,0,-0.04149136,-2,-2
26927,71279645,0.01374991,1.013279e-06,0.002209028,0.2585996,0.4898354,0.4898354,0.51,NaN,0,-0.04781478,-3,-3
27372,71384264,0.06374939,4.74602e-06,0.03127228,0.2585996,0.4829977,0.4829977,0.93,NaN,0,-0.05439302,-3,-3
27816,71489552,0.109999,9.335577e-06,0.07423826,0.2585996,0.4797226,0.4797226,0.64,NaN,0,-0.05766809,-1,-1
28270,71593380,0.210029,1.350045e-05,0.1220606,0.2585996,0.4785491,0.4783549,0.55,NaN,0,-0.05918845,-2,0
28710,71699078,0.2601345,1.522899e-05,0.2153953,0.2585996,0.4829293,0.4770342,0.59,NaN,0,-0.06050912,12,-2
29134,71803228,0.2906439,8.940697e-07,0.2679752,0.2585996,0.5019776,0.4749444,0.6,NaN,0,-0.06246158,28,0
29583,71908846,0.2621545,2.452731e-05,0.2747187,0.2585996,0.5321719,0.4803848,0.6899999999999999,NaN,0,-0.05702117,41,11
30034,72012881,0.2666489,0.0001025796,0.2652025,0.2585996,0.5728448,0.5018842,0.57,NaN,0,-0.03552183,52,25
30483,72117188,0.2596607,6.03199e-05,0.2634701,0.2585996,0.6189661,0.5375601,1.07,NaN,0,0.0004440285,60,39
30935,72221433,0.2502107,1.588464e-05,0.2570195,0.2585996,0.6740693,0.5894641,1.29,NaN,0,0.05250058,66,49
31384,72327458,0.2520622,2.682209e-07,0.2568766,0.2585996,0.7314714,0.6577593,1.37,NaN,0,0.1209789,70,59
31803,72432238,0.2349385,8.85129e-06,0.245102,0.2585996,0.7962435,0.7373259,0.88,NaN,0,0.2010109,72,68
32249,72538216,0.2523877,0.000107944,0.2433588,0.2585996,0.8629794,0.8193443,0.98,NaN,0,0.2832735,74,72
32700,72641281,0.276408,0.0002815723,0.2643589,0.2585996,0.9352011,0.8988671,0.93,NaN,0,0.3630328,78,72
33149,72749493,0.2667657,0.0003806651,0.2683985,0.2585996,1.010198,0.979199,1.02,NaN,0,0.443914,82,74
33605,72854856,0.2629626,0.0004125535,0.2654271,0.2585996,1.091058,1.063506,0.99,NaN,0,0.5288241,85,79
34020,72961636,0.2627342,0.0005469918,0.2630551,0.2585996,1.175239,1.15584,0.89,NaN,0,0.6216227,87,83
34473,73066209,0.2650414,0.0006181598,0.2644496,0.2585996,1.262088,1.243955,1.16,NaN,0,0.710211,89,86
34921,73173790,0.2614874,0.0006429553,0.2632453,0.2585996,1.348898,1.341043,1.22,NaN,0,0.8076041,90,89
35338,73280659,0.2763755,0.0007746518,0.2713633,0.2585996,1.440619,1.439184,1.28,NaN,0,0.9061348,94,90
35788,73385738,0.2833892,0.0008528829,0.2787747,0.2585996,1.537287,1.546725,1.62,NaN,0,1.013676,98,95
36241,73491408,0.2656268,0.0007655025,0.2737361,0.2585996,1.639793,1.659618,1.71,NaN,0,1.126729,103,101
36686,73599048,0.2592289,0.0006079376,0.2652518,0.2585996,1.747226,1.792515,1.51,NaN,0,1.259221,105,108
37134,73706655,0.2780105,0.000557065,0.271773,0.2585996,1.857063,1.926979,1.94,NaN,0,1.393685,109,111
37591,73813853,0.2728845,0.0005241632,0.2760592,0.2585996,1.977634,2.069037,2,NaN,0,1.535614,115,118
38041,73921643,0.2755546,0.0004733205,0.2748761,0.2585996,2.10335,2.216979,2.64,NaN,0,1.683533,121,125
38491,74027254,0.2690278,0.0003843307,0.2738827,0.2585996,2.2407,2.373857,2.27,NaN,0,1.840678,127,132
38936,74134188,0.2723102,0.000411272,0.2708341,0.2585996,2.385377,2.536505,2.64,NaN,0,2.003227,132,137
39388,74238991,0.2731185,0.0004018247,0.2749631,0.2585996,2.536954,2.69954,2.76,NaN,0,2.165949,138,141
39805,74345639,0.2616155,0.0002369285,0.2680277,0.2585996,2.691196,2.875883,3,NaN,0,2.342536,143,149
40260,74452735,0.2710294,0.000225246,0.2657699,0.2585996,2.856708,3.054886,3.09,NaN,0,2.521676,149,155
40707,74559601,0.2958137,0.0003207624,0.2803794,0.2585996,3.026861,3.242692,3.35,NaN,0,2.709323,158,162
41158,74664945,0.2792766,0.0003398955,0.2861414,0.2585996,3.21337,3.43228,3.04,NaN,0,2.89891,170,170
41569,74774253,0.2717833,0.0004123151,0.2769274,0.2585996,3.401266,3.634414,3.63,NaN,0,3.100999,179,182
42012,74884800,0.2676248,0.0004063845,0.2725486,0.2585996,3.597765,3.847452,3.9,NaN,0,3.313723,185,190
42459,74989959,0.2631428,0.0004272163,0.2690465,0.2585996,3.801374,4.061094,4.07,NaN,0,3.526717,191,197
42870,75098453,0.2618629,0.0003987253,0.2644398,0.2585996,4.010862,4.28854,3.89,NaN,0,3.75395,195,202
43316,75206763,0.2625091,0.0003806651,0.2645672,0.2585996,4.225208,4.516454,4.13,NaN,0,3.981314,198,205
43761,75315002,0.2612168,0.0003894567,0.2642636,0.2585996,4.437778,4.737402,4.65,NaN,0,4.201682,201,206
44207,75421804,0.2709074,0.0003913045,0.2633784,0.2585996,4.659379,4.958263,4.78,NaN,0,4.42223,204,208
44617,75529569,0.2683549,0.0002811253,0.2698525,0.2585996,4.883326,5.181087,4.79,NaN,0,4.645016,206,207
45062,75637216,0.2739722,0.0002141893,0.2705385,0.2585996,5.107825,5.397786,4.69,NaN,0,4.861555,207,205
45507,75746869,0.2820926,0.0004934669,0.2819391,0.2585996,5.331245,5.61299,5.1,NaN,0,5.076897,205,201
45923,75853822,0.2874733,0.0009010434000000001,0.2840761,0.2585996,5.552218,5.81405,5.2,NaN,0,5.278223,204,197
46365,75961818,0.2918271,0.001637936,0.2903245,0.2585996,5.769605,6.00983,5.56,NaN,0,5.474133,202,192
46811,76072835,0.2957113,0.001895159,0.2941467,0.2585996,5.982462,6.20931,6.26,NaN,0,5.673614,198,188
47256,76178664,0.2821819,0.001414865,0.2931723,0.2585996,6.189949,6.401803,6.14,NaN,0,5.865977,194,185
47699,76286071,0.2695602,0.001205981,0.281451,0.2585996,6.391264,6.594334,6.56,NaN,0,6.058103,188,183
48148,76392227,0.2594353,0.00104022,0.2752315,0.2585996,6.585681,6.77647,6.24,NaN,0,6.23969,181,177
48557,76500170,0.2320614,0.0007835031,0.2547012,0.2585996,6.772546,6.96075,6.71,NaN,0,6.423565,173,178
49004,76605824,0.2203412,0.0008030981,0.2312651,0.2585996,6.951176,7.142489,6.77,NaN,0,6.604664,164,173
49444,76713851,0.2161924,0.0007709414,0.2225161,0.2585996,7.120868,7.322775,6.55,NaN,0,6.78482,153,166
49893,76821370,0.204105,0.0006454289,0.2114483,0.2585996,7.280839,7.489239,6.87,NaN,0,6.951108,142,157
50336,76930021,0.2174065,0.0008281022,0.2104938,0.2585996,7.426523,7.644178,7.18,NaN,0,7.106078,130,143
50783,77038052,0.2002669,0.0009774416999999999,0.2089177,0.2585996,7.565083,7.783902,7.68,NaN,0,7.245558,117,129
51227,77148006,0.2044448,0.001317218,0.2069899,0.2585996,7.692067,7.911729,8.32,NaN,0,7.373926,105,114
51676,77262469,0.2181424,0.001575753,0.2149013,0.2585996,7.813135,8.034414999999999,8.44,NaN,0,7.496849,92,98
52120,77369542,0.2085305,0.001484588,0.2132894,0.2585996,7.916295,8.143814000000001,8.640000000000001,NaN,0,7.606767,79,85
52568,77476759,0.2183942,0.001491576,0.2153684,0.2585996,8.008095000000001,8.242559999999999,8.59,NaN,0,7.705666,67,72
52980,77584207,0.2243229,0.001917139,0.2207556,0.2585996,8.088882,8.330795,8.68,NaN,0,7.794137,55,57
53421,77691879,0.2158914,0.002832383,0.2197486,0.2585996,8.159114000000001,8.405963,10.1,NaN,0,7.869961,43,46
53868,77799060,0.2209296,0.004571319,0.2167806,0.2585996,8.219367999999999,8.482326,10.36,NaN,0,7.946484,32,34
54315,77908836,0.2330113,0.007053807,0.225898,0.2585996,8.270118,8.558709,10.09,NaN,0,8.022707,19,22
54761,78016811,0.2275876,0.008881345000000001,0.2326779,0.2585996,8.311778,8.625843,9.869999999999999,NaN,0,8.089283999999999,7,10
55173,78123653,0.2128329,0.008728415,0.2254536,0.2585996,8.344825999999999,8.679921,10.2,NaN,0,8.142477,-3,0
55621,78230930,0.2213175,0.008957699,0.2254926,0.2585996,8.369812,8.732475000000001,10.72,NaN,0,8.193481999999999,-14,-9
56062,78336964,0.2114489,0.008009374,0.2223965,0.2585996,8.386574,8.771523,10.53,NaN,0,8.230242000000001,-23,-17
56507,78442978,0.2246281,0.007470667,0.2251656,0.2585996,8.397546,8.806213,9.960000000000001,NaN,0,8.262703999999999,-32,-27
56949,78549191,0.224558,0.006384715,0.2324357,0.2585996,8.402284,8.822236999999999,9.59,NaN,0,8.275812999999999,-40,-37
57361,78654590,0.2111719,0.004809722,0.2229987,0.2585996,8.401546,8.825779000000001,8.99,NaN,0,8.274471999999999,-45,-41
57807,78763980,0.2288764,0.004680961,0.2244776,0.2585996,8.396261000000001,8.81115,9.300000000000001,NaN,0,8.250565999999999,-49,-49
58254,78873143,0.2440894,0.004832312,0.2386434,0.2585996,8.387205,8.781461,8.630000000000001,NaN,0,8.209761,-50,-54
58670,78981005,0.2581774,0.00524658,0.2482896,0.2585996,8.375937,8.735290000000001,7.73,NaN,0,8.153076,-48,-59
59109,79090195,0.2594338,0.005672455,0.2632096,0.2585996,8.363424,8.672694999999999,7.88,NaN,0,8.078206,-44,-61
59557,79198835,0.2688783,0.006016999,0.2720714,0.2585996,8.350922000000001,8.596283,7.81,NaN,0,7.987832,-37,-58
60001,79306971,0.2723576,0.005446732,0.2786761,0.2585996,8.33994,8.520517,7.62,NaN,0,7.897868,-28,-51
60416,79413965,0.2797881,0.004629552,0.2842414,0.2585996,8.330921,8.447412,7.54,NaN,0,7.807277,-19,-43
60858,79521985,0.2838314,0.003823251,0.2872469,0.2585996,8.325096,8.379803000000001,7.39,NaN,0,7.722173,-9,-32
61306,79627755,0.2840602,0.003036469,0.2864432,0.2585996,8.322753000000001,8.319464999999999,7.38,NaN,0,7.641816,0,-20
61750,79736418,0.2849499,0.002506346,0.2853637,0.2585996,8.324445000000001,8.266641,7.25,NaN,0,7.568033,9,-9
62199,79843396,0.2776475,0.001369566,0.2833253,0.2585996,8.330329000000001,8.228192,7.24,NaN,0,7.50971,18,0
62640,79953243,0.2713112,0.001137793,0.2786056,0.2585996,8.340325,8.199377,7.42,NaN,0,7.458243,26,14
63087,80063946,0.2594797,0.001569957,0.2691893,0.2585996,8.354597999999999,8.185715999999999,7.5,NaN,0,7.422228,33,26
63530,80171907,0.2618245,0.001648426,0.2663516,0.2585996,8.371468999999999,8.187751,7.7,NaN,0,7.404359,38,33
63945,80278800,0.2586139,0.001443774,0.2621541,0.2585996,8.391560999999999,8.201162999999999,7.42,NaN,0,7.397926,41,40
64389,80384830,0.2571919,0.001303583,0.2615716,0.2585996,8.413751,8.221481000000001,7.59,NaN,0,7.400315,43,43
64831,80492831,0.2608105,0.001438648,0.2606331,0.2585996,8.437327,8.246791999999999,7.71,NaN,0,7.406926,44,45
65277,80599573,0.2603429,0.00153628,0.2618139,0.2585996,8.461639,8.275244000000001,8.17,NaN,0,7.415748,44,46
65726,80708030,0.2540545,0.001368314,0.2578211,0.2585996,8.486084,8.312867000000001,8.359999999999999,NaN,0,7.434206,42,46
66139,80812289,0.2494221,0.001362622,0.2535762,0.2585996,8.510020000000001,8.357388,8.390000000000001,NaN,0,7.461255,39,44
66583,80920772,0.2491304,0.001537696,0.2516972,0.2585996,8.532804,8.405872,8.5,NaN,0,7.491414,35,42
67031,81028132,0.2466677,0.001528189,0.2478301,0.2585996,8.553841,8.454499,8.369999999999999,NaN,0,7.523623,30,39
67440,81134010,0.2414861,0.001464188,0.2467715,0.2585996,8.571705,8.49912,8.289999999999999,NaN,0,7.550741,25,34
67891,81242067,0.2445003,0.001445711,0.2462569,0.2585996,8.588020999999999,8.538294,8.57,NaN,0,7.571734,20,27
68331,81350827,0.2435094,0.001529112,0.2470361,0.2585996,8.601533999999999,8.572478,8.869999999999999,NaN,0,7.589249,15,21
68744,81458225,0.240758,0.002172664,0.2467819,0.2585996,8.612166999999999,8.600875,8.779999999999999,NaN,0,7.601982,10,17
69186,81565177,0.2343324,0.003504455,0.2429097,0.2585996,8.619961,8.623326,9.07,NaN,0,7.610601,6,12
69633,81677982,0.239006,0.003896788,0.2407932,0.2585996,8.625223999999999,8.643841999999999,9.050000000000001,NaN,0,7.618376,1,9
70084,81785590,0.2311723,0.002966225,0.2393578,0.2585996,8.627592999999999,8.660406,9.27,NaN,0,7.625289,-2,4
70527,81894264,0.2245493,0.001944914,0.2324019,0.2585996,8.627575,8.676743,9.449999999999999,NaN,0,7.633744,-6,1
70975,81999431,0.2322577,0.001820877,0.2317242,0.2585996,8.62532,8.687082,9.44,NaN,0,7.637118,-9,-1
71415,82107299,0.248702,0.002959564,0.2409398,0.2585996,8.621032,8.693784000000001,9.02,NaN,0,7.637785,-12,-8
71862,82214172,0.262833,0.004427195,0.2533333,0.2585996,8.614959000000001,8.693364000000001,9.09,NaN,0,7.631086,-15,-14
72304,82321136,0.236493,0.003273562,0.2567646,0.2585996,8.607417,8.685565,9.470000000000001,NaN,0,7.618771,-16,-16
72749,82428712,0.2312417,0.002223492,0.2425783,0.2585996,8.598784999999999,8.678380000000001,9.27,NaN,0,7.606825,-17,-16
73136,82535776,0.2715186,0.002846867,0.251386,0.2585996,8.589371,8.668329,9.289999999999999,NaN,0,7.590335,-18,-19
73550,82640904,0.2694005,0.002740473,0.268472,0.2585996,8.579487,8.651038,9.48,NaN,0,7.569131,-17,-22
73994,82750825,0.2237742,0.001598448,0.2426309,0.2585996,8.569485999999999,8.63668,9.42,NaN,0,7.549767,-17,-17
74445,82856626,0.218242,0.001389846,0.2311991,0.2585996,8.559616999999999,8.628766000000001,9.57,NaN,0,7.537771,-17,-12
74884,82964866,0.2127361,0.001156092,0.2171122,0.2585996,8.55001,8.619426000000001,9.029999999999999,NaN,0,7.524265,-16,-9
75301,83073742,0.2287736,0.001383618,0.2199081,0.2585996,8.540519,8.61153,8.949999999999999,NaN,0,7.51212,-16,-9
75747,83181819,0.2316737,0.001906663,0.2326328,0.2585996,8.53171,8.599645000000001,9.15,NaN,0,7.49684,-15,-12
76188,83288795,0.2326737,0.002605677,0.2339525,0.2585996,8.523657999999999,8.586990999999999,9.19,NaN,0,7.479944,-14,-12
76603,83394641,0.2385692,0.002975807,0.2352969,0.2585996,8.51604,8.574107,9.49,NaN,0,7.462894,-13,-14
77044,83502206,0.2504961,0.003222257,0.2451989,0.2585996,8.509181999999999,8.561705999999999,9.550000000000001,NaN,0,7.446167,-12,-15
77488,83610019,0.241485,0.003056571,0.2480174,0.2585996,8.503163000000001,8.550293999999999,9.720000000000001,NaN,0,7.429331,-10,-12
77931,83716866,0.2334162,0.00300701,0.2452255,0.2585996,8.498134,8.540215,9.470000000000001,NaN,0,7.414759,-9,-12
78347,83821249,0.2359085,0.002869084,0.2398454,0.2585996,8.493848,8.531022999999999,9.32,NaN,0,7.400989,-7,-9
78796,83929858,0.2289255,0.002611488,0.2415566,0.2585996,8.490527999999999,8.523538,9.57,NaN,0,7.388765,-6,-8
79242,84036955,0.2281889,0.002380088,0.2360101,0.2585996,8.487966999999999,8.519848,9.859999999999999,NaN,0,7.38017,-5,-6
79684,84145017,0.2427474,0.0024582,0.2413517,0.2585996,8.486176,8.519228,10.62,NaN,0,7.374652,-4,-6
80100,84251152,0.2362505,0.002390608,0.2413917,0.2585996,8.485035,8.523256,10.9,NaN,0,7.3753,-4,-5
80543,84359411,0.2305354,0.002259791,0.2364975,0.2585996,8.484363999999999,8.529387,10.78,NaN,0,7.377967,-5,-2
80991,84466809,0.2595316,0.002643853,0.2392467,0.2585996,8.483971,8.541475,10.37,NaN,0,7.387607,-6,-5
81431,84574191,0.2666162,0.003101379,0.2626275,0.2585996,8.483620999999999,8.552476,9.34,NaN,0,7.394152,-7,-9
81874,84683799,0.2337852,0.002236322,0.2527199,0.2585996,8.483131,8.559646000000001,9.789999999999999,NaN,0,7.398628,-8,-8
82287,84789843,0.2078174,0.00157249,0.2308497,0.2585996,8.482395,8.569333,10.09,NaN,0,7.405455,-9,-4
82731,84898054,0.2235366,0.00139764,0.2244966,0.2585996,8.48129,8.58164,8.56,NaN,0,7.414908,-11,-3
83178,85004231,0.228018,0.001488373,0.2326012,0.2585996,8.479691000000001,8.589599,8.59,NaN,0,7.419235,-12,-7
83587,85112310,0.1890609,0.001098335,0.214783,0.2585996,8.477553,8.591237,8.43,NaN,0,7.416327,-13,-4
84035,85218849,0.2043829,0.0007514209,0.1959758,0.2585996,8.474936,8.592618999999999,7.92,NaN,0,7.413314,-14,-1
84447,85327056,0.2012078,0.0005288124,0.1985325,0.2585996,8.471913000000001,8.587132,8.49,NaN,0,7.40376,-14,-5
84893,85434719,0.2087566,0.0005954206,0.1986281,0.2585996,8.468641999999999,8.576724,8.609999999999999,NaN,0,7.390141,-14,-7
85336,85544169,0.2337318,0.001013458,0.2133825,0.2585996,8.465337999999999,8.564438000000001,8.550000000000001,NaN,0,7.373948,-13,-8
85782,85650193,0.2546179,0.001451224,0.238616,0.2585996,8.462205000000001,8.547447999999999,9.51,NaN,0,7.353899,-11,-15
86225,85758831,0.2544363,0.001817763,0.2492372,0.2585996,8.459571,8.526062,8.9,NaN,0,7.3276,-9,-19
86644,85865058,0.2582885,0.001682967,0.2585048,0.2585996,8.457560000000001,8.507049,9.01,NaN,0,7.302979,-6,-18
87082,85973257,0.2556221,0.001051694,0.2587864,0.2585996,8.456448999999999,8.488673,8.449999999999999,NaN,0,7.27985,-3,-16
87525,86081992,0.2523306,0.0001213849,0.2569493,0.2585996,8.456372999999999,8.475880999999999,8.720000000000001,NaN,0,7.261457,-1,-10
87973,86188042,0.2447613,0.0001893342,0.2502823,0.2585996,8.457355,8.472469,9.02,NaN,0,7.253613,0,-6
88384,86295822,0.2216264,0.0006284267,0.2360605,0.2585996,8.459198000000001,8.480681000000001,9.58,NaN,0,7.257713,0,0
88828,86402183,0.2345504,0.0004868209,0.2325865,0.2585996,8.461722999999999,8.501719,9.24,NaN,0,7.274379,-1,2
89271,86510870,0.2237367,0.0001806766,0.2311006,0.2585996,8.464361999999999,8.530829000000001,9,NaN,0,7.300278,-3,2
89716,86618323,0.2181318,4.443526e-05,0.2219208,0.2585996,8.466754999999999,8.560451,8.880000000000001,NaN,0,7.327023,-7,2
90160,86726875,0.2219855,2.060831e-05,0.2249785,0.2585996,8.468368999999999,8.582902000000001,8.75,NaN,0,7.346766,-10,-1
90607,86832895,0.2390352,0.0002803952,0.2308733,0.2585996,8.469061999999999,8.593818000000001,9.039999999999999,NaN,0,7.355125,-12,-8
91017,86940208,0.2438614,0.001183838,0.2450891,0.2585996,8.46876,8.598392,8.880000000000001,NaN,0,7.357151,-13,-13
91465,87046461,0.2389997,0.001742423,0.2407961,0.2585996,8.467565,8.594452,9.15,NaN,0,7.350663,-14,-13
91910,87156791,0.2278503,0.00205195,0.2393982,0.2585996,8.465687000000001,8.584174000000001,8.800000000000001,NaN,0,7.339532,-14,-15
92357,87262803,0.2555571,0.00286898,0.243869,0.2585996,8.463412,8.571576,8.85,NaN,0,7.326086,-13,-16
92799,87370218,0.2612256,0.003536582,0.2558828,0.2585996,8.46102,8.555732000000001,9.25,NaN,0,7.311089,-11,-18
93209,87478049,0.2569782,0.003321558,0.2653593,0.2585996,8.45879,8.538726,9.119999999999999,NaN,0,7.294937,-10,-18
93654,87583823,0.2603257,0.002866358,0.2670029,0.2585996,8.456967000000001,8.521855,9.119999999999999,NaN,0,7.280783,-8,-18
94102,87692188,0.2644193,0.002332032,0.2695822,0.2585996,8.455753,8.507755,8.970000000000001,NaN,0,7.270925,-6,-15
94548,87798708,0.2476663,0.001909152,0.2608197,0.2585996,8.455278,8.496985,8.91,NaN,0,7.264405,-4,-11
94990,87905862,0.2484277,0.002075955,0.2533692,0.2585996,8.455584999999999,8.494025000000001,8.85,NaN,0,7.267732,-3,-5
95437,88012220,0.249719,0.002374649,0.2542982,0.2585996,8.456593,8.495786000000001,8.4,NaN,0,7.277296,-2,-4
95846,88121186,0.2427114,0.002447397,0.2516338,0.2585996,8.458157999999999,8.496991,8.69,NaN,0,7.286482,-1,-1
96295,88229391,0.2352832,0.002482772,0.2458224,0.2585996,8.460153,8.500142,9.25,NaN,0,7.29862,-1,1
96737,88336300,0.2393703,0.00279738,0.2435212,0.2585996,8.462452000000001,8.509931,8.9,NaN,0,7.31909,-2,1
97184,88444732,0.2382987,0.003045782,0.2458632,0.2585996,8.464847000000001,8.523376000000001,8.75,NaN,0,7.344322,-3,-1
97593,88552211,0.2297909,0.002873167,0.23977,0.2585996,8.467097000000001,8.534473999999999,8.74,NaN,0,7.369505,-4,0
98043,88662486,0.2360539,0.002807617,0.2390626,0.2585996,8.469099999999999,8.544091,9.32,NaN,0,7.393366,-5,-1
98485,88770180,0.2392744,0.002689987,0.2428337,0.2585996,8.470644999999999,8.554653999999999,9.890000000000001,NaN,0,7.420126,-7,-3
98896,88877157,0.2241902,0.002356708,0.2336997,0.2585996,8.471667,8.577249999999999,10.08,NaN,0,7.459911,-9,-3
99343,88984895,0.2191469,0.002349645,0.2286541,0.2585996,8.471895999999999,8.603775000000001,11.13,NaN,0,7.502534,-13,-4
99785,89091248,0.2278511,0.002593175,0.2214174,0.2585996,8.470997000000001,8.645979000000001,10.74,NaN,0,7.562537,-19,-7
100232,89196982,0.2192222,0.003073305,0.2249053,0.2585996,8.468513,8.688025,10.53,NaN,0,7.622551,-25,-13
100645,89305628,0.2277904,0.003810644,0.2240342,0.2585996,8.463971000000001,8.74241,10.4,NaN,0,7.695818,-33,-19
101091,89411201,0.2237227,0.004349738,0.2264134,0.2585996,8.456934,8.775751,10.24,NaN,0,7.748721,-40,-28
101533,89518936,0.232112,0.004783303,0.2320467,0.2585996,8.447511,8.799872000000001,10,NaN,0,7.791565,-46,-37
101981,89626348,0.2400827,0.005062431,0.2417353,0.2585996,8.435256000000001,8.808455,10.09,NaN,0,7.82048,-51,-46
102423,89734868,0.236213,0.004752353,0.2458993,0.2585996,8.421122,8.803656,9.84,NaN,0,7.836936,-54,-53
102868,89841738,0.2407019,0.004491806,0.2445069,0.2585996,8.404831,8.792934000000001,9.98,NaN,0,7.84747,-56,-56
103281,89948397,0.2554353,0.004511505,0.2481598,0.2585996,8.387727999999999,8.768412,10.12,NaN,0,7.844806,-57,-60
103728,90054234,0.2640932,0.004778773,0.2595795,0.2585996,8.369460999999999,8.743864,9.82,NaN,0,7.842116,-56,-61
104172,90163813,0.2546597,0.004551888,0.2638961,0.2585996,8.351017000000001,8.715804,8.98,NaN,0,7.837852,-55,-62
104620,90270449,0.2605948,0.00434202,0.2610257,0.2585996,8.3329,8.679071,9.199999999999999,NaN,0,7.824672,-53,-61
105032,90377899,0.2613366,0.003884971,0.2665282,0.2585996,8.315664999999999,8.632961,9.35,NaN,0,7.80473,-49,-58
105473,90487196,0.2648783,0.003258079,0.2652473,0.2585996,8.299894,8.589333999999999,9.880000000000001,NaN,0,7.78905,-44,-52
105921,90593141,0.2633271,0.002700925,0.2694333,0.2585996,8.286032000000001,8.555550999999999,8.970000000000001,NaN,0,7.781595,-40,-49
106364,90700176,0.2594528,0.002178073,0.265701,0.2585996,8.274296,8.531333,9.25,NaN,0,7.782082,-36,-42
106811,90806449,0.2447597,0.001657546,0.2565051,0.2585996,8.264711999999999,8.514091000000001,9.550000000000001,NaN,0,7.790223,-33,-36
107221,90914024,0.2455126,0.001473144,0.2518995,0.2585996,8.257199,8.504735999999999,9.65,NaN,0,7.805564,-31,-31
107669,91021986,0.2255107,0.001227424,0.24358,0.2585996,8.25156,8.503795999999999,9.720000000000001,NaN,0,7.818677,-30,-25
108112,91131167,0.2314599,0.001172036,0.2309075,0.2585996,8.247481000000001,8.508721,9.81,NaN,0,7.828608,-29,-22
108557,91235254,0.2482787,0.00146088,0.2344341,0.2585996,8.244611000000001,8.518255999999999,9.449999999999999,NaN,0,7.842683,-29,-22
109000,91343826,0.247031,0.001885191,0.2412725,0.2585996,8.242658,8.523343000000001,9.08,NaN,0,7.852461,-29,-24
109447,91450504,0.2492799,0.002181083,0.2432051,0.2585996,8.241291,8.521338,9.279999999999999,NaN,0,7.854859,-29,-25
109859,91556787,0.2488258,0.002247542,0.2461405,0.2585996,8.240504,8.513826999999999,9.57,NaN,0,7.851665,-27,-26
110307,91663443,0.262819,0.00233835,0.2540467,0.2585996,8.240263000000001,8.508181,8.6,NaN,0,7.849948,-26,-27
110746,91770221,0.2512174,0.001894653,0.2573446,0.2585996,8.240589,8.495728,8.539999999999999,NaN,0,7.841218,-24,-28
111196,91879408,0.2520167,0.001405835,0.2584212,0.2585996,8.24164,8.475992,9.25,NaN,0,7.82513,-21,-26
111639,91986168,0.2542078,0.001031101,0.2563119,0.2585996,8.243494,8.456770000000001,8.85,NaN,0,7.809112,-18,-22
112082,92095773,0.2570412,0.001102924,0.2561969,0.2585996,8.246337,8.440661,8.550000000000001,NaN,0,7.796719,-15,-20
112530,92202805,0.2630106,0.002316028,0.2601463,0.2585996,8.250381000000001,8.42179,8.390000000000001,NaN,0,7.780534,-12,-18
112972,92309966,0.2469142,0.002496049,0.2583847,0.2585996,8.255668,8.405093000000001,8.220000000000001,NaN,0,7.766445,-8,-13
113418,92414401,0.2380304,0.001553416,0.2515748,0.2585996,8.262257999999999,8.391062,7.74,NaN,0,7.754832,-5,-8
113829,92523985,0.2449396,0.0007306188,0.2415923,0.2585996,8.270163,8.375424000000001,7.34,NaN,0,7.741095,-1,-1
114278,92630065,0.2487634,0.000510782,0.248312,0.2585996,8.279401,8.359121999999999,7.12,NaN,0,7.726601,2,0
114720,92737797,0.2429065,0.0004977435,0.2465977,0.2585996,8.289448,8.333761000000001,7.41,NaN,0,7.703063,7,4
115167,92844979,0.2464191,0.0006374419,0.2468833,0.2585996,8.301589999999999,8.308885,7.73,NaN,0,7.679499,12,8
115609,92952855,0.2560457,0.0009604692,0.2473174,0.2585996,8.315440000000001,8.290213,7.6,NaN,0,7.661834,18,12
116056,93058030,0.254078,0.001128107,0.2483731,0.2585996,8.330995,8.278703,7.16,NaN,0,7.651484,22,17
116467,93165898,0.2691824,0.001555234,0.2620826,0.2585996,8.348141999999999,8.26962,7.4,NaN,0,7.643415,26,19
116908,93274147,0.2749709,0.002624124,0.2726901,0.2585996,8.366782000000001,8.259520999999999,7.56,NaN,0,7.634476,31,19
117354,93381431,0.2640629,0.00268355,0.2738744,0.2585996,8.386825999999999,8.248822000000001,7.39,NaN,0,7.625372,35,24
117801,93492304,0.2542917,0.001911312,0.2651631,0.2585996,8.409317,8.24817,7.48,NaN,0,7.626314,39,30
118251,93599641,0.268656,0.001696467,0.2632931,0.2585996,8.431794999999999,8.252485,7.34,NaN,0,7.631942,42,35
118694,93707006,0.2583617,0.001466751,0.2644211,0.2585996,8.455106000000001,8.262608999999999,7.42,NaN,0,7.64366,44,37
119140,93813643,0.2729813,0.001725614,0.2650358,0.2585996,8.478925,8.280430000000001,7.47,NaN,0,7.663213,45,40
119552,93921004,0.2814563,0.002201945,0.2781984,0.2585996,8.502878000000001,8.293157000000001,7.16,NaN,0,7.677832,46,39
119999,94028649,0.2553903,0.00164938,0.2726643,0.2585996,8.526726,8.306561,7.76,NaN,0,7.693045,47,40
120443,94137137,0.2358437,0.0007499605,0.249359,0.2585996,8.550281,8.326394000000001,8.210000000000001,NaN,0,7.714479,46,47
120886,94243434,0.2610022,0.0006829798,0.2486588,0.2585996,8.573264,8.356032000000001,8.699999999999999,NaN,0,7.74585,45,48
121324,94350623,0.2607737,0.0007891953,0.258125,0.2585996,8.594719,8.394550000000001,8.17,NaN,0,7.785886,42,45
121770,94458783,0.2625935,0.0009033978,0.2609966,0.2585996,8.615341000000001,8.435064000000001,7.89,NaN,0,7.827842,38,40
122181,94567276,0.2461664,0.0008305609,0.2552768,0.2585996,8.634112,8.470304,8.07,NaN,0,7.864904,35,38
122626,94674248,0.2494687,0.0008705407,0.2484968,0.2585996,8.650781,8.500182000000001,8.1,NaN,0,7.896088,31,37
123074,94779875,0.2518874,0.001012444,0.2515125,0.2585996,8.665213,8.527015,8.279999999999999,NaN,0,7.924371,27,31
123520,94886734,0.2543186,0.001211464,0.2555278,0.2585996,8.677365,8.547243999999999,8.27,NaN,0,7.945896,24,27
123931,94992899,0.2644788,0.001385033,0.2578357,0.2585996,8.687291,8.563008999999999,8.31,NaN,0,7.962974,21,22
124375,95101384,0.2597162,0.00151813,0.2610701,0.2585996,8.695126999999999,8.575473000000001,7.86,NaN,0,7.976894,19,18
124822,95209553,0.265418,0.001283556,0.2638409,0.2585996,8.701022999999999,8.583643,8.029999999999999,NaN,0,7.986369,16,15
125234,95316807,0.2597223,0.0008122921,0.2614704,0.2585996,8.705178,8.585203999999999,8.550000000000001,NaN,0,7.98909,15,14
125678,95422885,0.2627658,0.0007808506,0.2600095,0.2585996,8.707855,8.589271999999999,8.31,NaN,0,7.993959,13,13
126120,95528637,0.2546187,0.0008479953,0.2631372,0.2585996,8.709249,8.595984,8.300000000000001,NaN,0,8.001761,12,11
126569,95636636,0.2487676,0.0007726699,0.2563621,0.2585996,8.709476,8.603815000000001,8.539999999999999,NaN,0,8.010325,10,12
127012,95745403,0.2545667,0.001187593,0.2541066,0.2585996,8.708608999999999,8.612781999999999,8.720000000000001,NaN,0,8.019880000000001,8,10
127461,95854256,0.2604636,0.001509905,0.2564622,0.2585996,8.706692,8.621577,8.199999999999999,NaN,0,8.029552000000001,5,7
127906,95962626,0.260341,0.001535535,0.2603713,0.2585996,8.703757,8.630511,8.34,NaN,0,8.039806,3,4
128320,96067181,0.2598403,0.00148201,0.2607328,0.2585996,8.699846000000001,8.635736,8.59,NaN,0,8.045992,1,3
128770,96176152,0.2569752,0.001328498,0.2571761,0.2585996,8.695024,8.644176999999999,8.84,NaN,0,8.056272999999999,0,2
129179,96285138,0.251637,0.001099855,0.2572358,0.2585996,8.689323999999999,8.650463999999999,8.73,NaN,0,8.064329000000001,-2,0
129625,96392642,0.2600751,0.0008334517,0.258653,0.2585996,8.682796,8.65489,8.6,NaN,0,8.070807,-4,-1
130069,96502641,0.2622154,0.0007037222,0.261227,0.2585996,8.675514,8.65607,8.539999999999999,NaN,0,8.074344999999999,-6,-3
130516,96609160,0.2568972,0.0005998909,0.2600884,0.2585996,8.667585000000001,8.655411000000001,8.619999999999999,NaN,0,8.075753000000001,-7,-5
130957,96717790,0.2626258,0.0005982816,0.2610258,0.2585996,8.659134,8.653483,8.52,NaN,0,8.07626,-8,-7
131374,96823250,0.2580402,0.000538528,0.2598416,0.2585996,8.650283,8.649445999999999,8.77,NaN,0,8.074946000000001,-9,-7
131814,96931197,0.2633238,0.000533402,0.2629103,0.2585996,8.641405000000001,8.644688,8.66,NaN,0,8.072774000000001,-10,-10
132262,97037051,0.2716687,0.0005593001999999999,0.269897,0.2585996,8.632149999999999,8.637608999999999,8.880000000000001,NaN,0,8.068426000000001,-10,-11
132706,97145649,0.2746847,0.0005807876999999999,0.2722469,0.2585996,8.622892999999999,8.629932999999999,8.68,NaN,0,8.063635,-10,-12
133150,97251661,0.2802044,0.0005787015,0.2762475,0.2585996,8.613763000000001,8.622128,8.460000000000001,NaN,0,8.058636999999999,-10,-13
133559,97359602,0.2682136,0.0005001724,0.2717622,0.2585996,8.604869000000001,8.6135,8.56,NaN,0,8.052892999999999,-10,-11
134003,97467926,0.268766,0.0004251301,0.2707559,0.2585996,8.596311,8.60432,8.470000000000001,NaN,0,8.046886000000001,-9,-10
134417,97574694,0.2640655,0.0003479123,0.2664817,0.2585996,8.588163,8.598476,9.07,NaN,0,8.044286,-9,-8
134858,97682844,0.2613005,0.0003657937,0.2641892,0.2585996,8.580462000000001,8.596527,8.75,NaN,0,8.045662999999999,-9,-6
135305,97789362,0.2422808,0.0003287047,0.2535108,0.2585996,8.573153,8.601100000000001,8.94,NaN,0,8.053706999999999,-10,-4
135749,97896953,0.2525502,0.0003210008,0.2464642,0.2585996,8.566286,8.609719999999999,9.27,NaN,0,8.066012000000001,-11,-3
136165,98002492,0.2523909,0.0003266931,0.250174,0.2585996,8.559313,8.623127,9.029999999999999,NaN,0,8.082829,-13,-5
136610,98110768,0.2352985,0.0001928359,0.2471118,0.2585996,8.552175999999999,8.637767,8.609999999999999,NaN,0,8.101383,-16,-7
137054,98217021,0.2338398,0.0001399368,0.2394873,0.2585996,8.544665,8.648694000000001,8.960000000000001,NaN,0,8.116002999999999,-18,-9
137464,98325570,0.2366715,0.0001753718,0.2368441,0.2585996,8.536882,8.655427,8.92,NaN,0,8.126443999999999,-20,-10
137910,98432904,0.2511796,0.0003009439,0.2430773,0.2585996,8.52839,8.655601000000001,8.550000000000001,NaN,0,8.130684,-21,-14
138352,98541485,0.2522794,0.0002864003,0.2509195,0.2585996,8.519705999999999,8.649946999999999,8.6,NaN,0,8.129035999999999,-22,-18
138799,98646463,0.2500295,0.0001512468,0.2509668,0.2585996,8.510543999999999,8.635612999999999,8.57,NaN,0,8.1187,-22,-20
139240,98756013,0.253736,6.625056e-05,0.2513336,0.2585996,8.501402000000001,8.619,8.470000000000001,NaN,0,8.106512,-21,-21
139691,98863468,0.2575288,2.583861e-05,0.2531646,0.2585996,8.492552999999999,8.598765,8.59,NaN,0,8.090579999999999,-19,-20
140137,98971647,0.2554547,1.510978e-05,0.2578021,0.2585996,8.484266999999999,8.579039,8.300000000000001,NaN,0,8.075156,-17,-19
140582,99080637,0.2607053,1.299381e-05,0.2590537,0.2585996,8.476775999999999,8.557874999999999,8.68,NaN,0,8.058661000000001,-15,-18
140996,99188045,0.2466994,2.510846e-05,0.253646,0.2585996,8.470283999999999,8.541389000000001,8.16,NaN,0,8.046685,-13,-14
141437,99296442,0.2566754,7.4476e-05,0.2525096,0.2585996,8.464893,8.526702999999999,8.82,NaN,0,8.036683,-11,-12
141850,99400935,0.2614831,0.0001271367,0.2580411,0.2585996,8.460648000000001,8.517158,8.66,NaN,0,8.031593000000001,-9,-11
142291,99507360,0.2531638,0.0001112223,0.2554782,0.2585996,8.457584000000001,8.512461999999999,8.65,NaN,0,8.031162,-8,-8
142740,99614515,0.252416,0.0002092421,0.2535079,0.2585996,8.455423,8.513074,8.380000000000001,NaN,0,8.036244999999999,-7,-7
143181,99722617,0.2517211,0.0003008544,0.2524157,0.2585996,8.45411,8.513519000000001,8.42,NaN,0,8.041306000000001,-6,-5
143627,99828987,0.2583118,0.0003915727,0.2555807,0.2585996,8.453429,8.51248,8.49,NaN,0,8.044463,-6,-5
144038,99937387,0.2473646,0.0002821982,0.2540393,0.2585996,8.453321000000001,8.511430000000001,8.35,NaN,0,8.047609,-5,-5
144489,100044242,0.2544746,0.0002068877,0.2527092,0.2585996,8.453709,8.509789,8.68,NaN,0,8.050103999999999,-4,-4
144930,100154209,0.2618487,0.0001347959,0.2565432,0.2585996,8.454497999999999,8.509115,8.960000000000001,NaN,0,8.053656999999999,-4,-4
145377,100259627,0.2610021,0.0001313686,0.2604692,0.2585996,8.455673000000001,8.510419000000001,8.699999999999999,NaN,0,8.058897,-4,-4
145821,100369243,0.2591847,0.0001387596,0.25997,0.2585996,8.457129,8.513553999999999,8.380000000000001,NaN,0,8.066257999999999,-3,-5
146265,100474891,0.2612171,8.091331e-05,0.2612664,0.2585996,8.458769999999999,8.513987,8.75,NaN,0,8.070971,-3,-5
146677,100582633,0.2585592,2.044439e-05,0.2615571,0.2585996,8.460504,8.514274,8.81,NaN,0,8.075638,-3,-4
147086,100690657,0.2609451,1.788139e-05,0.2607004,0.2585996,8.462398,8.516128,9.109999999999999,NaN,0,8.081863,-3,-3
147531,100798218,0.2551677,2.461672e-05,0.2589624,0.2585996,8.464354999999999,8.522387999999999,8.6,NaN,0,8.092511,-3,-2
147943,100906791,0.2499491,3.093481e-05,0.2547446,0.2585996,8.466259000000001,8.530154,8.880000000000001,NaN,0,8.105015,-4,-2
148391,101011890,0.2512929,6.362796000000001e-05,0.252167,0.2585996,8.467999000000001,8.53834,9,NaN,0,8.117518,-5,-2
148837,101120764,0.2422329,4.75049e-05,0.2481122,0.2585996,8.469462,8.550095000000001,8.970000000000001,NaN,0,8.133538,-6,-1
149281,101226264,0.242913,1.5378e-05,0.2426329,0.2585996,8.470513,8.564029,9.369999999999999,NaN,0,8.151721999999999,-8,-2
149723,101334437,0.244217,6.578863e-05,0.2435801,0.2585996,8.470988999999999,8.580045,8.94,NaN,0,8.171873,-10,-4
150170,101440300,0.2377559,0.0003910214,0.2417169,0.2585996,8.470717,8.595675,9.300000000000001,NaN,0,8.191836,-13,-7
150613,101549020,0.2486628,0.0009503812,0.2443665,0.2585996,8.469617,8.609888,9.17,NaN,0,8.210162,-15,-9
151060,101655881,0.2409056,0.001401156,0.2430313,0.2585996,8.467539,8.618776,8.94,NaN,0,8.222758000000001,-17,-12
151502,101764762,0.2398256,0.001409426,0.2417161,0.2585996,8.464608999999999,8.623101999999999,9.01,NaN,0,8.231120000000001,-19,-14
151949,101871031,0.2384996,0.001208931,0.2405015,0.2585996,8.460762000000001,8.623034000000001,9.08,NaN,0,8.234653,-20,-16
152393,101980754,0.2466226,0.001104161,0.2459411,0.2585996,8.456224000000001,8.620604999999999,9.32,NaN,0,8.236024,-21,-20
152806,102090628,0.248309,0.001031563,0.2495771,0.2585996,8.451017999999999,8.616505999999999,9.19,NaN,0,8.235601000000001,-22,-21
153256,102199207,0.2499121,0.000878945,0.2491698,0.2585996,8.445557000000001,8.612135,9.109999999999999,NaN,0,8.234893,-22,-22
153697,102308290,0.2522811,0.0009058118,0.2524956,0.2585996,8.439857,8.604626,9.109999999999999,NaN,0,8.230886,-22,-23
154109,102411868,0.2532815,0.0008928478000000001,0.252408,0.2585996,8.434086000000001,8.597825,8.42,NaN,0,8.227358000000001,-22,-22
154549,102519754,0.2596046,0.0006777346,0.2557685,0.2585996,8.428535,8.584263,8.960000000000001,NaN,0,8.217473,-21,-23
154997,102627941,0.2512242,0.0005849302,0.2547186,0.2585996,8.423094000000001,8.571183,8.949999999999999,NaN,0,8.207788000000001,-20,-23
155436,102737025,0.2528119,0.0005613267,0.2536723,0.2585996,8.418087,8.562255,8.869999999999999,NaN,0,8.202202,-19,-21
155881,102841196,0.2511685,0.0005937517,0.2527232,0.2585996,8.413596,8.552382,8.880000000000001,NaN,0,8.195693,-18,-20
156323,102950805,0.2509168,0.0006391704,0.2530445,0.2585996,8.409765,8.547535999999999,8.81,NaN,0,8.194235000000001,-17,-19
156742,103057934,0.2567599,0.0005884171,0.2550437,0.2585996,8.406387,8.542083,8.960000000000001,NaN,0,8.192223,-16,-17
157183,103168023,0.2511867,0.0004575551,0.2544264,0.2585996,8.403570999999999,8.536727000000001,8.65,NaN,0,8.189995,-15,-16
157630,103274642,0.2467823,0.0008433163,0.2526532,0.2585996,8.401311,8.529076,8.9,NaN,0,8.1858,-14,-15
158038,103382824,0.2513832,0.002176791,0.2534865,0.2585996,8.399611999999999,8.525251000000001,8.57,NaN,0,8.185119,-14,-14
158445,103490187,0.2521853,0.003408223,0.2541471,0.2585996,8.398451,8.520155000000001,8.77,NaN,0,8.182921,-13,-13
158891,103597046,0.2432803,0.003791913,0.252612,0.2585996,8.397822,8.514654999999999,8.75,NaN,0,8.18013,-12,-11
159301,103704834,0.239169,0.003688008,0.2475274,0.2585996,8.39772,8.510965000000001,8.9,NaN,0,8.179010999999999,-11,-10
159749,103812825,0.2452276,0.003391191,0.2454047,0.2585996,8.398110000000001,8.510413,8.66,NaN,0,8.180861999999999,-10,-9
160190,103919915,0.2569197,0.003093243,0.2507246,0.2585996,8.398925,8.509912999999999,8.67,NaN,0,8.182209,-10,-8
160638,104026269,0.2508255,0.002556503,0.2543591,0.2585996,8.400100999999999,8.507308999999999,8.93,NaN,0,8.181267999999999,-9,-10
161047,104135043,0.2529617,0.002516329,0.2574216,0.2585996,8.401617999999999,8.504483,8.59,NaN,0,8.179907,-8,-10
161491,104242612,0.2525359,0.002614737,0.2550356,0.2585996,8.403449999999999,8.503529,8.77,NaN,0,8.180005,-7,-9
161933,104350634,0.2621357,0.002226353,0.2579191,0.2585996,8.405559999999999,8.503333,8.880000000000001,NaN,0,8.181024000000001,-7,-9
162346,104456247,0.2873809,0.001622796,0.2751157,0.2585996,8.407912,8.501559,8.56,NaN,0,8.179966,-6,-13
162790,104565293,0.2838713,0.001246572,0.2829942,0.2585996,8.410504,8.494588,8.59,NaN,0,8.173940999999999,-5,-14
163201,104675670,0.2933833,0.001041234,0.289079,0.2585996,8.413485,8.484171,9.140000000000001,NaN,0,8.164363,-3,-14
163645,104784668,0.2920189,0.001337081,0.2922405,0.2585996,8.4168,8.478954,8.800000000000001,NaN,0,8.159573999999999,-2,-12
164087,104893027,0.2815983,0.002246201,0.2881397,0.2585996,8.420553,8.476004,8.57,NaN,0,8.157386000000001,-1,-10
164532,105000981,0.2825219,0.002802908,0.2856862,0.2585996,8.4247,8.475705,8.640000000000001,NaN,0,8.157354,0,-6
164976,105109414,0.2638837,0.001525521,0.276345,0.2585996,8.429186,8.478431,8.85,NaN,0,8.160333,0,-2
165422,105217175,0.2636164,0.0009251237,0.2662098,0.2585996,8.433904,8.487382,8.539999999999999,NaN,0,8.169252,0,1
165833,105325850,0.275648,0.0009532869,0.2714262,0.2585996,8.438675,8.497354,8.66,NaN,0,8.179589999999999,0,0
166279,105433152,0.2670304,0.000949502,0.2719235,0.2585996,8.443331000000001,8.506055999999999,8.66,NaN,0,8.188658999999999,-1,0
166722,105540754,0.2775991,0.0008409023,0.2725218,0.2585996,8.447746,8.512687,8.59,NaN,0,8.195427,-2,-2
167163,105647584,0.274579,0.0006478727,0.2773498,0.2585996,8.451848,8.517182999999999,8.699999999999999,NaN,0,8.200388999999999,-2,-3
167573,105755263,0.2645098,0.0001554489,0.2719955,0.2585996,8.455615999999999,8.521088000000001,8.76,NaN,0,8.204651999999999,-2,-2
167984,105862483,0.2453951,2.135336e-05,0.2577007,0.2585996,8.459040999999999,8.528026000000001,8.81,NaN,0,8.211964,-3,0
168426,105970635,0.2477464,0.0002049059,0.24923,0.2585996,8.462059,8.539949,8.880000000000001,NaN,0,8.224154,-4,2
168838,106080096,0.2584707,0.0003225803,0.2539498,0.2585996,8.464553,8.551311,8.640000000000001,NaN,0,8.235661,-6,0
169284,106187564,0.2601009,0.000344485,0.2560379,0.2585996,8.466430000000001,8.561066,8.91,NaN,0,8.245476999999999,-7,-1
169723,106295757,0.2471367,0.0002994984,0.2530749,0.2585996,8.467638000000001,8.569039,8.66,NaN,0,8.253504,-9,-3
170136,106403410,0.2589533,0.0004878044,0.2515675,0.2585996,8.468164,8.574650999999999,8.68,NaN,0,8.258772,-10,-5
170581,106513427,0.2619988,0.0007717013,0.2588957,0.2585996,8.468040999999999,8.574762,9.08,NaN,0,8.258311000000001,-11,-8
170988,106618048,0.2661901,0.0008750558,0.2637751,0.2585996,8.467376,8.570703999999999,9.19,NaN,0,8.25365,-11,-11
171427,106726385,0.2614562,0.0009558201000000001,0.2632596,0.2585996,8.466324,8.566438,8.75,NaN,0,8.248407,-11,-11
171841,106833390,0.2587388,0.0008049607,0.259376,0.2585996,8.465026999999999,8.562091000000001,8.83,NaN,0,8.243206000000001,-11,-10
172281,106942467,0.2550578,0.0005603135,0.2564315,0.2585996,8.463596000000001,8.556319,8.640000000000001,NaN,0,8.236236999999999,-10,-8
172729,107048067,0.2572144,0.0005301237,0.2565117,0.2585996,8.462147999999999,8.549671999999999,8.52,NaN,0,8.228002999999999,-10,-9
173138,107154955,0.2524987,0.0006641746,0.2558057,0.2585996,8.460787,8.544511999999999,8.970000000000001,NaN,0,8.221477,-9,-8
173583,107260694,0.2427127,0.0008990765,0.2518292,0.2585996,8.459585000000001,8.540704,9.029999999999999,NaN,0,8.216372,-9,-7
174023,107367885,0.2409401,0.001077116,0.2448145,0.2585996,8.458574,8.540675999999999,9.289999999999999,NaN,0,8.214391000000001,-9,-4
174466,107473635,0.2439547,0.001066193,0.2448452,0.2585996,8.457732999999999,8.541418999999999,8.66,NaN,0,8.213402,-9,-5
174880,107581815,0.233694,0.0009552687,0.2402249,0.2585996,8.457008999999999,8.545502000000001,9.130000000000001,NaN,0,8.215386000000001,-9,-3
175320,107690367,0.2400576,0.0008530766,0.2402651,0.2585996,8.456321000000001,8.553274999999999,9.16,NaN,0,8.220940000000001,-10,-4
175766,107795369,0.2396302,0.000865072,0.240313,0.2585996,8.455519000000001,8.566756,9.130000000000001,NaN,0,8.232201,-12,-5
176211,107903064,0.2291448,0.0009125173000000001,0.237135,0.2585996,8.454411,8.580766000000001,8.98,NaN,0,8.244020000000001,-14,-6
176626,108009820,0.242091,0.001097038,0.2387013,0.2585996,8.452821,8.594018,8.890000000000001,NaN,0,8.254686,-16,-9
177068,108116875,0.2350767,0.001154169,0.2387779,0.2585996,8.450619,8.604016,8.720000000000001,NaN,0,8.262098,-18,-12
177511,108223363,0.2326189,0.001100749,0.2397358,0.2585996,8.447758,8.607851,8.74,NaN,0,8.263225,-19,-14
177950,108332773,0.2427529,0.001103505,0.2407479,0.2585996,8.444290000000001,8.60638,8.74,NaN,0,8.258794,-20,-17
178395,108439952,0.2471149,0.001082599,0.2433056,0.2585996,8.440343,8.600484,8.91,NaN,0,8.249876,-20,-18
178805,108548443,0.2488904,0.001269668,0.2463235,0.2585996,8.436207,8.592976,8.92,NaN,0,8.239285000000001,-20,-19
179253,108656073,0.2535672,0.00122717,0.2511259,0.2585996,8.431836000000001,8.584178,8.859999999999999,NaN,0,8.2272,-19,-20
179691,108762848,0.2547442,0.001233816,0.2543049,0.2585996,8.427489,8.574835999999999,8.93,NaN,0,8.214691999999999,-19,-21
180107,108869177,0.2623788,0.001297921,0.258682,0.2585996,8.423321,8.564114,8.859999999999999,NaN,0,8.200452,-18,-21
180550,108976225,0.2628827,0.001161575,0.260884,0.2585996,8.419480999999999,8.554164999999999,8.81,NaN,0,8.186971,-17,-21
180994,109084517,0.2626562,0.000951916,0.2623841,0.2585996,8.416084,8.543530000000001,9.02,NaN,0,8.172841,-16,-20
181437,109191463,0.2456194,0.0003999025,0.2560853,0.2585996,8.413225000000001,8.533104,8.960000000000001,NaN,0,8.158731,-14,-17
181879,109299205,0.2555397,5.844235e-05,0.2514676,0.2585996,8.410966999999999,8.527431,9.119999999999999,NaN,0,8.149404000000001,-13,-14
182321,109404982,0.2478595,1.259148e-05,0.2509392,0.2585996,8.409307,8.523497000000001,9.31,NaN,0,8.142058,-12,-12
182766,109514449,0.252626,5.424023e-06,0.2486853,0.2585996,8.408192,8.528045000000001,9.16,NaN,0,8.142944,-12,-10
183178,109621052,0.2437695,1.941621e-05,0.246338,0.2585996,8.407454,8.538054000000001,9.25,NaN,0,8.149544000000001,-13,-10
183621,109730019,0.2410665,0.0001364201,0.2416271,0.2585996,8.406871000000001,8.550428,8.91,NaN,0,8.141463,-14,-9
184066,109835001,0.2443089,0.0002667457,0.2453403,0.2585996,8.406226,8.558975,9.02,NaN,0,8.127748,-16,-12
184509,109944140,0.2506877,0.0004318953,0.2467131,0.2585996,8.405371000000001,8.566511,9.24,NaN,0,8.110533999999999,-17,-13
184923,110052243,0.2464233,0.0004730672,0.2468724,0.2585996,8.404223999999999,8.571949999999999,8.640000000000001,NaN,0,8.089804000000001,-18,-14
185365,110160834,0.2491902,0.0003701597,0.247016,0.2585996,8.402744,8.573126999999999,8.75,NaN,0,8.066712000000001,-18,-15
185777,110267002,0.2590111,0.0001594424,0.2526234,0.2585996,8.400976,8.567664000000001,9.16,NaN,0,8.036813,-18,-19
186222,110374774,0.2593656,4.136562e-05,0.2584002,0.2585996,8.399065999999999,8.559991,8.9,NaN,0,8.004289999999999,-18,-20
186671,110486259,0.2550877,2.530217e-05,0.2598066,0.2585996,8.397119999999999,8.551015,8.99,NaN,0,7.970213,-17,-20
187116,110593007,0.2569753,6.407499e-05,0.2560552,0.2585996,8.395372,8.543715000000001,8.74,NaN,0,7.938804,-16,-19
187523,110700056,0.2440635,4.838407e-05,0.252335,0.2585996,8.393867999999999,8.537145000000001,8.85,NaN,0,7.908056,-15,-16
187970,110807999,0.2444969,1.420081e-05,0.2459601,0.2585996,8.392671999999999,8.532309,8.99,NaN,0,7.879119,-15,-14
188413,110915792,0.2430564,2.156198e-05,0.2475937,0.2585996,8.39181,8.527884,8.619999999999999,NaN,0,7.850433,-14,-13
188860,111023813,0.2532557,1.400709e-05,0.2464762,0.2585996,8.391295,8.523032000000001,8.9,NaN,0,7.821571,-13,-13
189269,111130304,0.2564137,1.379848e-05,0.2518207,0.2585996,8.39115,8.516639,8.74,NaN,0,7.792817,-12,-13
189714,111236986,0.2524562,6.482005e-05,0.2532615,0.2585996,8.391418,8.508716,8.720000000000001,NaN,0,7.761631,-11,-12
190155,111344403,0.2614014,0.0002167225,0.2549622,0.2585996,8.392129000000001,8.501355999999999,8.43,NaN,0,7.73191,-9,-12
190599,111451392,0.2558803,0.0003673732,0.2553231,0.2585996,8.393364,8.492247000000001,8.9,NaN,0,7.699866,-8,-9
191010,111559406,0.239209,0.0002991259,0.2473835,0.2585996,8.395063,8.485464,8.6,NaN,0,7.671226,-6,-6
191453,111670888,0.2455733,4.434586e-05,0.2414453,0.2585996,8.397494,8.482612,8.42,NaN,0,7.645195,-5,-4
191898,111777992,0.2415202,4.635751e-05,0.2440165,0.2585996,8.400404999999999,8.480314999999999,8.359999999999999,NaN,0,7.620552,-4,-2
192344,111889459,0.2461079,0.000397414,0.2440301,0.2585996,8.403892000000001,8.476499,8.210000000000001,NaN,0,7.593733,-3,-2
192793,111996160,0.2463189,0.0009339005,0.2451338,0.2585996,8.407755,8.470151,8.44,NaN,0,7.568342,-1,-2
193236,112103180,0.2426943,0.001943782,0.2477722,0.2585996,8.412096999999999,8.463932,8.44,NaN,0,7.541448,0,-1
193681,112210159,0.2393683,0.00303106,0.244281,0.2585996,8.41694,8.458697000000001,8.49,NaN,0,7.516941,1,1
194121,112317248,0.2477049,0.003874049,0.2466547,0.2585996,8.422276999999999,8.457466999999999,8.720000000000001,NaN,0,7.498911,2,1
194566,112423376,0.245866,0.004001632,0.2479098,0.2585996,8.428043000000001,8.460461,8.58,NaN,0,7.486676,3,2
194977,112530879,0.2360409,0.003650382,0.2442239,0.2585996,8.434113999999999,8.468113000000001,8.33,NaN,0,7.4801,3,3
195420,112639296,0.2405607,0.003355443,0.2408745,0.2585996,8.440308999999999,8.477487,8.73,NaN,0,7.477617,2,4
195862,112747010,0.2385073,0.002946004,0.2393011,0.2585996,8.446135,8.489056,8.710000000000001,NaN,0,7.48055,2,4
196307,112852310,0.2332881,0.002508506,0.2415151,0.2585996,8.452059,8.501730999999999,8.81,NaN,0,7.484337,1,4
196721,112959752,0.2294422,0.00230284,0.2366377,0.2585996,8.457576,8.517318,8.640000000000001,NaN,0,7.494591,0,4
197165,113069742,0.2302857,0.001974449,0.2309404,0.2585996,8.462516000000001,8.530779000000001,8.44,NaN,0,7.501483,-1,3
197606,113178393,0.222906,0.001785666,0.2295548,0.2585996,8.466758,8.538603999999999,8.23,NaN,0,7.505363,-3,1
198021,113289212,0.232764,0.00161314,0.2314027,0.2585996,8.470376999999999,8.540637,8.720000000000001,NaN,0,7.5042,-3,0
198466,113394797,0.2352392,0.00134638,0.2343396,0.2585996,8.473271,8.541988999999999,8.859999999999999,NaN,0,7.503996,-4,-1
198910,113502946,0.231878,0.00105457,0.2366636,0.2585996,8.475629,8.544672,8.720000000000001,NaN,0,7.50513,-4,-3
199355,113609199,0.2306378,0.0006908476,0.2351963,0.2585996,8.477506999999999,8.546923,8.529999999999999,NaN,0,7.505832,-5,-5
199764,113715645,0.24806,0.0005966276,0.2389196,0.2585996,8.478945,8.547226,8.48,NaN,0,7.506135,-5,-6
200209,113821138,0.2381502,0.001032308,0.2416569,0.2585996,8.480015,8.544813,8.720000000000001,NaN,0,7.502746,-5,-7
200652,113930301,0.2384193,0.001871318,0.2417417,0.2585996,8.480822,8.541926,8.449999999999999,NaN,0,7.499706,-5,-6
201068,114036137,0.2447807,0.002947807,0.2430115,0.2585996,8.481457000000001,8.537936,8.789999999999999,NaN,0,7.493832,-5,-6
201511,114144591,0.2468372,0.004550144,0.2479041,0.2585996,8.482018,8.535183,8.69,NaN,0,7.490582,-4,-7
201955,114249744,0.2520649,0.00586918,0.2556194,0.2585996,8.482571,8.532434,8.550000000000001,NaN,0,7.486193,-4,-9
202393,114357867,0.2502567,0.006564647,0.2554077,0.2585996,8.48315,8.528573,8.65,NaN,0,7.48134,-3,-8
202839,114464193,0.2564089,0.006555915,0.2603877,0.2585996,8.483815,8.525014000000001,8.73,NaN,0,7.477026,-3,-6
203250,114572895,0.2560958,0.005931407,0.2625853,0.2585996,8.484612,8.522080000000001,8.59,NaN,0,7.473101,-2,-7
203661,114683262,0.2542505,0.005477399,0.2610427,0.2585996,8.485595,8.519088,8.220000000000001,NaN,0,7.468697,-2,-6
204105,114791513,0.256231,0.004992872,0.2596954,0.2585996,8.486732999999999,8.514366000000001,8.48,NaN,0,7.462464,-1,-4
204546,114900391,0.241789,0.004448012,0.2544023,0.2585996,8.488097,8.510249,8.720000000000001,NaN,0,7.457264,0,-2
204995,115006526,0.2406003,0.004072875,0.2511888,0.2585996,8.489706999999999,8.510914,8.35,NaN,0,7.457486,0,-1
205407,115115417,0.2549983,0.004798234,0.2530004,0.2585996,8.49152,8.51158,8.16,NaN,0,7.456565,0,1
205852,115222448,0.24455,0.00526537,0.2544456,0.2585996,8.493487999999999,8.509455000000001,8.380000000000001,NaN,0,7.452029,0,0
206262,115329630,0.241025,0.005203038,0.2484644,0.2585996,8.495559,8.506694,8.539999999999999,NaN,0,7.448818,1,2
206707,115435960,0.2413832,0.00441286,0.2483118,0.2585996,8.497859,8.506278999999999,8.68,NaN,0,7.447801,1,1
207151,115544873,0.2403029,0.003497541,0.246286,0.2585996,8.500247999999999,8.507959,8.449999999999999,NaN,0,7.448466,1,2
207564,115652449,0.239629,0.002689883,0.246082,0.2585996,8.502801,8.510588,8.51,NaN,0,7.449157,1,3
208002,115760045,0.227907,0.00241144,0.2396887,0.2585996,8.505397,8.514079000000001,8.109999999999999,NaN,0,7.45129,1,3
208445,115867272,0.2372957,0.002649531,0.2386369,0.2585996,8.507968,8.516118000000001,7.96,NaN,0,7.452063,1,3
208890,115973985,0.2612953,0.003277987,0.2510565,0.2585996,8.510498999999999,8.510194,8.460000000000001,NaN,0,7.445452,2,0
209332,116081238,0.2568161,0.003127903,0.2620759,0.2585996,8.513093,8.500218,8.029999999999999,NaN,0,7.433798,4,0
209748,116188736,0.2661227,0.003073424,0.2623186,0.2585996,8.515897000000001,8.48737,8.279999999999999,NaN,0,7.41911,5,0
210189,116295858,0.2625066,0.002662182,0.2627417,0.2585996,8.518981,8.475141000000001,8.619999999999999,NaN,0,7.405691,7,0
210634,116403614,0.2561139,0.002359301,0.2638527,0.2585996,8.522643,8.468375999999999,8.49,NaN,0,7.398828,9,3
211077,116511597,0.2476241,0.002108306,0.2551498,0.2585996,8.526835999999999,8.469388,8.300000000000001,NaN,0,7.398497,10,7
211491,116617913,0.2466165,0.002244547,0.2502438,0.2585996,8.531457,8.475172000000001,8.529999999999999,NaN,0,7.402114,10,10
211932,116725195,0.2440658,0.002386481,0.2494913,0.2585996,8.536339,8.484756000000001,8.449999999999999,NaN,0,7.411187,10,11
212378,116832960,0.2381452,0.002454668,0.2442018,0.2585996,8.541283999999999,8.497028999999999,8.640000000000001,NaN,0,7.422705,9,12
212790,116940150,0.2556973,0.002767235,0.2494101,0.2585996,8.546077,8.509361,8.460000000000001,NaN,0,7.434533,8,10
213235,117047515,0.2499305,0.002746314,0.2534891,0.2585996,8.550546000000001,8.518573999999999,8.529999999999999,NaN,0,7.443906,7,7
213676,117157587,0.2311103,0.0024416,0.2479139,0.2585996,8.554586,8.529374000000001,8.699999999999999,NaN,0,7.45289,6,8
214121,117263995,0.2291045,0.002349272,0.2383279,0.2585996,8.558097999999999,8.541922,8.220000000000001,NaN,0,7.464614,4,9
214562,117373165,0.2482638,0.002717525,0.242691,0.2585996,8.560962999999999,8.552906,8.59,NaN,0,7.474446,3,7
214974,117481763,0.2439041,0.002638087,0.2454348,0.2585996,8.563122999999999,8.559714,8.949999999999999,NaN,0,7.481026,2,4
215418,117588277,0.2392534,0.002575547,0.2422728,0.2585996,8.564579,8.568196,8.880000000000001,NaN,0,7.489195,0,3
215859,117697780,0.2553378,0.002891839,0.2460451,0.2585996,8.565322,8.576749,9.460000000000001,NaN,0,7.496443,0,2
216304,117803761,0.2520681,0.002935559,0.2532909,0.2585996,8.565337,8.585042,9.33,NaN,0,7.504347,-2,-2
216713,117910578,0.2533946,0.002800852,0.2507301,0.2585996,8.564594,8.597557999999999,8.58,NaN,0,7.516237,-4,-2
217161,118017897,0.2629545,0.002829134,0.259959,0.2585996,8.563034,8.604055000000001,8.779999999999999,NaN,0,7.522277,-6,-8
217570,118127296,0.2528218,0.002761811,0.2558396,0.2585996,8.560696,8.605549999999999,9.51,NaN,0,7.521902,-7,-7
218014,118235056,0.2490517,0.002474904,0.2526963,0.2585996,8.55768,8.610139,9.42,NaN,0,7.525713,-8,-7
218456,118341830,0.2461228,0.002200127,0.2504109,0.2585996,8.554245,8.617723,8.720000000000001,NaN,0,7.532275,-10,-8
219211,118554255,0.2464291,0.001817033,0.2454971,0.2585996,8.545097,8.623861,8.49,NaN,0,7.535636,-13,-10
219655,118664638,0.2328801,0.001761153,0.2426086,0.2585996,8.539531,8.619699000000001,9.68,NaN,0,7.530131,-13,-10
220100,118771376,0.2374341,0.001854166,0.239818,0.2585996,8.533723999999999,8.618456,9.289999999999999,NaN,0,7.526896,-14,-10
220542,118878766,0.2542521,0.002044499,0.2486699,0.2585996,8.527789,8.621904000000001,8.74,NaN,0,7.530772,-15,-14
220991,118984755,0.2438094,0.001937523,0.2508602,0.2585996,8.521416,8.62406,8.81,NaN,0,7.530768,-17,-15
221431,119091268,0.2490338,0.001899198,0.2491745,0.2585996,8.514785,8.619203000000001,8.720000000000001,NaN,0,7.525438,-17,-16
221877,119199065,0.2498333,0.001783893,0.2494838,0.2585996,8.508005000000001,8.610813,9.220000000000001,NaN,0,7.517339,-17,-17
222284,119305820,0.243903,0.001566157,0.2492931,0.2585996,8.501236,8.602454,8.99,NaN,0,7.508271,-17,-17
222731,119412728,0.2422481,0.001560777,0.2460017,0.2585996,8.494617,8.59535,8.85,NaN,0,7.498946,-16,-15
223141,119521365,0.2525797,0.001618385,0.2480821,0.2585996,8.488394,8.588874000000001,8.550000000000001,NaN,0,7.492531,-16,-15
223587,119628825,0.2477861,0.001502678,0.248895,0.2585996,8.482315,8.578013,9.029999999999999,NaN,0,7.4809,-15,-16
224028,119736051,0.2511345,0.001466423,0.2516583,0.2585996,8.476808999999999,8.569082,8.66,NaN,0,7.469535,-14,-15
224475,119842636,0.2598137,0.001338661,0.2567601,0.2585996,8.47166,8.55799,8.619999999999999,NaN,0,7.457756,-13,-17
224917,119949456,0.2415758,0.001110196,0.2539865,0.2585996,8.467112999999999,8.544166000000001,8.550000000000001,NaN,0,7.443939,-12,-14
225361,120056948,0.2483414,0.001256868,0.2509052,0.2585996,8.463284,8.531425,8.43,NaN,0,7.428772,-10,-12
225770,120164224,0.2512251,0.001245856,0.2520544,0.2585996,8.460262999999999,8.516367000000001,8.050000000000001,NaN,0,7.413051,-8,-10
226211,120273969,0.2460159,0.001274854,0.2498846,0.2585996,8.458207,8.500093,8.23,NaN,0,7.396892,-5,-8
226658,120381211,0.2311882,0.001300633,0.2370164,0.2585996,8.457101,8.486318000000001,7.38,NaN,0,7.382399,-3,-1
227070,120489008,0.2555603,0.001767397,0.2445464,0.2585996,8.457051999999999,8.470283999999999,7.46,NaN,0,7.366655,0,-2
227515,120595958,0.2554702,0.002239466,0.2568032,0.2585996,8.458143,8.447943,7.89,NaN,0,7.343925,2,-1
227923,120703865,0.2441856,0.002651319,0.2496027,0.2585996,8.460566999999999,8.427422999999999,7.93,NaN,0,7.324641,6,2
228368,120811264,0.2582297,0.003266215,0.2538964,0.2585996,8.46442,8.411695999999999,7.9,NaN,0,7.309387,10,4
228811,120918239,0.2645306,0.003763318,0.2638479,0.2585996,8.469715000000001,8.398834000000001,7.77,NaN,0,7.297532,13,6
229226,121025142,0.2503027,0.002983242,0.2603449,0.2585996,8.476416,8.389761999999999,8.59,NaN,0,7.288017,16,10
229667,121132199,0.2508094,0.001158804,0.2511633,0.2585996,8.484194,8.389393999999999,7.93,NaN,0,7.287146,18,15
230113,121240852,0.245434,9.380281e-05,0.2469122,0.2585996,8.493255,8.394645000000001,8.24,NaN,0,7.291893,19,19
230553,121348620,0.2320968,9.398162e-05,0.2391795,0.2585996,8.503126999999999,8.407323999999999,9.27,NaN,0,7.304236,20,22
231000,121455958,0.2213293,0.0002147704,0.2329725,0.2585996,8.513453,8.433448,9.710000000000001,NaN,0,7.331445,18,26
231443,121563411,0.2231072,0.0001410097,0.2248109,0.2585996,8.523721,8.474771,9.380000000000001,NaN,0,7.371645,15,25
231889,121670048,0.2341712,4.49121e-05,0.2276081,0.2585996,8.533283000000001,8.519493000000001,9.140000000000001,NaN,0,7.41549,10,22
232335,121777302,0.2271291,3.390014e-05,0.2261256,0.2585996,8.541731,8.560473,9.949999999999999,NaN,0,7.455845,5,16
232751,121882846,0.2248315,4.027784e-05,0.2273417,0.2585996,8.548183999999999,8.599323999999999,9.23,NaN,0,7.494398,0,11
233195,121991059,0.2178239,2.871454e-05,0.2208549,0.2585996,8.552538,8.633378,9.51,NaN,0,7.527308,-4,6
233642,122100300,0.2390057,4.410744e-05,0.2264434,0.2585996,8.554603,8.661216,8.66,NaN,0,7.554329,-9,0
234087,122207856,0.2193592,0.0004095882,0.2309794,0.2585996,8.554319,8.676546,9.4,NaN,0,7.568553,-13,-7
234527,122315643,0.2222958,0.00148423,0.2255121,0.2585996,8.551833,8.684595,8.949999999999999,NaN,0,7.576434,-16,-10
234974,122423400,0.2378905,0.002733245,0.2344664,0.2585996,8.547396000000001,8.686401999999999,9.02,NaN,0,7.577028,-19,-15
235415,122531469,0.2402582,0.003809288,0.2419683,0.2585996,8.541331,8.680166,9.06,NaN,0,7.570067,-20,-20
235830,122639908,0.2372614,0.005341366,0.2423516,0.2585996,8.534022,8.668908999999999,8.630000000000001,NaN,0,7.556949,-21,-21
236273,122749150,0.2564265,0.007057965,0.2519845,0.2585996,8.525878000000001,8.652340000000001,8.98,NaN,0,7.539166,-21,-24
236719,122857228,0.2572208,0.007407039,0.2569676,0.2585996,8.51731,8.631618,8.94,NaN,0,7.517957,-20,-25
237162,122964448,0.2582054,0.006961316,0.2623197,0.2585996,8.508732999999999,8.608703,9.23,NaN,0,7.494591,-18,-24
