LineNo,TimeUS,Instance,RPM,RawRPM,Volt,Curr,Temp,CTot,MotTemp,Err
1649,6.5359e+07,0,0,0,16.67,0.04,31,0,0,0
2101,6.5463e+07,0,0,0,16.67,0.04,31,0,0,0
2558,6.5572e+07,0,0,0,16.67,0.04,31,0,0,0
3010,6.568e+07,0,0,0,16.67,0.04,31,0,0,0
3472,6.5787e+07,0,0,0,16.67,0.04,31,0,0,0
3967,6.5902e+07,0,0,0,16.67,0.04,31,0,0,0
4423,6.6003e+07,0,0,0,16.67,0.04,31,0,0,0
4873,6.6109e+07,0,0,0,16.67,0.05,31,0,0,0
5371,6.6223e+07,0,0,0,16.67,0.05,31,0,0,0
5823,6.6329e+07,0,0,0,16.67,0.04,31,0,0,0
6279,6.6433e+07,0,0,0,16.67,0.04,31,0,0,0
6734,6.6542e+07,0,0,0,16.67,0.04,31,0,0,0
7187,6.6645e+07,0,0,0,16.67,0.04,31,0,0,0
7676,6.6757e+07,0,0,0,16.67,0.04,31,0,0,0
8134,6.6865e+07,0,3,242,16.66,0.06,31,0,0,0
8589,6.6967e+07,0,248,642,16.63,0.11,31,0,0,0
9126,6.7093e+07,0,688,1085,16.64,0.18,31,0,0,0
9579,6.7196e+07,0,1102,1271,16.65,0.12,31,0,0,0
10030,6.7302e+07,0,1274,1314,16.65,0.12,31,0,0,0
10485,6.7403e+07,0,1315,1342,16.64,0.11,31,0,0,0
10937,6.7511e+07,0,1342,1342,16.65,0.11,31,0,0,0
11389,6.7614e+07,0,1342,1357,16.65,0.11,31,0,0,0
11847,6.7725e+07,0,1356,1342,16.64,0.11,31,0,0,0
12787,6.7938e+07,0,1342,1357,16.65,0.11,31,0,0,0
13287,6.8055e+07,0,1357,1357,16.65,0.11,31,0,0,0
13534,6.8159e+07,0,1355,1342,16.65,0.11,31,0,0,0
13986,6.8262e+07,0,1342,1342,16.65,0.11,31,0,0,0
14478,6.8372e+07,0,1342,1357,16.65,0.11,31,0,0,0
14932,6.848e+07,0,1355,1342,16.65,0.11,31,0,0,0
15387,6.8585e+07,0,1342,1357,16.64,0.11,31,0,0,0
15842,6.8694e+07,0,1357,1357,16.65,0.11,31,0,0,0
16348,6.8808e+07,0,1357,1357,16.65,0.11,31,0,0,0
16801,6.8916e+07,0,1357,1357,16.66,0.11,31,0,0,0
17304,6.9031e+07,0,1355,1342,16.65,0.11,31,0,0,0
17754,6.9137e+07,0,1343,1357,16.65,0.11,31,0,0,0
18207,6.9239e+07,0,1357,1357,16.64,0.11,31,0,0,0
18660,6.9345e+07,0,1357,1357,16.64,0.11,31,0,0,0
19115,6.9452e+07,0,1356,1342,16.65,0.11,31,0,0,0
19565,6.9557e+07,0,1342,1357,16.65,0.11,31,0,0,0
20064,6.9674e+07,0,1357,1357,16.64,0.11,31,0,0,0
20517,6.9777e+07,0,1355,1342,16.64,0.11,31,0,0,0
20973,6.9885e+07,0,1343,1357,16.65,0.11,31,0,0,0
21471,6.9998e+07,0,1357,1357,16.65,0.11,31,0,0,0
23328,7.0429e+07,0,1357,1357,16.65,0.11,31,0,0,0
23781,7.0536e+07,0,1357,1357,16.64,0.11,31,0,0,0
24232,7.0638e+07,0,1357,1357,16.64,0.11,31,0,0,0
24691,7.0749e+07,0,1357,1357,16.65,0.11,31,0,0,0
25118,7.0854e+07,0,1357,1357,16.64,0.11,31,0,0,0
25607,7.0967e+07,0,1357,1357,16.64,0.11,31,0,0,0
26062,7.1068e+07,0,1357,1357,16.65,0.11,31,0,0,0
26517,7.1176e+07,0,1360,1457,16.63,0.19,31,0,0,0
27012,7.1293e+07,0,1495,1900,16.57,0.51,31,0,0,0
27459,7.14e+07,0,1957,2571,16.32,1.36,31,0,0,0
27867,7.1502e+07,0,2598,3271,16.32,1.7,31,0,0,0
28360,7.1612e+07,0,3288,3457,16.04,2.67,31,0,0,0
28807,7.1722e+07,0,3538,4442,15.76,4.87,31,0,0,0
29263,7.1827e+07,0,4485,5442,15.8,4.23,31,0,0,0
29717,7.1936e+07,0,5448,5942,15.9,3.93,31,1,0,0
30214,7.2051e+07,0,5951,6042,15.93,3.92,31,1,0,0
30666,7.2159e+07,0,6064,6285,15.9,4.21,31,1,0,0
31157,7.227e+07,0,6276,6200,15.93,4.19,31,1,0,0
32514,7.2596e+07,0,6202,6500,15.86,4.62,31,1,0,0
33009,7.2714e+07,0,6506,6571,15.85,4.81,31,1,0,0
33464,7.2822e+07,0,6561,6471,15.84,4.89,31,2,0,0
33878,7.2925e+07,0,6472,6628,15.89,4.7,32,2,0,0
34377,7.3043e+07,0,6612,6457,15.84,4.55,32,2,0,0
34785,7.3144e+07,0,6458,6571,15.86,4.53,32,2,0,0
35241,7.325e+07,0,6570,6542,15.8,4.58,32,2,0,0
35734,7.337e+07,0,6537,6485,15.76,4.64,32,2,0,0
36187,7.3476e+07,0,6479,6428,15.76,4.84,32,2,0,0
36635,7.3584e+07,0,6428,6442,15.83,4.85,32,3,0,0
37085,7.3694e+07,0,6450,6642,15.76,4.93,32,3,0,0
37543,7.3801e+07,0,6644,6671,15.76,4.96,32,3,0,0
37996,7.3911e+07,0,6678,6771,15.79,4.98,32,3,0,0
38446,7.4017e+07,0,6769,6714,15.75,5.17,32,3,0,0
38894,7.4127e+07,0,6714,6728,15.8,4.82,32,3,0,0
39395,7.4241e+07,0,6722,6671,15.66,5.5,32,4,0,0
39847,7.4351e+07,0,6690,6900,15.79,5.34,32,4,0,0
40299,7.4459e+07,0,6887,6742,15.82,5,32,4,0,0
41655,7.479e+07,0,6745,6857,15.73,5.39,32,4,0,0
42057,7.4893e+07,0,6850,6771,15.75,5.11,32,4,0,0
42511,7.5003e+07,0,6769,6757,15.8,5.05,32,5,0,0
42956,7.5115e+07,0,6748,6628,15.8,4.88,32,5,0,0
43405,7.5224e+07,0,6629,6642,15.78,4.79,32,5,0,0
44259,7.5435e+07,0,6643,6842,15.77,4.59,32,5,0,0
44743,7.5552e+07,0,6821,6542,15.72,4.84,32,5,0,0
45150,7.5653e+07,0,6542,6557,15.77,4.5,32,6,0,0
45600,7.5767e+07,0,6552,6485,15.75,4.63,32,6,0,0
46046,7.588e+07,0,6503,6657,15.75,4.49,32,6,0,0
46495,7.5988e+07,0,6644,6471,15.7,4.19,32,6,0,0
46904,7.6093e+07,0,6468,6442,15.67,4.57,32,6,0,0
47350,7.62e+07,0,6445,6500,15.7,4.56,32,6,0,0
47793,7.6308e+07,0,6495,6400,15.75,4.34,32,6,0,0
48286,7.6424e+07,0,6414,6557,15.71,4.96,32,7,0,0
48685,7.6524e+07,0,6555,6514,15.8,4.36,32,7,0,0
49138,7.6634e+07,0,6510,6428,15.89,4.03,32,7,0,0
49581,7.6743e+07,0,6419,6200,15.85,4.17,33,7,0,0
50029,7.685e+07,0,6202,6385,15.91,3.74,32,7,0,0
50515,7.697e+07,0,6360,6114,15.89,4.04,32,7,0,0
50953,7.7079e+07,0,6121,6214,15.9,3.8,32,7,0,0
51406,7.7192e+07,0,6189,5971,15.85,3.47,32,7,0,0
51813,7.7294e+07,0,5977,6100,15.76,4.08,33,7,0,0
52296,7.7406e+07,0,6098,6085,15.91,3.67,33,8,0,0
52746,7.7521e+07,0,6085,6085,15.83,3.92,33,8,0,0
53195,7.763e+07,0,6074,5985,15.9,3.69,33,8,0,0
53602,7.7734e+07,0,5989,6042,15.95,3.68,33,8,0,0
54053,7.7845e+07,0,6044,6100,15.85,3.77,33,8,0,0
54536,7.796e+07,0,6098,6085,15.79,3.67,33,8,0,0
54945,7.8058e+07,0,6085,6100,15.86,3.89,33,8,0,0
55394,7.8174e+07,0,6109,6200,15.9,3.63,33,8,0,0
55841,7.829e+07,0,6191,6142,15.78,3.9,33,8,0,0
56244,7.8385e+07,0,6140,6057,15.91,3.52,33,9,0,0
57171,7.8605e+07,0,6065,6271,15.89,3.95,33,9,0,0
57585,7.8711e+07,0,6263,6185,15.84,3.63,33,9,0,0
58031,7.8817e+07,0,6182,6000,15.83,3.93,33,9,0,0
58525,7.8942e+07,0,6032,6285,15.82,4.01,33,9,0,0
58930,7.9041e+07,0,6292,6514,15.75,4.46,33,9,0,0
59374,7.9151e+07,0,6522,6685,15.72,4.8,33,9,0,0
59822,7.9262e+07,0,6683,6657,15.64,5.12,33,10,0,0
60271,7.9375e+07,0,6665,6785,15.6,5.28,33,10,0,0
60719,7.9488e+07,0,6785,6785,15.68,5.33,33,10,0,0
61165,7.9594e+07,0,6788,6828,15.64,5.33,33,10,0,0
61611,7.9703e+07,0,6830,6857,15.67,5.44,33,10,0,0
62059,7.981e+07,0,6857,6857,15.64,5.21,33,10,0,0
62509,7.9924e+07,0,6857,6857,15.57,5.57,33,11,0,0
62913,8.002e+07,0,6855,6771,15.67,5.15,33,11,0,0
63395,8.014e+07,0,6763,6685,15.7,4.99,34,11,0,0
63802,8.0236e+07,0,6684,6657,15.7,4.98,33,11,0,0
64249,8.035e+07,0,6657,6657,15.69,5.2,33,11,0,0
64740,8.0465e+07,0,6661,6714,15.72,4.8,33,11,0,0
65142,8.0568e+07,0,6716,6785,15.68,4.43,33,11,0,0
65586,8.0676e+07,0,6777,6628,15.73,4.68,34,12,0,0
66080,8.0793e+07,0,6618,6485,15.69,4.64,34,12,0,0
66485,8.0896e+07,0,6481,6442,15.77,4.3,33,12,0,0
66940,8.1008e+07,0,6431,6285,15.7,4.46,34,12,0,0
67385,8.1117e+07,0,6289,6328,15.71,4.24,33,12,0,0
67795,8.1218e+07,0,6329,6457,15.75,4.12,34,12,0,0
68242,8.133e+07,0,6450,6300,15.69,4.05,34,12,0,0
68694,8.1442e+07,0,6289,6042,15.78,3.45,34,13,0,0
69176,8.1558e+07,0,6026,5857,15.8,3.14,34,13,0,0
69626,8.1667e+07,0,5851,5785,15.78,3.4,34,13,0,0
70077,8.178e+07,0,5819,6185,15.73,4.51,34,13,0,0
70482,8.1884e+07,0,6201,6542,15.82,5.06,34,13,0,0
70979,8.2e+07,0,6551,6657,15.76,5.13,34,13,0,0
71869,8.2217e+07,0,6650,6500,15.6,5.61,34,13,0,0
72311,8.2324e+07,0,6540,6928,15.64,5.5,34,14,0,0
72794,8.2436e+07,0,6886,6457,15.69,4.98,34,14,0,0
73181,8.2544e+07,0,6453,6400,15.64,5.34,34,14,0,0
73635,8.2655e+07,0,6418,6657,15.59,5.12,34,14,0,0
74039,8.2759e+07,0,6658,6742,15.74,5.06,34,14,0,0
74536,8.2875e+07,0,6708,6357,15.77,4.04,34,14,0,0
74977,8.2985e+07,0,6347,6242,15.76,4.23,34,14,0,0
75385,8.3091e+07,0,6241,6228,15.8,3.52,34,15,0,0
75836,8.3199e+07,0,6226,6200,15.72,3.93,34,15,0,0
76240,8.3301e+07,0,6199,6171,15.68,3.73,34,15,0,0
76690,8.3411e+07,0,6173,6228,15.75,3.92,34,15,0,0
77136,8.3524e+07,0,6234,6300,15.67,4.26,34,15,0,0
77585,8.3633e+07,0,6310,6471,15.79,4.15,34,15,0,0
78029,8.374e+07,0,6464,6371,15.66,4.35,34,15,0,0
78481,8.3848e+07,0,6366,6300,15.75,4.27,34,15,0,0
78887,8.3949e+07,0,6301,6357,15.72,4.38,34,16,0,0
79372,8.4067e+07,0,6362,6414,15.75,4.48,34,16,0,0
79825,8.4176e+07,0,6402,6285,15.66,4.39,34,16,0,0
80268,8.4287e+07,0,6293,6371,15.73,4.56,34,16,0,0
80716,8.4393e+07,0,6374,6414,15.74,4.4,34,16,0,0
81123,8.45e+07,0,6410,6328,15.6,4.35,34,16,0,0
81608,8.4611e+07,0,6341,6471,15.62,5.23,34,16,0,0
82053,8.4727e+07,0,6486,6628,15.7,5.04,34,17,0,0
82464,8.4825e+07,0,6628,6628,15.8,4.54,34,17,0,0
82910,8.4936e+07,0,6620,6514,15.67,3.76,34,17,0,0
83356,8.5046e+07,0,6494,6171,15.73,4.2,34,17,0,0
83807,8.516e+07,0,6182,6285,15.75,3.87,34,17,0,0
84262,8.5277e+07,0,6262,6114,15.81,3.5,34,17,0,0
84710,8.5386e+07,0,6105,6014,15.71,3.63,34,17,0,0
85152,8.5496e+07,0,6013,6000,15.83,3.58,34,18,0,0
85560,8.5593e+07,0,5993,5857,15.69,3.54,34,18,0,0
85997,8.5705e+07,0,5867,5971,15.63,3.81,34,18,0,0
86452,8.5815e+07,0,5994,6171,15.7,4.07,34,18,0,0
86853,8.5918e+07,0,6173,6228,15.65,3.77,34,18,0,0
87346,8.6039e+07,0,6236,6300,15.66,4.43,34,18,0,0
87787,8.6144e+07,0,6313,6457,15.66,4.98,35,18,0,0
88243,8.6256e+07,0,6475,6628,15.71,5.18,34,18,0,0
89131,8.6478e+07,0,6627,6500,15.65,4.82,34,19,0,0
89536,8.6576e+07,0,6497,6314,15.73,4.15,34,19,0,0
90018,8.6691e+07,0,6312,6300,15.61,4.72,34,19,0,0
90464,8.6797e+07,0,6304,6357,15.67,4.32,34,19,0,0
90913,8.691e+07,0,6336,6128,15.49,4.64,34,19,0,0
91367,8.7021e+07,0,6154,6457,15.68,4.72,35,19,0,0
91767,8.7123e+07,0,6450,6371,15.66,4.6,34,19,0,0
92178,8.7224e+07,0,6372,6500,15.66,4.1,35,20,0,0
92658,8.7334e+07,0,6493,6271,15.52,4.4,35,20,0,0
93155,8.7456e+07,0,6290,6500,15.63,4.64,35,20,0,0
93596,8.7563e+07,0,6498,6485,15.61,4.78,35,20,0,0
94046,8.7674e+07,0,6489,6528,15.5,4.93,35,20,0,0
94448,8.777e+07,0,6526,6485,15.55,5.01,35,20,0,0
94902,8.7881e+07,0,6489,6600,15.66,4.8,35,21,0,0
95350,8.7994e+07,0,6597,6542,15.61,4.93,35,21,0,0
95789,8.8101e+07,0,6547,6757,15.63,4.99,35,21,0,0
96651,8.8319e+07,0,6754,6500,15.63,4.46,35,21,0,0
97096,8.8426e+07,0,6500,6542,15.6,4.73,35,21,0,0
97542,8.8538e+07,0,6546,6657,15.66,4.79,35,21,0,0
97993,8.8646e+07,0,6644,6485,15.62,4.5,35,21,0,0
98849,8.886e+07,0,6484,6457,15.64,4.5,35,22,0,0
99295,8.8972e+07,0,6450,6285,15.72,4.26,35,22,0,0
99775,8.9084e+07,0,6281,6228,15.7,4,35,22,0,0
1.0019e+05,8.9187e+07,0,6229,6257,15.72,3.57,35,22,0,0
1.0063e+05,8.9296e+07,0,6254,6142,15.78,3.62,35,22,0,0
1.0109e+05,8.9409e+07,0,6142,6157,15.77,3.33,35,22,0,0
1.0153e+05,8.9517e+07,0,6151,6042,15.72,3.6,35,22,0,0
1.0198e+05,8.9627e+07,0,6043,6085,15.63,3.51,35,23,0,0
1.0243e+05,8.9739e+07,0,6091,6157,15.67,3.91,35,23,0,0
1.0288e+05,8.9844e+07,0,6155,6028,15.66,3.79,35,23,0,0
1.0336e+05,8.9961e+07,0,6034,6142,15.63,4.12,35,23,0,0
1.0382e+05,9.0071e+07,0,6142,6142,15.57,4.07,35,23,0,0
1.0422e+05,9.0174e+07,0,6145,6200,15.57,4.49,35,23,0,0
1.0471e+05,9.0293e+07,0,6215,6385,15.58,4.37,35,23,0,0
1.0511e+05,9.039e+07,0,6387,6428,15.58,4.72,35,23,0,0
1.0552e+05,9.0497e+07,0,6433,6585,15.55,4.83,35,24,0,0
1.0597e+05,9.0604e+07,0,6579,6457,15.61,4.56,35,24,0,0
1.0642e+05,9.0714e+07,0,6458,6514,15.6,4.82,35,24,0,0
1.0686e+05,9.082e+07,0,6510,6471,15.65,4.6,35,24,0,0
1.0731e+05,9.0933e+07,0,6480,6628,15.64,4.79,35,24,0,0
1.0776e+05,9.104e+07,0,6625,6414,15.68,4.57,35,24,0,0
1.0816e+05,9.1142e+07,0,6415,6471,15.7,3.99,35,24,0,0
1.0869e+05,9.1262e+07,0,6456,6300,15.72,3.88,35,24,0,0
1.0913e+05,9.1373e+07,0,6281,6114,15.6,3.75,35,25,0,0
1.0958e+05,9.1479e+07,0,6114,6114,15.6,3.84,35,25,0,0
1.1003e+05,9.1592e+07,0,6111,6085,15.64,3.82,35,25,0,0
1.1048e+05,9.1701e+07,0,6088,6128,15.57,3.95,35,25,0,0
1.1088e+05,9.1801e+07,0,6128,6142,15.6,4.35,35,25,0,0
1.1133e+05,9.1911e+07,0,6147,6428,15.58,4.33,35,25,0,0
1.1182e+05,9.2026e+07,0,6431,6485,15.58,4.8,35,25,0,0
1.1226e+05,9.2136e+07,0,6477,6385,15.58,4.45,35,26,0,0
1.1271e+05,9.2249e+07,0,6396,6471,15.57,4.56,35,26,0,0
1.1315e+05,9.2349e+07,0,6485,6700,15.58,5.14,35,26,0,0
1.136e+05,9.2461e+07,0,6681,6442,15.64,4.74,35,26,0,0
1.1405e+05,9.2576e+07,0,6432,6371,15.61,4.35,35,26,0,0
1.1453e+05,9.2686e+07,0,6375,6442,15.61,4.59,35,26,0,0
1.1498e+05,9.2798e+07,0,6429,6300,15.63,4.3,35,26,0,0
1.1539e+05,9.2901e+07,0,6312,6471,15.6,4.42,35,27,0,0
1.1583e+05,9.3006e+07,0,6462,6242,15.64,3.71,35,27,0,0
1.1628e+05,9.3115e+07,0,6239,6114,15.58,4.09,35,27,0,0
1.1717e+05,9.3335e+07,0,6125,6400,15.51,4.73,35,27,0,0
1.1761e+05,9.344e+07,0,6403,6471,15.54,4.51,35,27,0,0
1.1806e+05,9.355e+07,0,6472,6514,15.61,4.45,35,27,0,0
1.1852e+05,9.3662e+07,0,6502,6400,15.57,4.62,35,27,0,0
1.1896e+05,9.3769e+07,0,6396,6357,15.58,4.41,35,28,0,0
1.1941e+05,9.3879e+07,0,6359,6385,15.51,4.11,35,28,0,0
1.1981e+05,9.3979e+07,0,6384,6342,15.43,4.74,35,28,0,0
1.203e+05,9.4099e+07,0,6353,6485,15.56,4.43,35,28,0,0
1.2119e+05,9.4316e+07,0,6476,6100,15.59,3.85,35,28,0,0
1.2159e+05,9.4419e+07,0,6100,6100,15.58,4.13,35,28,0,0
1.2204e+05,9.4532e+07,0,6105,6171,15.52,4.28,35,28,0,0
1.2249e+05,9.4639e+07,0,6169,6142,15.63,4.06,35,29,0,0
1.2297e+05,9.4752e+07,0,6141,6128,15.6,4.16,35,29,0,0
1.2338e+05,9.485e+07,0,6129,6185,15.52,4.06,35,29,0,0
1.2383e+05,9.4962e+07,0,6186,6214,15.58,4.25,35,29,0,0
1.2429e+05,9.5084e+07,0,6214,6214,15.52,4.2,35,29,0,0
1.2473e+05,9.5185e+07,0,6220,6285,15.52,4.27,35,29,0,0
1.2513e+05,9.5287e+07,0,6283,6214,15.5,4.26,35,29,0,0
1.2558e+05,9.5396e+07,0,6217,6371,15.52,4.12,35,30,0,0
1.2607e+05,9.5516e+07,0,6355,6185,15.52,3.95,35,30,0,0
1.2651e+05,9.5619e+07,0,6172,6014,15.53,3.97,35,30,0,0
1.2692e+05,9.5725e+07,0,6012,5942,15.59,3.72,35,30,0,0
1.2741e+05,9.584e+07,0,5944,5971,15.55,3.67,35,30,0,0
1.2782e+05,9.5942e+07,0,5982,6228,15.52,4.31,35,30,0,0
1.2826e+05,9.6048e+07,0,6228,6257,15.54,4.33,36,30,0,0
1.2872e+05,9.6161e+07,0,6264,6357,15.55,4.41,35,30,0,0
1.2917e+05,9.6273e+07,0,6354,6328,15.57,4.18,35,31,0,0
1.2957e+05,9.6376e+07,0,6317,6171,15.57,4,35,31,0,0
1.3002e+05,9.6487e+07,0,6173,6228,15.55,4.29,36,31,0,0
1.3047e+05,9.6598e+07,0,6237,6328,15.57,4.31,35,31,0,0
1.3091e+05,9.6707e+07,0,6331,6371,15.51,4.39,36,31,0,0
1.3132e+05,9.6807e+07,0,6368,6214,15.48,4.32,35,31,0,0
1.3221e+05,9.7024e+07,0,6214,6285,15.5,4.34,36,31,0,0
1.327e+05,9.7143e+07,0,6272,6142,15.48,4.49,35,31,0,0
1.3315e+05,9.7249e+07,0,6161,6457,15.47,4.39,36,32,0,0
1.3355e+05,9.7352e+07,0,6453,6385,15.52,4.49,36,32,0,0
1.34e+05,9.7465e+07,0,6379,6342,15.46,4.56,35,32,0,0
1.3441e+05,9.7568e+07,0,6343,6371,15.4,4.55,36,32,0,0
1.3486e+05,9.7683e+07,0,6372,6385,15.49,4.42,36,32,0,0
1.353e+05,9.7786e+07,0,6376,6257,15.5,4.63,36,32,0,0
1.3575e+05,9.7897e+07,0,6250,6185,15.48,4.16,36,32,0,0
1.362e+05,9.8005e+07,0,6182,6142,15.52,4.25,36,33,0,0
1.366e+05,9.8106e+07,0,6150,6442,15.45,4.74,36,33,0,0
1.371e+05,9.8227e+07,0,6426,6242,15.52,4.35,36,33,0,0
1.3751e+05,9.833e+07,0,6240,6214,15.57,4.46,36,33,0,0
1.3796e+05,9.8444e+07,0,6221,6300,15.52,4.57,36,33,0,0
1.3844e+05,9.8555e+07,0,6308,6500,15.52,4.9,36,33,0,0
1.3888e+05,9.8663e+07,0,6493,6414,15.45,4.95,36,33,0,0
1.3933e+05,9.8775e+07,0,6428,6585,15.53,4.72,36,34,0,0
1.3982e+05,9.889e+07,0,6566,6300,15.51,4.59,36,34,0,0
1.4022e+05,9.8988e+07,0,6307,6457,15.48,4.72,36,34,0,0
1.4067e+05,9.9102e+07,0,6459,6485,15.48,4.75,36,34,0,0
1.4113e+05,9.9214e+07,0,6476,6385,15.58,4.23,36,34,0,0
1.4153e+05,9.9315e+07,0,6380,6300,15.52,4.25,36,34,0,0
1.4198e+05,9.9425e+07,0,6297,6271,15.5,4.22,36,34,0,0
1.4238e+05,9.9526e+07,0,6270,6242,15.5,4.11,36,34,0,0
1.4288e+05,9.9646e+07,0,6224,6028,15.52,3.6,36,35,0,0
1.4332e+05,9.9754e+07,0,6022,5942,15.48,3.69,36,35,0,0
1.4462e+05,1.0007e+08,0,5941,5857,15.51,3.6,36,35,0,0
1.4506e+05,1.0018e+08,0,5859,6014,15.49,3.9,36,35,0,0
1.455e+05,1.0029e+08,0,6013,6000,15.47,3.95,36,35,0,0
1.46e+05,1.0041e+08,0,6020,6142,15.48,3.89,36,35,0,0
1.464e+05,1.0051e+08,0,6141,6100,15.5,3.91,36,35,0,0
1.4685e+05,1.0062e+08,0,6108,6285,15.5,4,36,36,0,0
1.4726e+05,1.0073e+08,0,6281,6200,15.48,4.03,36,36,0,0
1.4771e+05,1.0083e+08,0,6189,5971,15.61,3.93,36,36,0,0
1.4812e+05,1.0094e+08,0,5987,6242,15.56,3.84,36,36,0,0
1.4857e+05,1.0105e+08,0,6231,6100,15.54,3.82,36,36,0,0
1.4946e+05,1.0127e+08,0,6094,5985,15.57,3.78,36,36,0,0
1.4994e+05,1.0138e+08,0,5962,5814,15.58,3.07,36,36,0,0
1.5039e+05,1.0149e+08,0,5803,5728,15.58,3.01,36,37,0,0
1.5079e+05,1.0159e+08,0,5708,5557,15.6,2.81,36,37,0,0
1.5127e+05,1.0171e+08,0,5552,5500,15.57,2.78,36,37,0,0
1.5172e+05,1.0181e+08,0,5493,5414,15.58,2.83,36,37,0,0
1.5217e+05,1.0193e+08,0,5416,5442,15.56,2.9,36,37,0,0
1.5262e+05,1.0203e+08,0,5440,5428,15.52,2.86,36,37,0,0
1.5302e+05,1.0214e+08,0,5429,5571,15.56,3.22,36,37,0,0
1.5352e+05,1.0226e+08,0,5567,5542,15.6,3.13,36,37,0,0
1.5477e+05,1.0257e+08,0,5544,5871,15.47,3.47,36,37,0,0
1.5521e+05,1.0268e+08,0,5868,5771,15.49,3.46,36,38,0,0
1.5566e+05,1.0279e+08,0,5771,5828,15.48,3.55,36,38,0,0
1.5659e+05,1.0302e+08,0,5842,6100,15.54,4.2,36,38,0,0
1.5696e+05,1.0311e+08,0,6102,6228,15.53,4.31,36,38,0,0
1.5745e+05,1.0323e+08,0,6235,6342,15.51,4.54,36,38,0,0
1.5785e+05,1.0333e+08,0,6340,6257,15.54,4.26,36,38,0,0
1.5871e+05,1.0355e+08,0,6256,6242,15.45,4.32,36,39,0,0
1.5916e+05,1.0366e+08,0,6240,6214,15.5,4.19,36,39,0,0
1.5961e+05,1.0378e+08,0,6222,6328,15.52,4.17,36,39,0,0
1.605e+05,1.0399e+08,0,6320,6157,15.44,4.3,36,39,0,0
1.6094e+05,1.041e+08,0,6161,6228,15.48,4.01,36,39,0,0
1.618e+05,1.0432e+08,0,6209,5800,15.53,3.23,36,39,0,0
1.6225e+05,1.0443e+08,0,5821,6057,15.39,4.06,36,40,0,0
1.6265e+05,1.0453e+08,0,6057,6071,15.41,3.87,36,40,0,0
1.631e+05,1.0464e+08,0,6071,6071,15.44,4.02,36,40,0,0
1.6355e+05,1.0476e+08,0,6073,6100,15.39,4.2,36,40,0,0
1.6399e+05,1.0487e+08,0,6105,6157,15.36,3.85,36,40,0,0
1.6444e+05,1.0498e+08,0,6147,6057,15.38,3.65,36,40,0,0
1.6484e+05,1.0508e+08,0,6060,6242,15.36,4.62,36,40,0,0
1.6529e+05,1.0519e+08,0,6236,6171,15.4,4.14,36,40,0,0
1.6578e+05,1.0531e+08,0,6180,6285,15.47,4.46,36,41,0,0
1.6662e+05,1.0552e+08,0,6285,6285,15.43,4.35,36,41,0,0
1.6748e+05,1.0573e+08,0,6287,6457,15.36,4.57,36,41,0,0
1.6793e+05,1.0584e+08,0,6455,6428,15.48,4.56,36,41,0,0
1.6882e+05,1.0607e+08,0,6430,6485,15.5,4.46,36,42,0,0
1.6928e+05,1.0618e+08,0,6482,6457,15.42,4.76,36,42,0,0
1.6968e+05,1.0628e+08,0,6451,6342,15.45,4.19,36,42,0,0
1.7012e+05,1.0639e+08,0,6332,6142,15.5,4.02,36,42,0,0
1.7058e+05,1.0651e+08,0,6143,6157,15.46,3.95,36,42,0,0
1.7098e+05,1.0662e+08,0,6157,6157,15.44,3.95,36,42,0,0
1.7143e+05,1.0673e+08,0,6147,6057,15.45,3.76,36,42,0,0
1.7183e+05,1.0683e+08,0,6055,6000,15.45,4.08,36,42,0,0
1.7228e+05,1.0694e+08,0,6019,6200,15.4,4.21,36,43,0,0
1.7274e+05,1.0705e+08,0,6190,6100,15.48,4.18,36,43,0,0
1.7313e+05,1.0715e+08,0,6102,6271,15.45,4.41,36,43,0,0
1.7451e+05,1.0748e+08,0,6274,6385,15.54,4.52,36,43,0,0
1.7492e+05,1.0759e+08,0,6384,6371,15.54,4.52,36,43,0,0
1.7536e+05,1.077e+08,0,6360,6214,15.55,4.39,36,43,0,0
1.7581e+05,1.078e+08,0,6220,6300,15.54,4.61,36,44,0,0
1.7622e+05,1.0791e+08,0,6299,6271,15.55,4.08,36,44,0,0
1.7671e+05,1.0803e+08,0,6274,6328,15.53,4.1,36,44,0,0
1.776e+05,1.0824e+08,0,6317,6100,15.48,4.26,36,44,0,0
1.78e+05,1.0834e+08,0,6099,6085,15.48,3.88,36,44,0,0
1.7848e+05,1.0846e+08,0,6086,6100,15.46,4.13,36,44,0,0
1.7889e+05,1.0856e+08,0,6100,6100,15.47,3.8,36,44,0,0
1.7929e+05,1.0867e+08,0,6097,5971,15.43,3.76,36,45,0,0
1.7979e+05,1.0878e+08,0,5972,6000,15.45,3.77,36,45,0,0
1.8019e+05,1.0889e+08,0,6006,6157,15.45,3.92,36,45,0,0
1.8064e+05,1.0899e+08,0,6153,5914,15.42,3.87,36,45,0,0
1.8157e+05,1.0922e+08,0,5921,6085,15.5,3.85,36,45,0,0
1.8202e+05,1.0933e+08,0,6086,6100,15.47,3.95,36,45,0,0
1.8246e+05,1.0944e+08,0,6098,6085,15.45,4.1,37,45,0,0
1.8291e+05,1.0955e+08,0,6098,6228,15.48,3.8,37,46,0,0
1.8335e+05,1.0966e+08,0,6207,5900,15.48,3.72,36,46,0,0
1.838e+05,1.0977e+08,0,5900,5914,15.54,3.68,36,46,0,0
1.8469e+05,1.0999e+08,0,5924,6114,15.48,3.98,36,46,0,0
1.851e+05,1.101e+08,0,6111,5985,15.48,3.8,37,46,0,0
1.8558e+05,1.1022e+08,0,5983,5971,15.46,3.56,37,46,0,0
1.8599e+05,1.1032e+08,0,5975,6042,15.5,3.72,37,46,0,0
1.8644e+05,1.1042e+08,0,6035,5971,15.42,3.84,37,46,0,0
1.8685e+05,1.1053e+08,0,5972,6014,15.47,3.66,37,47,0,0
1.873e+05,1.1063e+08,0,6014,6014,15.49,3.56,37,47,0,0
1.8774e+05,1.1075e+08,0,6005,5914,15.5,3.76,36,47,0,0
1.8819e+05,1.1085e+08,0,5911,5871,15.48,3.34,37,47,0,0
1.8863e+05,1.1097e+08,0,5871,5928,15.48,3.34,37,47,0,0
1.8912e+05,1.1108e+08,0,5913,5771,15.48,3.41,37,47,0,0
1.8953e+05,1.1119e+08,0,5772,5785,15.42,3.76,37,47,0,0
1.8993e+05,1.1129e+08,0,5790,5900,15.48,3.67,37,47,0,0
1.9042e+05,1.1141e+08,0,5914,6057,15.45,3.82,37,47,0,0
1.9082e+05,1.1151e+08,0,6051,5957,15.45,3.6,37,48,0,0
1.9123e+05,1.1161e+08,0,5956,5928,15.51,3.31,37,48,0,0
1.9171e+05,1.1173e+08,0,5904,5671,15.5,3.09,37,48,0,0
1.9216e+05,1.1184e+08,0,5677,5771,15.49,3.6,37,48,0,0
1.926e+05,1.1195e+08,0,5770,5757,15.48,3.56,37,48,0,0
1.9305e+05,1.1205e+08,0,5765,5971,15.53,3.92,37,48,0,0
1.9354e+05,1.1217e+08,0,5968,5928,15.46,4.12,37,48,0,0
1.9394e+05,1.1227e+08,0,5929,6071,15.42,4.17,37,48,0,0
1.9439e+05,1.1238e+08,0,6092,6371,15.45,4.67,37,48,0,0
1.9528e+05,1.126e+08,0,6371,6514,15.43,4.76,37,49,0,0
1.9572e+05,1.1271e+08,0,6511,6485,15.36,4.98,36,49,0,0
1.9617e+05,1.1282e+08,0,6483,6471,15.47,5.22,37,49,0,0
1.9658e+05,1.1292e+08,0,6465,6342,15.47,5.04,37,49,0,0
1.9703e+05,1.1303e+08,0,6343,6385,15.46,4.84,37,49,0,0
1.9743e+05,1.1314e+08,0,6385,6442,15.39,4.81,37,50,0,0
1.9792e+05,1.1326e+08,0,6437,6385,15.5,4.39,37,50,0,0
1.9837e+05,1.1337e+08,0,6378,6314,15.46,4.4,37,50,0,0
1.9882e+05,1.1348e+08,0,6305,6214,15.39,4.47,37,50,0,0
1.9926e+05,1.1359e+08,0,6230,6400,15.48,4.43,37,50,0,0
1.9967e+05,1.1369e+08,0,6399,6357,15.48,4.71,37,50,0,0
2.0012e+05,1.138e+08,0,6353,6314,15.5,4.07,37,50,0,0
2.0056e+05,1.1391e+08,0,6306,6228,15.46,4.33,37,50,0,0
2.0101e+05,1.1402e+08,0,6230,6257,15.51,4.51,37,50,0,0
2.0142e+05,1.1412e+08,0,6258,6328,15.49,4.25,37,51,0,0
2.023e+05,1.1434e+08,0,6327,6314,15.36,4.71,37,51,0,0
2.0275e+05,1.1445e+08,0,6330,6557,15.44,5,37,51,0,0
2.0316e+05,1.1455e+08,0,6557,6628,15.32,5.37,37,51,0,0
2.0365e+05,1.1467e+08,0,6625,6600,15.47,5.23,37,51,0,0
2.0405e+05,1.1478e+08,0,6607,6714,15.4,5.49,37,52,0,0
2.045e+05,1.1489e+08,0,6714,6714,15.38,5.17,37,52,0,0
2.0495e+05,1.1499e+08,0,6716,6757,15.4,5.37,37,52,0,0
2.0539e+05,1.1511e+08,0,6753,6685,15.29,5.26,37,52,0,0
2.058e+05,1.1521e+08,0,6680,6528,15.39,4.74,37,52,0,0
2.0625e+05,1.1532e+08,0,6537,6657,15.46,4.51,37,52,0,0
2.067e+05,1.1543e+08,0,6649,6542,15.44,4.83,37,53,0,0
2.0716e+05,1.1555e+08,0,6535,6471,15.38,4.76,37,53,0,0
2.0756e+05,1.1565e+08,0,6475,6585,15.5,4.51,37,53,0,0
2.08e+05,1.1576e+08,0,6583,6542,15.47,4.61,37,53,0,0
2.0848e+05,1.1587e+08,0,6532,6414,15.48,4.44,37,53,0,0
2.0889e+05,1.1597e+08,0,6403,6185,15.43,4.31,37,53,0,0
2.0934e+05,1.1609e+08,0,6216,6542,15.38,4.96,37,53,0,0
2.0979e+05,1.1619e+08,0,6535,6471,15.42,4.66,37,53,0,0
2.1023e+05,1.163e+08,0,6480,6685,15.42,4.77,37,54,0,0
2.1068e+05,1.1641e+08,0,6682,6628,15.42,4.98,37,54,0,0
2.1113e+05,1.1653e+08,0,6635,6714,15.46,4.85,37,54,0,0
2.1158e+05,1.1663e+08,0,6703,6557,15.46,4.46,37,54,0,0
2.1198e+05,1.1673e+08,0,6562,6657,15.38,4.66,37,54,0,0
2.1243e+05,1.1685e+08,0,6649,6542,15.47,4.43,37,54,0,0
2.1287e+05,1.1695e+08,0,6538,6500,15.43,4.47,37,55,0,0
2.1332e+05,1.1706e+08,0,6493,6400,15.41,4.51,37,55,0,0
2.1372e+05,1.1717e+08,0,6403,6500,15.45,4.48,37,55,0,0
2.1466e+05,1.1739e+08,0,6489,6257,15.45,4.13,37,55,0,0
2.1506e+05,1.175e+08,0,6266,6357,15.5,4.16,37,55,0,0
2.1551e+05,1.1761e+08,0,6345,6228,15.44,4.1,37,55,0,0
2.1591e+05,1.1771e+08,0,6229,6300,15.42,3.95,37,55,0,0
2.164e+05,1.1782e+08,0,6303,6357,15.39,4.56,37,56,0,0
2.168e+05,1.1793e+08,0,6356,6328,15.44,4.46,37,56,0,0
2.173e+05,1.1805e+08,0,6330,6357,15.35,4.61,37,56,0,0
2.177e+05,1.1815e+08,0,6361,6428,15.39,4.27,37,56,0,0
2.1815e+05,1.1826e+08,0,6429,6442,15.48,4.72,37,56,0,0
2.1859e+05,1.1837e+08,0,6446,6500,15.46,4.66,37,56,0,0
2.1886e+05,1.1846e+08,0,6502,6600,15.44,4.82,37,56,0,0
2.193e+05,1.1857e+08,0,6593,6471,15.48,4.29,37,56,0,0
2.1975e+05,1.1869e+08,0,6478,6557,15.41,4.69,37,57,0,0
2.2019e+05,1.1879e+08,0,6542,6342,15.46,4.03,37,57,0,0
2.2064e+05,1.189e+08,0,6345,6400,15.46,4.36,37,57,0,0
2.2109e+05,1.1901e+08,0,6405,6528,15.41,4.61,37,57,0,0
2.2156e+05,1.1912e+08,0,6512,6357,15.44,4.41,37,57,0,0
2.2201e+05,1.1923e+08,0,6373,6542,15.4,4.42,37,57,0,0
2.2246e+05,1.1934e+08,0,6534,6457,15.41,4.36,37,57,0,0
2.2291e+05,1.1945e+08,0,6451,6414,15.48,4.4,37,58,0,0
2.2332e+05,1.1956e+08,0,6412,6400,15.4,4.29,37,58,0,0
2.2376e+05,1.1967e+08,0,6393,6300,15.42,4.3,37,58,0,0
2.242e+05,1.1977e+08,0,6300,6300,15.47,4.53,37,58,0,0
2.2465e+05,1.1988e+08,0,6317,6514,15.39,4.89,37,58,0,0
2.2509e+05,1.1999e+08,0,6523,6628,15.46,4.84,37,58,0,0
2.2554e+05,1.201e+08,0,6616,6485,15.44,4.59,37,58,0,0
2.2599e+05,1.2021e+08,0,6482,6457,15.44,4.65,37,58,0,0
2.2639e+05,1.2032e+08,0,6470,6557,15.43,4.74,37,59,0,0
2.2684e+05,1.2042e+08,0,6563,6628,15.48,4.64,37,59,0,0
2.2729e+05,1.2054e+08,0,6616,6542,15.42,4.53,37,59,0,0
2.2773e+05,1.2065e+08,0,6532,6457,15.39,4.71,37,59,0,0
2.2814e+05,1.2075e+08,0,6458,6471,15.44,4.21,37,59,0,0
2.2859e+05,1.2086e+08,0,6476,6528,15.39,4.6,37,59,0,0
2.2903e+05,1.2097e+08,0,6516,6414,15.33,4.45,37,59,0,0
2.2944e+05,1.2107e+08,0,6421,6500,15.41,4.71,37,60,0,0
2.2993e+05,1.2119e+08,0,6500,6514,15.44,4.46,37,60,0,0
2.3037e+05,1.213e+08,0,6523,6657,15.38,4.63,37,60,0,0
2.3082e+05,1.2141e+08,0,6624,6371,15.51,4.37,37,60,0,0
2.3126e+05,1.2152e+08,0,6375,6442,15.48,4.34,37,60,0,0
2.3167e+05,1.2162e+08,0,6439,6285,15.54,3.69,37,60,0,0
2.3215e+05,1.2173e+08,0,6280,6242,15.52,3.73,37,60,0,0
2.326e+05,1.2184e+08,0,6247,6314,15.52,3.97,37,61,0,0
2.335e+05,1.2206e+08,0,6304,6028,15.56,3.57,37,61,0,0
2.339e+05,1.2216e+08,0,6028,6042,15.48,3.74,37,61,0,0
2.3442e+05,1.2229e+08,0,6056,6257,15.47,4.1,37,61,0,0
2.3483e+05,1.2239e+08,0,6251,6071,15.47,4.09,37,61,0,0
2.3528e+05,1.225e+08,0,6086,6314,15.51,4.2,37,61,0,0
2.3573e+05,1.2261e+08,0,6305,6185,15.45,4.36,37,61,0,0
2.3617e+05,1.2272e+08,0,6202,6442,15.44,4.65,37,62,0,0
2.3658e+05,1.2282e+08,0,6443,6528,15.35,4.92,37,62,0,0
2.3702e+05,1.2293e+08,0,6527,6500,15.42,4.66,37,62,0,0
2.3748e+05,1.2304e+08,0,6495,6400,15.39,4.8,37,62,0,0
2.3792e+05,1.2315e+08,0,6406,6542,15.34,5.13,37,62,0,0
2.3837e+05,1.2326e+08,0,6539,6471,15.34,4.7,37,62,0,0
2.3881e+05,1.2337e+08,0,6473,6500,15.44,4.55,37,62,0,0
2.3926e+05,1.2349e+08,0,6479,6342,15.35,4.25,37,62,0,0
2.3967e+05,1.2359e+08,0,6339,6214,15.33,4.17,37,63,0,0
2.4011e+05,1.237e+08,0,6208,6142,15.27,3.73,37,63,0,0
2.4056e+05,1.2381e+08,0,6129,5971,15.41,3.63,37,63,0,0
2.4145e+05,1.2402e+08,0,5970,5885,15.36,3.33,37,63,0,0
2.419e+05,1.2413e+08,0,5871,5671,15.36,3.35,37,63,0,0
2.4235e+05,1.2424e+08,0,5677,5757,15.46,3.48,37,63,0,0
2.4279e+05,1.2435e+08,0,5757,5771,15.41,3.32,37,63,0,0
2.4324e+05,1.2446e+08,0,5773,5828,15.36,3.59,37,63,0,0
2.4369e+05,1.2457e+08,0,5821,5742,15.45,3.57,37,64,0,0
2.4413e+05,1.2468e+08,0,5750,5828,15.48,3.68,37,64,0,0
2.4454e+05,1.2478e+08,0,5835,6000,15.44,3.84,37,64,0,0
2.4495e+05,1.2488e+08,0,6000,6000,15.41,3.93,37,64,0,0
2.4588e+05,1.2511e+08,0,5997,5942,15.38,4.17,37,64,0,0
2.4632e+05,1.2522e+08,0,5961,6214,15.37,4.09,37,64,0,0
2.4678e+05,1.2533e+08,0,6192,5971,15.45,3.45,37,64,0,0
2.4722e+05,1.2544e+08,0,5968,5942,15.44,3.36,37,65,0,0
2.4807e+05,1.2564e+08,0,5942,6000,15.41,3.5,37,65,0,0
2.4855e+05,1.2576e+08,0,5993,5900,15.38,3.56,37,65,0,0
2.4941e+05,1.2597e+08,0,5900,5914,15.45,3.56,37,65,0,0
2.4985e+05,1.2608e+08,0,5916,5971,15.45,3.45,37,65,0,0
2.503e+05,1.2619e+08,0,5982,6142,15.4,4.02,38,65,0,0
2.5119e+05,1.2641e+08,0,6145,6257,15.39,4.02,37,65,0,0
2.5209e+05,1.2664e+08,0,6255,6228,15.38,4,37,66,0,0
2.5249e+05,1.2673e+08,0,6226,6200,15.39,4.17,37,66,0,0
2.5298e+05,1.2685e+08,0,6194,6142,15.36,4.17,37,66,0,0
2.5338e+05,1.2695e+08,0,6147,6228,15.39,3.84,37,66,0,0
2.5383e+05,1.2706e+08,0,6234,6328,15.41,4.2,37,66,0,0
2.5468e+05,1.2728e+08,0,6325,6028,15.32,3.87,37,66,0,0
2.5513e+05,1.2739e+08,0,6022,5942,15.36,3.82,37,67,0,0
2.5558e+05,1.275e+08,0,5956,6100,15.35,4.13,37,67,0,0
2.5598e+05,1.276e+08,0,6107,6200,15.36,4.08,37,67,0,0
2.5642e+05,1.2771e+08,0,6207,6328,15.38,4.33,37,67,0,0
2.5688e+05,1.2782e+08,0,6330,6357,15.34,4.49,37,67,0,0
2.5736e+05,1.2793e+08,0,6362,6442,15.35,4.75,37,67,0,0
2.5776e+05,1.2803e+08,0,6442,6457,15.32,4.82,37,67,0,0
2.5865e+05,1.2825e+08,0,6457,6542,15.33,5.12,37,68,0,0
2.5914e+05,1.2836e+08,0,6545,6600,15.29,5.12,37,68,0,0
2.5958e+05,1.2847e+08,0,6606,6671,15.38,5.06,37,68,0,0
2.5998e+05,1.2858e+08,0,6669,6557,15.31,5.15,37,68,0,0
2.6043e+05,1.2868e+08,0,6554,6428,15.38,4.81,37,68,0,0
2.6092e+05,1.288e+08,0,6433,6485,15.47,4.56,37,68,0,0
2.6128e+05,1.289e+08,0,6479,6300,15.43,4.51,38,69,0,0
2.6173e+05,1.2901e+08,0,6302,6400,15.44,4.3,37,69,0,0
2.6218e+05,1.2912e+08,0,6384,6171,15.43,3.8,37,69,0,0
2.6263e+05,1.2923e+08,0,6152,5957,15.57,3.72,37,69,0,0
2.6307e+05,1.2934e+08,0,5946,5785,15.6,2.99,37,69,0,0
2.6352e+05,1.2945e+08,0,5777,5600,15.57,2.79,37,69,0,0
2.6401e+05,1.2957e+08,0,5601,5628,15.59,3,37,69,0,0
2.6486e+05,1.2978e+08,0,5628,5628,15.53,3.2,37,69,0,0
2.653e+05,1.2989e+08,0,5633,5714,15.48,3.77,37,69,0,0
2.6575e+05,1.3e+08,0,5727,5914,15.48,3.78,37,70,0,0
2.662e+05,1.3011e+08,0,5936,6171,15.42,4.42,38,70,0,0
2.6664e+05,1.3021e+08,0,6166,6100,15.53,4.3,37,70,0,0
2.6709e+05,1.3032e+08,0,6107,6314,15.5,4.21,37,70,0,0
2.6754e+05,1.3043e+08,0,6313,6300,15.39,4.23,38,70,0,0
2.6798e+05,1.3054e+08,0,6290,6214,15.41,4.24,37,70,0,0
2.6843e+05,1.3065e+08,0,6216,6242,15.39,4.02,37,70,0,0
2.6888e+05,1.3076e+08,0,6239,6214,15.38,4.46,37,70,0,0
2.6933e+05,1.3087e+08,0,6219,6271,15.42,4.63,37,71,0,0
2.6973e+05,1.3098e+08,0,6274,6314,15.46,4.39,37,71,0,0
2.7022e+05,1.311e+08,0,6315,6342,15.48,4.16,38,71,0,0
2.7108e+05,1.3131e+08,0,6342,6357,15.47,4.48,37,71,0,0
2.7148e+05,1.3141e+08,0,6355,6300,15.44,4.36,38,71,0,0
2.7197e+05,1.3153e+08,0,6295,6257,15.45,4.28,37,71,0,0
2.7238e+05,1.3163e+08,0,6256,6242,15.44,4.22,37,72,0,0
2.7282e+05,1.3174e+08,0,6240,6214,15.39,4.11,38,72,0,0
2.7327e+05,1.3185e+08,0,6213,6200,15.42,4.27,38,72,0,0
2.7372e+05,1.3196e+08,0,6200,6200,15.38,4.27,37,72,0,0
2.7421e+05,1.3209e+08,0,6214,6328,15.41,4.71,37,72,0,0
2.7465e+05,1.3219e+08,0,6342,6485,15.37,4.84,38,72,0,0
2.751e+05,1.323e+08,0,6467,6300,15.35,4.96,37,72,0,0
2.755e+05,1.324e+08,0,6304,6528,15.33,5.18,38,73,0,0
2.7594e+05,1.3251e+08,0,6537,6671,15.29,5.16,38,73,0,0
2.7639e+05,1.3262e+08,0,6677,6842,15.25,5.71,37,73,0,0
2.7687e+05,1.3273e+08,0,6852,6957,15.23,5.35,38,73,0,0
2.7728e+05,1.3283e+08,0,6945,6685,15.37,5.06,38,73,0,0
2.7772e+05,1.3294e+08,0,6687,6728,15.3,5.06,38,73,0,0
2.7817e+05,1.3305e+08,0,6713,6528,15.36,4.92,38,73,0,0
2.7899e+05,1.3326e+08,0,6527,6471,15.29,4.89,38,74,0,0
2.7943e+05,1.3337e+08,0,6468,6271,15.45,4.44,38,74,0,0
2.7988e+05,1.3348e+08,0,6271,6328,15.44,4.13,37,74,0,0
2.8032e+05,1.3359e+08,0,6321,6228,15.49,3.96,38,74,0,0
2.8073e+05,1.3369e+08,0,6224,6071,15.38,4.36,38,74,0,0
2.8118e+05,1.338e+08,0,6072,6128,15.45,4.04,38,74,0,0
2.8163e+05,1.3392e+08,0,6114,5985,15.44,4.16,38,75,0,0
2.8211e+05,1.3403e+08,0,5996,6185,15.37,4.56,38,75,0,0
2.8256e+05,1.3414e+08,0,6190,6242,15.36,4.3,37,75,0,0
2.8296e+05,1.3424e+08,0,6245,6314,15.41,4.26,38,75,0,0
2.8341e+05,1.3435e+08,0,6312,6285,15.45,4.64,38,75,0,0
2.8386e+05,1.3445e+08,0,6283,6257,15.36,4.58,38,75,0,0
2.843e+05,1.3457e+08,0,6249,6142,15.41,4.54,38,75,0,0
2.8475e+05,1.3467e+08,0,6152,6271,15.44,4.7,38,75,0,0
2.852e+05,1.3478e+08,0,6272,6285,15.43,4.61,38,76,0,0
2.856e+05,1.3489e+08,0,6286,6300,15.44,4.72,38,76,0,0
2.8605e+05,1.3499e+08,0,6301,6328,15.4,4.46,38,76,0,0
2.8649e+05,1.351e+08,0,6331,6385,15.39,4.31,38,76,0,0
2.8694e+05,1.3521e+08,0,6377,6300,15.43,4.59,38,76,0,0
2.8739e+05,1.3532e+08,0,6293,6200,15.38,4.47,38,76,0,0
2.8784e+05,1.3543e+08,0,6202,6242,15.3,4.59,38,76,0,0
2.8828e+05,1.3554e+08,0,6263,6485,15.29,4.83,38,77,0,0
2.8868e+05,1.3564e+08,0,6482,6357,15.36,4.66,38,77,0,0
2.8913e+05,1.3575e+08,0,6358,6385,15.27,4.86,38,77,0,0
2.8958e+05,1.3587e+08,0,6392,6471,15.3,4.85,38,77,0,0
2.9003e+05,1.3598e+08,0,6470,6457,15.34,4.68,38,77,0,0
2.9088e+05,1.362e+08,0,6455,6428,15.36,4.42,38,77,0,0
2.9129e+05,1.363e+08,0,6425,6200,15.36,4.29,38,78,0,0
2.9174e+05,1.3641e+08,0,6202,6257,15.42,4.56,38,78,0,0
2.9219e+05,1.3652e+08,0,6254,6228,15.42,4.27,38,78,0,0
2.9268e+05,1.3663e+08,0,6229,6242,15.33,4.4,38,78,0,0
2.9312e+05,1.3674e+08,0,6253,6400,15.33,4.62,38,78,0,0
2.9357e+05,1.3685e+08,0,6414,6557,15.32,4.51,38,78,0,0
2.9396e+05,1.3695e+08,0,6549,6271,15.4,4.26,38,78,0,0
2.9442e+05,1.3707e+08,0,6250,6071,15.41,4.21,38,78,0,0
2.9482e+05,1.3717e+08,0,6082,6485,15.44,4.26,38,79,0,0
2.9527e+05,1.3728e+08,0,6480,6185,15.48,4,38,79,0,0
2.9572e+05,1.3739e+08,0,6184,6157,15.48,4.11,38,79,0,0
2.9616e+05,1.375e+08,0,6149,6042,15.44,4.1,38,79,0,0
2.9661e+05,1.3761e+08,0,6040,6014,15.42,3.99,38,79,0,0
2.9705e+05,1.3771e+08,0,6019,6128,15.42,3.87,38,79,0,0
2.975e+05,1.3783e+08,0,6126,6014,15.46,3.99,38,79,0,0
2.9798e+05,1.3794e+08,0,6015,6042,15.39,4.26,38,79,0,0
2.9843e+05,1.3805e+08,0,6043,6057,15.44,4.08,38,80,0,0
2.9884e+05,1.3816e+08,0,6060,6142,15.42,4.12,38,80,0,0
2.9932e+05,1.3827e+08,0,6136,6057,15.43,4.33,38,80,0,0
2.9977e+05,1.3838e+08,0,6057,6057,15.37,4.39,38,80,0,0
3.0021e+05,1.3849e+08,0,6068,6171,15.39,4.32,38,80,0,0
3.011e+05,1.3871e+08,0,6178,6342,15.36,4.25,38,80,0,0
3.0151e+05,1.3881e+08,0,6338,6128,15.33,4.47,38,81,0,0
3.0201e+05,1.3892e+08,0,6127,6114,15.35,4.02,38,81,0,0
3.0289e+05,1.3915e+08,0,6117,6185,15.42,3.89,38,81,0,0
3.0334e+05,1.3926e+08,0,6178,6114,15.4,3.78,38,81,0,0
3.0378e+05,1.3936e+08,0,6112,6100,15.37,3.68,38,81,0,0
3.0423e+05,1.3948e+08,0,6078,5914,15.43,3.79,38,81,0,0
3.0464e+05,1.3958e+08,0,5911,5885,15.38,4.01,38,81,0,0
3.0508e+05,1.3969e+08,0,5885,5885,15.4,3.69,38,81,0,0
3.0549e+05,1.3979e+08,0,5885,5942,15.46,3.64,38,82,0,0
3.0593e+05,1.399e+08,0,5943,5985,15.44,3.48,38,82,0,0
3.0642e+05,1.4001e+08,0,5984,5957,15.42,4.1,38,82,0,0
3.0683e+05,1.4012e+08,0,5957,6014,15.47,3.68,38,82,0,0
3.0732e+05,1.4023e+08,0,6006,5928,15.47,3.55,38,82,0,0
3.0772e+05,1.4034e+08,0,5921,5828,15.42,3.36,38,82,0,0
3.0817e+05,1.4045e+08,0,5835,5942,15.44,3.7,38,82,0,0
3.0862e+05,1.4056e+08,0,5924,5728,15.37,3.62,38,82,0,0
3.0906e+05,1.4067e+08,0,5730,5871,15.44,4.04,38,82,0,0
3.0951e+05,1.4078e+08,0,5876,5942,15.46,3.44,38,83,0,0
3.0995e+05,1.4088e+08,0,5926,5714,15.75,3.09,38,83,0,0
3.104e+05,1.4099e+08,0,5669,4685,15.57,2.6,38,83,0,0
3.1084e+05,1.4111e+08,0,4701,4928,15.76,2.18,38,83,0,0
3.113e+05,1.4122e+08,0,4881,4400,15.62,1.99,38,83,0,0
3.1174e+05,1.4132e+08,0,4360,3842,15.88,0.56,38,83,0,0
3.1219e+05,1.4143e+08,0,3821,3528,16.04,0.34,38,83,0,0
3.1263e+05,1.4154e+08,0,3540,3657,15.69,1.97,38,83,0,0
3.1308e+05,1.4165e+08,0,3599,3142,16,0.19,38,83,0,0
3.1352e+05,1.4176e+08,0,3113,2828,15.97,0.28,38,83,0,0
3.1393e+05,1.4186e+08,0,2825,2785,15.98,0.42,38,83,0,0
3.1434e+05,1.4197e+08,0,2787,2900,15.97,0.56,38,83,0,0
3.1482e+05,1.4208e+08,0,2900,2900,15.97,0.5,38,83,0,0
3.1527e+05,1.4219e+08,0,2900,2914,15.96,0.58,38,83,0,0
3.1567e+05,1.423e+08,0,2914,2928,15.98,0.52,38,83,0,0
3.1612e+05,1.424e+08,0,2927,2914,15.98,0.54,38,83,0,0
3.1661e+05,1.4252e+08,0,2914,2928,15.98,0.5,38,83,0,0
3.1705e+05,1.4263e+08,0,2930,2957,16,0.52,38,83,0,0
3.1745e+05,1.4273e+08,0,2956,2942,15.97,0.5,38,83,0,0
3.1794e+05,1.4284e+08,0,2943,2971,16,0.53,38,83,0,0
3.1839e+05,1.4295e+08,0,2971,2985,16.01,0.51,38,83,0,0
3.1928e+05,1.4316e+08,0,2984,2942,16.02,0.52,38,83,0,0
3.1978e+05,1.4328e+08,0,2940,2928,16.01,0.54,38,83,0,0
3.2021e+05,1.4338e+08,0,2875,2171,16.1,0.03,38,83,0,0
3.2062e+05,1.4349e+08,0,2164,1585,16.09,0,38,83,0,0
3.2111e+05,1.436e+08,0,1569,1342,16.07,0.06,38,83,0,0
3.2155e+05,1.4371e+08,0,1340,1314,16.07,0.1,38,83,0,0
3.22e+05,1.4381e+08,0,1314,1314,16.08,0.11,38,83,0,0
3.2245e+05,1.4392e+08,0,1314,1314,16.08,0.11,38,83,0,0
3.229e+05,1.4403e+08,0,1314,1314,16.08,0.11,38,83,0,0
3.233e+05,1.4413e+08,0,1314,1314,16.08,0.11,38,83,0,0
3.2375e+05,1.4424e+08,0,1314,1314,16.08,0.11,38,83,0,0
3.2423e+05,1.4436e+08,0,1314,1314,16.08,0.11,38,83,0,0
3.2468e+05,1.4446e+08,0,1314,1314,16.08,0.11,38,83,0,0
3.2513e+05,1.4458e+08,0,1314,1314,16.09,0.1,38,83,0,0
3.2554e+05,1.4467e+08,0,1314,1314,16.09,0.11,37,83,0,0
3.2602e+05,1.4479e+08,0,1314,1314,16.1,0.1,38,83,0,0
3.2647e+05,1.449e+08,0,1314,1314,16.1,0.1,37,83,0,0
3.2687e+05,1.4499e+08,0,1314,1328,16.1,0.1,37,83,0,0
3.2732e+05,1.451e+08,0,1328,1328,16.11,0.1,37,83,0,0
3.278e+05,1.4521e+08,0,1327,1314,16.1,0.11,37,83,0,0
3.2825e+05,1.4532e+08,0,1315,1328,16.1,0.1,37,83,0,0
3.287e+05,1.4542e+08,0,1327,1314,16.11,0.11,37,83,0,0
3.2918e+05,1.4554e+08,0,1314,1314,16.11,0.1,37,83,0,0
3.2959e+05,1.4564e+08,0,1314,1314,16.11,0.1,37,83,0,0
3.3004e+05,1.4575e+08,0,1314,1314,16.12,0.1,37,83,0,0
3.3049e+05,1.4587e+08,0,1315,1328,16.12,0.1,37,83,0,0
3.3093e+05,1.4597e+08,0,1327,1314,16.12,0.11,37,83,0,0
3.3138e+05,1.4608e+08,0,1314,1314,16.13,0.11,37,83,0,0
3.3183e+05,1.4618e+08,0,1314,1314,16.13,0.11,37,83,0,0
3.3231e+05,1.463e+08,0,1314,1314,16.13,0.11,37,83,0,0
3.3281e+05,1.4641e+08,0,1314,1314,16.13,0.11,37,83,0,0
3.3326e+05,1.4652e+08,0,1314,1314,16.13,0.11,37,83,0,0
3.337e+05,1.4663e+08,0,1314,1314,16.13,0.11,37,83,0,0
3.3415e+05,1.4674e+08,0,1314,1314,16.14,0.11,37,83,0,0
3.3459e+05,1.4684e+08,0,1314,1328,16.13,0.11,37,83,0,0
3.3504e+05,1.4695e+08,0,1328,1328,16.13,0.11,37,83,0,0
3.3553e+05,1.4706e+08,0,1325,1300,16.14,0.11,37,83,0,0
3.3601e+05,1.4718e+08,0,1301,1314,16.14,0.11,37,83,0,0
3.3642e+05,1.4728e+08,0,1314,1314,16.14,0.11,37,83,0,0
3.3691e+05,1.4739e+08,0,1314,1314,16.14,0.11,37,83,0,0
3.3735e+05,1.475e+08,0,1315,1328,16.15,0.11,37,83,0,0
3.3779e+05,1.4761e+08,0,1327,1314,16.15,0.11,37,83,0,0
3.3821e+05,1.4771e+08,0,1314,1328,16.14,0.11,37,83,0,0
3.3914e+05,1.4793e+08,0,1328,1328,16.15,0.11,37,83,0,0
3.3959e+05,1.4804e+08,0,1328,1328,16.15,0.11,37,83,0,0
3.4e+05,1.4815e+08,0,1328,1328,16.15,0.11,37,83,0,0
3.4045e+05,1.4825e+08,0,1328,1328,16.15,0.11,37,83,0,0
3.4094e+05,1.4837e+08,0,1326,1314,16.16,0.11,37,83,0,0
3.4134e+05,1.4847e+08,0,1314,1328,16.16,0.11,37,83,0,0
3.4179e+05,1.4858e+08,0,1328,1328,16.16,0.11,37,83,0,0
3.4224e+05,1.4869e+08,0,1328,1328,16.16,0.11,37,83,0,0
3.4265e+05,1.4879e+08,0,1328,1328,16.16,0.11,37,83,0,0
3.4313e+05,1.4891e+08,0,1327,1314,16.16,0.11,37,83,0,0
3.4358e+05,1.4901e+08,0,1315,1328,16.17,0.11,37,83,0,0
3.4398e+05,1.4911e+08,0,1328,1328,16.16,0.1,37,83,0,0
3.4444e+05,1.4922e+08,0,1328,1328,16.17,0.11,37,83,0,0
3.4537e+05,1.4944e+08,0,1327,1314,16.17,0.11,37,83,0,0
3.4581e+05,1.4955e+08,0,1314,1328,16.17,0.11,37,83,0,0
3.4626e+05,1.4966e+08,0,1328,1328,16.17,0.11,37,83,0,0
3.467e+05,1.4976e+08,0,1328,1328,16.17,0.11,37,83,0,0
3.4715e+05,1.4987e+08,0,1328,1328,16.18,0.11,37,83,0,0
3.4765e+05,1.4999e+08,0,1328,1328,16.17,0.11,37,83,0,0
3.481e+05,1.501e+08,0,1328,1328,16.18,0.11,37,83,0,0
3.4854e+05,1.502e+08,0,1328,1328,16.18,0.11,37,83,0,0
3.4899e+05,1.5032e+08,0,1328,1328,16.18,0.11,37,83,0,0
3.494e+05,1.5042e+08,0,1328,1328,16.18,0.1,37,83,0,0
3.4985e+05,1.5053e+08,0,1328,1328,16.19,0.11,37,83,0,0
3.503e+05,1.5063e+08,0,1328,1328,16.18,0.11,37,83,0,0
3.5074e+05,1.5074e+08,0,1328,1328,16.19,0.11,37,83,0,0
3.5119e+05,1.5085e+08,0,1328,1328,16.19,0.11,37,83,0,0
3.5164e+05,1.5096e+08,0,1328,1328,16.19,0.1,37,83,0,0
3.5212e+05,1.5107e+08,0,1328,1328,16.19,0.11,37,83,0,0
3.5301e+05,1.5128e+08,0,1328,1328,16.19,0.11,37,83,0,0
3.5346e+05,1.5139e+08,0,1328,1328,16.19,0.11,37,83,0,0
3.5391e+05,1.515e+08,0,1327,1314,16.19,0.11,36,83,0,0
3.5436e+05,1.5161e+08,0,1314,1314,16.19,0.11,37,83,0,0
3.5476e+05,1.5171e+08,0,1314,1314,16.2,0.11,36,83,0,0
3.5521e+05,1.5182e+08,0,1314,1314,16.19,0.11,36,83,0,0
3.5566e+05,1.5193e+08,0,1315,1328,16.19,0.11,36,83,0,0
3.561e+05,1.5203e+08,0,1328,1328,16.2,0.11,36,83,0,0
3.5659e+05,1.5215e+08,0,1326,1314,16.2,0.11,36,83,0,0
3.5699e+05,1.5224e+08,0,1314,1314,16.2,0.11,36,83,0,0
3.5744e+05,1.5236e+08,0,1314,1314,16.21,0.11,36,83,0,0
3.5797e+05,1.5248e+08,0,1314,1314,16.2,0.11,36,83,0,0
3.5837e+05,1.5258e+08,0,1314,1314,16.21,0.11,36,83,0,0
3.5882e+05,1.5269e+08,0,1314,1314,16.21,0.11,36,83,0,0
3.5971e+05,1.529e+08,0,1314,1314,16.2,0.11,36,83,0,0
3.6016e+05,1.5301e+08,0,1314,1328,16.21,0.11,37,83,0,0
3.606e+05,1.5312e+08,0,1326,1314,16.21,0.11,36,83,0,0
3.6105e+05,1.5323e+08,0,1314,1314,16.21,0.11,36,83,0,0
3.6149e+05,1.5333e+08,0,1314,1314,16.21,0.11,36,83,0,0
3.6197e+05,1.5344e+08,0,1260,471,16.23,0,36,83,0,0
3.6237e+05,1.5354e+08,0,466,185,16.23,0.03,36,83,0,0
3.6287e+05,1.5366e+08,0,172,0,16.23,0.04,36,83,0,0
3.6332e+05,1.5376e+08,0,0,0,16.24,0.04,36,83,0,0
3.6377e+05,1.5387e+08,0,0,0,16.23,0.04,36,83,0,0
3.6427e+05,1.5399e+08,0,0,0,16.23,0.04,36,84,0,0
3.6472e+05,1.5409e+08,0,0,0,16.23,0.04,36,84,0,0
3.6562e+05,1.5431e+08,0,0,0,16.24,0.04,36,84,0,0
3.6611e+05,1.5442e+08,0,0,0,16.23,0.04,36,84,0,0
3.6656e+05,1.5453e+08,0,0,0,16.24,0.04,36,84,0,0
3.6702e+05,1.5464e+08,0,0,0,16.24,0.04,36,84,0,0
3.6748e+05,1.5475e+08,0,0,0,16.24,0.04,36,84,0,0
3.6794e+05,1.5486e+08,0,0,0,16.25,0.04,36,84,0,0
3.6838e+05,1.5497e+08,0,0,0,16.25,0.04,36,84,0,0
3.6884e+05,1.5507e+08,0,0,0,16.25,0.04,36,84,0,0
3.6933e+05,1.5519e+08,0,0,0,16.25,0.04,36,84,0,0
3.7023e+05,1.554e+08,0,0,0,16.25,0.04,36,84,0,0
3.7068e+05,1.5551e+08,0,0,0,16.25,0.04,36,84,0,0
3.7114e+05,1.5562e+08,0,0,0,16.25,0.04,36,84,0,0
3.7159e+05,1.5573e+08,0,0,0,16.25,0.04,36,84,0,0
3.7295e+05,1.5606e+08,0,0,0,16.25,0.04,36,84,0,0
3.734e+05,1.5616e+08,0,0,0,16.25,0.04,36,84,0,0
3.7385e+05,1.5627e+08,0,0,0,16.26,0.04,36,84,0,0
3.7434e+05,1.5638e+08,0,0,0,16.25,0.04,36,84,0,0
3.7483e+05,1.565e+08,0,0,0,16.26,0.04,36,84,0,0
3.7529e+05,1.566e+08,0,0,0,16.26,0.04,36,84,0,0
3.7574e+05,1.5671e+08,0,0,0,16.26,0.04,36,84,0,0
3.7665e+05,1.5693e+08,0,0,0,16.26,0.04,36,84,0,0
3.771e+05,1.5703e+08,0,0,0,16.26,0.04,36,84,0,0
