LineNo,TimeUS,Instance,RPM,RawRPM,Volt,Curr,Temp,CTot,MotTemp,Err
1783,65388887,2,0,0,16.63,0.04,27,0,0,0
2235,65497441,2,0,0,16.63,0.04,27,0,0,0
2741,65613023,2,0,0,16.63,0.04,27,0,0,0
3201,65725354,2,0,0,16.63,0.04,27,0,0,0
3655,65827063,2,0,0,16.63,0.04,27,0,0,0
4108,65932941,2,0,0,16.63,0.04,27,0,0,0
4605,66044888,2,0,0,16.63,0.04,27,0,0,0
5506,66253527,2,0,0,16.62,0.04,27,0,0,0
5959,66359371,2,0,0,16.63,0.04,27,0,0,0
6416,66470838,2,0,0,16.63,0.04,27,0,0,0
6868,66572997,2,0,0,16.63,0.04,27,0,0,0
7401,66694031,2,0,0,16.63,0.04,27,0,0,0
7856,66797882,2,18,185,16.62,0.03,27,0,0,0
8314,66904279,2,203,414,16.61,0.07000000000000001,27,0,0,0
8806,67013300,2,452,857,16.6,0.13,27,0,0,0
9261,67123448,2,879,1214,16.6,0.15,27,0,0,0
9716,67228799,2,1220,1285,16.6,0.12,27,0,0,0
10167,67332059,2,1286,1328,16.6,0.11,27,0,0,0
10663,67445145,2,1330,1357,16.61,0.11,27,0,0,0
11115,67552671,2,1358,1371,16.61,0.11,27,0,0,0
11568,67654902,2,1371,1371,16.61,0.09999999,27,0,0,0
11981,67756184,2,1371,1371,16.61,0.11,27,0,0,0
12480,67870221,2,1371,1371,16.61,0.11,27,0,0,0
12966,67979979,2,1371,1371,16.6,0.11,27,0,0,0
13672,68190299,2,1357,1385,16.6,0.11,27,0,0,0
14162,68300278,2,1384,1371,16.6,0.11,27,0,0,0
14660,68413055,2,1371,1371,16.61,0.11,27,0,0,0
15074,68512668,2,1371,1371,16.61,0.11,27,0,0,0
15570,68626001,2,1371,1371,16.6,0.11,27,0,0,0
16027,68735586,2,1371,1371,16.61,0.11,27,0,0,0
16484,68838974,2,1371,1371,16.61,0.11,27,0,0,0
16980,68956194,2,1371,1371,16.61,0.11,27,0,0,0
17889,69168250,2,1371,1371,16.61,0.11,27,0,0,0
18384,69283837,2,1371,1371,16.61,0.11,27,0,0,0
18798,69380023,2,1369,1357,16.6,0.11,27,0,0,0
19248,69486173,2,1357,1357,16.61,0.11,27,0,0,0
19745,69599792,2,1357,1357,16.6,0.11,27,0,0,0
20195,69705405,2,1357,1357,16.6,0.11,27,0,0,0
20697,69817919,2,1357,1357,16.6,0.11,27,0,0,0
21153,69926809,2,1358,1371,16.6,0.11,27,0,0,0
21605,70030016,2,1371,1371,16.61,0.11,27,0,0,0
22061,70140824,2,1371,1371,16.6,0.11,27,0,0,0
22513,70242860,2,1371,1371,16.61,0.11,27,0,0,0
23012,70355434,2,1371,1371,16.6,0.11,27,0,0,0
23467,70460734,2,1370,1357,16.61,0.11,27,0,0,0
23963,70575950,2,1357,1357,16.61,0.11,27,0,0,0
24881,70793011,2,1357,1357,16.6,0.11,27,0,0,0
25296,70895656,2,1357,1357,16.61,0.11,27,0,0,0
25746,70997906,2,1357,1371,16.6,0.11,27,0,0,0
26244,71114293,2,1371,1371,16.59,0.11,27,0,0,0
26696,71216173,2,1386,1542,16.57,0.24,27,0,0,0
27591,71431019,2,1576,3085,16.43,1.32,27,0,0,0
28038,71536801,2,3109,3571,16.24,1.57,27,0,0,0
28494,71646024,2,3601,4042,15.86,3.58,27,0,0,0
28987,71764380,2,4139,5157,15.89,3.37,27,0,0,0
29405,71863519,2,5167,5414,15.77,3.17,27,0,0,0
29896,71978416,2,5418,5485,15.92,3.03,27,0,0,0
30839,72195650,2,5502,5985,15.94,3.4,27,1,0,0
31295,72306769,2,5990,6071,15.88,3.66,27,1,0,0
31749,72414632,2,6068,6042,15.94,3.66,27,1,0,0
32242,72532645,2,6057,6228,15.89,4.07,27,1,0,0
32696,72638801,2,6235,6342,15.82,4.18,27,1,0,0
33145,72746653,2,6339,6314,15.82,4.29,27,1,0,0
33599,72852279,2,6315,6342,15.85,4.01,27,1,0,0
34512,73075955,2,6341,6285,15.89,3.88,27,2,0,0
34972,73187178,2,6271,6142,15.83,3.77,27,2,0,0
35380,73286257,2,6142,6142,15.86,3.89,27,2,0,0
35874,73401421,2,6158,6328,15.82,4.02,27,2,0,0
36322,73509426,2,6326,6300,15.81,4.2,28,2,0,0
36817,73626240,2,6288,6171,15.89,4,27,2,0,0
37224,73725996,2,6174,6357,15.8,4.5,28,2,0,0
38133,73942017,2,6358,6500,15.78,4.43,28,3,0,0
38627,74059277,2,6484,6342,15.8,4.08,28,3,0,0
39076,74168060,2,6338,6300,15.79,4.25,28,3,0,0
39530,74276860,2,6301,6357,15.82,4.09,28,3,0,0
39982,74383618,2,6358,6428,15.82,4.37,28,3,0,0
40434,74492980,2,6424,6385,15.82,4.3,28,3,0,0
40885,74598875,2,6386,6414,15.74,4.26,28,3,0,0
41331,74714628,2,6417,6442,15.75,4.51,28,4,0,0
41788,74823061,2,6446,6485,15.76,4.39,28,4,0,0
42191,74931808,2,6484,6414,15.77,4.2,28,4,0,0
42642,75036210,2,6413,6357,15.8,3.97,28,4,0,0
43084,75149248,2,6352,6271,15.82,3.87,28,4,0,0
43540,75257436,2,6265,6200,15.77,3.96,28,4,0,0
43946,75360655,2,6200,6242,15.75,3.95,28,4,0,0
44472,75485071,2,6256,6342,15.74,3.8,28,4,0,0
44878,75587471,2,6319,6085,15.79,3.63,28,5,0,0
45321,75701658,2,6083,6071,15.7,3.64,28,5,0,0
45730,75801661,2,6061,5971,15.72,3.62,28,5,0,0
46178,75915876,2,6011,6342,15.66,4.11,28,5,0,0
46625,76022414,2,6329,6200,15.69,3.81,28,5,0,0
47035,76125395,2,6201,6285,15.66,3.98,28,5,0,0
47520,76240245,2,6281,6200,15.75,3.78,28,5,0,0
47965,76350455,2,6197,6171,15.7,3.72,28,5,0,0
48820,76562919,2,6168,5942,15.89,3.28,28,6,0,0
49265,76669199,2,5931,5728,15.92,2.89,28,6,0,0
49709,76776994,2,5724,5642,15.92,2.76,28,6,0,0
50197,76896214,2,5640,5628,15.86,2.65,28,6,0,0
50606,76998897,2,5625,5428,15.82,2.89,28,6,0,0
51087,77110887,2,5441,5685,15.86,2.94,29,6,0,0
51539,77224151,2,5670,5457,15.91,2.32,28,6,0,0
51979,77333063,2,5451,5385,15.89,2.43,28,6,0,0
52430,77440831,2,5385,5400,15.88,2.41,28,6,0,0
52880,77555330,2,5400,5400,15.93,2.53,28,6,0,0
53331,77664424,2,5406,5471,15.88,2.37,29,6,0,0
53733,77768210,2,5469,5371,15.92,2.37,29,6,0,0
54218,77882972,2,5366,5328,15.86,2.52,29,7,0,0
54623,77983070,2,5328,5342,15.8,2.65,29,7,0,0
55072,78096050,2,5347,5457,15.83,2.67,29,7,0,0
55528,78209935,2,5462,5514,15.89,2.39,29,7,0,0
56423,78426826,2,5513,5500,15.85,2.68,29,7,0,0
56854,78526780,2,5501,5557,15.88,2.66,29,7,0,0
57309,78639171,2,5554,5514,15.89,2.37,29,7,0,0
57716,78743033,2,5515,5600,15.87,2.62,29,7,0,0
58210,78858759,2,5590,5457,15.84,2.5,29,7,0,0
58659,78973771,2,5472,5628,15.83,2.96,29,7,0,0
59509,79185380,2,5633,5900,15.72,3.4,29,7,0,0
59956,79296746,2,5907,6057,15.66,3.48,29,8,0,0
60405,79406391,2,6060,6142,15.65,3.44,29,8,0,0
60854,79519646,2,6143,6157,15.69,3.46,29,8,0,0
61302,79625189,2,6149,6042,15.62,3.49,29,8,0,0
61746,79734276,2,6048,6171,15.66,3.46,29,8,0,0
62195,79840667,2,6164,6014,15.65,3.8,29,8,0,0
62647,79955755,2,6040,6300,15.7,3.87,29,8,0,0
63091,80064154,2,6297,6242,15.75,3.56,29,8,0,0
63534,80172185,2,6247,6300,15.67,3.43,29,8,0,0
63984,80284932,2,6282,6157,15.68,3.34,29,9,0,0
64431,80390833,2,6143,6014,15.79,3.38,29,9,0,0
64876,80501192,2,6016,6042,15.76,3.25,29,9,0,0
65281,80599880,2,6043,6100,15.69,3.27,29,9,0,0
65774,80718252,2,6084,5871,15.77,3.07,29,9,0,0
66220,80823737,2,5868,5842,15.74,3.26,29,9,0,0
66625,80926969,2,5845,5971,15.77,3.28,29,9,0,0
67079,81038658,2,5966,5900,15.75,3.24,29,9,0,0
67524,81147200,2,5899,5871,15.69,3.15,29,9,0,0
67982,81260041,2,5871,5871,15.7,3.28,29,9,0,0
68424,81372177,2,5859,5742,15.77,2.93,29,10,0,0
68831,81477359,2,5724,5442,15.8,2.08,29,10,0,0
69314,81588814,2,5421,5114,15.82,1.76,29,10,0,0
69761,81700148,2,5114,5128,15.8,2.67,29,10,0,0
70216,81812586,2,5164,5671,15.72,3.39,29,10,0,0
70667,81925392,2,5691,5885,15.76,3.54,29,10,0,0
71113,82030964,2,5909,6257,15.73,3.95,29,10,0,0
72004,82247647,2,6257,6357,15.67,4.28,29,10,0,0
72928,82468215,2,6351,6100,15.72,3.55,29,11,0,0
73359,82588768,2,6101,6114,15.67,3.73,29,11,0,0
73763,82689152,2,6120,6228,15.69,4.02,29,11,0,0
74211,82802903,2,6202,6000,15.78,2.74,29,11,0,0
75109,83017584,2,5979,5485,15.85,2.14,29,11,0,0
75559,83134980,2,5483,5471,15.83,2.26,29,11,0,0
75968,83235425,2,5472,5500,15.82,2.43,29,11,0,0
76413,83345453,2,5510,5585,15.74,2.67,29,11,0,0
76821,83446421,2,5595,5800,15.77,2.87,29,11,0,0
77716,83664245,2,5798,5657,15.76,3.01,29,11,0,0
78612,83885429,2,5676,6042,15.72,3.39,29,12,0,0
79015,83982050,2,6040,5914,15.75,3.1,29,12,0,0
79502,84100870,2,5934,6142,15.8,3.28,29,12,0,0
79956,84211654,2,6125,5957,15.7,3.55,29,12,0,0
80353,84309886,2,5958,6071,15.61,3.45,29,12,0,0
80848,84430047,2,6080,6157,15.69,3.31,29,12,0,0
81287,84536174,2,6155,6128,15.69,3.48,29,12,0,0
81739,84647916,2,6132,6185,15.66,3.87,29,12,0,0
82147,84753877,2,6183,6100,15.75,3.24,29,13,0,0
82637,84874167,2,6057,5771,15.73,2.44,29,13,0,0
83039,84970036,2,5767,5700,15.61,2.99,29,13,0,0
84390,85309224,2,5687,5271,15.76,2.17,29,13,0,0
84797,85408202,2,5270,5257,15.89,1.92,29,13,0,0
85240,85518454,2,5254,5142,15.77,1.97,29,13,0,0
85732,85636991,2,5166,5428,15.67,2.15,29,13,0,0
86131,85736060,2,5431,5557,15.72,2.77,29,13,0,0
86543,85839665,2,5558,5657,15.73,2.83,29,13,0,0
87032,85960192,2,5677,5885,15.72,3.39,29,13,0,0
87439,86064770,2,5884,5857,15.62,3.07,29,13,0,0
87925,86175875,2,5846,5714,15.72,3.05,29,14,0,0
88817,86394853,2,5718,5928,15.77,2.88,29,14,0,0
89267,86509153,2,5921,5857,15.74,2.93,29,14,0,0
89720,86618669,2,5861,5900,15.71,2.69,29,14,0,0
90153,86722178,2,5893,5771,15.69,2.43,30,14,0,0
90599,86828366,2,5779,5957,15.69,2.95,29,14,0,0
91056,86943438,2,5958,5985,15.67,3.35,29,14,0,0
91458,87042050,2,5983,5914,15.67,2.79,29,14,0,0
91906,87154185,2,5914,5914,15.67,2.85,29,14,0,0
92364,87264802,2,5916,5971,15.64,3.68,30,14,0,0
93245,87479222,2,5969,5842,15.56,3.39,29,15,0,0
93738,87597365,2,5847,5928,15.63,3.44,29,15,0,0
94185,87705997,2,5939,6057,15.6,3.35,30,15,0,0
94634,87814809,2,6054,6014,15.62,3.44,29,15,0,0
95079,87924953,2,6024,6128,15.63,3.42,30,15,0,0
95489,88025296,2,6127,6071,15.62,3.29,29,15,0,0
95974,88143359,2,6070,6057,15.61,3.22,29,15,0,0
96386,88247211,2,6051,5942,15.65,3.21,30,15,0,0
97279,88469850,2,5939,5885,15.72,3.14,30,16,0,0
97725,88578255,2,5883,5857,15.69,2.94,29,16,0,0
98127,88679257,2,5853,5771,15.72,2.86,29,16,0,0
99026,88901661,2,5767,5671,15.72,2.48,29,16,0,0
99435,89003821,2,5668,5571,15.72,2.14,30,16,0,0
99914,89115056,2,5556,5257,15.75,2.16,29,16,0,0
100369,89228603,2,5267,5385,15.8,2.2,30,16,0,0
100818,89340933,2,5374,5271,15.75,1.94,30,16,0,0
101226,89440263,2,5270,5257,15.76,2.25,30,16,0,0
101713,89562284,2,5251,5214,15.71,2.39,29,16,0,0
102165,89667786,2,5225,5342,15.64,2.33,30,16,0,0
102567,89770431,2,5339,5242,15.7,2.4,29,16,0,0
103011,89879009,2,5245,5385,15.7,2.45,30,17,0,0
103494,89995254,2,5389,5428,15.63,2.62,30,17,0,0
103946,90111162,2,5443,5614,15.63,2.85,30,17,0,0
104795,90315265,2,5613,5600,15.62,2.85,30,17,0,0
105246,90424962,2,5609,5757,15.64,2.94,30,17,0,0
105656,90528036,2,5756,5742,15.54,2.95,29,17,0,0
106143,90647261,2,5739,5714,15.61,3.11,30,17,0,0
106547,90746066,2,5713,5700,15.61,2.88,30,17,0,0
107038,90861744,2,5703,5742,15.64,2.98,30,17,0,0
107443,90965013,2,5742,5785,15.66,2.8,30,17,0,0
107895,91075470,2,5776,5585,15.71,2.53,30,18,0,0
108368,91187434,2,5576,5500,15.72,2.31,30,18,0,0
108816,91299289,2,5495,5442,15.68,2.65,30,18,0,0
109710,91516765,2,5440,5400,15.64,2.37,30,18,0,0
110162,91625428,2,5398,5385,15.61,2.59,29,18,0,0
110612,91738856,2,5394,5500,15.57,2.61,30,18,0,0
111062,91847030,2,5502,5528,15.55,2.98,30,18,0,0
111502,91951281,2,5534,5628,15.64,3.17,30,18,0,0
111954,92063218,2,5641,5771,15.58,3.02,30,18,0,0
112396,92171956,2,5760,5614,15.57,2.57,30,18,0,0
112879,92283859,2,5635,5771,15.51,3.21,30,18,0,0
113280,92381985,2,5769,5700,15.65,2.86,30,19,0,0
113732,92497792,2,5712,5842,15.66,3.12,30,19,0,0
114184,92606861,2,5861,6057,15.61,2.97,29,19,0,0
114621,92709752,2,6054,5971,15.65,2.7,30,19,0,0
115114,92829615,2,5958,5828,15.72,2.45,29,19,0,0
115520,92933006,2,5826,5742,15.69,2.41,30,19,0,0
116011,93047793,2,5718,5400,15.63,1.88,30,19,0,0
116410,93146051,2,5410,5814,15.58,3.07,30,19,0,0
116861,93257040,2,5816,5871,15.6,3.06,30,19,0,0
117303,93366610,2,5878,6028,15.55,3.06,30,19,0,0
117794,93481256,2,6015,5728,15.61,2.98,30,19,0,0
118198,93584827,2,5731,5800,15.54,3.04,30,19,0,0
118645,93695233,2,5798,5757,15.55,3.13,30,20,0,0
119091,93801014,2,5759,5842,15.54,3.14,30,20,0,0
119539,93911219,2,5842,5857,15.56,3.45,30,20,0,0
119988,94020269,2,5861,5928,15.52,3.68,30,20,0,0
120436,94132255,2,5915,5742,15.56,2.45,30,20,0,0
120882,94241373,2,5740,5628,15.57,2.77,30,20,0,0
121369,94358828,2,5619,5528,15.57,2.94,30,20,0,0
121777,94461068,2,5533,5657,15.54,2.97,30,20,0,0
122174,94562048,2,5655,5528,15.56,2.62,30,20,0,0
122665,94677446,2,5530,5585,15.63,2.82,30,20,0,0
123116,94785217,2,5583,5571,15.58,2.94,30,20,0,0
123524,94886954,2,5571,5585,15.58,2.86,30,21,0,0
124014,95006424,2,5588,5628,15.57,3.2,30,21,0,0
124382,95103796,2,5636,5828,15.54,3.24,30,21,0,0
124867,95217369,2,5822,5742,15.51,3.03,30,21,0,0
125317,95331017,2,5726,5514,15.56,2.58,30,21,0,0
125764,95439325,2,5516,5542,15.6,2.76,30,21,0,0
126209,95548278,2,5546,5585,15.52,2.67,30,21,0,0
126656,95653418,2,5585,5585,15.57,2.85,30,21,0,0
127106,95766811,2,5575,5471,15.63,2.79,30,21,0,0
127553,95877357,2,5480,5614,15.59,2.84,30,21,0,0
127999,95983298,2,5612,5585,15.59,2.89,30,21,0,0
128452,96093843,2,5596,5714,15.52,2.85,30,21,0,0
128857,96192456,2,5709,5628,15.51,2.87,30,22,0,0
129304,96307272,2,5630,5657,15.58,3.01,30,22,0,0
129712,96409572,2,5656,5642,15.53,3.28,30,22,0,0
130155,96519212,2,5644,5685,15.51,3.2,30,22,0,0
131050,96737261,2,5685,5728,15.54,3.05,30,22,0,0
131946,96957286,2,5727,5714,15.52,3.25,30,22,0,0
132399,97065284,2,5724,5885,15.51,3.33,30,22,0,0
133731,97393265,2,5888,6000,15.5,3.48,30,23,0,0
134135,97497011,2,5985,5785,15.47,3.39,30,23,0,0
134590,97609284,2,5791,5857,15.53,3.38,30,23,0,0
134996,97713555,2,5863,5957,15.52,3.35,30,23,0,0
135440,97818058,2,5952,5685,15.64,2.93,30,23,0,0
135888,97928033,2,5693,5900,15.58,3.19,30,23,0,0
136338,98036608,2,5900,5900,15.55,3.3,30,23,0,0
137238,98266268,2,5895,5842,15.57,3.42,30,23,0,0
137641,98362836,2,5845,5928,15.61,3.54,30,24,0,0
139012,98700764,2,5928,5942,15.52,3.5,30,24,0,0
139460,98808193,2,5946,6042,15.5,3.63,30,24,0,0
139948,98921321,2,6042,6042,15.57,3.56,30,24,0,0
140398,99031838,2,6044,6071,15.55,3.42,30,24,0,0
140810,99140938,2,6063,5985,15.55,3.2,30,24,0,0
141262,99248898,2,5985,5985,15.55,3.13,30,24,0,0
141702,99360565,2,5981,5942,15.53,3.38,30,24,0,0
142110,99460198,2,5927,5785,15.54,3.13,30,25,0,0
142560,99573173,2,5784,5771,15.55,3.05,30,25,0,0
143005,99679732,2,5780,5857,15.51,3.02,30,25,0,0
143895,99897803,2,5844,5628,15.48,2.8,30,25,0,0
144298,99997443,2,5625,5500,15.6,2.9,30,25,0,0
144787,100117144,2,5508,5585,15.51,3.01,30,25,0,0
145193,100216424,2,5587,5757,15.52,3.38,30,25,0,0
145678,100332656,2,5766,5857,15.55,3.4,30,25,0,0
146578,100554439,2,5855,5814,15.58,3.18,30,26,0,0
146984,100656027,2,5810,5742,15.52,3.42,30,26,0,0
147390,100762879,2,5747,5814,15.51,3.44,30,26,0,0
148248,100976040,2,5815,5957,15.6,3.48,30,26,0,0
148702,101087868,2,5941,5814,15.53,3.02,30,26,0,0
149145,101195243,2,5807,5628,15.54,2.72,30,26,0,0
149588,101303668,2,5617,5457,15.6,2.42,30,26,0,0
150072,101413755,2,5457,5457,15.55,2.81,30,26,0,0
150472,101515021,2,5455,5342,15.57,2.6,30,26,0,0
150924,101624405,2,5342,5342,15.56,2.53,30,26,0,0
151404,101738795,2,5340,5314,15.59,2.07,30,27,0,0
151855,101848152,2,5308,5257,15.57,2.22,30,27,0,0
152301,101959928,2,5258,5271,15.6,2.32,30,27,0,0
152749,102066216,2,5271,5285,15.54,2.59,30,27,0,0
153203,102183861,2,5285,5285,15.55,2.38,30,27,0,0
153603,102285213,2,5290,5500,15.55,2.67,30,27,0,0
154495,102502245,2,5495,5371,15.5,2.71,30,27,0,0
154948,102615249,2,5391,5600,15.56,2.96,30,27,0,0
156278,102940236,2,5606,5828,15.54,3.78,30,27,0,0
156731,103049856,2,5837,5928,15.44,3.6,30,28,0,0
157135,103154417,2,5931,5985,15.5,3.53,30,28,0,0
157584,103263670,2,5990,6057,15.47,3.6,30,28,0,0
158030,103377345,2,6057,6057,15.5,3.76,30,28,0,0
158438,103482166,2,6053,6014,15.48,3.82,30,28,0,0
158895,103597356,2,6017,6057,15.48,3.63,30,28,0,0
159291,103698051,2,6059,6114,15.5,3.32,30,28,0,0
159742,103808275,2,6102,5857,15.57,3.12,30,28,0,0
160183,103915623,2,5858,5885,15.49,3.21,30,28,0,0
160634,104024066,2,5884,5871,15.48,2.88,30,28,0,0
161086,104138435,2,5851,5657,15.5,2.81,30,29,0,0
161533,104248011,2,5660,5714,15.52,2.97,30,29,0,0
161937,104350871,2,5715,5742,15.56,2.84,30,29,0,0
162387,104459834,2,5741,5728,15.44,3.33,30,29,0,0
162786,104563568,2,5726,5671,15.41,3.01,30,29,0,0
163281,104687289,2,5671,5671,15.45,3.02,30,29,0,0
163684,104788203,2,5669,5657,15.43,3.22,30,29,0,0
164129,104898886,2,5672,6014,15.37,3.62,30,29,0,0
164579,105008742,2,6016,6042,15.4,3.91,30,29,0,0
165025,105120066,2,6031,5928,15.5,3.3,30,29,0,0
165429,105219742,2,5927,5885,15.52,3.69,30,30,0,0
165916,105339658,2,5879,5828,15.43,3.4,30,30,0,0
166362,105446826,2,5841,5971,15.42,3.81,30,30,0,0
166764,105546633,2,5972,6014,15.44,3.73,30,30,0,0
167212,105657621,2,6016,6071,15.38,3.75,30,30,0,0
167659,105771262,2,6061,5857,15.38,3.26,30,30,0,0
168113,105889793,2,5855,5842,15.47,3.2,30,30,0,0
168517,105989773,2,5841,5828,15.53,3.34,30,30,0,0
168967,106103226,2,5821,5728,15.46,3.24,30,30,0,0
169416,106212869,2,5735,5842,15.47,3.24,30,31,0,0
169860,106327854,2,5845,5885,15.46,3.29,30,31,0,0
170308,106438971,2,5874,5771,15.52,3.26,30,31,0,0
171565,106757796,2,5771,5800,15.47,3.55,30,31,0,0
172419,106974213,2,5805,5957,15.45,3.63,30,31,0,0
173317,107193912,2,5957,5957,15.53,3.5,30,31,0,0
173757,107300256,2,5950,5785,15.54,3.15,30,32,0,0
174204,107410000,2,5804,6057,15.56,3.5,30,32,0,0
174609,107512279,2,6056,6028,15.46,3.79,30,32,0,0
175100,107629143,2,6030,6057,15.48,3.83,30,32,0,0
175497,107726813,2,6059,6100,15.55,3.94,30,32,0,0
175946,107834857,2,6102,6157,15.49,3.62,30,32,0,0
176394,107951835,2,6151,6100,15.51,3.87,30,32,0,0
176845,108058076,2,6107,6228,15.55,4.03,30,32,0,0
178577,108483880,2,6227,5942,15.53,3.56,30,33,0,0
179063,108605970,2,5953,6085,15.49,3.71,30,33,0,0
179464,108709264,2,6075,5885,15.47,3.69,30,33,0,0
179916,108816893,2,5904,6114,15.48,3.82,30,33,0,0
180367,108929160,2,6110,6057,15.44,3.91,30,33,0,0
180818,109037428,2,6059,6128,15.51,4.3,30,33,0,0
181258,109149383,2,6121,6057,15.43,3.91,30,33,0,0
181697,109251172,2,6064,6400,15.45,4.36,30,34,0,0
182547,109464939,2,6397,6100,15.48,4.2,30,34,0,0
183038,109585404,2,6108,6228,15.47,4.02,30,34,0,0
183478,109694478,2,6221,6071,15.47,4.16,30,34,0,0
183926,109800596,2,6069,6028,15.51,3.57,30,34,0,0
184374,109913455,2,6015,5842,15.51,3.49,30,34,0,0
185275,110140776,2,5842,5857,15.5,3.35,30,35,0,0
185719,110246073,2,5871,6057,15.49,3.68,30,35,0,0
186122,110346293,2,6059,6100,15.45,3.81,30,35,0,0
186571,110457254,2,6105,6171,15.44,4.02,30,35,0,0
186982,110561165,2,6172,6257,15.47,4.02,30,35,0,0
187873,110781328,2,6253,6114,15.48,3.96,30,35,0,0
188315,110889792,2,6117,6157,15.49,3.79,30,35,0,0
188763,110997223,2,6152,6057,15.46,3.77,30,35,0,0
189211,111110885,2,6040,5828,15.49,3.44,30,36,0,0
189662,111221255,2,5830,5857,15.54,3.32,30,36,0,0
190062,111321794,2,5851,5557,15.48,2.63,30,36,0,0
190551,111438779,2,5557,5557,15.45,2.77,30,36,0,0
190956,111541414,2,5551,5300,15.5,2.26,30,36,0,0
191406,111653822,2,5300,5300,15.55,2.28,30,36,0,0
191847,111762966,2,5306,5400,15.51,2.19,30,36,0,0
192297,111873052,2,5398,5385,15.52,2.66,30,36,0,0
192742,111981180,2,5386,5414,15.56,2.51,30,36,0,0
193185,112088433,2,5421,5757,15.5,3.15,30,36,0,0
193677,112207160,2,5748,5657,15.51,3.13,30,36,0,0
194076,112307179,2,5662,5957,15.52,3.19,30,37,0,0
194570,112423741,2,5965,6057,15.45,3.59,30,37,0,0
194967,112523537,2,6068,6300,15.5,3.55,30,37,0,0
195459,112642599,2,6297,6271,15.54,3.77,30,37,0,0
195858,112745073,2,6274,6314,15.48,3.52,30,37,0,0
196303,112849621,2,6308,6200,15.51,3.89,30,37,0,0
197212,113081411,2,6199,6185,15.5,3.16,30,37,0,0
197613,113180801,2,6182,6142,15.56,3.47,30,37,0,0
198060,113292849,2,6129,5985,15.48,2.95,30,37,0,0
198505,113398140,2,5986,6014,15.48,2.93,30,38,0,0
198958,113512300,2,6009,5957,15.5,2.88,30,38,0,0
199403,113619417,2,5955,5914,15.49,2.57,30,38,0,0
199809,113723845,2,5907,5771,15.52,2.46,30,38,0,0
200302,113842978,2,5782,5900,15.47,3,30,38,0,0
200703,113943507,2,5907,6000,15.52,2.74,30,38,0,0
201152,114050016,2,5997,5957,15.54,2.82,30,38,0,0
201600,114162739,2,5960,6000,15.51,2.96,30,38,0,0
202043,114269303,2,5995,5900,15.47,3.21,30,38,0,0
202482,114376276,2,5910,6042,15.51,3.44,30,38,0,0
202894,114477894,2,6043,6128,15.44,3.52,30,38,0,0
203339,114591004,2,6127,6100,15.48,3.53,30,39,0,0
204236,114817446,2,6104,6200,15.41,3.64,30,39,0,0
204637,114919997,2,6202,6285,15.45,3.57,30,39,0,0
205129,115036281,2,6277,6171,15.41,3.23,30,39,0,0
205532,115136857,2,6168,6085,15.42,3.53,30,39,0,0
206390,115352813,2,6085,6114,15.48,3.13,30,39,0,0
206840,115461965,2,6107,5942,15.45,3.05,30,39,0,0
207288,115577172,2,5952,6085,15.51,3.21,30,40,0,0
207690,115679959,2,6084,6014,15.5,3.2,30,40,0,0
208180,115800651,2,5995,5742,15.52,2.86,30,40,0,0
208619,115908834,2,5760,5971,15.45,2.86,30,40,0,0
209073,116019794,2,5954,5842,15.38,3.09,30,40,0,0
209476,116117604,2,5845,6057,15.41,3.28,30,40,0,0
209924,116225309,2,6051,5928,15.38,3.2,30,40,0,0
210406,116347201,2,5928,5928,15.45,3.36,30,40,0,0
210859,116455935,2,5928,5928,15.46,3.12,30,40,0,0
211265,116558038,2,5930,6000,15.45,3.09,30,40,0,0
211709,116669396,2,6000,6000,15.47,3.32,30,40,0,0
212156,116779432,2,5991,5914,15.47,3.03,30,41,0,0
212566,116876780,2,5913,5885,15.56,3.06,30,41,0,0
213004,116986230,2,5881,5828,15.47,3.1,30,41,0,0
213407,117094018,2,5822,5714,15.54,2.99,30,41,0,0
213899,117211745,2,5721,5800,15.52,2.98,30,41,0,0
214338,117320981,2,5785,5657,15.47,2.96,30,41,0,0
214785,117427973,2,5658,5671,15.46,2.75,30,41,0,0
215194,117535762,2,5670,5600,15.52,2.81,30,41,0,0
215642,117645424,2,5602,5657,15.5,2.84,30,41,0,0
216121,117760155,2,5671,5785,15.46,3.1,30,41,0,0
216528,117861631,2,5788,5828,15.46,3.25,30,41,0,0
216975,117971163,2,5822,5714,15.42,2.84,30,42,0,0
217422,118086159,2,5721,5785,15.45,3.1,30,42,0,0
218715,118401186,2,5784,5757,15.47,3.05,30,42,0,0
219470,118613665,2,5760,5842,15.5,3.01,30,42,0,0
219918,118727747,2,5832,5742,15.52,2.81,30,42,0,0
220369,118836272,2,5751,5828,15.48,2.96,30,42,0,0
220815,118945603,2,5822,5785,15.47,3.05,30,42,0,0
221259,119050603,2,5777,5714,15.52,2.99,30,43,0,0
221694,119153785,2,5715,5728,15.44,3.09,30,43,0,0
222590,119377032,2,5731,5800,15.45,2.85,30,43,0,0
223038,119491041,2,5798,5785,15.48,2.71,30,43,0,0
223446,119588851,2,5782,5728,15.5,2.89,30,43,0,0
223925,119705989,2,5737,5828,15.44,2.9,30,43,0,0
224329,119804819,2,5816,5671,15.48,2.96,30,43,0,0
224775,119914357,2,5672,5714,15.42,3.03,30,43,0,0
225227,120025383,2,5731,5971,15.45,3.08,30,43,0,0
226122,120248497,2,5961,5771,15.48,2.96,30,43,0,0
226527,120352486,2,5777,5842,15.5,2.9,30,44,0,0
226977,120459158,2,5842,5842,15.52,2.74,30,44,0,0
227422,120572039,2,5840,5828,15.42,2.97,30,44,0,0
227865,120683742,2,5832,5871,15.51,2.88,30,44,0,0
228275,120788145,2,5853,5685,15.48,3.02,30,44,0,0
228716,120895636,2,5687,5728,15.41,3.39,30,44,0,0
229609,121112212,2,5731,5814,15.47,2.96,30,44,0,0
230017,121214771,2,5813,5785,15.48,2.59,30,44,0,0
230505,121335663,2,5775,5671,15.44,2.71,30,44,0,0
230955,121445133,2,5670,5657,15.52,2.44,30,44,0,0
231397,121552823,2,5654,5600,15.51,2.37,30,45,0,0
231806,121653600,2,5600,5642,15.57,2.41,30,45,0,0
232287,121765238,2,5631,5428,15.52,2.42,30,45,0,0
232741,121875588,2,5434,5514,15.52,2.51,30,45,0,0
233185,121983763,2,5518,5614,15.52,2.65,30,45,0,0
234083,122205047,2,5612,5557,15.53,2.42,30,45,0,0
234563,122316799,2,5542,5357,15.58,2.26,30,45,0,0
235019,122430985,2,5374,5557,15.45,2.78,30,45,0,0
235463,122542855,2,5577,5785,15.45,2.74,30,45,0,0
235869,122642850,2,5792,5885,15.54,3.36,30,45,0,0
236312,122752453,2,5903,6142,15.48,3,30,45,0,0
236766,122865397,2,6126,5971,15.41,3.34,30,45,0,0
237210,122975040,2,5980,6085,15.43,3.33,30,46,0,0
237654,123085507,2,6086,6100,15.42,3.3,30,46,0,0
238502,123294393,2,6100,6157,15.41,3.62,30,46,0,0
238952,123404064,2,6154,6114,15.38,3.57,30,46,0,0
239401,123518275,2,6093,5885,15.37,3.32,30,46,0,0
239849,123627641,2,5896,6014,15.35,3.57,30,46,0,0
240250,123727947,2,6016,6114,15.39,3.43,30,46,0,0
240701,123838457,2,6101,5814,15.33,3.69,30,46,0,0
241145,123946856,2,5818,5971,15.38,3.54,30,47,0,0
241641,124068251,2,5974,6000,15.42,3.51,30,47,0,0
242044,124167254,2,5993,5857,15.42,3.29,30,47,0,0
242530,124285231,2,5861,5900,15.43,3.03,30,47,0,0
242936,124384623,2,5887,5642,15.4,2.95,30,47,0,0
243382,124495140,2,5644,5700,15.45,3.18,30,47,0,0
243830,124603042,2,5705,5785,15.45,3.15,30,47,0,0
244274,124713292,2,5781,5728,15.42,3.27,30,47,0,0
244723,124822437,2,5722,5671,15.47,3.24,30,47,0,0
245130,124927481,2,5678,5828,15.42,3.14,30,47,0,0
245571,125030832,2,5828,5828,15.49,3.27,30,48,0,0
246016,125142979,2,5825,5785,15.39,3.42,30,48,0,0
246462,125247297,2,5787,5842,15.48,3.23,30,48,0,0
246910,125360789,2,5836,5785,15.5,2.94,30,48,0,0
247356,125468734,2,5783,5771,15.48,2.99,30,48,0,0
247800,125578181,2,5750,5542,15.45,3.07,30,48,0,0
248282,125693817,2,5580,5785,15.48,3.19,30,48,0,0
248686,125791617,2,5785,5785,15.45,3.21,30,48,0,0
249135,125906038,2,5780,5742,15.47,3.22,30,48,0,0
249585,126011954,2,5742,5742,15.46,3.1,30,48,0,0
250432,126222065,2,5742,5785,15.41,3.1,30,49,0,0
250878,126336669,2,5787,5842,15.39,3.41,30,49,0,0
251328,126446401,2,5857,6057,15.38,3.81,30,49,0,0
251774,126563171,2,6072,6200,15.38,3.5,30,49,0,0
252222,126668239,2,6182,6028,15.33,3.2,30,49,0,0
252666,126779183,2,6023,5985,15.41,3.09,30,49,0,0
253558,126997694,2,5981,5928,15.45,3.09,30,49,0,0
253967,127101228,2,5931,5971,15.42,3.2,30,49,0,0
254411,127210944,2,5983,6085,15.37,3.37,30,50,0,0
254818,127309217,2,6080,5814,15.39,3.13,30,50,0,0
255306,127431766,2,5817,5842,15.41,3.01,30,50,0,0
255665,127525857,2,5838,5685,15.42,2.92,30,50,0,0
256163,127645353,2,5685,5685,15.4,3.28,30,50,0,0
256603,127756560,2,5682,5657,15.38,3.05,30,50,0,0
257041,127854742,2,5664,5814,15.33,3.31,30,50,0,0
257493,127968411,2,5829,6014,15.38,3.63,30,50,0,0
257940,128077850,2,6021,6114,15.43,4.11,30,50,0,0
258380,128186221,2,6124,6214,15.39,4.03,30,50,0,0
258816,128286984,2,6218,6400,15.33,4.15,30,51,0,0
259266,128398968,2,6397,6228,15.45,3.76,30,51,0,0
260154,128619760,2,6229,6314,15.44,3.77,30,51,0,0
260601,128729295,2,6291,6071,15.41,3.87,30,51,0,0
261049,128840198,2,6085,6214,15.47,3.49,30,51,0,0
261459,128944301,2,6197,6000,15.4,3.32,30,51,0,0
261908,129055004,2,5994,5942,15.48,3.05,30,51,0,0
262313,129158408,2,5940,5857,15.47,2.66,30,51,0,0
262761,129263743,2,5852,5542,15.54,2.28,30,52,0,0
263202,129372099,2,5537,5357,15.61,2.08,30,52,0,0
263693,129493976,2,5341,5157,15.61,1.89,30,52,0,0
264142,129603669,2,5157,5157,15.55,2.29,30,52,0,0
264988,129811994,2,5166,5428,15.54,2.49,30,52,0,0
265434,129923608,2,5442,5642,15.54,2.58,30,52,0,0
265885,130032257,2,5640,5614,15.45,2.6,30,52,0,0
266328,130141235,2,5628,5828,15.51,2.66,30,52,0,0
266772,130247158,2,5830,5985,15.45,2.82,30,52,0,0
267221,130356917,2,5979,5857,15.5,2.44,30,52,0,0
267671,130464645,2,5852,5771,15.47,2.68,30,52,0,0
268116,130577422,2,5776,5857,15.51,2.89,30,52,0,0
268560,130686818,2,5857,5900,15.45,2.75,30,52,0,0
269011,130797654,2,5891,5771,15.45,2.71,30,53,0,0
269461,130911233,2,5781,5885,15.48,2.95,30,53,0,0
269866,131008987,2,5885,5914,15.51,2.73,30,53,0,0
270311,131119666,2,5912,5871,15.48,2.86,30,53,0,0
270757,131226451,2,5872,5914,15.46,2.9,30,53,0,0
271210,131342039,2,5920,6014,15.46,2.99,30,53,0,0
271659,131451245,2,6014,6014,15.5,2.92,30,53,0,0
272109,131562070,2,6016,6085,15.49,2.88,30,53,0,0
272561,131675797,2,6069,5857,15.43,3.19,30,53,0,0
273005,131785658,2,5875,6057,15.46,3.45,30,53,0,0
273451,131895574,2,6069,6171,15.38,3.38,30,53,0,0
273903,132005858,2,6159,6000,15.48,3.44,30,54,0,0
274791,132220437,2,6004,6228,15.46,3.33,30,54,0,0
275237,132330424,2,6218,6085,15.39,3.58,30,54,0,0
276527,132647468,2,6087,6500,15.32,3.9,30,54,0,0
277008,132763016,2,6502,6542,15.31,4.27,30,54,0,0
277458,132871812,2,6531,6385,15.38,3.62,30,54,0,0
277906,132983596,2,6377,6300,15.42,3.56,30,55,0,0
278272,133080808,2,6300,6371,15.38,3.54,30,55,0,0
278723,133193400,2,6360,6214,15.42,3.68,30,55,0,0
279169,133303625,2,6228,6385,15.42,3.92,30,55,0,0
279616,133411283,2,6376,6257,15.39,3.79,30,55,0,0
280058,133521598,2,6251,6200,15.54,3.28,30,55,0,0
280506,133631237,2,6178,5971,15.45,3.2,30,55,0,0
280912,133737994,2,5979,6085,15.51,3.2,30,55,0,0
281363,133846032,2,6084,6071,15.43,3.42,30,55,0,0
281767,133947866,2,6069,5985,15.39,3.17,30,56,0,0
282251,134058194,2,5991,6142,15.44,3.33,30,56,0,0
282699,134170740,2,6141,6128,15.45,3.5,30,56,0,0
283150,134279826,2,6120,6028,15.45,3.24,30,56,0,0
283592,134389598,2,6025,6000,15.47,3.21,30,56,0,0
283994,134490598,2,6009,6200,15.46,3.52,30,56,0,0
284439,134596872,2,6190,5971,15.42,3.19,30,56,0,0
284882,134706242,2,5967,5914,15.48,3.2,30,56,0,0
285331,134821858,2,5915,5928,15.43,3.28,30,56,0,0
285735,134917429,2,5937,6128,15.47,3.42,30,56,0,0
286228,135041168,2,6117,6042,15.44,3.3,30,57,0,0
286668,135149900,2,6050,6114,15.47,3.41,30,57,0,0
287075,135246289,2,6111,5985,15.41,3.6,30,57,0,0
287523,135356201,2,5987,6014,15.33,3.68,30,57,0,0
287970,135469149,2,6019,6128,15.3,3.69,30,57,0,0
288413,135581711,2,6136,6228,15.4,3.62,30,57,0,0
288853,135690226,2,6207,6057,15.37,3.58,30,57,0,0
289306,135798288,2,6072,6242,15.33,3.82,30,57,0,0
289711,135905448,2,6224,6042,15.36,3.73,30,57,0,0
290163,136017283,2,6063,6257,15.39,3.77,30,58,0,0
290572,136119013,2,6247,6028,15.36,3.52,30,58,0,0
291062,136240672,2,6035,6114,15.36,3.12,30,58,0,0
291468,136341279,2,6092,5900,15.42,3.61,30,58,0,0
291916,136453136,2,5901,5914,15.41,3.57,30,58,0,0
292358,136558601,2,5931,6085,15.36,3.62,30,58,0,0
293247,136775458,2,6088,6214,15.37,3.62,30,58,0,0
293691,136889236,2,6194,6028,15.38,3.79,30,58,0,0
294147,137003049,2,6034,6085,15.44,3.86,30,58,0,0
294547,137103790,2,6086,6100,15.45,3.39,30,59,0,0
295398,137313581,2,6097,5871,15.42,3.2,30,59,0,0
295888,137428585,2,5854,5685,15.46,3.27,30,59,0,0
296734,137636822,2,5686,5914,15.47,3.27,30,59,0,0
297186,137752943,2,5910,5828,15.44,3.21,30,59,0,0
298113,137972775,2,5830,5928,15.39,3.28,30,59,0,0
298528,138083661,2,5926,5914,15.44,3.48,30,59,0,0
298973,138190283,2,5915,5957,15.47,3.38,30,60,0,0
299451,138301161,2,5956,5928,15.4,3.17,30,60,0,0
299901,138408815,2,5928,5942,15.4,3.55,30,60,0,0
300345,138519899,2,5945,6028,15.37,3.65,30,60,0,0
300789,138625592,2,6030,6128,15.41,3.97,30,60,0,0
301243,138738780,2,6120,6014,15.43,3.7,30,60,0,0
302134,138955735,2,6012,5957,15.43,3.7,30,60,0,0
302581,139064865,2,5957,6014,15.42,3.55,30,60,0,0
303028,139176779,2,6012,5928,15.42,3.61,30,61,0,0
303473,139288134,2,5930,5971,15.45,3.52,30,61,0,0
303920,139395433,2,5963,5871,15.39,3.42,30,61,0,0
304325,139501761,2,5879,6057,15.37,3.73,30,61,0,0
304773,139610135,2,6054,6014,15.42,3.66,30,61,0,0
305217,139719871,2,6001,5871,15.45,3.79,30,61,0,0
305671,139829176,2,5883,6014,15.41,3.53,30,61,0,0
306111,139936829,2,6008,5928,15.42,3.65,30,61,0,0
306558,140043435,2,5928,5942,15.42,3,30,61,0,0
307009,140157433,2,5938,5900,15.41,3.72,30,62,0,0
307459,140266288,2,5904,5971,15.41,3.33,30,62,0,0
307905,140377929,2,5961,5857,15.39,3.41,30,62,0,0
308756,140589233,2,5857,5871,15.48,3.58,30,62,0,0
309197,140698279,2,5870,5857,15.37,3.07,30,62,0,0
309694,140820036,2,5857,5857,15.48,3.33,30,62,0,0
310134,140926214,2,5780,5042,16.17,0.82,30,62,0,0
310583,141036977,2,5051,5142,15.66,4.05,30,62,0,0
310983,141137198,2,5131,4928,15.95,1.24,30,62,0,0
311435,141248227,2,4942,5142,15.92,2,30,62,0,0
311878,141356764,2,5094,4442,15.82,1.33,30,63,0,0
312326,141462818,2,4411,3857,15.89,0.35,30,63,0,0
312769,141571987,2,3868,4028,16.03,1.45,30,63,0,0
313219,141681475,2,3963,3285,15.94,0.29,30,63,0,0
313660,141792300,2,3272,3085,15.94,0.45,30,63,0,0
314065,141897055,2,3082,3042,15.92,0.49,30,63,0,0
314522,142009519,2,3040,3028,15.94,0.52,30,63,0,0
314960,142115043,2,3028,3028,15.95,0.53,30,63,0,0
315450,142232430,2,3024,2985,15.96,0.48,30,63,0,0
315856,142338383,2,2987,3014,15.95,0.53,30,63,0,0
316304,142445896,2,3011,2985,15.95,0.49,30,63,0,0
316742,142551168,2,2985,3000,15.95,0.51,30,63,0,0
317189,142657049,2,3000,3000,15.95,0.51,30,63,0,0
317669,142773257,2,2998,2985,15.95,0.51,30,63,0,0
318081,142873650,2,2985,2985,15.97,0.47,30,63,0,0
318569,142989994,2,2979,2914,15.97,0.46,30,63,0,0
318971,143089595,2,2914,2928,15.97,0.47,30,63,0,0
319457,143209228,2,2929,2942,15.98,0.47,30,63,0,0
319937,143320189,2,2937,2885,16.1,0.31,30,63,0,0
321279,143643228,2,2841,1357,16.04,0.07000000000000001,30,63,0,0
321728,143752973,2,1352,1328,16.04,0.09,30,63,0,0
323030,144067194,2,1328,1328,16.05,0.09,30,63,0,0
323476,144177256,2,1328,1328,16.05,0.09,30,63,0,0
323922,144283565,2,1328,1328,16.06,0.09,30,63,0,0
324366,144388371,2,1328,1328,16.05,0.09,30,63,0,0
324811,144497140,2,1328,1328,16.07,0.09,30,63,0,0
325222,144598848,2,1328,1328,16.06,0.09,30,63,0,0
325668,144705993,2,1328,1328,16.07,0.09,30,63,0,0
326152,144815848,2,1328,1328,16.07,0.09,30,63,0,0
326558,144917241,2,1328,1328,16.07,0.09,30,63,0,0
327048,145030818,2,1328,1328,16.07,0.09,30,63,0,0
327493,145137753,2,1328,1328,16.07,0.09,30,63,0,0
327978,145248424,2,1328,1328,16.07,0.09,30,63,0,0
328386,145351577,2,1328,1328,16.07,0.09,30,63,0,0
328880,145466655,2,1328,1328,16.08,0.09,30,63,0,0
329322,145573619,2,1328,1328,16.08,0.09,30,63,0,0
329778,145691155,2,1328,1328,16.08,0.09,30,63,0,0
330223,145796873,2,1329,1342,16.08,0.09,30,63,0,0
330629,145899281,2,1341,1328,16.08,0.09,30,63,0,0
331110,146006456,2,1328,1328,16.08,0.09,30,63,0,0
331564,146118621,2,1329,1342,16.08,0.09,30,63,0,0
332015,146224240,2,1342,1342,16.09,0.09,30,63,0,0
332496,146337666,2,1340,1328,16.1,0.09,30,63,0,0
332942,146441634,2,1328,1328,16.1,0.09,30,63,0,0
333390,146552835,2,1328,1328,16.1,0.09,30,63,0,0
333835,146656758,2,1328,1328,16.1,0.09,30,63,0,0
334767,146880588,2,1328,1328,16.1,0.09,30,63,0,0
335693,147103912,2,1327,1314,16.11,0.09999999,30,63,0,0
336147,147213272,2,1314,1314,16.1,0.09,30,63,0,0
336591,147322454,2,1315,1328,16.1,0.09,30,63,0,0
337037,147426754,2,1326,1314,16.11,0.09,30,63,0,0
337478,147533596,2,1314,1328,16.11,0.09999999,30,63,0,0
337888,147634884,2,1328,1328,16.11,0.09999999,30,63,0,0
338382,147752954,2,1328,1328,16.11,0.09,30,63,0,0
338821,147853364,2,1328,1328,16.11,0.09999999,30,63,0,0
339268,147963599,2,1327,1314,16.12,0.09999999,30,63,0,0
339687,148076888,2,1315,1328,16.11,0.09999999,30,63,0,0
340134,148180088,2,1328,1328,16.11,0.09999999,30,63,0,0
340625,148295669,2,1328,1328,16.11,0.09999999,30,63,0,0
341073,148402844,2,1328,1328,16.13,0.09999999,30,63,0,0
341518,148511774,2,1328,1328,16.11,0.09999999,30,63,0,0
341925,148610503,2,1327,1314,16.13,0.09,30,63,0,0
342377,148722750,2,1314,1314,16.12,0.09999999,30,63,0,0
342835,148833453,2,1314,1314,16.12,0.09999999,30,63,0,0
343268,148936947,2,1314,1328,16.14,0.09999999,30,63,0,0
343725,149045439,2,1328,1328,16.13,0.09,30,63,0,0
344171,149153393,2,1328,1328,16.13,0.09,30,63,0,0
344621,149262486,2,1328,1328,16.13,0.09999999,30,63,0,0
345058,149364183,2,1328,1328,16.14,0.09999999,30,63,0,0
345547,149482453,2,1328,1328,16.14,0.09,30,63,0,0
345995,149590023,2,1328,1328,16.14,0.09,30,63,0,0
346403,149694219,2,1328,1328,16.14,0.09,30,63,0,0
346887,149804164,2,1328,1328,16.14,0.09999999,30,63,0,0
347337,149915981,2,1329,1342,16.14,0.09999999,30,63,0,0
347783,150019264,2,1341,1328,16.14,0.09,30,63,0,0
348230,150128641,2,1328,1342,16.14,0.09,30,63,0,0
348677,150232821,2,1342,1342,16.14,0.09,30,63,0,0
349129,150347008,2,1341,1328,16.15,0.09,30,63,0,0
349580,150461515,2,1328,1328,16.15,0.09,30,63,0,0
350026,150569043,2,1328,1328,16.14,0.09,30,63,0,0
350473,150673219,2,1329,1342,16.16,0.09,30,63,0,0
350917,150780826,2,1342,1342,16.15,0.09,30,63,0,0
351325,150884024,2,1341,1328,16.16,0.09,30,63,0,0
351808,150990061,2,1328,1342,16.15,0.09,30,63,0,0
352253,151101693,2,1340,1328,16.16,0.09,30,63,0,0
352702,151209629,2,1328,1328,16.16,0.09,30,63,0,0
353149,151320411,2,1329,1342,16.16,0.09,30,63,0,0
353557,151421186,2,1341,1328,16.16,0.09,30,63,0,0
354041,151534402,2,1328,1342,16.17,0.09999999,30,63,0,0
354892,151741186,2,1341,1328,16.16,0.09999999,30,63,0,0
355343,151850591,2,1328,1328,16.17,0.09999999,30,63,0,0
355790,151961670,2,1328,1328,16.17,0.09999999,30,63,0,0
356271,152072296,2,1328,1328,16.17,0.09,30,63,0,0
356721,152179204,2,1328,1328,16.17,0.09,30,63,0,0
357614,152397236,2,1328,1342,16.17,0.09,30,63,0,0
358062,152505735,2,1341,1328,16.17,0.09,30,63,0,0
358507,152611023,2,1328,1328,16.17,0.09,30,63,0,0
358954,152720177,2,1328,1328,16.18,0.09,30,63,0,0
359401,152826973,2,1328,1328,16.17,0.09,30,63,0,0
359851,152935358,2,1328,1328,16.17,0.09,30,63,0,0
360340,153050146,2,1328,1328,16.17,0.09,30,63,0,0
360745,153150158,2,1328,1328,16.17,0.09,30,63,0,0
361193,153256878,2,1328,1328,16.18,0.09999999,30,63,0,0
361670,153368244,2,1316,1200,16.23,0.05,30,63,0,0
362103,153479861,2,1097,300,16.2,0,30,63,0,0
362555,153584542,2,289,0,16.2,0,30,63,0,0
363000,153688784,2,0,0,16.2,0.02,30,63,0,0
363499,153804173,2,0,0,16.2,0.02,30,63,0,0
363952,153913363,2,0,0,16.2,0.02,30,63,0,0
364404,154017277,2,0,0,16.2,0.03,30,63,0,0
364899,154135154,2,0,0,16.2,0.02,30,63,0,0
365797,154348195,2,0,0,16.2,0.02,30,63,0,0
366248,154453013,2,0,0,16.2,0.02,30,63,0,0
366702,154562467,2,0,0,16.2,0.02,30,63,0,0
367128,154669824,2,0,0,16.21,0.02,30,63,0,0
367619,154787771,2,0,0,16.21,0.02,30,63,0,0
368069,154894857,2,0,0,16.21,0.02,30,63,0,0
368520,154999480,2,0,0,16.21,0.02,30,63,0,0
369463,155222750,2,0,0,16.22,0.02,30,63,0,0
369911,155327290,2,0,0,16.21,0.02,30,63,0,0
370409,155443394,2,0,0,16.21,0.02,30,63,0,0
370819,155543373,2,0,0,16.22,0.02,30,63,0,0
371325,155662954,2,0,0,16.21,0.02,30,63,0,0
371730,155763007,2,0,0,16.22,0.02,30,63,0,0
372183,155872017,2,0,0,16.22,0.02,30,63,0,0
372640,155983157,2,0,0,16.22,0.03,30,63,0,0
373089,156089063,2,0,0,16.22,0.03,30,63,0,0
373542,156193469,2,0,0,16.22,0.03,30,63,0,0
374070,156313824,2,0,0,16.22,0.03,30,63,0,0
374521,156418347,2,0,0,16.22,0.03,30,63,0,0
374971,156527040,2,0,0,16.22,0.03,30,63,0,0
375426,156632443,2,0,0,16.23,0.03,30,63,0,0
375878,156743230,2,0,0,16.22,0.03,30,63,0,0
376373,156859207,2,0,0,16.22,0.03,30,63,0,0
376782,156959540,2,0,0,16.23,0.03,30,63,0,0
