LineNo,TimeUS,Instance,RPM,RawRPM,Volt,Curr,Temp,CTot,MotTemp,Err
1967,65430472,4,0,0,16.59,0.03,28,0,0,0
2420,65540179,4,0,0,16.59,0.03,28,0,0,0
2876,65644202,4,0,0,16.59,0.03,28,0,0,0
3336,65755861,4,0,0,16.59,0.03,28,0,0,0
4242,65963183,4,0,0,16.59,0.03,28,0,0,0
4737,66076465,4,0,0,16.6,0.03,28,0,0,0
5188,66181738,4,0,0,16.6,0.03,28,0,0,0
5639,66288435,4,0,0,16.6,0.03,27,0,0,0
6140,66403206,4,0,0,16.6,0.03,28,0,0,0
6550,66501356,4,0,0,16.6,0.03,28,0,0,0
7049,66614421,4,0,0,16.6,0.03,28,0,0,0
7493,66713893,4,0,0,16.6,0.03,28,0,0,0
7990,66827237,4,11,185,16.58,0.03,28,0,0,0
8448,66936040,4,200,542,16.57,0.08,28,0,0,0
8942,67044439,4,569,957,16.57,0.14,28,0,0,0
9400,67154547,4,974,1242,16.57,0.12,28,0,0,0
9856,67259535,4,1245,1314,16.57,0.11,28,0,0,0
10351,67373016,4,1316,1342,16.58,0.11,28,0,0,0
10802,67479873,4,1343,1357,16.57,0.09999999,28,0,0,0
11254,67583669,4,1357,1357,16.58,0.09999999,28,0,0,0
11668,67683782,4,1357,1357,16.58,0.09999999,28,0,0,0
12164,67797923,4,1357,1357,16.58,0.09999999,28,0,0,0
12650,67905761,4,1357,1357,16.57,0.09999999,28,0,0,0
13106,68010426,4,1357,1357,16.58,0.09999999,28,0,0,0
13852,68231616,4,1357,1357,16.57,0.11,28,0,0,0
14342,68341608,4,1357,1357,16.57,0.11,28,0,0,0
14795,68444451,4,1357,1371,16.58,0.11,28,0,0,0
15252,68553814,4,1370,1357,16.57,0.09999999,28,0,0,0
15707,68663022,4,1358,1371,16.57,0.09999999,28,0,0,0
16163,68766620,4,1370,1357,16.57,0.09999999,28,0,0,0
16661,68883279,4,1357,1357,16.58,0.11,28,0,0,0
17115,68986891,4,1357,1357,16.57,0.09999999,28,0,0,0
17570,69096038,4,1357,1357,16.57,0.11,28,0,0,0
18023,69197899,4,1357,1357,16.58,0.11,28,0,0,0
18477,69304427,4,1357,1357,16.57,0.11,28,0,0,0
18975,69419998,4,1357,1357,16.57,0.11,28,0,0,0
19427,69526561,4,1357,1357,16.58,0.11,28,0,0,0
20332,69735787,4,1357,1357,16.57,0.11,28,0,0,0
20836,69848441,4,1357,1357,16.57,0.09999999,28,0,0,0
21291,69958221,4,1357,1357,16.57,0.09999999,28,0,0,0
21748,70063297,4,1357,1357,16.57,0.09999999,28,0,0,0
22200,70170848,4,1357,1371,16.57,0.09999999,28,0,0,0
23146,70386070,4,1370,1357,16.57,0.09999999,28,0,0,0
23601,70494878,4,1357,1357,16.58,0.11,28,0,0,0
24097,70606429,4,1357,1357,16.57,0.11,28,0,0,0
24554,70718386,4,1357,1357,16.58,0.09999999,28,0,0,0
24984,70823195,4,1357,1357,16.57,0.11,28,0,0,0
25428,70926791,4,1357,1357,16.57,0.11,28,0,0,0
25925,71037871,4,1357,1357,16.57,0.11,28,0,0,0
26378,71145249,4,1358,1385,16.55,0.14,28,0,0,0
26831,71248168,4,1390,1714,16.5,0.27,28,0,0,0
27276,71358777,4,1761,2400,16.28,0.9399999999999999,28,0,0,0
28219,71579882,4,2453,3657,16.23,1.74,28,0,0,0
28668,71690772,4,3768,4614,15.88,3.65,28,0,0,0
29124,71796158,4,4670,5242,15.73,4.26,28,0,0,0
29579,71905278,4,5280,5728,15.88,3.55,28,0,0,0
30080,72020420,4,5724,5685,15.92,3.01,28,0,0,0
30487,72117555,4,5684,5642,15.95,2.55,28,1,0,0
30977,72227146,4,5636,5528,15.91,2.48,28,1,0,0
31433,72338391,4,5521,5385,15.89,2.1,28,1,0,0
31933,72456841,4,5379,5328,15.96,2.29,28,1,0,0
32380,72564642,4,5321,5242,15.94,2.2,28,1,0,0
32837,72669281,4,5247,5385,15.82,2.76,28,1,0,0
33284,72777429,4,5385,5385,15.7,2.65,28,1,0,0
33737,72888042,4,5385,5385,15.94,2.6,28,1,0,0
34195,72998449,4,5386,5414,15.82,2.5,28,1,0,0
34696,73122872,4,5417,5457,15.88,2.74,28,1,0,0
35106,73220147,4,5448,5342,15.83,2.39,28,1,0,0
36009,73434845,4,5344,5542,15.73,2.84,28,1,0,0
36501,73552271,4,5549,5628,15.84,2.71,28,2,0,0
36952,73658611,4,5615,5485,15.84,2.68,28,2,0,0
37408,73768809,4,5479,5428,15.79,2.49,28,2,0,0
37860,73878195,4,5431,5471,15.75,2.8,28,2,0,0
38310,73984280,4,5471,5471,15.79,2.7,28,2,0,0
39211,74200427,4,5469,5314,15.76,2.42,28,2,0,0
39664,74309666,4,5315,5385,15.72,2.68,28,2,0,0
40161,74425868,4,5393,5485,15.77,2.39,28,2,0,0
40613,74537244,4,5460,5228,15.75,2.36,28,2,0,0
41024,74634285,4,5233,5357,15.72,2.97,28,2,0,0
41467,74745810,4,5369,5542,15.73,2.65,28,2,0,0
41920,74855859,4,5534,5428,15.6,2.6,28,3,0,0
42328,74962751,4,5425,5285,15.74,2.29,28,3,0,0
42814,75081284,4,5283,5257,15.74,2.53,28,3,0,0
43222,75183386,4,5255,5228,15.72,2.34,29,3,0,0
43667,75291440,4,5239,5385,15.8,2.53,29,3,0,0
44121,75403431,4,5391,5457,15.71,2.67,29,3,0,0
44560,75510258,4,5460,5514,15.73,2.7,28,3,0,0
45011,75622239,4,5517,5571,15.76,2.9,29,3,0,0
45416,75724996,4,5569,5528,15.63,2.85,29,3,0,0
45867,75834813,4,5530,5571,15.73,2.98,29,3,0,0
46313,75946552,4,5571,5585,15.67,2.5,29,3,0,0
46763,76056235,4,5591,5685,15.59,2.9,29,3,0,0
47211,76168175,4,5689,5742,15.63,3,29,4,0,0
47654,76275477,4,5730,5614,15.64,2.83,29,4,0,0
48101,76381759,4,5617,5700,15.73,2.96,29,4,0,0
48543,76490146,4,5700,5714,15.77,2.77,29,4,0,0
48998,76603672,4,5700,5557,15.86,2.36,29,4,0,0
49439,76711173,4,5534,5314,15.91,2.13,29,4,0,0
49889,76818972,4,5298,5057,15.93,2.03,29,4,0,0
50332,76927216,4,5036,4728,15.91,2.11,29,4,0,0
50790,77041039,4,4731,4771,15.94,2.52,29,4,0,0
51220,77143642,4,4772,4814,15.91,2.15,29,4,0,0
52113,77364568,4,4815,4871,15.91,2.12,29,4,0,0
52614,77485371,4,4883,5057,15.73,2.59,29,4,0,0
53019,77587197,4,5057,5071,15.77,2.24,29,4,0,0
53917,77809435,4,5066,4928,15.7,1.97,29,5,0,0
54357,77914572,4,4929,4971,15.88,1.89,29,5,0,0
54811,78027183,4,4978,5057,15.8,2.5,29,5,0,0
55216,78128828,4,5061,5157,15.85,2.13,29,5,0,0
55670,78241951,4,5155,5114,15.81,2.18,29,5,0,0
56113,78349848,4,5114,5128,15.83,2.13,29,5,0,0
56596,78461822,4,5129,5142,15.73,2.42,29,5,0,0
57450,78674006,4,5145,5242,15.86,2.49,29,5,0,0
57900,78784195,4,5228,5085,15.87,2.1,29,5,0,0
58347,78893839,4,5098,5285,15.8,2.57,29,5,0,0
58798,79005760,4,5297,5471,15.75,2.63,29,5,0,0
59238,79114836,4,5466,5371,15.74,2.49,29,5,0,0
59693,79227937,4,5376,5428,15.68,2.71,29,6,0,0
60140,79338443,4,5442,5585,15.67,2.9,29,6,0,0
60589,79447976,4,5596,5771,15.65,3.14,29,6,0,0
60993,79550377,4,5769,5671,15.66,3.08,29,6,0,0
61483,79668205,4,5682,5785,15.58,3.08,29,6,0,0
61929,79775846,4,5768,5600,15.61,2.17,29,6,0,0
62334,79878146,4,5604,5857,15.66,3.93,29,6,0,0
62783,79988222,4,5858,5885,15.67,3.2,29,6,0,0
63224,80096394,4,5884,5871,15.66,3.17,29,6,0,0
63712,80215179,4,5854,5714,15.6,3.11,29,6,0,0
64119,80315948,4,5701,5585,15.7,2.67,29,6,0,0
64565,80421767,4,5589,5657,15.66,2.67,29,7,0,0
65011,80532503,4,5655,5614,15.64,2.6,29,7,0,0
65492,80648767,4,5607,5557,15.63,2.79,29,7,0,0
65907,80749135,4,5559,5600,15.68,2.63,29,7,0,0
66355,80862438,4,5594,5542,15.74,2.47,29,7,0,0
66807,80975302,4,5538,5500,15.61,2.81,29,7,0,0
67254,81081437,4,5496,5471,15.72,2.47,29,7,0,0
67702,81194963,4,5460,5371,15.73,2.21,29,7,0,0
68107,81299049,4,5363,5285,15.68,2.41,29,7,0,0
68514,81399980,4,5286,5385,15.64,3.15,30,7,0,0
69000,81515428,4,5424,5928,15.64,4.23,29,7,0,0
69490,81635423,4,5957,6285,15.74,3.69,29,7,0,0
69940,81748830,4,6231,5842,15.69,2.73,29,8,0,0
70384,81852152,4,5798,5428,15.7,2.39,29,8,0,0
70798,81957393,4,5408,5128,15.75,2.02,29,8,0,0
71240,82068750,4,5118,4900,15.72,2.4,29,8,0,0
71684,82175851,4,4886,4571,15.44,2.55,30,8,0,0
72131,82281914,4,4575,4928,15.6,3.35,30,8,0,0
72612,82393856,4,4935,5085,15.66,2.46,29,8,0,0
73446,82611014,4,4963,5228,15.55,3.21,30,8,0,0
73901,82726363,4,5252,5600,15.65,3.52,29,8,0,0
74348,82833779,4,5586,5400,15.78,2.08,30,8,0,0
74795,82943882,4,5392,5285,15.72,2.33,30,8,0,0
75245,83052194,4,5292,5400,15.81,2.68,30,9,0,0
75652,83158066,4,5401,5442,15.76,2.66,30,9,0,0
76105,83270043,4,5443,5485,15.65,2.86,30,9,0,0
76549,83376961,4,5485,5500,15.74,2.71,30,9,0,0
76957,83480742,4,5500,5542,15.67,2.88,30,9,0,0
77402,83591255,4,5543,5628,15.7,2.61,30,9,0,0
77889,83708904,4,5622,5571,15.72,2.77,30,9,0,0
78339,83816639,4,5556,5414,15.78,2.61,30,9,0,0
78748,83916759,4,5416,5485,15.63,2.7,30,9,0,0
79639,84134626,4,5476,5242,15.62,2.45,30,9,0,0
80090,84243875,4,5246,5300,15.67,2.6,30,9,0,0
80532,84352009,4,5307,5414,15.61,2.46,30,10,0,0
80982,84461844,4,5404,5271,15.71,2.65,30,10,0,0
81421,84567202,4,5272,5328,15.57,2.97,30,10,0,0
82329,84795755,4,5326,5271,15.64,2.14,30,10,0,0
82776,84906020,4,5259,5142,15.77,2.1,30,10,0,0
83223,85012820,4,5140,5128,15.7,2.95,30,10,0,0
83627,85115779,4,5136,5485,15.75,2.96,30,10,0,0
84080,85226825,4,5477,5300,15.86,2.29,30,10,0,0
84530,85340998,4,5292,5185,15.77,2.82,30,10,0,0
84980,85450988,4,5186,5200,15.76,2.74,30,10,0,0
85422,85560299,4,5198,5171,15.5,3.14,30,10,0,0
85875,85675946,4,5213,5442,15.64,2.77,30,10,0,0
86314,85776862,4,5449,5600,15.61,3.08,30,11,0,0
87171,85990757,4,5601,5671,15.66,2.8,30,11,0,0
87577,86094986,4,5671,5714,15.63,2.91,30,11,0,0
88066,86209232,4,5713,5700,15.64,2.82,30,11,0,0
88514,86322159,4,5698,5600,15.72,2.7,30,11,0,0
89001,86437253,4,5585,5385,15.69,2.42,30,11,0,0
89405,86539841,4,5382,5200,15.7,2.53,30,11,0,0
89856,86650564,4,5201,5228,15.74,2.48,30,11,0,0
90336,86763305,4,5225,5185,15.66,2.72,30,11,0,0
90783,86869966,4,5174,5042,15.6,2.62,30,11,0,0
91190,86975439,4,5045,5085,15.65,2.59,30,11,0,0
92088,87196848,4,5087,5157,15.65,2.28,30,12,0,0
92495,87297004,4,5161,5385,15.66,3.03,30,12,0,0
92974,87406158,4,5386,5428,15.6,2.8,30,12,0,0
93915,87638994,4,5430,5500,15.57,2.46,30,12,0,0
94316,87738468,4,5488,5257,15.6,2.48,30,12,0,0
94769,87849258,4,5267,5414,15.66,2.3,30,12,0,0
95215,87963580,4,5398,5228,15.67,2.35,30,12,0,0
95699,88079991,4,5210,5071,15.58,2.07,30,12,0,0
96108,88182310,4,5071,5071,15.68,2.18,30,12,0,0
96564,88296590,4,5067,5028,15.65,1.96,30,12,0,0
96962,88394368,4,5031,5100,15.64,2.46,30,12,0,0
97405,88504419,4,5098,5085,15.55,2.41,30,12,0,0
97853,88611814,4,5086,5100,15.58,2.26,30,13,0,0
98265,88716255,4,5097,5042,15.67,2.05,30,13,0,0
98716,88827822,4,5042,5042,15.67,2.07,30,13,0,0
99161,88940218,4,5048,5114,15.64,2.12,30,13,0,0
99601,89041370,4,5103,4900,15.73,1.56,30,13,0,0
100498,89263628,4,4903,5057,15.73,2.07,30,13,0,0
100952,89378698,4,5063,5128,15.72,2.01,30,13,0,0
101391,89483204,4,5126,5114,15.73,2.26,30,13,0,0
101844,89596414,4,5128,5271,15.67,2.45,30,13,0,0
102250,89697800,4,5266,5157,15.64,2.07,30,13,0,0
102737,89812760,4,5156,5142,15.62,2.05,30,13,0,0
103179,89917905,4,5149,5285,15.66,2.09,30,13,0,0
103629,90025896,4,5285,5300,15.52,2.46,30,13,0,0
104038,90132434,4,5298,5271,15.56,2.55,30,14,0,0
104483,90238235,4,5270,5228,15.61,2.45,30,14,0,0
104927,90347792,4,5232,5414,15.58,2.53,30,14,0,0
105378,90457064,4,5413,5385,15.6,2.43,30,14,0,0
105786,90561865,4,5383,5300,15.52,1.93,30,14,0,0
106277,90683567,4,5297,5271,15.57,2.27,30,14,0,0
106722,90788214,4,5252,5071,15.58,1.76,30,14,0,0
107171,90900857,4,5085,5228,15.66,2.19,30,14,0,0
107620,91009041,4,5208,5028,15.61,1.81,30,14,0,0
108020,91109635,4,5030,5100,15.66,1.83,30,14,0,0
108503,91218387,4,5097,4985,15.63,2.01,30,14,0,0
108950,91330816,4,4992,5100,15.65,2.57,30,14,0,0
109398,91438032,4,5098,5071,15.66,2.13,30,14,0,0
109849,91549888,4,5070,5057,15.61,2.04,30,14,0,0
110300,91658814,4,5058,5085,15.62,2.29,30,14,0,0
110750,91770416,4,5086,5100,15.58,2.32,30,14,0,0
111684,91994046,4,5109,5314,15.61,2.4,30,15,0,0
112089,92097850,4,5311,5242,15.61,2.11,30,15,0,0
112534,92203025,4,5238,5071,15.57,1.97,30,15,0,0
113017,92317787,4,5084,5214,15.51,2.38,30,15,0,0
113466,92425627,4,5233,5485,15.57,2.49,30,15,0,0
113871,92530152,4,5483,5414,15.45,2.81,30,15,0,0
114323,92638133,4,5414,5414,15.61,2.4,30,15,0,0
114806,92754387,4,5412,5400,15.66,2.47,30,15,0,0
115256,92867363,4,5401,5414,15.64,2.3,30,15,0,0
115702,92974174,4,5404,5314,15.6,1.98,30,15,0,0
116148,93079212,4,5307,5171,15.62,2.26,30,15,0,0
116593,93187182,4,5186,5514,15.54,3.42,30,15,0,0
117001,93294943,4,5521,5942,15.48,3.41,30,15,0,0
117485,93407050,4,5939,5914,15.54,2.68,30,16,0,0
117930,93516366,4,5895,5642,15.5,2.67,30,16,0,0
118383,93625001,4,5636,5542,15.54,2.24,30,16,0,0
119275,93841950,4,5533,5314,15.45,2.35,30,16,0,0
119682,93945652,4,5321,5471,15.41,2.55,30,16,0,0
120173,94062836,4,5478,5557,15.47,3.19,30,16,0,0
120618,94174776,4,5532,5271,15.63,1.81,30,16,0,0
121062,94282668,4,5256,5114,15.57,2.16,30,16,0,0
121504,94397835,4,5137,5300,15.55,2.57,30,16,0,0
121911,94497234,4,5302,5357,15.58,2.49,30,16,0,0
122359,94603863,4,5359,5400,15.54,2.37,30,16,0,0
122800,94708441,4,5397,5342,15.59,2.27,30,16,0,0
123288,94829368,4,5334,5271,15.59,2.4,30,17,0,0
123700,94929164,4,5272,5285,15.59,2.32,30,17,0,0
124150,95040779,4,5290,5342,15.48,2.56,30,17,0,0
124594,95150857,4,5359,5571,15.51,2.77,30,17,0,0
125042,95264013,4,5565,5528,15.5,2.64,30,17,0,0
125942,95480185,4,5516,5285,15.54,2.31,30,17,0,0
126335,95577221,4,5284,5271,15.5,2.34,30,17,0,0
127273,95806231,4,5272,5314,15.51,2.41,30,17,0,0
127683,95909233,4,5331,5485,15.54,2.68,30,17,0,0
128130,96015926,4,5482,5357,15.51,2.43,30,17,0,0
128586,96128744,4,5365,5471,15.54,2.46,30,17,0,0
129034,96241794,4,5458,5342,15.58,2.23,30,18,0,0
129439,96342023,4,5340,5328,15.54,2.19,30,18,0,0
129844,96443062,4,5327,5285,15.49,2.33,30,18,0,0
130335,96568321,4,5276,5214,15.5,2.21,30,18,0,0
130741,96662981,4,5216,5271,15.48,2.26,30,18,0,0
131229,96786212,4,5271,5271,15.54,2.33,30,18,0,0
132079,96993159,4,5268,5214,15.45,2.1,30,18,0,0
132523,97100867,4,5218,5328,15.44,2.36,30,18,0,0
132966,97207498,4,5327,5314,15.47,2.31,30,18,0,0
133413,97319335,4,5312,5285,15.47,2.55,30,18,0,0
133860,97427302,4,5280,5228,15.5,2.17,30,18,0,0
134269,97536235,4,5222,5171,15.42,2.23,30,18,0,0
134721,97643868,4,5175,5242,15.46,2.39,30,18,0,0
135165,97754443,4,5255,5400,15.52,2.14,30,19,0,0
136016,97962168,4,5396,5157,15.55,2.01,30,19,0,0
136919,98187051,4,5145,4928,15.55,1.68,30,19,0,0
137323,98288760,4,4926,4785,15.57,1.72,30,19,0,0
137775,98401885,4,4788,4971,15.42,2.23,30,19,0,0
138252,98513642,4,4973,5085,15.49,2.5,30,19,0,0
138746,98631769,4,5074,4971,15.47,2.27,30,19,0,0
139145,98732439,4,4970,4942,15.57,2.29,30,19,0,0
139597,98840294,4,4945,5142,15.54,2.47,30,19,0,0
140086,98955952,4,5142,5142,15.52,2.6,30,19,0,0
140540,99066235,4,5144,5171,15.52,2.16,30,19,0,0
140945,99172849,4,5181,5400,15.51,2.49,30,19,0,0
141389,99284274,4,5389,5257,15.54,2.39,30,19,0,0
141837,99391006,4,5261,5314,15.38,2.67,30,20,0,0
142287,99505582,4,5328,5471,15.47,2.95,30,20,0,0
142695,99604449,4,5475,5528,15.5,2.88,30,20,0,0
143136,99712035,4,5515,5342,15.55,2.65,30,20,0,0
143585,99820787,4,5346,5457,15.48,2.48,30,20,0,0
144028,99930029,4,5462,5542,15.47,2.84,30,20,0,0
144481,100038867,4,5530,5371,15.53,2.65,30,20,0,0
144923,100148734,4,5382,5542,15.51,2.93,30,20,0,0
145373,100257203,4,5543,5557,15.53,2.83,30,20,0,0
145817,100366316,4,5562,5685,15.42,2.84,30,20,0,0
146272,100477035,4,5670,5528,15.45,2.69,30,20,0,0
146716,100585636,4,5530,5571,15.48,2.48,30,20,0,0
147125,100693622,4,5560,5428,15.5,2.51,30,20,0,0
147573,100803356,4,5425,5400,15.48,2.54,30,21,0,0
147982,100909653,4,5400,5400,15.51,2.53,30,21,0,0
148433,101017904,4,5400,5400,15.52,2.41,30,21,0,0
148841,101121005,4,5393,5257,15.56,2.39,30,21,0,0
149285,101226760,4,5258,5342,15.52,2.34,30,21,0,0
149727,101334833,4,5342,5357,15.51,2.44,30,21,0,0
150212,101445449,4,5354,5314,15.55,2.46,30,21,0,0
150658,101557564,4,5316,5342,15.51,2.49,30,21,0,0
151064,101656168,4,5342,5385,15.55,2.61,30,21,0,0
151544,101770371,4,5385,5385,15.57,2.54,30,21,0,0
151997,101883251,4,5391,5514,15.57,2.62,30,21,0,0
152887,102102072,4,5515,5600,15.54,2.69,30,22,0,0
153342,102215863,4,5596,5557,15.56,2.78,30,22,0,0
153746,102318853,4,5556,5542,15.52,2.74,30,22,0,0
154679,102543842,4,5537,5442,15.54,2.6,30,22,0,0
155086,102646578,4,5440,5414,15.45,2.48,30,22,0,0
155529,102757045,4,5409,5342,15.49,2.2,30,22,0,0
155977,102865420,4,5326,5128,15.41,2.25,30,22,0,0
156417,102972299,4,5131,5171,15.49,2.76,30,22,0,0
156872,103082755,4,5163,5057,15.49,2.09,30,22,0,0
157317,103197152,4,5075,5257,15.51,2.44,30,22,0,0
157722,103299648,4,5245,5114,15.49,2.14,30,22,0,0
158169,103408649,4,5107,5014,15.5,2.15,30,22,0,0
158576,103514360,4,5012,4957,15.51,2.07,30,22,0,0
159030,103627895,4,4949,4842,15.42,1.66,30,23,0,0
159476,103741654,4,4822,4614,15.41,1.74,30,23,0,0
159925,103849194,4,4616,4657,15.51,1.74,30,23,0,0
160369,103959871,4,4675,4928,15.48,2.26,30,23,0,0
160819,104065880,4,4937,5028,15.51,2.34,30,23,0,0
161221,104169281,4,5041,5228,15.49,2.36,30,23,0,0
162115,104395659,4,5239,5428,15.46,3.07,30,23,0,0
162518,104494774,4,5439,5671,15.45,3.28,30,23,0,0
162968,104604865,4,5668,5642,15.39,2.81,30,23,0,0
163416,104722840,4,5646,5685,15.36,2.98,30,23,0,0
163819,104819180,4,5685,5685,15.33,2.74,30,23,0,0
164307,104944608,4,5681,5642,15.32,2.52,30,23,0,0
164714,105040290,4,5636,5271,15.38,2.46,30,23,0,0
165159,105154864,4,5282,5385,15.43,2.39,30,24,0,0
165607,105261531,4,5391,5485,15.41,2.78,30,24,0,0
166492,105483978,4,5483,5457,15.36,2.32,30,24,0,0
167386,105708842,4,5459,5514,15.39,2.7,30,24,0,0
167793,105806990,4,5498,5271,15.46,2.1,30,24,0,0
168244,105926306,4,5262,5185,15.47,1.98,30,24,0,0
168691,106035203,4,5173,5042,15.48,2.24,30,24,0,0
169096,106138057,4,5042,5071,15.44,2.48,30,24,0,0
169989,106362221,4,5078,5257,15.48,2.47,30,24,0,0
170392,106463584,4,5255,5185,15.48,2.25,30,24,0,0
171251,106683237,4,5285,5314,15.36,2.56,30,25,0,0
171699,106796266,4,5316,5357,15.48,2.67,30,25,0,0
172102,106899635,4,5362,5471,15.41,2.85,30,25,0,0
172552,107008837,4,5470,5457,15.42,2.47,30,25,0,0
172999,107122019,4,5455,5428,15.44,2.7,30,25,0,0
173445,107226247,4,5426,5400,15.47,2.66,30,25,0,0
173888,107336670,4,5388,5242,15.53,2.48,30,25,0,0
174332,107442769,4,5240,5171,15.52,2.41,30,25,0,0
174737,107545863,4,5171,5185,15.45,2.4,30,25,0,0
175230,107662869,4,5178,5114,15.48,2.31,30,25,0,0
175628,107762499,4,5117,5200,15.49,2.52,30,25,0,0
176077,107870965,4,5190,5014,15.47,2.43,30,25,0,0
176528,107984003,4,5019,5100,15.52,2.48,30,25,0,0
176972,108091246,4,5101,5128,15.42,2.39,30,26,0,0
177418,108199829,4,5129,5171,15.43,2.86,30,26,0,0
177861,108311656,4,5177,5257,15.42,2.55,30,26,0,0
178302,108417054,4,5268,5428,15.52,3.15,30,26,0,0
178747,108528261,4,5421,5328,15.42,2.54,30,26,0,0
179199,108640035,4,5351,5585,15.48,3.16,30,26,0,0
179602,108742441,4,5583,5557,15.41,3.06,30,26,0,0
180053,108850855,4,5562,5671,15.43,2.87,30,26,0,0
180501,108964047,4,5673,5742,15.41,3.35,30,26,0,0
180952,109070234,4,5742,5742,15.44,2.91,30,26,0,0
181392,109181534,4,5737,5642,15.46,2.81,30,26,0,0
181834,109288442,4,5641,5585,15.47,2.6,30,27,0,0
182279,109397210,4,5584,5571,15.48,2.85,30,27,0,0
182727,109509035,4,5570,5557,15.47,2.96,30,27,0,0
183220,109626958,4,5554,5528,15.43,2.87,30,27,0,0
183663,109735829,4,5523,5414,15.47,2.51,30,27,0,0
184108,109840892,4,5413,5400,15.47,2.82,30,27,0,0
184557,109954450,4,5414,5557,15.51,2.85,30,27,0,0
185008,110066294,4,5560,5600,15.45,2.9,30,27,0,0
185413,110171094,4,5601,5642,15.5,2.69,30,27,0,0
185854,110279389,4,5642,5642,15.5,2.85,30,27,0,0
186305,110388296,4,5643,5657,15.45,2.91,30,27,0,0
186716,110494989,4,5646,5514,15.44,2.55,30,28,0,0
187164,110602425,4,5509,5442,15.43,2.51,30,28,0,0
187606,110713446,4,5434,5357,15.54,2.75,30,28,0,0
188057,110823159,4,5359,5385,15.51,2.51,30,28,0,0
188499,110931985,4,5389,5442,15.51,2.66,30,28,0,0
188946,111038662,4,5442,5442,15.48,2.84,30,28,0,0
189349,111141737,4,5453,5657,15.45,3.25,30,28,0,0
189800,111253041,4,5671,5885,15.44,3.3,30,28,0,0
190245,111363442,4,5908,6128,15.41,3.66,30,28,0,0
190736,111479838,4,6132,6185,15.44,3.87,30,28,0,0
191142,111586198,4,6175,6085,15.47,3.53,30,28,0,0
191540,111686405,4,6080,6014,15.48,3.27,30,29,0,0
192029,111804582,4,6000,5857,15.45,3.06,30,29,0,0
192438,111909779,4,5856,5842,15.47,3.19,30,29,0,0
192925,112021774,4,5834,5728,15.46,2.96,30,29,0,0
193368,112129980,4,5725,5671,15.47,3.1,30,29,0,0
193815,112237830,4,5669,5642,15.51,3.12,30,29,0,0
194259,112348849,4,5636,5585,15.48,2.67,30,29,0,0
194706,112454856,4,5579,5500,15.45,2.81,30,29,0,0
195150,112565628,4,5482,5228,15.47,2.58,30,29,0,0
195594,112673268,4,5215,5042,15.44,2.28,30,29,0,0
196041,112785437,4,5036,4985,15.51,2.16,30,29,0,0
196482,112899618,4,4964,4857,15.5,2.86,30,30,0,0
196896,112997224,4,4861,4957,15.5,2.75,30,30,0,0
197342,113118863,4,4938,4814,15.44,1.91,30,30,0,0
197789,113224232,4,4838,5057,15.51,2.29,30,30,0,0
198195,113323877,4,5050,4928,15.33,2.71,30,30,0,0
198682,113439874,4,4952,5171,15.45,2.53,30,30,0,0
199093,113544244,4,5175,5228,15.53,2.84,30,30,0,0
199579,113665424,4,5236,5314,15.54,2.55,30,30,0,0
200433,113879446,4,5316,5371,15.48,2.77,30,30,0,0
200837,113975960,4,5370,5328,15.47,2.4,30,30,0,0
201327,114100204,4,5328,5328,15.51,2.61,30,30,0,0
201735,114193262,4,5329,5357,15.42,2.57,30,30,0,0
202167,114304169,4,5360,5414,15.49,2.83,30,31,0,0
202617,114415157,4,5407,5342,15.47,2.5,30,31,0,0
203066,114525666,4,5338,5300,15.44,2.65,30,31,0,0
203512,114635896,4,5286,5100,15.4,2.11,30,31,0,0
203919,114741019,4,5114,5242,15.31,2.56,30,31,0,0
204367,114854447,4,5229,5085,15.43,2.39,30,31,0,0
204812,114964437,4,5075,4942,15.44,2.55,30,31,0,0
205265,115071247,4,4945,5028,15.22,2.86,30,31,0,0
205710,115186410,4,5031,5071,15.4,3.05,30,31,0,0
206112,115285623,4,5079,5157,15.42,2.34,30,31,0,0
206518,115386445,4,5159,5271,15.5,2.64,30,31,0,0
207422,115616249,4,5269,5228,15.47,2.55,30,31,0,0
208314,115838273,4,5228,5242,15.52,2.65,30,32,0,0
208753,115941020,4,5241,5228,15.47,2.33,30,32,0,0
209163,116043694,4,5228,5228,15.35,2.89,30,32,0,0
209607,116151719,4,5232,5457,15.43,2.87,30,32,0,0
210055,116260983,4,5455,5400,15.39,2.48,30,32,0,0
210543,116382014,4,5398,5385,15.4,2.67,30,32,0,0
210948,116484991,4,5391,5471,15.42,2.27,30,32,0,0
211394,116591946,4,5461,5242,15.47,2.39,30,32,0,0
211839,116702457,4,5243,5271,15.44,2.36,30,32,0,0
212246,116803825,4,5270,5257,15.42,2.3,30,32,0,0
212687,116911392,4,5252,5142,15.47,2.32,30,32,0,0
213138,117020841,4,5152,5300,15.41,2.54,30,32,0,0
213540,117125672,4,5300,5328,15.44,2.64,30,32,0,0
214032,117243859,4,5332,5457,15.51,2.61,30,33,0,0
214472,117351868,4,5450,5357,15.45,2.56,30,33,0,0
214924,117462051,4,5362,5442,15.51,2.67,30,33,0,0
215328,117567902,4,5440,5385,15.44,2.35,30,33,0,0
215773,117678876,4,5385,5400,15.47,2.53,30,33,0,0
216259,117793871,4,5400,5400,15.36,2.58,30,33,0,0
216661,117896056,4,5404,5500,15.35,2.74,30,33,0,0
217113,118004259,4,5489,5342,15.42,2.38,30,33,0,0
217557,118117878,4,5343,5371,15.41,2.28,30,33,0,0
217963,118219053,4,5365,5257,15.41,2.35,30,33,0,0
218404,118326622,4,5258,5285,15.39,2.26,30,33,0,0
219159,118538785,4,5281,5200,15.46,2.09,30,33,0,0
219607,118647926,4,5193,5114,15.45,2.46,30,33,0,0
220052,118758203,4,5112,5085,15.49,2.06,30,34,0,0
220949,118976413,4,5092,5242,15.42,2.22,30,34,0,0
221424,119086898,4,5248,5314,15.47,2.48,30,34,0,0
221829,119185972,4,5318,5400,15.46,2.53,30,34,0,0
222271,119296177,4,5393,5257,15.41,2.53,30,34,0,0
222724,119407155,4,5257,5271,15.41,2.29,30,34,0,0
223180,119524224,4,5263,5185,15.42,2.23,30,34,0,0
223629,119634360,4,5192,5271,15.43,2.44,30,34,0,0
224067,119738844,4,5264,5200,15.46,2.16,30,34,0,0
224468,119838151,4,5204,5300,15.4,2.19,30,34,0,0
224962,119957619,4,5300,5300,15.46,2.34,30,34,0,0
225365,120057234,4,5294,5185,15.38,2.27,30,34,0,0
225809,120167736,4,5192,5328,15.47,2.58,30,34,0,0
226256,120282026,4,5317,5214,15.41,2.46,30,35,0,0
227109,120492269,4,5214,5242,15.41,2.46,30,35,0,0
227560,120604191,4,5245,5300,15.44,2.43,30,35,0,0
228006,120717278,4,5308,5400,15.45,2.57,30,35,0,0
228413,120818613,4,5401,5442,15.4,2.54,30,35,0,0
228856,120926743,4,5442,5442,15.42,2.89,30,35,0,0
229309,121038537,4,5438,5385,15.35,2.45,30,35,0,0
229750,121145907,4,5384,5371,15.45,2.47,30,35,0,0
230201,121256998,4,5373,5414,15.41,2.46,30,35,0,0
230643,121367173,4,5409,5300,15.45,2.45,30,35,0,0
231137,121491039,4,5313,5457,15.48,2.42,30,35,0,0
231582,121595836,4,5439,5285,15.51,2.41,30,36,0,0
231991,121697889,4,5285,5300,15.51,2.17,30,36,0,0
232471,121805955,4,5288,5142,15.54,2.3,30,36,0,0
232884,121913387,4,5142,5142,15.52,2.38,30,36,0,0
233369,122026755,4,5143,5157,15.5,1.82,30,36,0,0
233818,122140801,4,5146,5071,15.5,2.3,30,36,0,0
234222,122236745,4,5073,5271,15.49,2.66,30,36,0,0
234698,122348252,4,5269,5214,15.42,2.32,30,36,0,0
235155,122462958,4,5220,5357,15.5,2.57,30,36,0,0
235598,122573751,4,5358,5371,15.45,2.63,30,36,0,0
236489,122797192,4,5372,5400,15.44,2.66,30,36,0,0
236896,122898306,4,5405,5471,15.36,2.82,30,36,0,0
237344,123009671,4,5454,5300,15.32,2.41,30,37,0,0
237785,123118056,4,5311,5457,15.35,2.53,30,37,0,0
238233,123230014,4,5449,5385,15.29,2.51,30,37,0,0
238677,123341301,4,5367,5214,15.38,2.41,30,37,0,0
239535,123553273,4,5222,5400,15.34,2.95,30,37,0,0
239982,123661957,4,5408,5571,15.33,3.18,30,37,0,0
240422,123771754,4,5583,5714,15.28,3.26,30,37,0,0
240877,123882596,4,5725,5842,15.27,3.15,30,37,0,0
241318,123990010,4,5833,5728,15.38,2.95,30,37,0,0
241768,124101670,4,5731,5800,15.37,2.81,30,37,0,0
242172,124199800,4,5798,5671,15.42,2.75,30,37,0,0
242614,124308269,4,5666,5457,15.4,2.35,30,38,0,0
243108,124427864,4,5437,5242,15.39,2.01,30,38,0,0
243514,124527494,4,5235,5100,15.39,1.92,30,38,0,0
243959,124637060,4,5094,4871,15.45,1.39,30,38,0,0
244854,124858597,4,4856,4571,15.48,1.63,30,38,0,0
245297,124966636,4,4581,4685,15.42,1.54,30,38,0,0
245703,125067151,4,4681,4557,15.35,1.56,30,38,0,0
246144,125175303,4,4570,4857,15.45,2.13,30,38,0,0
246632,125295646,4,4849,4742,15.43,1.35,30,38,0,0
247040,125394038,4,4719,4471,15.44,1.51,30,38,0,0
247484,125505309,4,4475,4542,15.42,1.66,30,38,0,0
247931,125613006,4,4547,4600,15.4,1.81,30,38,0,0
248366,125716458,4,4613,4885,15.4,1.76,30,38,0,0
248822,125830236,4,4880,4785,15.44,1.84,30,38,0,0
249266,125938971,4,4786,4828,15.45,1.79,30,38,0,0
249713,126046147,4,4818,4685,15.45,1.59,30,38,0,0
250159,126159238,4,4677,4600,15.45,1.47,30,38,0,0
250610,126268874,4,4612,4771,15.43,1.64,30,39,0,0
251011,126372278,4,4763,4614,15.42,1.7,30,39,0,0
251458,126484461,4,4622,4814,15.38,1.95,30,39,0,0
251908,126594260,4,4795,4614,15.39,1.57,30,39,0,0
252349,126702303,4,4604,4514,15.41,1.76,30,39,0,0
252797,126811860,4,4530,4771,15.41,1.9,30,39,0,0
253243,126920003,4,4782,4942,15.41,2.31,30,39,0,0
253696,127031167,4,4958,5128,15.38,2.26,30,39,0,0
254101,127136281,4,5130,5157,15.4,2.3,30,39,0,0
254546,127242798,4,5161,5200,15.39,2.38,30,39,0,0
254992,127354020,4,5206,5271,15.39,2.27,30,39,0,0
255440,127462943,4,5277,5342,15.36,2.63,30,39,0,0
255843,127567285,4,5354,5514,15.35,2.69,30,39,0,0
256252,127666435,4,5515,5600,15.32,2.87,30,39,0,0
256693,127776748,4,5602,5657,15.33,3.01,30,39,0,0
257215,127898296,4,5658,5685,15.38,2.93,30,40,0,0
257627,127999369,4,5684,5671,15.4,2.83,30,40,0,0
258071,128110441,4,5663,5485,15.33,2.62,30,40,0,0
258515,128217999,4,5481,5400,15.37,2.18,30,40,0,0
258995,128331400,4,5384,5228,15.36,2.22,30,40,0,0
259445,128440492,4,5210,5028,15.36,2.21,30,40,0,0
259844,128543407,4,5025,4900,15.38,1.75,30,40,0,0
260289,128651951,4,4910,5128,15.44,2.65,30,40,0,0
260732,128762996,4,5134,5214,15.45,2.46,30,40,0,0
261190,128874010,4,5223,5357,15.44,3.15,30,40,0,0
261593,128977514,4,5360,5428,15.36,2.75,30,40,0,0
262044,129090737,4,5410,5228,15.45,2.27,30,40,0,0
262448,129189458,4,5224,5014,15.54,1.93,30,40,0,0
262934,129308062,4,5016,5042,15.57,2.2,30,41,0,0
263384,129416659,4,5020,4728,15.6,2.47,30,41,0,0
264280,129635815,4,4729,4771,15.57,2.52,30,41,0,0
264678,129737836,4,4775,4871,15.52,2.62,30,41,0,0
265173,129854310,4,4886,5042,15.51,2.69,30,41,0,0
265569,129955301,4,5051,5257,15.44,2.67,30,41,0,0
266064,130076243,4,5264,5342,15.36,3,30,41,0,0
266511,130183193,4,5344,5371,15.48,2.8,30,41,0,0
266954,130293385,4,5371,5385,15.51,2.43,30,41,0,0
267403,130398300,4,5378,5314,15.48,2.58,30,41,0,0
267810,130502874,4,5319,5385,15.47,2.34,30,41,0,0
268258,130611051,4,5382,5342,15.42,2.65,30,41,0,0
268702,130720286,4,5340,5314,15.41,2.7,30,42,0,0
269196,130839142,4,5324,5442,15.46,2.73,30,42,0,0
269599,130942346,4,5449,5557,15.47,2.69,30,42,0,0
270050,131050227,4,5548,5428,15.42,2.42,30,42,0,0
270494,131160952,4,5422,5342,15.42,2.62,30,42,0,0
270940,131266991,4,5335,5214,15.4,2.41,30,42,0,0
271393,131383363,4,5212,5200,15.43,2.77,30,42,0,0
271796,131486273,4,5200,5228,15.49,2.32,30,42,0,0
272285,131609670,4,5210,5100,15.41,2.18,30,42,0,0
272691,131707299,4,5101,5128,15.42,2.54,30,42,0,0
273141,131815734,4,5132,5200,15.48,2.49,30,42,0,0
273588,131927885,4,5207,5328,15.39,2.51,30,42,0,0
274078,132051153,4,5314,5214,15.39,2.55,30,42,0,0
274515,132155771,4,5225,5342,15.42,2.9,30,43,0,0
274971,132270225,4,5331,5228,15.35,2.83,30,43,0,0
275371,132366176,4,5262,5557,15.36,3.04,30,43,0,0
276255,132584193,4,5562,5800,15.33,3.53,30,43,0,0
276735,132699216,4,5806,5857,15.2,3.51,30,43,0,0
277182,132807311,4,5846,5757,15.33,3.09,30,43,0,0
277591,132910795,4,5750,5685,15.35,2.83,30,43,0,0
278035,133016663,4,5670,5485,15.4,2.45,30,43,0,0
278451,133131169,4,5461,5300,15.35,3.02,30,43,0,0
278854,133229656,4,5301,5342,15.38,2.53,30,43,0,0
279343,133347508,4,5343,5357,15.35,2.79,30,44,0,0
279747,133447410,4,5354,5300,15.41,2.38,30,44,0,0
280186,133555190,4,5276,5014,15.44,2.22,30,44,0,0
280636,133672282,4,5023,5085,15.38,2.63,30,44,0,0
281455,133874621,4,5086,5228,15.47,3.14,30,44,0,0
281978,133995755,4,5214,5071,15.44,2.34,30,44,0,0
282425,134107961,4,5086,5200,15.35,2.62,30,44,0,0
283272,134315299,4,5204,5300,15.42,3.05,30,44,0,0
283722,134422423,4,5301,5328,15.42,2.55,30,44,0,0
284166,134533288,4,5330,5357,15.42,2.58,30,44,0,0
284610,134640023,4,5353,5314,15.48,2.74,30,45,0,0
285054,134749157,4,5312,5271,15.37,2.66,30,45,0,0
285420,134843035,4,5272,5342,15.45,2.82,30,45,0,0
285907,134960413,4,5343,5357,15.45,2.85,30,45,0,0
287247,135292214,4,5360,5457,15.27,2.63,30,45,0,0
287653,135392823,4,5456,5414,15.36,2.94,30,45,0,0
288099,135503067,4,5416,5442,15.35,3.28,30,45,0,0
288547,135613194,4,5454,5614,15.38,3.22,30,45,0,0
288990,135723832,4,5609,5542,15.26,2.92,30,45,0,0
289443,135835752,4,5563,5785,15.33,3.13,30,45,0,0
289845,135937025,4,5776,5628,15.33,2.92,30,46,0,0
290298,136049956,4,5618,5485,15.32,2.79,30,46,0,0
290744,136162961,4,5491,5557,15.32,2.65,30,46,0,0
291154,136264251,4,5555,5457,15.38,2.29,30,46,0,0
291602,136375842,4,5459,5500,15.44,2.77,30,46,0,0
292050,136484266,4,5483,5314,15.37,2.26,30,46,0,0
292493,136589853,4,5313,5300,15.31,2.69,30,46,0,0
292935,136700892,4,5294,5228,15.33,2.57,30,46,0,0
293385,136809287,4,5223,5128,15.41,2.47,31,46,0,0
293826,136920402,4,5134,5228,15.38,2.27,30,46,0,0
294238,137024795,4,5226,5157,15.43,2.21,30,46,0,0
294682,137135194,4,5157,5171,15.4,2.78,30,46,0,0
295578,137355011,4,5160,4928,15.48,2.18,30,47,0,0
296022,137460030,4,4930,4971,15.38,2.23,30,47,0,0
296424,137563009,4,4971,4971,15.45,2.35,30,47,0,0
296912,137683258,4,4978,5071,15.47,2.56,30,47,0,0
297368,137794286,4,5069,5057,15.32,2.2,30,47,0,0
297851,137908242,4,5063,5128,15.43,2.54,30,47,0,0
298666,138114836,4,5128,5171,15.44,2.54,30,47,0,0
299156,138231968,4,5165,5114,15.42,2.25,30,47,0,0
299638,138344812,4,5120,5185,15.37,2.56,31,47,0,0
300083,138450632,4,5189,5257,15.41,2.71,31,47,0,0
300527,138561751,4,5253,5185,15.38,2.36,31,47,0,0
300970,138668495,4,5189,5285,15.38,2.14,31,48,0,0
301425,138780198,4,5272,5142,15.42,2.41,31,48,0,0
301871,138891639,4,5159,5328,15.42,2.5,30,48,0,0
302317,138997428,4,5327,5314,15.38,2.85,31,48,0,0
302718,139100028,4,5310,5128,15.45,2.22,31,48,0,0
303611,139319654,4,5128,5171,15.45,2.24,31,48,0,0
304101,139441167,4,5153,5014,15.42,2.41,31,48,0,0
304507,139542942,4,5002,4885,15.38,2.54,31,48,0,0
304955,139651272,4,4894,5000,15.43,2.28,31,48,0,0
305356,139751155,4,5002,5142,15.41,2.63,31,48,0,0
305806,139859968,4,5142,5200,15.44,2.87,31,48,0,0
306247,139968625,4,5200,5214,15.43,2.84,31,48,0,0
306695,140080009,4,5194,4885,15.41,2.01,31,48,0,0
307143,140189184,4,4889,5114,15.43,2.4,30,49,0,0
307588,140305271,4,5086,4871,15.37,1.95,31,49,0,0
308036,140413919,4,4875,4914,15.39,2.48,30,49,0,0
308486,140525931,4,4904,4800,15.39,2.3,31,49,0,0
308928,140633849,4,4827,5042,15.32,2.59,31,49,0,0
309380,140745777,4,5036,4971,15.37,2.21,31,49,0,0
310306,140969791,4,4893,3442,15.7,0.47,30,49,0,0
310714,141073180,4,3461,3642,15.66,1.51,31,49,0,0
311161,141185355,4,3620,3342,15.73,0.74,31,49,0,0
311602,141292271,4,3364,3785,15.94,0.86,31,49,0,0
312010,141388588,4,3785,3842,15.87,1,31,49,0,0
312452,141496363,4,3821,3000,15.86,0.07000000000000001,31,49,0,0
312941,141616770,4,2984,2828,15.96,0.42,31,49,0,0
313341,141717787,4,2802,2485,15.94,0.22,31,49,0,0
313789,141826412,4,2488,2571,15.9,0.35,31,49,0,0
314204,141937494,4,2565,2457,15.92,0.15,31,49,0,0
314685,142046618,4,2455,2442,15.93,0.36,31,49,0,0
315132,142158927,4,2443,2457,15.92,0.3,31,49,0,0
315540,142260247,4,2453,2385,15.94,0.32,31,49,0,0
316424,142478230,4,2384,2357,15.94,0.26,31,49,0,0
316914,142594830,4,2362,2414,15.95,0.35,31,49,0,0
317317,142695882,4,2413,2385,15.93,0.27,31,49,0,0
317800,142805660,4,2386,2414,15.95,0.27,31,49,0,0
318700,143023317,4,2409,2271,15.95,0.25,31,49,0,0
319143,143133031,4,2268,2242,15.96,0.23,31,49,0,0
319593,143239236,4,2238,2200,15.96,0.2,31,49,0,0
320030,143343023,4,2192,2014,16.04,0.05,31,49,0,0
320521,143458662,4,1985,1671,16.03,0,30,49,0,0
320923,143558996,4,1666,1385,16.01,0.05,31,49,0,0
321415,143674459,4,1382,1342,16.02,0.09,30,49,0,0
321818,143774216,4,1341,1328,16.02,0.09,30,49,0,0
322312,143891347,4,1328,1328,16.01,0.09,30,49,0,0
322714,143991638,4,1327,1314,16.02,0.09,30,49,0,0
323166,144102009,4,1314,1314,16.02,0.09,30,49,0,0
323616,144207072,4,1314,1314,16.02,0.09,30,49,0,0
324060,144314389,4,1314,1328,16.03,0.09,30,49,0,0
324505,144419188,4,1328,1328,16.03,0.09,30,49,0,0
324952,144529986,4,1328,1328,16.04,0.09,30,49,0,0
325405,144638974,4,1328,1328,16.04,0.09,30,49,0,0
325851,144747748,4,1328,1328,16.04,0.09,30,49,0,0
326291,144845807,4,1328,1328,16.04,0.09,30,49,0,0
326741,144958560,4,1328,1328,16.05,0.09,30,49,0,0
327189,145061430,4,1328,1328,16.04,0.09,30,49,0,0
327632,145168515,4,1328,1328,16.05,0.09,30,49,0,0
328119,145284771,4,1328,1328,16.05,0.09,30,49,0,0
328569,145392183,4,1328,1328,16.05,0.09,30,49,0,0
329014,145498967,4,1328,1328,16.05,0.09999999,30,49,0,0
329499,145620442,4,1328,1328,16.06,0.09,30,49,0,0
329913,145721809,4,1328,1328,16.07,0.09,30,49,0,0
330355,145828970,4,1328,1328,16.07,0.09,30,49,0,0
330764,145930651,4,1328,1328,16.07,0.09999999,30,49,0,0
331246,146041063,4,1328,1328,16.06,0.09,30,49,0,0
332183,146262307,4,1327,1314,16.08,0.09,30,49,0,0
332625,146369448,4,1314,1328,16.08,0.09,30,49,0,0
333070,146475293,4,1328,1328,16.08,0.09,30,49,0,0
333561,146594774,4,1328,1328,16.08,0.09,30,49,0,0
334011,146705983,4,1326,1314,16.08,0.09,30,49,0,0
334455,146808633,4,1314,1328,16.09,0.09,30,49,0,0
334900,146915422,4,1328,1328,16.1,0.09,30,49,0,0
335348,147023744,4,1328,1328,16.08,0.09999999,30,49,0,0
335829,147136875,4,1328,1328,16.09,0.09999999,30,49,0,0
336328,147258833,4,1326,1314,16.08,0.09999999,30,49,0,0
336725,147353286,4,1314,1328,16.08,0.09999999,30,49,0,0
337171,147457150,4,1328,1328,16.09,0.09999999,30,49,0,0
337612,147564799,4,1328,1328,16.08,0.09,30,49,0,0
338071,147677399,4,1328,1328,16.09,0.09999999,30,49,0,0
338520,147783875,4,1328,1328,16.09,0.09999999,30,49,0,0
339002,147897292,4,1328,1328,16.09,0.09999999,30,49,0,0
339450,148004948,4,1328,1328,16.1,0.09999999,30,49,0,0
339825,148107313,4,1328,1328,16.1,0.09999999,30,49,0,0
340316,148220800,4,1328,1328,16.1,0.09999999,30,49,0,0
340763,148325979,4,1328,1328,16.1,0.09999999,30,49,0,0
341212,148432458,4,1328,1328,16.1,0.09999999,30,49,0,0
341656,148541802,4,1328,1328,16.1,0.09999999,30,49,0,0
342107,148650895,4,1328,1328,16.1,0.09999999,30,49,0,0
342560,148763737,4,1328,1328,16.11,0.09999999,30,49,0,0
343451,148977886,4,1328,1328,16.1,0.09999999,30,49,0,0
343855,149078751,4,1328,1328,16.11,0.09999999,30,50,0,0
345233,149409633,4,1328,1328,16.11,0.09999999,30,50,0,0
345678,149514844,4,1328,1328,16.11,0.09999999,30,50,0,0
346129,149624351,4,1328,1328,16.11,0.09999999,30,50,0,0
346569,149729619,4,1328,1328,16.12,0.09999999,30,50,0,0
347465,149948275,4,1328,1328,16.12,0.09999999,30,50,0,0
347911,150052909,4,1328,1328,16.11,0.09999999,30,50,0,0
348360,150161886,4,1328,1328,16.13,0.09999999,30,50,0,0
348807,150272334,4,1328,1328,16.13,0.09999999,30,50,0,0
349262,150383204,4,1328,1328,16.12,0.09999999,30,50,0,0
349715,150496141,4,1328,1328,16.12,0.09999999,30,50,0,0
350160,150599430,4,1328,1328,16.13,0.09999999,30,50,0,0
350603,150705434,4,1328,1328,16.13,0.09999999,30,50,0,0
351055,150813973,4,1328,1328,16.13,0.09999999,30,50,0,0
351459,150914384,4,1328,1328,16.13,0.09,30,50,0,0
351943,151024070,4,1328,1328,16.13,0.09999999,30,50,0,0
352387,151132923,4,1328,1328,16.13,0.09999999,30,50,0,0
352836,151239877,4,1328,1328,16.13,0.09999999,30,50,0,0
353283,151351983,4,1328,1328,16.13,0.09999999,30,50,0,0
353741,151462020,4,1326,1314,16.14,0.09999999,30,50,0,0
354175,151564884,4,1314,1328,16.14,0.09999999,30,50,0,0
354630,151676418,4,1328,1328,16.14,0.09999999,30,50,0,0
355075,151781139,4,1328,1328,16.14,0.09999999,30,50,0,0
355930,151992947,4,1328,1328,16.14,0.09999999,30,50,0,0
356413,152105996,4,1328,1328,16.14,0.09999999,30,50,0,0
356860,152210375,4,1328,1328,16.14,0.09999999,30,50,0,0
357305,152321634,4,1328,1328,16.14,0.09999999,30,50,0,0
357752,152428184,4,1328,1328,16.14,0.09999999,30,50,0,0
358245,152547199,4,1328,1328,16.15,0.09999999,30,50,0,0
358697,152654015,4,1328,1328,16.15,0.09999999,30,50,0,0
359136,152760256,4,1328,1328,16.14,0.09999999,30,50,0,0
359585,152867754,4,1328,1328,16.14,0.09999999,30,50,0,0
360470,153089069,4,1328,1328,16.15,0.09999999,30,50,0,0
360920,153195139,4,1328,1328,16.16,0.09999999,30,50,0,0
361323,153288832,4,1328,1328,16.14,0.09999999,30,50,0,0
362237,153511846,4,1306,271,16.17,0.01,30,50,0,0
362732,153626752,4,244,0,16.17,0.02,30,50,0,0
363182,153732860,4,0,0,16.17,0.03,30,50,0,0
363636,153836386,4,0,0,16.17,0.03,30,50,0,0
364086,153944139,4,0,0,16.17,0.03,30,50,0,0
365033,154166197,4,0,0,16.17,0.03,30,50,0,0
365480,154275160,4,0,0,16.18,0.03,30,50,0,0
365931,154379872,4,0,0,16.17,0.03,30,50,0,0
366429,154493617,4,0,0,16.18,0.03,30,50,0,0
366882,154604211,4,0,0,16.18,0.03,30,50,0,0
367302,154712331,4,0,0,16.19,0.03,30,50,0,0
367753,154817918,4,0,0,16.19,0.03,30,50,0,0
368704,155041427,4,0,0,16.19,0.03,30,50,0,0
369645,155264933,4,0,0,16.19,0.03,30,50,0,0
370093,155368633,4,0,0,16.19,0.03,30,50,0,0
370549,155475496,4,0,0,16.19,0.03,30,50,0,0
371001,155585156,4,0,0,16.2,0.03,30,50,0,0
371458,155698406,4,0,0,16.2,0.03,30,50,0,0
371912,155805780,4,0,0,16.19,0.03,30,50,0,0
372324,155910010,4,0,0,16.19,0.03,30,50,0,0
372818,156025848,4,0,0,16.2,0.03,30,50,0,0
373269,156129920,4,0,0,16.19,0.03,30,50,0,0
373764,156245784,4,0,0,16.19,0.03,30,50,0,0
374204,156346361,4,0,0,16.2,0.03,30,50,0,0
375148,156568359,4,0,0,16.2,0.03,30,50,0,0
375608,156676434,4,0,0,16.2,0.03,30,50,0,0
376056,156786016,4,0,0,16.2,0.03,30,50,0,0
376509,156896848,4,0,0,16.2,0.03,30,50,0,0
376961,157002269,4,0,0,16.2,0.03,30,50,0,0
