LineNo,TimeUS,Instance,RPM,RawRPM,Volt,Curr,Temp,CTot,MotTemp,Err
1649,65359192,0,0,0,16.67,0.04,31,0,0,0
2101,65462638,0,0,0,16.67,0.04,31,0,0,0
2558,65571800,0,0,0,16.67,0.04,31,0,0,0
3010,65679877,0,0,0,16.67,0.04,31,0,0,0
3472,65786799,0,0,0,16.67,0.04,31,0,0,0
3967,65901777,0,0,0,16.67,0.04,31,0,0,0
4423,66003385,0,0,0,16.67,0.04,31,0,0,0
4873,66109364,0,0,0,16.67,0.05,31,0,0,0
5371,66223218,0,0,0,16.67,0.05,31,0,0,0
5823,66328979,0,0,0,16.67,0.04,31,0,0,0
6279,66433212,0,0,0,16.67,0.04,31,0,0,0
6734,66542235,0,0,0,16.67,0.04,31,0,0,0
7187,66644911,0,0,0,16.67,0.04,31,0,0,0
7676,66756660,0,0,0,16.67,0.04,31,0,0,0
8134,66864961,0,3,242,16.66,0.06,31,0,0,0
8589,66966893,0,248,642,16.63,0.11,31,0,0,0
9126,67092515,0,688,1085,16.64,0.18,31,0,0,0
9579,67195810,0,1102,1271,16.65,0.12,31,0,0,0
10030,67301738,0,1274,1314,16.65,0.12,31,0,0,0
10485,67403462,0,1315,1342,16.64,0.11,31,0,0,0
10937,67510942,0,1342,1342,16.65,0.11,31,0,0,0
11389,67614410,0,1342,1357,16.65,0.11,31,0,0,0
11847,67725176,0,1356,1342,16.64,0.11,31,0,0,0
12787,67938034,0,1342,1357,16.65,0.11,31,0,0,0
13287,68054789,0,1357,1357,16.65,0.11,31,0,0,0
13534,68159286,0,1355,1342,16.65,0.11,31,0,0,0
13986,68261766,0,1342,1342,16.65,0.11,31,0,0,0
14478,68372327,0,1342,1357,16.65,0.11,31,0,0,0
14932,68480445,0,1355,1342,16.65,0.11,31,0,0,0
15387,68584759,0,1342,1357,16.64,0.11,31,0,0,0
15842,68694040,0,1357,1357,16.65,0.11,31,0,0,0
16348,68808270,0,1357,1357,16.65,0.11,31,0,0,0
16801,68915874,0,1357,1357,16.66,0.11,31,0,0,0
17304,69031166,0,1355,1342,16.65,0.11,31,0,0,0
17754,69137226,0,1343,1357,16.65,0.11,31,0,0,0
18207,69239071,0,1357,1357,16.64,0.11,31,0,0,0
18660,69344873,0,1357,1357,16.64,0.11,31,0,0,0
19115,69451771,0,1356,1342,16.65,0.11,31,0,0,0
19565,69557236,0,1342,1357,16.65,0.11,31,0,0,0
20064,69674443,0,1357,1357,16.64,0.11,31,0,0,0
20517,69777051,0,1355,1342,16.64,0.11,31,0,0,0
20973,69885144,0,1343,1357,16.65,0.11,31,0,0,0
21471,69998320,0,1357,1357,16.65,0.11,31,0,0,0
23328,70429228,0,1357,1357,16.65,0.11,31,0,0,0
23781,70535789,0,1357,1357,16.64,0.11,31,0,0,0
24232,70637893,0,1357,1357,16.64,0.11,31,0,0,0
24691,70748805,0,1357,1357,16.65,0.11,31,0,0,0
25118,70854021,0,1357,1357,16.64,0.11,31,0,0,0
25607,70966854,0,1357,1357,16.64,0.11,31,0,0,0
26062,71068258,0,1357,1357,16.65,0.11,31,0,0,0
26517,71175587,0,1360,1457,16.63,0.19,31,0,0,0
27012,71293214,0,1495,1900,16.57,0.51,31,0,0,0
27459,71399863,0,1957,2571,16.32,1.36,31,0,0,0
27867,71502193,0,2598,3271,16.32,1.7,31,0,0,0
28360,71612012,0,3288,3457,16.04,2.67,31,0,0,0
28807,71721764,0,3538,4442,15.76,4.87,31,0,0,0
29263,71827233,0,4485,5442,15.8,4.23,31,0,0,0
29717,71936139,0,5448,5942,15.9,3.93,31,1,0,0
30214,72050788,0,5951,6042,15.93,3.92,31,1,0,0
30666,72158556,0,6064,6285,15.9,4.21,31,1,0,0
31157,72269869,0,6276,6200,15.93,4.19,31,1,0,0
32514,72596301,0,6202,6500,15.86,4.62,31,1,0,0
33009,72714223,0,6506,6571,15.85,4.81,31,1,0,0
33464,72821644,0,6561,6471,15.84,4.89,31,2,0,0
33878,72925222,0,6472,6628,15.89,4.7,32,2,0,0
34377,73043194,0,6612,6457,15.84,4.55,32,2,0,0
34785,73143972,0,6458,6571,15.86,4.53,32,2,0,0
35241,73250202,0,6570,6542,15.8,4.58,32,2,0,0
35734,73370356,0,6537,6485,15.76,4.64,32,2,0,0
36187,73476139,0,6479,6428,15.76,4.84,32,2,0,0
36635,73583803,0,6428,6442,15.83,4.85,32,3,0,0
37085,73694232,0,6450,6642,15.76,4.93,32,3,0,0
37543,73800696,0,6644,6671,15.76,4.96,32,3,0,0
37996,73910841,0,6678,6771,15.79,4.98,32,3,0,0
38446,74016722,0,6769,6714,15.75,5.17,32,3,0,0
38894,74126760,0,6714,6728,15.8,4.82,32,3,0,0
39395,74241440,0,6722,6671,15.66,5.5,32,4,0,0
39847,74350980,0,6690,6900,15.79,5.34,32,4,0,0
40299,74458814,0,6887,6742,15.82,5,32,4,0,0
41655,74790276,0,6745,6857,15.73,5.39,32,4,0,0
42057,74893068,0,6850,6771,15.75,5.11,32,4,0,0
42511,75003148,0,6769,6757,15.8,5.05,32,5,0,0
42956,75115050,0,6748,6628,15.8,4.88,32,5,0,0
43405,75224147,0,6629,6642,15.78,4.79,32,5,0,0
44259,75434626,0,6643,6842,15.77,4.59,32,5,0,0
44743,75551806,0,6821,6542,15.72,4.84,32,5,0,0
45150,75652868,0,6542,6557,15.77,4.5,32,6,0,0
45600,75767492,0,6552,6485,15.75,4.63,32,6,0,0
46046,75880302,0,6503,6657,15.75,4.49,32,6,0,0
46495,75988355,0,6644,6471,15.7,4.19,32,6,0,0
46904,76093135,0,6468,6442,15.67,4.57,32,6,0,0
47350,76200066,0,6445,6500,15.7,4.56,32,6,0,0
47793,76307823,0,6495,6400,15.75,4.34,32,6,0,0
48286,76424256,0,6414,6557,15.71,4.96,32,7,0,0
48685,76524385,0,6555,6514,15.8,4.36,32,7,0,0
49138,76634046,0,6510,6428,15.89,4.03,32,7,0,0
49581,76742929,0,6419,6200,15.85,4.17,33,7,0,0
50029,76850038,0,6202,6385,15.91,3.74,32,7,0,0
50515,76970255,0,6360,6114,15.89,4.04,32,7,0,0
50953,77079454,0,6121,6214,15.9,3.8,32,7,0,0
51406,77192039,0,6189,5971,15.85,3.47,32,7,0,0
51813,77293906,0,5977,6100,15.76,4.08,33,7,0,0
52296,77406367,0,6098,6085,15.91,3.67,33,8,0,0
52746,77520954,0,6085,6085,15.83,3.92,33,8,0,0
53195,77630160,0,6074,5985,15.9,3.69,33,8,0,0
53602,77734463,0,5989,6042,15.95,3.68,33,8,0,0
54053,77844964,0,6044,6100,15.85,3.77,33,8,0,0
54536,77960373,0,6098,6085,15.79,3.67,33,8,0,0
54945,78058198,0,6085,6100,15.86,3.89,33,8,0,0
55394,78174215,0,6109,6200,15.9,3.63,33,8,0,0
55841,78289787,0,6191,6142,15.78,3.9,33,8,0,0
56244,78385376,0,6140,6057,15.91,3.52,33,9,0,0
57171,78605409,0,6065,6271,15.89,3.95,33,9,0,0
57585,78710600,0,6263,6185,15.84,3.63,33,9,0,0
58031,78816925,0,6182,6000,15.83,3.93,33,9,0,0
58525,78941590,0,6032,6285,15.82,4.01,33,9,0,0
58930,79041153,0,6292,6514,15.75,4.46,33,9,0,0
59374,79150645,0,6522,6685,15.72,4.8,33,9,0,0
59822,79261784,0,6683,6657,15.64,5.12,33,10,0,0
60271,79375368,0,6665,6785,15.6,5.28,33,10,0,0
60719,79487937,0,6785,6785,15.68,5.33,33,10,0,0
61165,79593808,0,6788,6828,15.64,5.33,33,10,0,0
61611,79702807,0,6830,6857,15.67,5.44,33,10,0,0
62059,79809632,0,6857,6857,15.64,5.21,33,10,0,0
62509,79924042,0,6857,6857,15.57,5.57,33,11,0,0
62913,80020019,0,6855,6771,15.67,5.15,33,11,0,0
63395,80140366,0,6763,6685,15.7,4.99,34,11,0,0
63802,80236070,0,6684,6657,15.7,4.98,33,11,0,0
64249,80349838,0,6657,6657,15.69,5.2,33,11,0,0
64740,80465298,0,6661,6714,15.72,4.8,33,11,0,0
65142,80568307,0,6716,6785,15.68,4.43,33,11,0,0
65586,80676174,0,6777,6628,15.73,4.68,34,12,0,0
66080,80792939,0,6618,6485,15.69,4.64,34,12,0,0
66485,80895647,0,6481,6442,15.77,4.3,33,12,0,0
66940,81008293,0,6431,6285,15.7,4.46,34,12,0,0
67385,81116855,0,6289,6328,15.71,4.24,33,12,0,0
67795,81218307,0,6329,6457,15.75,4.12,34,12,0,0
68242,81330396,0,6450,6300,15.69,4.05,34,12,0,0
68694,81442022,0,6289,6042,15.78,3.45,34,13,0,0
69176,81557834,0,6026,5857,15.8,3.14,34,13,0,0
69626,81666857,0,5851,5785,15.78,3.4,34,13,0,0
70077,81780054,0,5819,6185,15.73,4.51,34,13,0,0
70482,81884175,0,6201,6542,15.82,5.06,34,13,0,0
70979,81999824,0,6551,6657,15.76,5.13,34,13,0,0
71869,82216818,0,6650,6500,15.6,5.61,34,13,0,0
72311,82324139,0,6540,6928,15.64,5.5,34,14,0,0
72794,82436375,0,6886,6457,15.69,4.98,34,14,0,0
73181,82544151,0,6453,6400,15.64,5.34,34,14,0,0
73635,82655291,0,6418,6657,15.59,5.12,34,14,0,0
74039,82758869,0,6658,6742,15.74,5.06,34,14,0,0
74536,82874802,0,6708,6357,15.77,4.04,34,14,0,0
74977,82985024,0,6347,6242,15.76,4.23,34,14,0,0
75385,83090654,0,6241,6228,15.8,3.52,34,15,0,0
75836,83198956,0,6226,6200,15.72,3.93,34,15,0,0
76240,83301386,0,6199,6171,15.68,3.73,34,15,0,0
76690,83411034,0,6173,6228,15.75,3.92,34,15,0,0
77136,83523736,0,6234,6300,15.67,4.26,34,15,0,0
77585,83633022,0,6310,6471,15.79,4.15,34,15,0,0
78029,83739634,0,6464,6371,15.66,4.35,34,15,0,0
78481,83847846,0,6366,6300,15.75,4.27,34,15,0,0
78887,83949171,0,6301,6357,15.72,4.38,34,16,0,0
79372,84067443,0,6362,6414,15.75,4.48,34,16,0,0
79825,84175665,0,6402,6285,15.66,4.39,34,16,0,0
80268,84287137,0,6293,6371,15.73,4.56,34,16,0,0
80716,84393288,0,6374,6414,15.74,4.4,34,16,0,0
81123,84499971,0,6410,6328,15.6,4.35,34,16,0,0
81608,84610877,0,6341,6471,15.62,5.23,34,16,0,0
82053,84727173,0,6486,6628,15.7,5.04,34,17,0,0
82464,84825359,0,6628,6628,15.8,4.54,34,17,0,0
82910,84936396,0,6620,6514,15.67,3.76,34,17,0,0
83356,85045667,0,6494,6171,15.73,4.2,34,17,0,0
83807,85160035,0,6182,6285,15.75,3.87,34,17,0,0
84262,85276974,0,6262,6114,15.81,3.5,34,17,0,0
84710,85386279,0,6105,6014,15.71,3.63,34,17,0,0
85152,85496272,0,6013,6000,15.83,3.58,34,18,0,0
85560,85593415,0,5993,5857,15.69,3.54,34,18,0,0
85997,85704907,0,5867,5971,15.63,3.81,34,18,0,0
86452,85815409,0,5994,6171,15.7,4.07,34,18,0,0
86853,85918273,0,6173,6228,15.65,3.77,34,18,0,0
87346,86038579,0,6236,6300,15.66,4.43,34,18,0,0
87787,86144447,0,6313,6457,15.66,4.98,35,18,0,0
88243,86255797,0,6475,6628,15.71,5.18,34,18,0,0
89131,86477827,0,6627,6500,15.65,4.82,34,19,0,0
89536,86575776,0,6497,6314,15.73,4.15,34,19,0,0
90018,86691201,0,6312,6300,15.61,4.72,34,19,0,0
90464,86796994,0,6304,6357,15.67,4.32,34,19,0,0
90913,86910178,0,6336,6128,15.49,4.64,34,19,0,0
91367,87020751,0,6154,6457,15.68,4.72,35,19,0,0
91767,87122754,0,6450,6371,15.66,4.6,34,19,0,0
92178,87223960,0,6372,6500,15.66,4.1,35,20,0,0
92658,87333852,0,6493,6271,15.52,4.4,35,20,0,0
93155,87455606,0,6290,6500,15.63,4.64,35,20,0,0
93596,87563054,0,6498,6485,15.61,4.78,35,20,0,0
94046,87674187,0,6489,6528,15.5,4.93,35,20,0,0
94448,87770374,0,6526,6485,15.55,5.01,35,20,0,0
94902,87880937,0,6489,6600,15.66,4.8,35,21,0,0
95350,87993695,0,6597,6542,15.61,4.93,35,21,0,0
95789,88101210,0,6547,6757,15.63,4.99,35,21,0,0
96651,88318776,0,6754,6500,15.63,4.46,35,21,0,0
97096,88425652,0,6500,6542,15.6,4.73,35,21,0,0
97542,88537583,0,6546,6657,15.66,4.79,35,21,0,0
97993,88645591,0,6644,6485,15.62,4.5,35,21,0,0
98849,88860241,0,6484,6457,15.64,4.5,35,22,0,0
99295,88971876,0,6450,6285,15.72,4.26,35,22,0,0
99775,89084255,0,6281,6228,15.7,4,35,22,0,0
100187,89187024,0,6229,6257,15.72,3.57,35,22,0,0
100631,89295997,0,6254,6142,15.78,3.62,35,22,0,0
101087,89408762,0,6142,6157,15.77,3.33,35,22,0,0
101529,89516671,0,6151,6042,15.72,3.6,35,22,0,0
101985,89626614,0,6043,6085,15.63,3.51,35,23,0,0
102433,89739432,0,6091,6157,15.67,3.91,35,23,0,0
102876,89844297,0,6155,6028,15.66,3.79,35,23,0,0
103364,89961298,0,6034,6142,15.63,4.12,35,23,0,0
103816,90071028,0,6142,6142,15.57,4.07,35,23,0,0
104220,90174195,0,6145,6200,15.57,4.49,35,23,0,0
104706,90292789,0,6215,6385,15.58,4.37,35,23,0,0
105112,90389882,0,6387,6428,15.58,4.72,35,23,0,0
105522,90497440,0,6433,6585,15.55,4.83,35,24,0,0
105969,90603811,0,6579,6457,15.61,4.56,35,24,0,0
106415,90713873,0,6458,6514,15.6,4.82,35,24,0,0
106862,90819737,0,6510,6471,15.65,4.6,35,24,0,0
107311,90932800,0,6480,6628,15.64,4.79,35,24,0,0
107759,91039987,0,6625,6414,15.68,4.57,35,24,0,0
108161,91141984,0,6415,6471,15.7,3.99,35,24,0,0
108689,91262298,0,6456,6300,15.72,3.88,35,24,0,0
109134,91372998,0,6281,6114,15.6,3.75,35,25,0,0
109584,91479249,0,6114,6114,15.6,3.84,35,25,0,0
110031,91592169,0,6111,6085,15.64,3.82,35,25,0,0
110477,91700767,0,6088,6128,15.57,3.95,35,25,0,0
110885,91800668,0,6128,6142,15.6,4.35,35,25,0,0
111332,91911170,0,6147,6428,15.58,4.33,35,25,0,0
111820,92025742,0,6431,6485,15.58,4.8,35,25,0,0
112261,92136429,0,6477,6385,15.58,4.45,35,26,0,0
112710,92248997,0,6396,6471,15.57,4.56,35,26,0,0
113152,92349023,0,6485,6700,15.58,5.14,35,26,0,0
113601,92460521,0,6681,6442,15.64,4.74,35,26,0,0
114048,92575606,0,6432,6371,15.61,4.35,35,26,0,0
114531,92686018,0,6375,6442,15.61,4.59,35,26,0,0
114980,92797864,0,6429,6300,15.63,4.3,35,26,0,0
115387,92901219,0,6312,6471,15.6,4.42,35,27,0,0
115834,93005796,0,6462,6242,15.64,3.71,35,27,0,0
116275,93114893,0,6239,6114,15.58,4.09,35,27,0,0
117168,93335440,0,6125,6400,15.51,4.73,35,27,0,0
117613,93440245,0,6403,6471,15.54,4.51,35,27,0,0
118058,93550424,0,6472,6514,15.61,4.45,35,27,0,0
118515,93661806,0,6502,6400,15.57,4.62,35,27,0,0
118957,93769273,0,6396,6357,15.58,4.41,35,28,0,0
119406,93878827,0,6359,6385,15.51,4.11,35,28,0,0
119809,93978596,0,6384,6342,15.43,4.74,35,28,0,0
120297,94098764,0,6353,6485,15.56,4.43,35,28,0,0
121191,94315878,0,6476,6100,15.59,3.85,35,28,0,0
121594,94418811,0,6100,6100,15.58,4.13,35,28,0,0
122039,94531568,0,6105,6171,15.52,4.28,35,28,0,0
122491,94638693,0,6169,6142,15.63,4.06,35,29,0,0
122973,94751650,0,6141,6128,15.6,4.16,35,29,0,0
123379,94850207,0,6129,6185,15.52,4.06,35,29,0,0
123829,94962307,0,6186,6214,15.58,4.25,35,29,0,0
124288,95083610,0,6214,6214,15.52,4.2,35,29,0,0
124729,95185334,0,6220,6285,15.52,4.27,35,29,0,0
125128,95286694,0,6283,6214,15.5,4.26,35,29,0,0
125579,95395642,0,6217,6371,15.52,4.12,35,30,0,0
126071,95516373,0,6355,6185,15.52,3.95,35,30,0,0
126514,95619209,0,6172,6014,15.53,3.97,35,30,0,0
126922,95725058,0,6012,5942,15.59,3.72,35,30,0,0
127412,95840195,0,5944,5971,15.55,3.67,35,30,0,0
127816,95941747,0,5982,6228,15.52,4.31,35,30,0,0
128262,96047868,0,6228,6257,15.54,4.33,36,30,0,0
128718,96161428,0,6264,6357,15.55,4.41,35,30,0,0
129172,96273309,0,6354,6328,15.57,4.18,35,31,0,0
129573,96376382,0,6317,6171,15.57,4,35,31,0,0
130016,96487405,0,6173,6228,15.55,4.29,36,31,0,0
130471,96598225,0,6237,6328,15.57,4.31,35,31,0,0
130912,96707154,0,6331,6371,15.51,4.39,36,31,0,0
131323,96807163,0,6368,6214,15.48,4.32,35,31,0,0
132214,97024148,0,6214,6285,15.5,4.34,36,31,0,0
132702,97142853,0,6272,6142,15.48,4.49,35,31,0,0
133146,97248742,0,6161,6457,15.47,4.39,36,32,0,0
133549,97352175,0,6453,6385,15.52,4.49,36,32,0,0
133999,97465262,0,6379,6342,15.46,4.56,35,32,0,0
134407,97567663,0,6343,6371,15.4,4.55,36,32,0,0
134862,97683195,0,6372,6385,15.49,4.42,36,32,0,0
135301,97786445,0,6376,6257,15.5,4.63,36,32,0,0
135753,97897180,0,6250,6185,15.48,4.16,36,32,0,0
136204,98005453,0,6182,6142,15.52,4.25,36,33,0,0
136603,98106380,0,6150,6442,15.45,4.74,36,33,0,0
137102,98227071,0,6426,6242,15.52,4.35,36,33,0,0
137506,98330466,0,6240,6214,15.57,4.46,36,33,0,0
137959,98443824,0,6221,6300,15.52,4.57,36,33,0,0
138437,98555257,0,6308,6500,15.52,4.9,36,33,0,0
138885,98662835,0,6493,6414,15.45,4.95,36,33,0,0
139331,98774855,0,6428,6585,15.53,4.72,36,34,0,0
139817,98889745,0,6566,6300,15.51,4.59,36,34,0,0
140225,98988027,0,6307,6457,15.48,4.72,36,34,0,0
140674,99102267,0,6459,6485,15.48,4.75,36,34,0,0
141128,99213867,0,6476,6385,15.58,4.23,36,34,0,0
141527,99315375,0,6380,6300,15.52,4.25,36,34,0,0
141979,99425300,0,6297,6271,15.5,4.22,36,34,0,0
142382,99525792,0,6270,6242,15.5,4.11,36,34,0,0
142878,99645752,0,6224,6028,15.52,3.6,36,35,0,0
143319,99754073,0,6022,5942,15.48,3.69,36,35,0,0
144619,100071253,0,5941,5857,15.51,3.6,36,35,0,0
145061,100180651,0,5859,6014,15.49,3.9,36,35,0,0
145504,100288071,0,6013,6000,15.47,3.95,36,35,0,0
145999,100414985,0,6020,6142,15.48,3.89,36,35,0,0
146396,100505431,0,6141,6100,15.5,3.91,36,35,0,0
146850,100617055,0,6108,6285,15.5,4,36,36,0,0
147260,100725883,0,6281,6200,15.48,4.03,36,36,0,0
147708,100834811,0,6189,5971,15.61,3.93,36,36,0,0
148117,100940630,0,5987,6242,15.56,3.84,36,36,0,0
148569,101048831,0,6231,6100,15.54,3.82,36,36,0,0
149462,101269652,0,6094,5985,15.57,3.78,36,36,0,0
149938,101379918,0,5962,5814,15.58,3.07,36,36,0,0
150389,101492006,0,5803,5728,15.58,3.01,36,37,0,0
150790,101594220,0,5708,5557,15.6,2.81,36,37,0,0
151267,101705389,0,5552,5500,15.57,2.78,36,37,0,0
151720,101813413,0,5493,5414,15.58,2.83,36,37,0,0
152166,101928228,0,5416,5442,15.56,2.9,36,37,0,0
152616,102034821,0,5440,5428,15.52,2.86,36,37,0,0
153022,102137624,0,5429,5571,15.56,3.22,36,37,0,0
153517,102261746,0,5567,5542,15.6,3.13,36,37,0,0
154767,102570877,0,5544,5871,15.47,3.47,36,37,0,0
155213,102681373,0,5868,5771,15.49,3.46,36,38,0,0
155663,102787351,0,5771,5828,15.48,3.55,36,38,0,0
156593,103016963,0,5842,6100,15.54,4.2,36,38,0,0
156956,103113859,0,6102,6228,15.53,4.31,36,38,0,0
157448,103232825,0,6235,6342,15.51,4.54,36,38,0,0
157850,103334177,0,6340,6257,15.54,4.26,36,38,0,0
158710,103552617,0,6256,6242,15.45,4.32,36,39,0,0
159161,103663884,0,6240,6214,15.5,4.19,36,39,0,0
159607,103776138,0,6222,6328,15.52,4.17,36,39,0,0
160497,103992288,0,6320,6157,15.44,4.3,36,39,0,0
160945,104104560,0,6161,6228,15.48,4.01,36,39,0,0
161799,104318976,0,6209,5800,15.53,3.23,36,39,0,0
162247,104427933,0,5821,6057,15.39,4.06,36,40,0,0
162652,104531620,0,6057,6071,15.41,3.87,36,40,0,0
163103,104643201,0,6071,6071,15.44,4.02,36,40,0,0
163550,104755002,0,6073,6100,15.39,4.2,36,40,0,0
163992,104866227,0,6105,6157,15.36,3.85,36,40,0,0
164439,104976862,0,6147,6057,15.38,3.65,36,40,0,0
164841,105077908,0,6060,6242,15.36,4.62,36,40,0,0
165291,105188165,0,6236,6171,15.4,4.14,36,40,0,0
165775,105307338,0,6180,6285,15.47,4.46,36,41,0,0
166625,105515562,0,6285,6285,15.43,4.35,36,41,0,0
167476,105729988,0,6287,6457,15.36,4.57,36,41,0,0
167931,105843798,0,6455,6428,15.48,4.56,36,41,0,0
168825,106070290,0,6430,6485,15.5,4.46,36,42,0,0
169277,106182768,0,6482,6457,15.42,4.76,36,42,0,0
169675,106283056,0,6451,6342,15.45,4.19,36,42,0,0
170123,106393773,0,6332,6142,15.5,4.02,36,42,0,0
170577,106510866,0,6143,6157,15.46,3.95,36,42,0,0
170984,106615548,0,6157,6157,15.44,3.95,36,42,0,0
171431,106726747,0,6147,6057,15.45,3.76,36,42,0,0
171834,106828432,0,6055,6000,15.45,4.08,36,42,0,0
172285,106942817,0,6019,6200,15.4,4.21,36,43,0,0
172736,107050948,0,6190,6100,15.48,4.18,36,43,0,0
173134,107152635,0,6102,6271,15.45,4.41,36,43,0,0
174514,107484549,0,6274,6385,15.54,4.52,36,43,0,0
174922,107587204,0,6384,6371,15.54,4.52,36,43,0,0
175362,107695945,0,6360,6214,15.55,4.39,36,43,0,0
175811,107803979,0,6220,6300,15.54,4.61,36,44,0,0
176221,107908443,0,6299,6271,15.55,4.08,36,44,0,0
176712,108025297,0,6274,6328,15.53,4.1,36,44,0,0
177600,108241647,0,6317,6100,15.48,4.26,36,44,0,0
177999,108343588,0,6099,6085,15.48,3.88,36,44,0,0
178484,108458653,0,6086,6100,15.46,4.13,36,44,0,0
178888,108562253,0,6100,6100,15.47,3.8,36,44,0,0
179292,108665948,0,6097,5971,15.43,3.76,36,45,0,0
179786,108783281,0,5972,6000,15.45,3.77,36,45,0,0
180190,108886285,0,6006,6157,15.45,3.92,36,45,0,0
180642,108994759,0,6153,5914,15.42,3.87,36,45,0,0
181574,109222284,0,5921,6085,15.5,3.85,36,45,0,0
182016,109329633,0,6086,6100,15.47,3.95,36,45,0,0
182460,109439749,0,6098,6085,15.45,4.1,37,45,0,0
182909,109551987,0,6098,6228,15.48,3.8,37,46,0,0
183354,109658448,0,6207,5900,15.48,3.72,36,46,0,0
183798,109766959,0,5900,5914,15.54,3.68,36,46,0,0
184693,109990299,0,5924,6114,15.48,3.98,36,46,0,0
185096,110095863,0,6111,5985,15.48,3.8,37,46,0,0
185585,110215070,0,5983,5971,15.46,3.56,37,46,0,0
185988,110315313,0,5975,6042,15.5,3.72,37,46,0,0
186439,110424256,0,6035,5971,15.42,3.84,37,46,0,0
186850,110526244,0,5972,6014,15.47,3.66,37,47,0,0
187298,110634136,0,6014,6014,15.49,3.56,37,47,0,0
187737,110746997,0,6005,5914,15.5,3.76,36,47,0,0
188191,110854280,0,5911,5871,15.48,3.34,37,47,0,0
188629,110965805,0,5871,5928,15.48,3.34,37,47,0,0
189121,111083337,0,5913,5771,15.48,3.41,37,47,0,0
189528,111186372,0,5772,5785,15.42,3.76,37,47,0,0
189931,111289860,0,5790,5900,15.48,3.67,37,47,0,0
190420,111405826,0,5914,6057,15.45,3.82,37,47,0,0
190822,111510443,0,6051,5957,15.45,3.6,37,48,0,0
191231,111610176,0,5956,5928,15.51,3.31,37,48,0,0
191712,111731031,0,5904,5671,15.5,3.09,37,48,0,0
192157,111838998,0,5677,5771,15.49,3.6,37,48,0,0
192605,111946216,0,5770,5757,15.48,3.56,37,48,0,0
193054,112054734,0,5765,5971,15.53,3.92,37,48,0,0
193540,112173784,0,5968,5928,15.46,4.12,37,48,0,0
193945,112274641,0,5929,6071,15.42,4.17,37,48,0,0
194387,112382263,0,6092,6371,15.45,4.67,37,48,0,0
195277,112599174,0,6371,6514,15.43,4.76,37,49,0,0
195724,112712799,0,6511,6485,15.36,4.98,36,49,0,0
196169,112818757,0,6483,6471,15.47,5.22,37,49,0,0
196579,112923007,0,6465,6342,15.47,5.04,37,49,0,0
197028,113034310,0,6343,6385,15.46,4.84,37,49,0,0
197431,113140039,0,6385,6442,15.39,4.81,37,50,0,0
197923,113259200,0,6437,6385,15.5,4.39,37,50,0,0
198370,113365861,0,6378,6314,15.46,4.4,37,50,0,0
198821,113476845,0,6305,6214,15.39,4.47,37,50,0,0
199265,113588492,0,6230,6400,15.48,4.43,37,50,0,0
199668,113690354,0,6399,6357,15.48,4.71,37,50,0,0
200120,113800922,0,6353,6314,15.5,4.07,37,50,0,0
200565,113911403,0,6306,6228,15.46,4.33,37,50,0,0
201014,114018968,0,6230,6257,15.51,4.51,37,50,0,0
201418,114120844,0,6258,6328,15.49,4.25,37,51,0,0
202301,114335780,0,6327,6314,15.36,4.71,37,51,0,0
202753,114445582,0,6330,6557,15.44,5,37,51,0,0
203157,114549921,0,6557,6628,15.32,5.37,37,51,0,0
203651,114668793,0,6625,6600,15.47,5.23,37,51,0,0
204054,114775820,0,6607,6714,15.4,5.49,37,52,0,0
204498,114887896,0,6714,6714,15.38,5.17,37,52,0,0
204947,114994608,0,6716,6757,15.4,5.37,37,52,0,0
205393,115105822,0,6753,6685,15.29,5.26,37,52,0,0
205801,115207394,0,6680,6528,15.39,4.74,37,52,0,0
206249,115319957,0,6537,6657,15.46,4.51,37,52,0,0
206700,115430936,0,6649,6542,15.44,4.83,37,53,0,0
207155,115545178,0,6535,6471,15.38,4.76,37,53,0,0
207557,115647204,0,6475,6585,15.5,4.51,37,53,0,0
207995,115755875,0,6583,6542,15.47,4.61,37,53,0,0
208484,115874146,0,6532,6414,15.48,4.44,37,53,0,0
208894,115974213,0,6403,6185,15.43,4.31,37,53,0,0
209342,116086496,0,6216,6542,15.38,4.96,37,53,0,0
209790,116194362,0,6535,6471,15.42,4.66,37,53,0,0
210234,116303952,0,6480,6685,15.42,4.77,37,54,0,0
210682,116413449,0,6682,6628,15.42,4.98,37,54,0,0
211131,116526040,0,6635,6714,15.46,4.85,37,54,0,0
211577,116632851,0,6703,6557,15.46,4.46,37,54,0,0
211978,116733742,0,6562,6657,15.38,4.66,37,54,0,0
212430,116845160,0,6649,6542,15.47,4.43,37,54,0,0
212873,116953370,0,6538,6500,15.43,4.47,37,55,0,0
213321,117063990,0,6493,6400,15.41,4.51,37,55,0,0
213724,117168603,0,6403,6500,15.45,4.48,37,55,0,0
214655,117393244,0,6489,6257,15.45,4.13,37,55,0,0
215063,117500313,0,6266,6357,15.5,4.16,37,55,0,0
215511,117609055,0,6345,6228,15.44,4.1,37,55,0,0
215911,117710853,0,6229,6300,15.42,3.95,37,55,0,0
216397,117824227,0,6303,6357,15.39,4.56,37,56,0,0
216803,117927544,0,6356,6328,15.44,4.46,37,56,0,0
217295,118047069,0,6330,6357,15.35,4.61,37,56,0,0
217699,118151640,0,6361,6428,15.39,4.27,37,56,0,0
218146,118260843,0,6429,6442,15.48,4.72,37,56,0,0
218587,118367161,0,6446,6500,15.46,4.66,37,56,0,0
218859,118461770,0,6502,6600,15.44,4.82,37,56,0,0
219298,118570219,0,6593,6471,15.48,4.29,37,56,0,0
219749,118685648,0,6478,6557,15.41,4.69,37,57,0,0
220192,118790170,0,6542,6342,15.46,4.03,37,57,0,0
220636,118899312,0,6345,6400,15.46,4.36,37,57,0,0
221087,119006984,0,6405,6528,15.41,4.61,37,57,0,0
221565,119120631,0,6512,6357,15.44,4.41,37,57,0,0
222014,119230619,0,6373,6542,15.4,4.42,37,57,0,0
222456,119340042,0,6534,6457,15.41,4.36,37,57,0,0
222908,119453559,0,6451,6414,15.48,4.4,37,58,0,0
223315,119557146,0,6412,6400,15.4,4.29,37,58,0,0
223763,119665587,0,6393,6300,15.42,4.3,37,58,0,0
224201,119770664,0,6300,6300,15.47,4.53,37,58,0,0
224646,119880880,0,6317,6514,15.39,4.89,37,58,0,0
225093,119991023,0,6523,6628,15.46,4.84,37,58,0,0
225537,120101010,0,6616,6485,15.44,4.59,37,58,0,0
225987,120213203,0,6482,6457,15.44,4.65,37,58,0,0
226394,120319743,0,6470,6557,15.43,4.74,37,59,0,0
226845,120424977,0,6563,6628,15.48,4.64,37,59,0,0
227288,120541955,0,6616,6542,15.42,4.53,37,59,0,0
227732,120647238,0,6532,6457,15.39,4.71,37,59,0,0
228139,120754703,0,6458,6471,15.44,4.21,37,59,0,0
228589,120861275,0,6476,6528,15.39,4.6,37,59,0,0
229034,120973747,0,6516,6414,15.33,4.45,37,59,0,0
229444,121073174,0,6421,6500,15.41,4.71,37,60,0,0
229927,121190399,0,6500,6514,15.44,4.46,37,60,0,0
230371,121301383,0,6523,6657,15.38,4.63,37,60,0,0
230821,121413058,0,6624,6371,15.51,4.37,37,60,0,0
231260,121519242,0,6375,6442,15.48,4.34,37,60,0,0
231672,121623376,0,6439,6285,15.54,3.69,37,60,0,0
232154,121734834,0,6280,6242,15.52,3.73,37,60,0,0
232602,121841434,0,6247,6314,15.52,3.97,37,61,0,0
233500,122063307,0,6304,6028,15.56,3.57,37,61,0,0
233904,122163372,0,6028,6042,15.48,3.74,37,61,0,0
234425,122285354,0,6056,6257,15.47,4.1,37,61,0,0
234832,122386407,0,6251,6071,15.47,4.09,37,61,0,0
235281,122500256,0,6086,6314,15.51,4.2,37,61,0,0
235731,122610169,0,6305,6185,15.45,4.36,37,61,0,0
236171,122718259,0,6202,6442,15.44,4.65,37,62,0,0
236582,122823994,0,6443,6528,15.35,4.92,37,62,0,0
237025,122931529,0,6527,6500,15.42,4.66,37,62,0,0
237476,123042895,0,6495,6400,15.39,4.8,37,62,0,0
237917,123150178,0,6406,6542,15.34,5.13,37,62,0,0
238368,123261991,0,6539,6471,15.34,4.7,37,62,0,0
238812,123373775,0,6473,6500,15.44,4.55,37,62,0,0
239263,123485795,0,6479,6342,15.35,4.25,37,62,0,0
239667,123585812,0,6339,6214,15.33,4.17,37,63,0,0
240111,123696760,0,6208,6142,15.27,3.73,37,63,0,0
240561,123806652,0,6129,5971,15.41,3.63,37,63,0,0
241453,124020855,0,5970,5885,15.36,3.33,37,63,0,0
241905,124134871,0,5871,5671,15.36,3.35,37,63,0,0
242351,124241738,0,5677,5757,15.46,3.48,37,63,0,0
242792,124350445,0,5757,5771,15.41,3.32,37,63,0,0
243242,124459175,0,5773,5828,15.36,3.59,37,63,0,0
243690,124570148,0,5821,5742,15.45,3.57,37,64,0,0
244133,124680162,0,5750,5828,15.48,3.68,37,64,0,0
244541,124780272,0,5835,6000,15.44,3.84,37,64,0,0
244946,124884640,0,6000,6000,15.41,3.93,37,64,0,0
245877,125110866,0,5997,5942,15.38,4.17,37,64,0,0
246322,125216670,0,5961,6214,15.37,4.09,37,64,0,0
246776,125328849,0,6192,5971,15.45,3.45,37,64,0,0
247223,125436778,0,5968,5942,15.44,3.36,37,65,0,0
248066,125644229,0,5942,6000,15.41,3.5,37,65,0,0
248549,125758043,0,5993,5900,15.38,3.56,37,65,0,0
249406,125970950,0,5900,5914,15.45,3.56,37,65,0,0
249851,126081822,0,5916,5971,15.45,3.45,37,65,0,0
250298,126191009,0,5982,6142,15.4,4.02,38,65,0,0
251194,126413753,0,6145,6257,15.39,4.02,37,65,0,0
252090,126636207,0,6255,6228,15.38,4,37,66,0,0
252487,126733873,0,6226,6200,15.39,4.17,37,66,0,0
252982,126853956,0,6194,6142,15.36,4.17,37,66,0,0
253385,126953427,0,6147,6228,15.39,3.84,37,66,0,0
253833,127061925,0,6234,6328,15.41,4.2,37,66,0,0
254683,127277780,0,6325,6028,15.32,3.87,37,66,0,0
255131,127385747,0,6022,5942,15.36,3.82,37,67,0,0
255578,127499170,0,5956,6100,15.35,4.13,37,67,0,0
255985,127600482,0,6107,6200,15.36,4.08,37,67,0,0
256424,127706737,0,6207,6328,15.38,4.33,37,67,0,0
256875,127819064,0,6330,6357,15.34,4.49,37,67,0,0
257358,127932425,0,6362,6442,15.35,4.75,37,67,0,0
257765,128030672,0,6442,6457,15.32,4.82,37,67,0,0
258654,128249772,0,6457,6542,15.33,5.12,37,68,0,0
259135,128363028,0,6545,6600,15.29,5.12,37,68,0,0
259583,128474065,0,6606,6671,15.38,5.06,37,68,0,0
259982,128575799,0,6669,6557,15.31,5.15,37,68,0,0
260429,128684149,0,6554,6428,15.38,4.81,37,68,0,0
260916,128803027,0,6433,6485,15.47,4.56,37,68,0,0
261281,128899923,0,6479,6300,15.43,4.51,38,69,0,0
261731,129009005,0,6302,6400,15.44,4.3,37,69,0,0
262182,129122299,0,6384,6171,15.43,3.8,37,69,0,0
262630,129230388,0,6152,5957,15.57,3.72,37,69,0,0
263074,129338847,0,5946,5785,15.6,2.99,37,69,0,0
263522,129448803,0,5777,5600,15.57,2.79,37,69,0,0
264009,129566026,0,5601,5628,15.59,3,37,69,0,0
264860,129779435,0,5628,5628,15.53,3.2,37,69,0,0
265303,129887462,0,5633,5714,15.48,3.77,37,69,0,0
265753,129996608,0,5727,5914,15.48,3.78,37,70,0,0
266198,130107225,0,5936,6171,15.42,4.42,38,70,0,0
266645,130214942,0,6166,6100,15.53,4.3,37,70,0,0
267093,130323990,0,6107,6314,15.5,4.21,37,70,0,0
267538,130428946,0,6313,6300,15.39,4.23,38,70,0,0
267985,130544804,0,6290,6214,15.41,4.24,37,70,0,0
268433,130653629,0,6216,6242,15.39,4.02,37,70,0,0
268877,130763458,0,6239,6214,15.38,4.46,37,70,0,0
269326,130873820,0,6219,6271,15.42,4.63,37,71,0,0
269732,130978561,0,6274,6314,15.46,4.39,37,71,0,0
270221,131098422,0,6315,6342,15.48,4.16,38,71,0,0
271076,131310229,0,6342,6357,15.47,4.48,37,71,0,0
271480,131409449,0,6355,6300,15.44,4.36,38,71,0,0
271971,131531738,0,6295,6257,15.45,4.28,37,71,0,0
272378,131633073,0,6256,6242,15.44,4.22,37,72,0,0
272822,131743865,0,6240,6214,15.39,4.11,38,72,0,0
273268,131849243,0,6213,6200,15.42,4.27,38,72,0,0
273720,131963400,0,6200,6200,15.38,4.27,37,72,0,0
274212,132085295,0,6214,6328,15.41,4.71,37,72,0,0
274652,132189060,0,6342,6485,15.37,4.84,38,72,0,0
275096,132296014,0,6467,6300,15.35,4.96,37,72,0,0
275503,132397836,0,6304,6528,15.33,5.18,38,73,0,0
275942,132506959,0,6537,6671,15.29,5.16,38,73,0,0
276388,132615997,0,6677,6842,15.25,5.71,37,73,0,0
276870,132730182,0,6852,6957,15.23,5.35,38,73,0,0
277276,132830139,0,6945,6685,15.37,5.06,38,73,0,0
277723,132942667,0,6687,6728,15.3,5.06,38,73,0,0
278173,133050878,0,6713,6528,15.36,4.92,38,73,0,0
278987,133260456,0,6527,6471,15.29,4.89,38,74,0,0
279433,133368407,0,6468,6271,15.45,4.44,38,74,0,0
279876,133479828,0,6271,6328,15.44,4.13,37,74,0,0
280323,133588376,0,6321,6228,15.49,3.96,38,74,0,0
280726,133693203,0,6224,6071,15.38,4.36,38,74,0,0
281177,133802214,0,6072,6128,15.45,4.04,38,74,0,0
281627,133916886,0,6114,5985,15.44,4.16,38,75,0,0
282113,134026438,0,5996,6185,15.37,4.56,38,75,0,0
282563,134139735,0,6190,6242,15.36,4.3,37,75,0,0
282964,134237928,0,6245,6314,15.41,4.26,38,75,0,0
283410,134347878,0,6312,6285,15.45,4.64,38,75,0,0
283856,134454063,0,6283,6257,15.36,4.58,38,75,0,0
284304,134565821,0,6249,6142,15.41,4.54,38,75,0,0
284747,134671992,0,6152,6271,15.44,4.7,38,75,0,0
285197,134783792,0,6272,6285,15.43,4.61,38,76,0,0
285600,134885599,0,6286,6300,15.44,4.72,38,76,0,0
286048,134994033,0,6301,6328,15.4,4.46,38,76,0,0
286488,135103033,0,6331,6385,15.39,4.31,38,76,0,0
286940,135214294,0,6377,6300,15.43,4.59,38,76,0,0
287388,135323997,0,6293,6200,15.38,4.47,38,76,0,0
287835,135434747,0,6202,6242,15.3,4.59,38,76,0,0
288281,135544873,0,6263,6485,15.29,4.83,38,77,0,0
288684,135644400,0,6482,6357,15.36,4.66,38,77,0,0
289128,135754410,0,6358,6385,15.27,4.86,38,77,0,0
289583,135869166,0,6392,6471,15.3,4.85,38,77,0,0
290028,135978591,0,6470,6457,15.34,4.68,38,77,0,0
290882,136195258,0,6455,6428,15.36,4.42,38,77,0,0
291290,136297377,0,6425,6200,15.36,4.29,38,78,0,0
291740,136406659,0,6202,6257,15.42,4.56,38,78,0,0
292193,136522302,0,6254,6228,15.42,4.27,38,78,0,0
292678,136633742,0,6229,6242,15.33,4.4,38,78,0,0
293117,136741864,0,6253,6400,15.33,4.62,38,78,0,0
293567,136853150,0,6414,6557,15.32,4.51,38,78,0,0
293965,136951380,0,6549,6271,15.4,4.26,38,78,0,0
294422,137068224,0,6250,6071,15.41,4.21,38,78,0,0
294820,137166568,0,6082,6485,15.44,4.26,38,79,0,0
295267,137277070,0,6480,6185,15.48,4,38,79,0,0
295716,137385977,0,6184,6157,15.48,4.11,38,79,0,0
296160,137495792,0,6149,6042,15.44,4.1,38,79,0,0
296606,137605169,0,6040,6014,15.42,3.99,38,79,0,0
297050,137714766,0,6019,6128,15.42,3.87,38,79,0,0
297503,137825964,0,6126,6014,15.46,3.99,38,79,0,0
297985,137938210,0,6015,6042,15.39,4.26,38,79,0,0
298430,138049660,0,6043,6057,15.44,4.08,38,80,0,0
298842,138157549,0,6060,6142,15.42,4.12,38,80,0,0
299324,138266961,0,6136,6057,15.43,4.33,38,80,0,0
299770,138376220,0,6057,6057,15.37,4.39,38,80,0,0
300211,138489044,0,6068,6171,15.39,4.32,38,80,0,0
301101,138705153,0,6178,6342,15.36,4.25,38,80,0,0
301513,138806392,0,6338,6128,15.33,4.47,38,81,0,0
302006,138922248,0,6127,6114,15.35,4.02,38,81,0,0
302894,139146186,0,6117,6185,15.42,3.89,38,81,0,0
303342,139255248,0,6178,6114,15.4,3.78,38,81,0,0
303784,139363289,0,6112,6100,15.37,3.68,38,81,0,0
304232,139478983,0,6078,5914,15.43,3.79,38,81,0,0
304638,139578758,0,5911,5885,15.38,4.01,38,81,0,0
305082,139689611,0,5885,5885,15.4,3.69,38,81,0,0
305489,139787245,0,5885,5942,15.46,3.64,38,82,0,0
305929,139895047,0,5943,5985,15.44,3.48,38,82,0,0
306420,140010950,0,5984,5957,15.42,4.1,38,82,0,0
306826,140115881,0,5957,6014,15.47,3.68,38,82,0,0
307320,140234392,0,6006,5928,15.47,3.55,38,82,0,0
307721,140336396,0,5921,5828,15.42,3.36,38,82,0,0
308171,140445213,0,5835,5942,15.44,3.7,38,82,0,0
308617,140558149,0,5924,5728,15.37,3.62,38,82,0,0
309064,140665175,0,5730,5871,15.44,4.04,38,82,0,0
309512,140778271,0,5876,5942,15.46,3.44,38,83,0,0
309952,140883354,0,5926,5714,15.75,3.09,38,83,0,0
310398,140991285,0,5669,4685,15.57,2.6,38,83,0,0
310844,141106450,0,4701,4928,15.76,2.18,38,83,0,0
311296,141215863,0,4881,4400,15.62,1.99,38,83,0,0
311737,141323592,0,4360,3842,15.88,0.5600000000000001,38,83,0,0
312186,141431073,0,3821,3528,16.04,0.34,38,83,0,0
312631,141540819,0,3540,3657,15.69,1.97,38,83,0,0
313081,141649879,0,3599,3142,16,0.19,38,83,0,0
313525,141760895,0,3113,2828,15.97,0.28,38,83,0,0
313929,141860673,0,2825,2785,15.98,0.42,38,83,0,0
314339,141968030,0,2787,2900,15.97,0.5600000000000001,38,83,0,0
314822,142080559,0,2900,2900,15.97,0.5,38,83,0,0
315267,142189738,0,2900,2914,15.96,0.58,38,83,0,0
315674,142295377,0,2914,2928,15.98,0.52,38,83,0,0
316121,142404294,0,2927,2914,15.98,0.54,38,83,0,0
316607,142520311,0,2914,2928,15.98,0.5,38,83,0,0
317053,142625793,0,2930,2957,16,0.52,38,83,0,0
317454,142726981,0,2956,2942,15.97,0.5,38,83,0,0
317942,142838736,0,2943,2971,16,0.53,38,83,0,0
318390,142949228,0,2971,2985,16.01,0.51,38,83,0,0
319282,143163664,0,2984,2942,16.02,0.52,38,83,0,0
319775,143284571,0,2940,2928,16.01,0.54,38,83,0,0
320213,143383463,0,2875,2171,16.1,0.03,38,83,0,0
320618,143485029,0,2164,1585,16.09,0,38,83,0,0
321107,143599959,0,1569,1342,16.07,0.06,38,83,0,0
321550,143705896,0,1340,1314,16.07,0.09999999,38,83,0,0
322001,143814023,0,1314,1314,16.08,0.11,38,83,0,0
322450,143924559,0,1314,1314,16.08,0.11,38,83,0,0
322898,144031660,0,1314,1314,16.08,0.11,38,83,0,0
323301,144131775,0,1314,1314,16.08,0.11,38,83,0,0
323751,144237861,0,1314,1314,16.08,0.11,38,83,0,0
324233,144358212,0,1314,1314,16.08,0.11,38,83,0,0
324684,144459731,0,1314,1314,16.08,0.11,38,83,0,0
325132,144577942,0,1314,1314,16.09,0.09999999,38,83,0,0
325538,144674234,0,1314,1314,16.09,0.11,37,83,0,0
326017,144785775,0,1314,1314,16.1,0.09999999,38,83,0,0
326468,144897280,0,1314,1314,16.1,0.09999999,37,83,0,0
326869,144990191,0,1314,1328,16.1,0.09999999,37,83,0,0
327315,145097745,0,1328,1328,16.11,0.09999999,37,83,0,0
327800,145207588,0,1327,1314,16.1,0.11,37,83,0,0
328252,145320458,0,1315,1328,16.1,0.09999999,37,83,0,0
328698,145424850,0,1327,1314,16.11,0.11,37,83,0,0
329183,145542818,0,1314,1314,16.11,0.09999999,37,83,0,0
329589,145640782,0,1314,1314,16.11,0.09999999,37,83,0,0
330041,145754235,0,1314,1314,16.12,0.09999999,37,83,0,0
330491,145868858,0,1315,1328,16.12,0.09999999,37,83,0,0
330928,145966176,0,1327,1314,16.12,0.11,37,83,0,0
331379,146075410,0,1314,1314,16.13,0.11,37,83,0,0
331830,146183869,0,1314,1314,16.13,0.11,37,83,0,0
332314,146296170,0,1314,1314,16.13,0.11,37,83,0,0
332807,146410783,0,1314,1314,16.13,0.11,37,83,0,0
333255,146521357,0,1314,1314,16.13,0.11,37,83,0,0
333699,146626235,0,1314,1314,16.13,0.11,37,83,0,0
334149,146736267,0,1314,1314,16.14,0.11,37,83,0,0
334593,146838366,0,1314,1328,16.13,0.11,37,83,0,0
335038,146946366,0,1328,1328,16.13,0.11,37,83,0,0
335530,147064336,0,1325,1300,16.14,0.11,37,83,0,0
336013,147178216,0,1301,1314,16.14,0.11,37,83,0,0
336419,147279164,0,1314,1314,16.14,0.11,37,83,0,0
336908,147393173,0,1314,1314,16.14,0.11,37,83,0,0
337347,147501163,0,1315,1328,16.15,0.11,37,83,0,0
337794,147605403,0,1327,1314,16.15,0.11,37,83,0,0
338207,147708343,0,1314,1328,16.14,0.11,37,83,0,0
339136,147928817,0,1328,1328,16.15,0.11,37,83,0,0
339586,148039877,0,1328,1328,16.15,0.11,37,83,0,0
340000,148149378,0,1328,1328,16.15,0.11,37,83,0,0
340451,148253665,0,1328,1328,16.15,0.11,37,83,0,0
340939,148368274,0,1326,1314,16.16,0.11,37,83,0,0
341343,148466435,0,1314,1328,16.16,0.11,37,83,0,0
341791,148579668,0,1328,1328,16.16,0.11,37,83,0,0
342239,148686745,0,1328,1328,16.16,0.11,37,83,0,0
342647,148790629,0,1328,1328,16.16,0.11,37,83,0,0
343133,148906147,0,1327,1314,16.16,0.11,37,83,0,0
343585,149014549,0,1315,1328,16.17,0.11,37,83,0,0
343983,149110826,0,1328,1328,16.16,0.09999999,37,83,0,0
344438,149222590,0,1328,1328,16.17,0.11,37,83,0,0
345368,149440257,0,1327,1314,16.17,0.11,37,83,0,0
345812,149548944,0,1314,1328,16.17,0.11,37,83,0,0
346264,149663198,0,1328,1328,16.17,0.11,37,83,0,0
346700,149761661,0,1328,1328,16.17,0.11,37,83,0,0
347153,149873929,0,1328,1328,16.18,0.11,37,83,0,0
347647,149989460,0,1328,1328,16.17,0.11,37,83,0,0
348095,150097651,0,1328,1328,16.18,0.11,37,83,0,0
348543,150202722,0,1328,1328,16.18,0.11,37,83,0,0
348994,150315843,0,1328,1328,16.18,0.11,37,83,0,0
349403,150416414,0,1328,1328,16.18,0.09999999,37,83,0,0
349853,150526965,0,1328,1328,16.19,0.11,37,83,0,0
350299,150630362,0,1328,1328,16.18,0.11,37,83,0,0
350742,150735150,0,1328,1328,16.19,0.11,37,83,0,0
351194,150845149,0,1328,1328,16.19,0.11,37,83,0,0
351641,150955758,0,1328,1328,16.19,0.09999999,37,83,0,0
352125,151065553,0,1328,1328,16.19,0.11,37,83,0,0
353014,151282793,0,1328,1328,16.19,0.11,37,83,0,0
353465,151393786,0,1328,1328,16.19,0.11,37,83,0,0
353909,151499231,0,1327,1314,16.19,0.11,36,83,0,0
354360,151614836,0,1314,1314,16.19,0.11,37,83,0,0
354764,151707259,0,1314,1314,16.2,0.11,36,83,0,0
355212,151818059,0,1314,1314,16.19,0.11,36,83,0,0
355656,151931067,0,1315,1328,16.19,0.11,36,83,0,0
356103,152034802,0,1328,1328,16.2,0.11,36,83,0,0
356587,152148803,0,1326,1314,16.2,0.11,36,83,0,0
356994,152244770,0,1314,1314,16.2,0.11,36,83,0,0
357438,152356039,0,1314,1314,16.21,0.11,36,83,0,0
357967,152483233,0,1314,1314,16.2,0.11,36,83,0,0
358373,152580230,0,1314,1314,16.21,0.11,36,83,0,0
358819,152689400,0,1314,1314,16.21,0.11,36,83,0,0
359708,152902021,0,1314,1314,16.2,0.11,36,83,0,0
360156,153009605,0,1314,1328,16.21,0.11,37,83,0,0
360604,153119945,0,1326,1314,16.21,0.11,36,83,0,0
361054,153225761,0,1314,1314,16.21,0.11,36,83,0,0
361489,153326579,0,1314,1314,16.21,0.11,36,83,0,0
361967,153442270,0,1260,471,16.23,0,36,83,0,0
362372,153542655,0,466,185,16.23,0.03,36,83,0,0
362866,153656958,0,172,0,16.23,0.04,36,83,0,0
363316,153763044,0,0,0,16.24,0.04,36,83,0,0
363766,153867444,0,0,0,16.23,0.04,36,83,0,0
364269,153985460,0,0,0,16.23,0.04,36,84,0,0
364718,154091914,0,0,0,16.23,0.04,36,84,0,0
365618,154305063,0,0,0,16.24,0.04,36,84,0,0
366113,154419957,0,0,0,16.23,0.04,36,84,0,0
366565,154528166,0,0,0,16.24,0.04,36,84,0,0
367025,154637913,0,0,0,16.24,0.04,36,84,0,0
367485,154754994,0,0,0,16.24,0.04,36,84,0,0
367936,154859625,0,0,0,16.25,0.04,36,84,0,0
368385,154968951,0,0,0,16.25,0.04,36,84,0,0
368841,155074507,0,0,0,16.25,0.04,36,84,0,0
369329,155191243,0,0,0,16.25,0.04,36,84,0,0
370230,155402021,0,0,0,16.25,0.04,36,84,0,0
370684,155512752,0,0,0,16.25,0.04,36,84,0,0
371142,155619066,0,0,0,16.25,0.04,36,84,0,0
371592,155729837,0,0,0,16.25,0.04,36,84,0,0
372953,156057159,0,0,0,16.25,0.04,36,84,0,0
373403,156163044,0,0,0,16.25,0.04,36,84,0,0
373854,156266533,0,0,0,16.26,0.04,36,84,0,0
374338,156376882,0,0,0,16.25,0.04,36,84,0,0
374833,156495272,0,0,0,16.26,0.04,36,84,0,0
375288,156601189,0,0,0,16.26,0.04,36,84,0,0
375740,156711211,0,0,0,16.26,0.04,36,84,0,0
376648,156928958,0,0,0,16.26,0.04,36,84,0,0
377099,157033975,0,0,0,16.26,0.04,36,84,0,0
