LineNo,TimeUS,Instance,RPM,RawRPM,Volt,Curr,Temp,CTot,MotTemp,Err
1694,6.5368e+07,1,0,0,16.81,0.04,26,0,0,0
2189,6.5487e+07,1,0,0,16.81,0.04,26,0,0,0
2648,6.5593e+07,1,0,0,16.81,0.04,26,0,0,0
3105,6.5702e+07,1,0,0,16.81,0.04,26,0,0,0
3562,6.5806e+07,1,0,0,16.81,0.04,26,0,0,0
4013,6.5912e+07,1,0,0,16.81,0.04,26,0,0,0
4516,6.6024e+07,1,0,0,16.81,0.04,26,0,0,0
4966,6.6131e+07,1,0,0,16.8,0.04,26,0,0,0
5461,6.6243e+07,1,0,0,16.81,0.04,26,0,0,0
5914,6.635e+07,1,0,0,16.81,0.04,26,0,0,0
6369,6.6454e+07,1,0,0,16.8,0.04,26,0,0,0
6779,6.6553e+07,1,0,0,16.8,0.04,26,0,0,0
7277,6.6667e+07,1,0,0,16.8,0.04,26,0,0,0
7767,6.6777e+07,1,22,242,16.81,0.04,26,0,0,0
8223,6.6885e+07,1,249,328,16.79,0.06,26,0,0,0
8714,6.6991e+07,1,348,771,16.77,0.11,26,0,0,0
9171,6.7103e+07,1,808,1171,16.77,0.16,26,0,0,0
9627,6.7208e+07,1,1178,1285,16.78,0.12,26,0,0,0
10076,6.7311e+07,1,1286,1328,16.79,0.12,26,0,0,0
10574,6.7425e+07,1,1329,1342,16.79,0.11,26,0,0,0
11026,6.7533e+07,1,1342,1342,16.78,0.11,26,0,0,0
11478,6.7635e+07,1,1342,1357,16.78,0.11,26,0,0,0
11936,6.7747e+07,1,1357,1357,16.78,0.11,26,0,0,0
12876,6.796e+07,1,1357,1357,16.78,0.11,26,0,0,0
13623,6.8179e+07,1,1357,1357,16.79,0.11,26,0,0,0
14066,6.8278e+07,1,1357,1357,16.79,0.11,26,0,0,0
14567,6.8393e+07,1,1357,1357,16.79,0.11,26,0,0,0
15029,6.8503e+07,1,1357,1357,16.79,0.11,26,0,0,0
15481,6.8605e+07,1,1357,1357,16.79,0.11,26,0,0,0
15937,6.8715e+07,1,1357,1357,16.79,0.11,26,0,0,0
16395,6.8817e+07,1,1357,1357,16.79,0.11,26,0,0,0
16890,6.8936e+07,1,1357,1357,16.79,0.11,26,0,0,0
17349,6.9042e+07,1,1357,1357,16.79,0.11,26,0,0,0
17799,6.9147e+07,1,1357,1357,16.79,0.11,26,0,0,0
18252,6.9248e+07,1,1357,1357,16.79,0.11,26,0,0,0
18753,6.9369e+07,1,1357,1357,16.78,0.11,26,0,0,0
19203,6.9475e+07,1,1357,1357,16.79,0.11,26,0,0,0
19656,6.9579e+07,1,1357,1357,16.78,0.11,26,0,0,0
20106,6.9685e+07,1,1357,1357,16.79,0.11,26,0,0,0
20608,6.9798e+07,1,1357,1357,16.78,0.11,26,0,0,0
21063,6.9907e+07,1,1357,1357,16.79,0.11,26,0,0,0
21516,7.0009e+07,1,1357,1357,16.79,0.11,26,0,0,0
21972,7.012e+07,1,1357,1357,16.78,0.11,26,0,0,0
22468,7.0232e+07,1,1357,1357,16.79,0.11,26,0,0,0
22918,7.0336e+07,1,1357,1357,16.79,0.11,26,0,0,0
23374,7.044e+07,1,1357,1357,16.78,0.11,26,0,0,0
23870,7.0555e+07,1,1357,1357,16.78,0.11,26,0,0,0
24324,7.0662e+07,1,1357,1357,16.78,0.11,26,0,0,0
24785,7.077e+07,1,1357,1357,16.78,0.11,26,0,0,0
25207,7.0875e+07,1,1357,1357,16.79,0.11,26,0,0,0
25657,7.0978e+07,1,1357,1357,16.78,0.11,26,0,0,0
26154,7.1091e+07,1,1357,1357,16.79,0.11,26,0,0,0
26607,7.1196e+07,1,1366,1500,16.76,0.21,26,0,0,0
27057,7.1304e+07,1,1523,2042,16.64,0.51,26,0,0,0
27505,7.141e+07,1,2074,2828,16.57,1.4,26,0,0,0
27958,7.1523e+07,1,2880,3414,16.52,1.61,26,0,0,0
28449,7.1636e+07,1,3482,4042,16.25,2.5,26,0,0,0
28898,7.1743e+07,1,4091,4571,15.86,4.78,26,0,0,0
29360,7.1853e+07,1,4643,5385,15.98,3.02,26,0,0,0
29807,7.1957e+07,1,5390,5471,16.12,2.73,26,1,0,0
30259,7.2065e+07,1,5468,5414,16.07,2.44,26,1,0,0
30746,7.2173e+07,1,5400,5157,16.13,1.92,26,1,0,0
31202,7.2284e+07,1,5151,5057,16.12,1.85,27,1,0,0
31703,7.2403e+07,1,5045,4942,16.16,1.56,27,1,0,0
32153,7.2512e+07,1,4915,4614,16.17,1.61,27,1,0,0
32603,7.2616e+07,1,4616,4671,16.04,1.63,27,1,0,0
33054,7.2725e+07,1,4696,4928,16,2.06,27,1,0,0
33509,7.2832e+07,1,4924,4857,15.98,1.75,27,1,0,0
33967,7.2947e+07,1,4858,4885,16.04,2.11,27,1,0,0
34467,7.3063e+07,1,4887,4914,15.99,1.74,26,1,0,0
34876,7.3166e+07,1,4917,4957,16.04,2.11,27,1,0,0
35331,7.3276e+07,1,4972,5100,15.98,2.17,27,1,0,0
35781,7.3381e+07,1,5106,5185,15.97,2.55,27,1,0,0
36280,7.3498e+07,1,5189,5228,15.97,2.13,27,1,0,0
36728,7.3605e+07,1,5213,5071,16.04,1.67,27,2,0,0
37179,7.3716e+07,1,5055,4914,15.91,1.78,27,2,0,0
37636,7.3821e+07,1,4912,4900,15.98,1.92,27,2,0,0
39893,7.4362e+07,1,4899,4642,15.98,1.4,27,2,0,0
40345,7.4472e+07,1,4643,4671,15.99,1.8,27,2,0,0
40840,7.4588e+07,1,4673,4700,15.87,1.93,27,2,0,0
41701,7.4801e+07,1,4703,4800,15.99,1.73,27,2,0,0
42146,7.4915e+07,1,4800,4800,15.89,2.13,27,2,0,0
42556,7.5014e+07,1,4801,4885,15.94,1.82,27,2,0,0
43042,7.5138e+07,1,4879,4828,15.94,1.87,27,2,0,0
43496,7.5246e+07,1,4830,4857,15.98,1.69,27,2,0,0
43901,7.5347e+07,1,4859,4914,15.97,1.86,27,2,0,0
44348,7.5455e+07,1,4916,4957,15.92,1.97,27,2,0,0
44791,7.5565e+07,1,4954,4928,15.94,1.96,27,2,0,0
45238,7.5678e+07,1,4937,5014,15.82,2.34,27,3,0,0
45690,7.5788e+07,1,5034,5242,15.88,2.37,27,3,0,0
46091,7.5891e+07,1,5251,5371,15.82,2.8,27,3,0,0
46540,7.5999e+07,1,5377,5528,15.84,2.9,27,3,0,0
46949,7.6104e+07,1,5527,5500,15.82,2.64,27,3,0,0
47882,7.6328e+07,1,5501,5528,15.9,2.4,27,3,0,0
48331,7.6434e+07,1,5512,5128,15.96,1.68,27,3,0,0
48775,7.6552e+07,1,5095,4885,16.07,1.69,27,3,0,0
49224,7.6656e+07,1,4859,4628,16.09,1.22,27,3,0,0
49664,7.6766e+07,1,4604,4400,16.08,1.28,27,3,0,0
50152,7.6886e+07,1,4373,4128,16.11,1.51,27,3,0,0
50561,7.6984e+07,1,4128,4200,16.1,2.06,27,3,0,0
51042,7.71e+07,1,4197,4171,16.09,1.87,27,3,0,0
51492,7.7214e+07,1,4188,4342,16.08,2.13,27,3,0,0
51934,7.7322e+07,1,4339,4314,16.08,1.96,27,4,0,0
52341,7.742e+07,1,4313,4300,16.08,1.57,27,4,0,0
52791,7.7531e+07,1,4297,4257,16.08,1.31,27,4,0,0
53240,7.764e+07,1,4265,4457,15.98,1.69,27,4,0,0
53691,7.7756e+07,1,4457,4457,16.13,1.38,27,4,0,0
54097,7.7857e+07,1,4456,4442,16.05,1.58,27,4,0,0
54578,7.7973e+07,1,4451,4557,16.01,1.66,27,4,0,0
55027,7.8086e+07,1,4569,4671,16.07,1.54,27,4,0,0
55439,7.8185e+07,1,4670,4614,16.06,1.51,28,4,0,0
55886,7.8299e+07,1,4603,4500,16.07,1.33,27,4,0,0
56333,7.8406e+07,1,4502,4571,16.07,1.51,27,4,0,0
56809,7.8516e+07,1,4566,4500,16.01,1.41,27,4,0,0
57220,7.8618e+07,1,4500,4500,16.03,1.45,27,4,0,0
57671,7.8733e+07,1,4497,4457,16.08,1.51,28,4,0,0
58121,7.8838e+07,1,4457,4471,15.95,1.53,28,4,0,0
58570,7.8952e+07,1,4479,4600,16,1.75,28,4,0,0
59460,7.9173e+07,1,4606,4742,15.83,1.8,28,4,0,0
59908,7.9284e+07,1,4738,4700,15.88,1.72,28,4,0,0
60360,7.9396e+07,1,4709,4814,15.85,1.95,27,4,0,0
60764,7.9499e+07,1,4820,4900,15.79,1.85,28,5,0,0
61211,7.9605e+07,1,4899,4857,15.85,1.82,28,5,0,0
61701,7.9723e+07,1,4868,4985,15.84,1.8,28,5,0,0
62149,7.9831e+07,1,4979,4928,15.85,1.91,28,5,0,0
62554,7.9934e+07,1,4925,4871,15.85,1.83,27,5,0,0
62999,8.0043e+07,1,4869,4814,15.89,1.73,28,5,0,0
63440,8.0151e+07,1,4806,4700,15.86,2.14,28,5,0,0
63889,8.0258e+07,1,4700,4714,15.87,1.61,27,5,0,0
64338,8.037e+07,1,4711,4685,15.88,2.18,27,5,0,0
64783,8.048e+07,1,4687,4742,15.89,1.68,28,5,0,0
65232,8.0589e+07,1,4752,4857,15.91,1.81,28,5,0,0
65680,8.0697e+07,1,4852,4785,15.88,1.79,28,5,0,0
66125,8.0803e+07,1,4780,4685,15.91,1.69,28,5,0,0
66576,8.0916e+07,1,4694,4814,15.89,1.8,28,5,0,0
66986,8.1019e+07,1,4812,4785,15.88,1.79,28,5,0,0
67430,8.1127e+07,1,4786,4814,15.92,2.03,28,5,0,0
67887,8.124e+07,1,4809,4742,15.91,1.91,28,5,0,0
68786,8.1468e+07,1,4755,5028,15.84,2.65,28,5,0,0
69225,8.1568e+07,1,5040,5314,15.97,2.5,28,6,0,0
69716,8.169e+07,1,5306,5228,15.93,1.92,28,6,0,0
70126,8.1792e+07,1,5219,4785,15.94,1.08,28,6,0,0
70576,8.1905e+07,1,4717,4071,15.98,0.66,28,6,0,0
71024,8.201e+07,1,4067,3814,15.8,2.73,28,6,0,0
71468,8.212e+07,1,3824,4100,15.86,2.41,28,6,0,0
71914,8.2226e+07,1,4100,4128,15.75,2.22,28,6,0,0
72400,8.2344e+07,1,4117,4000,15.81,1.89,28,6,0,0
72883,8.2458e+07,1,4017,4257,15.83,3.2,28,6,0,0
73270,8.2564e+07,1,4257,4257,15.84,2.84,28,6,0,0
73721,8.2678e+07,1,4281,4628,15.8,1.75,28,6,0,0
74128,8.278e+07,1,4602,4285,15.97,1.34,28,6,0,0
74575,8.2887e+07,1,4285,4357,15.98,1.17,28,6,0,0
75022,8.2995e+07,1,4350,4200,15.94,1.32,28,6,0,0
75475,8.3111e+07,1,4211,4328,15.98,1.78,28,6,0,0
75926,8.322e+07,1,4351,4585,15.93,1.65,28,6,0,0
76330,8.3323e+07,1,4587,4628,15.97,1.67,28,6,0,0
77222,8.3549e+07,1,4628,4642,15.89,1.87,28,7,0,0
77674,8.3653e+07,1,4648,4714,15.88,1.58,28,7,0,0
78118,8.376e+07,1,4716,4742,15.86,1.53,28,7,0,0
78529,8.3859e+07,1,4737,4528,15.91,1.32,28,7,0,0
78976,8.397e+07,1,4524,4442,15.85,1.43,28,7,0,0
79417,8.4078e+07,1,4439,4400,15.76,1.27,28,7,0,0
79908,8.4199e+07,1,4394,4342,15.9,1.38,28,7,0,0
80307,8.43e+07,1,4342,4357,15.85,1.35,28,7,0,0
80759,8.4405e+07,1,4355,4271,15.92,1.3,28,7,0,0
81241,8.4526e+07,1,4286,4500,15.86,2.04,28,7,0,0
81691,8.4635e+07,1,4509,4600,15.83,1.63,28,7,0,0
82101,8.474e+07,1,4587,4414,15.88,1.17,28,7,0,0
82549,8.4849e+07,1,4390,4185,15.95,0.83,28,7,0,0
82993,8.4959e+07,1,4190,4285,15.86,2.06,28,7,0,0
83445,8.5067e+07,1,4286,4300,15.94,1.49,28,7,0,0
83849,8.5172e+07,1,4292,3957,15.97,1.61,28,7,0,0
84752,8.5398e+07,1,3956,3914,15.89,2.02,28,7,0,0
85194,8.5508e+07,1,3934,4100,15.97,2.17,28,7,0,0
85643,8.5616e+07,1,4137,4542,15.88,2.21,28,8,0,0
86086,8.5726e+07,1,4563,4842,15.83,2.35,28,8,0,0
86498,8.5829e+07,1,4844,4871,15.82,1.94,28,8,0,0
86942,8.5939e+07,1,4885,5114,15.82,2.36,28,8,0,0
87393,8.6049e+07,1,5104,5014,15.86,1.53,28,8,0,0
87835,8.6155e+07,1,4998,4671,15.83,1.4,28,8,0,0
88772,8.6384e+07,1,4648,4157,15.92,1.35,28,8,0,0
89176,8.6488e+07,1,4156,4142,15.86,1.74,28,8,0,0
89627,8.6597e+07,1,4151,4271,15.92,1.41,28,8,0,0
90063,8.6701e+07,1,4255,3928,15.91,1.38,28,8,0,0
90509,8.6808e+07,1,3928,3928,15.89,2.81,28,8,0,0
90963,8.6923e+07,1,3965,4471,15.79,2.4,28,8,0,0
91412,8.7031e+07,1,4472,4500,15.87,1.36,28,8,0,0
91861,8.7144e+07,1,4495,4457,15.85,1.39,28,8,0,0
92268,8.7244e+07,1,4457,4471,15.88,1.55,28,8,0,0
92748,8.7355e+07,1,4481,4685,15.8,2.15,28,8,0,0
93199,8.7468e+07,1,4693,4828,15.77,1.89,28,8,0,0
93644,8.7576e+07,1,4828,4828,15.8,1.8,28,9,0,0
94092,8.7685e+07,1,4825,4771,15.75,1.71,28,9,0,0
94540,8.7793e+07,1,4771,4771,15.8,1.55,28,9,0,0
94986,8.7903e+07,1,4758,4585,15.83,1.34,28,9,0,0
95444,8.8015e+07,1,4572,4457,15.79,1.45,28,9,0,0
95882,8.8123e+07,1,4457,4457,15.85,1.31,28,9,0,0
96341,8.8237e+07,1,4448,4357,15.86,1.36,28,9,0,0
96744,8.8339e+07,1,4358,4442,15.85,1.56,28,9,0,0
97191,8.8447e+07,1,4440,4357,15.67,1.56,28,9,0,0
98082,8.8669e+07,1,4359,4414,15.86,1.48,28,9,0,0
98536,8.8783e+07,1,4416,4442,15.77,1.66,28,9,0,0
98980,8.8891e+07,1,4444,4471,15.89,1.29,28,9,0,0
99389,8.8993e+07,1,4457,4328,15.88,1.7,28,9,0,0
99868,8.9105e+07,1,4328,4328,15.92,1.22,28,9,0,0
1.0028e+05,8.9208e+07,1,4335,4514,15.89,1.84,28,9,0,0
1.0073e+05,8.932e+07,1,4515,4542,15.91,1.49,28,9,0,0
1.0118e+05,8.943e+07,1,4561,4742,15.94,1.7,28,9,0,0
1.0162e+05,8.9537e+07,1,4747,4828,15.87,1.85,28,9,0,0
1.0207e+05,8.9648e+07,1,4838,4971,15.86,2.07,28,9,0,0
1.0248e+05,8.975e+07,1,4972,5028,15.89,1.86,28,9,0,0
1.0297e+05,8.9869e+07,1,5029,5042,15.86,1.93,28,10,0,0
1.0341e+05,8.9972e+07,1,5037,4971,15.73,2.07,28,10,0,0
1.0386e+05,9.0085e+07,1,4976,5042,15.76,2.06,28,10,0,0
1.0427e+05,9.0185e+07,1,5043,5128,15.77,1.93,28,10,0,0
1.0471e+05,9.0293e+07,1,5125,4985,15.75,2.09,28,10,0,0
1.052e+05,9.0411e+07,1,4980,4914,15.76,1.66,28,10,0,0
1.0557e+05,9.0508e+07,1,4914,4928,15.66,1.97,28,10,0,0
1.0606e+05,9.0624e+07,1,4933,4985,15.76,1.84,28,10,0,0
1.065e+05,9.0734e+07,1,4981,4942,15.66,1.87,28,10,0,0
1.0695e+05,9.084e+07,1,4938,4900,15.8,1.74,28,10,0,0
1.0736e+05,9.0943e+07,1,4896,4685,15.81,1.33,28,10,0,0
1.0785e+05,9.1065e+07,1,4674,4600,15.87,1.21,28,10,0,0
1.0825e+05,9.1162e+07,1,4598,4500,15.89,1.56,28,10,0,0
1.0873e+05,9.1277e+07,1,4501,4542,15.83,1.76,28,10,0,0
1.0918e+05,9.1383e+07,1,4548,4928,15.83,1.93,28,10,0,0
1.0963e+05,9.1494e+07,1,4928,4957,15.79,2.09,28,10,0,0
1.1008e+05,9.1604e+07,1,4963,5071,15.85,2.06,28,10,0,0
1.1052e+05,9.1714e+07,1,5082,5214,15.82,2.22,28,10,0,0
1.1097e+05,9.1823e+07,1,5198,5014,15.77,1.78,28,11,0,0
1.1145e+05,9.1939e+07,1,5017,5057,15.79,1.85,28,11,0,0
1.1191e+05,9.2052e+07,1,5031,4842,15.74,1.72,28,11,0,0
1.1235e+05,9.2161e+07,1,4844,4871,15.79,1.7,28,11,0,0
1.1276e+05,9.226e+07,1,4873,4928,15.79,1.81,28,11,0,0
1.1369e+05,9.2487e+07,1,4910,4557,15.8,1.38,28,11,0,0
1.1409e+05,9.2586e+07,1,4556,4528,15.87,1.48,28,11,0,0
1.1458e+05,9.2699e+07,1,4533,4600,15.82,1.31,28,11,0,0
1.1502e+05,9.2809e+07,1,4603,4657,15.82,1.55,28,11,0,0
1.1547e+05,9.2922e+07,1,4667,4771,15.85,1.68,28,11,0,0
1.1592e+05,9.3027e+07,1,4788,5057,15.83,2,28,11,0,0
1.1636e+05,9.3136e+07,1,5059,5085,15.77,1.93,28,11,0,0
1.1682e+05,9.3246e+07,1,5079,5028,15.74,1.76,28,11,0,0
1.1721e+05,9.3346e+07,1,5028,5042,15.66,2.1,28,11,0,0
1.177e+05,9.3461e+07,1,5046,5142,15.76,1.92,28,11,0,0
1.1815e+05,9.3574e+07,1,5125,4957,15.75,1.77,28,11,0,0
1.1905e+05,9.379e+07,1,4962,5114,15.72,2.01,28,11,0,0
1.1945e+05,9.389e+07,1,5118,5271,15.67,2.49,28,12,0,0
1.199e+05,9.3999e+07,1,5264,5128,15.66,2.11,28,12,0,0
1.2034e+05,9.4109e+07,1,5125,5042,15.78,1.8,28,12,0,0
1.2168e+05,9.444e+07,1,5044,5214,15.74,2.39,28,12,0,0
1.2213e+05,9.4551e+07,1,5213,5200,15.76,1.92,28,12,0,0
1.2302e+05,9.4762e+07,1,5195,5028,15.71,2.01,28,12,0,0
1.2347e+05,9.4873e+07,1,5028,5042,15.72,1.98,28,12,0,0
1.2392e+05,9.4986e+07,1,5049,5142,15.73,2.12,28,12,0,0
1.2433e+05,9.5094e+07,1,5142,5142,15.72,2.15,28,12,0,0
1.2477e+05,9.5196e+07,1,5142,5142,15.7,2.12,28,12,0,0
1.2522e+05,9.5307e+07,1,5140,5100,15.7,2.11,28,12,0,0
1.2567e+05,9.5416e+07,1,5100,5100,15.75,1.98,28,12,0,0
1.2612e+05,9.5526e+07,1,5106,5200,15.72,2.39,28,12,0,0
1.2656e+05,9.5632e+07,1,5211,5442,15.77,2.13,28,13,0,0
1.2702e+05,9.5746e+07,1,5434,5242,15.66,2.47,28,13,0,0
1.2746e+05,9.5851e+07,1,5244,5300,15.7,2.33,28,13,0,0
1.2791e+05,9.5963e+07,1,5296,5257,15.76,1.82,28,13,0,0
1.2836e+05,9.6069e+07,1,5252,5085,15.71,2,28,13,0,0
1.2881e+05,9.6182e+07,1,5084,5071,15.69,1.87,28,13,0,0
1.2922e+05,9.6286e+07,1,5069,5014,15.74,1.84,28,13,0,0
1.2967e+05,9.6398e+07,1,5025,5128,15.67,2.1,28,13,0,0
1.3006e+05,9.6498e+07,1,5127,5100,15.71,2.11,28,13,0,0
1.3052e+05,9.6609e+07,1,5101,5157,15.67,2.14,28,13,0,0
1.3096e+05,9.6718e+07,1,5156,5142,15.75,2.05,28,13,0,0
1.3142e+05,9.6829e+07,1,5139,5100,15.67,2.08,28,13,0,0
1.3186e+05,9.6937e+07,1,5097,5057,15.63,1.82,28,13,0,0
1.3231e+05,9.7045e+07,1,5059,5100,15.65,2.18,28,13,0,0
1.3324e+05,9.7273e+07,1,5110,5271,15.64,2.32,28,13,0,0
1.3364e+05,9.7374e+07,1,5273,5300,15.65,2.35,28,14,0,0
1.3409e+05,9.7487e+07,1,5297,5271,15.63,2.09,28,14,0,0
1.345e+05,9.7588e+07,1,5265,5185,15.62,2.22,28,14,0,0
1.3491e+05,9.7693e+07,1,5184,5157,15.67,2.04,28,14,0,0
1.354e+05,9.7808e+07,1,5143,5028,15.7,1.82,28,14,0,0
1.3584e+05,9.7918e+07,1,5025,5000,15.79,1.74,28,14,0,0
1.3629e+05,9.8027e+07,1,4991,4900,15.62,1.95,28,14,0,0
1.367e+05,9.813e+07,1,4889,4757,15.77,1.45,28,14,0,0
1.3715e+05,9.8238e+07,1,4755,4742,15.75,1.63,28,14,0,0
1.376e+05,9.8352e+07,1,4735,4671,15.74,1.37,28,14,0,0
1.38e+05,9.8454e+07,1,4669,4600,15.65,1.4,28,14,0,0
1.3853e+05,9.8576e+07,1,4596,4542,15.69,1.43,28,14,0,0
1.3897e+05,9.8688e+07,1,4537,4500,15.62,1.74,28,14,0,0
1.3942e+05,9.8795e+07,1,4501,4514,15.67,1.54,28,14,0,0
1.3986e+05,9.89e+07,1,4517,4585,15.7,1.87,28,14,0,0
1.4031e+05,9.9008e+07,1,4590,4728,15.7,1.69,28,14,0,0
1.4076e+05,9.9128e+07,1,4738,4828,15.71,1.69,28,14,0,0
1.4117e+05,9.9224e+07,1,4831,4914,15.69,1.82,28,15,0,0
1.4162e+05,9.9339e+07,1,4910,4871,15.75,2.06,28,15,0,0
1.4206e+05,9.945e+07,1,4902,5100,15.66,2.05,28,15,0,0
1.4247e+05,9.9548e+07,1,5100,5142,15.71,2.48,28,15,0,0
1.4292e+05,9.9656e+07,1,5145,5357,15.72,2.5,28,15,0,0
1.4336e+05,9.9764e+07,1,5356,5342,15.73,2.55,28,15,0,0
1.4381e+05,9.9874e+07,1,5344,5485,15.7,2.51,28,15,0,0
1.4474e+05,1.001e+08,1,5482,5442,15.69,2.35,28,15,0,0
1.4515e+05,1.0021e+08,1,5424,5285,15.7,2.32,28,15,0,0
1.4563e+05,1.0032e+08,1,5282,5257,15.7,2.43,28,15,0,0
1.4604e+05,1.0043e+08,1,5251,5200,15.65,2.38,28,15,0,0
1.4649e+05,1.0053e+08,1,5203,5242,15.61,2.28,28,15,0,0
1.4694e+05,1.0065e+08,1,5240,5228,15.61,2.49,28,15,0,0
1.4779e+05,1.0086e+08,1,5229,5257,15.7,2.2,28,16,0,0
1.4821e+05,1.0096e+08,1,5254,5228,15.69,2.26,28,16,0,0
1.4866e+05,1.0107e+08,1,5229,5242,15.7,2.34,28,16,0,0
1.4906e+05,1.0117e+08,1,5238,5171,15.7,2.25,28,16,0,0
1.4954e+05,1.0129e+08,1,5156,5028,15.74,1.85,28,16,0,0
1.4998e+05,1.0139e+08,1,5045,5385,15.69,2.75,28,16,0,0
1.5084e+05,1.016e+08,1,5386,5585,15.67,2.99,28,16,0,0
1.5132e+05,1.0172e+08,1,5589,5685,15.76,2.73,28,16,0,0
1.5176e+05,1.0183e+08,1,5685,5700,15.75,2.78,28,16,0,0
1.5221e+05,1.0194e+08,1,5697,5671,15.67,2.68,28,16,0,0
1.5311e+05,1.0216e+08,1,5672,5728,15.74,2.53,28,16,0,0
1.5356e+05,1.0227e+08,1,5723,5685,15.68,2.73,28,16,0,0
1.544e+05,1.0248e+08,1,5683,5628,15.72,2.51,28,17,0,0
1.5486e+05,1.0259e+08,1,5626,5614,15.67,2.67,28,17,0,0
1.553e+05,1.027e+08,1,5601,5442,15.69,2.51,28,17,0,0
1.5575e+05,1.0281e+08,1,5433,5342,15.71,2.35,28,17,0,0
1.5619e+05,1.0292e+08,1,5339,5300,15.66,2.26,28,17,0,0
1.5705e+05,1.0313e+08,1,5294,5042,15.68,1.8,28,17,0,0
1.575e+05,1.0324e+08,1,5038,4871,15.66,1.88,28,17,0,0
1.5839e+05,1.0347e+08,1,4873,4928,15.69,1.83,28,17,0,0
1.588e+05,1.0358e+08,1,4929,4942,15.7,1.78,28,17,0,0
1.5925e+05,1.0369e+08,1,4938,4900,15.61,1.61,28,17,0,0
1.597e+05,1.038e+08,1,4902,4928,15.67,1.69,28,17,0,0
1.6054e+05,1.04e+08,1,4929,4971,15.65,1.93,28,18,0,0
1.6099e+05,1.0412e+08,1,4975,5028,15.62,2.15,28,18,0,0
1.6144e+05,1.0423e+08,1,5034,5128,15.62,2.33,28,18,0,0
1.6189e+05,1.0434e+08,1,5159,5500,15.7,2.53,28,18,0,0
1.6234e+05,1.0445e+08,1,5484,5328,15.53,2.55,28,18,0,0
1.6274e+05,1.0455e+08,1,5350,5628,15.61,3.14,28,18,0,0
1.6319e+05,1.0466e+08,1,5630,5657,15.55,3.12,28,18,0,0
1.6408e+05,1.0489e+08,1,5669,5942,15.56,3.27,28,18,0,0
1.6448e+05,1.0499e+08,1,5944,6042,15.57,3.41,28,18,0,0
1.6493e+05,1.051e+08,1,6007,5585,15.54,2.39,28,18,0,0
1.6538e+05,1.0521e+08,1,5579,5528,15.67,2.41,28,18,0,0
1.6582e+05,1.0532e+08,1,5513,5371,15.64,2.2,28,19,0,0
1.6627e+05,1.0543e+08,1,5366,5300,15.61,2.56,28,19,0,0
1.6672e+05,1.0554e+08,1,5293,5214,15.6,2.36,28,19,0,0
1.6717e+05,1.0565e+08,1,5227,5357,15.6,2.42,28,19,0,0
1.6757e+05,1.0575e+08,1,5352,5257,15.55,2.24,28,19,0,0
1.6806e+05,1.0588e+08,1,5239,5057,15.64,1.78,28,19,0,0
1.6847e+05,1.0598e+08,1,5045,4900,15.65,1.6,28,19,0,0
1.6888e+05,1.0608e+08,1,4894,4785,15.6,1.83,28,19,0,0
1.6937e+05,1.062e+08,1,4786,4800,15.64,1.81,28,19,0,0
1.6977e+05,1.0631e+08,1,4820,5071,15.66,2.13,28,19,0,0
1.7022e+05,1.0642e+08,1,5066,5000,15.62,2.23,28,19,0,0
1.7063e+05,1.0652e+08,1,5005,5142,15.64,2.27,28,19,0,0
1.7108e+05,1.0664e+08,1,5150,5242,15.51,2.54,28,19,0,0
1.7148e+05,1.0674e+08,1,5250,5428,15.63,2.66,28,19,0,0
1.7193e+05,1.0685e+08,1,5415,5228,15.66,2.14,28,19,0,0
1.7237e+05,1.0696e+08,1,5220,5114,15.58,2.05,28,19,0,0
1.7282e+05,1.0708e+08,1,5110,5085,15.64,2.04,28,20,0,0
1.7323e+05,1.0717e+08,1,5079,5000,15.64,1.92,28,20,0,0
1.7367e+05,1.0728e+08,1,4999,4985,15.69,1.7,28,20,0,0
1.7412e+05,1.0739e+08,1,4980,4771,15.71,1.39,28,20,0,0
1.7456e+05,1.075e+08,1,4758,4657,15.69,1.43,28,20,0,0
1.7501e+05,1.0761e+08,1,4654,4628,15.76,1.55,28,20,0,0
1.7541e+05,1.0771e+08,1,4623,4457,15.67,1.52,28,20,0,0
1.759e+05,1.0782e+08,1,4461,4528,15.56,1.97,28,20,0,0
1.7631e+05,1.0793e+08,1,4528,4542,15.7,1.57,28,20,0,0
1.7676e+05,1.0804e+08,1,4549,4714,15.73,1.86,28,20,0,0
1.772e+05,1.0814e+08,1,4714,4728,15.73,1.84,28,20,0,0
1.7765e+05,1.0825e+08,1,4726,4700,15.66,1.86,28,20,0,0
1.7809e+05,1.0837e+08,1,4718,4900,15.67,2.02,28,20,0,0
1.7853e+05,1.0847e+08,1,4898,4871,15.57,2.02,28,20,0,0
1.7898e+05,1.0858e+08,1,4885,5014,15.64,2.17,28,20,0,0
1.7938e+05,1.0869e+08,1,5019,5128,15.64,2.3,28,20,0,0
1.7987e+05,1.0881e+08,1,5128,5128,15.62,2.29,28,20,0,0
1.8028e+05,1.0891e+08,1,5137,5271,15.57,2.29,28,21,0,0
1.8073e+05,1.0902e+08,1,5271,5271,15.61,2.45,28,21,0,0
1.8121e+05,1.0914e+08,1,5269,5257,15.61,2.22,28,21,0,0
1.8165e+05,1.0924e+08,1,5249,5171,15.67,2.07,28,21,0,0
1.821e+05,1.0936e+08,1,5181,5257,15.65,2.06,28,21,0,0
1.825e+05,1.0945e+08,1,5248,5085,15.61,1.92,28,21,0,0
1.8295e+05,1.0956e+08,1,5083,4985,15.66,2.27,28,21,0,0
1.8343e+05,1.0968e+08,1,4986,5085,15.64,2.34,28,21,0,0
1.8388e+05,1.0979e+08,1,5094,5214,15.66,2.21,28,21,0,0
1.8429e+05,1.0989e+08,1,5211,5042,15.67,1.9,28,21,0,0
1.8474e+05,1.1e+08,1,5041,5028,15.63,2.01,28,21,0,0
1.8518e+05,1.1012e+08,1,5026,4985,15.69,2.15,28,21,0,0
1.8563e+05,1.1023e+08,1,4993,5157,15.68,2.35,28,21,0,0
1.8608e+05,1.1034e+08,1,5174,5342,15.64,2.45,28,21,0,0
1.8648e+05,1.1044e+08,1,5340,5314,15.62,2.39,28,21,0,0
1.8694e+05,1.1055e+08,1,5321,5400,15.7,2.55,28,22,0,0
1.8738e+05,1.1066e+08,1,5401,5428,15.63,2.35,28,22,0,0
1.8782e+05,1.1077e+08,1,5409,5228,15.72,2.11,28,22,0,0
1.8827e+05,1.1088e+08,1,5233,5285,15.63,2.27,28,22,0,0
1.8872e+05,1.1099e+08,1,5276,5185,15.67,2.34,28,22,0,0
1.8917e+05,1.111e+08,1,5197,5285,15.66,2.38,28,22,0,0
1.8957e+05,1.112e+08,1,5289,5328,15.61,2.56,28,22,0,0
1.9002e+05,1.1131e+08,1,5334,5400,15.66,2.26,28,22,0,0
1.9046e+05,1.1142e+08,1,5397,5371,15.64,2.42,28,22,0,0
1.9087e+05,1.1152e+08,1,5369,5300,15.71,2.39,28,22,0,0
1.9132e+05,1.1163e+08,1,5300,5342,15.7,2.5,28,22,0,0
1.9176e+05,1.1174e+08,1,5344,5400,15.67,2.39,28,22,0,0
1.922e+05,1.1185e+08,1,5398,5357,15.69,2.3,28,22,0,0
1.927e+05,1.1197e+08,1,5355,5328,15.67,2.16,28,22,0,0
1.9314e+05,1.1208e+08,1,5321,5242,15.66,1.87,28,22,0,0
1.9358e+05,1.1218e+08,1,5232,5042,15.7,1.66,28,23,0,0
1.9399e+05,1.1229e+08,1,5038,4800,15.67,1.66,28,23,0,0
1.9448e+05,1.124e+08,1,4796,4742,15.66,1.5,28,23,0,0
1.9492e+05,1.1251e+08,1,4716,4471,15.69,1.35,28,23,0,0
1.9537e+05,1.1262e+08,1,4463,4357,15.69,1.8,28,23,0,0
1.9577e+05,1.1272e+08,1,4353,4200,15.66,1.51,28,23,0,0
1.9626e+05,1.1284e+08,1,4202,4228,15.57,2.3,28,23,0,0
1.9667e+05,1.1294e+08,1,4223,4157,15.66,1.83,28,23,0,0
1.9712e+05,1.1306e+08,1,4153,4114,15.59,1.56,28,23,0,0
1.9752e+05,1.1316e+08,1,4114,4128,15.55,1.82,28,23,0,0
1.9797e+05,1.1327e+08,1,4130,4271,15.7,1.58,28,23,0,0
1.9841e+05,1.1338e+08,1,4274,4357,15.67,1.46,28,23,0,0
1.9887e+05,1.1349e+08,1,4356,4342,15.66,1.62,28,23,0,0
1.9931e+05,1.136e+08,1,4347,4471,15.7,1.54,28,23,0,0
1.9976e+05,1.1371e+08,1,4461,4357,15.7,1.14,28,23,0,0
2.0061e+05,1.1392e+08,1,4358,4571,15.64,1.54,28,23,0,0
2.0111e+05,1.1404e+08,1,4563,4485,15.65,1.45,28,23,0,0
2.0151e+05,1.1414e+08,1,4492,4671,15.6,1.8,28,23,0,0
2.0195e+05,1.1425e+08,1,4669,4657,15.65,1.7,28,23,0,0
2.0285e+05,1.1447e+08,1,4657,4671,15.62,1.75,28,24,0,0
2.0325e+05,1.1457e+08,1,4669,4614,15.57,1.68,28,24,0,0
2.037e+05,1.1468e+08,1,4598,4442,15.61,1.41,28,24,0,0
2.0415e+05,1.148e+08,1,4429,4242,15.61,1.49,28,24,0,0
2.0459e+05,1.1491e+08,1,4236,4171,15.59,1.62,28,24,0,0
2.0504e+05,1.1502e+08,1,4165,4057,15.63,1.91,28,24,0,0
2.0549e+05,1.1513e+08,1,4055,4042,15.44,3.14,28,24,0,0
2.0589e+05,1.1523e+08,1,4058,4357,15.6,2.38,28,24,0,0
2.0634e+05,1.1534e+08,1,4378,4600,15.66,1.68,28,24,0,0
2.068e+05,1.1545e+08,1,4588,4471,15.62,1.27,28,24,0,0
2.0809e+05,1.1578e+08,1,4470,4428,15.67,1.74,28,24,0,0
2.0853e+05,1.1588e+08,1,4427,4414,15.66,1.77,28,24,0,0
2.0898e+05,1.1599e+08,1,4424,4571,15.63,1.68,28,24,0,0
2.0939e+05,1.161e+08,1,4572,4628,15.47,1.98,28,24,0,0
2.0988e+05,1.1621e+08,1,4631,4671,15.6,1.74,28,24,0,0
2.1032e+05,1.1632e+08,1,4676,4757,15.63,1.69,28,24,0,0
2.1077e+05,1.1643e+08,1,4749,4642,15.57,1.48,28,25,0,0
2.1118e+05,1.1654e+08,1,4640,4585,15.66,1.61,28,25,0,0
2.1167e+05,1.1665e+08,1,4586,4600,15.61,1.55,28,25,0,0
2.1207e+05,1.1676e+08,1,4592,4485,15.62,1.46,28,25,0,0
2.1252e+05,1.1687e+08,1,4486,4500,15.6,1.69,28,25,0,0
2.1296e+05,1.1697e+08,1,4506,4571,15.65,1.5,28,25,0,0
2.1337e+05,1.1708e+08,1,4580,4657,15.57,1.79,28,25,0,0
2.1381e+05,1.1719e+08,1,4653,4614,15.65,1.51,28,25,0,0
2.1426e+05,1.173e+08,1,4603,4500,15.69,1.27,28,25,0,0
2.147e+05,1.174e+08,1,4502,4657,15.57,1.4,28,25,0,0
2.1511e+05,1.1751e+08,1,4657,4671,15.64,1.62,28,25,0,0
2.156e+05,1.1763e+08,1,4671,4671,15.63,1.57,28,25,0,0
2.1649e+05,1.1785e+08,1,4676,4785,15.6,1.53,28,25,0,0
2.1689e+05,1.1795e+08,1,4784,4771,15.61,1.49,28,25,0,0
2.1734e+05,1.1806e+08,1,4776,4842,15.52,1.94,28,25,0,0
2.1778e+05,1.1818e+08,1,4833,4757,15.6,1.84,28,25,0,0
2.1863e+05,1.1838e+08,1,4753,4585,15.64,1.41,28,25,0,0
2.1895e+05,1.1848e+08,1,4579,4471,15.64,1.24,28,25,0,0
2.1939e+05,1.1859e+08,1,4473,4514,15.69,1.48,28,25,0,0
2.1987e+05,1.1871e+08,1,4500,4428,15.66,1.75,28,26,0,0
2.2028e+05,1.1881e+08,1,4438,4585,15.66,1.56,28,26,0,0
2.2073e+05,1.1892e+08,1,4590,4642,15.61,1.59,28,26,0,0
2.2118e+05,1.1903e+08,1,4643,4657,15.6,1.49,28,26,0,0
2.2161e+05,1.1913e+08,1,4656,4642,15.55,1.47,28,26,0,0
2.225e+05,1.1935e+08,1,4643,4685,15.66,1.54,28,26,0,0
2.2295e+05,1.1947e+08,1,4680,4642,15.65,1.41,28,26,0,0
2.234e+05,1.1958e+08,1,4643,4657,15.66,1.53,28,26,0,0
2.2428e+05,1.1979e+08,1,4661,4742,15.63,1.5,28,26,0,0
2.2514e+05,1.2e+08,1,4739,4528,15.65,1.39,28,26,0,0
2.2603e+05,1.2023e+08,1,4530,4585,15.6,1.51,28,26,0,0
2.2644e+05,1.2033e+08,1,4583,4500,15.66,1.2,28,26,0,0
2.2688e+05,1.2044e+08,1,4497,4257,15.64,1.41,28,26,0,0
2.2733e+05,1.2055e+08,1,4270,4414,15.61,1.51,28,26,0,0
2.2863e+05,1.2087e+08,1,4415,4742,15.55,1.85,28,26,0,0
2.2908e+05,1.2099e+08,1,4758,4914,15.58,1.85,28,27,0,0
2.2949e+05,1.2109e+08,1,4912,4842,15.67,1.15,28,27,0,0
2.2997e+05,1.212e+08,1,4838,4757,15.67,1.49,28,27,0,0
2.3041e+05,1.2131e+08,1,4751,4528,15.66,1.52,28,27,0,0
2.3087e+05,1.2142e+08,1,4520,4371,15.7,1.37,28,27,0,0
2.3135e+05,1.2154e+08,1,4364,4300,15.73,1.33,28,27,0,0
2.3176e+05,1.2164e+08,1,4307,4385,15.68,1.62,28,27,0,0
2.3269e+05,1.2186e+08,1,4386,4428,15.73,1.39,28,27,0,0
2.3314e+05,1.2197e+08,1,4429,4442,15.7,1.55,28,27,0,0
2.3355e+05,1.2207e+08,1,4443,4514,15.67,1.63,28,27,0,0
2.3399e+05,1.2218e+08,1,4516,4642,15.69,1.55,28,27,0,0
2.3447e+05,1.223e+08,1,4631,4414,15.76,1.13,28,27,0,0
2.3493e+05,1.2241e+08,1,4414,4414,15.67,1.63,28,27,0,0
2.3537e+05,1.2252e+08,1,4416,4442,15.64,1.45,28,27,0,0
2.3582e+05,1.2263e+08,1,4433,4357,15.69,1.38,28,27,0,0
2.3626e+05,1.2274e+08,1,4365,4471,15.51,1.86,28,27,0,0
2.3756e+05,1.2306e+08,1,4476,4714,15.55,1.72,28,27,0,0
2.3801e+05,1.2317e+08,1,4717,4771,15.54,1.65,28,27,0,0
2.3845e+05,1.2328e+08,1,4785,4914,15.52,1.84,28,28,0,0
2.3886e+05,1.2338e+08,1,4914,4957,15.55,1.95,28,28,0,0
2.3931e+05,1.235e+08,1,4967,5114,15.6,2.05,28,28,0,0
2.3976e+05,1.2361e+08,1,5121,5228,15.55,2.47,28,28,0,0
2.402e+05,1.2372e+08,1,5243,5414,15.5,2.53,28,28,0,0
2.4066e+05,1.2383e+08,1,5432,5614,15.56,3.01,28,28,0,0
2.411e+05,1.2394e+08,1,5616,5642,15.52,2.57,28,28,0,0
2.4155e+05,1.2404e+08,1,5644,5700,15.51,3.09,28,28,0,0
2.42e+05,1.2416e+08,1,5701,5714,15.6,2.99,28,28,0,0
2.4244e+05,1.2426e+08,1,5704,5557,15.58,2.61,28,28,0,0
2.4288e+05,1.2437e+08,1,5562,5628,15.58,2.8,28,28,0,0
2.4334e+05,1.2448e+08,1,5625,5600,15.59,2.31,28,28,0,0
2.4418e+05,1.2469e+08,1,5590,5228,15.62,1.93,28,29,0,0
2.4504e+05,1.2491e+08,1,5226,4985,15.64,1.88,28,29,0,0
2.4553e+05,1.2502e+08,1,4986,5000,15.63,2.29,28,29,0,0
2.4593e+05,1.2512e+08,1,4997,4900,15.6,1.92,28,29,0,0
2.4637e+05,1.2523e+08,1,4898,4842,15.64,2.15,28,29,0,0
2.4686e+05,1.2535e+08,1,4872,5171,15.64,2.3,28,29,0,0
2.4727e+05,1.2545e+08,1,5170,5157,15.56,2.43,28,29,0,0
2.4771e+05,1.2556e+08,1,5168,5328,15.58,2.4,28,29,0,0
2.4816e+05,1.2567e+08,1,5330,5357,15.61,2.25,28,29,0,0
2.486e+05,1.2577e+08,1,5350,5200,15.59,2.3,28,29,0,0
2.4905e+05,1.2588e+08,1,5205,5328,15.63,2.38,28,29,0,0
2.495e+05,1.2599e+08,1,5327,5271,15.62,2.22,28,29,0,0
2.4994e+05,1.261e+08,1,5256,5128,15.48,2.28,28,29,0,0
2.5039e+05,1.2621e+08,1,5118,4985,15.62,1.63,28,29,0,0
2.5083e+05,1.2633e+08,1,4986,5000,15.67,1.88,28,30,0,0
2.5128e+05,1.2644e+08,1,5002,5028,15.56,1.87,28,30,0,0
2.5169e+05,1.2654e+08,1,5027,5014,15.58,1.88,28,30,0,0
2.5214e+05,1.2665e+08,1,5020,5114,15.53,2.08,28,30,0,0
2.5258e+05,1.2676e+08,1,5102,4985,15.62,1.72,28,30,0,0
2.5303e+05,1.2686e+08,1,4987,5028,15.57,1.96,28,30,0,0
2.5348e+05,1.2697e+08,1,5030,5071,15.59,2.03,28,30,0,0
2.5392e+05,1.2709e+08,1,5075,5114,15.59,1.89,28,30,0,0
2.5433e+05,1.2719e+08,1,5119,5171,15.57,2.27,28,30,0,0
2.5477e+05,1.273e+08,1,5181,5285,15.5,2.46,28,30,0,0
2.5522e+05,1.2741e+08,1,5294,5442,15.56,2.15,28,30,0,0
2.5562e+05,1.2751e+08,1,5430,5300,15.54,2.11,28,30,0,0
2.5607e+05,1.2762e+08,1,5300,5300,15.52,2.35,28,30,0,0
2.5651e+05,1.2773e+08,1,5287,5114,15.52,2,28,30,0,0
2.5692e+05,1.2783e+08,1,5114,5114,15.52,1.98,28,30,0,0
2.5744e+05,1.2795e+08,1,5108,5042,15.52,1.7,28,30,0,0
2.5786e+05,1.2805e+08,1,5035,4742,15.6,1.65,28,30,0,0
2.583e+05,1.2816e+08,1,4738,4642,15.52,1.56,28,31,0,0
2.5877e+05,1.2828e+08,1,4636,4571,15.5,1.75,28,31,0,0
2.5922e+05,1.2838e+08,1,4568,4542,15.52,1.51,28,31,0,0
2.5966e+05,1.285e+08,1,4534,4471,15.58,1.42,28,31,0,0
2.6007e+05,1.286e+08,1,4469,4385,15.61,1.04,28,31,0,0
2.6052e+05,1.2871e+08,1,4381,4300,15.6,1.53,28,31,0,0
2.6096e+05,1.2881e+08,1,4304,4385,15.63,1.7,28,31,0,0
2.6137e+05,1.2892e+08,1,4388,4528,15.61,1.83,28,31,0,0
2.6182e+05,1.2903e+08,1,4529,4600,15.68,1.47,28,31,0,0
2.6227e+05,1.2915e+08,1,4587,4471,15.63,1.82,28,31,0,0
2.6268e+05,1.2924e+08,1,4468,4314,15.72,1.49,28,31,0,0
2.6316e+05,1.2936e+08,1,4312,4300,15.8,1.43,28,31,0,0
2.6361e+05,1.2947e+08,1,4292,4114,15.66,1.65,28,31,0,0
2.6446e+05,1.2968e+08,1,4115,4300,15.77,2.35,28,31,0,0
2.649e+05,1.2979e+08,1,4300,4342,15.71,1.73,28,31,0,0
2.6539e+05,1.2991e+08,1,4342,4342,15.73,1.2,28,31,0,0
2.658e+05,1.3001e+08,1,4342,4342,15.62,1.46,28,31,0,0
2.6628e+05,1.3013e+08,1,4342,4342,15.67,1.77,28,31,0,0
2.6718e+05,1.3035e+08,1,4343,4385,15.67,1.2,28,32,0,0
2.6762e+05,1.3045e+08,1,4387,4414,15.67,1.45,28,32,0,0
2.6803e+05,1.3056e+08,1,4423,4528,15.66,1.72,28,32,0,0
2.6848e+05,1.3066e+08,1,4535,4742,15.66,1.86,28,32,0,0
2.6892e+05,1.3078e+08,1,4739,4628,15.62,1.46,28,32,0,0
2.6942e+05,1.309e+08,1,4629,4642,15.67,1.3,28,32,0,0
2.6982e+05,1.31e+08,1,4634,4571,15.63,1.38,28,32,0,0
2.7027e+05,1.3111e+08,1,4571,4571,15.67,1.7,28,32,0,0
2.7071e+05,1.3122e+08,1,4562,4457,15.59,1.46,28,32,0,0
2.7112e+05,1.3132e+08,1,4457,4457,15.66,1.42,28,32,0,0
2.7157e+05,1.3143e+08,1,4455,4428,15.61,1.7,28,32,0,0
2.7202e+05,1.3154e+08,1,4425,4357,15.57,1.62,28,32,0,0
2.7247e+05,1.3165e+08,1,4365,4485,15.6,1.74,28,32,0,0
2.7291e+05,1.3176e+08,1,4501,4685,15.63,1.62,28,32,0,0
2.7336e+05,1.3187e+08,1,4685,4685,15.67,1.48,28,32,0,0
2.7381e+05,1.3198e+08,1,4685,4685,15.64,1.56,28,32,0,0
2.7475e+05,1.3221e+08,1,4676,4500,15.6,1.86,28,32,0,0
2.7514e+05,1.3231e+08,1,4495,4400,15.57,1.36,28,32,0,0
2.756e+05,1.3242e+08,1,4413,4600,15.51,1.6,28,32,0,0
2.7604e+05,1.3253e+08,1,4616,4771,15.51,1.65,28,33,0,0
2.7648e+05,1.3264e+08,1,4787,4957,15.5,1.93,28,33,0,0
2.7692e+05,1.3274e+08,1,4960,5028,15.54,2.16,28,33,0,0
2.7737e+05,1.3285e+08,1,5022,4914,15.52,1.6,28,33,0,0
2.7782e+05,1.3296e+08,1,4905,4800,15.57,1.47,28,33,0,0
2.7827e+05,1.3308e+08,1,4780,4671,15.6,1.49,28,33,0,0
2.7863e+05,1.3317e+08,1,4669,4585,15.63,1.54,28,33,0,0
2.7908e+05,1.3328e+08,1,4582,4528,15.55,1.48,28,33,0,0
2.7952e+05,1.3339e+08,1,4531,4600,15.63,1.66,28,33,0,0
2.8042e+05,1.3361e+08,1,4592,4385,15.66,1.52,28,33,0,0
2.8082e+05,1.3372e+08,1,4384,4371,15.66,1.89,28,33,0,0
2.8127e+05,1.3382e+08,1,4380,4514,15.64,1.97,28,33,0,0
2.8168e+05,1.3393e+08,1,4512,4457,15.64,1.65,28,33,0,0
2.8221e+05,1.3405e+08,1,4454,4428,15.68,1.77,28,33,0,0
2.8261e+05,1.3415e+08,1,4427,4400,15.64,1.41,28,33,0,0
2.8306e+05,1.3426e+08,1,4398,4371,15.67,1.57,28,33,0,0
2.835e+05,1.3437e+08,1,4362,4242,15.6,1.27,28,33,0,0
2.8395e+05,1.3448e+08,1,4247,4314,15.63,2,28,33,0,0
2.8439e+05,1.3459e+08,1,4322,4414,15.61,1.5,28,33,0,0
2.8479e+05,1.3468e+08,1,4411,4328,15.6,1.39,28,33,0,0
2.8524e+05,1.3479e+08,1,4329,4357,15.61,1.47,28,34,0,0
2.8569e+05,1.3491e+08,1,4362,4414,15.63,1.78,28,34,0,0
2.8614e+05,1.3502e+08,1,4415,4442,15.63,1.72,28,34,0,0
2.8658e+05,1.3512e+08,1,4446,4514,15.62,2.01,28,34,0,0
2.8703e+05,1.3524e+08,1,4509,4471,15.57,1.63,28,34,0,0
2.8748e+05,1.3535e+08,1,4501,4814,15.57,1.8,28,34,0,0
2.8788e+05,1.3545e+08,1,4816,4971,15.55,1.88,28,34,0,0
2.8833e+05,1.3556e+08,1,4973,5014,15.51,2.12,28,34,0,0
2.8878e+05,1.3567e+08,1,5009,4957,15.57,1.71,28,34,0,0
2.8922e+05,1.3578e+08,1,4961,5028,15.44,2.22,28,34,0,0
2.9007e+05,1.3599e+08,1,5028,5028,15.41,2.14,28,34,0,0
2.9048e+05,1.361e+08,1,5026,4985,15.52,1.75,28,34,0,0
2.9097e+05,1.3622e+08,1,4978,4914,15.57,1.97,28,34,0,0
2.9138e+05,1.3632e+08,1,4914,4928,15.59,1.65,28,34,0,0
2.9183e+05,1.3643e+08,1,4912,4685,15.54,1.54,28,34,0,0
2.9224e+05,1.3653e+08,1,4683,4628,15.54,1.81,28,34,0,0
2.9272e+05,1.3664e+08,1,4631,4714,15.49,1.69,28,34,0,0
2.9316e+05,1.3675e+08,1,4711,4657,15.57,1.64,28,35,0,0
2.9361e+05,1.3687e+08,1,4648,4557,15.57,1.54,28,35,0,0
2.9405e+05,1.3698e+08,1,4565,4657,15.52,1.7,28,35,0,0
2.945e+05,1.3709e+08,1,4670,4800,15.61,1.64,28,35,0,0
2.9491e+05,1.3719e+08,1,4790,4614,15.55,1.53,28,35,0,0
2.958e+05,1.3741e+08,1,4603,4257,15.64,1.48,28,35,0,0
2.962e+05,1.3751e+08,1,4258,4400,15.63,1.94,28,35,0,0
2.9673e+05,1.3764e+08,1,4436,4600,15.61,1.83,28,35,0,0
2.9714e+05,1.3774e+08,1,4603,4642,15.54,2.05,28,35,0,0
2.9762e+05,1.3785e+08,1,4644,4685,15.52,1.65,28,35,0,0
2.9807e+05,1.3796e+08,1,4684,4671,15.6,1.52,28,35,0,0
2.9849e+05,1.3807e+08,1,4678,4757,15.61,1.73,28,35,0,0
2.9889e+05,1.3817e+08,1,4757,4785,15.63,1.94,28,35,0,0
2.9941e+05,1.3829e+08,1,4786,4828,15.6,1.57,28,35,0,0
2.9986e+05,1.384e+08,1,4823,4785,15.52,2,28,35,0,0
3.0026e+05,1.385e+08,1,4786,4842,15.58,1.81,28,35,0,0
3.0074e+05,1.3861e+08,1,4838,4800,15.61,1.94,28,35,0,0
3.0115e+05,1.3872e+08,1,4798,4728,15.61,1.8,28,35,0,0
3.016e+05,1.3883e+08,1,4728,4757,15.58,1.41,28,36,0,0
3.0209e+05,1.3895e+08,1,4763,4828,15.55,1.92,28,36,0,0
3.0294e+05,1.3916e+08,1,4828,4871,15.58,1.75,28,36,0,0
3.0339e+05,1.3927e+08,1,4870,4857,15.57,1.78,28,36,0,0
3.0383e+05,1.3937e+08,1,4860,4942,15.61,1.94,28,36,0,0
3.0428e+05,1.3949e+08,1,4936,4885,15.49,2.33,28,36,0,0
3.0473e+05,1.396e+08,1,4886,4900,15.61,1.97,28,36,0,0
3.0513e+05,1.397e+08,1,4898,4885,15.51,1.95,28,36,0,0
3.0558e+05,1.3981e+08,1,4879,4814,15.61,1.75,28,36,0,0
3.0602e+05,1.3992e+08,1,4817,4885,15.64,2.18,28,36,0,0
3.0651e+05,1.4003e+08,1,4866,4671,15.61,2.06,28,36,0,0
3.0692e+05,1.4014e+08,1,4670,4657,15.62,1.76,28,36,0,0
3.0737e+05,1.4025e+08,1,4656,4600,15.65,1.94,28,36,0,0
3.0781e+05,1.4036e+08,1,4616,4857,15.61,2.18,28,36,0,0
3.0826e+05,1.4047e+08,1,4858,4871,15.64,2.16,28,36,0,0
3.0866e+05,1.4057e+08,1,4871,4871,15.59,2.09,28,36,0,0
3.0915e+05,1.4069e+08,1,4867,4828,15.6,1.93,28,37,0,0
3.096e+05,1.408e+08,1,4843,5000,15.62,1.96,28,37,0,0
3.1004e+05,1.409e+08,1,4944,4414,16.16,0.69,28,37,0,0
3.1049e+05,1.4102e+08,1,4301,3171,15.84,1.84,28,37,0,0
3.1094e+05,1.4113e+08,1,3170,3157,16.08,1.12,28,37,0,0
3.1183e+05,1.4135e+08,1,3144,2885,16.01,0.59,28,37,0,0
3.1228e+05,1.4145e+08,1,2884,2871,16.16,0.26,28,37,0,0
3.1268e+05,1.4155e+08,1,2860,2642,16.01,0.54,28,37,0,0
3.1313e+05,1.4166e+08,1,2621,2342,16.14,0.19,28,37,0,0
3.1357e+05,1.4177e+08,1,2335,2242,16.14,0.28,28,37,0,0
3.1402e+05,1.4189e+08,1,2242,2242,16.14,0.2,28,37,0,0
3.1443e+05,1.4199e+08,1,2233,2028,16.14,0.17,28,37,0,0
3.1492e+05,1.421e+08,1,2029,2042,16.11,0.22,28,37,0,0
3.1577e+05,1.4232e+08,1,2040,2000,16.14,0.21,28,37,0,0
3.1621e+05,1.4242e+08,1,1998,1971,16.14,0.18,28,37,0,0
3.167e+05,1.4254e+08,1,1969,1957,16.16,0.19,28,37,0,0
3.1714e+05,1.4265e+08,1,1957,1957,16.16,0.17,28,37,0,0
3.1755e+05,1.4275e+08,1,1957,1971,16.13,0.21,28,37,0,0
3.1804e+05,1.4286e+08,1,1971,1971,16.15,0.19,28,37,0,0
3.1848e+05,1.4297e+08,1,1969,1942,16.15,0.2,28,37,0,0
3.1893e+05,1.4308e+08,1,1943,1971,16.17,0.19,28,37,0,0
3.1937e+05,1.4318e+08,1,1970,1957,16.15,0.2,28,37,0,0
3.203e+05,1.434e+08,1,1949,1785,16.25,0.06,28,37,0,0
3.2071e+05,1.4351e+08,1,1779,1442,16.24,0.01,28,37,0,0
3.212e+05,1.4362e+08,1,1433,1342,16.23,0.09,28,37,0,0
3.2164e+05,1.4373e+08,1,1339,1314,16.23,0.1,28,37,0,0
3.2209e+05,1.4384e+08,1,1314,1314,16.23,0.1,28,37,0,0
3.2254e+05,1.4395e+08,1,1314,1314,16.23,0.1,28,37,0,0
3.2339e+05,1.4416e+08,1,1314,1314,16.23,0.1,28,37,0,0
3.2384e+05,1.4426e+08,1,1314,1314,16.24,0.1,28,37,0,0
3.2477e+05,1.4448e+08,1,1314,1314,16.25,0.11,28,37,0,0
3.2518e+05,1.4459e+08,1,1314,1314,16.25,0.11,28,37,0,0
3.2558e+05,1.4469e+08,1,1314,1314,16.25,0.1,28,37,0,0
3.2606e+05,1.448e+08,1,1314,1314,16.25,0.11,28,37,0,0
3.2651e+05,1.4491e+08,1,1314,1314,16.26,0.11,28,37,0,0
3.2696e+05,1.4501e+08,1,1314,1314,16.26,0.11,28,37,0,0
3.274e+05,1.4512e+08,1,1314,1314,16.26,0.11,28,37,0,0
3.2789e+05,1.4523e+08,1,1314,1314,16.26,0.11,28,37,0,0
3.283e+05,1.4533e+08,1,1314,1314,16.26,0.11,28,37,0,0
3.2879e+05,1.4545e+08,1,1314,1314,16.26,0.11,28,37,0,0
3.2923e+05,1.4555e+08,1,1314,1328,16.27,0.11,28,37,0,0
3.2968e+05,1.4566e+08,1,1327,1314,16.27,0.11,28,37,0,0
3.3013e+05,1.4578e+08,1,1314,1328,16.27,0.11,28,37,0,0
3.3054e+05,1.4588e+08,1,1327,1314,16.28,0.11,28,37,0,0
3.3102e+05,1.4599e+08,1,1314,1328,16.28,0.11,28,37,0,0
3.3148e+05,1.461e+08,1,1328,1328,16.28,0.11,28,37,0,0
3.3192e+05,1.462e+08,1,1328,1328,16.28,0.11,28,37,0,0
3.3241e+05,1.4632e+08,1,1326,1314,16.28,0.11,28,37,0,0
3.3285e+05,1.4642e+08,1,1314,1328,16.27,0.11,28,37,0,0
3.333e+05,1.4653e+08,1,1327,1314,16.29,0.11,28,37,0,0
3.3379e+05,1.4665e+08,1,1314,1314,16.29,0.11,28,37,0,0
3.3424e+05,1.4676e+08,1,1314,1314,16.29,0.11,28,37,0,0
3.3468e+05,1.4686e+08,1,1314,1314,16.29,0.11,28,37,0,0
3.3513e+05,1.4697e+08,1,1314,1314,16.29,0.11,28,37,0,0
3.3565e+05,1.4709e+08,1,1314,1314,16.29,0.11,28,37,0,0
3.3606e+05,1.4719e+08,1,1314,1314,16.29,0.11,28,37,0,0
3.365e+05,1.473e+08,1,1314,1314,16.29,0.11,28,37,0,0
3.3699e+05,1.4742e+08,1,1314,1314,16.3,0.11,28,37,0,0
3.3739e+05,1.4751e+08,1,1314,1314,16.3,0.11,28,37,0,0
3.3789e+05,1.4763e+08,1,1314,1314,16.3,0.11,28,37,0,0
3.3829e+05,1.4773e+08,1,1314,1314,16.3,0.11,28,37,0,0
3.3878e+05,1.4784e+08,1,1314,1314,16.3,0.11,28,37,0,0
3.3922e+05,1.4795e+08,1,1314,1314,16.31,0.11,28,37,0,0
3.3967e+05,1.4806e+08,1,1314,1314,16.31,0.11,28,37,0,0
3.4005e+05,1.4816e+08,1,1314,1314,16.32,0.11,28,37,0,0
3.4054e+05,1.4827e+08,1,1314,1314,16.31,0.11,28,37,0,0
3.4098e+05,1.4838e+08,1,1314,1314,16.31,0.11,28,37,0,0
3.4143e+05,1.4849e+08,1,1314,1314,16.32,0.11,28,37,0,0
3.4188e+05,1.486e+08,1,1314,1314,16.32,0.11,28,37,0,0
3.4233e+05,1.4871e+08,1,1314,1314,16.31,0.11,28,37,0,0
3.4274e+05,1.4881e+08,1,1314,1328,16.32,0.11,28,37,0,0
3.4318e+05,1.4892e+08,1,1328,1328,16.32,0.11,28,37,0,0
3.4363e+05,1.4903e+08,1,1327,1314,16.32,0.11,28,37,0,0
3.4408e+05,1.4913e+08,1,1314,1314,16.32,0.11,28,37,0,0
3.4453e+05,1.4924e+08,1,1314,1314,16.32,0.11,28,37,0,0
3.4501e+05,1.4935e+08,1,1315,1328,16.33,0.11,28,37,0,0
3.4546e+05,1.4946e+08,1,1328,1328,16.33,0.11,28,37,0,0
3.4591e+05,1.4957e+08,1,1328,1328,16.33,0.11,28,37,0,0
3.4631e+05,1.4967e+08,1,1328,1328,16.33,0.11,28,37,0,0
3.4679e+05,1.4978e+08,1,1327,1314,16.33,0.11,28,37,0,0
3.4725e+05,1.4989e+08,1,1314,1328,16.33,0.11,28,37,0,0
3.4769e+05,1.5e+08,1,1328,1328,16.33,0.11,28,37,0,0
3.4814e+05,1.5011e+08,1,1328,1328,16.33,0.11,28,37,0,0
3.4863e+05,1.5022e+08,1,1328,1328,16.34,0.11,28,37,0,0
3.4904e+05,1.5033e+08,1,1328,1328,16.33,0.11,28,37,0,0
3.4949e+05,1.5044e+08,1,1328,1328,16.35,0.11,28,37,0,0
3.4994e+05,1.5055e+08,1,1328,1328,16.33,0.11,28,37,0,0
3.5039e+05,1.5065e+08,1,1328,1328,16.34,0.11,28,37,0,0
3.5083e+05,1.5076e+08,1,1327,1314,16.34,0.11,28,37,0,0
3.5129e+05,1.5087e+08,1,1315,1328,16.34,0.11,28,37,0,0
3.5169e+05,1.5097e+08,1,1328,1328,16.35,0.11,28,37,0,0
3.5217e+05,1.5108e+08,1,1328,1328,16.35,0.11,28,37,0,0
3.5262e+05,1.5118e+08,1,1328,1328,16.35,0.11,28,37,0,0
3.5306e+05,1.513e+08,1,1328,1328,16.35,0.11,28,37,0,0
3.5351e+05,1.5141e+08,1,1328,1328,16.35,0.11,28,37,0,0
3.5395e+05,1.5151e+08,1,1328,1328,16.35,0.11,28,37,0,0
3.544e+05,1.5162e+08,1,1328,1328,16.35,0.11,28,37,0,0
3.5485e+05,1.5173e+08,1,1328,1328,16.35,0.11,28,37,0,0
3.553e+05,1.5184e+08,1,1328,1328,16.35,0.11,28,37,0,0
3.557e+05,1.5194e+08,1,1328,1328,16.36,0.11,28,37,0,0
3.5615e+05,1.5204e+08,1,1328,1328,16.36,0.11,28,37,0,0
3.5663e+05,1.5216e+08,1,1328,1328,16.36,0.11,28,37,0,0
3.5708e+05,1.5227e+08,1,1328,1328,16.35,0.11,28,37,0,0
3.5752e+05,1.5238e+08,1,1328,1328,16.35,0.11,28,37,0,0
3.5797e+05,1.5248e+08,1,1328,1328,16.36,0.11,28,37,0,0
3.5842e+05,1.5259e+08,1,1328,1328,16.36,0.11,28,37,0,0
3.5886e+05,1.527e+08,1,1327,1314,16.36,0.11,28,37,0,0
3.5936e+05,1.5282e+08,1,1314,1314,16.36,0.11,28,37,0,0
3.598e+05,1.5292e+08,1,1314,1314,16.36,0.11,28,37,0,0
3.6025e+05,1.5303e+08,1,1314,1328,16.36,0.11,28,37,0,0
3.607e+05,1.5314e+08,1,1328,1328,16.37,0.11,28,37,0,0
3.611e+05,1.5324e+08,1,1328,1328,16.36,0.11,28,37,0,0
3.6158e+05,1.5335e+08,1,1328,1328,16.36,0.1,28,37,0,0
3.6206e+05,1.5347e+08,1,1213,328,16.39,0,28,37,0,0
3.6246e+05,1.5356e+08,1,315,0,16.39,0.01,28,37,0,0
3.6296e+05,1.5368e+08,1,0,0,16.39,0.04,28,37,0,0
3.6341e+05,1.5378e+08,1,0,0,16.39,0.04,28,37,0,0
3.6386e+05,1.5389e+08,1,0,0,16.39,0.04,28,37,0,0
3.6436e+05,1.5401e+08,1,0,0,16.39,0.04,28,37,0,0
3.6481e+05,1.5411e+08,1,0,0,16.39,0.04,28,37,0,0
3.6571e+05,1.5433e+08,1,0,0,16.39,0.04,28,37,0,0
3.662e+05,1.5444e+08,1,0,0,16.4,0.04,28,37,0,0
3.6665e+05,1.5455e+08,1,0,0,16.4,0.04,27,37,0,0
3.6708e+05,1.5466e+08,1,0,0,16.4,0.04,28,37,0,0
3.6753e+05,1.5477e+08,1,0,0,16.4,0.04,28,37,0,0
3.6802e+05,1.5488e+08,1,0,0,16.4,0.04,27,37,0,0
3.6848e+05,1.5499e+08,1,0,0,16.4,0.04,27,37,0,0
3.6937e+05,1.552e+08,1,0,0,16.4,0.04,28,37,0,0
3.6987e+05,1.5532e+08,1,0,0,16.4,0.04,27,37,0,0
3.7032e+05,1.5542e+08,1,0,0,16.41,0.04,27,37,0,0
3.7077e+05,1.5553e+08,1,0,0,16.41,0.04,27,37,0,0
3.7123e+05,1.5564e+08,1,0,0,16.41,0.04,28,37,0,0
3.7168e+05,1.5575e+08,1,0,0,16.41,0.04,27,37,0,0
3.7214e+05,1.5586e+08,1,0,0,16.41,0.04,27,37,0,0
3.7255e+05,1.5596e+08,1,0,0,16.41,0.04,27,37,0,0
3.7304e+05,1.5608e+08,1,0,0,16.41,0.04,27,37,0,0
3.7349e+05,1.5618e+08,1,0,0,16.41,0.04,27,37,0,0
3.7443e+05,1.564e+08,1,0,0,16.41,0.04,27,37,0,0
3.7488e+05,1.5651e+08,1,0,0,16.41,0.04,27,37,0,0
3.7538e+05,1.5662e+08,1,0,0,16.42,0.04,27,37,0,0
3.7583e+05,1.5673e+08,1,0,0,16.41,0.04,27,37,0,0
3.7628e+05,1.5684e+08,1,0,0,16.41,0.04,27,37,0,0
3.7674e+05,1.5695e+08,1,0,0,16.42,0.04,27,37,0,0
3.7719e+05,1.5705e+08,1,0,0,16.41,0.04,27,37,0,0
