LineNo,TimeUS,Instance,RPM,RawRPM,Volt,Curr,Temp,CTot,MotTemp,Err
1967,6.543e+07,4,0,0,16.59,0.03,28,0,0,0
2420,6.554e+07,4,0,0,16.59,0.03,28,0,0,0
2876,6.5644e+07,4,0,0,16.59,0.03,28,0,0,0
3336,6.5756e+07,4,0,0,16.59,0.03,28,0,0,0
4242,6.5963e+07,4,0,0,16.59,0.03,28,0,0,0
4737,6.6076e+07,4,0,0,16.6,0.03,28,0,0,0
5188,6.6182e+07,4,0,0,16.6,0.03,28,0,0,0
5639,6.6288e+07,4,0,0,16.6,0.03,27,0,0,0
6140,6.6403e+07,4,0,0,16.6,0.03,28,0,0,0
6550,6.6501e+07,4,0,0,16.6,0.03,28,0,0,0
7049,6.6614e+07,4,0,0,16.6,0.03,28,0,0,0
7493,6.6714e+07,4,0,0,16.6,0.03,28,0,0,0
7990,6.6827e+07,4,11,185,16.58,0.03,28,0,0,0
8448,6.6936e+07,4,200,542,16.57,0.08,28,0,0,0
8942,6.7044e+07,4,569,957,16.57,0.14,28,0,0,0
9400,6.7155e+07,4,974,1242,16.57,0.12,28,0,0,0
9856,6.726e+07,4,1245,1314,16.57,0.11,28,0,0,0
10351,6.7373e+07,4,1316,1342,16.58,0.11,28,0,0,0
10802,6.748e+07,4,1343,1357,16.57,0.1,28,0,0,0
11254,6.7584e+07,4,1357,1357,16.58,0.1,28,0,0,0
11668,6.7684e+07,4,1357,1357,16.58,0.1,28,0,0,0
12164,6.7798e+07,4,1357,1357,16.58,0.1,28,0,0,0
12650,6.7906e+07,4,1357,1357,16.57,0.1,28,0,0,0
13106,6.801e+07,4,1357,1357,16.58,0.1,28,0,0,0
13852,6.8232e+07,4,1357,1357,16.57,0.11,28,0,0,0
14342,6.8342e+07,4,1357,1357,16.57,0.11,28,0,0,0
14795,6.8444e+07,4,1357,1371,16.58,0.11,28,0,0,0
15252,6.8554e+07,4,1370,1357,16.57,0.1,28,0,0,0
15707,6.8663e+07,4,1358,1371,16.57,0.1,28,0,0,0
16163,6.8767e+07,4,1370,1357,16.57,0.1,28,0,0,0
16661,6.8883e+07,4,1357,1357,16.58,0.11,28,0,0,0
17115,6.8987e+07,4,1357,1357,16.57,0.1,28,0,0,0
17570,6.9096e+07,4,1357,1357,16.57,0.11,28,0,0,0
18023,6.9198e+07,4,1357,1357,16.58,0.11,28,0,0,0
18477,6.9304e+07,4,1357,1357,16.57,0.11,28,0,0,0
18975,6.942e+07,4,1357,1357,16.57,0.11,28,0,0,0
19427,6.9527e+07,4,1357,1357,16.58,0.11,28,0,0,0
20332,6.9736e+07,4,1357,1357,16.57,0.11,28,0,0,0
20836,6.9848e+07,4,1357,1357,16.57,0.1,28,0,0,0
21291,6.9958e+07,4,1357,1357,16.57,0.1,28,0,0,0
21748,7.0063e+07,4,1357,1357,16.57,0.1,28,0,0,0
22200,7.0171e+07,4,1357,1371,16.57,0.1,28,0,0,0
23146,7.0386e+07,4,1370,1357,16.57,0.1,28,0,0,0
23601,7.0495e+07,4,1357,1357,16.58,0.11,28,0,0,0
24097,7.0606e+07,4,1357,1357,16.57,0.11,28,0,0,0
24554,7.0718e+07,4,1357,1357,16.58,0.1,28,0,0,0
24984,7.0823e+07,4,1357,1357,16.57,0.11,28,0,0,0
25428,7.0927e+07,4,1357,1357,16.57,0.11,28,0,0,0
25925,7.1038e+07,4,1357,1357,16.57,0.11,28,0,0,0
26378,7.1145e+07,4,1358,1385,16.55,0.14,28,0,0,0
26831,7.1248e+07,4,1390,1714,16.5,0.27,28,0,0,0
27276,7.1359e+07,4,1761,2400,16.28,0.94,28,0,0,0
28219,7.158e+07,4,2453,3657,16.23,1.74,28,0,0,0
28668,7.1691e+07,4,3768,4614,15.88,3.65,28,0,0,0
29124,7.1796e+07,4,4670,5242,15.73,4.26,28,0,0,0
29579,7.1905e+07,4,5280,5728,15.88,3.55,28,0,0,0
30080,7.202e+07,4,5724,5685,15.92,3.01,28,0,0,0
30487,7.2118e+07,4,5684,5642,15.95,2.55,28,1,0,0
30977,7.2227e+07,4,5636,5528,15.91,2.48,28,1,0,0
31433,7.2338e+07,4,5521,5385,15.89,2.1,28,1,0,0
31933,7.2457e+07,4,5379,5328,15.96,2.29,28,1,0,0
32380,7.2565e+07,4,5321,5242,15.94,2.2,28,1,0,0
32837,7.2669e+07,4,5247,5385,15.82,2.76,28,1,0,0
33284,7.2777e+07,4,5385,5385,15.7,2.65,28,1,0,0
33737,7.2888e+07,4,5385,5385,15.94,2.6,28,1,0,0
34195,7.2998e+07,4,5386,5414,15.82,2.5,28,1,0,0
34696,7.3123e+07,4,5417,5457,15.88,2.74,28,1,0,0
35106,7.322e+07,4,5448,5342,15.83,2.39,28,1,0,0
36009,7.3435e+07,4,5344,5542,15.73,2.84,28,1,0,0
36501,7.3552e+07,4,5549,5628,15.84,2.71,28,2,0,0
36952,7.3659e+07,4,5615,5485,15.84,2.68,28,2,0,0
37408,7.3769e+07,4,5479,5428,15.79,2.49,28,2,0,0
37860,7.3878e+07,4,5431,5471,15.75,2.8,28,2,0,0
38310,7.3984e+07,4,5471,5471,15.79,2.7,28,2,0,0
39211,7.42e+07,4,5469,5314,15.76,2.42,28,2,0,0
39664,7.431e+07,4,5315,5385,15.72,2.68,28,2,0,0
40161,7.4426e+07,4,5393,5485,15.77,2.39,28,2,0,0
40613,7.4537e+07,4,5460,5228,15.75,2.36,28,2,0,0
41024,7.4634e+07,4,5233,5357,15.72,2.97,28,2,0,0
41467,7.4746e+07,4,5369,5542,15.73,2.65,28,2,0,0
41920,7.4856e+07,4,5534,5428,15.6,2.6,28,3,0,0
42328,7.4963e+07,4,5425,5285,15.74,2.29,28,3,0,0
42814,7.5081e+07,4,5283,5257,15.74,2.53,28,3,0,0
43222,7.5183e+07,4,5255,5228,15.72,2.34,29,3,0,0
43667,7.5291e+07,4,5239,5385,15.8,2.53,29,3,0,0
44121,7.5403e+07,4,5391,5457,15.71,2.67,29,3,0,0
44560,7.551e+07,4,5460,5514,15.73,2.7,28,3,0,0
45011,7.5622e+07,4,5517,5571,15.76,2.9,29,3,0,0
45416,7.5725e+07,4,5569,5528,15.63,2.85,29,3,0,0
45867,7.5835e+07,4,5530,5571,15.73,2.98,29,3,0,0
46313,7.5947e+07,4,5571,5585,15.67,2.5,29,3,0,0
46763,7.6056e+07,4,5591,5685,15.59,2.9,29,3,0,0
47211,7.6168e+07,4,5689,5742,15.63,3,29,4,0,0
47654,7.6275e+07,4,5730,5614,15.64,2.83,29,4,0,0
48101,7.6382e+07,4,5617,5700,15.73,2.96,29,4,0,0
48543,7.649e+07,4,5700,5714,15.77,2.77,29,4,0,0
48998,7.6604e+07,4,5700,5557,15.86,2.36,29,4,0,0
49439,7.6711e+07,4,5534,5314,15.91,2.13,29,4,0,0
49889,7.6819e+07,4,5298,5057,15.93,2.03,29,4,0,0
50332,7.6927e+07,4,5036,4728,15.91,2.11,29,4,0,0
50790,7.7041e+07,4,4731,4771,15.94,2.52,29,4,0,0
51220,7.7144e+07,4,4772,4814,15.91,2.15,29,4,0,0
52113,7.7365e+07,4,4815,4871,15.91,2.12,29,4,0,0
52614,7.7485e+07,4,4883,5057,15.73,2.59,29,4,0,0
53019,7.7587e+07,4,5057,5071,15.77,2.24,29,4,0,0
53917,7.7809e+07,4,5066,4928,15.7,1.97,29,5,0,0
54357,7.7915e+07,4,4929,4971,15.88,1.89,29,5,0,0
54811,7.8027e+07,4,4978,5057,15.8,2.5,29,5,0,0
55216,7.8129e+07,4,5061,5157,15.85,2.13,29,5,0,0
55670,7.8242e+07,4,5155,5114,15.81,2.18,29,5,0,0
56113,7.835e+07,4,5114,5128,15.83,2.13,29,5,0,0
56596,7.8462e+07,4,5129,5142,15.73,2.42,29,5,0,0
57450,7.8674e+07,4,5145,5242,15.86,2.49,29,5,0,0
57900,7.8784e+07,4,5228,5085,15.87,2.1,29,5,0,0
58347,7.8894e+07,4,5098,5285,15.8,2.57,29,5,0,0
58798,7.9006e+07,4,5297,5471,15.75,2.63,29,5,0,0
59238,7.9115e+07,4,5466,5371,15.74,2.49,29,5,0,0
59693,7.9228e+07,4,5376,5428,15.68,2.71,29,6,0,0
60140,7.9338e+07,4,5442,5585,15.67,2.9,29,6,0,0
60589,7.9448e+07,4,5596,5771,15.65,3.14,29,6,0,0
60993,7.955e+07,4,5769,5671,15.66,3.08,29,6,0,0
61483,7.9668e+07,4,5682,5785,15.58,3.08,29,6,0,0
61929,7.9776e+07,4,5768,5600,15.61,2.17,29,6,0,0
62334,7.9878e+07,4,5604,5857,15.66,3.93,29,6,0,0
62783,7.9988e+07,4,5858,5885,15.67,3.2,29,6,0,0
63224,8.0096e+07,4,5884,5871,15.66,3.17,29,6,0,0
63712,8.0215e+07,4,5854,5714,15.6,3.11,29,6,0,0
64119,8.0316e+07,4,5701,5585,15.7,2.67,29,6,0,0
64565,8.0422e+07,4,5589,5657,15.66,2.67,29,7,0,0
65011,8.0533e+07,4,5655,5614,15.64,2.6,29,7,0,0
65492,8.0649e+07,4,5607,5557,15.63,2.79,29,7,0,0
65907,8.0749e+07,4,5559,5600,15.68,2.63,29,7,0,0
66355,8.0862e+07,4,5594,5542,15.74,2.47,29,7,0,0
66807,8.0975e+07,4,5538,5500,15.61,2.81,29,7,0,0
67254,8.1081e+07,4,5496,5471,15.72,2.47,29,7,0,0
67702,8.1195e+07,4,5460,5371,15.73,2.21,29,7,0,0
68107,8.1299e+07,4,5363,5285,15.68,2.41,29,7,0,0
68514,8.14e+07,4,5286,5385,15.64,3.15,30,7,0,0
69000,8.1515e+07,4,5424,5928,15.64,4.23,29,7,0,0
69490,8.1635e+07,4,5957,6285,15.74,3.69,29,7,0,0
69940,8.1749e+07,4,6231,5842,15.69,2.73,29,8,0,0
70384,8.1852e+07,4,5798,5428,15.7,2.39,29,8,0,0
70798,8.1957e+07,4,5408,5128,15.75,2.02,29,8,0,0
71240,8.2069e+07,4,5118,4900,15.72,2.4,29,8,0,0
71684,8.2176e+07,4,4886,4571,15.44,2.55,30,8,0,0
72131,8.2282e+07,4,4575,4928,15.6,3.35,30,8,0,0
72612,8.2394e+07,4,4935,5085,15.66,2.46,29,8,0,0
73446,8.2611e+07,4,4963,5228,15.55,3.21,30,8,0,0
73901,8.2726e+07,4,5252,5600,15.65,3.52,29,8,0,0
74348,8.2834e+07,4,5586,5400,15.78,2.08,30,8,0,0
74795,8.2944e+07,4,5392,5285,15.72,2.33,30,8,0,0
75245,8.3052e+07,4,5292,5400,15.81,2.68,30,9,0,0
75652,8.3158e+07,4,5401,5442,15.76,2.66,30,9,0,0
76105,8.327e+07,4,5443,5485,15.65,2.86,30,9,0,0
76549,8.3377e+07,4,5485,5500,15.74,2.71,30,9,0,0
76957,8.3481e+07,4,5500,5542,15.67,2.88,30,9,0,0
77402,8.3591e+07,4,5543,5628,15.7,2.61,30,9,0,0
77889,8.3709e+07,4,5622,5571,15.72,2.77,30,9,0,0
78339,8.3817e+07,4,5556,5414,15.78,2.61,30,9,0,0
78748,8.3917e+07,4,5416,5485,15.63,2.7,30,9,0,0
79639,8.4135e+07,4,5476,5242,15.62,2.45,30,9,0,0
80090,8.4244e+07,4,5246,5300,15.67,2.6,30,9,0,0
80532,8.4352e+07,4,5307,5414,15.61,2.46,30,10,0,0
80982,8.4462e+07,4,5404,5271,15.71,2.65,30,10,0,0
81421,8.4567e+07,4,5272,5328,15.57,2.97,30,10,0,0
82329,8.4796e+07,4,5326,5271,15.64,2.14,30,10,0,0
82776,8.4906e+07,4,5259,5142,15.77,2.1,30,10,0,0
83223,8.5013e+07,4,5140,5128,15.7,2.95,30,10,0,0
83627,8.5116e+07,4,5136,5485,15.75,2.96,30,10,0,0
84080,8.5227e+07,4,5477,5300,15.86,2.29,30,10,0,0
84530,8.5341e+07,4,5292,5185,15.77,2.82,30,10,0,0
84980,8.5451e+07,4,5186,5200,15.76,2.74,30,10,0,0
85422,8.556e+07,4,5198,5171,15.5,3.14,30,10,0,0
85875,8.5676e+07,4,5213,5442,15.64,2.77,30,10,0,0
86314,8.5777e+07,4,5449,5600,15.61,3.08,30,11,0,0
87171,8.5991e+07,4,5601,5671,15.66,2.8,30,11,0,0
87577,8.6095e+07,4,5671,5714,15.63,2.91,30,11,0,0
88066,8.6209e+07,4,5713,5700,15.64,2.82,30,11,0,0
88514,8.6322e+07,4,5698,5600,15.72,2.7,30,11,0,0
89001,8.6437e+07,4,5585,5385,15.69,2.42,30,11,0,0
89405,8.654e+07,4,5382,5200,15.7,2.53,30,11,0,0
89856,8.6651e+07,4,5201,5228,15.74,2.48,30,11,0,0
90336,8.6763e+07,4,5225,5185,15.66,2.72,30,11,0,0
90783,8.687e+07,4,5174,5042,15.6,2.62,30,11,0,0
91190,8.6975e+07,4,5045,5085,15.65,2.59,30,11,0,0
92088,8.7197e+07,4,5087,5157,15.65,2.28,30,12,0,0
92495,8.7297e+07,4,5161,5385,15.66,3.03,30,12,0,0
92974,8.7406e+07,4,5386,5428,15.6,2.8,30,12,0,0
93915,8.7639e+07,4,5430,5500,15.57,2.46,30,12,0,0
94316,8.7738e+07,4,5488,5257,15.6,2.48,30,12,0,0
94769,8.7849e+07,4,5267,5414,15.66,2.3,30,12,0,0
95215,8.7964e+07,4,5398,5228,15.67,2.35,30,12,0,0
95699,8.808e+07,4,5210,5071,15.58,2.07,30,12,0,0
96108,8.8182e+07,4,5071,5071,15.68,2.18,30,12,0,0
96564,8.8297e+07,4,5067,5028,15.65,1.96,30,12,0,0
96962,8.8394e+07,4,5031,5100,15.64,2.46,30,12,0,0
97405,8.8504e+07,4,5098,5085,15.55,2.41,30,12,0,0
97853,8.8612e+07,4,5086,5100,15.58,2.26,30,13,0,0
98265,8.8716e+07,4,5097,5042,15.67,2.05,30,13,0,0
98716,8.8828e+07,4,5042,5042,15.67,2.07,30,13,0,0
99161,8.894e+07,4,5048,5114,15.64,2.12,30,13,0,0
99601,8.9041e+07,4,5103,4900,15.73,1.56,30,13,0,0
1.005e+05,8.9264e+07,4,4903,5057,15.73,2.07,30,13,0,0
1.0095e+05,8.9379e+07,4,5063,5128,15.72,2.01,30,13,0,0
1.0139e+05,8.9483e+07,4,5126,5114,15.73,2.26,30,13,0,0
1.0184e+05,8.9596e+07,4,5128,5271,15.67,2.45,30,13,0,0
1.0225e+05,8.9698e+07,4,5266,5157,15.64,2.07,30,13,0,0
1.0274e+05,8.9813e+07,4,5156,5142,15.62,2.05,30,13,0,0
1.0318e+05,8.9918e+07,4,5149,5285,15.66,2.09,30,13,0,0
1.0363e+05,9.0026e+07,4,5285,5300,15.52,2.46,30,13,0,0
1.0404e+05,9.0132e+07,4,5298,5271,15.56,2.55,30,14,0,0
1.0448e+05,9.0238e+07,4,5270,5228,15.61,2.45,30,14,0,0
1.0493e+05,9.0348e+07,4,5232,5414,15.58,2.53,30,14,0,0
1.0538e+05,9.0457e+07,4,5413,5385,15.6,2.43,30,14,0,0
1.0579e+05,9.0562e+07,4,5383,5300,15.52,1.93,30,14,0,0
1.0628e+05,9.0684e+07,4,5297,5271,15.57,2.27,30,14,0,0
1.0672e+05,9.0788e+07,4,5252,5071,15.58,1.76,30,14,0,0
1.0717e+05,9.0901e+07,4,5085,5228,15.66,2.19,30,14,0,0
1.0762e+05,9.1009e+07,4,5208,5028,15.61,1.81,30,14,0,0
1.0802e+05,9.111e+07,4,5030,5100,15.66,1.83,30,14,0,0
1.085e+05,9.1218e+07,4,5097,4985,15.63,2.01,30,14,0,0
1.0895e+05,9.1331e+07,4,4992,5100,15.65,2.57,30,14,0,0
1.094e+05,9.1438e+07,4,5098,5071,15.66,2.13,30,14,0,0
1.0985e+05,9.155e+07,4,5070,5057,15.61,2.04,30,14,0,0
1.103e+05,9.1659e+07,4,5058,5085,15.62,2.29,30,14,0,0
1.1075e+05,9.177e+07,4,5086,5100,15.58,2.32,30,14,0,0
1.1168e+05,9.1994e+07,4,5109,5314,15.61,2.4,30,15,0,0
1.1209e+05,9.2098e+07,4,5311,5242,15.61,2.11,30,15,0,0
1.1253e+05,9.2203e+07,4,5238,5071,15.57,1.97,30,15,0,0
1.1302e+05,9.2318e+07,4,5084,5214,15.51,2.38,30,15,0,0
1.1347e+05,9.2426e+07,4,5233,5485,15.57,2.49,30,15,0,0
1.1387e+05,9.253e+07,4,5483,5414,15.45,2.81,30,15,0,0
1.1432e+05,9.2638e+07,4,5414,5414,15.61,2.4,30,15,0,0
1.1481e+05,9.2754e+07,4,5412,5400,15.66,2.47,30,15,0,0
1.1526e+05,9.2867e+07,4,5401,5414,15.64,2.3,30,15,0,0
1.157e+05,9.2974e+07,4,5404,5314,15.6,1.98,30,15,0,0
1.1615e+05,9.3079e+07,4,5307,5171,15.62,2.26,30,15,0,0
1.1659e+05,9.3187e+07,4,5186,5514,15.54,3.42,30,15,0,0
1.17e+05,9.3295e+07,4,5521,5942,15.48,3.41,30,15,0,0
1.1748e+05,9.3407e+07,4,5939,5914,15.54,2.68,30,16,0,0
1.1793e+05,9.3516e+07,4,5895,5642,15.5,2.67,30,16,0,0
1.1838e+05,9.3625e+07,4,5636,5542,15.54,2.24,30,16,0,0
1.1928e+05,9.3842e+07,4,5533,5314,15.45,2.35,30,16,0,0
1.1968e+05,9.3946e+07,4,5321,5471,15.41,2.55,30,16,0,0
1.2017e+05,9.4063e+07,4,5478,5557,15.47,3.19,30,16,0,0
1.2062e+05,9.4175e+07,4,5532,5271,15.63,1.81,30,16,0,0
1.2106e+05,9.4283e+07,4,5256,5114,15.57,2.16,30,16,0,0
1.215e+05,9.4398e+07,4,5137,5300,15.55,2.57,30,16,0,0
1.2191e+05,9.4497e+07,4,5302,5357,15.58,2.49,30,16,0,0
1.2236e+05,9.4604e+07,4,5359,5400,15.54,2.37,30,16,0,0
1.228e+05,9.4708e+07,4,5397,5342,15.59,2.27,30,16,0,0
1.2329e+05,9.4829e+07,4,5334,5271,15.59,2.4,30,17,0,0
1.237e+05,9.4929e+07,4,5272,5285,15.59,2.32,30,17,0,0
1.2415e+05,9.5041e+07,4,5290,5342,15.48,2.56,30,17,0,0
1.2459e+05,9.5151e+07,4,5359,5571,15.51,2.77,30,17,0,0
1.2504e+05,9.5264e+07,4,5565,5528,15.5,2.64,30,17,0,0
1.2594e+05,9.548e+07,4,5516,5285,15.54,2.31,30,17,0,0
1.2634e+05,9.5577e+07,4,5284,5271,15.5,2.34,30,17,0,0
1.2727e+05,9.5806e+07,4,5272,5314,15.51,2.41,30,17,0,0
1.2768e+05,9.5909e+07,4,5331,5485,15.54,2.68,30,17,0,0
1.2813e+05,9.6016e+07,4,5482,5357,15.51,2.43,30,17,0,0
1.2859e+05,9.6129e+07,4,5365,5471,15.54,2.46,30,17,0,0
1.2903e+05,9.6242e+07,4,5458,5342,15.58,2.23,30,18,0,0
1.2944e+05,9.6342e+07,4,5340,5328,15.54,2.19,30,18,0,0
1.2984e+05,9.6443e+07,4,5327,5285,15.49,2.33,30,18,0,0
1.3034e+05,9.6568e+07,4,5276,5214,15.5,2.21,30,18,0,0
1.3074e+05,9.6663e+07,4,5216,5271,15.48,2.26,30,18,0,0
1.3123e+05,9.6786e+07,4,5271,5271,15.54,2.33,30,18,0,0
1.3208e+05,9.6993e+07,4,5268,5214,15.45,2.1,30,18,0,0
1.3252e+05,9.7101e+07,4,5218,5328,15.44,2.36,30,18,0,0
1.3297e+05,9.7207e+07,4,5327,5314,15.47,2.31,30,18,0,0
1.3341e+05,9.7319e+07,4,5312,5285,15.47,2.55,30,18,0,0
1.3386e+05,9.7427e+07,4,5280,5228,15.5,2.17,30,18,0,0
1.3427e+05,9.7536e+07,4,5222,5171,15.42,2.23,30,18,0,0
1.3472e+05,9.7644e+07,4,5175,5242,15.46,2.39,30,18,0,0
1.3516e+05,9.7754e+07,4,5255,5400,15.52,2.14,30,19,0,0
1.3602e+05,9.7962e+07,4,5396,5157,15.55,2.01,30,19,0,0
1.3692e+05,9.8187e+07,4,5145,4928,15.55,1.68,30,19,0,0
1.3732e+05,9.8289e+07,4,4926,4785,15.57,1.72,30,19,0,0
1.3778e+05,9.8402e+07,4,4788,4971,15.42,2.23,30,19,0,0
1.3825e+05,9.8514e+07,4,4973,5085,15.49,2.5,30,19,0,0
1.3875e+05,9.8632e+07,4,5074,4971,15.47,2.27,30,19,0,0
1.3914e+05,9.8732e+07,4,4970,4942,15.57,2.29,30,19,0,0
1.396e+05,9.884e+07,4,4945,5142,15.54,2.47,30,19,0,0
1.4009e+05,9.8956e+07,4,5142,5142,15.52,2.6,30,19,0,0
1.4054e+05,9.9066e+07,4,5144,5171,15.52,2.16,30,19,0,0
1.4094e+05,9.9173e+07,4,5181,5400,15.51,2.49,30,19,0,0
1.4139e+05,9.9284e+07,4,5389,5257,15.54,2.39,30,19,0,0
1.4184e+05,9.9391e+07,4,5261,5314,15.38,2.67,30,20,0,0
1.4229e+05,9.9506e+07,4,5328,5471,15.47,2.95,30,20,0,0
1.427e+05,9.9604e+07,4,5475,5528,15.5,2.88,30,20,0,0
1.4314e+05,9.9712e+07,4,5515,5342,15.55,2.65,30,20,0,0
1.4358e+05,9.9821e+07,4,5346,5457,15.48,2.48,30,20,0,0
1.4403e+05,9.993e+07,4,5462,5542,15.47,2.84,30,20,0,0
1.4448e+05,1.0004e+08,4,5530,5371,15.53,2.65,30,20,0,0
1.4492e+05,1.0015e+08,4,5382,5542,15.51,2.93,30,20,0,0
1.4537e+05,1.0026e+08,4,5543,5557,15.53,2.83,30,20,0,0
1.4582e+05,1.0037e+08,4,5562,5685,15.42,2.84,30,20,0,0
1.4627e+05,1.0048e+08,4,5670,5528,15.45,2.69,30,20,0,0
1.4672e+05,1.0059e+08,4,5530,5571,15.48,2.48,30,20,0,0
1.4712e+05,1.0069e+08,4,5560,5428,15.5,2.51,30,20,0,0
1.4757e+05,1.008e+08,4,5425,5400,15.48,2.54,30,21,0,0
1.4798e+05,1.0091e+08,4,5400,5400,15.51,2.53,30,21,0,0
1.4843e+05,1.0102e+08,4,5400,5400,15.52,2.41,30,21,0,0
1.4884e+05,1.0112e+08,4,5393,5257,15.56,2.39,30,21,0,0
1.4928e+05,1.0123e+08,4,5258,5342,15.52,2.34,30,21,0,0
1.4973e+05,1.0133e+08,4,5342,5357,15.51,2.44,30,21,0,0
1.5021e+05,1.0145e+08,4,5354,5314,15.55,2.46,30,21,0,0
1.5066e+05,1.0156e+08,4,5316,5342,15.51,2.49,30,21,0,0
1.5106e+05,1.0166e+08,4,5342,5385,15.55,2.61,30,21,0,0
1.5154e+05,1.0177e+08,4,5385,5385,15.57,2.54,30,21,0,0
1.52e+05,1.0188e+08,4,5391,5514,15.57,2.62,30,21,0,0
1.5289e+05,1.021e+08,4,5515,5600,15.54,2.69,30,22,0,0
1.5334e+05,1.0222e+08,4,5596,5557,15.56,2.78,30,22,0,0
1.5375e+05,1.0232e+08,4,5556,5542,15.52,2.74,30,22,0,0
1.5468e+05,1.0254e+08,4,5537,5442,15.54,2.6,30,22,0,0
1.5509e+05,1.0265e+08,4,5440,5414,15.45,2.48,30,22,0,0
1.5553e+05,1.0276e+08,4,5409,5342,15.49,2.2,30,22,0,0
1.5598e+05,1.0287e+08,4,5326,5128,15.41,2.25,30,22,0,0
1.5642e+05,1.0297e+08,4,5131,5171,15.49,2.76,30,22,0,0
1.5687e+05,1.0308e+08,4,5163,5057,15.49,2.09,30,22,0,0
1.5732e+05,1.032e+08,4,5075,5257,15.51,2.44,30,22,0,0
1.5772e+05,1.033e+08,4,5245,5114,15.49,2.14,30,22,0,0
1.5817e+05,1.0341e+08,4,5107,5014,15.5,2.15,30,22,0,0
1.5858e+05,1.0351e+08,4,5012,4957,15.51,2.07,30,22,0,0
1.5903e+05,1.0363e+08,4,4949,4842,15.42,1.66,30,23,0,0
1.5948e+05,1.0374e+08,4,4822,4614,15.41,1.74,30,23,0,0
1.5992e+05,1.0385e+08,4,4616,4657,15.51,1.74,30,23,0,0
1.6037e+05,1.0396e+08,4,4675,4928,15.48,2.26,30,23,0,0
1.6082e+05,1.0407e+08,4,4937,5028,15.51,2.34,30,23,0,0
1.6122e+05,1.0417e+08,4,5041,5228,15.49,2.36,30,23,0,0
1.6212e+05,1.044e+08,4,5239,5428,15.46,3.07,30,23,0,0
1.6252e+05,1.0449e+08,4,5439,5671,15.45,3.28,30,23,0,0
1.6297e+05,1.046e+08,4,5668,5642,15.39,2.81,30,23,0,0
1.6342e+05,1.0472e+08,4,5646,5685,15.36,2.98,30,23,0,0
1.6382e+05,1.0482e+08,4,5685,5685,15.33,2.74,30,23,0,0
1.6431e+05,1.0494e+08,4,5681,5642,15.32,2.52,30,23,0,0
1.6471e+05,1.0504e+08,4,5636,5271,15.38,2.46,30,23,0,0
1.6516e+05,1.0515e+08,4,5282,5385,15.43,2.39,30,24,0,0
1.6561e+05,1.0526e+08,4,5391,5485,15.41,2.78,30,24,0,0
1.6649e+05,1.0548e+08,4,5483,5457,15.36,2.32,30,24,0,0
1.6739e+05,1.0571e+08,4,5459,5514,15.39,2.7,30,24,0,0
1.6779e+05,1.0581e+08,4,5498,5271,15.46,2.1,30,24,0,0
1.6824e+05,1.0593e+08,4,5262,5185,15.47,1.98,30,24,0,0
1.6869e+05,1.0604e+08,4,5173,5042,15.48,2.24,30,24,0,0
1.691e+05,1.0614e+08,4,5042,5071,15.44,2.48,30,24,0,0
1.6999e+05,1.0636e+08,4,5078,5257,15.48,2.47,30,24,0,0
1.7039e+05,1.0646e+08,4,5255,5185,15.48,2.25,30,24,0,0
1.7125e+05,1.0668e+08,4,5285,5314,15.36,2.56,30,25,0,0
1.717e+05,1.068e+08,4,5316,5357,15.48,2.67,30,25,0,0
1.721e+05,1.069e+08,4,5362,5471,15.41,2.85,30,25,0,0
1.7255e+05,1.0701e+08,4,5470,5457,15.42,2.47,30,25,0,0
1.73e+05,1.0712e+08,4,5455,5428,15.44,2.7,30,25,0,0
1.7344e+05,1.0723e+08,4,5426,5400,15.47,2.66,30,25,0,0
1.7389e+05,1.0734e+08,4,5388,5242,15.53,2.48,30,25,0,0
1.7433e+05,1.0744e+08,4,5240,5171,15.52,2.41,30,25,0,0
1.7474e+05,1.0755e+08,4,5171,5185,15.45,2.4,30,25,0,0
1.7523e+05,1.0766e+08,4,5178,5114,15.48,2.31,30,25,0,0
1.7563e+05,1.0776e+08,4,5117,5200,15.49,2.52,30,25,0,0
1.7608e+05,1.0787e+08,4,5190,5014,15.47,2.43,30,25,0,0
1.7653e+05,1.0798e+08,4,5019,5100,15.52,2.48,30,25,0,0
1.7697e+05,1.0809e+08,4,5101,5128,15.42,2.39,30,26,0,0
1.7742e+05,1.082e+08,4,5129,5171,15.43,2.86,30,26,0,0
1.7786e+05,1.0831e+08,4,5177,5257,15.42,2.55,30,26,0,0
1.783e+05,1.0842e+08,4,5268,5428,15.52,3.15,30,26,0,0
1.7875e+05,1.0853e+08,4,5421,5328,15.42,2.54,30,26,0,0
1.792e+05,1.0864e+08,4,5351,5585,15.48,3.16,30,26,0,0
1.796e+05,1.0874e+08,4,5583,5557,15.41,3.06,30,26,0,0
1.8005e+05,1.0885e+08,4,5562,5671,15.43,2.87,30,26,0,0
1.805e+05,1.0896e+08,4,5673,5742,15.41,3.35,30,26,0,0
1.8095e+05,1.0907e+08,4,5742,5742,15.44,2.91,30,26,0,0
1.8139e+05,1.0918e+08,4,5737,5642,15.46,2.81,30,26,0,0
1.8183e+05,1.0929e+08,4,5641,5585,15.47,2.6,30,27,0,0
1.8228e+05,1.094e+08,4,5584,5571,15.48,2.85,30,27,0,0
1.8273e+05,1.0951e+08,4,5570,5557,15.47,2.96,30,27,0,0
1.8322e+05,1.0963e+08,4,5554,5528,15.43,2.87,30,27,0,0
1.8366e+05,1.0974e+08,4,5523,5414,15.47,2.51,30,27,0,0
1.8411e+05,1.0984e+08,4,5413,5400,15.47,2.82,30,27,0,0
1.8456e+05,1.0995e+08,4,5414,5557,15.51,2.85,30,27,0,0
1.8501e+05,1.1007e+08,4,5560,5600,15.45,2.9,30,27,0,0
1.8541e+05,1.1017e+08,4,5601,5642,15.5,2.69,30,27,0,0
1.8585e+05,1.1028e+08,4,5642,5642,15.5,2.85,30,27,0,0
1.863e+05,1.1039e+08,4,5643,5657,15.45,2.91,30,27,0,0
1.8672e+05,1.1049e+08,4,5646,5514,15.44,2.55,30,28,0,0
1.8716e+05,1.106e+08,4,5509,5442,15.43,2.51,30,28,0,0
1.8761e+05,1.1071e+08,4,5434,5357,15.54,2.75,30,28,0,0
1.8806e+05,1.1082e+08,4,5359,5385,15.51,2.51,30,28,0,0
1.885e+05,1.1093e+08,4,5389,5442,15.51,2.66,30,28,0,0
1.8895e+05,1.1104e+08,4,5442,5442,15.48,2.84,30,28,0,0
1.8935e+05,1.1114e+08,4,5453,5657,15.45,3.25,30,28,0,0
1.898e+05,1.1125e+08,4,5671,5885,15.44,3.3,30,28,0,0
1.9024e+05,1.1136e+08,4,5908,6128,15.41,3.66,30,28,0,0
1.9074e+05,1.1148e+08,4,6132,6185,15.44,3.87,30,28,0,0
1.9114e+05,1.1159e+08,4,6175,6085,15.47,3.53,30,28,0,0
1.9154e+05,1.1169e+08,4,6080,6014,15.48,3.27,30,29,0,0
1.9203e+05,1.118e+08,4,6000,5857,15.45,3.06,30,29,0,0
1.9244e+05,1.1191e+08,4,5856,5842,15.47,3.19,30,29,0,0
1.9292e+05,1.1202e+08,4,5834,5728,15.46,2.96,30,29,0,0
1.9337e+05,1.1213e+08,4,5725,5671,15.47,3.1,30,29,0,0
1.9382e+05,1.1224e+08,4,5669,5642,15.51,3.12,30,29,0,0
1.9426e+05,1.1235e+08,4,5636,5585,15.48,2.67,30,29,0,0
1.9471e+05,1.1245e+08,4,5579,5500,15.45,2.81,30,29,0,0
1.9515e+05,1.1257e+08,4,5482,5228,15.47,2.58,30,29,0,0
1.9559e+05,1.1267e+08,4,5215,5042,15.44,2.28,30,29,0,0
1.9604e+05,1.1279e+08,4,5036,4985,15.51,2.16,30,29,0,0
1.9648e+05,1.129e+08,4,4964,4857,15.5,2.86,30,30,0,0
1.969e+05,1.13e+08,4,4861,4957,15.5,2.75,30,30,0,0
1.9734e+05,1.1312e+08,4,4938,4814,15.44,1.91,30,30,0,0
1.9779e+05,1.1322e+08,4,4838,5057,15.51,2.29,30,30,0,0
1.982e+05,1.1332e+08,4,5050,4928,15.33,2.71,30,30,0,0
1.9868e+05,1.1344e+08,4,4952,5171,15.45,2.53,30,30,0,0
1.9909e+05,1.1354e+08,4,5175,5228,15.53,2.84,30,30,0,0
1.9958e+05,1.1367e+08,4,5236,5314,15.54,2.55,30,30,0,0
2.0043e+05,1.1388e+08,4,5316,5371,15.48,2.77,30,30,0,0
2.0084e+05,1.1398e+08,4,5370,5328,15.47,2.4,30,30,0,0
2.0133e+05,1.141e+08,4,5328,5328,15.51,2.61,30,30,0,0
2.0174e+05,1.1419e+08,4,5329,5357,15.42,2.57,30,30,0,0
2.0217e+05,1.143e+08,4,5360,5414,15.49,2.83,30,31,0,0
2.0262e+05,1.1442e+08,4,5407,5342,15.47,2.5,30,31,0,0
2.0307e+05,1.1453e+08,4,5338,5300,15.44,2.65,30,31,0,0
2.0351e+05,1.1464e+08,4,5286,5100,15.4,2.11,30,31,0,0
2.0392e+05,1.1474e+08,4,5114,5242,15.31,2.56,30,31,0,0
2.0437e+05,1.1485e+08,4,5229,5085,15.43,2.39,30,31,0,0
2.0481e+05,1.1496e+08,4,5075,4942,15.44,2.55,30,31,0,0
2.0526e+05,1.1507e+08,4,4945,5028,15.22,2.86,30,31,0,0
2.0571e+05,1.1519e+08,4,5031,5071,15.4,3.05,30,31,0,0
2.0611e+05,1.1529e+08,4,5079,5157,15.42,2.34,30,31,0,0
2.0652e+05,1.1539e+08,4,5159,5271,15.5,2.64,30,31,0,0
2.0742e+05,1.1562e+08,4,5269,5228,15.47,2.55,30,31,0,0
2.0831e+05,1.1584e+08,4,5228,5242,15.52,2.65,30,32,0,0
2.0875e+05,1.1594e+08,4,5241,5228,15.47,2.33,30,32,0,0
2.0916e+05,1.1604e+08,4,5228,5228,15.35,2.89,30,32,0,0
2.0961e+05,1.1615e+08,4,5232,5457,15.43,2.87,30,32,0,0
2.1006e+05,1.1626e+08,4,5455,5400,15.39,2.48,30,32,0,0
2.1054e+05,1.1638e+08,4,5398,5385,15.4,2.67,30,32,0,0
2.1095e+05,1.1648e+08,4,5391,5471,15.42,2.27,30,32,0,0
2.1139e+05,1.1659e+08,4,5461,5242,15.47,2.39,30,32,0,0
2.1184e+05,1.167e+08,4,5243,5271,15.44,2.36,30,32,0,0
2.1225e+05,1.168e+08,4,5270,5257,15.42,2.3,30,32,0,0
2.1269e+05,1.1691e+08,4,5252,5142,15.47,2.32,30,32,0,0
2.1314e+05,1.1702e+08,4,5152,5300,15.41,2.54,30,32,0,0
2.1354e+05,1.1713e+08,4,5300,5328,15.44,2.64,30,32,0,0
2.1403e+05,1.1724e+08,4,5332,5457,15.51,2.61,30,33,0,0
2.1447e+05,1.1735e+08,4,5450,5357,15.45,2.56,30,33,0,0
2.1492e+05,1.1746e+08,4,5362,5442,15.51,2.67,30,33,0,0
2.1533e+05,1.1757e+08,4,5440,5385,15.44,2.35,30,33,0,0
2.1577e+05,1.1768e+08,4,5385,5400,15.47,2.53,30,33,0,0
2.1626e+05,1.1779e+08,4,5400,5400,15.36,2.58,30,33,0,0
2.1666e+05,1.179e+08,4,5404,5500,15.35,2.74,30,33,0,0
2.1711e+05,1.18e+08,4,5489,5342,15.42,2.38,30,33,0,0
2.1756e+05,1.1812e+08,4,5343,5371,15.41,2.28,30,33,0,0
2.1796e+05,1.1822e+08,4,5365,5257,15.41,2.35,30,33,0,0
2.184e+05,1.1833e+08,4,5258,5285,15.39,2.26,30,33,0,0
2.1916e+05,1.1854e+08,4,5281,5200,15.46,2.09,30,33,0,0
2.1961e+05,1.1865e+08,4,5193,5114,15.45,2.46,30,33,0,0
2.2005e+05,1.1876e+08,4,5112,5085,15.49,2.06,30,34,0,0
2.2095e+05,1.1898e+08,4,5092,5242,15.42,2.22,30,34,0,0
2.2142e+05,1.1909e+08,4,5248,5314,15.47,2.48,30,34,0,0
2.2183e+05,1.1919e+08,4,5318,5400,15.46,2.53,30,34,0,0
2.2227e+05,1.193e+08,4,5393,5257,15.41,2.53,30,34,0,0
2.2272e+05,1.1941e+08,4,5257,5271,15.41,2.29,30,34,0,0
2.2318e+05,1.1952e+08,4,5263,5185,15.42,2.23,30,34,0,0
2.2363e+05,1.1963e+08,4,5192,5271,15.43,2.44,30,34,0,0
2.2407e+05,1.1974e+08,4,5264,5200,15.46,2.16,30,34,0,0
2.2447e+05,1.1984e+08,4,5204,5300,15.4,2.19,30,34,0,0
2.2496e+05,1.1996e+08,4,5300,5300,15.46,2.34,30,34,0,0
2.2536e+05,1.2006e+08,4,5294,5185,15.38,2.27,30,34,0,0
2.2581e+05,1.2017e+08,4,5192,5328,15.47,2.58,30,34,0,0
2.2626e+05,1.2028e+08,4,5317,5214,15.41,2.46,30,35,0,0
2.2711e+05,1.2049e+08,4,5214,5242,15.41,2.46,30,35,0,0
2.2756e+05,1.206e+08,4,5245,5300,15.44,2.43,30,35,0,0
2.2801e+05,1.2072e+08,4,5308,5400,15.45,2.57,30,35,0,0
2.2841e+05,1.2082e+08,4,5401,5442,15.4,2.54,30,35,0,0
2.2886e+05,1.2093e+08,4,5442,5442,15.42,2.89,30,35,0,0
2.2931e+05,1.2104e+08,4,5438,5385,15.35,2.45,30,35,0,0
2.2975e+05,1.2115e+08,4,5384,5371,15.45,2.47,30,35,0,0
2.302e+05,1.2126e+08,4,5373,5414,15.41,2.46,30,35,0,0
2.3064e+05,1.2137e+08,4,5409,5300,15.45,2.45,30,35,0,0
2.3114e+05,1.2149e+08,4,5313,5457,15.48,2.42,30,35,0,0
2.3158e+05,1.216e+08,4,5439,5285,15.51,2.41,30,36,0,0
2.3199e+05,1.217e+08,4,5285,5300,15.51,2.17,30,36,0,0
2.3247e+05,1.2181e+08,4,5288,5142,15.54,2.3,30,36,0,0
2.3288e+05,1.2191e+08,4,5142,5142,15.52,2.38,30,36,0,0
2.3337e+05,1.2203e+08,4,5143,5157,15.5,1.82,30,36,0,0
2.3382e+05,1.2214e+08,4,5146,5071,15.5,2.3,30,36,0,0
2.3422e+05,1.2224e+08,4,5073,5271,15.49,2.66,30,36,0,0
2.347e+05,1.2235e+08,4,5269,5214,15.42,2.32,30,36,0,0
2.3516e+05,1.2246e+08,4,5220,5357,15.5,2.57,30,36,0,0
2.356e+05,1.2257e+08,4,5358,5371,15.45,2.63,30,36,0,0
2.3649e+05,1.228e+08,4,5372,5400,15.44,2.66,30,36,0,0
2.369e+05,1.229e+08,4,5405,5471,15.36,2.82,30,36,0,0
2.3734e+05,1.2301e+08,4,5454,5300,15.32,2.41,30,37,0,0
2.3778e+05,1.2312e+08,4,5311,5457,15.35,2.53,30,37,0,0
2.3823e+05,1.2323e+08,4,5449,5385,15.29,2.51,30,37,0,0
2.3868e+05,1.2334e+08,4,5367,5214,15.38,2.41,30,37,0,0
2.3954e+05,1.2355e+08,4,5222,5400,15.34,2.95,30,37,0,0
2.3998e+05,1.2366e+08,4,5408,5571,15.33,3.18,30,37,0,0
2.4042e+05,1.2377e+08,4,5583,5714,15.28,3.26,30,37,0,0
2.4088e+05,1.2388e+08,4,5725,5842,15.27,3.15,30,37,0,0
2.4132e+05,1.2399e+08,4,5833,5728,15.38,2.95,30,37,0,0
2.4177e+05,1.241e+08,4,5731,5800,15.37,2.81,30,37,0,0
2.4217e+05,1.242e+08,4,5798,5671,15.42,2.75,30,37,0,0
2.4261e+05,1.2431e+08,4,5666,5457,15.4,2.35,30,38,0,0
2.4311e+05,1.2443e+08,4,5437,5242,15.39,2.01,30,38,0,0
2.4351e+05,1.2453e+08,4,5235,5100,15.39,1.92,30,38,0,0
2.4396e+05,1.2464e+08,4,5094,4871,15.45,1.39,30,38,0,0
2.4485e+05,1.2486e+08,4,4856,4571,15.48,1.63,30,38,0,0
2.453e+05,1.2497e+08,4,4581,4685,15.42,1.54,30,38,0,0
2.457e+05,1.2507e+08,4,4681,4557,15.35,1.56,30,38,0,0
2.4614e+05,1.2518e+08,4,4570,4857,15.45,2.13,30,38,0,0
2.4663e+05,1.253e+08,4,4849,4742,15.43,1.35,30,38,0,0
2.4704e+05,1.2539e+08,4,4719,4471,15.44,1.51,30,38,0,0
2.4748e+05,1.2551e+08,4,4475,4542,15.42,1.66,30,38,0,0
2.4793e+05,1.2561e+08,4,4547,4600,15.4,1.81,30,38,0,0
2.4837e+05,1.2572e+08,4,4613,4885,15.4,1.76,30,38,0,0
2.4882e+05,1.2583e+08,4,4880,4785,15.44,1.84,30,38,0,0
2.4927e+05,1.2594e+08,4,4786,4828,15.45,1.79,30,38,0,0
2.4971e+05,1.2605e+08,4,4818,4685,15.45,1.59,30,38,0,0
2.5016e+05,1.2616e+08,4,4677,4600,15.45,1.47,30,38,0,0
2.5061e+05,1.2627e+08,4,4612,4771,15.43,1.64,30,39,0,0
2.5101e+05,1.2637e+08,4,4763,4614,15.42,1.7,30,39,0,0
2.5146e+05,1.2648e+08,4,4622,4814,15.38,1.95,30,39,0,0
2.5191e+05,1.2659e+08,4,4795,4614,15.39,1.57,30,39,0,0
2.5235e+05,1.267e+08,4,4604,4514,15.41,1.76,30,39,0,0
2.528e+05,1.2681e+08,4,4530,4771,15.41,1.9,30,39,0,0
2.5324e+05,1.2692e+08,4,4782,4942,15.41,2.31,30,39,0,0
2.537e+05,1.2703e+08,4,4958,5128,15.38,2.26,30,39,0,0
2.541e+05,1.2714e+08,4,5130,5157,15.4,2.3,30,39,0,0
2.5455e+05,1.2724e+08,4,5161,5200,15.39,2.38,30,39,0,0
2.5499e+05,1.2735e+08,4,5206,5271,15.39,2.27,30,39,0,0
2.5544e+05,1.2746e+08,4,5277,5342,15.36,2.63,30,39,0,0
2.5584e+05,1.2757e+08,4,5354,5514,15.35,2.69,30,39,0,0
2.5625e+05,1.2767e+08,4,5515,5600,15.32,2.87,30,39,0,0
2.5669e+05,1.2778e+08,4,5602,5657,15.33,3.01,30,39,0,0
2.5722e+05,1.279e+08,4,5658,5685,15.38,2.93,30,40,0,0
2.5763e+05,1.28e+08,4,5684,5671,15.4,2.83,30,40,0,0
2.5807e+05,1.2811e+08,4,5663,5485,15.33,2.62,30,40,0,0
2.5852e+05,1.2822e+08,4,5481,5400,15.37,2.18,30,40,0,0
2.59e+05,1.2833e+08,4,5384,5228,15.36,2.22,30,40,0,0
2.5944e+05,1.2844e+08,4,5210,5028,15.36,2.21,30,40,0,0
2.5984e+05,1.2854e+08,4,5025,4900,15.38,1.75,30,40,0,0
2.6029e+05,1.2865e+08,4,4910,5128,15.44,2.65,30,40,0,0
2.6073e+05,1.2876e+08,4,5134,5214,15.45,2.46,30,40,0,0
2.6119e+05,1.2887e+08,4,5223,5357,15.44,3.15,30,40,0,0
2.6159e+05,1.2898e+08,4,5360,5428,15.36,2.75,30,40,0,0
2.6204e+05,1.2909e+08,4,5410,5228,15.45,2.27,30,40,0,0
2.6245e+05,1.2919e+08,4,5224,5014,15.54,1.93,30,40,0,0
2.6293e+05,1.2931e+08,4,5016,5042,15.57,2.2,30,41,0,0
2.6338e+05,1.2942e+08,4,5020,4728,15.6,2.47,30,41,0,0
2.6428e+05,1.2964e+08,4,4729,4771,15.57,2.52,30,41,0,0
2.6468e+05,1.2974e+08,4,4775,4871,15.52,2.62,30,41,0,0
2.6517e+05,1.2985e+08,4,4886,5042,15.51,2.69,30,41,0,0
2.6557e+05,1.2996e+08,4,5051,5257,15.44,2.67,30,41,0,0
2.6606e+05,1.3008e+08,4,5264,5342,15.36,3,30,41,0,0
2.6651e+05,1.3018e+08,4,5344,5371,15.48,2.8,30,41,0,0
2.6695e+05,1.3029e+08,4,5371,5385,15.51,2.43,30,41,0,0
2.674e+05,1.304e+08,4,5378,5314,15.48,2.58,30,41,0,0
2.6781e+05,1.305e+08,4,5319,5385,15.47,2.34,30,41,0,0
2.6826e+05,1.3061e+08,4,5382,5342,15.42,2.65,30,41,0,0
2.687e+05,1.3072e+08,4,5340,5314,15.41,2.7,30,42,0,0
2.692e+05,1.3084e+08,4,5324,5442,15.46,2.73,30,42,0,0
2.696e+05,1.3094e+08,4,5449,5557,15.47,2.69,30,42,0,0
2.7005e+05,1.3105e+08,4,5548,5428,15.42,2.42,30,42,0,0
2.7049e+05,1.3116e+08,4,5422,5342,15.42,2.62,30,42,0,0
2.7094e+05,1.3127e+08,4,5335,5214,15.4,2.41,30,42,0,0
2.7139e+05,1.3138e+08,4,5212,5200,15.43,2.77,30,42,0,0
2.718e+05,1.3149e+08,4,5200,5228,15.49,2.32,30,42,0,0
2.7228e+05,1.3161e+08,4,5210,5100,15.41,2.18,30,42,0,0
2.7269e+05,1.3171e+08,4,5101,5128,15.42,2.54,30,42,0,0
2.7314e+05,1.3182e+08,4,5132,5200,15.48,2.49,30,42,0,0
2.7359e+05,1.3193e+08,4,5207,5328,15.39,2.51,30,42,0,0
2.7408e+05,1.3205e+08,4,5314,5214,15.39,2.55,30,42,0,0
2.7452e+05,1.3216e+08,4,5225,5342,15.42,2.9,30,43,0,0
2.7497e+05,1.3227e+08,4,5331,5228,15.35,2.83,30,43,0,0
2.7537e+05,1.3237e+08,4,5262,5557,15.36,3.04,30,43,0,0
2.7626e+05,1.3258e+08,4,5562,5800,15.33,3.53,30,43,0,0
2.7674e+05,1.327e+08,4,5806,5857,15.2,3.51,30,43,0,0
2.7718e+05,1.3281e+08,4,5846,5757,15.33,3.09,30,43,0,0
2.7759e+05,1.3291e+08,4,5750,5685,15.35,2.83,30,43,0,0
2.7804e+05,1.3302e+08,4,5670,5485,15.4,2.45,30,43,0,0
2.7845e+05,1.3313e+08,4,5461,5300,15.35,3.02,30,43,0,0
2.7885e+05,1.3323e+08,4,5301,5342,15.38,2.53,30,43,0,0
2.7934e+05,1.3335e+08,4,5343,5357,15.35,2.79,30,44,0,0
2.7975e+05,1.3345e+08,4,5354,5300,15.41,2.38,30,44,0,0
2.8019e+05,1.3356e+08,4,5276,5014,15.44,2.22,30,44,0,0
2.8064e+05,1.3367e+08,4,5023,5085,15.38,2.63,30,44,0,0
2.8146e+05,1.3387e+08,4,5086,5228,15.47,3.14,30,44,0,0
2.8198e+05,1.34e+08,4,5214,5071,15.44,2.34,30,44,0,0
2.8242e+05,1.3411e+08,4,5086,5200,15.35,2.62,30,44,0,0
2.8327e+05,1.3432e+08,4,5204,5300,15.42,3.05,30,44,0,0
2.8372e+05,1.3442e+08,4,5301,5328,15.42,2.55,30,44,0,0
2.8417e+05,1.3453e+08,4,5330,5357,15.42,2.58,30,44,0,0
2.8461e+05,1.3464e+08,4,5353,5314,15.48,2.74,30,45,0,0
2.8505e+05,1.3475e+08,4,5312,5271,15.37,2.66,30,45,0,0
2.8542e+05,1.3484e+08,4,5272,5342,15.45,2.82,30,45,0,0
2.8591e+05,1.3496e+08,4,5343,5357,15.45,2.85,30,45,0,0
2.8725e+05,1.3529e+08,4,5360,5457,15.27,2.63,30,45,0,0
2.8765e+05,1.3539e+08,4,5456,5414,15.36,2.94,30,45,0,0
2.881e+05,1.355e+08,4,5416,5442,15.35,3.28,30,45,0,0
2.8855e+05,1.3561e+08,4,5454,5614,15.38,3.22,30,45,0,0
2.8899e+05,1.3572e+08,4,5609,5542,15.26,2.92,30,45,0,0
2.8944e+05,1.3584e+08,4,5563,5785,15.33,3.13,30,45,0,0
2.8984e+05,1.3594e+08,4,5776,5628,15.33,2.92,30,46,0,0
2.903e+05,1.3605e+08,4,5618,5485,15.32,2.79,30,46,0,0
2.9074e+05,1.3616e+08,4,5491,5557,15.32,2.65,30,46,0,0
2.9115e+05,1.3626e+08,4,5555,5457,15.38,2.29,30,46,0,0
2.916e+05,1.3638e+08,4,5459,5500,15.44,2.77,30,46,0,0
2.9205e+05,1.3648e+08,4,5483,5314,15.37,2.26,30,46,0,0
2.9249e+05,1.3659e+08,4,5313,5300,15.31,2.69,30,46,0,0
2.9294e+05,1.367e+08,4,5294,5228,15.33,2.57,30,46,0,0
2.9338e+05,1.3681e+08,4,5223,5128,15.41,2.47,31,46,0,0
2.9383e+05,1.3692e+08,4,5134,5228,15.38,2.27,30,46,0,0
2.9424e+05,1.3702e+08,4,5226,5157,15.43,2.21,30,46,0,0
2.9468e+05,1.3714e+08,4,5157,5171,15.4,2.78,30,46,0,0
2.9558e+05,1.3736e+08,4,5160,4928,15.48,2.18,30,47,0,0
2.9602e+05,1.3746e+08,4,4930,4971,15.38,2.23,30,47,0,0
2.9642e+05,1.3756e+08,4,4971,4971,15.45,2.35,30,47,0,0
2.9691e+05,1.3768e+08,4,4978,5071,15.47,2.56,30,47,0,0
2.9737e+05,1.3779e+08,4,5069,5057,15.32,2.2,30,47,0,0
2.9785e+05,1.3791e+08,4,5063,5128,15.43,2.54,30,47,0,0
2.9867e+05,1.3811e+08,4,5128,5171,15.44,2.54,30,47,0,0
2.9916e+05,1.3823e+08,4,5165,5114,15.42,2.25,30,47,0,0
2.9964e+05,1.3834e+08,4,5120,5185,15.37,2.56,31,47,0,0
3.0008e+05,1.3845e+08,4,5189,5257,15.41,2.71,31,47,0,0
3.0053e+05,1.3856e+08,4,5253,5185,15.38,2.36,31,47,0,0
3.0097e+05,1.3867e+08,4,5189,5285,15.38,2.14,31,48,0,0
3.0142e+05,1.3878e+08,4,5272,5142,15.42,2.41,31,48,0,0
3.0187e+05,1.3889e+08,4,5159,5328,15.42,2.5,30,48,0,0
3.0232e+05,1.39e+08,4,5327,5314,15.38,2.85,31,48,0,0
3.0272e+05,1.391e+08,4,5310,5128,15.45,2.22,31,48,0,0
3.0361e+05,1.3932e+08,4,5128,5171,15.45,2.24,31,48,0,0
3.041e+05,1.3944e+08,4,5153,5014,15.42,2.41,31,48,0,0
3.0451e+05,1.3954e+08,4,5002,4885,15.38,2.54,31,48,0,0
3.0496e+05,1.3965e+08,4,4894,5000,15.43,2.28,31,48,0,0
3.0536e+05,1.3975e+08,4,5002,5142,15.41,2.63,31,48,0,0
3.0581e+05,1.3986e+08,4,5142,5200,15.44,2.87,31,48,0,0
3.0625e+05,1.3997e+08,4,5200,5214,15.43,2.84,31,48,0,0
3.067e+05,1.4008e+08,4,5194,4885,15.41,2.01,31,48,0,0
3.0714e+05,1.4019e+08,4,4889,5114,15.43,2.4,30,49,0,0
3.0759e+05,1.4031e+08,4,5086,4871,15.37,1.95,31,49,0,0
3.0804e+05,1.4041e+08,4,4875,4914,15.39,2.48,30,49,0,0
3.0849e+05,1.4053e+08,4,4904,4800,15.39,2.3,31,49,0,0
3.0893e+05,1.4063e+08,4,4827,5042,15.32,2.59,31,49,0,0
3.0938e+05,1.4075e+08,4,5036,4971,15.37,2.21,31,49,0,0
3.1031e+05,1.4097e+08,4,4893,3442,15.7,0.47,30,49,0,0
3.1071e+05,1.4107e+08,4,3461,3642,15.66,1.51,31,49,0,0
3.1116e+05,1.4119e+08,4,3620,3342,15.73,0.74,31,49,0,0
3.116e+05,1.4129e+08,4,3364,3785,15.94,0.86,31,49,0,0
3.1201e+05,1.4139e+08,4,3785,3842,15.87,1,31,49,0,0
3.1245e+05,1.415e+08,4,3821,3000,15.86,0.07,31,49,0,0
3.1294e+05,1.4162e+08,4,2984,2828,15.96,0.42,31,49,0,0
3.1334e+05,1.4172e+08,4,2802,2485,15.94,0.22,31,49,0,0
3.1379e+05,1.4183e+08,4,2488,2571,15.9,0.35,31,49,0,0
3.142e+05,1.4194e+08,4,2565,2457,15.92,0.15,31,49,0,0
3.1468e+05,1.4205e+08,4,2455,2442,15.93,0.36,31,49,0,0
3.1513e+05,1.4216e+08,4,2443,2457,15.92,0.3,31,49,0,0
3.1554e+05,1.4226e+08,4,2453,2385,15.94,0.32,31,49,0,0
3.1642e+05,1.4248e+08,4,2384,2357,15.94,0.26,31,49,0,0
3.1691e+05,1.4259e+08,4,2362,2414,15.95,0.35,31,49,0,0
3.1732e+05,1.427e+08,4,2413,2385,15.93,0.27,31,49,0,0
3.178e+05,1.4281e+08,4,2386,2414,15.95,0.27,31,49,0,0
3.187e+05,1.4302e+08,4,2409,2271,15.95,0.25,31,49,0,0
3.1914e+05,1.4313e+08,4,2268,2242,15.96,0.23,31,49,0,0
3.1959e+05,1.4324e+08,4,2238,2200,15.96,0.2,31,49,0,0
3.2003e+05,1.4334e+08,4,2192,2014,16.04,0.05,31,49,0,0
3.2052e+05,1.4346e+08,4,1985,1671,16.03,0,30,49,0,0
3.2092e+05,1.4356e+08,4,1666,1385,16.01,0.05,31,49,0,0
3.2142e+05,1.4367e+08,4,1382,1342,16.02,0.09,30,49,0,0
3.2182e+05,1.4377e+08,4,1341,1328,16.02,0.09,30,49,0,0
3.2231e+05,1.4389e+08,4,1328,1328,16.01,0.09,30,49,0,0
3.2271e+05,1.4399e+08,4,1327,1314,16.02,0.09,30,49,0,0
3.2317e+05,1.441e+08,4,1314,1314,16.02,0.09,30,49,0,0
3.2362e+05,1.4421e+08,4,1314,1314,16.02,0.09,30,49,0,0
3.2406e+05,1.4431e+08,4,1314,1328,16.03,0.09,30,49,0,0
3.245e+05,1.4442e+08,4,1328,1328,16.03,0.09,30,49,0,0
3.2495e+05,1.4453e+08,4,1328,1328,16.04,0.09,30,49,0,0
3.254e+05,1.4464e+08,4,1328,1328,16.04,0.09,30,49,0,0
3.2585e+05,1.4475e+08,4,1328,1328,16.04,0.09,30,49,0,0
3.2629e+05,1.4485e+08,4,1328,1328,16.04,0.09,30,49,0,0
3.2674e+05,1.4496e+08,4,1328,1328,16.05,0.09,30,49,0,0
3.2719e+05,1.4506e+08,4,1328,1328,16.04,0.09,30,49,0,0
3.2763e+05,1.4517e+08,4,1328,1328,16.05,0.09,30,49,0,0
3.2812e+05,1.4528e+08,4,1328,1328,16.05,0.09,30,49,0,0
3.2857e+05,1.4539e+08,4,1328,1328,16.05,0.09,30,49,0,0
3.2901e+05,1.455e+08,4,1328,1328,16.05,0.1,30,49,0,0
3.295e+05,1.4562e+08,4,1328,1328,16.06,0.09,30,49,0,0
3.2991e+05,1.4572e+08,4,1328,1328,16.07,0.09,30,49,0,0
3.3036e+05,1.4583e+08,4,1328,1328,16.07,0.09,30,49,0,0
3.3076e+05,1.4593e+08,4,1328,1328,16.07,0.1,30,49,0,0
3.3125e+05,1.4604e+08,4,1328,1328,16.06,0.09,30,49,0,0
3.3218e+05,1.4626e+08,4,1327,1314,16.08,0.09,30,49,0,0
3.3262e+05,1.4637e+08,4,1314,1328,16.08,0.09,30,49,0,0
3.3307e+05,1.4648e+08,4,1328,1328,16.08,0.09,30,49,0,0
3.3356e+05,1.4659e+08,4,1328,1328,16.08,0.09,30,49,0,0
3.3401e+05,1.4671e+08,4,1326,1314,16.08,0.09,30,49,0,0
3.3446e+05,1.4681e+08,4,1314,1328,16.09,0.09,30,49,0,0
3.349e+05,1.4692e+08,4,1328,1328,16.1,0.09,30,49,0,0
3.3535e+05,1.4702e+08,4,1328,1328,16.08,0.1,30,49,0,0
3.3583e+05,1.4714e+08,4,1328,1328,16.09,0.1,30,49,0,0
3.3633e+05,1.4726e+08,4,1326,1314,16.08,0.1,30,49,0,0
3.3672e+05,1.4735e+08,4,1314,1328,16.08,0.1,30,49,0,0
3.3717e+05,1.4746e+08,4,1328,1328,16.09,0.1,30,49,0,0
3.3761e+05,1.4756e+08,4,1328,1328,16.08,0.09,30,49,0,0
3.3807e+05,1.4768e+08,4,1328,1328,16.09,0.1,30,49,0,0
3.3852e+05,1.4778e+08,4,1328,1328,16.09,0.1,30,49,0,0
3.39e+05,1.479e+08,4,1328,1328,16.09,0.1,30,49,0,0
3.3945e+05,1.48e+08,4,1328,1328,16.1,0.1,30,49,0,0
3.3982e+05,1.4811e+08,4,1328,1328,16.1,0.1,30,49,0,0
3.4032e+05,1.4822e+08,4,1328,1328,16.1,0.1,30,49,0,0
3.4076e+05,1.4833e+08,4,1328,1328,16.1,0.1,30,49,0,0
3.4121e+05,1.4843e+08,4,1328,1328,16.1,0.1,30,49,0,0
3.4166e+05,1.4854e+08,4,1328,1328,16.1,0.1,30,49,0,0
3.4211e+05,1.4865e+08,4,1328,1328,16.1,0.1,30,49,0,0
3.4256e+05,1.4876e+08,4,1328,1328,16.11,0.1,30,49,0,0
3.4345e+05,1.4898e+08,4,1328,1328,16.1,0.1,30,49,0,0
3.4386e+05,1.4908e+08,4,1328,1328,16.11,0.1,30,50,0,0
3.4523e+05,1.4941e+08,4,1328,1328,16.11,0.1,30,50,0,0
3.4568e+05,1.4951e+08,4,1328,1328,16.11,0.1,30,50,0,0
3.4613e+05,1.4962e+08,4,1328,1328,16.11,0.1,30,50,0,0
3.4657e+05,1.4973e+08,4,1328,1328,16.12,0.1,30,50,0,0
3.4746e+05,1.4995e+08,4,1328,1328,16.12,0.1,30,50,0,0
3.4791e+05,1.5005e+08,4,1328,1328,16.11,0.1,30,50,0,0
3.4836e+05,1.5016e+08,4,1328,1328,16.13,0.1,30,50,0,0
3.4881e+05,1.5027e+08,4,1328,1328,16.13,0.1,30,50,0,0
3.4926e+05,1.5038e+08,4,1328,1328,16.12,0.1,30,50,0,0
3.4972e+05,1.505e+08,4,1328,1328,16.12,0.1,30,50,0,0
3.5016e+05,1.506e+08,4,1328,1328,16.13,0.1,30,50,0,0
3.506e+05,1.5071e+08,4,1328,1328,16.13,0.1,30,50,0,0
3.5106e+05,1.5081e+08,4,1328,1328,16.13,0.1,30,50,0,0
3.5146e+05,1.5091e+08,4,1328,1328,16.13,0.09,30,50,0,0
3.5194e+05,1.5102e+08,4,1328,1328,16.13,0.1,30,50,0,0
3.5239e+05,1.5113e+08,4,1328,1328,16.13,0.1,30,50,0,0
3.5284e+05,1.5124e+08,4,1328,1328,16.13,0.1,30,50,0,0
3.5328e+05,1.5135e+08,4,1328,1328,16.13,0.1,30,50,0,0
3.5374e+05,1.5146e+08,4,1326,1314,16.14,0.1,30,50,0,0
3.5418e+05,1.5156e+08,4,1314,1328,16.14,0.1,30,50,0,0
3.5463e+05,1.5168e+08,4,1328,1328,16.14,0.1,30,50,0,0
3.5508e+05,1.5178e+08,4,1328,1328,16.14,0.1,30,50,0,0
3.5593e+05,1.5199e+08,4,1328,1328,16.14,0.1,30,50,0,0
3.5641e+05,1.5211e+08,4,1328,1328,16.14,0.1,30,50,0,0
3.5686e+05,1.5221e+08,4,1328,1328,16.14,0.1,30,50,0,0
3.573e+05,1.5232e+08,4,1328,1328,16.14,0.1,30,50,0,0
3.5775e+05,1.5243e+08,4,1328,1328,16.14,0.1,30,50,0,0
3.5824e+05,1.5255e+08,4,1328,1328,16.15,0.1,30,50,0,0
3.587e+05,1.5265e+08,4,1328,1328,16.15,0.1,30,50,0,0
3.5914e+05,1.5276e+08,4,1328,1328,16.14,0.1,30,50,0,0
3.5958e+05,1.5287e+08,4,1328,1328,16.14,0.1,30,50,0,0
3.6047e+05,1.5309e+08,4,1328,1328,16.15,0.1,30,50,0,0
3.6092e+05,1.532e+08,4,1328,1328,16.16,0.1,30,50,0,0
3.6132e+05,1.5329e+08,4,1328,1328,16.14,0.1,30,50,0,0
3.6224e+05,1.5351e+08,4,1306,271,16.17,0.01,30,50,0,0
3.6273e+05,1.5363e+08,4,244,0,16.17,0.02,30,50,0,0
3.6318e+05,1.5373e+08,4,0,0,16.17,0.03,30,50,0,0
3.6364e+05,1.5384e+08,4,0,0,16.17,0.03,30,50,0,0
3.6409e+05,1.5394e+08,4,0,0,16.17,0.03,30,50,0,0
3.6503e+05,1.5417e+08,4,0,0,16.17,0.03,30,50,0,0
3.6548e+05,1.5428e+08,4,0,0,16.18,0.03,30,50,0,0
3.6593e+05,1.5438e+08,4,0,0,16.17,0.03,30,50,0,0
3.6643e+05,1.5449e+08,4,0,0,16.18,0.03,30,50,0,0
3.6688e+05,1.546e+08,4,0,0,16.18,0.03,30,50,0,0
3.673e+05,1.5471e+08,4,0,0,16.19,0.03,30,50,0,0
3.6775e+05,1.5482e+08,4,0,0,16.19,0.03,30,50,0,0
3.687e+05,1.5504e+08,4,0,0,16.19,0.03,30,50,0,0
3.6964e+05,1.5526e+08,4,0,0,16.19,0.03,30,50,0,0
3.7009e+05,1.5537e+08,4,0,0,16.19,0.03,30,50,0,0
3.7055e+05,1.5548e+08,4,0,0,16.19,0.03,30,50,0,0
3.71e+05,1.5559e+08,4,0,0,16.2,0.03,30,50,0,0
3.7146e+05,1.557e+08,4,0,0,16.2,0.03,30,50,0,0
3.7191e+05,1.5581e+08,4,0,0,16.19,0.03,30,50,0,0
3.7232e+05,1.5591e+08,4,0,0,16.19,0.03,30,50,0,0
3.7282e+05,1.5603e+08,4,0,0,16.2,0.03,30,50,0,0
3.7327e+05,1.5613e+08,4,0,0,16.19,0.03,30,50,0,0
3.7376e+05,1.5625e+08,4,0,0,16.19,0.03,30,50,0,0
3.742e+05,1.5635e+08,4,0,0,16.2,0.03,30,50,0,0
3.7515e+05,1.5657e+08,4,0,0,16.2,0.03,30,50,0,0
3.7561e+05,1.5668e+08,4,0,0,16.2,0.03,30,50,0,0
3.7606e+05,1.5679e+08,4,0,0,16.2,0.03,30,50,0,0
3.7651e+05,1.569e+08,4,0,0,16.2,0.03,30,50,0,0
3.7696e+05,1.57e+08,4,0,0,16.2,0.03,30,50,0,0
