LineNo,TimeUS,Instance,RPM,RawRPM,Volt,Curr,Temp,CTot,MotTemp,Err
1694,65368208,1,0,0,16.81,0.04,26,0,0,0
2189,65486852,1,0,0,16.81,0.04,26,0,0,0
2648,65592872,1,0,0,16.81,0.04,26,0,0,0
3105,65701788,1,0,0,16.81,0.04,26,0,0,0
3562,65806181,1,0,0,16.81,0.04,26,0,0,0
4013,65911767,1,0,0,16.81,0.04,26,0,0,0
4516,66024283,1,0,0,16.81,0.04,26,0,0,0
4966,66131253,1,0,0,16.8,0.04,26,0,0,0
5461,66242846,1,0,0,16.81,0.04,26,0,0,0
5914,66349601,1,0,0,16.81,0.04,26,0,0,0
6369,66454447,1,0,0,16.8,0.04,26,0,0,0
6779,66552639,1,0,0,16.8,0.04,26,0,0,0
7277,66666633,1,0,0,16.8,0.04,26,0,0,0
7767,66776642,1,22,242,16.81,0.04,26,0,0,0
8223,66884647,1,249,328,16.79,0.06,26,0,0,0
8714,66991071,1,348,771,16.77,0.11,26,0,0,0
9171,67103398,1,808,1171,16.77,0.16,26,0,0,0
9627,67208430,1,1178,1285,16.78,0.12,26,0,0,0
10076,67311171,1,1286,1328,16.79,0.12,26,0,0,0
10574,67424628,1,1329,1342,16.79,0.11,26,0,0,0
11026,67533271,1,1342,1342,16.78,0.11,26,0,0,0
11478,67634772,1,1342,1357,16.78,0.11,26,0,0,0
11936,67746841,1,1357,1357,16.78,0.11,26,0,0,0
12876,67959516,1,1357,1357,16.78,0.11,26,0,0,0
13623,68179456,1,1357,1357,16.79,0.11,26,0,0,0
14066,68278303,1,1357,1357,16.79,0.11,26,0,0,0
14567,68392764,1,1357,1357,16.79,0.11,26,0,0,0
15029,68503046,1,1357,1357,16.79,0.11,26,0,0,0
15481,68605065,1,1357,1357,16.79,0.11,26,0,0,0
15937,68714753,1,1357,1357,16.79,0.11,26,0,0,0
16395,68817361,1,1357,1357,16.79,0.11,26,0,0,0
16890,68936499,1,1357,1357,16.79,0.11,26,0,0,0
17349,69041786,1,1357,1357,16.79,0.11,26,0,0,0
17799,69146808,1,1357,1357,16.79,0.11,26,0,0,0
18252,69248369,1,1357,1357,16.79,0.11,26,0,0,0
18753,69368775,1,1357,1357,16.78,0.11,26,0,0,0
19203,69475301,1,1357,1357,16.79,0.11,26,0,0,0
19656,69579152,1,1357,1357,16.78,0.11,26,0,0,0
20106,69684646,1,1357,1357,16.79,0.11,26,0,0,0
20608,69798074,1,1357,1357,16.78,0.11,26,0,0,0
21063,69906994,1,1357,1357,16.79,0.11,26,0,0,0
21516,70009258,1,1357,1357,16.79,0.11,26,0,0,0
21972,70119624,1,1357,1357,16.78,0.11,26,0,0,0
22468,70232334,1,1357,1357,16.79,0.11,26,0,0,0
22918,70335767,1,1357,1357,16.79,0.11,26,0,0,0
23374,70439837,1,1357,1357,16.78,0.11,26,0,0,0
23870,70555438,1,1357,1357,16.78,0.11,26,0,0,0
24324,70662031,1,1357,1357,16.78,0.11,26,0,0,0
24785,70770033,1,1357,1357,16.78,0.11,26,0,0,0
25207,70874833,1,1357,1357,16.79,0.11,26,0,0,0
25657,70977652,1,1357,1357,16.78,0.11,26,0,0,0
26154,71090913,1,1357,1357,16.79,0.11,26,0,0,0
26607,71196218,1,1366,1500,16.76,0.21,26,0,0,0
27057,71303647,1,1523,2042,16.64,0.51,26,0,0,0
27505,71410004,1,2074,2828,16.57,1.4,26,0,0,0
27958,71523169,1,2880,3414,16.52,1.61,26,0,0,0
28449,71635948,1,3482,4042,16.25,2.5,26,0,0,0
28898,71743236,1,4091,4571,15.86,4.78,26,0,0,0
29360,71853291,1,4643,5385,15.98,3.02,26,0,0,0
29807,71957009,1,5390,5471,16.12,2.73,26,1,0,0
30259,72065392,1,5468,5414,16.07,2.44,26,1,0,0
30746,72172738,1,5400,5157,16.13,1.92,26,1,0,0
31202,72283875,1,5151,5057,16.12,1.85,27,1,0,0
31703,72403439,1,5045,4942,16.16,1.56,27,1,0,0
32153,72512015,1,4915,4614,16.17,1.61,27,1,0,0
32603,72616494,1,4616,4671,16.04,1.63,27,1,0,0
33054,72725390,1,4696,4928,16,2.06,27,1,0,0
33509,72832415,1,4924,4857,15.98,1.75,27,1,0,0
33967,72946973,1,4858,4885,16.04,2.11,27,1,0,0
34467,73063429,1,4887,4914,15.99,1.74,26,1,0,0
34876,73165854,1,4917,4957,16.04,2.11,27,1,0,0
35331,73275829,1,4972,5100,15.98,2.17,27,1,0,0
35781,73381044,1,5106,5185,15.97,2.55,27,1,0,0
36280,73498226,1,5189,5228,15.97,2.13,27,1,0,0
36728,73604591,1,5213,5071,16.04,1.67,27,2,0,0
37179,73715608,1,5055,4914,15.91,1.78,27,2,0,0
37636,73821058,1,4912,4900,15.98,1.92,27,2,0,0
39893,74362154,1,4899,4642,15.98,1.4,27,2,0,0
40345,74471625,1,4643,4671,15.99,1.8,27,2,0,0
40840,74588477,1,4673,4700,15.87,1.93,27,2,0,0
41701,74801171,1,4703,4800,15.99,1.73,27,2,0,0
42146,74914732,1,4800,4800,15.89,2.13,27,2,0,0
42556,75013870,1,4801,4885,15.94,1.82,27,2,0,0
43042,75137840,1,4879,4828,15.94,1.87,27,2,0,0
43496,75245835,1,4830,4857,15.98,1.69,27,2,0,0
43901,75346610,1,4859,4914,15.97,1.86,27,2,0,0
44348,75455134,1,4916,4957,15.92,1.97,27,2,0,0
44791,75564874,1,4954,4928,15.94,1.96,27,2,0,0
45238,75677662,1,4937,5014,15.82,2.34,27,3,0,0
45690,75788396,1,5034,5242,15.88,2.37,27,3,0,0
46091,75890750,1,5251,5371,15.82,2.8,27,3,0,0
46540,75998780,1,5377,5528,15.84,2.9,27,3,0,0
46949,76104207,1,5527,5500,15.82,2.64,27,3,0,0
47882,76327907,1,5501,5528,15.9,2.4,27,3,0,0
48331,76433875,1,5512,5128,15.96,1.68,27,3,0,0
48775,76552413,1,5095,4885,16.07,1.69,27,3,0,0
49224,76656054,1,4859,4628,16.09,1.22,27,3,0,0
49664,76766244,1,4604,4400,16.08,1.28,27,3,0,0
50152,76885959,1,4373,4128,16.11,1.51,27,3,0,0
50561,76984000,1,4128,4200,16.1,2.06,27,3,0,0
51042,77100188,1,4197,4171,16.09,1.87,27,3,0,0
51492,77214066,1,4188,4342,16.08,2.13,27,3,0,0
51934,77322275,1,4339,4314,16.08,1.96,27,4,0,0
52341,77420136,1,4313,4300,16.08,1.57,27,4,0,0
52791,77531421,1,4297,4257,16.08,1.31,27,4,0,0
53240,77640456,1,4265,4457,15.98,1.69,27,4,0,0
53691,77755958,1,4457,4457,16.13,1.38,27,4,0,0
54097,77857148,1,4456,4442,16.05,1.58,27,4,0,0
54578,77972637,1,4451,4557,16.01,1.66,27,4,0,0
55027,78085625,1,4569,4671,16.07,1.54,27,4,0,0
55439,78185204,1,4670,4614,16.06,1.51,28,4,0,0
55886,78299428,1,4603,4500,16.07,1.33,27,4,0,0
56333,78405898,1,4502,4571,16.07,1.51,27,4,0,0
56809,78516440,1,4566,4500,16.01,1.41,27,4,0,0
57220,78618034,1,4500,4500,16.03,1.45,27,4,0,0
57671,78732891,1,4497,4457,16.08,1.51,28,4,0,0
58121,78838287,1,4457,4471,15.95,1.53,28,4,0,0
58570,78952179,1,4479,4600,16,1.75,28,4,0,0
59460,79173415,1,4606,4742,15.83,1.8,28,4,0,0
59908,79283838,1,4738,4700,15.88,1.72,28,4,0,0
60360,79395895,1,4709,4814,15.85,1.95,27,4,0,0
60764,79499002,1,4820,4900,15.79,1.85,28,5,0,0
61211,79604736,1,4899,4857,15.85,1.82,28,5,0,0
61701,79723313,1,4868,4985,15.84,1.8,28,5,0,0
62149,79830831,1,4979,4928,15.85,1.91,28,5,0,0
62554,79934377,1,4925,4871,15.85,1.83,27,5,0,0
62999,80042869,1,4869,4814,15.89,1.73,28,5,0,0
63440,80150872,1,4806,4700,15.86,2.14,28,5,0,0
63889,80257794,1,4700,4714,15.87,1.61,27,5,0,0
64338,80369865,1,4711,4685,15.88,2.18,27,5,0,0
64783,80480136,1,4687,4742,15.89,1.68,28,5,0,0
65232,80588617,1,4752,4857,15.91,1.81,28,5,0,0
65680,80697263,1,4852,4785,15.88,1.79,28,5,0,0
66125,80803232,1,4780,4685,15.91,1.69,28,5,0,0
66576,80916288,1,4694,4814,15.89,1.8,28,5,0,0
66986,81018615,1,4812,4785,15.88,1.79,28,5,0,0
67430,81127231,1,4786,4814,15.92,2.03,28,5,0,0
67887,81239824,1,4809,4742,15.91,1.91,28,5,0,0
68786,81467741,1,4755,5028,15.84,2.65,28,5,0,0
69225,81568190,1,5040,5314,15.97,2.5,28,6,0,0
69716,81689831,1,5306,5228,15.93,1.92,28,6,0,0
70126,81791569,1,5219,4785,15.94,1.08,28,6,0,0
70576,81904862,1,4717,4071,15.98,0.66,28,6,0,0
71024,82010218,1,4067,3814,15.8,2.73,28,6,0,0
71468,82120055,1,3824,4100,15.86,2.41,28,6,0,0
71914,82226295,1,4100,4128,15.75,2.22,28,6,0,0
72400,82344208,1,4117,4000,15.81,1.89,28,6,0,0
72883,82458229,1,4017,4257,15.83,3.2,28,6,0,0
73270,82563671,1,4257,4257,15.84,2.84,28,6,0,0
73721,82677603,1,4281,4628,15.8,1.75,28,6,0,0
74128,82779876,1,4602,4285,15.97,1.34,28,6,0,0
74575,82886823,1,4285,4357,15.98,1.17,28,6,0,0
75022,82995150,1,4350,4200,15.94,1.32,28,6,0,0
75475,83111429,1,4211,4328,15.98,1.78,28,6,0,0
75926,83219883,1,4351,4585,15.93,1.65,28,6,0,0
76330,83322760,1,4587,4628,15.97,1.67,28,6,0,0
77222,83548964,1,4628,4642,15.89,1.87,28,7,0,0
77674,83653285,1,4648,4714,15.88,1.58,28,7,0,0
78118,83759776,1,4716,4742,15.86,1.53,28,7,0,0
78529,83859265,1,4737,4528,15.91,1.32,28,7,0,0
78976,83969961,1,4524,4442,15.85,1.43,28,7,0,0
79417,84077863,1,4439,4400,15.76,1.27,28,7,0,0
79908,84199202,1,4394,4342,15.9,1.38,28,7,0,0
80307,84299767,1,4342,4357,15.85,1.35,28,7,0,0
80759,84405192,1,4355,4271,15.92,1.3,28,7,0,0
81241,84525828,1,4286,4500,15.86,2.04,28,7,0,0
81691,84634656,1,4509,4600,15.83,1.63,28,7,0,0
82101,84739809,1,4587,4414,15.88,1.17,28,7,0,0
82549,84849165,1,4390,4185,15.95,0.83,28,7,0,0
82993,84959440,1,4190,4285,15.86,2.06,28,7,0,0
83445,85066872,1,4286,4300,15.94,1.49,28,7,0,0
83849,85172313,1,4292,3957,15.97,1.61,28,7,0,0
84752,85397837,1,3956,3914,15.89,2.02,28,7,0,0
85194,85507788,1,3934,4100,15.97,2.17,28,7,0,0
85643,85615834,1,4137,4542,15.88,2.21,28,8,0,0
86086,85725664,1,4563,4842,15.83,2.35,28,8,0,0
86498,85829165,1,4844,4871,15.82,1.94,28,8,0,0
86942,85938789,1,4885,5114,15.82,2.36,28,8,0,0
87393,86048982,1,5104,5014,15.86,1.53,28,8,0,0
87835,86154846,1,4998,4671,15.83,1.4,28,8,0,0
88772,86384297,1,4648,4157,15.92,1.35,28,8,0,0
89176,86487809,1,4156,4142,15.86,1.74,28,8,0,0
89627,86596696,1,4151,4271,15.92,1.41,28,8,0,0
90063,86701275,1,4255,3928,15.91,1.38,28,8,0,0
90509,86807735,1,3928,3928,15.89,2.81,28,8,0,0
90963,86923035,1,3965,4471,15.79,2.4,28,8,0,0
91412,87031199,1,4472,4500,15.87,1.36,28,8,0,0
91861,87144425,1,4495,4457,15.85,1.39,28,8,0,0
92268,87244276,1,4457,4471,15.88,1.55,28,8,0,0
92748,87354800,1,4481,4685,15.8,2.15,28,8,0,0
93199,87467844,1,4693,4828,15.77,1.89,28,8,0,0
93644,87576250,1,4828,4828,15.8,1.8,28,9,0,0
94092,87684865,1,4825,4771,15.75,1.71,28,9,0,0
94540,87793285,1,4771,4771,15.8,1.55,28,9,0,0
94986,87903285,1,4758,4585,15.83,1.34,28,9,0,0
95444,88015376,1,4572,4457,15.79,1.45,28,9,0,0
95882,88122567,1,4457,4457,15.85,1.31,28,9,0,0
96341,88236856,1,4448,4357,15.86,1.36,28,9,0,0
96744,88338960,1,4358,4442,15.85,1.56,28,9,0,0
97191,88447156,1,4440,4357,15.67,1.56,28,9,0,0
98082,88669179,1,4359,4414,15.86,1.48,28,9,0,0
98536,88783207,1,4416,4442,15.77,1.66,28,9,0,0
98980,88891094,1,4444,4471,15.89,1.29,28,9,0,0
99389,88993251,1,4457,4328,15.88,1.7,28,9,0,0
99868,89105014,1,4328,4328,15.92,1.22,28,9,0,0
100280,89207863,1,4335,4514,15.89,1.84,28,9,0,0
100729,89319767,1,4515,4542,15.91,1.49,28,9,0,0
101180,89430267,1,4561,4742,15.94,1.7,28,9,0,0
101623,89537341,1,4747,4828,15.87,1.85,28,9,0,0
102074,89647864,1,4838,4971,15.86,2.07,28,9,0,0
102478,89750064,1,4972,5028,15.89,1.86,28,9,0,0
102966,89868502,1,5029,5042,15.86,1.93,28,10,0,0
103409,89971609,1,5037,4971,15.73,2.07,28,10,0,0
103858,90085283,1,4976,5042,15.76,2.06,28,10,0,0
104267,90185015,1,5043,5128,15.77,1.93,28,10,0,0
104707,90292802,1,5125,4985,15.75,2.09,28,10,0,0
105201,90410640,1,4980,4914,15.76,1.66,28,10,0,0
105567,90508067,1,4914,4928,15.66,1.97,28,10,0,0
106060,90624064,1,4933,4985,15.76,1.84,28,10,0,0
106505,90733993,1,4981,4942,15.66,1.87,28,10,0,0
106951,90840404,1,4938,4900,15.8,1.74,28,10,0,0
107357,90943071,1,4896,4685,15.81,1.33,28,10,0,0
107848,91064949,1,4674,4600,15.87,1.21,28,10,0,0
108250,91161741,1,4598,4500,15.89,1.56,28,10,0,0
108733,91276897,1,4501,4542,15.83,1.76,28,10,0,0
109179,91383428,1,4548,4928,15.83,1.93,28,10,0,0
109627,91494022,1,4928,4957,15.79,2.09,28,10,0,0
110076,91603849,1,4963,5071,15.85,2.06,28,10,0,0
110522,91714410,1,5082,5214,15.82,2.22,28,10,0,0
110972,91822894,1,5198,5014,15.77,1.78,28,11,0,0
111454,91938771,1,5017,5057,15.79,1.85,28,11,0,0
111906,92051993,1,5031,4842,15.74,1.72,28,11,0,0
112350,92160883,1,4844,4871,15.79,1.7,28,11,0,0
112755,92259749,1,4873,4928,15.79,1.81,28,11,0,0
113687,92487280,1,4910,4557,15.8,1.38,28,11,0,0
114093,92586167,1,4556,4528,15.87,1.48,28,11,0,0
114576,92699405,1,4533,4600,15.82,1.31,28,11,0,0
115025,92808506,1,4603,4657,15.82,1.55,28,11,0,0
115473,92921761,1,4667,4771,15.85,1.68,28,11,0,0
115922,93026971,1,4788,5057,15.83,2,28,11,0,0
116364,93135632,1,5059,5085,15.77,1.93,28,11,0,0
116815,93246405,1,5079,5028,15.74,1.76,28,11,0,0
117213,93345822,1,5028,5042,15.66,2.1,28,11,0,0
117702,93460995,1,5046,5142,15.76,1.92,28,11,0,0
118153,93573775,1,5125,4957,15.75,1.77,28,11,0,0
119046,93790394,1,4962,5114,15.72,2.01,28,11,0,0
119448,93890394,1,5118,5271,15.67,2.49,28,12,0,0
119898,93999283,1,5264,5128,15.66,2.11,28,12,0,0
120342,94109191,1,5125,5042,15.78,1.8,28,12,0,0
121683,94439749,1,5044,5214,15.74,2.39,28,12,0,0
122128,94551432,1,5213,5200,15.76,1.92,28,12,0,0
123018,94761992,1,5195,5028,15.71,2.01,28,12,0,0
123473,94873253,1,5028,5042,15.72,1.98,28,12,0,0
123921,94986044,1,5049,5142,15.73,2.12,28,12,0,0
124333,95094032,1,5142,5142,15.72,2.15,28,12,0,0
124774,95196192,1,5142,5142,15.7,2.12,28,12,0,0
125219,95307164,1,5140,5100,15.7,2.11,28,12,0,0
125668,95415745,1,5100,5100,15.75,1.98,28,12,0,0
126116,95526415,1,5106,5200,15.72,2.39,28,12,0,0
126562,95631950,1,5211,5442,15.77,2.13,28,13,0,0
127016,95745662,1,5434,5242,15.66,2.47,28,13,0,0
127457,95851297,1,5244,5300,15.7,2.33,28,13,0,0
127910,95962921,1,5296,5257,15.76,1.82,28,13,0,0
128358,96068519,1,5252,5085,15.71,2,28,13,0,0
128812,96182009,1,5084,5071,15.69,1.87,28,13,0,0
129215,96286244,1,5069,5014,15.74,1.84,28,13,0,0
129667,96398169,1,5025,5128,15.67,2.1,28,13,0,0
130061,96498026,1,5127,5100,15.71,2.11,28,13,0,0
130520,96609389,1,5101,5157,15.67,2.14,28,13,0,0
130961,96718151,1,5156,5142,15.75,2.05,28,13,0,0
131416,96828833,1,5139,5100,15.67,2.08,28,13,0,0
131856,96936759,1,5097,5057,15.63,1.82,28,13,0,0
132307,97045253,1,5059,5100,15.65,2.18,28,13,0,0
133241,97272845,1,5110,5271,15.64,2.32,28,13,0,0
133642,97373778,1,5273,5300,15.65,2.35,28,14,0,0
134089,97486609,1,5297,5271,15.63,2.09,28,14,0,0
134500,97588023,1,5265,5185,15.62,2.22,28,14,0,0
134907,97693238,1,5184,5157,15.67,2.04,28,14,0,0
135395,97808264,1,5143,5028,15.7,1.82,28,14,0,0
135843,97918196,1,5025,5000,15.79,1.74,28,14,0,0
136293,98026632,1,4991,4900,15.62,1.95,28,14,0,0
136699,98130251,1,4889,4757,15.77,1.45,28,14,0,0
137147,98238236,1,4755,4742,15.75,1.63,28,14,0,0
137596,98352201,1,4735,4671,15.74,1.37,28,14,0,0
138004,98454266,1,4669,4600,15.65,1.4,28,14,0,0
138526,98575770,1,4596,4542,15.69,1.43,28,14,0,0
138973,98688285,1,4537,4500,15.62,1.74,28,14,0,0
139420,98795293,1,4501,4514,15.67,1.54,28,14,0,0
139862,98900027,1,4517,4585,15.7,1.87,28,14,0,0
140314,99008266,1,4590,4728,15.7,1.69,28,14,0,0
140761,99128236,1,4738,4828,15.71,1.69,28,14,0,0
141173,99224237,1,4831,4914,15.69,1.82,28,15,0,0
141616,99339035,1,4910,4871,15.75,2.06,28,15,0,0
142065,99450432,1,4902,5100,15.66,2.05,28,15,0,0
142473,99547877,1,5100,5142,15.71,2.48,28,15,0,0
142923,99655746,1,5145,5357,15.72,2.5,28,15,0,0
143364,99763835,1,5356,5342,15.73,2.55,28,15,0,0
143812,99873554,1,5344,5485,15.7,2.51,28,15,0,0
144742,100102813,1,5482,5442,15.69,2.35,28,15,0,0
145147,100205984,1,5424,5285,15.7,2.32,28,15,0,0
145633,100322042,1,5282,5257,15.7,2.43,28,15,0,0
146044,100425664,1,5251,5200,15.65,2.38,28,15,0,0
146490,100531973,1,5203,5242,15.61,2.28,28,15,0,0
146939,100645228,1,5240,5228,15.61,2.49,28,15,0,0
147794,100860856,1,5229,5257,15.7,2.2,28,16,0,0
148206,100964228,1,5254,5228,15.69,2.26,28,16,0,0
148657,101071436,1,5229,5242,15.7,2.34,28,16,0,0
149056,101174880,1,5238,5171,15.7,2.25,28,16,0,0
149543,101294171,1,5156,5028,15.74,1.85,28,16,0,0
149983,101390022,1,5045,5385,15.69,2.75,28,16,0,0
150835,101604202,1,5386,5585,15.67,2.99,28,16,0,0
151315,101717962,1,5589,5685,15.76,2.73,28,16,0,0
151765,101826512,1,5685,5700,15.75,2.78,28,16,0,0
152211,101938274,1,5697,5671,15.67,2.68,28,16,0,0
153111,102162137,1,5672,5728,15.74,2.53,28,16,0,0
153561,102273865,1,5723,5685,15.68,2.73,28,16,0,0
154404,102481773,1,5683,5628,15.72,2.51,28,17,0,0
154859,102593800,1,5626,5614,15.67,2.67,28,17,0,0
155299,102703743,1,5601,5442,15.69,2.51,28,17,0,0
155750,102812502,1,5433,5342,15.71,2.35,28,17,0,0
156188,102919996,1,5339,5300,15.66,2.26,28,17,0,0
157046,103134430,1,5294,5042,15.68,1.8,28,17,0,0
157495,103243039,1,5038,4871,15.66,1.88,28,17,0,0
158391,103467670,1,4873,4928,15.69,1.83,28,17,0,0
158802,103575668,1,4929,4942,15.7,1.78,28,17,0,0
159246,103687380,1,4938,4900,15.61,1.61,28,17,0,0
159697,103797822,1,4902,4928,15.67,1.69,28,17,0,0
160542,104003187,1,4929,4971,15.65,1.93,28,18,0,0
160990,104115135,1,4975,5028,15.62,2.15,28,18,0,0
161440,104226599,1,5034,5128,15.62,2.33,28,18,0,0
161888,104340102,1,5159,5500,15.7,2.53,28,18,0,0
162336,104448833,1,5484,5328,15.53,2.55,28,18,0,0
162741,104552877,1,5350,5628,15.61,3.14,28,18,0,0
163194,104664042,1,5630,5657,15.55,3.12,28,18,0,0
164080,104888304,1,5669,5942,15.56,3.27,28,18,0,0
164484,104988046,1,5944,6042,15.57,3.41,28,18,0,0
164931,105099650,1,6007,5585,15.54,2.39,28,18,0,0
165380,105209381,1,5579,5528,15.67,2.41,28,18,0,0
165822,105318003,1,5513,5371,15.64,2.2,28,19,0,0
166269,105426071,1,5366,5300,15.61,2.56,28,19,0,0
166715,105536034,1,5293,5214,15.6,2.36,28,19,0,0
167167,105648134,1,5227,5357,15.6,2.42,28,19,0,0
167566,105750961,1,5352,5257,15.55,2.24,28,19,0,0
168064,105877326,1,5239,5057,15.64,1.78,28,19,0,0
168472,105979058,1,5045,4900,15.65,1.6,28,19,0,0
168877,106083617,1,4894,4785,15.6,1.83,28,19,0,0
169370,106202232,1,4786,4800,15.64,1.81,28,19,0,0
169771,106306892,1,4820,5071,15.66,2.13,28,19,0,0
170219,106417054,1,5066,5000,15.62,2.23,28,19,0,0
170626,106520964,1,5005,5142,15.64,2.27,28,19,0,0
171077,106635878,1,5150,5242,15.51,2.54,28,19,0,0
171476,106736983,1,5250,5428,15.63,2.66,28,19,0,0
171927,106848646,1,5415,5228,15.66,2.14,28,19,0,0
172374,106962871,1,5220,5114,15.58,2.05,28,19,0,0
172824,107075198,1,5110,5085,15.64,2.04,28,20,0,0
173228,107173789,1,5079,5000,15.64,1.92,28,20,0,0
173674,107278044,1,4999,4985,15.69,1.7,28,20,0,0
174115,107389022,1,4980,4771,15.71,1.39,28,20,0,0
174564,107501509,1,4758,4657,15.69,1.43,28,20,0,0
175011,107608611,1,4654,4628,15.76,1.55,28,20,0,0
175408,107706276,1,4623,4457,15.67,1.52,28,20,0,0
175901,107824969,1,4461,4528,15.56,1.97,28,20,0,0
176311,107929394,1,4528,4542,15.7,1.57,28,20,0,0
176758,108035765,1,4549,4714,15.73,1.86,28,20,0,0
177202,108144987,1,4714,4728,15.73,1.84,28,20,0,0
177646,108252626,1,4726,4700,15.66,1.86,28,20,0,0
178088,108365247,1,4718,4900,15.67,2.02,28,20,0,0
178529,108469439,1,4898,4871,15.57,2.02,28,20,0,0
178977,108584489,1,4885,5014,15.64,2.17,28,20,0,0
179381,108686451,1,5019,5128,15.64,2.3,28,20,0,0
179874,108805406,1,5128,5128,15.62,2.29,28,20,0,0
180281,108907852,1,5137,5271,15.57,2.29,28,21,0,0
180732,109015740,1,5271,5271,15.61,2.45,28,21,0,0
181212,109138807,1,5269,5257,15.61,2.22,28,21,0,0
181652,109240613,1,5249,5171,15.67,2.07,28,21,0,0
182102,109355220,1,5181,5257,15.65,2.06,28,21,0,0
182502,109453783,1,5248,5085,15.61,1.92,28,21,0,0
182952,109563360,1,5083,4985,15.66,2.27,28,21,0,0
183433,109684218,1,4986,5085,15.64,2.34,28,21,0,0
183881,109789865,1,5094,5214,15.66,2.21,28,21,0,0
184286,109890973,1,5211,5042,15.67,1.9,28,21,0,0
184735,110002549,1,5041,5028,15.63,2.01,28,21,0,0
185182,110117068,1,5026,4985,15.69,2.15,28,21,0,0
185630,110225597,1,4993,5157,15.68,2.35,28,21,0,0
186077,110335801,1,5174,5342,15.64,2.45,28,21,0,0
186484,110435159,1,5340,5314,15.62,2.39,28,21,0,0
186936,110551656,1,5321,5400,15.7,2.55,28,22,0,0
187384,110655404,1,5401,5428,15.63,2.35,28,22,0,0
187823,110768869,1,5409,5228,15.72,2.11,28,22,0,0
188270,110878511,1,5233,5285,15.63,2.27,28,22,0,0
188718,110986413,1,5276,5185,15.67,2.34,28,22,0,0
189166,111100255,1,5197,5285,15.66,2.38,28,22,0,0
189573,111200768,1,5289,5328,15.61,2.56,28,22,0,0
190017,111311633,1,5334,5400,15.66,2.26,28,22,0,0
190462,111417230,1,5397,5371,15.64,2.42,28,22,0,0
190867,111520822,1,5369,5300,15.71,2.39,28,22,0,0
191317,111631964,1,5300,5342,15.7,2.5,28,22,0,0
191758,111741764,1,5344,5400,15.67,2.39,28,22,0,0
192205,111849294,1,5398,5357,15.69,2.3,28,22,0,0
192696,111970828,1,5355,5328,15.67,2.16,28,22,0,0
193145,112075748,1,5321,5242,15.66,1.87,28,22,0,0
193585,112184237,1,5232,5042,15.7,1.66,28,23,0,0
193987,112285415,1,5038,4800,15.67,1.66,28,23,0,0
194477,112403871,1,4796,4742,15.66,1.5,28,23,0,0
194922,112513172,1,4716,4471,15.69,1.35,28,23,0,0
195366,112620217,1,4463,4357,15.69,1.8,28,23,0,0
195769,112723856,1,4353,4200,15.66,1.51,28,23,0,0
196258,112838869,1,4202,4228,15.57,2.3,28,23,0,0
196668,112944059,1,4223,4157,15.66,1.83,28,23,0,0
197117,113056196,1,4153,4114,15.59,1.56,28,23,0,0
197520,113160256,1,4114,4128,15.55,1.82,28,23,0,0
197970,113270416,1,4130,4271,15.7,1.58,28,23,0,0
198412,113377266,1,4274,4357,15.67,1.46,28,23,0,0
198868,113487892,1,4356,4342,15.66,1.62,28,23,0,0
199310,113598797,1,4347,4471,15.7,1.54,28,23,0,0
199760,113713259,1,4461,4357,15.7,1.14,28,23,0,0
200610,113922614,1,4358,4571,15.64,1.54,28,23,0,0
201107,114038985,1,4563,4485,15.65,1.45,28,23,0,0
201507,114141751,1,4492,4671,15.6,1.8,28,23,0,0
201951,114247844,1,4669,4657,15.65,1.7,28,23,0,0
202846,114466632,1,4657,4671,15.62,1.75,28,24,0,0
203246,114570379,1,4669,4614,15.57,1.68,28,24,0,0
203697,114684388,1,4598,4442,15.61,1.41,28,24,0,0
204147,114797263,1,4429,4242,15.61,1.49,28,24,0,0
204591,114909630,1,4236,4171,15.59,1.62,28,24,0,0
205040,115015633,1,4165,4057,15.63,1.91,28,24,0,0
205487,115126877,1,4055,4042,15.44,3.14,28,24,0,0
205894,115228654,1,4058,4357,15.6,2.38,28,24,0,0
206345,115343159,1,4378,4600,15.66,1.68,28,24,0,0
206795,115452044,1,4588,4471,15.62,1.27,28,24,0,0
208091,115778807,1,4470,4428,15.67,1.74,28,24,0,0
208529,115884476,1,4427,4414,15.66,1.77,28,24,0,0
208984,115994931,1,4424,4571,15.63,1.68,28,24,0,0
209387,116097012,1,4572,4628,15.47,1.98,28,24,0,0
209879,116214958,1,4631,4671,15.6,1.74,28,24,0,0
210323,116323443,1,4676,4757,15.63,1.69,28,24,0,0
210773,116433873,1,4749,4642,15.57,1.48,28,25,0,0
211176,116536994,1,4640,4585,15.66,1.61,28,25,0,0
211666,116654436,1,4586,4600,15.61,1.55,28,25,0,0
212070,116756346,1,4592,4485,15.62,1.46,28,25,0,0
212519,116865868,1,4486,4500,15.6,1.69,28,25,0,0
212962,116973991,1,4506,4571,15.65,1.5,28,25,0,0
213368,117080962,1,4580,4657,15.57,1.79,28,25,0,0
213813,117189747,1,4653,4614,15.65,1.51,28,25,0,0
214255,117297846,1,4603,4500,15.69,1.27,28,25,0,0
214700,117403864,1,4502,4657,15.57,1.4,28,25,0,0
215108,117510385,1,4657,4671,15.64,1.62,28,25,0,0
215600,117630154,1,4671,4671,15.63,1.57,28,25,0,0
216486,117849628,1,4676,4785,15.6,1.53,28,25,0,0
216892,117948397,1,4784,4771,15.61,1.49,28,25,0,0
217340,118061009,1,4776,4842,15.52,1.94,28,25,0,0
217782,118175285,1,4833,4757,15.6,1.84,28,25,0,0
218632,118377747,1,4753,4585,15.64,1.41,28,25,0,0
218950,118482855,1,4579,4471,15.64,1.24,28,25,0,0
219387,118590651,1,4473,4514,15.69,1.48,28,25,0,0
219870,118714432,1,4500,4428,15.66,1.75,28,26,0,0
220282,118810759,1,4438,4585,15.66,1.56,28,26,0,0
220728,118920016,1,4590,4642,15.61,1.59,28,26,0,0
221176,119028007,1,4643,4657,15.6,1.49,28,26,0,0
221610,119130670,1,4656,4642,15.55,1.47,28,26,0,0
222498,119352260,1,4643,4685,15.66,1.54,28,26,0,0
222950,119465147,1,4680,4642,15.65,1.41,28,26,0,0
223401,119578136,1,4643,4657,15.66,1.53,28,26,0,0
224284,119794437,1,4661,4742,15.63,1.5,28,26,0,0
225138,120001257,1,4739,4528,15.65,1.39,28,26,0,0
226029,120225150,1,4530,4585,15.6,1.51,28,26,0,0
226438,120332423,1,4583,4500,15.66,1.2,28,26,0,0
226884,120437460,1,4497,4257,15.64,1.41,28,26,0,0
227333,120551732,1,4270,4414,15.61,1.51,28,26,0,0
228633,120873384,1,4415,4742,15.55,1.85,28,26,0,0
229082,120986465,1,4758,4914,15.58,1.85,28,27,0,0
229488,121087883,1,4912,4842,15.67,1.15,28,27,0,0
229972,121200399,1,4838,4757,15.67,1.49,28,27,0,0
230413,121312989,1,4751,4528,15.66,1.52,28,27,0,0
230866,121423833,1,4520,4371,15.7,1.37,28,27,0,0
231352,121542207,1,4364,4300,15.73,1.33,28,27,0,0
231761,121643372,1,4307,4385,15.68,1.62,28,27,0,0
232694,121864858,1,4386,4428,15.73,1.39,28,27,0,0
233140,121973410,1,4429,4442,15.7,1.55,28,27,0,0
233547,122073450,1,4443,4514,15.67,1.63,28,27,0,0
233993,122184257,1,4516,4642,15.69,1.55,28,27,0,0
234470,122295799,1,4631,4414,15.76,1.13,28,27,0,0
234926,122409999,1,4414,4414,15.67,1.63,28,27,0,0
235370,122521208,1,4416,4442,15.64,1.45,28,27,0,0
235820,122632430,1,4433,4357,15.69,1.38,28,27,0,0
236260,122739163,1,4365,4471,15.51,1.86,28,27,0,0
237565,123063396,1,4476,4714,15.55,1.72,28,27,0,0
238006,123171023,1,4717,4771,15.54,1.65,28,27,0,0
238453,123284041,1,4785,4914,15.52,1.84,28,28,0,0
238857,123384030,1,4914,4957,15.55,1.95,28,28,0,0
239308,123496134,1,4967,5114,15.6,2.05,28,28,0,0
239756,123606039,1,5121,5228,15.55,2.47,28,28,0,0
240205,123716637,1,5243,5414,15.5,2.53,28,28,0,0
240656,123828365,1,5432,5614,15.56,3.01,28,28,0,0
241100,123936177,1,5616,5642,15.52,2.57,28,28,0,0
241546,124041253,1,5644,5700,15.51,3.09,28,28,0,0
241999,124156948,1,5701,5714,15.6,2.99,28,28,0,0
242444,124261889,1,5704,5557,15.58,2.61,28,28,0,0
242885,124371670,1,5562,5628,15.58,2.8,28,28,0,0
243337,124484628,1,5625,5600,15.59,2.31,28,28,0,0
244185,124693060,1,5590,5228,15.62,1.93,28,29,0,0
245039,124905259,1,5226,4985,15.64,1.88,28,29,0,0
245526,125020151,1,4986,5000,15.63,2.29,28,29,0,0
245926,125121882,1,4997,4900,15.6,1.92,28,29,0,0
246372,125226873,1,4898,4842,15.64,2.15,28,29,0,0
246865,125350640,1,4872,5171,15.64,2.3,28,29,0,0
247268,125446313,1,5170,5157,15.56,2.43,28,29,0,0
247711,125557271,1,5168,5328,15.58,2.4,28,29,0,0
248159,125665385,1,5330,5357,15.61,2.25,28,29,0,0
248597,125770201,1,5350,5200,15.59,2.3,28,29,0,0
249049,125884254,1,5205,5328,15.63,2.38,28,29,0,0
249496,125991482,1,5327,5271,15.62,2.22,28,29,0,0
249940,126103063,1,5256,5128,15.48,2.28,28,29,0,0
250387,126211474,1,5118,4985,15.62,1.63,28,29,0,0
250833,126325836,1,4986,5000,15.67,1.88,28,30,0,0
251283,126435292,1,5002,5028,15.56,1.87,28,30,0,0
251688,126537817,1,5027,5014,15.58,1.88,28,30,0,0
252136,126645874,1,5020,5114,15.53,2.08,28,30,0,0
252580,126757005,1,5102,4985,15.62,1.72,28,30,0,0
253027,126864255,1,4987,5028,15.57,1.96,28,30,0,0
253475,126973597,1,5030,5071,15.59,2.03,28,30,0,0
253925,127089646,1,5075,5114,15.59,1.89,28,30,0,0
254328,127188199,1,5119,5171,15.57,2.27,28,30,0,0
254773,127298988,1,5181,5285,15.5,2.46,28,30,0,0
255220,127406164,1,5294,5442,15.56,2.15,28,30,0,0
255623,127511012,1,5430,5300,15.54,2.11,28,30,0,0
256074,127621755,1,5300,5300,15.52,2.35,28,30,0,0
256513,127728256,1,5287,5114,15.52,2,28,30,0,0
256920,127828915,1,5114,5114,15.52,1.98,28,30,0,0
257445,127954650,1,5108,5042,15.52,1.7,28,30,0,0
257855,128052009,1,5035,4742,15.6,1.65,28,30,0,0
258297,128162877,1,4738,4642,15.52,1.56,28,31,0,0
258774,128275244,1,4636,4571,15.5,1.75,28,31,0,0
259224,128383750,1,4568,4542,15.52,1.51,28,31,0,0
259665,128501433,1,4534,4471,15.58,1.42,28,31,0,0
260068,128598161,1,4469,4385,15.61,1.04,28,31,0,0
260515,128706255,1,4381,4300,15.6,1.53,28,31,0,0
260961,128814304,1,4304,4385,15.63,1.7,28,31,0,0
261370,128920860,1,4388,4528,15.61,1.83,28,31,0,0
261820,129029642,1,4529,4600,15.68,1.47,28,31,0,0
262271,129146818,1,4587,4471,15.63,1.82,28,31,0,0
262675,129240875,1,4468,4314,15.72,1.49,28,31,0,0
263160,129360414,1,4312,4300,15.8,1.43,28,31,0,0
263608,129470145,1,4292,4114,15.66,1.65,28,31,0,0
264458,129684980,1,4115,4300,15.77,2.35,28,31,0,0
264905,129789188,1,4300,4342,15.71,1.73,28,31,0,0
265386,129910877,1,4342,4342,15.73,1.2,28,31,0,0
265796,130011412,1,4342,4342,15.62,1.46,28,31,0,0
266283,130130749,1,4342,4342,15.67,1.77,28,31,0,0
267176,130346366,1,4343,4385,15.67,1.2,28,32,0,0
267621,130451786,1,4387,4414,15.67,1.45,28,32,0,0
268027,130556568,1,4423,4528,15.66,1.72,28,32,0,0
268478,130663474,1,4535,4742,15.66,1.86,28,32,0,0
268919,130775052,1,4739,4628,15.62,1.46,28,32,0,0
269415,130900521,1,4629,4642,15.67,1.3,28,32,0,0
269821,130998716,1,4634,4571,15.63,1.38,28,32,0,0
270266,131109013,1,4571,4571,15.67,1.7,28,32,0,0
270712,131216182,1,4562,4457,15.59,1.46,28,32,0,0
271121,131320957,1,4457,4457,15.66,1.42,28,32,0,0
271569,131430800,1,4455,4428,15.61,1.7,28,32,0,0
272016,131542279,1,4425,4357,15.57,1.62,28,32,0,0
272468,131654807,1,4365,4485,15.6,1.74,28,32,0,0
272912,131763995,1,4501,4685,15.63,1.62,28,32,0,0
273361,131872323,1,4685,4685,15.67,1.48,28,32,0,0
273810,131984951,1,4685,4685,15.64,1.56,28,32,0,0
274746,132209901,1,4676,4500,15.6,1.86,28,32,0,0
275144,132308815,1,4495,4400,15.57,1.36,28,32,0,0
275595,132418595,1,4413,4600,15.51,1.6,28,32,0,0
276035,132528425,1,4616,4771,15.51,1.65,28,33,0,0
276481,132637146,1,4787,4957,15.5,1.93,28,33,0,0
276915,132741411,1,4960,5028,15.54,2.16,28,33,0,0
277368,132851050,1,5022,4914,15.52,1.6,28,33,0,0
277816,132963618,1,4905,4800,15.57,1.47,28,33,0,0
278271,133080795,1,4780,4671,15.6,1.49,28,33,0,0
278632,133172601,1,4669,4585,15.63,1.54,28,33,0,0
279075,133283186,1,4582,4528,15.55,1.48,28,33,0,0
279525,133390433,1,4531,4600,15.63,1.66,28,33,0,0
280417,133609304,1,4592,4385,15.66,1.52,28,33,0,0
280822,133716444,1,4384,4371,15.66,1.89,28,33,0,0
281274,133824456,1,4380,4514,15.64,1.97,28,33,0,0
281675,133927050,1,4512,4457,15.64,1.65,28,33,0,0
282206,134047458,1,4454,4428,15.68,1.77,28,33,0,0
282610,134150181,1,4427,4400,15.64,1.41,28,33,0,0
283057,134258739,1,4398,4371,15.67,1.57,28,33,0,0
283503,134369257,1,4362,4242,15.6,1.27,28,33,0,0
283952,134475608,1,4247,4314,15.63,2,28,33,0,0
284394,134586597,1,4322,4414,15.61,1.5,28,33,0,0
284790,134683265,1,4411,4328,15.6,1.39,28,33,0,0
285242,134793818,1,4329,4357,15.61,1.47,28,34,0,0
285690,134906620,1,4362,4414,15.63,1.78,28,34,0,0
286139,135016038,1,4415,4442,15.63,1.72,28,34,0,0
286579,135124969,1,4446,4514,15.62,2.01,28,34,0,0
287030,135235977,1,4509,4471,15.57,1.63,28,34,0,0
287478,135345269,1,4501,4814,15.57,1.8,28,34,0,0
287880,135445014,1,4816,4971,15.55,1.88,28,34,0,0
288326,135555732,1,4973,5014,15.51,2.12,28,34,0,0
288776,135665235,1,5009,4957,15.57,1.71,28,34,0,0
289220,135775035,1,4961,5028,15.44,2.22,28,34,0,0
290074,135989188,1,5028,5028,15.41,2.14,28,34,0,0
290482,136098380,1,5026,4985,15.52,1.75,28,34,0,0
290972,136220054,1,4978,4914,15.57,1.97,28,34,0,0
291380,136319002,1,4914,4928,15.59,1.65,28,34,0,0
291829,136427241,1,4912,4685,15.54,1.54,28,34,0,0
292238,136532837,1,4683,4628,15.54,1.81,28,34,0,0
292723,136643854,1,4631,4714,15.49,1.69,28,34,0,0
293164,136752375,1,4711,4657,15.57,1.64,28,35,0,0
293611,136865481,1,4648,4557,15.57,1.54,28,35,0,0
294054,136976151,1,4565,4657,15.52,1.7,28,35,0,0
294505,137091951,1,4670,4800,15.61,1.64,28,35,0,0
294909,137186816,1,4790,4614,15.55,1.53,28,35,0,0
295805,137405866,1,4603,4257,15.64,1.48,28,35,0,0
296205,137509418,1,4258,4400,15.63,1.94,28,35,0,0
296733,137636808,1,4436,4600,15.61,1.83,28,35,0,0
297139,137742851,1,4603,4642,15.54,2.05,28,35,0,0
297624,137851317,1,4644,4685,15.52,1.65,28,35,0,0
298068,137962142,1,4684,4671,15.6,1.52,28,35,0,0
298486,138071896,1,4678,4757,15.61,1.73,28,35,0,0
298887,138168356,1,4757,4785,15.63,1.94,28,35,0,0
299409,138289763,1,4786,4828,15.6,1.57,28,35,0,0
299856,138398203,1,4823,4785,15.52,2,28,35,0,0
300256,138499272,1,4786,4842,15.58,1.81,28,35,0,0
300744,138614961,1,4838,4800,15.61,1.94,28,35,0,0
301148,138715600,1,4798,4728,15.61,1.8,28,35,0,0
301605,138826073,1,4728,4757,15.58,1.41,28,36,0,0
302089,138945194,1,4763,4828,15.55,1.92,28,36,0,0
302939,139156038,1,4828,4871,15.58,1.75,28,36,0,0
303389,139265988,1,4870,4857,15.57,1.78,28,36,0,0
303830,139373960,1,4860,4942,15.61,1.94,28,36,0,0
304277,139489230,1,4936,4885,15.49,2.33,28,36,0,0
304728,139599024,1,4886,4900,15.61,1.97,28,36,0,0
305128,139699596,1,4898,4885,15.51,1.95,28,36,0,0
305578,139808653,1,4879,4814,15.61,1.75,28,36,0,0
306018,139916384,1,4817,4885,15.64,2.18,28,36,0,0
306509,140032695,1,4866,4671,15.61,2.06,28,36,0,0
306916,140136734,1,4670,4657,15.62,1.76,28,36,0,0
307366,140245261,1,4656,4600,15.65,1.94,28,36,0,0
307811,140357404,1,4616,4857,15.61,2.18,28,36,0,0
308260,140466161,1,4858,4871,15.64,2.16,28,36,0,0
308662,140568858,1,4871,4871,15.59,2.09,28,36,0,0
309150,140687493,1,4867,4828,15.6,1.93,28,37,0,0
309604,140799378,1,4843,5000,15.62,1.96,28,37,0,0
310044,140904775,1,4944,4414,16.16,0.6899999999999999,28,37,0,0
310493,141015248,1,4301,3171,15.84,1.84,28,37,0,0
310938,141126850,1,3170,3157,16.08,1.12,28,37,0,0
311833,141346001,1,3144,2885,16.01,0.59,28,37,0,0
312279,141451259,1,2884,2871,16.16,0.26,28,37,0,0
312680,141551281,1,2860,2642,16.01,0.54,28,37,0,0
313128,141660439,1,2621,2342,16.14,0.19,28,37,0,0
313571,141771765,1,2335,2242,16.14,0.28,28,37,0,0
314020,141886666,1,2242,2242,16.14,0.2,28,37,0,0
314432,141988810,1,2233,2028,16.14,0.17,28,37,0,0
314915,142104215,1,2029,2042,16.11,0.22,28,37,0,0
315767,142316807,1,2040,2000,16.14,0.21,28,37,0,0
316214,142424670,1,1998,1971,16.14,0.18,28,37,0,0
316697,142540590,1,1969,1957,16.16,0.19,28,37,0,0
317142,142646859,1,1957,1957,16.16,0.17,28,37,0,0
317547,142748240,1,1957,1971,16.13,0.21,28,37,0,0
318036,142863286,1,1971,1971,16.15,0.19,28,37,0,0
318480,142970018,1,1969,1942,16.15,0.2,28,37,0,0
318929,143075471,1,1943,1971,16.17,0.19,28,37,0,0
319371,143184573,1,1970,1957,16.15,0.2,28,37,0,0
320303,143402777,1,1949,1785,16.25,0.06,28,37,0,0
320707,143505052,1,1779,1442,16.24,0.01,28,37,0,0
321196,143620536,1,1433,1342,16.23,0.09,28,37,0,0
321636,143727157,1,1339,1314,16.23,0.09999999,28,37,0,0
322089,143835634,1,1314,1314,16.23,0.09999999,28,37,0,0
322536,143947236,1,1314,1314,16.23,0.09999999,28,37,0,0
323390,144155859,1,1314,1314,16.23,0.09999999,28,37,0,0
323836,144260824,1,1314,1314,16.24,0.09999999,28,37,0,0
324766,144483619,1,1314,1314,16.25,0.11,28,37,0,0
325177,144588000,1,1314,1314,16.25,0.11,28,37,0,0
325577,144685662,1,1314,1314,16.25,0.09999999,28,37,0,0
326062,144795770,1,1314,1314,16.25,0.11,28,37,0,0
326513,144907265,1,1314,1314,16.26,0.11,28,37,0,0
326959,145010404,1,1314,1314,16.26,0.11,28,37,0,0
327404,145117743,1,1314,1314,16.26,0.11,28,37,0,0
327889,145228399,1,1314,1314,16.26,0.11,28,37,0,0
328297,145331021,1,1314,1314,16.26,0.11,28,37,0,0
328787,145445838,1,1314,1314,16.26,0.11,28,37,0,0
329229,145553217,1,1314,1328,16.27,0.11,28,37,0,0
329683,145663785,1,1327,1314,16.27,0.11,28,37,0,0
330130,145775987,1,1314,1328,16.27,0.11,28,37,0,0
330536,145878828,1,1327,1314,16.28,0.11,28,37,0,0
331017,145986273,1,1314,1328,16.28,0.11,28,37,0,0
331475,146098374,1,1328,1328,16.28,0.11,28,37,0,0
331925,146204168,1,1328,1328,16.28,0.11,28,37,0,0
332407,146316773,1,1326,1314,16.28,0.11,28,37,0,0
332853,146421004,1,1314,1328,16.27,0.11,28,37,0,0
333300,146531448,1,1327,1314,16.29,0.11,28,37,0,0
333789,146646380,1,1314,1314,16.29,0.11,28,37,0,0
334238,146756695,1,1314,1314,16.29,0.11,28,37,0,0
334682,146859045,1,1314,1314,16.29,0.11,28,37,0,0
335128,146966151,1,1314,1314,16.29,0.11,28,37,0,0
335654,147092504,1,1314,1314,16.29,0.11,28,37,0,0
336059,147188413,1,1314,1314,16.29,0.11,28,37,0,0
336505,147300941,1,1314,1314,16.29,0.11,28,37,0,0
336992,147416634,1,1314,1314,16.3,0.11,28,37,0,0
337392,147511870,1,1314,1314,16.3,0.11,28,37,0,0
337887,147634870,1,1314,1314,16.3,0.11,28,37,0,0
338293,147732533,1,1314,1314,16.3,0.11,28,37,0,0
338776,147839854,1,1314,1314,16.3,0.11,28,37,0,0
339223,147953736,1,1314,1314,16.31,0.11,28,37,0,0
339672,148063014,1,1314,1314,16.31,0.11,28,37,0,0
340046,148159566,1,1314,1314,16.32,0.11,28,37,0,0
340539,148274798,1,1314,1314,16.31,0.11,28,37,0,0
340984,148381733,1,1314,1314,16.31,0.11,28,37,0,0
341429,148490192,1,1314,1314,16.32,0.11,28,37,0,0
341880,148599425,1,1314,1314,16.32,0.11,28,37,0,0
342328,148710424,1,1314,1314,16.31,0.11,28,37,0,0
342737,148810280,1,1314,1328,16.32,0.11,28,37,0,0
343178,148916623,1,1328,1328,16.32,0.11,28,37,0,0
343631,149025647,1,1327,1314,16.32,0.11,28,37,0,0
344076,149133295,1,1314,1314,16.32,0.11,28,37,0,0
344528,149242338,1,1314,1314,16.32,0.11,28,37,0,0
345009,149354438,1,1315,1328,16.33,0.11,28,37,0,0
345464,149461038,1,1328,1328,16.33,0.11,28,37,0,0
345906,149568862,1,1328,1328,16.33,0.11,28,37,0,0
346314,149673768,1,1328,1328,16.33,0.11,28,37,0,0
346794,149781813,1,1327,1314,16.33,0.11,28,37,0,0
347248,149894456,1,1314,1328,16.33,0.11,28,37,0,0
347693,149999757,1,1328,1328,16.33,0.11,28,37,0,0
348140,150108426,1,1328,1328,16.33,0.11,28,37,0,0
348632,150222846,1,1328,1328,16.34,0.11,28,37,0,0
349039,150325200,1,1328,1328,16.33,0.11,28,37,0,0
349493,150436053,1,1328,1328,16.35,0.11,28,37,0,0
349943,150547058,1,1328,1328,16.33,0.11,28,37,0,0
350390,150650014,1,1328,1328,16.34,0.11,28,37,0,0
350834,150757207,1,1327,1314,16.34,0.11,28,37,0,0
351286,150872010,1,1315,1328,16.34,0.11,28,37,0,0
351687,150965671,1,1328,1328,16.35,0.11,28,37,0,0
352173,151078921,1,1328,1328,16.35,0.11,28,37,0,0
352616,151184409,1,1328,1328,16.35,0.11,28,37,0,0
353060,151296288,1,1328,1328,16.35,0.11,28,37,0,0
353510,151410400,1,1328,1328,16.35,0.11,28,37,0,0
353951,151513898,1,1328,1328,16.35,0.11,28,37,0,0
354405,151624766,1,1328,1328,16.35,0.11,28,37,0,0
354847,151730817,1,1328,1328,16.35,0.11,28,37,0,0
355298,151840150,1,1328,1328,16.35,0.11,28,37,0,0
355701,151940867,1,1328,1328,16.36,0.11,28,37,0,0
356148,152044919,1,1328,1328,16.36,0.11,28,37,0,0
356632,152158609,1,1328,1328,16.36,0.11,28,37,0,0
357083,152269195,1,1328,1328,16.35,0.11,28,37,0,0
357524,152377211,1,1328,1328,16.35,0.11,28,37,0,0
357968,152483247,1,1328,1328,16.36,0.11,28,37,0,0
358418,152590646,1,1328,1328,16.36,0.11,28,37,0,0
358864,152699874,1,1327,1314,16.36,0.11,28,37,0,0
359355,152815890,1,1314,1314,16.36,0.11,28,37,0,0
359801,152924765,1,1314,1314,16.36,0.11,28,37,0,0
360246,153030176,1,1314,1328,16.36,0.11,28,37,0,0
360696,153139829,1,1328,1328,16.37,0.11,28,37,0,0
361099,153235337,1,1328,1328,16.36,0.11,28,37,0,0
361580,153347495,1,1328,1328,16.36,0.09999999,28,37,0,0
362060,153466641,1,1213,328,16.39,0,28,37,0,0
362461,153563580,1,315,0,16.39,0.01,28,37,0,0
362961,153677065,1,0,0,16.39,0.04,28,37,0,0
363409,153783185,1,0,0,16.39,0.04,28,37,0,0
363862,153890831,1,0,0,16.39,0.04,28,37,0,0
364359,154006991,1,0,0,16.39,0.04,28,37,0,0
364807,154113445,1,0,0,16.39,0.04,28,37,0,0
365707,154325830,1,0,0,16.39,0.04,28,37,0,0
366203,154441830,1,0,0,16.4,0.04,28,37,0,0
366654,154550044,1,0,0,16.4,0.04,27,37,0,0
367083,154659770,1,0,0,16.4,0.04,28,37,0,0
367530,154765859,1,0,0,16.4,0.04,28,37,0,0
368021,154882454,1,0,0,16.4,0.04,27,37,0,0
368475,154989167,1,0,0,16.4,0.04,27,37,0,0
369374,155202623,1,0,0,16.4,0.04,28,37,0,0
369866,155317446,1,0,0,16.4,0.04,27,37,0,0
370320,155421885,1,0,0,16.41,0.04,27,37,0,0
370773,155533845,1,0,0,16.41,0.04,27,37,0,0
371232,155640775,1,0,0,16.41,0.04,28,37,0,0
371685,155752525,1,0,0,16.41,0.04,27,37,0,0
372138,155861813,1,0,0,16.41,0.04,27,37,0,0
372547,155961989,1,0,0,16.41,0.04,27,37,0,0
373040,156078465,1,0,0,16.41,0.04,27,37,0,0
373493,156182967,1,0,0,16.41,0.04,27,37,0,0
374427,156398014,1,0,0,16.41,0.04,27,37,0,0
374882,156506236,1,0,0,16.41,0.04,27,37,0,0
375381,156621489,1,0,0,16.42,0.04,27,37,0,0
375833,156733268,1,0,0,16.41,0.04,27,37,0,0
376284,156838243,1,0,0,16.41,0.04,27,37,0,0
376737,156949838,1,0,0,16.42,0.04,27,37,0,0
377189,157054788,1,0,0,16.41,0.04,27,37,0,0
