LineNo,TimeUS,I,GyrX,GyrY,GyrZ,AccX,AccY,AccZ,EG,EA,T,GH,AH,GHz,AHz
182,6.4898e+07,0,-0.003297,0.0023984,-0.0011164,-0.21663,0.34174,-9.7576,0,0,43.787,1,1,8009,4004
217,6.49e+07,0,-0.0039946,0.0024231,-0.0010064,-0.21865,0.34185,-9.7506,0,0,43.787,1,1,8009,4004
287,6.4929e+07,0,0.0011733,-0.001399,-0.00053432,-0.21913,0.35055,-9.7479,0,0,43.788,1,1,8009,4004
402,6.4958e+07,0,0.00084427,0.00083204,0.00028868,-0.21078,0.33661,-9.7638,0,0,43.789,1,1,8009,4004
518,6.4987e+07,0,0.0014282,0.00075125,0.00064153,-0.22145,0.33981,-9.7623,0,0,43.791,1,1,8009,4004
521,6.4988e+07,0,0.0015584,0.0014106,-7.6437e-06,-0.22021,0.33599,-9.7611,0,0,43.791,1,1,8009,4004
631,6.5008e+07,0,0.0019963,0.0027865,0.0015024,-0.2057,0.33507,-9.7399,0,0,43.791,1,1,8009,4004
666,6.5011e+07,0,0.00081542,0.0021095,0.00060928,-0.20296,0.33332,-9.7416,0,0,43.791,1,1,8009,4004
740,6.5029e+07,0,-0.00098243,0.00031508,-0.0019366,-0.21048,0.31797,-9.7518,0,0,43.791,1,1,8009,4004
856,6.5049e+07,0,-0.0024855,-0.00029176,-0.0018463,-0.21894,0.32956,-9.7664,0,0,43.791,1,1,8009,4004
971,6.5093e+07,0,-0.0016042,0.00019748,-0.00020116,-0.20396,0.32682,-9.7574,0,0,43.791,1,1,8009,4004
1006,6.5095e+07,0,-0.00043447,-0.0002213,-0.00099706,-0.20622,0.3272,-9.7559,0,0,43.792,1,1,8009,4004
1080,6.5124e+07,0,0.0022847,0.0014214,0.00014661,-0.22129,0.33638,-9.7467,0,0,43.792,1,1,8009,4004
1196,6.5225e+07,0,-0.0032775,0.00024134,-0.0014205,-0.22295,0.33401,-9.7485,0,0,43.792,1,1,8009,4004
1306,6.5284e+07,0,0.0011739,0.00024507,0.00027297,-0.21882,0.35282,-9.7686,0,0,43.792,1,1,8009,4004
1386,6.5302e+07,0,0.00081639,0.00051507,0.0013138,-0.21169,0.34213,-9.7619,0,0,43.792,1,1,8009,4004
1477,6.5328e+07,0,0.00074354,0.00096386,0.00028826,-0.22617,0.32751,-9.7352,0,0,43.792,1,1,8009,4004
1558,6.5333e+07,0,0.0010733,0.0014143,0.0011185,-0.22464,0.33609,-9.7378,0,0,43.793,1,1,8009,4004
1562,6.5342e+07,0,0.0028001,0.0023442,-0.00073246,-0.20762,0.336,-9.7478,0,0,43.793,1,1,8009,4004
1565,6.5345e+07,0,0.0024333,0.001862,-0.00030907,-0.20236,0.33451,-9.7535,0,0,43.793,1,1,8009,4004
1602,6.5349e+07,0,0.0020597,0.00098551,0.00085005,-0.19816,0.33389,-9.7614,0,0,43.793,1,1,8009,4004
1605,6.5351e+07,0,0.0018137,0.0013263,0.0019783,-0.19696,0.33426,-9.7664,0,0,43.793,1,1,8009,4004
1608,6.5353e+07,0,0.0013139,0.0018551,0.0026914,-0.19605,0.3342,-9.7714,0,0,43.793,1,1,8009,4004
1611,6.5355e+07,0,0.00029849,0.002121,0.0011197,-0.19556,0.33423,-9.7701,0,0,43.793,1,1,8009,4004
1646,6.5359e+07,0,-0.00048571,0.0019401,-0.00050622,-0.19421,0.33413,-9.7629,0,0,43.794,1,1,8009,4004
1650,6.5361e+07,0,-0.00035824,0.001615,-0.00064167,-0.19361,0.3344,-9.7569,0,0,43.794,1,1,8009,4004
1653,6.5363e+07,0,0.00046688,0.001272,-0.0007784,-0.19362,0.33466,-9.7539,0,0,43.794,1,1,8009,4004
1656,6.5365e+07,0,0.00054735,0.0015305,-0.00095525,-0.19428,0.3338,-9.7532,0,0,43.794,1,1,8009,4004
1691,6.5368e+07,0,-0.00016116,9.5482e-05,-0.0013471,-0.19671,0.33095,-9.7544,0,0,43.794,1,1,8009,4004
1695,6.5371e+07,0,-0.0011107,-0.00016426,-0.0020135,-0.19872,0.3309,-9.755,0,0,43.794,1,1,8009,4004
1698,6.5374e+07,0,-0.00037416,-0.00017787,-0.001199,-0.20182,0.33372,-9.7555,0,0,43.794,1,1,8009,4004
1701,6.5376e+07,0,-0.00024778,0.00022042,-0.00032472,-0.20403,0.33358,-9.755,0,0,43.794,1,1,8009,4004
1736,6.5378e+07,0,-0.0012256,0.00040822,0.00024761,-0.20448,0.33274,-9.7546,0,0,43.794,1,1,8009,4004
1739,6.5381e+07,0,-0.0031062,0.0011563,5.99e-05,-0.20587,0.33237,-9.7577,0,0,43.794,1,1,8009,4004
1742,6.5384e+07,0,-0.0038155,0.0013437,-0.00037103,-0.20636,0.33443,-9.7616,0,0,43.794,1,1,8009,4004
1745,6.5386e+07,0,-0.0041417,0.00036121,-0.00076465,-0.20835,0.33716,-9.7705,0,0,43.795,1,1,8009,4004
1780,6.5389e+07,0,-0.0034017,-0.00048519,6.4467e-06,-0.21188,0.33755,-9.7775,0,0,43.795,1,1,8009,4004
1784,6.5391e+07,0,-0.002915,-0.0003245,0.00058264,-0.21327,0.3388,-9.7788,0,0,43.795,1,1,8009,4004
1787,6.5394e+07,0,-0.0030124,0.00043942,0.00039908,-0.21455,0.34186,-9.779,0,0,43.795,1,1,8009,4004
1794,6.5397e+07,0,-0.0034196,9.5e-05,0.00034223,-0.21395,0.34324,-9.7803,0,0,43.795,1,1,8009,4004
1829,6.54e+07,0,-0.002336,-0.0011128,-0.00041818,-0.21071,0.34138,-9.7828,0,0,43.795,1,1,8009,4004
1832,6.5402e+07,0,-0.0023952,-0.0015652,-0.00031027,-0.20651,0.33777,-9.7809,0,0,43.795,1,1,8009,4004
1835,6.5405e+07,0,-0.0033042,-0.0016126,0.00053886,-0.20416,0.33562,-9.7797,0,0,43.795,1,1,8009,4004
1838,6.5407e+07,0,-0.0038728,-0.0017,0.0014219,-0.20284,0.3336,-9.7756,0,0,43.795,1,1,8009,4004
1873,6.5411e+07,0,-0.002736,-0.0023447,0.001316,-0.20395,0.33251,-9.7725,0,0,43.795,1,1,8009,4004
1877,6.5413e+07,0,-0.0019973,-0.001649,0.00082688,-0.20355,0.33088,-9.7725,0,0,43.796,1,1,8009,4004
1880,6.5415e+07,0,-0.0023548,0.00044887,-4.315e-05,-0.20275,0.32782,-9.7736,0,0,43.796,1,1,8009,4004
1883,6.5418e+07,0,-0.0036813,0.00093279,-0.00027046,-0.20376,0.32734,-9.7742,0,0,43.796,1,1,8009,4004
1918,6.542e+07,0,-0.0042896,0.00052341,-0.00076221,-0.20663,0.32996,-9.7712,0,0,43.796,1,1,8009,4004
1922,6.5423e+07,0,-0.0041709,5.0085e-05,-0.00029645,-0.20856,0.33154,-9.7677,0,0,43.796,1,1,8009,4004
1925,6.5425e+07,0,-0.0039004,-7.9346e-05,-5.2155e-05,-0.21111,0.3325,-9.7661,0,0,43.796,1,1,8009,4004
1929,6.5428e+07,0,-0.0036369,0.00045231,8.9523e-05,-0.21255,0.3343,-9.7678,0,0,43.796,1,1,8009,4004
1964,6.543e+07,0,-0.0032187,0.0002624,-5.2536e-05,-0.21298,0.33807,-9.7677,0,0,43.796,1,1,8009,4004
1968,6.5434e+07,0,-0.0030038,4.0372e-05,0.0006864,-0.21208,0.33987,-9.7633,0,0,43.796,1,1,8009,4004
1971,6.5435e+07,0,-0.0021193,4.1894e-05,0.00086708,-0.21167,0.33995,-9.7601,0,0,43.796,1,1,8009,4004
1974,6.5439e+07,0,-0.00058907,0.00018393,0.00033948,-0.21246,0.33974,-9.7547,0,0,43.797,1,1,8009,4004
2009,6.5441e+07,0,8.0417e-05,-0.00026067,-0.0010548,-0.21385,0.33994,-9.7475,0,0,43.797,1,1,8009,4004
2013,6.5445e+07,0,-2.3702e-05,-0.00070094,-0.0022209,-0.21439,0.33878,-9.743,0,0,43.797,1,1,8009,4004
2016,6.5446e+07,0,0.0003479,-0.00024434,-0.0021125,-0.21365,0.33595,-9.7404,0,0,43.797,1,1,8009,4004
2019,6.5449e+07,0,0.00012003,0.00072685,-0.0020652,-0.2128,0.33285,-9.7423,0,0,43.797,1,1,8009,4004
2054,6.5452e+07,0,-0.00046192,0.00096465,-0.0018986,-0.21367,0.33183,-9.745,0,0,43.797,1,1,8009,4004
2057,6.5454e+07,0,-0.001203,0.0015332,-0.00070301,-0.21599,0.33134,-9.7487,0,0,43.798,1,1,8009,4004
2060,6.5457e+07,0,-0.0015381,0.0024914,-0.0001227,-0.21764,0.33083,-9.7515,0,0,43.798,1,1,8009,4004
2063,6.5459e+07,0,-0.0013529,0.0032949,-0.00016599,-0.21779,0.32987,-9.7544,0,0,43.798,1,1,8009,4004
2098,6.5462e+07,0,-0.00045342,0.0026717,0.00058831,-0.22014,0.32942,-9.7527,0,0,43.798,1,1,8009,4004
2102,6.5464e+07,0,0.00087347,0.0016627,0.00049699,-0.22286,0.33102,-9.7511,0,0,43.798,1,1,8009,4004
2105,6.5467e+07,0,0.0022417,0.0011765,0.00019642,-0.22508,0.33339,-9.7497,0,0,43.798,1,1,8009,4004
2108,6.547e+07,0,0.003506,2.9961e-05,-0.00011463,-0.22651,0.33699,-9.748,0,0,43.798,1,1,8009,4004
2145,6.5473e+07,0,0.0033374,0.00046854,0.00067032,-0.22533,0.33791,-9.7474,0,0,43.798,1,1,8009,4004
2148,6.5475e+07,0,0.0026307,0.0019004,0.00042286,-0.22296,0.33838,-9.7482,0,0,43.798,1,1,8009,4004
2151,6.5477e+07,0,0.0017069,0.0019569,-8.9681e-05,-0.22187,0.33877,-9.7509,0,0,43.798,1,1,8009,4004
2154,6.5486e+07,0,-4.639e-06,0.00079733,-0.0016295,-0.22007,0.33609,-9.7552,0,0,43.798,1,1,8009,4004
2190,6.5489e+07,0,0.00041824,9.1349e-05,-0.0015902,-0.21866,0.33569,-9.7531,0,0,43.798,1,1,8009,4004
2194,6.5492e+07,0,0.00067132,-0.00053671,-0.0017845,-0.21722,0.33697,-9.7508,0,0,43.798,1,1,8009,4004
2197,6.5494e+07,0,0.001019,-0.0014832,-0.0017667,-0.21676,0.33763,-9.7523,0,0,43.799,1,1,8009,4004
2200,6.5496e+07,0,0.0016671,-0.0011661,-0.0017295,-0.216,0.33803,-9.7563,0,0,43.799,1,1,8009,4004
2236,6.5499e+07,0,0.0015455,0.00023238,-0.0013929,-0.21459,0.33934,-9.7619,0,0,43.799,1,1,8009,4004
2243,6.5502e+07,0,0.0021105,0.00065296,-0.0008751,-0.21372,0.34002,-9.7654,0,0,43.799,1,1,8009,4004
2246,6.5504e+07,0,0.0014123,0.00020014,-0.00014824,-0.21487,0.33879,-9.7676,0,0,43.799,1,1,8009,4004
2249,6.5507e+07,0,0.00026169,-0.00013608,-0.00024835,-0.21551,0.33773,-9.7646,0,0,43.799,1,1,8009,4004
2284,6.551e+07,0,-0.00054446,-3.4523e-05,-0.00033448,-0.21635,0.33808,-9.7588,0,0,43.799,1,1,8009,4004
2287,6.5512e+07,0,0.0011245,0.00046981,-0.00055096,-0.21661,0.33848,-9.7572,0,0,43.799,1,1,8009,4004
2290,6.5515e+07,0,0.0021235,0.00046461,-0.00071392,-0.21713,0.33694,-9.7586,0,0,43.799,1,1,8009,4004
2293,6.5517e+07,0,0.001297,-7.6245e-05,-0.0014068,-0.22048,0.33344,-9.7626,0,0,43.799,1,1,8009,4004
2328,6.552e+07,0,-4.8892e-05,-0.0011552,-0.00073231,-0.22379,0.33112,-9.7672,0,0,43.799,1,1,8009,4004
2332,6.5523e+07,0,-0.00017449,-0.00077515,0.00016938,-0.22382,0.33019,-9.768,0,0,43.799,1,1,8009,4004
2335,6.5525e+07,0,0.00075213,0.00095197,0.00053832,-0.22276,0.33037,-9.769,0,0,43.799,1,1,8009,4004
2338,6.5527e+07,0,0.00050974,0.0011496,-3.5931e-05,-0.22208,0.33022,-9.7691,0,0,43.799,1,1,8009,4004
2373,6.553e+07,0,0.00023806,9.3197e-05,-1.5404e-05,-0.22049,0.32891,-9.767,0,0,43.799,1,1,8009,4004
2376,6.5533e+07,0,0.00030522,-9.4965e-06,-0.00012675,-0.21924,0.32696,-9.765,0,0,43.799,1,1,8009,4004
2379,6.5535e+07,0,-6.7765e-05,0.00023081,-0.00020554,-0.21628,0.32597,-9.7657,0,0,43.799,1,1,8009,4004
2382,6.5538e+07,0,-0.00081114,-0.00013514,-0.00070016,-0.21613,0.3264,-9.7672,0,0,43.799,1,1,8009,4004
2417,6.554e+07,0,-0.0022136,0.000555,-0.0015164,-0.21791,0.32897,-9.7697,0,0,43.799,1,1,8009,4004
2421,6.5543e+07,0,-0.0020828,0.0012014,-0.0016286,-0.21836,0.33223,-9.7703,0,0,43.799,1,1,8009,4004
2424,6.5546e+07,0,-0.00054597,0.0014437,-0.0009365,-0.21726,0.33604,-9.7672,0,0,43.799,1,1,8009,4004
2427,6.5548e+07,0,0.00026739,0.001455,-0.00043846,-0.21554,0.33687,-9.7631,0,0,43.799,1,1,8009,4004
2462,6.5551e+07,0,-0.00046592,0.00063615,-0.00012928,-0.21083,0.33682,-9.7581,0,0,43.799,1,1,8009,4004
2465,6.5554e+07,0,-0.00092774,-0.0001345,1.6047e-05,-0.20894,0.33606,-9.7575,0,0,43.799,1,1,8009,4004
2471,6.5556e+07,0,-0.00085621,0.00019111,-0.00022262,-0.20838,0.33516,-9.7535,0,0,43.799,1,1,8009,4004
2474,6.5558e+07,0,-0.0010263,0.00032869,-0.00081849,-0.20896,0.33487,-9.7504,0,0,43.799,1,1,8009,4004
2509,6.5561e+07,0,-0.0013755,0.00032328,-0.0023348,-0.20973,0.33188,-9.7482,0,0,43.799,1,1,8009,4004
2513,6.5563e+07,0,-0.0018786,0.00040871,-0.0027495,-0.21068,0.32863,-9.7471,0,0,43.799,1,1,8009,4004
2517,6.5566e+07,0,-0.0030346,0.00085224,-0.0032388,-0.2102,0.32515,-9.7442,0,0,43.799,1,1,8009,4004
2520,6.5569e+07,0,-0.003289,0.00058795,-0.0036034,-0.20962,0.32423,-9.7428,0,0,43.799,1,1,8009,4004
2555,6.5571e+07,0,-0.0033997,-0.00041972,-0.0030597,-0.21086,0.3253,-9.7446,0,0,43.799,1,1,8009,4004
2559,6.5575e+07,0,-0.0028302,-0.00012145,-0.0016019,-0.21339,0.32692,-9.7492,0,0,43.799,1,1,8009,4004
2562,6.5576e+07,0,-0.0027103,-2.7608e-05,-6.8449e-05,-0.21571,0.32677,-9.7531,0,0,43.799,1,1,8009,4004
2566,6.5579e+07,0,-0.0033302,0.00077613,0.0021047,-0.22139,0.32829,-9.7598,0,0,43.799,1,1,8009,4004
2601,6.5582e+07,0,-0.0041813,0.0009367,0.0015062,-0.22627,0.33316,-9.7655,0,0,43.799,1,1,8009,4004
2604,6.5585e+07,0,-0.0036007,0.00091096,0.00025938,-0.2274,0.33615,-9.7654,0,0,43.799,1,1,8009,4004
2607,6.5587e+07,0,-0.0027159,0.0011736,-0.00016997,-0.22641,0.33896,-9.763,0,0,43.799,1,1,8009,4004
2610,6.559e+07,0,-0.0033604,0.0020232,-8.7938e-05,-0.22485,0.33835,-9.7597,0,0,43.799,1,1,8009,4004
2645,6.5593e+07,0,-0.0035358,0.0037486,0.00060531,-0.22197,0.33639,-9.7521,0,0,43.799,1,1,8009,4004
2649,6.5595e+07,0,-0.0027182,0.0038047,0.00060862,-0.21882,0.33703,-9.7474,0,0,43.799,1,1,8009,4004
2652,6.5597e+07,0,-0.0021404,0.0024919,0.00061082,-0.21268,0.33761,-9.7431,0,0,43.799,1,1,8009,4004
2655,6.56e+07,0,-0.001881,0.0015966,0.00058308,-0.209,0.33652,-9.7418,0,0,43.799,1,1,8009,4004
2690,6.5602e+07,0,-0.0022679,0.00061688,0.00029592,-0.2041,0.33318,-9.7424,0,0,43.799,1,1,8009,4004
2697,6.5605e+07,0,-0.0022314,7.7915e-05,-0.000585,-0.20189,0.33059,-9.7437,0,0,43.799,1,1,8009,4004
2700,6.5607e+07,0,-0.0012304,-0.00031453,-0.0016769,-0.19873,0.32664,-9.7477,0,0,43.799,1,1,8009,4004
2703,6.561e+07,0,-0.0010234,0.00032681,-0.0020396,-0.1963,0.32425,-9.7504,0,0,43.799,1,1,8009,4004
2738,6.5612e+07,0,-0.00081454,0.0012626,-0.002186,-0.1947,0.32424,-9.7556,0,0,43.8,1,1,8009,4004
2742,6.5616e+07,0,-0.00055323,0.00059578,-0.00059379,-0.19458,0.32453,-9.7623,0,0,43.8,1,1,8009,4004
2745,6.5617e+07,0,-0.00071376,-0.00023217,0.00053614,-0.1947,0.32485,-9.7678,0,0,43.8,1,1,8009,4004
2748,6.5621e+07,0,-0.00055288,-0.0012445,0.00045025,-0.19704,0.32509,-9.7727,0,0,43.8,1,1,8009,4004
2783,6.5623e+07,0,-0.0004784,-0.001519,-0.00048091,-0.20125,0.32332,-9.7745,0,0,43.8,1,1,8009,4004
2787,6.5625e+07,0,-0.00074691,-0.00099077,-0.0010129,-0.20289,0.32252,-9.7744,0,0,43.8,1,1,8009,4004
2790,6.5629e+07,0,-0.001014,-0.0012675,-0.00091647,-0.20512,0.32322,-9.7744,0,0,43.8,1,1,8009,4004
2794,6.5631e+07,0,-0.00074595,-0.0015055,-0.00030015,-0.2083,0.32548,-9.7738,0,0,43.8,1,1,8009,4004
2829,6.5633e+07,0,0.00031656,-0.0015343,0.00081201,-0.213,0.33171,-9.7735,0,0,43.8,1,1,8009,4004
2832,6.5636e+07,0,0.0012139,-0.0017546,0.00090452,-0.21569,0.33542,-9.7716,0,0,43.8,1,1,8009,4004
2835,6.5638e+07,0,0.0016427,-0.001314,0.00098265,-0.21915,0.33745,-9.7686,0,0,43.8,1,1,8009,4004
2838,6.5641e+07,0,0.0013786,-0.0010624,0.00064582,-0.22201,0.33685,-9.7669,0,0,43.8,1,1,8009,4004
2873,6.5644e+07,0,0.00074211,-0.00048103,-0.00022808,-0.22593,0.33503,-9.7587,0,0,43.8,1,1,8009,4004
2878,6.5648e+07,0,0.0014981,-6.0739e-05,8.4727e-05,-0.22561,0.33478,-9.7552,0,0,43.8,1,1,8009,4004
2881,6.5649e+07,0,0.0024729,-6.3175e-05,0.0012324,-0.22336,0.33532,-9.7518,0,0,43.8,1,1,8009,4004
2884,6.5652e+07,0,0.0026666,8.0033e-05,0.0020051,-0.22104,0.3356,-9.7513,0,0,43.8,1,1,8009,4004
2919,6.5655e+07,0,0.0032706,0.00026193,0.001942,-0.2164,0.33433,-9.7558,0,0,43.8,1,1,8009,4004
2922,6.5658e+07,0,0.0033775,0.00033289,0.0016604,-0.21532,0.33267,-9.7581,0,0,43.8,1,1,8009,4004
2927,6.566e+07,0,0.0031755,0.0002639,0.00087972,-0.21568,0.32863,-9.7606,0,0,43.8,1,1,8009,4004
2930,6.5665e+07,0,0.0020115,0.0004541,-0.00019069,-0.21724,0.32061,-9.7676,0,0,43.8,1,1,8009,4004
2966,6.5668e+07,0,0.0016084,-0.00033002,0.00081135,-0.219,0.31765,-9.7706,0,0,43.8,1,1,8009,4004
2969,6.567e+07,0,0.00165,-0.0010116,0.00089003,-0.21994,0.31782,-9.7693,0,0,43.8,1,1,8009,4004
2972,6.5674e+07,0,0.0015852,-0.00095537,0.002371,-0.22077,0.3194,-9.7623,0,0,43.8,1,1,8009,4004
2975,6.5679e+07,0,0.00055685,0.00078522,0.0026348,-0.22081,0.32169,-9.7515,0,0,43.8,1,1,8009,4004
3011,6.5681e+07,0,0.001027,0.0012852,0.00025985,-0.22245,0.32352,-9.7478,0,0,43.8,1,1,8009,4004
3014,6.5683e+07,0,0.0006682,0.0016511,-0.0009684,-0.22344,0.32496,-9.7465,0,0,43.8,1,1,8009,4004
3020,6.5687e+07,0,0.00040148,0.0016268,-0.0007917,-0.22089,0.32746,-9.7454,0,0,43.8,1,1,8009,4004
3023,6.5689e+07,0,0.0004061,0.0017658,-0.00021716,-0.21735,0.32922,-9.744,0,0,43.8,1,1,8009,4004
3058,6.5692e+07,0,0.0010272,0.0015322,0.00037268,-0.21252,0.33303,-9.7416,0,0,43.8,1,1,8009,4004
3061,6.5694e+07,0,0.0014545,0.0015146,0.00096606,-0.21146,0.33464,-9.7413,0,0,43.8,1,1,8009,4004
3064,6.5696e+07,0,0.0018756,0.0019823,0.0017027,-0.21185,0.33456,-9.7446,0,0,43.8,1,1,8009,4004
3067,6.5699e+07,0,0.0015405,0.0015672,0.0016871,-0.21232,0.33459,-9.7485,0,0,43.8,1,1,8009,4004
3102,6.5701e+07,0,0.00074267,0.00054984,0.00020739,-0.21313,0.3317,-9.7522,0,0,43.8,1,1,8009,4004
3106,6.5704e+07,0,-0.00087673,9.7823e-05,-0.0015974,-0.21444,0.32573,-9.7504,0,0,43.8,1,1,8009,4004
3109,6.5707e+07,0,-0.0020111,2.1189e-05,-0.0013758,-0.21496,0.32236,-9.7502,0,0,43.8,1,1,8009,4004
3116,6.571e+07,0,-0.0019982,0.0015731,-7.4648e-05,-0.21542,0.3215,-9.7535,0,0,43.8,1,1,8009,4004
3119,6.5712e+07,0,-0.0013239,0.0014666,0.00012891,-0.21461,0.32271,-9.7582,0,0,43.8,1,1,8009,4004
3154,6.5714e+07,0,2.1738e-05,0.0010338,0.00010618,-0.21525,0.32212,-9.7651,0,0,43.8,1,1,8009,4004
3157,6.5717e+07,0,-0.000329,-5.3441e-05,0.00069097,-0.21756,0.32013,-9.7666,0,0,43.8,1,1,8009,4004
3160,6.5719e+07,0,-0.0010447,-0.00027513,0.00027206,-0.21938,0.32039,-9.7653,0,0,43.8,1,1,8009,4004
3163,6.5723e+07,0,-0.0020394,0.00050831,-0.0009766,-0.21994,0.32457,-9.7638,0,0,43.8,1,1,8009,4004
3198,6.5725e+07,0,-0.0015297,0.0014662,-0.0022766,-0.21633,0.33,-9.7596,0,0,43.8,1,1,8009,4004
3202,6.5728e+07,0,-0.0011676,0.0017368,-0.0020907,-0.21302,0.33304,-9.7555,0,0,43.8,1,1,8009,4004
3205,6.573e+07,0,-0.0011556,0.0013742,-0.0012522,-0.21002,0.33768,-9.751,0,0,43.8,1,1,8009,4004
3209,6.5732e+07,0,-0.0015326,0.00068411,-0.00099473,-0.20848,0.34142,-9.7491,0,0,43.8,1,1,8009,4004
3244,6.5735e+07,0,-0.0021697,0.00038638,-0.00083621,-0.20575,0.34584,-9.7464,0,0,43.8,1,1,8009,4004
3248,6.5738e+07,0,-0.0012881,0.00060198,-0.00079884,-0.20396,0.34747,-9.7451,0,0,43.8,1,1,8009,4004
3251,6.5741e+07,0,-0.0011392,0.0010987,-5.4055e-05,-0.20215,0.34598,-9.7431,0,0,43.8,1,1,8009,4004
3254,6.5743e+07,0,-0.0017308,0.0012713,-0.00011251,-0.20183,0.34343,-9.7428,0,0,43.8,1,1,8009,4004
3289,6.5745e+07,0,-0.0019397,0.0010673,-0.00076885,-0.20186,0.33989,-9.7462,0,0,43.8,1,1,8009,4004
3292,6.5748e+07,0,-0.0022769,0.0010003,-0.001598,-0.20296,0.33848,-9.7495,0,0,43.8,1,1,8009,4004
3295,6.575e+07,0,-0.0027872,9.8609e-05,-0.0021116,-0.20619,0.33764,-9.7535,0,0,43.8,1,1,8009,4004
3298,6.5753e+07,0,-0.0024762,-0.00026869,-0.0010335,-0.20908,0.33817,-9.7537,0,0,43.8,1,1,8009,4004
3333,6.5756e+07,0,-0.0014504,-0.00078671,0.0012551,-0.21477,0.33869,-9.7526,0,0,43.8,1,1,8009,4004
3338,6.5759e+07,0,-0.0011633,-0.0011769,0.0013785,-0.22158,0.33811,-9.7487,0,0,43.8,1,1,8009,4004
3341,6.5761e+07,0,-0.00083498,-0.0011639,0.0012056,-0.22586,0.33721,-9.7474,0,0,43.801,1,1,8009,4004
3344,6.5763e+07,0,-0.00032624,-0.0013093,-0.00014313,-0.22878,0.33668,-9.7479,0,0,43.801,1,1,8009,4004
3379,6.5767e+07,0,0.00024763,-0.0016957,-0.00081994,-0.22988,0.33756,-9.7475,0,0,43.801,1,1,8009,4004
3382,6.5769e+07,0,-0.00032382,-0.0017637,-0.0012146,-0.23112,0.33897,-9.7457,0,0,43.801,1,1,8009,4004
3386,6.5771e+07,0,-0.0020826,-0.00075589,-0.0015048,-0.23229,0.34109,-9.7433,0,0,43.801,1,1,8009,4004
3389,6.5774e+07,0,-0.0026676,7.3787e-05,-0.0014291,-0.23108,0.34178,-9.7438,0,0,43.801,1,1,8009,4004
3424,6.5777e+07,0,-0.0024497,-0.00024028,-0.002023,-0.22535,0.33971,-9.7472,0,0,43.801,1,1,8009,4004
3428,6.5778e+07,0,-0.0022521,-0.00052484,-0.0025684,-0.22116,0.33789,-9.7514,0,0,43.801,1,1,8009,4004
3431,6.5781e+07,0,-0.0014389,-0.00048612,-0.0021396,-0.21782,0.33762,-9.7603,0,0,43.801,1,1,8009,4004
3434,6.5784e+07,0,-0.00044215,-0.00014311,-0.0015219,-0.2171,0.33839,-9.7674,0,0,43.801,1,1,8009,4004
3469,6.5787e+07,0,0.00028142,0.00064016,-0.00081498,-0.21686,0.34189,-9.7755,0,0,43.801,1,1,8009,4004
3473,6.5789e+07,0,0.00018312,0.00054031,-0.00072665,-0.21741,0.34398,-9.7778,0,0,43.801,1,1,8009,4004
3476,6.5792e+07,0,-0.00071316,0.0010639,-0.00054103,-0.21976,0.3459,-9.7778,0,0,43.801,1,1,8009,4004
3479,6.5793e+07,0,-0.00071253,0.0016143,-0.00077821,-0.22111,0.34592,-9.777,0,0,43.801,1,1,8009,4004
3514,6.5796e+07,0,1.6594e-05,0.0023824,-0.0020691,-0.2233,0.34503,-9.7792,0,0,43.802,1,1,8009,4004
3517,6.5799e+07,0,0.001339,0.0023644,-0.0026515,-0.22415,0.3436,-9.7826,0,0,43.802,1,1,8009,4004
3521,6.5802e+07,0,0.0014544,0.0022578,-0.0022832,-0.22443,0.34084,-9.7866,0,0,43.802,1,1,8009,4004
3524,6.5804e+07,0,0.00049498,0.0024367,-0.0019837,-0.22334,0.34076,-9.7881,0,0,43.802,1,1,8009,4004
3559,6.5806e+07,0,-0.00068561,0.0021467,-0.0004827,-0.22119,0.34191,-9.788,0,0,43.802,1,1,8009,4004
3563,6.5809e+07,0,-0.00062821,0.0012694,0.00073096,-0.2183,0.34129,-9.7854,0,0,43.802,1,1,8009,4004
3570,6.5812e+07,0,0.00016958,0.00023651,0.0013255,-0.21419,0.33959,-9.7789,0,0,43.803,1,1,8009,4004
3573,6.5814e+07,0,0.00063353,0.00016698,0.0013484,-0.21275,0.33734,-9.7729,0,0,43.803,1,1,8009,4004
3608,6.5817e+07,0,0.00028063,0.00053556,0.00072971,-0.21248,0.33276,-9.7672,0,0,43.803,1,1,8009,4004
3611,6.5818e+07,0,-0.00037541,0.00081729,0.00031736,-0.21357,0.3286,-9.7657,0,0,43.803,1,1,8009,4004
3614,6.5821e+07,0,-4.1868e-05,0.0022359,-5.231e-05,-0.2162,0.32552,-9.7643,0,0,43.803,1,1,8009,4004
3617,6.5824e+07,0,0.00071469,0.0023314,0.00039797,-0.21905,0.32703,-9.7637,0,0,43.803,1,1,8009,4004
3652,6.5827e+07,0,0.0017517,0.0012475,0.0012103,-0.22511,0.3297,-9.766,0,0,43.804,1,1,8009,4004
3656,6.5829e+07,0,0.0017984,0.0013024,0.0015535,-0.22854,0.33089,-9.7652,0,0,43.804,1,1,8009,4004
3659,6.5831e+07,0,0.0012614,0.0018313,0.0015393,-0.22901,0.33253,-9.7606,0,0,43.804,1,1,8009,4004
3662,6.5835e+07,0,0.00079947,0.0027482,0.0017765,-0.2275,0.3363,-9.747,0,0,43.804,1,1,8009,4004
3697,6.5837e+07,0,0.0020098,0.0026589,0.0025696,-0.22442,0.33768,-9.7341,0,0,43.804,1,1,8009,4004
3700,6.5839e+07,0,0.0026331,0.002489,0.002441,-0.22246,0.33594,-9.7295,0,0,43.804,1,1,8009,4004
3703,6.5842e+07,0,0.002872,0.0025024,0.001642,-0.21948,0.33097,-9.7254,0,0,43.804,1,1,8009,4004
3706,6.5844e+07,0,0.00276,0.0020131,0.00090431,-0.21728,0.3278,-9.7249,0,0,43.804,1,1,8009,4004
3743,6.5848e+07,0,0.0023166,0.0014896,6.8645e-05,-0.2131,0.32483,-9.7294,0,0,43.805,1,1,8009,4004
3747,6.5851e+07,0,0.0016837,0.0006885,-0.00039239,-0.21148,0.32355,-9.7339,0,0,43.805,1,1,8009,4004
3750,6.5852e+07,0,0.00037944,-0.00072278,-0.00042535,-0.21085,0.32509,-9.74,0,0,43.805,1,1,8009,4004
3753,6.5855e+07,0,0.00037503,-0.00094081,2.1458e-05,-0.21109,0.32772,-9.7433,0,0,43.805,1,1,8009,4004
3788,6.5857e+07,0,0.00090232,0.00042993,0.0012513,-0.21279,0.32954,-9.7473,0,0,43.805,1,1,8009,4004
3791,6.586e+07,0,0.0012751,0.00094155,0.0012253,-0.21441,0.32991,-9.7486,0,0,43.805,1,1,8009,4004
3794,6.5863e+07,0,0.0012077,0.0003455,-2.7457e-05,-0.21775,0.32951,-9.7469,0,0,43.805,1,1,8009,4004
3799,6.5865e+07,0,0.0006449,-0.00075796,-0.00093176,-0.21945,0.3298,-9.7449,0,0,43.805,1,1,8009,4004
3834,6.5867e+07,0,-3.3438e-05,-0.002399,-0.001106,-0.22065,0.32907,-9.7457,0,0,43.805,1,1,8009,4004
3837,6.5869e+07,0,-0.00037877,-0.0025859,-0.00038863,-0.22067,0.32782,-9.7499,0,0,43.805,1,1,8009,4004
3840,6.5878e+07,0,0.00071943,-0.0015478,0.00023972,-0.21939,0.32415,-9.7411,0,0,43.806,1,1,8009,4004
3875,6.588e+07,0,-0.0008869,-0.0018776,0.00023062,-0.21823,0.3236,-9.7402,0,0,43.806,1,1,8009,4004
3878,6.5883e+07,0,-0.001638,-0.0027742,0.00091456,-0.22024,0.32455,-9.7419,0,0,43.806,1,1,8009,4004
3881,6.5886e+07,0,-0.00070344,-0.0032118,0.0008498,-0.22233,0.32624,-9.7441,0,0,43.806,1,1,8009,4004
3884,6.5888e+07,0,-1.2414e-05,-0.0027707,0.00012835,-0.22478,0.32556,-9.7464,0,0,43.806,1,1,8009,4004
3919,6.5891e+07,0,-0.0012517,-0.0016476,-0.00079153,-0.2246,0.32309,-9.7501,0,0,43.806,1,1,8009,4004
3922,6.5894e+07,0,-0.0016366,-0.0011292,-0.00075306,-0.22301,0.32296,-9.7535,0,0,43.806,1,1,8009,4004
3926,6.5897e+07,0,-0.0013002,-2.0728e-05,-0.00062209,-0.21927,0.32563,-9.7604,0,0,43.806,1,1,8009,4004
3929,6.5899e+07,0,-0.0014693,0.00042941,-0.0011566,-0.21703,0.32874,-9.7667,0,0,43.806,1,1,8009,4004
3964,6.5901e+07,0,-0.0006953,0.00084904,-0.00092127,-0.21366,0.33377,-9.7757,0,0,43.806,1,1,8009,4004
3968,6.5904e+07,0,-0.00070408,0.0013407,-0.0010377,-0.21139,0.33626,-9.7785,0,0,43.806,1,1,8009,4004
3972,6.5906e+07,0,-0.00075441,0.001779,-0.0016598,-0.20992,0.33764,-9.7766,0,0,43.806,1,1,8009,4004
3975,6.5909e+07,0,-0.00065071,0.0017108,-0.0023492,-0.20908,0.33802,-9.774,0,0,43.806,1,1,8009,4004
4010,6.5911e+07,0,0.00084584,0.0017019,-0.0026487,-0.2077,0.3394,-9.7692,0,0,43.807,1,1,8009,4004
4018,6.5915e+07,0,0.0013506,0.00091164,-0.0024433,-0.2082,0.3396,-9.7664,0,0,43.807,1,1,8009,4004
4023,6.5916e+07,0,0.00096233,0.00019395,-0.0022002,-0.20802,0.33846,-9.7658,0,0,43.807,1,1,8009,4004
4026,6.592e+07,0,-0.0011403,-0.00013349,-0.0013249,-0.20698,0.33502,-9.7656,0,0,43.807,1,1,8009,4004
4061,6.5922e+07,0,-0.0026121,0.00077521,-0.0012028,-0.20708,0.33125,-9.7635,0,0,43.807,1,1,8009,4004
4064,6.5925e+07,0,-0.0036244,0.0016984,-0.0025134,-0.20869,0.32998,-9.7603,0,0,43.807,1,1,8009,4004
4067,6.5927e+07,0,-0.0027925,0.0020914,-0.0033811,-0.20913,0.32967,-9.7592,0,0,43.807,1,1,8009,4004
4070,6.593e+07,0,-0.00087372,0.0019526,-0.0031559,-0.20681,0.32907,-9.7591,0,0,43.807,1,1,8009,4004
4105,6.5933e+07,0,-0.00016033,0.0020512,-0.001891,-0.20316,0.32947,-9.7604,0,0,43.808,1,1,8009,4004
4109,6.5936e+07,0,-0.001069,0.0020945,-0.0015422,-0.20126,0.32919,-9.7613,0,0,43.808,1,1,8009,4004
4112,6.5937e+07,0,-0.0015869,0.0023257,-0.0012754,-0.20022,0.33069,-9.7648,0,0,43.808,1,1,8009,4004
4115,6.594e+07,0,-0.00082189,0.0026892,-0.00048552,-0.20142,0.33165,-9.7679,0,0,43.808,1,1,8009,4004
4150,6.5943e+07,0,0.00074864,0.00313,0.00040728,-0.20591,0.33151,-9.7708,0,0,43.808,1,1,8009,4004
4153,6.5945e+07,0,0.00091909,0.0032198,0.00061836,-0.20856,0.33084,-9.7702,0,0,43.808,1,1,8009,4004
4156,6.5949e+07,0,-0.00021615,0.0034938,0.00035016,-0.21055,0.33114,-9.7671,0,0,43.808,1,1,8009,4004
4159,6.595e+07,0,-0.00063792,0.0034454,0.00036585,-0.21199,0.33347,-9.7582,0,0,43.809,1,1,8009,4004
4194,6.5953e+07,0,-0.00042591,0.0023868,0.00017707,-0.21231,0.3353,-9.7543,0,0,43.809,1,1,8009,4004
4198,6.5956e+07,0,-0.00082668,0.00203,0.00017248,-0.21287,0.33802,-9.754,0,0,43.809,1,1,8009,4004
4201,6.5958e+07,0,-0.0013177,0.0026439,0.00042289,-0.21377,0.34154,-9.7532,0,0,43.809,1,1,8009,4004
4204,6.596e+07,0,-0.0012023,0.0026679,0.00040564,-0.21229,0.34238,-9.7504,0,0,43.809,1,1,8009,4004
4239,6.5963e+07,0,-0.0013254,0.0019063,0.0004437,-0.21018,0.34126,-9.7468,0,0,43.81,1,1,8009,4004
4244,6.5965e+07,0,-0.001798,0.00054805,-3.6254e-05,-0.20791,0.33798,-9.7442,0,0,43.81,1,1,8009,4004
4248,6.5968e+07,0,-0.0020354,0.00029667,-0.0011901,-0.20695,0.33757,-9.7443,0,0,43.81,1,1,8009,4004
4251,6.597e+07,0,-0.0011038,0.00083381,-0.0010884,-0.2055,0.33907,-9.743,0,0,43.81,1,1,8009,4004
4286,6.5973e+07,0,-0.00060516,0.00073277,-0.00062532,-0.20471,0.33963,-9.7418,0,0,43.81,1,1,8009,4004
4289,6.5975e+07,0,-0.0008737,-4.0838e-05,-0.00057954,-0.20528,0.33839,-9.7426,0,0,43.81,1,1,8009,4004
4293,6.5978e+07,0,-0.0013989,-0.0007273,-0.00015171,-0.2074,0.33739,-9.7453,0,0,43.81,1,1,8009,4004
4296,6.5981e+07,0,-0.0010999,-0.00053841,-0.00017627,-0.21077,0.33709,-9.7489,0,0,43.81,1,1,8009,4004
4331,6.5983e+07,0,0.00064378,-0.00073691,-0.00056155,-0.21631,0.33712,-9.7554,0,0,43.81,1,1,8009,4004
4335,6.5986e+07,0,0.00077555,-0.00048419,-0.00047823,-0.21934,0.33638,-9.7583,0,0,43.81,1,1,8009,4004
4338,6.5988e+07,0,-0.00078084,-0.00035514,-8.089e-05,-0.22179,0.33662,-9.7594,0,0,43.811,1,1,8009,4004
4341,6.5991e+07,0,-0.0017814,-0.00029056,0.00036566,-0.22306,0.33868,-9.7597,0,0,43.811,1,1,8009,4004
4376,6.5994e+07,0,-0.0011398,0.00015414,0.0019824,-0.22655,0.34286,-9.7607,0,0,43.811,1,1,8009,4004
4379,6.5996e+07,0,0.00031659,0.00015705,0.0026786,-0.22898,0.34391,-9.7609,0,0,43.811,1,1,8009,4004
4382,6.5998e+07,0,0.0016222,-0.0011634,0.0018236,-0.23128,0.34105,-9.7621,0,0,43.811,1,1,8009,4004
4385,6.6001e+07,0,0.0006544,-0.0026134,0.00086407,-0.23394,0.33559,-9.7627,0,0,43.811,1,1,8009,4004
4420,6.6003e+07,0,0.00041607,-0.0030103,0.00023817,-0.23551,0.33263,-9.7621,0,0,43.811,1,1,8009,4004
4424,6.6006e+07,0,-0.00010839,-0.0023841,0.00024327,-0.23624,0.32957,-9.7614,0,0,43.811,1,1,8009,4004
4427,6.6009e+07,0,-0.00089224,-0.0010111,0.0015852,-0.23677,0.32709,-9.7619,0,0,43.811,1,1,8009,4004
4430,6.6011e+07,0,-0.00024024,-0.0011095,0.0020687,-0.23628,0.32688,-9.7638,0,0,43.812,1,1,8009,4004
4465,6.6013e+07,0,0.00066211,-0.0015462,0.0025159,-0.23203,0.32728,-9.767,0,0,43.812,1,1,8009,4004
4472,6.6016e+07,0,0.00064768,-0.0015013,0.0026753,-0.22878,0.32802,-9.7703,0,0,43.812,1,1,8009,4004
4475,6.6019e+07,0,0.0006295,-0.0014892,0.0022489,-0.22587,0.32732,-9.7753,0,0,43.812,1,1,8009,4004
4478,6.6021e+07,0,0.0010625,-0.0010734,0.0013934,-0.22491,0.32744,-9.7773,0,0,43.812,1,1,8009,4004
4513,6.6024e+07,0,0.0010114,-0.00044138,-0.00078914,-0.22477,0.33168,-9.7797,0,0,43.812,1,1,8009,4004
4517,6.6026e+07,0,0.00091631,-0.00079115,-0.00083142,-0.22584,0.33419,-9.7812,0,0,43.812,1,1,8009,4004
4520,6.6029e+07,0,0.00097031,-0.0011461,-0.0012893,-0.22846,0.33712,-9.7842,0,0,43.812,1,1,8009,4004
4523,6.6031e+07,0,0.0014821,-0.00081462,-0.0019292,-0.23077,0.33766,-9.7841,0,0,43.813,1,1,8009,4004
4558,6.6034e+07,0,0.0020459,-0.0010417,-0.0012728,-0.23296,0.33726,-9.7795,0,0,43.813,1,1,8009,4004
4561,6.6037e+07,0,0.0026536,-0.0012903,-0.00067006,-0.23351,0.33666,-9.7759,0,0,43.813,1,1,8009,4004
4564,6.6039e+07,0,0.0028424,-0.0011208,-0.00028036,-0.23494,0.33421,-9.7718,0,0,43.813,1,1,8009,4004
4567,6.6042e+07,0,0.002997,0.0010509,0.00026701,-0.23373,0.33271,-9.7724,0,0,43.813,1,1,8009,4004
4602,6.6045e+07,0,0.0034687,0.0015888,-0.00030396,-0.2315,0.33323,-9.7724,0,0,43.813,1,1,8009,4004
4606,6.6048e+07,0,0.0042227,0.0012643,-0.0016907,-0.22978,0.33339,-9.7705,0,0,43.813,1,1,8009,4004
4609,6.605e+07,0,0.0039986,0.00095294,-0.0019052,-0.22571,0.33386,-9.7672,0,0,43.813,1,1,8009,4004
4612,6.6052e+07,0,0.0030761,0.0006359,-0.0015342,-0.22236,0.33394,-9.7653,0,0,43.814,1,1,8009,4004
4647,6.6056e+07,0,0.0027268,0.00074762,-0.0016693,-0.2181,0.33369,-9.7663,0,0,43.814,1,1,8009,4004
4650,6.6058e+07,0,0.002615,0.00092557,-0.0021644,-0.21541,0.3338,-9.7682,0,0,43.814,1,1,8009,4004
4653,6.6061e+07,0,0.0011773,0.0017842,-0.0033874,-0.2142,0.3329,-9.771,0,0,43.814,1,1,8009,4004
4656,6.6062e+07,0,0.00042184,0.0022573,-0.0033806,-0.21312,0.33198,-9.7716,0,0,43.814,1,1,8009,4004
4691,6.6065e+07,0,0.001487,0.0027629,-0.0028022,-0.21071,0.3315,-9.7728,0,0,43.815,1,1,8009,4004
4694,6.6068e+07,0,0.0021029,0.0024665,-0.0021313,-0.20963,0.33141,-9.775,0,0,43.815,1,1,8009,4004
4699,6.607e+07,0,0.0022085,0.0022968,-0.0015653,-0.2095,0.33051,-9.7816,0,0,43.815,1,1,8009,4004
4702,6.6075e+07,0,0.0012773,0.0034043,-0.0025142,-0.21071,0.33098,-9.7866,0,0,43.815,1,1,8009,4004
4738,6.6081e+07,0,-0.0014552,0.0020131,-0.00080357,-0.21381,0.32952,-9.7798,0,0,43.815,1,1,8009,4004
4741,6.6083e+07,0,-0.0022041,0.0021182,-0.00023768,-0.21451,0.3292,-9.778,0,0,43.815,1,1,8009,4004
4745,6.6086e+07,0,-0.0024803,0.0025134,-0.00030748,-0.21549,0.33007,-9.7773,0,0,43.816,1,1,8009,4004
4780,6.6089e+07,0,-0.0021371,0.002701,-0.00068302,-0.21607,0.33152,-9.7777,0,0,43.816,1,1,8009,4004
4783,6.6092e+07,0,-0.0015808,0.0034968,-0.00047372,-0.21666,0.33204,-9.7771,0,0,43.816,1,1,8009,4004
4786,6.6094e+07,0,-0.0021569,0.0029372,8.6152e-05,-0.21657,0.33165,-9.7739,0,0,43.816,1,1,8009,4004
4789,6.6096e+07,0,-0.0029739,0.0022246,0.00094363,-0.21554,0.33434,-9.7689,0,0,43.816,1,1,8009,4004
4825,6.6099e+07,0,-0.0027361,0.0014796,0.0013286,-0.21548,0.33711,-9.7675,0,0,43.816,1,1,8009,4004
4828,6.6101e+07,0,-0.0016676,0.0014333,0.0014568,-0.21193,0.34006,-9.7646,0,0,43.816,1,1,8009,4004
4832,6.6104e+07,0,-0.0017299,0.00077643,0.00085638,-0.20832,0.34091,-9.7625,0,0,43.816,1,1,8009,4004
4835,6.6106e+07,0,-0.0036959,-0.00050561,0.00039255,-0.20279,0.34246,-9.7615,0,0,43.816,1,1,8009,4004
4870,6.6109e+07,0,-0.004539,-0.0010962,0.00059683,-0.20074,0.34398,-9.7607,0,0,43.816,1,1,8009,4004
4874,6.6112e+07,0,-0.0034091,-0.0018929,0.00069721,-0.20036,0.3427,-9.761,0,0,43.816,1,1,8009,4004
4877,6.6114e+07,0,-0.0019555,-0.0011579,0.00134,-0.20075,0.33677,-9.7637,0,0,43.816,1,1,8009,4004
4880,6.6117e+07,0,-0.0015019,-0.0004512,0.0014207,-0.20195,0.33129,-9.7644,0,0,43.817,1,1,8009,4004
4919,6.612e+07,0,-0.00158,-0.0012302,0.00057772,-0.20469,0.32242,-9.7647,0,0,43.817,1,1,8009,4004
4922,6.6122e+07,0,-0.0022499,-0.0023696,-0.0001427,-0.20896,0.31572,-9.7636,0,0,43.817,1,1,8009,4004
4925,6.6124e+07,0,-0.0022712,-0.002622,8.3759e-05,-0.21144,0.31272,-9.7668,0,0,43.817,1,1,8009,4004
4928,6.6128e+07,0,-0.0018965,-0.0029412,0.00090835,-0.21643,0.31152,-9.776,0,0,43.817,1,1,8009,4004
4963,6.6131e+07,0,-0.0017287,-0.0028745,0.0011912,-0.22118,0.31016,-9.7865,0,0,43.817,1,1,8009,4004
4967,6.6133e+07,0,-0.0020371,-0.0025671,0.0017754,-0.22234,0.30953,-9.7892,0,0,43.816,1,1,8009,4004
4970,6.6135e+07,0,-0.0022582,-0.0025691,0.0017517,-0.22255,0.31051,-9.7865,0,0,43.816,1,1,8009,4004
4973,6.6138e+07,0,-0.0022091,-0.0023852,0.0020833,-0.22281,0.31332,-9.7838,0,0,43.816,1,1,8009,4004
5008,6.6141e+07,0,-0.0016662,-0.0022441,0.0024384,-0.22265,0.32117,-9.779,0,0,43.816,1,1,8009,4004
5011,6.6144e+07,0,-0.00078408,-0.0024017,0.0023414,-0.22064,0.32878,-9.776,0,0,43.816,1,1,8009,4004
5014,6.6145e+07,0,-0.00059424,-0.0019269,0.0015345,-0.21876,0.33964,-9.7765,0,0,43.816,1,1,8009,4004
5017,6.6148e+07,0,-0.00031651,-0.0007922,0.00094415,-0.21914,0.3461,-9.7771,0,0,43.816,1,1,8009,4004
5052,6.615e+07,0,-1.821e-05,0.00012688,0.0011286,-0.2195,0.35392,-9.7769,0,0,43.816,1,1,8009,4004
5055,6.6154e+07,0,-5.5133e-05,0.00053209,0.001852,-0.2198,0.35775,-9.7756,0,0,43.816,1,1,8009,4004
5058,6.6156e+07,0,0.00026206,0.00049522,0.0027747,-0.22009,0.35911,-9.771,0,0,43.816,1,1,8009,4004
5061,6.6158e+07,0,0.00012636,0.00073732,0.0022812,-0.22048,0.35732,-9.7689,0,0,43.816,1,1,8009,4004
5096,6.616e+07,0,-0.00030755,0.00085154,0.00087074,-0.22045,0.3522,-9.7668,0,0,43.817,1,1,8009,4004
5099,6.6163e+07,0,-8.9528e-05,0.00090651,0.00014636,-0.22034,0.34974,-9.7661,0,0,43.817,1,1,8009,4004
5102,6.6165e+07,0,0.0014868,2.7537e-05,0.00040984,-0.22138,0.34774,-9.7635,0,0,43.816,1,1,8009,4004
5105,6.6169e+07,0,0.0015239,-0.00072843,0.0011569,-0.22393,0.3466,-9.7608,0,0,43.816,1,1,8009,4004
5140,6.6172e+07,0,5.6589e-06,0.00052783,0.0016041,-0.22479,0.34411,-9.7589,0,0,43.816,1,1,8009,4004
5144,6.6174e+07,0,-0.0011435,0.0019554,0.0012513,-0.22398,0.34015,-9.7564,0,0,43.816,1,1,8009,4004
5147,6.6176e+07,0,-0.0016859,0.0033646,-0.00063198,-0.22061,0.33403,-9.752,0,0,43.816,1,1,8009,4004
5150,6.6179e+07,0,-0.00091292,0.003381,-0.0017772,-0.21744,0.3316,-9.7488,0,0,43.816,1,1,8009,4004
5185,6.6181e+07,0,0.00055714,0.0037439,-0.0025982,-0.21369,0.33117,-9.7466,0,0,43.816,1,1,8009,4004
5190,6.6185e+07,0,0.0030638,0.0044796,-0.0017245,-0.21139,0.3324,-9.7453,0,0,43.816,1,1,8009,4004
5193,6.6187e+07,0,0.0037316,0.0052339,-0.00039485,-0.20981,0.33196,-9.744,0,0,43.816,1,1,8009,4004
5196,6.619e+07,0,0.0031535,0.0047954,0.0010236,-0.20895,0.33073,-9.7448,0,0,43.816,1,1,8009,4004
5231,6.6192e+07,0,0.0025223,0.0037152,2.5864e-05,-0.21201,0.33209,-9.7485,0,0,43.816,1,1,8009,4004
5234,6.6195e+07,0,0.0026501,0.0031187,-0.0012534,-0.21456,0.33405,-9.7499,0,0,43.816,1,1,8009,4004
5237,6.6198e+07,0,0.0025624,0.0022436,-0.0022131,-0.21518,0.33561,-9.7503,0,0,43.816,1,1,8009,4004
5240,6.6199e+07,0,0.001419,0.0022862,-0.0015409,-0.21427,0.33664,-9.7485,0,0,43.816,1,1,8009,4004
5275,6.6203e+07,0,-0.00084635,0.0025944,-0.00052803,-0.2148,0.33969,-9.7446,0,0,43.816,1,1,8009,4004
5279,6.6204e+07,0,-0.0011277,0.0025363,0.00046624,-0.2147,0.34225,-9.741,0,0,43.816,1,1,8009,4004
5282,6.6207e+07,0,0.0003468,0.0030753,0.00072774,-0.21345,0.34413,-9.7403,0,0,43.816,1,1,8009,4004
5285,6.621e+07,0,0.0011826,0.003147,0.00029314,-0.21241,0.34319,-9.7436,0,0,43.816,1,1,8009,4004
5320,6.6212e+07,0,0.0011518,0.0026247,-0.0014167,-0.21006,0.33969,-9.7493,0,0,43.816,1,1,8009,4004
5323,6.6215e+07,0,0.00032667,0.0016125,-0.00262,-0.20777,0.33691,-9.7522,0,0,43.816,1,1,8009,4004
5326,6.6217e+07,0,-0.001377,0.00075371,-0.0018864,-0.20413,0.33296,-9.7576,0,0,43.816,1,1,8009,4004
5329,6.6219e+07,0,-0.00075038,-1.0826e-05,-0.00090748,-0.20282,0.33113,-9.7625,0,0,43.816,1,1,8009,4004
5368,6.6223e+07,0,0.00048781,0.00030798,-0.00035448,-0.20314,0.33145,-9.7656,0,0,43.816,1,1,8009,4004
5372,6.6224e+07,0,0.00069105,0.00026995,-3.1363e-05,-0.20438,0.33207,-9.7659,0,0,43.816,1,1,8009,4004
5375,6.6227e+07,0,-0.00065885,-0.00055832,-0.0003979,-0.20649,0.33088,-9.7642,0,0,43.817,1,1,8009,4004
5378,6.6229e+07,0,-0.00092886,-0.0015591,-0.00048417,-0.20806,0.32926,-9.7617,0,0,43.817,1,1,8009,4004
5413,6.6232e+07,0,0.00054649,-0.0021044,-0.00092759,-0.2132,0.32873,-9.7589,0,0,43.817,1,1,8009,4004
5416,6.6235e+07,0,0.0010145,-0.0026541,-0.0014475,-0.22003,0.32686,-9.7578,0,0,43.817,1,1,8009,4004
5419,6.6237e+07,0,8.1522e-05,-0.0020597,-0.0011684,-0.22368,0.32507,-9.7584,0,0,43.817,1,1,8009,4004
5423,6.624e+07,0,-0.00033504,-0.0012434,-0.00096283,-0.22661,0.32216,-9.7589,0,0,43.817,1,1,8009,4004
5458,6.6242e+07,0,-0.00078557,-0.0025383,-0.00097957,-0.22936,0.31816,-9.7611,0,0,43.817,1,1,8009,4004
5462,6.6245e+07,0,-0.00096773,-0.0028769,-0.00012811,-0.22905,0.31628,-9.7663,0,0,43.817,1,1,8009,4004
5465,6.6247e+07,0,-0.00093783,-0.0028288,0.0003365,-0.22751,0.31532,-9.7695,0,0,43.817,1,1,8009,4004
5468,6.625e+07,0,-0.00087255,-0.0036768,0.0007749,-0.2265,0.31439,-9.7746,0,0,43.817,1,1,8009,4004
5503,6.6253e+07,0,-0.00019846,-0.0042045,0.0010983,-0.22633,0.31357,-9.7788,0,0,43.817,1,1,8009,4004
5509,6.6256e+07,0,0.00029035,-0.0043823,0.00054818,-0.22558,0.31352,-9.7769,0,0,43.817,1,1,8009,4004
5512,6.6264e+07,0,-0.0016958,-0.0036737,-0.0024987,-0.21671,0.332,-9.7521,0,0,43.818,1,1,8009,4004
5547,6.6267e+07,0,-0.0023778,-0.0022869,-0.0016804,-0.21491,0.33844,-9.7493,0,0,43.818,1,1,8009,4004
5550,6.6271e+07,0,-0.0023681,-0.00066797,-0.00049762,-0.21434,0.3422,-9.7504,0,0,43.818,1,1,8009,4004
5553,6.6273e+07,0,-0.0010787,-8.7232e-05,0.00070778,-0.214,0.34638,-9.7533,0,0,43.818,1,1,8009,4004
5556,6.6275e+07,0,-0.00022082,-0.00060036,0.00078453,-0.2147,0.34756,-9.7547,0,0,43.818,1,1,8009,4004
5592,6.6277e+07,0,0.00050428,-0.0015001,0.00090915,-0.21608,0.34642,-9.7535,0,0,43.817,1,1,8009,4004
5595,6.628e+07,0,0.00097607,-0.0010495,0.00026423,-0.21821,0.34605,-9.7495,0,0,43.817,1,1,8009,4004
5598,6.6283e+07,0,0.00029283,-0.00067194,-0.0001013,-0.21953,0.3458,-9.7451,0,0,43.817,1,1,8009,4004
5601,6.6286e+07,0,-0.0012531,-0.00068012,0.00032872,-0.22167,0.3431,-9.7419,0,0,43.817,1,1,8009,4004
5636,6.6288e+07,0,-0.0019638,0.00053526,0.0015165,-0.22595,0.34182,-9.7463,0,0,43.817,1,1,8009,4004
5641,6.629e+07,0,-0.0024788,0.0011843,0.0014911,-0.22688,0.34176,-9.7505,0,0,43.817,1,1,8009,4004
5644,6.6294e+07,0,-0.0013396,0.0016708,0.0020865,-0.22714,0.33869,-9.7565,0,0,43.817,1,1,8009,4004
5647,6.6295e+07,0,-0.00077218,0.0018488,0.0019939,-0.22805,0.33671,-9.759,0,0,43.818,1,1,8009,4004
5682,6.6299e+07,0,-0.00040767,0.0019735,0.0019266,-0.23014,0.33451,-9.765,0,0,43.818,1,1,8009,4004
5685,6.6301e+07,0,-0.00033845,0.0024953,0.0018218,-0.23097,0.33326,-9.7693,0,0,43.818,1,1,8009,4004
5688,6.6303e+07,0,-0.00058553,0.0034605,0.0016734,-0.23242,0.33257,-9.7712,0,0,43.818,1,1,8009,4004
5691,6.6306e+07,0,-3.134e-05,0.0035929,0.0011337,-0.23207,0.33171,-9.7718,0,0,43.818,1,1,8009,4004
5726,6.6308e+07,0,0.00051728,0.0039168,0.00048686,-0.22753,0.32879,-9.7723,0,0,43.818,1,1,8009,4004
5731,6.6311e+07,0,-0.00060116,0.0035499,0.00059473,-0.22397,0.32523,-9.7706,0,0,43.818,1,1,8009,4004
5734,6.6314e+07,0,-0.0011532,0.0025916,0.00067614,-0.22271,0.32482,-9.7684,0,0,43.818,1,1,8009,4004
5737,6.6316e+07,0,-0.0017562,0.0025287,0.001529,-0.2197,0.3268,-9.7648,0,0,43.817,1,1,8009,4004
5772,6.6319e+07,0,-0.001558,0.0028837,0.0017679,-0.21847,0.32842,-9.763,0,0,43.817,1,1,8009,4004
5775,6.6321e+07,0,-0.0011367,0.003056,0.0013851,-0.21997,0.33092,-9.7618,0,0,43.817,1,1,8009,4004
5778,6.6324e+07,0,-0.0014258,0.003548,0.0014516,-0.22167,0.33278,-9.7635,0,0,43.817,1,1,8009,4004
5785,6.6326e+07,0,-0.0018594,0.0033885,0.00019912,-0.22444,0.33557,-9.7666,0,0,43.817,1,1,8009,4004
5820,6.6329e+07,0,-0.0017032,0.003021,-0.00098225,-0.22584,0.33847,-9.7648,0,0,43.817,1,1,8009,4004
5824,6.6331e+07,0,-0.00028179,0.0028592,-0.00096344,-0.22366,0.33973,-9.7581,0,0,43.817,1,1,8009,4004
5827,6.6334e+07,0,-0.00014194,0.0028931,-0.00040138,-0.22154,0.33899,-9.7526,0,0,43.817,1,1,8009,4004
5830,6.6336e+07,0,0.00029467,0.0035476,0.001302,-0.21969,0.33888,-9.7478,0,0,43.817,1,1,8009,4004
5867,6.6339e+07,0,0.00066803,0.0025489,0.0018841,-0.22087,0.33909,-9.7477,0,0,43.817,1,1,8009,4004
5870,6.6342e+07,0,0.00097072,0.0014662,0.0014859,-0.22222,0.3386,-9.7509,0,0,43.817,1,1,8009,4004
5873,6.6344e+07,0,0.0019184,5.147e-05,0.0012879,-0.22105,0.33777,-9.7546,0,0,43.817,1,1,8009,4004
5876,6.6346e+07,0,0.0018818,-0.00062675,0.0012981,-0.21843,0.33823,-9.7542,0,0,43.817,1,1,8009,4004
5911,6.6349e+07,0,0.00081954,-0.00066447,0.00093987,-0.21461,0.33885,-9.751,0,0,43.817,1,1,8009,4004
5915,6.6351e+07,0,0.00062675,-0.00040311,0.00042886,-0.21262,0.33797,-9.7485,0,0,43.818,1,1,8009,4004
5918,6.6354e+07,0,0.0011507,-0.00057677,-0.00050458,-0.21158,0.33486,-9.7434,0,0,43.818,1,1,8009,4004
5921,6.6357e+07,0,0.0019328,-0.00051139,-0.00064476,-0.21344,0.33206,-9.7408,0,0,43.818,1,1,8009,4004
5956,6.6359e+07,0,0.0020191,-0.00058991,3.7327e-05,-0.21798,0.32688,-9.7389,0,0,43.818,1,1,8009,4004
5960,6.6363e+07,0,0.00069147,-0.00054821,0.00051356,-0.22089,0.32097,-9.7432,0,0,43.818,1,1,8009,4004
5963,6.6364e+07,0,0.00084289,-0.0013712,0.00066297,-0.22308,0.31796,-9.7473,0,0,43.818,1,1,8009,4004
5966,6.6368e+07,0,0.00059427,-0.0020448,0.0002565,-0.22599,0.31781,-9.7529,0,0,43.818,1,1,8009,4004
5969,6.6369e+07,0,-0.00019258,-0.0018782,-5.4317e-05,-0.2273,0.3192,-9.7551,0,0,43.818,1,1,8009,4004
6004,6.6372e+07,0,-0.002591,-0.0010445,-6.6899e-05,-0.22877,0.32143,-9.7531,0,0,43.818,1,1,8009,4004
6007,6.6376e+07,0,-0.0039263,-0.0010185,0.00057878,-0.22837,0.32359,-9.752,0,0,43.818,1,1,8009,4004
6010,6.6377e+07,0,-0.0031947,-0.0020298,0.0012491,-0.22663,0.32916,-9.7512,0,0,43.818,1,1,8009,4004
6013,6.638e+07,0,-0.0014017,-0.0028252,0.0017425,-0.22566,0.33336,-9.7491,0,0,43.818,1,1,8009,4004
6049,6.6383e+07,0,0.001304,-0.0022246,0.0025736,-0.2239,0.33682,-9.7453,0,0,43.818,1,1,8009,4004
6052,6.6385e+07,0,0.0014601,-0.0017572,0.0021762,-0.22216,0.33744,-9.744,0,0,43.818,1,1,8009,4004
6055,6.6387e+07,0,0.00011075,-0.0012266,0.0012299,-0.21836,0.33798,-9.7447,0,0,43.818,1,1,8009,4004
6058,6.639e+07,0,-0.0012285,-0.0015373,6.3181e-05,-0.21538,0.33859,-9.7462,0,0,43.818,1,1,8009,4004
6093,6.6393e+07,0,-0.0012719,-0.0016068,-0.0025113,-0.21141,0.33694,-9.7494,0,0,43.818,1,1,8009,4004
6096,6.6396e+07,0,-0.0018633,-0.0021934,-0.0033235,-0.20887,0.33366,-9.7495,0,0,43.818,1,1,8009,4004
6099,6.6397e+07,0,-0.0023787,-0.0025781,-0.002415,-0.20866,0.33315,-9.7494,0,0,43.818,1,1,8009,4004
6102,6.64e+07,0,-0.0025657,-0.0017102,-0.0010337,-0.2119,0.33335,-9.7515,0,0,43.818,1,1,8009,4004
6137,6.6403e+07,0,-0.0023278,-0.00051098,-0.00020095,-0.21759,0.33479,-9.7559,0,0,43.818,1,1,8009,4004
6141,6.6405e+07,0,-0.0016495,9.3436e-05,-0.00030639,-0.22196,0.33611,-9.7577,0,0,43.818,1,1,8009,4004
6145,6.6408e+07,0,-0.001419,0.001021,-0.00076871,-0.22521,0.33756,-9.7603,0,0,43.818,1,1,8009,4004
6148,6.6411e+07,0,-0.0014289,0.001134,-0.0016785,-0.22581,0.33685,-9.7609,0,0,43.818,1,1,8009,4004
6183,6.6414e+07,0,-0.0013786,0.0015181,-0.003571,-0.22782,0.33462,-9.7633,0,0,43.818,1,1,8009,4004
6187,6.6416e+07,0,-0.0013317,0.0021495,-0.0035564,-0.22982,0.33484,-9.7651,0,0,43.818,1,1,8009,4004
6190,6.6418e+07,0,-0.00061364,0.002357,-0.0026798,-0.23291,0.33839,-9.7624,0,0,43.818,1,1,8009,4004
6193,6.642e+07,0,-0.00097588,0.0026236,-0.001654,-0.23258,0.34006,-9.7577,0,0,43.818,1,1,8009,4004
6228,6.6423e+07,0,-0.0018297,0.0031723,-0.00094406,-0.22763,0.33969,-9.7523,0,0,43.818,1,1,8009,4004
6231,6.6426e+07,0,-0.0012162,0.0035032,-0.00029338,-0.22476,0.33949,-9.7515,0,0,43.819,1,1,8009,4004
6238,6.6429e+07,0,-0.00018913,0.0032887,0.00030283,-0.22203,0.33877,-9.7549,0,0,43.819,1,1,8009,4004
6241,6.643e+07,0,0.00020134,0.0031457,-0.00010619,-0.2205,0.33755,-9.7587,0,0,43.819,1,1,8009,4004
6276,6.6433e+07,0,0.00093402,0.0036151,-0.00096848,-0.21765,0.33538,-9.7637,0,0,43.819,1,1,8009,4004
6280,6.6435e+07,0,0.00070193,0.0032728,-0.0014281,-0.21704,0.33472,-9.7666,0,0,43.819,1,1,8009,4004
6284,6.6439e+07,0,0.00045523,0.0027614,-0.0022034,-0.21742,0.3346,-9.7674,0,0,43.819,1,1,8009,4004
6287,6.6441e+07,0,0.00057992,0.0026902,-0.0018415,-0.21756,0.33569,-9.7675,0,0,43.819,1,1,8009,4004
6322,6.6443e+07,0,0.00011791,0.0035398,-0.0010021,-0.21728,0.33721,-9.7675,0,0,43.82,1,1,8009,4004
6325,6.6446e+07,0,-0.00069926,0.0041112,-0.00020768,-0.21746,0.33817,-9.7664,0,0,43.82,1,1,8009,4004
6328,6.6448e+07,0,-0.00098889,0.0035837,-0.00023936,-0.2178,0.33927,-9.7662,0,0,43.82,1,1,8009,4004
6331,6.6451e+07,0,-0.00014283,0.0026815,-0.001152,-0.21939,0.34022,-9.768,0,0,43.82,1,1,8009,4004
6366,6.6454e+07,0,-4.0585e-05,0.0016333,-0.00088714,-0.22215,0.34141,-9.7719,0,0,43.82,1,1,8009,4004
6370,6.6456e+07,0,9.8276e-05,0.00075355,-0.00047401,-0.22403,0.34378,-9.7763,0,0,43.821,1,1,8009,4004
6373,6.6459e+07,0,0.00025131,-0.00060652,0.00039412,-0.22419,0.34648,-9.7799,0,0,43.821,1,1,8009,4004
6378,6.6462e+07,0,0.00093971,-0.00041554,0.0017885,-0.22258,0.34601,-9.778,0,0,43.821,1,1,8009,4004
6413,6.647e+07,0,0.00039659,0.00066464,-0.00075098,-0.21676,0.33951,-9.7548,0,0,43.822,1,1,8009,4004
6417,6.6473e+07,0,0.00068194,0.00029181,-0.00025445,-0.21244,0.33658,-9.7508,0,0,43.822,1,1,8009,4004
6452,6.6477e+07,0,0.00060808,-0.00081219,0.00082407,-0.20998,0.33552,-9.7493,0,0,43.822,1,1,8009,4004
6455,6.6479e+07,0,0.0011488,-0.0014632,0.0013683,-0.21103,0.33628,-9.751,0,0,43.822,1,1,8009,4004
6458,6.6481e+07,0,0.0028297,-0.0014603,0.0028965,-0.21276,0.33753,-9.755,0,0,43.822,1,1,8009,4004
6461,6.6483e+07,0,0.0036318,-0.0016106,0.0029319,-0.21307,0.33872,-9.7587,0,0,43.822,1,1,8009,4004
6496,6.6486e+07,0,0.0038721,-0.0020343,0.00074996,-0.21328,0.33852,-9.7599,0,0,43.822,1,1,8009,4004
6499,6.6489e+07,0,0.0031446,-0.0012909,-0.00054227,-0.21382,0.33742,-9.7586,0,0,43.823,1,1,8009,4004
6502,6.6491e+07,0,0.0020929,-0.00047063,-0.0010853,-0.21424,0.33545,-9.7575,0,0,43.823,1,1,8009,4004
6506,6.6493e+07,0,1.3921e-05,-0.0011583,-0.00077892,-0.21589,0.3318,-9.7601,0,0,43.823,1,1,8009,4004
6541,6.6496e+07,0,0.00025832,-0.002956,0.0010685,-0.21783,0.32754,-9.7663,0,0,43.823,1,1,8009,4004
6544,6.6498e+07,0,0.0010199,-0.0038274,0.001962,-0.21863,0.32392,-9.7676,0,0,43.823,1,1,8009,4004
6547,6.6501e+07,0,0.0013268,-0.0036942,0.002388,-0.21975,0.32168,-9.7689,0,0,43.823,1,1,8009,4004
6551,6.6504e+07,0,0.0014813,-0.0035443,0.0016351,-0.22006,0.31941,-9.7719,0,0,43.823,1,1,8009,4004
6586,6.6506e+07,0,0.00015326,-0.0033129,0.0010172,-0.21962,0.31924,-9.7736,0,0,43.823,1,1,8009,4004
6589,6.6509e+07,0,-0.00041129,-0.0031577,0.00074611,-0.2181,0.32344,-9.7717,0,0,43.823,1,1,8009,4004
6594,6.6512e+07,0,-8.9327e-05,-0.0033152,0.0006034,-0.21648,0.32782,-9.7696,0,0,43.823,1,1,8009,4004
6597,6.6514e+07,0,0.00034718,-0.0022272,-3.3215e-05,-0.2155,0.33308,-9.7654,0,0,43.823,1,1,8009,4004
6632,6.6517e+07,0,0.00035737,-0.0020118,-3.9991e-05,-0.21615,0.33599,-9.7649,0,0,43.823,1,1,8009,4004
6635,6.6519e+07,0,0.0002655,-0.0014966,-0.0005786,-0.21985,0.33808,-9.7669,0,0,43.823,1,1,8009,4004
6638,6.6521e+07,0,0.00072689,-0.00047144,-0.00088439,-0.22418,0.33678,-9.7689,0,0,43.823,1,1,8009,4004
6642,6.6524e+07,0,0.00021117,-0.00029074,-0.00075226,-0.22945,0.33383,-9.7709,0,0,43.823,1,1,8009,4004
6677,6.6527e+07,0,-0.00058607,-0.00058917,-0.00061821,-0.23026,0.33255,-9.7716,0,0,43.823,1,1,8009,4004
6680,6.6529e+07,0,6.7469e-05,5.9153e-05,-0.00013972,-0.22928,0.33146,-9.772,0,0,43.823,1,1,8009,4004
6687,6.6532e+07,0,0.0010022,0.0015791,0.00073867,-0.22978,0.32901,-9.7749,0,0,43.823,1,1,8009,4004
6690,6.6534e+07,0,0.00098553,0.0015554,0.00028746,-0.23088,0.328,-9.7776,0,0,43.823,1,1,8009,4004
6725,6.6537e+07,0,9.0261e-05,0.0008604,0.00024755,-0.23274,0.32705,-9.78,0,0,43.823,1,1,8009,4004
6728,6.654e+07,0,0.00047417,0.00062902,-0.00014546,-0.23437,0.32662,-9.7799,0,0,43.823,1,1,8009,4004
6731,6.6542e+07,0,0.0014067,0.0022746,-0.001534,-0.23383,0.32688,-9.7797,0,0,43.823,1,1,8009,4004
6735,6.6544e+07,0,0.0015633,0.0028498,-0.0024191,-0.23131,0.32784,-9.779,0,0,43.823,1,1,8009,4004
6770,6.6547e+07,0,0.002213,0.0026414,-0.0030404,-0.2266,0.33034,-9.7764,0,0,43.823,1,1,8009,4004
6773,6.655e+07,0,0.0022762,0.0022257,-0.0026707,-0.22264,0.33163,-9.7738,0,0,43.824,1,1,8009,4004
6776,6.6552e+07,0,0.001687,0.0025702,-0.0025611,-0.2168,0.33325,-9.7687,0,0,43.824,1,1,8009,4004
6780,6.6554e+07,0,0.0011867,0.0037926,-0.0023631,-0.21486,0.33438,-9.7658,0,0,43.824,1,1,8009,4004
6815,6.6557e+07,0,0.0014895,0.0035055,-0.0014323,-0.21191,0.33507,-9.7637,0,0,43.824,1,1,8009,4004
6818,6.6559e+07,0,0.0016917,0.0026858,-0.0010969,-0.20986,0.33446,-9.7616,0,0,43.824,1,1,8009,4004
6821,6.6563e+07,0,0.0011183,0.0027096,-0.0015086,-0.20835,0.33431,-9.7582,0,0,43.824,1,1,8009,4004
6824,6.6565e+07,0,0.0010574,0.0026088,-0.0015886,-0.20896,0.33458,-9.7585,0,0,43.824,1,1,8009,4004
6859,6.6567e+07,0,0.001295,0.0027678,-0.0017162,-0.20841,0.33468,-9.7601,0,0,43.824,1,1,8009,4004
6862,6.657e+07,0,0.00082956,0.0014766,-0.0019839,-0.2069,0.33281,-9.7616,0,0,43.824,1,1,8009,4004
6865,6.6573e+07,0,0.00064949,0.000597,-0.0019216,-0.20621,0.33185,-9.7605,0,0,43.824,1,1,8009,4004
6869,6.6576e+07,0,-0.00047191,0.00039311,-0.0012813,-0.20707,0.33239,-9.7584,0,0,43.824,1,1,8009,4004
6904,6.6579e+07,0,-0.0020422,-0.00056745,-0.00059997,-0.20725,0.33288,-9.7568,0,0,43.824,1,1,8009,4004
6907,6.6581e+07,0,-0.0023809,-0.00073409,-0.00027502,-0.20735,0.33421,-9.7588,0,0,43.825,1,1,8009,4004
6910,6.6584e+07,0,-0.001315,0.00033799,0.00013228,-0.20745,0.33568,-9.7591,0,0,43.825,1,1,8009,4004
6913,6.6586e+07,0,0.00069873,0.0014525,0.00079364,-0.20648,0.3374,-9.7564,0,0,43.825,1,1,8009,4004
6948,6.6589e+07,0,0.00075761,0.0012475,-0.00016048,-0.20726,0.33776,-9.7535,0,0,43.825,1,1,8009,4004
6951,6.6592e+07,0,-0.00037945,0.0013416,-0.00085382,-0.2087,0.33811,-9.7534,0,0,43.825,1,1,8009,4004
6954,6.6594e+07,0,-0.0016508,0.00049827,-0.0014427,-0.20793,0.33927,-9.7581,0,0,43.825,1,1,8009,4004
6959,6.6596e+07,0,-0.0023003,-0.00076021,-0.00065489,-0.20667,0.34156,-9.761,0,0,43.825,1,1,8009,4004
6994,6.6599e+07,0,-0.0021453,-0.0016264,0.0010092,-0.2062,0.34418,-9.7626,0,0,43.825,1,1,8009,4004
6998,6.6602e+07,0,-0.0014084,-0.0014649,0.0015724,-0.20698,0.34486,-9.7631,0,0,43.825,1,1,8009,4004
7001,6.6604e+07,0,-0.001382,-0.0010813,0.0013771,-0.20911,0.34335,-9.7624,0,0,43.825,1,1,8009,4004
7004,6.6606e+07,0,-0.0015832,-0.001833,0.00071079,-0.21004,0.34034,-9.7602,0,0,43.825,1,1,8009,4004
7039,6.6609e+07,0,-0.00184,-0.0027059,0.00072591,-0.21069,0.33625,-9.7545,0,0,43.825,1,1,8009,4004
7042,6.6612e+07,0,-0.0027112,-0.0022849,0.001341,-0.21208,0.33425,-9.7519,0,0,43.825,1,1,8009,4004
7046,6.6614e+07,0,-0.00295,-0.00099105,0.0012162,-0.21341,0.33173,-9.7511,0,0,43.825,1,1,8009,4004
7050,6.6617e+07,0,-0.0025406,-0.00037938,0.00051466,-0.21406,0.32934,-9.7527,0,0,43.825,1,1,8009,4004
7085,6.6619e+07,0,-0.0023535,-0.0012496,-1.96e-05,-0.21542,0.32532,-9.7555,0,0,43.825,1,1,8009,4004
7088,6.6623e+07,0,-0.0026773,-0.0011581,0.00028485,-0.21557,0.32468,-9.7596,0,0,43.825,1,1,8009,4004
7091,6.6625e+07,0,-0.0025337,-0.00073346,0.00058588,-0.21553,0.3262,-9.7639,0,0,43.825,1,1,8009,4004
7095,6.6627e+07,0,-0.0022934,-0.00048998,0.0010863,-0.2157,0.32711,-9.7712,0,0,43.825,1,1,8009,4004
7130,6.663e+07,0,-0.0022534,-0.00091293,0.0018064,-0.21639,0.32617,-9.7765,0,0,43.826,1,1,8009,4004
7133,6.6632e+07,0,-0.002218,-0.00127,0.0014129,-0.21781,0.32592,-9.7764,0,0,43.826,1,1,8009,4004
7140,6.6635e+07,0,-0.0020859,-0.0023142,0.00035558,-0.21919,0.32748,-9.7744,0,0,43.825,1,1,8009,4004
7143,6.6637e+07,0,-0.002546,-0.0030688,-0.00056587,-0.21952,0.3313,-9.7724,0,0,43.825,1,1,8009,4004
7178,6.664e+07,0,-0.0033344,-0.0019925,-0.00061126,-0.2179,0.33523,-9.7734,0,0,43.825,1,1,8009,4004
7181,6.6643e+07,0,-0.0037824,-0.001118,-0.00064365,-0.21783,0.3382,-9.7746,0,0,43.825,1,1,8009,4004
7184,6.6645e+07,0,-0.0034794,7.8627e-05,-0.00065492,-0.21823,0.34153,-9.7756,0,0,43.825,1,1,8009,4004
7188,6.6647e+07,0,-0.0031621,0.00067709,-0.0012143,-0.21954,0.34597,-9.7771,0,0,43.825,1,1,8009,4004
7223,6.665e+07,0,-0.0024531,-0.00013318,-0.001044,-0.22109,0.34825,-9.7795,0,0,43.825,1,1,8009,4004
7227,6.6653e+07,0,-0.0017358,0.00040648,0.001259,-0.22232,0.34873,-9.7837,0,0,43.825,1,1,8009,4004
7230,6.6655e+07,0,-0.0014871,0.0014922,0.0023586,-0.22251,0.34705,-9.7862,0,0,43.825,1,1,8009,4004
7233,6.6658e+07,0,-0.00039217,0.0024995,0.0023956,-0.22165,0.34216,-9.7889,0,0,43.825,1,1,8009,4004
7268,6.6661e+07,0,-0.00049414,0.0021828,0.0010885,-0.22042,0.33866,-9.7885,0,0,43.825,1,1,8009,4004
7271,6.6664e+07,0,-0.00073903,0.0017295,0.0010891,-0.22029,0.33748,-9.7866,0,0,43.825,1,1,8009,4004
7274,6.6666e+07,0,-0.00038012,0.0011171,0.001363,-0.22031,0.33759,-9.7829,0,0,43.825,1,1,8009,4004
7280,6.6669e+07,0,4.6399e-06,0.0012325,0.00050953,-0.21936,0.33794,-9.7797,0,0,43.825,1,1,8009,4004
7315,6.6674e+07,0,-0.00060627,0.0024015,0.0013267,-0.21381,0.33818,-9.7645,0,0,43.826,1,1,8009,4004
7318,6.668e+07,0,-0.001557,0.0015484,0.0014585,-0.20441,0.34006,-9.7573,0,0,43.825,1,1,8009,4004
7353,6.6684e+07,0,-0.0010587,0.0015928,0.00097556,-0.20184,0.34165,-9.757,0,0,43.825,1,1,8009,4004
7356,6.6685e+07,0,-0.00052623,0.0017217,0.00096493,-0.19996,0.34235,-9.7567,0,0,43.825,1,1,8009,4004
7359,6.6688e+07,0,-0.00039372,0.0020069,0.00067336,-0.20085,0.34161,-9.7562,0,0,43.825,1,1,8009,4004
7362,6.6691e+07,0,-5.8298e-05,0.0014865,0.00081244,-0.20435,0.33945,-9.7543,0,0,43.825,1,1,8009,4004
7398,6.6694e+07,0,4.0771e-05,0.00098069,0.00074602,-0.20873,0.33812,-9.7551,0,0,43.825,1,1,8009,4004
7402,6.6696e+07,0,-0.00081767,0.0018276,0.0006644,-0.21307,0.33823,-9.7569,0,0,43.825,1,1,8009,4004
7405,6.6699e+07,0,-0.0012022,0.0028186,0.00064879,-0.21413,0.3397,-9.7576,0,0,43.825,1,1,8009,4004
7409,6.6701e+07,0,-0.00055104,0.0022266,0.00049099,-0.21649,0.34237,-9.754,0,0,43.825,1,1,8009,4004
7444,6.6704e+07,0,-3.693e-05,0.0012686,0.00051212,-0.21879,0.34317,-9.7491,0,0,43.825,1,1,8009,4004
7448,6.6707e+07,0,0.00059738,4.8379e-05,0.00017386,-0.22016,0.3457,-9.743,0,0,43.825,1,1,8009,4004
7452,6.6709e+07,0,0.00068463,0.00028595,-0.00072154,-0.22123,0.34892,-9.7434,0,0,43.825,1,1,8009,4004
7455,6.6711e+07,0,0.0020776,0.0010297,-0.00061961,-0.22102,0.35242,-9.7493,0,0,43.825,1,1,8009,4004
7490,6.6713e+07,0,0.0032322,0.00063822,-0.00059061,-0.22086,0.35163,-9.7514,0,0,43.825,1,1,8009,4004
7494,6.6716e+07,0,0.003784,-0.00028476,-0.0010587,-0.22091,0.34867,-9.7536,0,0,43.825,1,1,8009,4004
7497,6.6719e+07,0,0.0026729,-0.00082136,-0.0010049,-0.22042,0.34618,-9.7561,0,0,43.825,1,1,8009,4004
7500,6.6722e+07,0,0.0014408,-0.001392,-0.0012837,-0.21981,0.34334,-9.7611,0,0,43.826,1,1,8009,4004
7535,6.6724e+07,0,0.0028655,-0.00064015,-0.00091834,-0.22158,0.34019,-9.7653,0,0,43.826,1,1,8009,4004
7539,6.6727e+07,0,0.0019559,0.00033365,-0.0004664,-0.22478,0.33334,-9.7646,0,0,43.826,1,1,8009,4004
7542,6.673e+07,0,-0.00070495,0.00060824,-0.0012044,-0.22496,0.32845,-9.7622,0,0,43.825,1,1,8009,4004
7545,6.6733e+07,0,-0.00085281,-0.00065628,-0.003627,-0.22534,0.32771,-9.7627,0,0,43.825,1,1,8009,4004
7580,6.6735e+07,0,0.004463,0.00035172,-0.0070602,-0.23155,0.32772,-9.7719,0,0,43.825,1,1,8009,4004
7584,6.6738e+07,0,0.0041231,0.0027819,-0.0070789,-0.23279,0.3213,-9.7754,0,0,43.825,1,1,8009,4004
7591,6.674e+07,0,-0.0049876,0.0035769,-0.004801,-0.22231,0.31246,-9.7676,0,0,43.825,1,1,8009,4004
7594,6.6743e+07,0,-0.006679,0.00089689,-0.0040996,-0.216,0.31713,-9.7613,0,0,43.825,1,1,8009,4004
7629,6.6746e+07,0,0.0042686,-0.0024921,-0.0043473,-0.21678,0.32913,-9.7579,0,0,43.825,1,1,8009,4004
7632,6.6748e+07,0,0.010153,-0.0022213,-0.0035792,-0.21651,0.32594,-9.7559,0,0,43.825,1,1,8009,4004
7635,6.675e+07,0,0.0036437,-0.00043339,-0.0015398,-0.21379,0.30996,-9.75,0,0,43.825,1,1,8009,4004
7638,6.6753e+07,0,-0.0055842,0.00048154,-0.0013164,-0.21631,0.30778,-9.7505,0,0,43.825,1,1,8009,4004
7673,6.6756e+07,0,-0.0020879,-0.00036028,-0.0022826,-0.2216,0.327,-9.7651,0,0,43.825,1,1,8009,4004
7677,6.6758e+07,0,0.0058344,-0.0017544,-0.002865,-0.21855,0.33077,-9.7711,0,0,43.825,1,1,8009,4004
7680,6.6761e+07,0,0.0071306,-0.0010549,-0.0023393,-0.21989,0.32589,-9.7786,0,0,43.825,1,1,8009,4004
7683,6.6763e+07,0,-0.0010974,0.0028309,-0.00092874,-0.22657,0.31936,-9.7767,0,0,43.825,1,1,8009,4004
7718,6.6766e+07,0,-0.014457,0.0058462,0.0024459,-0.22023,0.31587,-9.7486,0,0,43.825,1,1,8009,4004
7721,6.6769e+07,0,-0.010124,-0.00045365,0.0037417,-0.20561,0.32717,-9.7304,0,0,43.825,1,1,8009,4004
7725,6.6771e+07,0,0.017831,-0.010465,0.0015771,-0.20418,0.34764,-9.7443,0,0,43.825,1,1,8009,4004
7729,6.6774e+07,0,0.025167,-0.0028589,0.00055516,-0.22293,0.33619,-9.7695,0,0,43.825,1,1,8009,4004
7764,6.6776e+07,0,-0.011792,0.018376,0.0042385,-0.23368,0.299,-9.7695,0,0,43.825,1,1,8009,4004
7768,6.6779e+07,0,-0.032785,0.014893,0.006558,-0.21087,0.31651,-9.7428,0,0,43.825,1,1,8009,4004
7771,6.6782e+07,0,0.0046363,-0.016045,0.0028191,-0.18651,0.39215,-9.7293,0,0,43.825,1,1,8009,4004
7774,6.6784e+07,0,0.036785,-0.012145,0.0014176,-0.22343,0.36281,-9.7549,0,0,43.825,1,1,8009,4004
7809,6.6786e+07,0,0.0043966,0.014699,0.005232,-0.24443,0.31073,-9.7692,0,0,43.825,1,1,8009,4004
7812,6.6789e+07,0,-0.034906,0.029593,0.005391,-0.23479,0.31769,-9.7796,0,0,43.825,1,1,8009,4004
7815,6.6791e+07,0,-0.0085545,0.0061854,0.00036497,-0.20034,0.39417,-9.7727,0,0,43.825,1,1,8009,4004
7818,6.6794e+07,0,0.032543,-0.02681,-0.0011606,-0.19566,0.38372,-9.7463,0,0,43.825,1,1,8009,4004
7853,6.6798e+07,0,-0.0017177,-0.0041051,0.003501,-0.22632,0.29983,-9.7306,0,0,43.826,1,1,8009,4004
7857,6.6799e+07,0,-0.023951,0.020404,0.0074442,-0.23684,0.32512,-9.767,0,0,43.826,1,1,8009,4004
7860,6.6802e+07,0,0.0027017,0.011383,0.0083371,-0.2078,0.37789,-9.7891,0,0,43.826,1,1,8009,4004
7863,6.6804e+07,0,0.022,-0.014102,0.0050722,-0.18582,0.35131,-9.7527,0,0,43.826,1,1,8009,4004
7898,6.6807e+07,0,-0.0018648,-0.016435,0.0033846,-0.20863,0.28642,-9.7085,0,0,43.826,1,1,8009,4004
7902,6.681e+07,0,-0.020694,0.0026412,0.0050251,-0.22897,0.30622,-9.723,0,0,43.826,1,1,8009,4004
7905,6.6812e+07,0,-0.0031929,0.014179,0.0055865,-0.21931,0.35736,-9.7555,0,0,43.826,1,1,8009,4004
7908,6.6814e+07,0,0.018506,0.0052949,0.0039311,-0.20844,0.34722,-9.7612,0,0,43.826,1,1,8009,4004
7943,6.6817e+07,0,0.008146,-0.009201,0.0016494,-0.20727,0.31171,-9.7485,0,0,43.826,1,1,8009,4004
7946,6.682e+07,0,-0.0123,-0.010631,0.0030432,-0.20539,0.31337,-9.7484,0,0,43.826,1,1,8009,4004
7949,6.6823e+07,0,-0.013972,-0.005103,0.004034,-0.20924,0.34988,-9.7777,0,0,43.826,1,1,8009,4004
7952,6.6824e+07,0,-0.0009647,0.005008,0.0047482,-0.22586,0.36439,-9.7862,0,0,43.826,1,1,8009,4004
7987,6.6827e+07,0,0.0052131,0.015334,0.0076507,-0.22896,0.35158,-9.7582,0,0,43.826,1,1,8009,4004
7991,6.6829e+07,0,0.0017232,0.004392,0.0059443,-0.20395,0.35009,-9.7411,0,0,43.826,1,1,8009,4004
7995,6.6833e+07,0,0.0026269,-0.024182,-0.00034528,-0.19061,0.35967,-9.7311,0,0,43.826,1,1,8009,4004
7998,6.6835e+07,0,0.00093541,-0.020704,-0.0026928,-0.22052,0.34967,-9.7332,0,0,43.826,1,1,8009,4004
8035,6.6837e+07,0,-0.011522,0.020037,0.00035871,-0.25588,0.33647,-9.7423,0,0,43.826,1,1,8009,4004
8038,6.684e+07,0,-0.0082404,0.02005,0.0015369,-0.21332,0.35506,-9.7338,0,0,43.827,1,1,8009,4004
8045,6.6843e+07,0,0.0117,-0.010828,-0.003101,-0.1908,0.36873,-9.7316,0,0,43.827,1,1,8009,4004
8048,6.6846e+07,0,0.02221,-0.0225,-0.0081762,-0.24142,0.34373,-9.7477,0,0,43.827,1,1,8009,4004
8083,6.6849e+07,0,-0.019071,0.019954,-0.0012311,-0.27954,0.30061,-9.7673,0,0,43.827,1,1,8009,4004
8087,6.685e+07,0,-0.034751,0.029641,0.0026776,-0.24823,0.31278,-9.7757,0,0,43.827,1,1,8009,4004
8091,6.6853e+07,0,-0.0029858,-0.0070909,-0.0024893,-0.21083,0.35126,-9.7781,0,0,43.827,1,1,8009,4004
8096,6.6856e+07,0,0.02508,-0.020346,-0.007741,-0.23709,0.34295,-9.7739,0,0,43.827,1,1,8009,4004
8131,6.6864e+07,0,-0.019018,-0.0005683,-0.0072489,-0.21225,0.3345,-9.8128,0,0,43.827,1,1,8009,4004
8135,6.6867e+07,0,0.020642,-0.013687,-0.0083074,-0.23171,0.34528,-9.789,0,0,43.826,1,1,8009,4004
8170,6.687e+07,0,0.018258,0.00030456,-0.005617,-0.23364,0.31718,-9.7656,0,0,43.826,1,1,8009,4004
8173,6.6872e+07,0,-0.016012,0.015314,-0.0016576,-0.20152,0.30362,-9.7662,0,0,43.826,1,1,8009,4004
8176,6.6875e+07,0,-0.02334,0.0084022,-0.0028659,-0.18704,0.32822,-9.7858,0,0,43.826,1,1,8009,4004
8179,6.6877e+07,0,0.0015694,-0.0026766,-0.0085994,-0.19645,0.36086,-9.8009,0,0,43.826,1,1,8009,4004
8214,6.6879e+07,0,0.017975,-0.00083242,-0.010851,-0.19864,0.36255,-9.7957,0,0,43.826,1,1,8009,4004
8217,6.6883e+07,0,0.011687,0.0041095,-0.00927,-0.18059,0.34836,-9.786,0,0,43.826,1,1,8009,4004
8220,6.6884e+07,0,-0.0075172,0.0024338,-0.0068805,-0.17547,0.33906,-9.788,0,0,43.826,1,1,8009,4004
8224,6.6887e+07,0,-0.022048,-0.00050117,-0.0048807,-0.18718,0.35294,-9.8028,0,0,43.826,1,1,8009,4004
