LineNo,TimeUS,I,GyrX,GyrY,GyrZ,AccX,AccY,AccZ,EG,EA,T,GH,AH,GHz,AHz
182,64898149,0,-0.003296976,0.002398428,-0.001116418,-0.2166252,0.3417427,-9.757623000000001,0,0,43.7869,1,1,8009,4004
217,64900393,0,-0.003994625,0.002423076,-0.001006401,-0.2186465,0.341847,-9.750579,0,0,43.78696,1,1,8009,4004
287,64929248,0,0.001173316,-0.001398963,-0.0005343226,-0.2191289,0.350552,-9.747916,0,0,43.78787,1,1,8009,4004
402,64958025,0,0.0008442706,0.0008320353,0.0002886845,-0.2107821,0.3366057,-9.76376,0,0,43.78912,1,1,8009,4004
518,64986878,0,0.001428166,0.0007512489,0.0006415303,-0.2214512,0.339809,-9.762308000000001,0,0,43.79067,1,1,8009,4004
521,64988452,0,0.001558411,0.001410564,-7.643654e-06,-0.2202066,0.3359854,-9.761077,0,0,43.79075,1,1,8009,4004
631,65008389,0,0.001996279,0.002786478,0.001502411,-0.2057008,0.3350693,-9.739907000000001,0,0,43.791,1,1,8009,4004
666,65011315,0,0.0008154237,0.002109504,0.0006092796,-0.2029634,0.3333166,-9.741599000000001,0,0,43.79095,1,1,8009,4004
740,65029218,0,-0.0009824343,0.000315077,-0.001936624,-0.2104761,0.317974,-9.751766999999999,0,0,43.79089,1,1,8009,4004
856,65049163,0,-0.002485471,-0.0002917625,-0.001846348,-0.2189382,0.3295557,-9.766393000000001,0,0,43.79097,1,1,8009,4004
971,65092746,0,-0.001604228,0.0001974768,-0.0002011609,-0.2039556,0.3268152,-9.757439,0,0,43.79147,1,1,8009,4004
1006,65095369,0,-0.0004344731,-0.0002212999,-0.0009970592999999999,-0.2062212,0.3271999,-9.755876000000001,0,0,43.79152,1,1,8009,4004
1080,65123911,0,0.002284657,0.001421388,0.0001466138,-0.2212934,0.3363836,-9.746665,0,0,43.79211,1,1,8009,4004
1196,65224772,0,-0.003277458,0.0002413407,-0.001420473,-0.2229474,0.3340147,-9.748507999999999,0,0,43.79192,1,1,8009,4004
1306,65284323,0,0.001173904,0.0002450702,0.0002729656,-0.2188184,0.3528228,-9.768584000000001,0,0,43.792,1,1,8009,4004
1386,65302269,0,0.0008163852000000001,0.00051507,0.00131375,-0.2116949,0.3421262,-9.761870999999999,0,0,43.79184,1,1,8009,4004
1477,65328261,0,0.0007435361,0.0009638609,0.000288261,-0.2261672,0.3275085,-9.735224000000001,0,0,43.7925,1,1,8009,4004
1558,65333007,0,0.001073325,0.00141427,0.001118518,-0.2246426,0.3360858,-9.737780000000001,0,0,43.79262,1,1,8009,4004
1562,65342444,0,0.002800058,0.002344233,-0.0007324636,-0.2076186,0.3359998,-9.747788,0,0,43.79287,1,1,8009,4004
1565,65345446,0,0.002433279,0.001861988,-0.0003090652,-0.2023618,0.3345052,-9.75352,0,0,43.79299,1,1,8009,4004
1602,65348644,0,0.002059694,0.0009855142999999999,0.0008500461,-0.1981636,0.3338893,-9.761445,0,0,43.79315,1,1,8009,4004
1605,65350657,0,0.001813671,0.001326322,0.001978279,-0.1969551,0.3342625,-9.766368,0,0,43.79325,1,1,8009,4004
1608,65353142,0,0.001313878,0.00185509,0.002691395,-0.1960519,0.3341988,-9.771440999999999,0,0,43.79337,1,1,8009,4004
1611,65355268,0,0.0002984934,0.002121028,0.00111972,-0.1955649,0.3342314,-9.770092999999999,0,0,43.79343,1,1,8009,4004
1646,65358909,0,-0.0004857078,0.001940087,-0.0005062249,-0.1942106,0.3341286,-9.762898,0,0,43.79352,1,1,8009,4004
1650,65360885,0,-0.0003582409,0.001614984,-0.0006416736,-0.1936149,0.3344027,-9.756933999999999,0,0,43.79361,1,1,8009,4004
1653,65363398,0,0.0004668786,0.001272022,-0.0007784038000000001,-0.1936169,0.3346619,-9.753935999999999,0,0,43.7937,1,1,8009,4004
1656,65365389,0,0.0005473545,0.001530543,-0.0009552488,-0.1942791,0.3338045,-9.753201000000001,0,0,43.79377,1,1,8009,4004
1691,65368005,0,-0.000161155,9.548154e-05,-0.001347065,-0.1967083,0.3309477,-9.754429,0,0,43.79383,1,1,8009,4004
1695,65371434,0,-0.001110717,-0.0001642579,-0.00201353,-0.1987232,0.3308959,-9.755037,0,0,43.79387,1,1,8009,4004
1698,65374266,0,-0.000374164,-0.0001778746,-0.001199017,-0.201823,0.3337153,-9.755488,0,0,43.79393,1,1,8009,4004
1701,65375671,0,-0.0002477821,0.0002204228,-0.0003247168,-0.204031,0.333576,-9.755000000000001,0,0,43.79401,1,1,8009,4004
1736,65378495,0,-0.001225575,0.0004082221,0.0002476119,-0.2044769,0.3327424,-9.754586,0,0,43.79408,1,1,8009,4004
1739,65381159,0,-0.003106217,0.001156343,5.990015e-05,-0.2058723,0.3323706,-9.75766,0,0,43.79428,1,1,8009,4004
1742,65384243,0,-0.00381546,0.001343663,-0.0003710253,-0.2063556,0.3344278,-9.761616,0,0,43.79443,1,1,8009,4004
1745,65386240,0,-0.004141736,0.0003612117,-0.0007646507,-0.2083514,0.3371634,-9.770527,0,0,43.79457,1,1,8009,4004
1780,65388669,0,-0.003401726,-0.0004851891,6.446651e-06,-0.211882,0.3375466,-9.777531,0,0,43.79465,1,1,8009,4004
1784,65391224,0,-0.00291499,-0.0003244997,0.0005826426,-0.2132723,0.3388028,-9.778810999999999,0,0,43.79471,1,1,8009,4004
1787,65394369,0,-0.003012393,0.0004394161,0.0003990838,-0.2145478,0.3418577,-9.779040999999999,0,0,43.79483,1,1,8009,4004
1794,65397009,0,-0.003419558,9.500013e-05,0.0003422283,-0.2139464,0.3432406,-9.780288000000001,0,0,43.79489,1,1,8009,4004
1829,65399766,0,-0.002336027,-0.001112833,-0.0004181795,-0.2107096,0.3413768,-9.782845,0,0,43.79501,1,1,8009,4004
1832,65402053,0,-0.002395172,-0.001565179,-0.0003102747,-0.2065087,0.3377685,-9.780929,0,0,43.79514,1,1,8009,4004
1835,65404837,0,-0.003304246,-0.001612645,0.000538862,-0.2041561,0.335624,-9.779678000000001,0,0,43.79522,1,1,8009,4004
1838,65407476,0,-0.003872793,-0.001699992,0.001421939,-0.2028395,0.3335996,-9.775572,0,0,43.79534,1,1,8009,4004
1873,65410784,0,-0.002736018,-0.002344738,0.001316049,-0.2039544,0.332514,-9.772462000000001,0,0,43.79548,1,1,8009,4004
1877,65412745,0,-0.001997255,-0.00164899,0.0008268759,-0.2035541,0.330881,-9.77248,0,0,43.79556,1,1,8009,4004
1880,65414951,0,-0.002354801,0.0004488717,-4.315037e-05,-0.2027482,0.3278238,-9.773611000000001,0,0,43.79565,1,1,8009,4004
1883,65417740,0,-0.003681302,0.0009327882,-0.0002704615,-0.2037598,0.3273425,-9.774196,0,0,43.79572,1,1,8009,4004
1918,65420464,0,-0.00428959,0.0005234071,-0.0007622075000000001,-0.206627,0.3299563,-9.771238,0,0,43.79584,1,1,8009,4004
1922,65423259,0,-0.004170852,5.008512e-05,-0.0002964478,-0.2085594,0.3315398,-9.767666999999999,0,0,43.79592,1,1,8009,4004
1925,65425216,0,-0.003900373,-7.934646e-05,-5.215481e-05,-0.2111065,0.3325019,-9.766119,0,0,43.79603,1,1,8009,4004
1929,65428021,0,-0.003636914,0.0004523117,8.952273e-05,-0.2125536,0.334296,-9.767792,0,0,43.79611,1,1,8009,4004
1964,65430180,0,-0.003218713,0.0002623982,-5.253584e-05,-0.212984,0.3380687,-9.767659999999999,0,0,43.79623,1,1,8009,4004
1968,65433780,0,-0.003003806,4.037171e-05,0.0006864012,-0.2120775,0.3398703,-9.76333,0,0,43.79638,1,1,8009,4004
1971,65435386,0,-0.002119288,4.189351e-05,0.0008670812,-0.2116726,0.3399471,-9.760137,0,0,43.79649,1,1,8009,4004
1974,65438811,0,-0.0005890651,0.000183929,0.0003394837,-0.2124572,0.3397424,-9.754675000000001,0,0,43.79668,1,1,8009,4004
2009,65441095,0,8.041705e-05,-0.0002606749,-0.001054759,-0.2138485,0.3399416,-9.747486,0,0,43.79684,1,1,8009,4004
2013,65444749,0,-2.370209e-05,-0.0007009417,-0.002220902,-0.2143889,0.3387832,-9.742967,0,0,43.79696,1,1,8009,4004
2016,65446272,0,0.0003478975,-0.0002443373,-0.002112475,-0.2136542,0.3359452,-9.740411,0,0,43.79712,1,1,8009,4004
2019,65449141,0,0.0001200256,0.0007268505,-0.002065246,-0.2128013,0.3328529,-9.742281,0,0,43.79728,1,1,8009,4004
2054,65452310,0,-0.0004619211,0.0009646512,-0.001898606,-0.2136663,0.3318299,-9.744954999999999,0,0,43.79737,1,1,8009,4004
2057,65453816,0,-0.001203037,0.00153317,-0.0007030112,-0.2159935,0.3313367,-9.748734000000001,0,0,43.79754,1,1,8009,4004
2060,65457161,0,-0.001538141,0.002491414,-0.0001227015,-0.2176386,0.3308267,-9.751524,0,0,43.79765,1,1,8009,4004
2063,65459211,0,-0.001352903,0.003294882,-0.0001659932,-0.2177921,0.3298673,-9.754421000000001,0,0,43.79778,1,1,8009,4004
2098,65462326,0,-0.0004534193,0.002671698,0.0005883066,-0.2201398,0.3294152,-9.752731000000001,0,0,43.79788,1,1,8009,4004
2102,65463982,0,0.0008734694,0.001662707,0.0004969928,-0.2228557,0.3310206,-9.751143000000001,0,0,43.79794,1,1,8009,4004
2105,65466546,0,0.002241711,0.001176471,0.0001964174,-0.2250769,0.3333943,-9.749733000000001,0,0,43.79799,1,1,8009,4004
2108,65469862,0,0.003505983,2.996144e-05,-0.0001146338,-0.2265144,0.3369875,-9.748048000000001,0,0,43.79808,1,1,8009,4004
2145,65473420,0,0.00333737,0.0004685445,0.0006703215,-0.2253277,0.337914,-9.747367000000001,0,0,43.79818,1,1,8009,4004
2148,65474996,0,0.002630678,0.001900358,0.0004228639,-0.2229571,0.3383802,-9.748246999999999,0,0,43.79824,1,1,8009,4004
2151,65477366,0,0.001706891,0.0019569,-8.968067e-05,-0.2218664,0.3387731,-9.750933,0,0,43.79826,1,1,8009,4004
2154,65485828,0,-4.639018e-06,0.0007973321,-0.001629497,-0.2200699,0.3360943,-9.755198,0,0,43.79836,1,1,8009,4004
2190,65488732,0,0.0004182378,9.134866e-05,-0.001590227,-0.2186604,0.3356891,-9.753078,0,0,43.79838,1,1,8009,4004
2194,65491826,0,0.00067132,-0.0005367117,-0.001784503,-0.2172233,0.3369671,-9.750785,0,0,43.79842,1,1,8009,4004
2197,65494033,0,0.00101896,-0.001483226,-0.001766657,-0.216758,0.3376278,-9.752252,0,0,43.79851,1,1,8009,4004
2200,65496381,0,0.001667125,-0.001166142,-0.001729507,-0.2160041,0.3380334,-9.756316,0,0,43.79866,1,1,8009,4004
2236,65498766,0,0.001545476,0.0002323772,-0.001392887,-0.2145886,0.3393419,-9.761881000000001,0,0,43.79875,1,1,8009,4004
2243,65501780,0,0.002110531,0.0006529581,-0.000875103,-0.2137236,0.3400157,-9.765407,0,0,43.79885,1,1,8009,4004
2246,65504142,0,0.001412302,0.0002001394,-0.0001482407,-0.2148725,0.3387908,-9.767606000000001,0,0,43.79895,1,1,8009,4004
2249,65506798,0,0.0002616892,-0.0001360777,-0.000248346,-0.2155124,0.3377296,-9.764640999999999,0,0,43.79897,1,1,8009,4004
2284,65509758,0,-0.000544464,-3.452289e-05,-0.0003344821,-0.2163491,0.3380829,-9.758823,0,0,43.79901,1,1,8009,4004
2287,65511844,0,0.001124533,0.0004698145,-0.0005509563,-0.2166071,0.3384827,-9.757182999999999,0,0,43.79905,1,1,8009,4004
2290,65514799,0,0.0021235,0.0004646106,-0.0007139241,-0.2171308,0.3369388,-9.758573,0,0,43.79906,1,1,8009,4004
2293,65517361,0,0.001296976,-7.624479e-05,-0.001406802,-0.2204772,0.3334427,-9.762594,0,0,43.7991,1,1,8009,4004
2328,65520222,0,-4.889186e-05,-0.0011552,-0.0007323136,-0.2237925,0.3311224,-9.767184,0,0,43.79913,1,1,8009,4004
2332,65522638,0,-0.0001744932,-0.0007751457,0.0001693794,-0.2238231,0.3301872,-9.767953,0,0,43.79915,1,1,8009,4004
2335,65524876,0,0.0007521289,0.0009519742,0.0005383164,-0.2227592,0.3303712,-9.768960999999999,0,0,43.79918,1,1,8009,4004
2338,65527478,0,0.0005097364,0.001149642,-3.593128e-05,-0.222078,0.3302175,-9.769067,0,0,43.7992,1,1,8009,4004
2373,65530379,0,0.0002380585,9.319671e-05,-1.540371e-05,-0.2204899,0.3289082,-9.767008000000001,0,0,43.79922,1,1,8009,4004
2376,65533420,0,0.0003052232,-9.496549e-06,-0.0001267514,-0.219235,0.3269596,-9.765018,0,0,43.79922,1,1,8009,4004
2379,65534820,0,-6.776471000000001e-05,0.0002308098,-0.0002055437,-0.2162838,0.3259732,-9.76572,0,0,43.79922,1,1,8009,4004
2382,65537786,0,-0.0008111385,-0.0001351367,-0.0007001642,-0.2161328,0.3264046,-9.767189999999999,0,0,43.79922,1,1,8009,4004
2417,65539873,0,-0.002213636,0.0005549993,-0.001516386,-0.2179129,0.3289705,-9.769719,0,0,43.79922,1,1,8009,4004
2421,65542827,0,-0.002082839,0.001201413,-0.001628647,-0.2183561,0.3322305,-9.770292,0,0,43.79922,1,1,8009,4004
2424,65546056,0,-0.0005459741,0.001443717,-0.0009365029,-0.2172607,0.336045,-9.767232999999999,0,0,43.79922,1,1,8009,4004
2427,65548362,0,0.0002673932,0.001455028,-0.0004384624,-0.2155366,0.336867,-9.763146000000001,0,0,43.79922,1,1,8009,4004
2462,65550793,0,-0.0004659217,0.000636149,-0.0001292817,-0.2108306,0.3368198,-9.758050000000001,0,0,43.79922,1,1,8009,4004
2465,65553537,0,-0.0009277382,-0.0001345,1.604745e-05,-0.2089429,0.3360554,-9.757455,0,0,43.79922,1,1,8009,4004
2471,65556411,0,-0.0008562095,0.0001911073,-0.0002226203,-0.2083783,0.3351629,-9.753456999999999,0,0,43.7992,1,1,8009,4004
2474,65558417,0,-0.001026293,0.0003286905,-0.0008184903000000001,-0.2089645,0.334869,-9.750429,0,0,43.79918,1,1,8009,4004
2509,65561413,0,-0.0013755,0.0003232838,-0.002334832,-0.2097262,0.3318762,-9.748241999999999,0,0,43.79914,1,1,8009,4004
2513,65563431,0,-0.001878591,0.0004087102,-0.002749539,-0.2106816,0.3286272,-9.747102999999999,0,0,43.79913,1,1,8009,4004
2517,65565621,0,-0.003034572,0.0008522395,-0.003238834,-0.2102015,0.3251454,-9.744204999999999,0,0,43.7991,1,1,8009,4004
2520,65569022,0,-0.003289039,0.0005879462,-0.003603403,-0.2096202,0.324228,-9.742844,0,0,43.79908,1,1,8009,4004
2555,65571399,0,-0.003399744,-0.0004197156,-0.003059726,-0.2108626,0.3252985,-9.744572,0,0,43.79903,1,1,8009,4004
2559,65574667,0,-0.002830233,-0.0001214537,-0.001601863,-0.2133916,0.3269219,-9.749161000000001,0,0,43.79901,1,1,8009,4004
2562,65576409,0,-0.002710289,-2.760801e-05,-6.844873e-05,-0.2157063,0.3267657,-9.753143,0,0,43.79899,1,1,8009,4004
2566,65579442,0,-0.003330162,0.0007761251,0.002104661,-0.2213898,0.3282931,-9.759814,0,0,43.79897,1,1,8009,4004
2601,65582383,0,-0.004181315,0.0009366952,0.001506229,-0.2262674,0.3331605,-9.765454,0,0,43.79897,1,1,8009,4004
2604,65585155,0,-0.003600711,0.000910958,0.0002593824,-0.2273968,0.3361543,-9.765447999999999,0,0,43.79898,1,1,8009,4004
2607,65586752,0,-0.002715906,0.001173592,-0.0001699719,-0.2264095,0.3389598,-9.762980000000001,0,0,43.79902,1,1,8009,4004
2610,65589540,0,-0.003360351,0.002023236,-8.793842e-05,-0.224854,0.3383512,-9.759652000000001,0,0,43.79903,1,1,8009,4004
2645,65592694,0,-0.003535814,0.003748621,0.0006053138,-0.2219734,0.3363875,-9.752094,0,0,43.7991,1,1,8009,4004
2649,65594575,0,-0.002718166,0.003804685,0.0006086192,-0.2188216,0.3370274,-9.747444,0,0,43.79915,1,1,8009,4004
2652,65597295,0,-0.002140396,0.002491871,0.0006108245,-0.2126785,0.3376073,-9.743143999999999,0,0,43.79923,1,1,8009,4004
2655,65599615,0,-0.001881038,0.00159656,0.0005830827,-0.2090041,0.3365219,-9.741783,0,0,43.79927,1,1,8009,4004
2690,65601789,0,-0.002267916,0.0006168845,0.0002959189,-0.2041018,0.3331786,-9.742421999999999,0,0,43.79935,1,1,8009,4004
2697,65605410,0,-0.002231351,7.791491e-05,-0.0005850007,-0.2018902,0.3305913,-9.743683000000001,0,0,43.79941,1,1,8009,4004
2700,65606978,0,-0.00123043,-0.000314526,-0.001676924,-0.1987296,0.3266357,-9.747731,0,0,43.79947,1,1,8009,4004
2703,65610051,0,-0.0010234,0.0003268146,-0.00203961,-0.1963006,0.3242459,-9.750416,0,0,43.79949,1,1,8009,4004
2738,65612247,0,-0.000814542,0.001262563,-0.00218598,-0.1946999,0.3242363,-9.755610000000001,0,0,43.79953,1,1,8009,4004
2742,65615662,0,-0.0005532271,0.0005957838,-0.0005937938,-0.1945835,0.3245347,-9.762347,0,0,43.79959,1,1,8009,4004
2745,65617286,0,-0.0007137626,-0.0002321702,0.0005361401,-0.1947002,0.3248451,-9.767846,0,0,43.79963,1,1,8009,4004
2748,65620637,0,-0.0005528841,-0.001244474,0.0004502514,-0.1970424,0.3250901,-9.772712,0,0,43.79972,1,1,8009,4004
2783,65623011,0,-0.0004784048,-0.00151901,-0.0004809099,-0.2012502,0.3233157,-9.774518,0,0,43.79987,1,1,8009,4004
2787,65625484,0,-0.0007469091,-0.0009907703000000001,-0.001012854,-0.2028875,0.3225244,-9.774376999999999,0,0,43.79994,1,1,8009,4004
2790,65628784,0,-0.001013969,-0.001267539,-0.0009164651999999999,-0.2051165,0.3232191,-9.774397,0,0,43.8,1,1,8009,4004
2794,65630669,0,-0.0007459482,-0.001505531,-0.0003001495,-0.208304,0.3254824,-9.773789000000001,0,0,43.80001,1,1,8009,4004
2829,65633161,0,0.0003165564,-0.001534323,0.0008120091,-0.2130001,0.3317134,-9.773464000000001,0,0,43.8,1,1,8009,4004
2832,65636180,0,0.001213927,-0.001754592,0.0009045216999999999,-0.2156858,0.3354236,-9.771628,0,0,43.79996,1,1,8009,4004
2835,65638149,0,0.001642731,-0.001313964,0.0009826544,-0.2191468,0.3374491,-9.768583,0,0,43.7999,1,1,8009,4004
2838,65641399,0,0.001378563,-0.001062352,0.0006458206,-0.2220097,0.3368539,-9.766931,0,0,43.79983,1,1,8009,4004
2873,65643850,0,0.0007421093,-0.0004810322,-0.0002280848,-0.2259307,0.335028,-9.758734,0,0,43.79974,1,1,8009,4004
2878,65647762,0,0.00149811,-6.073868e-05,8.472713e-05,-0.2256051,0.3347794,-9.755204000000001,0,0,43.79972,1,1,8009,4004
2881,65649294,0,0.002472928,-6.317483000000001e-05,0.001232419,-0.2233597,0.3353222,-9.75184,0,0,43.79971,1,1,8009,4004
2884,65652464,0,0.002666633,8.003273000000001e-05,0.002005134,-0.2210444,0.3355964,-9.751272,0,0,43.7997,1,1,8009,4004
2919,65654662,0,0.003270565,0.0002619286,0.001941975,-0.2163964,0.3343324,-9.755782999999999,0,0,43.79967,1,1,8009,4004
2922,65658066,0,0.003377504,0.0003328887,0.001660426,-0.2153212,0.3326669,-9.758141,0,0,43.79966,1,1,8009,4004
2927,65660244,0,0.003175465,0.0002639019,0.0008797197,-0.2156832,0.3286305,-9.760598,0,0,43.79966,1,1,8009,4004
2930,65665138,0,0.002011463,0.0004540972,-0.0001906858,-0.2172352,0.3206122,-9.767593,0,0,43.79983,1,1,8009,4004
2966,65667936,0,0.001608356,-0.0003300165,0.0008113505,-0.2190045,0.3176506,-9.770585000000001,0,0,43.79995,1,1,8009,4004
2969,65670426,0,0.001649981,-0.001011612,0.0008900329,-0.2199427,0.3178214,-9.769310000000001,0,0,43.8,1,1,8009,4004
2972,65673871,0,0.001585236,-0.0009553695,0.00237096,-0.2207721,0.3194011,-9.762285,0,0,43.80005,1,1,8009,4004
2975,65678742,0,0.0005568502,0.0007852239999999999,0.002634838,-0.220808,0.3216859,-9.751477,0,0,43.80007,1,1,8009,4004
3011,65681168,0,0.001026984,0.001285221,0.000259854,-0.2224537,0.3235154,-9.747806000000001,0,0,43.80009,1,1,8009,4004
3014,65683467,0,0.000668195,0.001651121,-0.0009684017,-0.2234433,0.3249559,-9.746454,0,0,43.8001,1,1,8009,4004
3020,65686607,0,0.0004014805,0.00162677,-0.0007917021,-0.2208913,0.3274565,-9.745414999999999,0,0,43.80011,1,1,8009,4004
3023,65688752,0,0.0004060986,0.001765804,-0.00021716,-0.2173452,0.3292224,-9.744001000000001,0,0,43.80012,1,1,8009,4004
3058,65691752,0,0.00102723,0.001532213,0.000372685,-0.2125241,0.3330256,-9.741631,0,0,43.80014,1,1,8009,4004
3061,65693749,0,0.001454495,0.00151456,0.000966064,-0.2114589,0.3346357,-9.741267000000001,0,0,43.80014,1,1,8009,4004
3064,65695889,0,0.001875615,0.001982315,0.001702722,-0.2118511,0.3345633,-9.744648,0,0,43.80016,1,1,8009,4004
3067,65699167,0,0.001540456,0.001567216,0.001687085,-0.2123224,0.3345927,-9.748521,0,0,43.80017,1,1,8009,4004
3102,65701270,0,0.0007426658,0.0005498445,0.0002073922,-0.213135,0.3317015,-9.752164,0,0,43.80019,1,1,8009,4004
3106,65704253,0,-0.0008767321,9.782254e-05,-0.00159742,-0.2144448,0.3257331,-9.750431000000001,0,0,43.8002,1,1,8009,4004
3109,65706654,0,-0.002011117,2.118871e-05,-0.001375832,-0.2149556,0.322359,-9.750156,0,0,43.80021,1,1,8009,4004
3116,65710174,0,-0.001998198,0.001573114,-7.464839999999999e-05,-0.2154208,0.321502,-9.753511,0,0,43.80022,1,1,8009,4004
3119,65711585,0,-0.001323855,0.001466625,0.0001289084,-0.2146135,0.3227117,-9.758198,0,0,43.80024,1,1,8009,4004
3154,65714484,0,2.173822e-05,0.001033787,0.0001061849,-0.2152527,0.3221183,-9.765097000000001,0,0,43.80025,1,1,8009,4004
3157,65717365,0,-0.0003290008,-5.344098e-05,0.0006909711,-0.2175631,0.3201257,-9.766631,0,0,43.80027,1,1,8009,4004
3160,65719253,0,-0.001044726,-0.0002751339,0.0002720607,-0.2193819,0.3203917,-9.765320000000001,0,0,43.80029,1,1,8009,4004
3163,65722614,0,-0.002039366,0.0005083064,-0.0009765984999999999,-0.2199352,0.3245691,-9.763801000000001,0,0,43.8003,1,1,8009,4004
3198,65725165,0,-0.00152974,0.001466198,-0.002276554,-0.2163301,0.3300043,-9.759550000000001,0,0,43.80032,1,1,8009,4004
3202,65728140,0,-0.001167586,0.001736816,-0.002090655,-0.2130174,0.3330385,-9.755497,0,0,43.80034,1,1,8009,4004
3205,65729989,0,-0.001155649,0.001374226,-0.001252235,-0.2100152,0.3376815,-9.751042999999999,0,0,43.80035,1,1,8009,4004
3209,65732298,0,-0.001532644,0.0006841137,-0.0009947278,-0.2084821,0.3414156,-9.749072,0,0,43.80037,1,1,8009,4004
3244,65735373,0,-0.002169719,0.0003863757,-0.0008362057,-0.2057515,0.3458398,-9.746422000000001,0,0,43.80039,1,1,8009,4004
3248,65737593,0,-0.001288101,0.0006019793,-0.0007988428,-0.2039592,0.3474741,-9.745061,0,0,43.8004,1,1,8009,4004
3251,65740594,0,-0.001139207,0.001098702,-5.405472e-05,-0.2021471,0.3459783,-9.743067999999999,0,0,43.80041,1,1,8009,4004
3254,65742751,0,-0.001730777,0.001271288,-0.0001125062,-0.2018291,0.3434319,-9.742763999999999,0,0,43.80042,1,1,8009,4004
3289,65744895,0,-0.001939727,0.001067333,-0.0007688525000000001,-0.2018633,0.3398923,-9.746214,0,0,43.80043,1,1,8009,4004
3292,65748312,0,-0.002276922,0.001000343,-0.001598008,-0.2029567,0.3384848,-9.749537,0,0,43.80045,1,1,8009,4004
3295,65749768,0,-0.002787243,9.860924999999999e-05,-0.002111576,-0.2061921,0.3376446,-9.753489999999999,0,0,43.80046,1,1,8009,4004
3298,65753203,0,-0.002476187,-0.0002686939,-0.001033476,-0.2090802,0.3381727,-9.753743999999999,0,0,43.80047,1,1,8009,4004
3333,65755596,0,-0.001450399,-0.0007867111,0.001255097,-0.2147674,0.338686,-9.752587,0,0,43.80048,1,1,8009,4004
3338,65759071,0,-0.001163308,-0.00117689,0.001378493,-0.2215803,0.3381114,-9.748657,0,0,43.8005,1,1,8009,4004
3341,65760601,0,-0.0008349815,-0.001163883,0.001205587,-0.2258563,0.3372093,-9.747417,0,0,43.80051,1,1,8009,4004
3344,65763441,0,-0.0003262397,-0.001309333,-0.0001431279,-0.2287789,0.336683,-9.747863000000001,0,0,43.80053,1,1,8009,4004
3379,65766608,0,0.0002476313,-0.001695668,-0.0008199396,-0.229884,0.3375628,-9.747529999999999,0,0,43.80054,1,1,8009,4004
3382,65768640,0,-0.0003238222,-0.001763734,-0.001214586,-0.2311236,0.3389675,-9.745703000000001,0,0,43.80055,1,1,8009,4004
3386,65771256,0,-0.002082572,-0.0007558902,-0.00150483,-0.2322904,0.3410915,-9.743313000000001,0,0,43.80057,1,1,8009,4004
3389,65773608,0,-0.002667647,7.378677e-05,-0.001429102,-0.2310833,0.3417772,-9.743836999999999,0,0,43.80058,1,1,8009,4004
3424,65776652,0,-0.00244967,-0.0002402809,-0.002022952,-0.2253469,0.339711,-9.747210000000001,0,0,43.80059,1,1,8009,4004
3428,65778289,0,-0.002252101,-0.0005248351,-0.002568433,-0.2211613,0.3378866,-9.751376,0,0,43.80061,1,1,8009,4004
3431,65781032,0,-0.001438877,-0.0004861169,-0.002139591,-0.2178218,0.3376215,-9.760255000000001,0,0,43.80067,1,1,8009,4004
3434,65783806,0,-0.0004421529,-0.0001431074,-0.00152194,-0.2170998,0.3383864,-9.767422,0,0,43.80077,1,1,8009,4004
3469,65786616,0,0.0002814164,0.0006401641,-0.0008149841,-0.2168614,0.3418894,-9.775461999999999,0,0,43.80092,1,1,8009,4004
3473,65788810,0,0.0001831174,0.0005403059,-0.0007266545,-0.2174078,0.3439812,-9.777816,0,0,43.80104,1,1,8009,4004
3476,65791620,0,-0.000713164,0.001063918,-0.0005410334,-0.2197565,0.3458967,-9.777822,0,0,43.80123,1,1,8009,4004
3479,65793430,0,-0.0007125277,0.001614346,-0.0007782119,-0.2211107,0.3459173,-9.776972000000001,0,0,43.80135,1,1,8009,4004
3514,65795752,0,1.659389e-05,0.002382377,-0.002069094,-0.2232998,0.3450292,-9.779235999999999,0,0,43.80153,1,1,8009,4004
3517,65798874,0,0.001338992,0.002364356,-0.002651501,-0.2241469,0.3436049,-9.782608,0,0,43.80164,1,1,8009,4004
3521,65801773,0,0.001454416,0.00225782,-0.002283223,-0.2244313,0.3408385,-9.786616,0,0,43.80183,1,1,8009,4004
3524,65803624,0,0.0004949765,0.002436712,-0.001983715,-0.2233374,0.3407639,-9.788105,0,0,43.80202,1,1,8009,4004
3559,65805986,0,-0.0006856073,0.002146658,-0.0004826958,-0.2211915,0.3419068,-9.787965,0,0,43.80222,1,1,8009,4004
3563,65808656,0,-0.0006282094,0.001269393,0.0007309571,-0.2183034,0.3412946,-9.785382999999999,0,0,43.80234,1,1,8009,4004
3570,65811832,0,0.0001695755,0.0002365136,0.001325464,-0.2141852,0.3395881,-9.778883,0,0,43.8025,1,1,8009,4004
3573,65813806,0,0.0006335252,0.0001669819,0.001348361,-0.2127532,0.3373416,-9.772894000000001,0,0,43.80266,1,1,8009,4004
3608,65816654,0,0.0002806294,0.0005355561,0.0007297141,-0.2124775,0.332756,-9.767182999999999,0,0,43.80282,1,1,8009,4004
3611,65818305,0,-0.00037541,0.0008172852,0.0003173591,-0.2135679,0.3286029,-9.765693000000001,0,0,43.80294,1,1,8009,4004
3614,65821030,0,-4.186755e-05,0.002235894,-5.231048e-05,-0.2162027,0.3255163,-9.764348,0,0,43.80313,1,1,8009,4004
3617,65824159,0,0.0007146853000000001,0.002331397,0.0003979651,-0.2190534,0.3270318,-9.763714,0,0,43.80333,1,1,8009,4004
3652,65826920,0,0.001751741,0.001247462,0.001210308,-0.2251055,0.3296968,-9.765983,0,0,43.80353,1,1,8009,4004
3656,65829325,0,0.001798418,0.001302388,0.001553453,-0.2285412,0.3308942,-9.765214,0,0,43.80367,1,1,8009,4004
3659,65831282,0,0.00126145,0.001831274,0.001539339,-0.2290136,0.3325348,-9.760585000000001,0,0,43.80377,1,1,8009,4004
3662,65834667,0,0.0007994744,0.002748163,0.001776528,-0.2274993,0.3362955,-9.747007999999999,0,0,43.80392,1,1,8009,4004
3697,65837386,0,0.002009766,0.002658861,0.002569609,-0.2244191,0.3376842,-9.734067,0,0,43.8041,1,1,8009,4004
3700,65839495,0,0.002633105,0.002489023,0.00244103,-0.2224593,0.3359396,-9.729476,0,0,43.80422,1,1,8009,4004
3703,65841970,0,0.002872046,0.002502444,0.001641951,-0.2194776,0.3309669,-9.725350000000001,0,0,43.80437,1,1,8009,4004
3706,65844422,0,0.002759976,0.002013063,0.0009043121,-0.2172755,0.3278035,-9.724887000000001,0,0,43.80449,1,1,8009,4004
3743,65847867,0,0.002316582,0.001489579,6.864539e-05,-0.2130997,0.3248263,-9.729371,0,0,43.80458,1,1,8009,4004
3747,65850648,0,0.001683711,0.0006885009,-0.0003923864,-0.2114824,0.3235463,-9.733900999999999,0,0,43.80464,1,1,8009,4004
3750,65852291,0,0.0003794404,-0.0007227835,-0.0004253529,-0.2108468,0.3250939,-9.74004,0,0,43.80473,1,1,8009,4004
3753,65854755,0,0.0003750294,-0.0009408136,2.145807e-05,-0.2110907,0.32772,-9.743316,0,0,43.80478,1,1,8009,4004
3788,65856982,0,0.0009023171,0.0004299314,0.001251301,-0.2127872,0.3295435,-9.747328,0,0,43.80487,1,1,8009,4004
3791,65860287,0,0.001275123,0.0009415509,0.001225292,-0.2144129,0.3299079,-9.748616,0,0,43.80493,1,1,8009,4004
3794,65862739,0,0.001207727,0.0003455031,-2.7457e-05,-0.217754,0.3295076,-9.746898,0,0,43.80502,1,1,8009,4004
3799,65864835,0,0.0006448972,-0.0007579636,-0.0009317554,-0.21945,0.3297986,-9.744927000000001,0,0,43.80508,1,1,8009,4004
3834,65867401,0,-3.343765e-05,-0.002399003,-0.001105976,-0.2206472,0.329073,-9.745735,0,0,43.80519,1,1,8009,4004
3837,65869486,0,-0.0003787692,-0.00258586,-0.0003886267,-0.2206651,0.3278216,-9.749867999999999,0,0,43.80528,1,1,8009,4004
3840,65877932,0,0.0007194314,-0.001547795,0.0002397223,-0.2193869,0.3241483,-9.741089000000001,0,0,43.80561,1,1,8009,4004
3875,65880211,0,-0.0008869001,-0.001877648,0.0002306177,-0.2182276,0.3235997,-9.740171999999999,0,0,43.80566,1,1,8009,4004
3878,65883234,0,-0.001638009,-0.002774212,0.0009145597,-0.2202398,0.3245541,-9.741899,0,0,43.80574,1,1,8009,4004
3881,65885982,0,-0.0007034374,-0.003211815,0.0008498043,-0.2223335,0.3262382,-9.74413,0,0,43.80579,1,1,8009,4004
3884,65888433,0,-1.24145e-05,-0.002770722,0.0001283498,-0.2247834,0.3255553,-9.746396000000001,0,0,43.80589,1,1,8009,4004
3919,65890867,0,-0.001251693,-0.001647637,-0.0007915327,-0.2246006,0.323094,-9.750054,0,0,43.80596,1,1,8009,4004
3922,65893623,0,-0.00163661,-0.001129204,-0.0007530573,-0.2230148,0.3229603,-9.753456,0,0,43.80601,1,1,8009,4004
3926,65896502,0,-0.00130023,-2.072752e-05,-0.0006220923,-0.2192723,0.3256308,-9.760401,0,0,43.80608,1,1,8009,4004
3929,65898766,0,-0.001469253,0.0004294135,-0.001156597,-0.2170313,0.3287388,-9.766697000000001,0,0,43.80613,1,1,8009,4004
3964,65901473,0,-0.0006952956,0.0008490393,-0.0009212664,-0.2136604,0.3337697,-9.775679,0,0,43.80621,1,1,8009,4004
3968,65903672,0,-0.0007040846,0.001340712,-0.001037671,-0.2113854,0.336265,-9.778460000000001,0,0,43.80628,1,1,8009,4004
3972,65905896,0,-0.0007544099,0.001778985,-0.001659849,-0.2099211,0.3376352,-9.77657,0,0,43.80642,1,1,8009,4004
3975,65909072,0,-0.0006507105,0.0017108,-0.002349207,-0.2090844,0.3380151,-9.773973,0,0,43.8065,1,1,8009,4004
4010,65911295,0,0.0008458403,0.001701926,-0.002648734,-0.2076971,0.3394022,-9.769190999999999,0,0,43.80663,1,1,8009,4004
4018,65914838,0,0.001350608,0.0009116393,-0.002443345,-0.2082015,0.3395979,-9.766355000000001,0,0,43.80674,1,1,8009,4004
4023,65916397,0,0.0009623253,0.0001939524,-0.00220019,-0.2080227,0.3384588,-9.765821000000001,0,0,43.8068,1,1,8009,4004
4026,65920029,0,-0.001140342,-0.0001334858,-0.001324887,-0.206976,0.3350228,-9.765575999999999,0,0,43.80691,1,1,8009,4004
4061,65922328,0,-0.002612089,0.0007752134,-0.001202847,-0.2070803,0.3312475,-9.763481000000001,0,0,43.80704,1,1,8009,4004
4064,65925375,0,-0.00362436,0.001698424,-0.002513387,-0.2086853,0.329981,-9.760339999999999,0,0,43.80715,1,1,8009,4004
4067,65927404,0,-0.002792467,0.002091361,-0.003381095,-0.2091261,0.3296703,-9.759157,0,0,43.80721,1,1,8009,4004
4070,65930237,0,-0.0008737243,0.001952619,-0.00315586,-0.2068121,0.3290701,-9.759109,0,0,43.80736,1,1,8009,4004
4105,65932621,0,-0.0001603288,0.002051246,-0.001891046,-0.2031569,0.3294711,-9.760403999999999,0,0,43.80751,1,1,8009,4004
4109,65935826,0,-0.001068956,0.002094534,-0.00154217,-0.2012598,0.3291889,-9.761340000000001,0,0,43.80763,1,1,8009,4004
4112,65937449,0,-0.001586892,0.00232574,-0.001275357,-0.2002221,0.3306924,-9.764809,0,0,43.8078,1,1,8009,4004
4115,65940254,0,-0.0008218886,0.002689171,-0.0004855219,-0.2014159,0.3316516,-9.767861,0,0,43.80795,1,1,8009,4004
4150,65943272,0,0.00074864,0.003130012,0.0004072775,-0.2059109,0.3315092,-9.770813,0,0,43.80817,1,1,8009,4004
4153,65945385,0,0.0009190912,0.003219821,0.0006183597,-0.208561,0.3308378,-9.770165,0,0,43.80829,1,1,8009,4004
4156,65948703,0,-0.0002161471,0.003493824,0.0003501642,-0.2105469,0.3311422,-9.767139,0,0,43.80846,1,1,8009,4004
4159,65949977,0,-0.0006379175,0.003445382,0.0003658467,-0.2119912,0.3334664,-9.758243,0,0,43.80871,1,1,8009,4004
4194,65952870,0,-0.0004259096,0.002386781,0.0001770706,-0.2123142,0.3352997,-9.754308,0,0,43.80891,1,1,8009,4004
4198,65956315,0,-0.000826683,0.002029955,0.0001724809,-0.2128725,0.3380247,-9.753996000000001,0,0,43.80914,1,1,8009,4004
4201,65958497,0,-0.001317731,0.00264394,0.0004228923,-0.2137721,0.3415357,-9.753235999999999,0,0,43.8093,1,1,8009,4004
4204,65959882,0,-0.001202258,0.002667939,0.0004056399,-0.2122888,0.3423761,-9.750356999999999,0,0,43.80941,1,1,8009,4004
4239,65962947,0,-0.001325356,0.001906256,0.0004436989,-0.2101751,0.3412589,-9.746798999999999,0,0,43.80952,1,1,8009,4004
4244,65965235,0,-0.001797959,0.0005480488,-3.62536e-05,-0.2079145,0.3379798,-9.744164,0,0,43.80969,1,1,8009,4004
4248,65968293,0,-0.00203537,0.0002966702,-0.001190072,-0.2069496,0.3375749,-9.744343000000001,0,0,43.80981,1,1,8009,4004
4251,65970460,0,-0.001103845,0.0008338059000000001,-0.00108842,-0.2055008,0.3390749,-9.742974,0,0,43.80994,1,1,8009,4004
4286,65973145,0,-0.0006051564,0.0007327724000000001,-0.0006253224,-0.2047108,0.3396258,-9.741761,0,0,43.81005,1,1,8009,4004
4289,65975155,0,-0.0008736982,-4.083826e-05,-0.0005795432,-0.2052828,0.3383938,-9.742611,0,0,43.81012,1,1,8009,4004
4293,65977932,0,-0.001398851,-0.0007272969,-0.000151715,-0.2074048,0.3373896,-9.745257000000001,0,0,43.81017,1,1,8009,4004
4296,65980756,0,-0.001099947,-0.0005384109,-0.0001762702,-0.2107738,0.337087,-9.748927999999999,0,0,43.81029,1,1,8009,4004
4331,65983449,0,0.0006437777,-0.0007369077,-0.0005615511,-0.2163096,0.3371165,-9.755417,0,0,43.81038,1,1,8009,4004
4335,65986018,0,0.0007755489,-0.0004841901,-0.000478233,-0.2193419,0.3363798,-9.758264,0,0,43.81044,1,1,8009,4004
4338,65988272,0,-0.000780838,-0.0003551386,-8.089048e-05,-0.2217929,0.3366165,-9.759397,0,0,43.81053,1,1,8009,4004
4341,65990768,0,-0.001781422,-0.0002905611,0.0003656552,-0.2230632,0.3386802,-9.759712,0,0,43.81059,1,1,8009,4004
4376,65993632,0,-0.001139799,0.0001541438,0.001982355,-0.2265516,0.3428558,-9.760655,0,0,43.81068,1,1,8009,4004
4379,65996041,0,0.000316587,0.0001570519,0.002678611,-0.2289818,0.3439093,-9.760904,0,0,43.81076,1,1,8009,4004
4382,65998194,0,0.001622215,-0.00116335,0.00182357,-0.2312844,0.3410521,-9.762126,0,0,43.81092,1,1,8009,4004
4385,66000669,0,0.0006544041,-0.00261344,0.0008640738,-0.2339386,0.3355943,-9.762674000000001,0,0,43.81105,1,1,8009,4004
4420,66003097,0,0.0004160703,-0.003010345,0.0002381683,-0.2355143,0.33263,-9.762127,0,0,43.8112,1,1,8009,4004
4424,66006134,0,-0.000108392,-0.002384091,0.0002432723,-0.2362432,0.3295698,-9.761353,0,0,43.81128,1,1,8009,4004
4427,66008866,0,-0.0008922414,-0.001011061,0.001585209,-0.2367691,0.3270945,-9.761856,0,0,43.81142,1,1,8009,4004
4430,66010853,0,-0.0002402392,-0.001109478,0.002068666,-0.2362825,0.3268802,-9.763820000000001,0,0,43.81155,1,1,8009,4004
4465,66013194,0,0.0006621126,-0.001546161,0.00251594,-0.2320296,0.3272802,-9.766959,0,0,43.81168,1,1,8009,4004
4472,66015847,0,0.0006476773,-0.001501284,0.002675259,-0.2287848,0.3280182,-9.770250000000001,0,0,43.81177,1,1,8009,4004
4475,66018583,0,0.0006294997,-0.001489201,0.00224888,-0.2258717,0.3273213,-9.775294000000001,0,0,43.8119,1,1,8009,4004
4478,66021248,0,0.001062494,-0.001073388,0.001393379,-0.2249078,0.3274399,-9.777348999999999,0,0,43.81202,1,1,8009,4004
4513,66023776,0,0.00101139,-0.000441379,-0.0007891351,-0.2247736,0.3316796,-9.779723000000001,0,0,43.81224,1,1,8009,4004
4517,66026204,0,0.0009163055,-0.0007911478,-0.0008314245,-0.2258393,0.3341862,-9.781238999999999,0,0,43.81232,1,1,8009,4004
4520,66029378,0,0.0009703072,-0.001146137,-0.001289292,-0.2284574,0.337122,-9.784219,0,0,43.81248,1,1,8009,4004
4523,66031468,0,0.001482127,-0.0008146181,-0.001929238,-0.2307706,0.3376598,-9.784103,0,0,43.81256,1,1,8009,4004
4558,66034445,0,0.00204594,-0.001041691,-0.001272792,-0.2329571,0.3372592,-9.779487,0,0,43.8127,1,1,8009,4004
4561,66036755,0,0.002653609,-0.001290306,-0.000670056,-0.2335063,0.3366649,-9.775852,0,0,43.81276,1,1,8009,4004
4564,66039236,0,0.002842411,-0.00112077,-0.0002803576,-0.234937,0.3342104,-9.771827999999999,0,0,43.81285,1,1,8009,4004
4567,66042194,0,0.002997029,0.001050935,0.0002670091,-0.2337347,0.3327051,-9.772394,0,0,43.81292,1,1,8009,4004
4602,66044670,0,0.003468699,0.0015888,-0.0003039561,-0.2314973,0.3332272,-9.772366999999999,0,0,43.81313,1,1,8009,4004
4606,66047893,0,0.004222689,0.001264344,-0.001690703,-0.2297819,0.3333863,-9.770493,0,0,43.81326,1,1,8009,4004
4609,66049957,0,0.003998626,0.0009529445,-0.00190516,-0.2257098,0.3338569,-9.767182,0,0,43.81349,1,1,8009,4004
4612,66052455,0,0.003076052,0.0006359030000000001,-0.001534202,-0.2223555,0.3339422,-9.76529,0,0,43.81359,1,1,8009,4004
4647,66055848,0,0.002726831,0.0007476226,-0.001669296,-0.2180978,0.333686,-9.766277000000001,0,0,43.81382,1,1,8009,4004
4650,66057609,0,0.002614964,0.0009255731,-0.002164352,-0.2154054,0.3338023,-9.768178000000001,0,0,43.81392,1,1,8009,4004
4653,66060861,0,0.001177295,0.001784183,-0.003387404,-0.2142038,0.3328961,-9.77103,0,0,43.8141,1,1,8009,4004
4656,66062246,0,0.0004218404,0.002257269,-0.003380648,-0.2131159,0.331983,-9.771563,0,0,43.8143,1,1,8009,4004
4691,66064910,0,0.001486952,0.002762869,-0.002802186,-0.2107071,0.3314982,-9.772755999999999,0,0,43.81453,1,1,8009,4004
4694,66067985,0,0.002102914,0.002466505,-0.002131327,-0.209625,0.3314092,-9.775017999999999,0,0,43.81462,1,1,8009,4004
4699,66069983,0,0.002208544,0.002296757,-0.001565268,-0.2095023,0.3305094,-9.781593000000001,0,0,43.81477,1,1,8009,4004
4702,66075302,0,0.001277264,0.003404311,-0.002514173,-0.2107107,0.330979,-9.786635,0,0,43.81507,1,1,8009,4004
4738,66080812,0,-0.001455158,0.002013055,-0.0008035743,-0.2138127,0.3295231,-9.779764,0,0,43.81539,1,1,8009,4004
4741,66083446,0,-0.002204144,0.00211815,-0.0002376783,-0.2145091,0.3291951,-9.778009000000001,0,0,43.81548,1,1,8009,4004
4745,66086138,0,-0.002480252,0.002513415,-0.0003074762,-0.2154949,0.3300653,-9.777289,0,0,43.81558,1,1,8009,4004
4780,66088772,0,-0.002137089,0.002700959,-0.0006830191,-0.2160688,0.3315214,-9.777668,0,0,43.81565,1,1,8009,4004
4783,66091795,0,-0.001580794,0.003496784,-0.0004737224,-0.2166566,0.3320376,-9.777079000000001,0,0,43.81573,1,1,8009,4004
4786,66094067,0,-0.002156925,0.00293719,8.615184e-05,-0.2165732,0.3316547,-9.773933,0,0,43.81579,1,1,8009,4004
4789,66096156,0,-0.002973869,0.002224583,0.0009436278,-0.2155411,0.3343387,-9.768924999999999,0,0,43.81588,1,1,8009,4004
4825,66098654,0,-0.002736122,0.001479584,0.001328644,-0.2154799,0.3371106,-9.767485000000001,0,0,43.81594,1,1,8009,4004
4828,66101009,0,-0.001667622,0.001433344,0.001456821,-0.2119349,0.3400552,-9.764647,0,0,43.81603,1,1,8009,4004
4832,66104218,0,-0.001729888,0.0007764315,0.0008563821,-0.2083187,0.3409072,-9.762484000000001,0,0,43.81609,1,1,8009,4004
4835,66106426,0,-0.003695927,-0.00050561,0.0003925533,-0.2027923,0.3424571,-9.761512,0,0,43.81618,1,1,8009,4004
4870,66109071,0,-0.004539049,-0.001096182,0.0005968312,-0.2007401,0.3439829,-9.760718000000001,0,0,43.81627,1,1,8009,4004
4874,66111612,0,-0.003409095,-0.001892902,0.0006972058,-0.200358,0.3427012,-9.760977,0,0,43.81633,1,1,8009,4004
4877,66114290,0,-0.001955508,-0.001157936,0.001339981,-0.2007517,0.3367665,-9.763719999999999,0,0,43.81645,1,1,8009,4004
4880,66117026,0,-0.001501923,-0.0004511962,0.001420674,-0.2019465,0.3312873,-9.7644,0,0,43.81651,1,1,8009,4004
4919,66119880,0,-0.001579966,-0.001230208,0.000577721,-0.2046903,0.3224165,-9.764728,0,0,43.81659,1,1,8009,4004
4922,66122253,0,-0.002249909,-0.00236963,-0.0001427018,-0.208964,0.3157235,-9.763564000000001,0,0,43.81664,1,1,8009,4004
4925,66124269,0,-0.002271214,-0.00262201,8.375929e-05,-0.2114356,0.3127155,-9.766766000000001,0,0,43.81665,1,1,8009,4004
4928,66127779,0,-0.001896509,-0.002941157,0.0009083542,-0.2164269,0.3115213,-9.775964999999999,0,0,43.81664,1,1,8009,4004
4963,66130613,0,-0.001728701,-0.00287445,0.00119121,-0.2211794,0.3101595,-9.786467,0,0,43.81657,1,1,8009,4004
4967,66132670,0,-0.00203709,-0.002567079,0.001775395,-0.2223413,0.3095307,-9.789243000000001,0,0,43.8165,1,1,8009,4004
4970,66135062,0,-0.002258223,-0.00256907,0.00175173,-0.222547,0.3105054,-9.786543,0,0,43.81645,1,1,8009,4004
4973,66137586,0,-0.002209053,-0.00238517,0.002083284,-0.2228095,0.3133241,-9.783778999999999,0,0,43.81638,1,1,8009,4004
5008,66140643,0,-0.001666191,-0.002244121,0.002438364,-0.2226506,0.3211706,-9.779045,0,0,43.81628,1,1,8009,4004
5011,66143797,0,-0.0007840834,-0.002401735,0.002341447,-0.2206391,0.3287764,-9.775974,0,0,43.81624,1,1,8009,4004
5014,66144995,0,-0.000594243,-0.001926889,0.001534488,-0.2187603,0.3396375,-9.776512,0,0,43.81621,1,1,8009,4004
5017,66147816,0,-0.0003165082,-0.0007922035,0.0009441452,-0.2191357,0.3460957,-9.777060000000001,0,0,43.81623,1,1,8009,4004
5052,66150072,0,-1.82102e-05,0.0001268844,0.001128606,-0.2194963,0.3539235,-9.776949,0,0,43.81628,1,1,8009,4004
5055,66153851,0,-5.51327e-05,0.0005320922,0.001852046,-0.2198031,0.357751,-9.775562000000001,0,0,43.81634,1,1,8009,4004
5058,66155796,0,0.0002620649,0.0004952247,0.002774695,-0.2200907,0.3591144,-9.770963999999999,0,0,43.81642,1,1,8009,4004
5061,66157887,0,0.0001263631,0.0007373181,0.002281196,-0.2204776,0.3573211,-9.768879,0,0,43.81647,1,1,8009,4004
5096,66160024,0,-0.0003075453,0.0008515388,0.0008707380999999999,-0.2204495,0.3521977,-9.766768000000001,0,0,43.81651,1,1,8009,4004
5099,66162859,0,-8.952813e-05,0.0009065072,0.0001463613,-0.2203408,0.349736,-9.766124,0,0,43.81651,1,1,8009,4004
5102,66165388,0,0.001486844,2.753684e-05,0.0004098392,-0.2213775,0.3477439,-9.763461,0,0,43.81649,1,1,8009,4004
5105,66168739,0,0.001523942,-0.0007284323,0.001156921,-0.2239308,0.3465991,-9.760757,0,0,43.81649,1,1,8009,4004
5140,66171622,0,5.658917e-06,0.0005278299,0.001604113,-0.2247945,0.3441065,-9.758913,0,0,43.81648,1,1,8009,4004
5144,66173798,0,-0.001143469,0.001955375,0.001251281,-0.2239809,0.34015,-9.756378,0,0,43.81648,1,1,8009,4004
5147,66176036,0,-0.00168594,0.003364575,-0.0006319754,-0.2206117,0.3340349,-9.752048,0,0,43.81646,1,1,8009,4004
5150,66179159,0,-0.0009129217,0.003380967,-0.001777216,-0.2174407,0.3315954,-9.748802,0,0,43.81647,1,1,8009,4004
5185,66181267,0,0.0005571416,0.003743903,-0.002598226,-0.2136866,0.3311697,-9.746575999999999,0,0,43.8165,1,1,8009,4004
5190,66184833,0,0.00306383,0.004479599,-0.001724526,-0.2113931,0.3324046,-9.745327,0,0,43.81649,1,1,8009,4004
5193,66187004,0,0.003731604,0.005233868,-0.0003948473,-0.2098097,0.3319556,-9.743988,0,0,43.81648,1,1,8009,4004
5196,66189624,0,0.003153468,0.004795359,0.001023625,-0.2089473,0.3307322,-9.744755,0,0,43.81647,1,1,8009,4004
5231,66191861,0,0.002522349,0.003715213,2.586448e-05,-0.2120087,0.3320938,-9.748509,0,0,43.81647,1,1,8009,4004
5234,66194795,0,0.002650056,0.003118714,-0.001253364,-0.2145625,0.3340513,-9.749867,0,0,43.81647,1,1,8009,4004
5237,66197615,0,0.002562373,0.002243636,-0.002213055,-0.2151817,0.3356135,-9.750346,0,0,43.81647,1,1,8009,4004
5240,66199201,0,0.001418995,0.002286152,-0.001540927,-0.2142706,0.3366381,-9.748462999999999,0,0,43.81646,1,1,8009,4004
5275,66202736,0,-0.0008463545,0.002594379,-0.000528026,-0.2148009,0.3396926,-9.744643,0,0,43.81641,1,1,8009,4004
5279,66204209,0,-0.001127669,0.002536286,0.0004662421,-0.2146978,0.3422481,-9.741039000000001,0,0,43.81639,1,1,8009,4004
5282,66207437,0,0.0003467958,0.003075264,0.0007277434,-0.2134467,0.3441328,-9.740254,0,0,43.81635,1,1,8009,4004
5285,66209773,0,0.00118263,0.003147005,0.0002931363,-0.2124098,0.3431886,-9.743586000000001,0,0,43.81634,1,1,8009,4004
5320,66211933,0,0.001151807,0.002624736,-0.001416693,-0.2100578,0.3396899,-9.749307,0,0,43.81634,1,1,8009,4004
5323,66215016,0,0.0003266735,0.001612496,-0.002619972,-0.2077704,0.3369125,-9.752219999999999,0,0,43.81634,1,1,8009,4004
5326,66216858,0,-0.001376984,0.0007537119,-0.001886351,-0.2041257,0.3329563,-9.757647,0,0,43.81635,1,1,8009,4004
5329,66219466,0,-0.0007503779,-1.082556e-05,-0.0009074796,-0.2028196,0.3311305,-9.762546,0,0,43.81637,1,1,8009,4004
5368,66222875,0,0.0004878087,0.0003079823,-0.0003544779,-0.2031439,0.3314482,-9.765639,0,0,43.81641,1,1,8009,4004
5372,66224414,0,0.0006910471,0.0002699514,-3.136321e-05,-0.2043813,0.3320738,-9.765855,0,0,43.81646,1,1,8009,4004
5375,66227429,0,-0.0006588456,-0.0005583179,-0.0003979022,-0.2064863,0.3308797,-9.76417,0,0,43.81654,1,1,8009,4004
5378,66229360,0,-0.0009288593,-0.001559055,-0.000484167,-0.2080612,0.3292628,-9.761711,0,0,43.81658,1,1,8009,4004
5413,66232268,0,0.0005464887000000001,-0.00210436,-0.0009275888,-0.2132008,0.3287268,-9.75886,0,0,43.81665,1,1,8009,4004
5416,66234911,0,0.001014522,-0.002654125,-0.001447544,-0.2200266,0.3268597,-9.757837,0,0,43.81672,1,1,8009,4004
5419,66236839,0,8.152245e-05,-0.002059662,-0.001168366,-0.2236846,0.3250664,-9.758388999999999,0,0,43.81681,1,1,8009,4004
5423,66239980,0,-0.0003350434,-0.001243411,-0.0009628323,-0.2266071,0.3221566,-9.758915999999999,0,0,43.81687,1,1,8009,4004
5458,66242467,0,-0.0007855714,-0.002538313,-0.0009795661999999999,-0.2293619,0.3181579,-9.761075,0,0,43.81698,1,1,8009,4004
5462,66245240,0,-0.0009677291,-0.002876883,-0.0001281098,-0.2290525,0.3162811,-9.766289,0,0,43.81708,1,1,8009,4004
5465,66247439,0,-0.0009378257,-0.002828802,0.0003364977,-0.2275113,0.3153204,-9.769531000000001,0,0,43.81715,1,1,8009,4004
5468,66250361,0,-0.0008725455,-0.003676828,0.000774898,-0.2264986,0.3143944,-9.77463,0,0,43.81727,1,1,8009,4004
5503,66253245,0,-0.000198456,-0.004204491,0.001098307,-0.2263294,0.3135652,-9.778797000000001,0,0,43.81736,1,1,8009,4004
5509,66255870,0,0.0002903487,-0.004382277,0.0005481805,-0.2255764,0.3135192,-9.776929000000001,0,0,43.81748,1,1,8009,4004
5512,66264202,0,-0.001695753,-0.003673667,-0.002498652,-0.2167074,0.3320022,-9.752065,0,0,43.8177,1,1,8009,4004
5547,66267058,0,-0.002377762,-0.002286897,-0.001680352,-0.2149089,0.3384438,-9.749336,0,0,43.81768,1,1,8009,4004
5550,66270595,0,-0.002368052,-0.0006679731,-0.000497619,-0.2143428,0.3422012,-9.750420999999999,0,0,43.81764,1,1,8009,4004
5553,66272621,0,-0.001078706,-8.723223e-05,0.0007077839,-0.2139966,0.3463779,-9.753292,0,0,43.81758,1,1,8009,4004
5556,66274821,0,-0.0002208191,-0.0006003588,0.0007845262,-0.2146957,0.3475641,-9.754733,0,0,43.81753,1,1,8009,4004
5592,66277038,0,0.0005042804,-0.001500114,0.0009091532,-0.2160816,0.3464151,-9.753512000000001,0,0,43.81749,1,1,8009,4004
5595,66280157,0,0.0009760708000000001,-0.001049493,0.0002642255,-0.2182107,0.3460456,-9.749548000000001,0,0,43.81745,1,1,8009,4004
5598,66282986,0,0.0002928285,-0.0006719391,-0.0001012971,-0.2195297,0.345802,-9.745092,0,0,43.81745,1,1,8009,4004
5601,66285615,0,-0.001253112,-0.0006801188,0.0003287151,-0.2216651,0.3431024,-9.741906,0,0,43.81748,1,1,8009,4004
5636,66288247,0,-0.001963806,0.0005352557,0.001516518,-0.2259496,0.3418192,-9.746269,0,0,43.81748,1,1,8009,4004
5641,66290350,0,-0.002478763,0.00118433,0.001491075,-0.2268821,0.3417608,-9.750518,0,0,43.81747,1,1,8009,4004
5644,66293643,0,-0.001339565,0.001670845,0.002086529,-0.2271439,0.3386853,-9.756506999999999,0,0,43.81749,1,1,8009,4004
5647,66295425,0,-0.0007721753,0.001848776,0.001993946,-0.2280538,0.3367107,-9.759029,0,0,43.8175,1,1,8009,4004
5682,66298760,0,-0.0004076733,0.001973533,0.001926629,-0.2301419,0.3345071,-9.764981000000001,0,0,43.81755,1,1,8009,4004
5685,66300554,0,-0.0003384471,0.002495316,0.001821796,-0.2309714,0.3332596,-9.769291000000001,0,0,43.81758,1,1,8009,4004
5688,66303134,0,-0.0005855325,0.003460506,0.001673384,-0.2324173,0.3325689,-9.771191,0,0,43.81761,1,1,8009,4004
5691,66305836,0,-3.133982e-05,0.00359287,0.001133739,-0.2320709,0.3317088,-9.77183,0,0,43.81761,1,1,8009,4004
5726,66308436,0,0.0005172769,0.003916795,0.0004868632,-0.227535,0.3287881,-9.77229,0,0,43.81761,1,1,8009,4004
5731,66311274,0,-0.0006011567,0.003549861,0.0005947294,-0.2239705,0.3252309,-9.770649000000001,0,0,43.81757,1,1,8009,4004
5734,66313627,0,-0.00115321,0.00259162,0.000676145,-0.2227136,0.3248234,-9.768395999999999,0,0,43.81754,1,1,8009,4004
5737,66316010,0,-0.001756159,0.002528655,0.001528979,-0.2197022,0.3267986,-9.764829000000001,0,0,43.81744,1,1,8009,4004
5772,66319028,0,-0.001557957,0.002883684,0.001767895,-0.218467,0.3284191,-9.763040999999999,0,0,43.81742,1,1,8009,4004
5775,66320955,0,-0.001136658,0.003055967,0.001385076,-0.2199657,0.3309218,-9.761763999999999,0,0,43.81742,1,1,8009,4004
5778,66324017,0,-0.001425806,0.003547958,0.001451619,-0.2216685,0.3327794,-9.76346,0,0,43.81744,1,1,8009,4004
5785,66326180,0,-0.001859407,0.003388538,0.000199117,-0.2244418,0.3355718,-9.766575,0,0,43.81745,1,1,8009,4004
5820,66328734,0,-0.001703164,0.003021011,-0.0009822473,-0.2258443,0.3384734,-9.764802,0,0,43.81745,1,1,8009,4004
5824,66331219,0,-0.000281793,0.002859153,-0.000963441,-0.2236635,0.3397271,-9.75806,0,0,43.81745,1,1,8009,4004
5827,66333625,0,-0.0001419442,0.002893059,-0.0004013797,-0.2215405,0.3389877,-9.75258,0,0,43.81744,1,1,8009,4004
5830,66336277,0,0.0002946748,0.00354764,0.001301998,-0.219692,0.3388843,-9.747757999999999,0,0,43.81742,1,1,8009,4004
5867,66338898,0,0.0006680306,0.002548865,0.001884078,-0.2208658,0.3390867,-9.747653,0,0,43.81738,1,1,8009,4004
5870,66341824,0,0.0009707237,0.001466247,0.00148589,-0.2222197,0.3385989,-9.750854,0,0,43.81736,1,1,8009,4004
5873,66343920,0,0.001918356,5.146996e-05,0.001287872,-0.2210454,0.3377666,-9.754630000000001,0,0,43.81736,1,1,8009,4004
5876,66346379,0,0.001881834,-0.0006267473,0.001298104,-0.218427,0.3382268,-9.754246,0,0,43.81739,1,1,8009,4004
5911,66349285,0,0.0008195412,-0.00066447,0.0009398711,-0.2146109,0.3388543,-9.750978,0,0,43.81749,1,1,8009,4004
5915,66351393,0,0.0006267505,-0.0004031077,0.0004288627,-0.2126216,0.3379695,-9.748491,0,0,43.81758,1,1,8009,4004
5918,66353970,0,0.001150707,-0.0005767696,-0.0005045783,-0.2115804,0.334859,-9.74338,0,0,43.8177,1,1,8009,4004
5921,66356812,0,0.001932757,-0.0005113879,-0.0006447629,-0.2134442,0.3320615,-9.7408,0,0,43.81775,1,1,8009,4004
5956,66359054,0,0.002019117,-0.0005899144,3.73269e-05,-0.2179805,0.32688,-9.738937,0,0,43.81782,1,1,8009,4004
5960,66362523,0,0.0006914662999999999,-0.0005482129000000001,0.0005135586,-0.2208927,0.3209698,-9.743152,0,0,43.81785,1,1,8009,4004
5963,66364064,0,0.0008428853,-0.001371238,0.0006629664,-0.2230814,0.3179598,-9.747339,0,0,43.81787,1,1,8009,4004
5966,66368205,0,0.0005942724,-0.002044763,0.0002565044,-0.2259881,0.3178096,-9.752898,0,0,43.81791,1,1,8009,4004
5969,66369404,0,-0.0001925841,-0.001878167,-5.431696e-05,-0.2272973,0.3192015,-9.755095000000001,0,0,43.81794,1,1,8009,4004
6004,66371844,0,-0.002591017,-0.001044456,-6.689872000000001e-05,-0.2287669,0.3214263,-9.753085,0,0,43.81797,1,1,8009,4004
6007,66375761,0,-0.003926333,-0.001018462,0.0005787808,-0.2283677,0.3235932,-9.751963999999999,0,0,43.81799,1,1,8009,4004
6010,66377184,0,-0.003194749,-0.002029807,0.001249125,-0.2266281,0.3291602,-9.751222,0,0,43.81802,1,1,8009,4004
6013,66379802,0,-0.001401654,-0.002825161,0.001742507,-0.2256598,0.3333586,-9.74905,0,0,43.81804,1,1,8009,4004
6049,66382812,0,0.001303951,-0.002224583,0.00257357,-0.2239004,0.3368234,-9.745272999999999,0,0,43.81804,1,1,8009,4004
6052,66384742,0,0.001460084,-0.001757235,0.002176247,-0.2221609,0.3374393,-9.744047999999999,0,0,43.81804,1,1,8009,4004
6055,66387469,0,0.000110751,-0.001226581,0.001229944,-0.2183641,0.3379818,-9.7447,0,0,43.81804,1,1,8009,4004
6058,66390178,0,-0.001228515,-0.001537271,6.3181e-05,-0.2153786,0.3385934,-9.746226999999999,0,0,43.81804,1,1,8009,4004
6093,66392513,0,-0.001271875,-0.001606836,-0.002511299,-0.2114052,0.3369412,-9.749414,0,0,43.81807,1,1,8009,4004
6096,66395810,0,-0.001863319,-0.00219341,-0.003323523,-0.2088669,0.3336631,-9.749523999999999,0,0,43.81807,1,1,8009,4004
6099,66397298,0,-0.002378691,-0.002578113,-0.002415019,-0.2086648,0.3331506,-9.749409999999999,0,0,43.81808,1,1,8009,4004
6102,66400275,0,-0.002565739,-0.001710155,-0.00103365,-0.2118976,0.3333499,-9.751543,0,0,43.81811,1,1,8009,4004
6137,66403006,0,-0.002327797,-0.0005109776,-0.000200954,-0.2175892,0.3347885,-9.755894,0,0,43.81814,1,1,8009,4004
6141,66405477,0,-0.001649484,9.343609e-05,-0.000306388,-0.2219599,0.3361088,-9.757707999999999,0,0,43.81816,1,1,8009,4004
6145,66408203,0,-0.001419025,0.001020968,-0.0007687129,-0.2252147,0.3375627,-9.760256999999999,0,0,43.81822,1,1,8009,4004
6148,66410575,0,-0.001428875,0.001134008,-0.001678525,-0.2258085,0.3368454,-9.760909,0,0,43.81826,1,1,8009,4004
6183,66413765,0,-0.001378556,0.001518062,-0.003570977,-0.2278216,0.3346165,-9.763301,0,0,43.81832,1,1,8009,4004
6187,66415986,0,-0.001331734,0.002149547,-0.003556405,-0.2298239,0.3348446,-9.765117999999999,0,0,43.81834,1,1,8009,4004
6190,66418157,0,-0.0006136426,0.002356994,-0.002679847,-0.2329117,0.3383879,-9.762430999999999,0,0,43.81837,1,1,8009,4004
6193,66420427,0,-0.000975878,0.00262355,-0.001654028,-0.2325773,0.3400559,-9.757732000000001,0,0,43.81839,1,1,8009,4004
6228,66422954,0,-0.001829697,0.003172299,-0.0009440586,-0.2276283,0.3396931,-9.752254000000001,0,0,43.81849,1,1,8009,4004
6231,66426000,0,-0.001216218,0.003503223,-0.0002933848,-0.2247584,0.339495,-9.751533,0,0,43.81855,1,1,8009,4004
6238,66429026,0,-0.0001891267,0.003288687,0.0003028344,-0.2220275,0.3387655,-9.754916,0,0,43.81871,1,1,8009,4004
6241,66430274,0,0.0002013416,0.003145676,-0.0001061855,-0.2205021,0.3375532,-9.758654,0,0,43.81886,1,1,8009,4004
6276,66433000,0,0.0009340232,0.003615094,-0.000968483,-0.2176457,0.3353805,-9.763724,0,0,43.81902,1,1,8009,4004
6280,66435492,0,0.0007019337,0.003272781,-0.001428052,-0.2170404,0.3347167,-9.766631,0,0,43.81911,1,1,8009,4004
6284,66438613,0,0.0004552296,0.002761426,-0.002203373,-0.2174182,0.3345987,-9.767391999999999,0,0,43.81933,1,1,8009,4004
6287,66440826,0,0.0005799228999999999,0.002690159,-0.001841505,-0.2175585,0.3356895,-9.767529,0,0,43.81945,1,1,8009,4004
6322,66443414,0,0.0001179069,0.003539791,-0.001002145,-0.2172831,0.3372081,-9.767529,0,0,43.81968,1,1,8009,4004
6325,66445669,0,-0.0006992614,0.004111166,-0.0002076831,-0.2174561,0.3381714,-9.766366,0,0,43.81986,1,1,8009,4004
6328,66448442,0,-0.0009888852,0.003583661,-0.0002393604,-0.2177975,0.3392743,-9.766211,0,0,43.82,1,1,8009,4004
6331,66451313,0,-0.0001428263,0.00268155,-0.001151973,-0.2193893,0.3402207,-9.767981000000001,0,0,43.82026,1,1,8009,4004
6366,66454238,0,-4.05851e-05,0.001633254,-0.0008871406,-0.2221548,0.3414097,-9.771860999999999,0,0,43.82045,1,1,8009,4004
6370,66456213,0,9.827559e-05,0.0007535503,-0.0004740059,-0.2240315,0.3437772,-9.776334,0,0,43.82058,1,1,8009,4004
6373,66459205,0,0.0002513149,-0.0006065227,0.0003941248,-0.2241948,0.3464812,-9.779925,0,0,43.82085,1,1,8009,4004
6378,66461952,0,0.0009397079,-0.0004155396,0.001788527,-0.2225814,0.3460144,-9.777982,0,0,43.821,1,1,8009,4004
6413,66470236,0,0.0003965862,0.0006646398,-0.000750978,-0.2167625,0.3395128,-9.754842999999999,0,0,43.82157,1,1,8009,4004
6417,66473259,0,0.0006819427,0.0002918088,-0.0002544542,-0.2124429,0.3365765,-9.750786,0,0,43.82174,1,1,8009,4004
6452,66476783,0,0.0006080794,-0.0008121863,0.0008240712,-0.2099806,0.3355173,-9.749294000000001,0,0,43.82198,1,1,8009,4004
6455,66479010,0,0.001148824,-0.00146317,0.001368315,-0.21103,0.3362829,-9.75103,0,0,43.8221,1,1,8009,4004
6458,66480851,0,0.002829726,-0.00146031,0.002896493,-0.2127576,0.3375278,-9.754960000000001,0,0,43.82225,1,1,8009,4004
6461,66483369,0,0.003631835,-0.001610572,0.00293185,-0.2130662,0.3387153,-9.758718,0,0,43.82233,1,1,8009,4004
6496,66485746,0,0.003872075,-0.002034267,0.0007499573,-0.2132757,0.3385197,-9.759942000000001,0,0,43.82249,1,1,8009,4004
6499,66488753,0,0.003144552,-0.001290932,-0.0005422692999999999,-0.2138224,0.337424,-9.758608000000001,0,0,43.82256,1,1,8009,4004
6502,66491410,0,0.002092861,-0.0004706268,-0.001085315,-0.2142361,0.3354464,-9.757485000000001,0,0,43.82267,1,1,8009,4004
6506,66493033,0,1.392064e-05,-0.001158271,-0.0007789217,-0.2158876,0.3318048,-9.760073,0,0,43.82276,1,1,8009,4004
6541,66495860,0,0.0002583174,-0.002955963,0.001068523,-0.2178253,0.3275444,-9.766276,0,0,43.82285,1,1,8009,4004
6544,66498220,0,0.001019886,-0.003827399,0.001962013,-0.2186294,0.3239201,-9.767628999999999,0,0,43.82292,1,1,8009,4004
6547,66501162,0,0.001326754,-0.003694241,0.002387972,-0.2197455,0.3216827,-9.768884,0,0,43.82301,1,1,8009,4004
6551,66503806,0,0.001481275,-0.00354435,0.001635055,-0.2200556,0.319406,-9.771856,0,0,43.82308,1,1,8009,4004
6586,66506147,0,0.0001532576,-0.003312887,0.001017178,-0.219623,0.3192408,-9.773588999999999,0,0,43.82312,1,1,8009,4004
6589,66509012,0,-0.0004112915,-0.003157705,0.000746106,-0.2181028,0.3234356,-9.771663999999999,0,0,43.82317,1,1,8009,4004
6594,66511850,0,-8.932671e-05,-0.003315226,0.000603402,-0.2164829,0.3278185,-9.769610999999999,0,0,43.82318,1,1,8009,4004
6597,66513866,0,0.0003471759,-0.002227163,-3.32149e-05,-0.215501,0.3330826,-9.765383,0,0,43.8232,1,1,8009,4004
6632,66516851,0,0.0003573702,-0.002011767,-3.999146e-05,-0.2161481,0.3359892,-9.764898000000001,0,0,43.8232,1,1,8009,4004
6635,66518960,0,0.0002654965,-0.001496587,-0.0005786033,-0.2198497,0.3380783,-9.766873,0,0,43.82317,1,1,8009,4004
6638,66521273,0,0.0007268945,-0.0004714353,-0.0008843869,-0.2241793,0.3367776,-9.768867,0,0,43.82313,1,1,8009,4004
6642,66524387,0,0.0002111736,-0.0002907444,-0.0007522643,-0.2294477,0.3338284,-9.770932,0,0,43.82306,1,1,8009,4004
6677,66527294,0,-0.0005860659,-0.0005891716,-0.0006182091,-0.230262,0.3325472,-9.771565000000001,0,0,43.82302,1,1,8009,4004
6680,66529438,0,6.746857e-05,5.915271e-05,-0.0001397162,-0.2292811,0.3314555,-9.772004000000001,0,0,43.82299,1,1,8009,4004
6687,66532205,0,0.001002211,0.001579107,0.0007386722,-0.2297809,0.3290055,-9.774864000000001,0,0,43.82302,1,1,8009,4004
6690,66534357,0,0.0009855275000000001,0.001555361,0.0002874601,-0.2308778,0.3280021,-9.777637,0,0,43.82307,1,1,8009,4004
6725,66537209,0,9.026131e-05,0.0008603981,0.0002475498,-0.2327385,0.3270454,-9.779959,0,0,43.82323,1,1,8009,4004
6728,66539961,0,0.000474165,0.0006290211,-0.0001454551,-0.2343693,0.3266234,-9.779852999999999,0,0,43.8233,1,1,8009,4004
6731,66541881,0,0.001406712,0.002274642,-0.00153405,-0.2338279,0.3268765,-9.77969,0,0,43.82336,1,1,8009,4004
6735,66544187,0,0.001563313,0.002849801,-0.002419058,-0.2313105,0.3278391,-9.778962999999999,0,0,43.8234,1,1,8009,4004
6770,66546946,0,0.002213038,0.002641353,-0.003040363,-0.2265996,0.3303358,-9.776427999999999,0,0,43.82348,1,1,8009,4004
6773,66550046,0,0.002276224,0.002225681,-0.002670653,-0.2226408,0.3316304,-9.773766999999999,0,0,43.82352,1,1,8009,4004
6776,66552291,0,0.001686968,0.002570198,-0.002561066,-0.2167992,0.3332506,-9.768729,0,0,43.82358,1,1,8009,4004
6780,66554282,0,0.00118667,0.003792585,-0.002363134,-0.2148637,0.3343843,-9.765802000000001,0,0,43.82362,1,1,8009,4004
6815,66556623,0,0.001489516,0.003505472,-0.001432291,-0.2119071,0.3350742,-9.763723000000001,0,0,43.82372,1,1,8009,4004
6818,66559264,0,0.001691704,0.002685781,-0.001096883,-0.2098567,0.3344611,-9.761626,0,0,43.82378,1,1,8009,4004
6821,66562650,0,0.001118324,0.002709552,-0.001508626,-0.2083465,0.3343062,-9.758174,0,0,43.82389,1,1,8009,4004
6824,66565054,0,0.001057404,0.002608821,-0.001588603,-0.2089598,0.3345764,-9.758456000000001,0,0,43.82396,1,1,8009,4004
6859,66567395,0,0.001294986,0.002767758,-0.001716188,-0.208413,0.3346801,-9.760135,0,0,43.82412,1,1,8009,4004
6862,66570167,0,0.0008295603,0.001476626,-0.00198392,-0.2068971,0.3328059,-9.761578999999999,0,0,43.82426,1,1,8009,4004
6865,66572815,0,0.0006494938,0.0005969978,-0.001921572,-0.2062106,0.3318455,-9.760495000000001,0,0,43.82434,1,1,8009,4004
6869,66576057,0,-0.0004719072,0.0003931072,-0.001281322,-0.2070704,0.3323852,-9.758357999999999,0,0,43.82442,1,1,8009,4004
6904,66579166,0,-0.002042184,-0.0005674521,-0.0005999682000000001,-0.2072549,0.3328798,-9.75681,0,0,43.82447,1,1,8009,4004
6907,66580815,0,-0.002380894,-0.0007340872,-0.0002750242,-0.2073493,0.3342083,-9.758815999999999,0,0,43.82451,1,1,8009,4004
6910,66583736,0,-0.001315036,0.0003379947,0.0001322813,-0.2074527,0.3356775,-9.759058,0,0,43.82456,1,1,8009,4004
6913,66586408,0,0.0006987318,0.001452514,0.0007936427999999999,-0.2064764,0.3373989,-9.756352,0,0,43.8246,1,1,8009,4004
6948,66589415,0,0.0007576106999999999,0.001247471,-0.0001604809,-0.2072618,0.3377573,-9.753534,0,0,43.82465,1,1,8009,4004
6951,66591851,0,-0.0003794541,0.001341632,-0.0008538169,-0.2086991,0.3381097,-9.753420999999999,0,0,43.82468,1,1,8009,4004
6954,66594168,0,-0.001650759,0.0004982671,-0.001442699,-0.2079321,0.3392743,-9.758091,0,0,43.82473,1,1,8009,4004
6959,66596275,0,-0.002300281,-0.0007602122,-0.0006548882999999999,-0.2066673,0.3415575,-9.761044999999999,0,0,43.82476,1,1,8009,4004
6994,66599484,0,-0.002145314,-0.001626353,0.001009191,-0.2062035,0.3441776,-9.762582999999999,0,0,43.82481,1,1,8009,4004
6998,66602009,0,-0.001408446,-0.001464912,0.00157245,-0.2069752,0.3448597,-9.763095,0,0,43.82484,1,1,8009,4004
7001,66604352,0,-0.001381964,-0.001081251,0.001377063,-0.2091141,0.3433493,-9.762449999999999,0,0,43.8249,1,1,8009,4004
7004,66606400,0,-0.001583199,-0.001832993,0.0007107923,-0.2100389,0.3403446,-9.760209,0,0,43.82492,1,1,8009,4004
7039,66609037,0,-0.001839987,-0.002705901,0.0007259086,-0.2106908,0.3362456,-9.754452000000001,0,0,43.82497,1,1,8009,4004
7042,66612147,0,-0.002711186,-0.002284934,0.001340961,-0.212083,0.3342461,-9.751904,0,0,43.82502,1,1,8009,4004
7046,66614234,0,-0.002949963,-0.000991051,0.001216162,-0.213407,0.3317315,-9.751094999999999,0,0,43.82508,1,1,8009,4004
7050,66617036,0,-0.002540618,-0.0003793843,0.0005146606,-0.2140591,0.3293376,-9.752660000000001,0,0,43.82513,1,1,8009,4004
7085,66619454,0,-0.002353549,-0.001249628,-1.960015e-05,-0.2154159,0.3253248,-9.755519,0,0,43.82523,1,1,8009,4004
7088,66622748,0,-0.002677275,-0.001158143,0.0002848484,-0.2155669,0.3246801,-9.759643000000001,0,0,43.82535,1,1,8009,4004
7091,66624695,0,-0.002533675,-0.0007334574,0.000585882,-0.2155252,0.3262046,-9.763904,0,0,43.82542,1,1,8009,4004
7095,66627167,0,-0.002293439,-0.0004899803,0.001086285,-0.2156975,0.3271078,-9.771190000000001,0,0,43.82549,1,1,8009,4004
7130,66630059,0,-0.002253368,-0.0009129334,0.001806379,-0.2163864,0.3261701,-9.776534,0,0,43.82552,1,1,8009,4004
7133,66631914,0,-0.002218042,-0.001270041,0.001412903,-0.2178115,0.3259184,-9.77643,0,0,43.82551,1,1,8009,4004
7140,66635188,0,-0.002085853,-0.002314155,0.0003555813,-0.2191925,0.3274802,-9.77444,0,0,43.8255,1,1,8009,4004
7143,66637217,0,-0.002546012,-0.003068801,-0.0005658726,-0.2195206,0.3312971,-9.772365000000001,0,0,43.82549,1,1,8009,4004
7178,66639648,0,-0.003334424,-0.001992521,-0.0006112581,-0.2179004,0.335232,-9.773438000000001,0,0,43.82545,1,1,8009,4004
7181,66642751,0,-0.003782365,-0.001118004,-0.0006436522000000001,-0.2178347,0.3381998,-9.77459,0,0,43.8254,1,1,8009,4004
7184,66644700,0,-0.003479371,7.862732e-05,-0.0006549158,-0.2182302,0.3415338,-9.775638000000001,0,0,43.82535,1,1,8009,4004
7188,66647451,0,-0.003162064,0.0006770949,-0.001214287,-0.2195394,0.3459686,-9.777075999999999,0,0,43.82531,1,1,8009,4004
