LineNo,TimeUS,C1,C2,C3,C4,C5,C6,C7,C8,C9,C10,C11,C12,C13,C14
211,64899179,0,0,0,0,0,0,0,0,1000,1000,1000,1000,1000,1000
660,65009432,0,0,0,0,0,0,0,0,1000,1000,1000,1000,1000,1000
1000,65093609,0,0,0,0,0,0,0,0,1000,1000,1000,1000,1000,1000
1225,65225450,0,0,0,0,0,0,0,0,1000,1000,1000,1000,1000,1000
1596,65346427,0,0,0,0,0,0,0,0,1000,1000,1000,1000,1000,1000
1640,65356182,0,0,0,0,0,0,0,0,1000,1000,1000,1000,1000,1000
1685,65366270,0,0,0,0,0,0,0,0,1000,1000,1000,1000,1000,1000
1730,65376605,0,0,0,0,0,0,0,0,1000,1000,1000,1000,1000,1000
1774,65387176,0,0,0,0,0,0,0,0,1000,1000,1000,1000,1000,1000
1823,65398052,0,0,0,0,0,0,0,0,1000,1000,1000,1000,1000,1000
1867,65408628,0,0,0,0,0,0,0,0,1000,1000,1000,1000,1000,1000
1912,65418667,0,0,0,0,0,0,0,0,1000,1000,1000,1000,1000,1000
1958,65428969,0,0,0,0,0,0,0,0,1000,1000,1000,1000,1000,1000
2003,65439759,0,0,0,0,0,0,0,0,1000,1000,1000,1000,1000,1000
2048,65450013,0,0,0,0,0,0,0,0,1000,1000,1000,1000,1000,1000
2092,65460216,0,0,0,0,0,0,0,0,1000,1000,1000,1000,1000,1000
2137,65470865,0,0,0,0,0,0,0,0,1000,1000,1000,1000,1000,1000
2183,65486740,0,0,0,0,0,0,0,0,1000,1000,1000,1000,1000,1000
2229,65497275,0,0,0,0,0,0,0,0,1000,1000,1000,1000,1000,1000
2278,65507862,0,0,0,0,0,0,0,0,1000,1000,1000,1000,1000,1000
2322,65518362,0,0,0,0,0,0,0,0,1000,1000,1000,1000,1000,1000
2367,65528606,0,0,0,0,0,0,0,0,1000,1000,1000,1000,1000,1000
2411,65538659,0,0,0,0,0,0,0,0,1000,1000,1000,1000,1000,1000
2456,65549239,0,0,0,0,0,0,0,0,1000,1000,1000,1000,1000,1000
2503,65559427,0,0,0,0,0,0,0,0,1000,1000,1000,1000,1000,1000
2549,65570025,0,0,0,0,0,0,0,0,1000,1000,1000,1000,1000,1000
2595,65580395,0,0,0,0,0,0,0,0,1000,1000,1000,1000,1000,1000
2639,65590304,0,0,0,0,0,0,0,0,1000,1000,1000,1000,1000,1000
2684,65600463,0,0,0,0,0,0,0,0,1000,1000,1000,1000,1000,1000
2732,65610905,0,0,0,0,0,0,0,0,1000,1000,1000,1000,1000,1000
2777,65621495,0,0,0,0,0,0,0,0,1000,1000,1000,1000,1000,1000
2823,65631485,0,0,0,0,0,0,0,0,1000,1000,1000,1000,1000,1000
2867,65642470,0,0,0,0,0,0,0,0,1000,1000,1000,1000,1000,1000
2913,65653373,0,0,0,0,0,0,0,0,1000,1000,1000,1000,1000,1000
2959,65666028,0,0,0,0,0,0,0,0,1000,1000,1000,1000,1000,1000
3004,65679450,0,0,0,0,0,0,0,0,1000,1000,1000,1000,1000,1000
3052,65689439,0,0,0,0,0,0,0,0,1000,1000,1000,1000,1000,1000
3096,65700039,0,0,0,0,0,0,0,0,1000,1000,1000,1000,1000,1000
3148,65712846,0,0,0,0,0,0,0,0,1000,1000,1000,1000,1000,1000
3192,65723428,0,0,0,0,0,0,0,0,1000,1000,1000,1000,1000,1000
3238,65733287,0,0,0,0,0,0,0,0,1000,1000,1000,1000,1000,1000
3283,65743665,0,0,0,0,0,0,0,0,1000,1000,1000,1000,1000,1000
3327,65754172,0,0,0,0,0,0,0,0,1000,1000,1000,1000,1000,1000
3373,65764433,0,0,0,0,0,0,0,0,1000,1000,1000,1000,1000,1000
3418,65774608,0,0,0,0,0,0,0,0,1000,1000,1000,1000,1000,1000
3463,65784747,0,0,0,0,0,0,0,0,1000,1000,1000,1000,1000,1000
3508,65794255,0,0,0,0,0,0,0,0,1000,1000,1000,1000,1000,1000
3553,65804287,0,0,0,0,0,0,0,0,1000,1000,1000,1000,1000,1000
3602,65814694,0,0,0,0,0,0,0,0,1000,1000,1000,1000,1000,1000
3646,65825042,0,0,0,0,0,0,0,0,1000,1000,1000,1000,1000,1000
3691,65835606,0,0,0,0,0,0,0,0,1000,1000,1000,1000,1000,1000
3737,65845691,0,0,0,0,0,0,0,0,1000,1000,1000,1000,1000,1000
3782,65855426,0,0,0,0,0,0,0,0,1000,1000,1000,1000,1000,1000
3828,65865776,0,0,0,0,0,0,0,0,1000,1000,1000,1000,1000,1000
3869,65878982,0,0,0,0,0,0,0,0,1000,1000,1000,1000,1000,1000
3913,65889435,0,0,0,0,0,0,0,0,1000,1000,1000,1000,1000,1000
3958,65899660,0,0,0,0,0,0,0,0,1000,1000,1000,1000,1000,1000
4004,65910004,0,0,0,0,0,0,0,0,1000,1000,1000,1000,1000,1000
4055,65920782,0,0,0,0,0,0,0,0,1000,1000,1000,1000,1000,1000
4099,65931062,0,0,0,0,0,0,0,0,1000,1000,1000,1000,1000,1000
4144,65941201,0,0,0,0,0,0,0,0,1000,1000,1000,1000,1000,1000
4188,65950873,0,0,0,0,0,0,0,0,1000,1000,1000,1000,1000,1000
4233,65960982,0,0,0,0,0,0,0,0,1000,1000,1000,1000,1000,1000
4280,65971350,0,0,0,0,0,0,0,0,1000,1000,1000,1000,1000,1000
4325,65981452,0,0,0,0,0,0,0,0,1000,1000,1000,1000,1000,1000
4370,65991637,0,0,0,0,0,0,0,0,1000,1000,1000,1000,1000,1000
4414,66001624,0,0,0,0,0,0,0,0,1000,1000,1000,1000,1000,1000
4459,66011794,0,0,0,0,0,0,0,0,1000,1000,1000,1000,1000,1000
4507,66022269,0,0,0,0,0,0,0,0,1000,1000,1000,1000,1000,1000
4552,66032751,0,0,0,0,0,0,0,0,1000,1000,1000,1000,1000,1000
4596,66043262,0,0,0,0,0,0,0,0,1000,1000,1000,1000,1000,1000
4641,66053299,0,0,0,0,0,0,0,0,1000,1000,1000,1000,1000,1000
4685,66063269,0,0,0,0,0,0,0,0,1000,1000,1000,1000,1000,1000
4731,66076306,0,0,0,0,0,0,0,0,1000,1000,1000,1000,1000,1000
4774,66087142,0,0,0,0,0,0,0,0,1000,1000,1000,1000,1000,1000
4818,66097006,0,0,0,0,0,0,0,0,1000,1000,1000,1000,1000,1000
4864,66107410,0,0,0,0,0,0,0,0,1000,1000,1000,1000,1000,1000
4909,66118001,0,0,0,0,0,0,0,0,1000,1000,1000,1000,1000,1000
4957,66128668,0,0,0,0,0,0,0,0,1000,1000,1000,1000,1000,1000
5002,66138725,0,0,0,0,0,0,0,0,1000,1000,1000,1000,1000,1000
5046,66148810,0,0,0,0,0,0,0,0,1000,1000,1000,1000,1000,1000
5090,66158776,0,0,0,0,0,0,0,0,1000,1000,1000,1000,1000,1000
5134,66169393,0,0,0,0,0,0,0,0,1000,1000,1000,1000,1000,1000
5179,66180046,0,0,0,0,0,0,0,0,1000,1000,1000,1000,1000,1000
5225,66190451,0,0,0,0,0,0,0,0,1000,1000,1000,1000,1000,1000
5269,66200074,0,0,0,0,0,0,0,0,1000,1000,1000,1000,1000,1000
5314,66210631,0,0,0,0,0,0,0,0,1000,1000,1000,1000,1000,1000
5358,66220403,0,0,0,0,0,0,0,0,1000,1000,1000,1000,1000,1000
5407,66230453,0,0,0,0,0,0,0,0,1000,1000,1000,1000,1000,1000
5452,66240897,0,0,0,0,0,0,0,0,1000,1000,1000,1000,1000,1000
5497,66251264,0,0,0,0,0,0,0,0,1000,1000,1000,1000,1000,1000
5541,66265151,0,0,0,0,0,0,0,0,1000,1000,1000,1000,1000,1000
5585,66275787,0,0,0,0,0,0,0,0,1000,1000,1000,1000,1000,1000
5630,66286450,0,0,0,0,0,0,0,0,1000,1000,1000,1000,1000,1000
5676,66296454,0,0,0,0,0,0,0,0,1000,1000,1000,1000,1000,1000
5720,66306852,0,0,0,0,0,0,0,0,1000,1000,1000,1000,1000,1000
5766,66316841,0,0,0,0,0,0,0,0,1000,1000,1000,1000,1000,1000
5814,66327062,0,0,0,0,0,0,0,0,1000,1000,1000,1000,1000,1000
5861,66337272,0,0,0,0,0,0,0,0,1000,1000,1000,1000,1000,1000
5905,66347170,0,0,0,0,0,0,0,0,1000,1000,1000,1000,1000,1000
5950,66357839,0,0,0,0,0,0,0,0,1000,1000,1000,1000,1000,1000
5998,66370355,0,0,0,0,0,0,0,0,1000,1000,1000,1000,1000,1000
6042,66380634,0,0,0,0,0,0,0,0,1000,1000,1000,1000,1000,1000
6087,66391055,0,0,0,0,0,0,0,0,1000,1000,1000,1000,1000,1000
6131,66401284,0,0,0,0,0,0,0,0,1000,1000,1000,1000,1000,1000
6177,66411411,0,0,0,0,0,0,0,0,1000,1000,1000,1000,1000,1000
6222,66421300,0,0,0,0,0,0,0,0,1000,1000,1000,1000,1000,1000
6270,66431230,0,0,0,0,0,0,0,0,1000,1000,1000,1000,1000,1000
6316,66441779,0,0,0,0,0,0,0,0,1000,1000,1000,1000,1000,1000
6360,66452342,0,0,0,0,0,0,0,0,1000,1000,1000,1000,1000,1000
6407,66463013,0,0,0,0,0,0,0,0,1000,1000,1000,1000,1000,1000
6446,66474241,0,0,0,0,0,0,0,0,1000,1000,1000,1000,1000,1000
6490,66484278,0,0,0,0,0,0,0,0,1000,1000,1000,1000,1000,1000
6535,66494153,0,0,0,0,0,0,0,0,1000,1000,1000,1000,1000,1000
6580,66504837,0,0,0,0,0,0,0,0,1000,1000,1000,1000,1000,1000
6626,66514812,0,0,0,0,0,0,0,0,1000,1000,1000,1000,1000,1000
6671,66525301,0,0,0,0,0,0,0,0,1000,1000,1000,1000,1000,1000
6719,66535164,0,0,0,0,0,0,0,0,1000,1000,1000,1000,1000,1000
6764,66545066,0,0,0,0,0,0,0,0,1000,1000,1000,1000,1000,1000
6809,66555165,0,0,0,0,0,0,0,0,1000,1000,1000,1000,1000,1000
6853,66566020,0,0,0,0,0,0,0,0,1000,1000,1000,1000,1000,1000
6898,66576857,0,0,0,0,0,0,0,0,1000,1000,1000,1000,1000,1000
6942,66587403,0,0,0,0,0,0,0,0,1000,1000,1000,1000,1000,1000
6988,66597241,0,0,0,0,0,0,0,0,1000,1000,1000,1000,1000,1000
7033,66607274,0,0,0,0,0,0,0,0,1000,1000,1000,1000,1000,1000
7079,66618062,0,0,0,0,0,0,0,0,1000,1000,1000,1000,1000,1000
7124,66628255,0,0,0,0,0,0,0,0,1000,1000,1000,1000,1000,1000
7172,66638215,0,0,0,0,0,0,0,0,1000,1000,1000,1000,1000,1000
7217,66648787,0,0,0,0,0,0,0,0,1000,1000,1000,1000,1000,1000
7262,66659296,0,0,0,0,0,0,0,0,1000,1000,1000,1000,1000,1000
7309,66669997,0,0,0,0,0,0,0,0,1000,1000,1000,1000,1000,1000
7347,66680830,0,0,0,0,0,0,0,0,1000,1000,1000,1000,1000,1000
7391,66692006,0,0,0,0,0,0,0,0,1000,1000,1000,1000,1000,1000
7438,66701976,0,0,0,0,0,0,0,0,1000,1000,1000,1000,1000,1000
7484,66711792,0,0,0,0,0,0,0,0,1000,1000,1000,1000,1000,1000
7529,66722898,0,0,0,0,0,0,0,0,1003,1003,1003,1003,1003,1003
7574,66733639,0,0,0,0,0,0,0,0,1006,1006,1006,1006,1006,1006
7623,66743895,0,0,0,0,0,0,0,0,1009,1009,1009,1009,1009,1009
7667,66754223,0,0,0,0,0,0,0,0,1012,1012,1012,1012,1012,1012
7712,66764260,0,0,0,0,0,0,0,0,1015,1015,1015,1015,1015,1015
7758,66774749,0,0,0,0,0,0,0,0,1018,1018,1018,1018,1018,1018
7803,66784753,0,0,0,0,0,0,0,0,1021,1021,1021,1021,1021,1021
7847,66795381,0,0,0,0,0,0,0,0,1024,1024,1024,1024,1024,1024
7892,66805232,0,0,0,0,0,0,0,0,1027,1027,1027,1027,1027,1027
7937,66815244,0,0,0,0,0,0,0,0,1030,1030,1030,1030,1030,1030
7981,66825430,0,0,0,0,0,0,0,0,1033,1033,1033,1033,1033,1033
8029,66835983,0,0,0,0,0,0,0,0,1036,1036,1036,1036,1036,1036
8077,66846563,0,0,0,0,0,0,0,0,1039,1039,1039,1039,1039,1039
8125,66856797,0,0,0,0,0,0,0,0,1042,1042,1042,1042,1042,1042
8164,66867970,0,0,0,0,0,0,0,0,1045,1045,1045,1045,1045,1045
8208,66877663,0,0,0,0,0,0,0,0,1048,1048,1048,1048,1048,1048
8253,66888002,0,0,0,0,0,0,0,0,1051,1051,1051,1051,1051,1051
8298,66897604,0,0,0,0,0,0,0,0,1054,1054,1054,1054,1054,1054
8344,66908369,0,0,0,0,0,0,0,0,1057,1057,1057,1057,1057,1057
8389,66918269,0,0,0,0,0,0,0,0,1060,1060,1060,1060,1060,1060
8433,66928610,0,0,0,0,0,0,0,0,1063,1063,1063,1063,1063,1063
8478,66938248,0,0,0,0,0,0,0,0,1066,1066,1066,1066,1066,1066
8528,66949201,0,0,0,0,0,0,0,0,1069,1069,1069,1069,1069,1069
8574,66959846,0,0,0,0,0,0,0,0,1072,1072,1072,1072,1072,1072
8619,66970292,0,0,0,0,0,0,0,0,1075,1075,1075,1075,1075,1075
8664,66980647,0,0,0,0,0,0,0,0,1078,1078,1078,1078,1078,1078
8708,66990837,0,0,0,0,0,0,0,0,1081,1081,1081,1081,1081,1081
8753,67001388,0,0,0,0,0,0,0,0,1084,1084,1084,1084,1084,1084
8797,67011515,0,0,0,0,0,0,0,0,1087,1087,1087,1087,1087,1087
8842,67021819,0,0,0,0,0,0,0,0,1090,1090,1090,1090,1090,1090
8887,67032018,0,0,0,0,0,0,0,0,1093,1093,1093,1093,1093,1093
8933,67042749,0,0,0,0,0,0,0,0,1096,1096,1096,1096,1096,1096
8982,67053213,0,0,0,0,0,0,0,0,1099,1099,1099,1099,1099,1099
9028,67063878,0,0,0,0,0,0,0,0,1100,1100,1100,1100,1100,1100
9073,67079951,0,0,0,0,0,0,0,0,1100,1100,1100,1100,1100,1100
9117,67090597,0,0,0,0,0,0,0,0,1100,1100,1100,1100,1100,1100
9162,67100800,0,0,0,0,0,0,0,0,1100,1100,1100,1100,1100,1100
9207,67111215,0,0,0,0,0,0,0,0,1100,1100,1100,1100,1100,1100
9252,67121751,0,0,0,0,0,0,0,0,1100,1100,1100,1100,1100,1100
9297,67132317,0,0,0,0,0,0,0,0,1100,1100,1100,1100,1100,1100
9343,67142203,0,0,0,0,0,0,0,0,1100,1100,1100,1100,1100,1100
9387,67152272,0,0,0,0,0,0,0,0,1100,1100,1100,1100,1100,1100
9436,67162986,0,0,0,0,0,0,0,0,1100,1100,1100,1100,1100,1100
9480,67173182,0,0,0,0,0,0,0,0,1100,1100,1100,1100,1100,1100
9526,67183172,0,0,0,0,0,0,0,0,1100,1100,1100,1100,1100,1100
9573,67195559,0,0,0,0,0,0,0,0,1100,1100,1100,1100,1100,1100
9618,67206395,0,0,0,0,0,0,0,0,1100,1100,1100,1100,1100,1100
9663,67216179,0,0,0,0,0,0,0,0,1100,1100,1100,1100,1100,1100
9707,67226854,0,0,0,0,0,0,0,0,1100,1100,1100,1100,1100,1100
9752,67236821,0,0,0,0,0,0,0,0,1100,1100,1100,1100,1100,1100
9798,67246852,0,0,0,0,0,0,0,0,1100,1100,1100,1100,1100,1100
9847,67257225,0,0,0,0,0,0,0,0,1100,1100,1100,1100,1100,1100
9892,67267214,0,0,0,0,0,0,0,0,1100,1100,1100,1100,1100,1100
9932,67278877,0,0,0,0,0,0,0,0,1100,1100,1100,1100,1100,1100
9976,67289351,0,0,0,0,0,0,0,0,1100,1100,1100,1100,1100,1100
10021,67299271,0,0,0,0,0,0,0,0,1100,1100,1100,1100,1100,1100
10067,67309578,0,0,0,0,0,0,0,0,1100,1100,1100,1100,1100,1100
10112,67319856,0,0,0,0,0,0,0,0,1100,1100,1100,1100,1100,1100
10158,67329889,0,0,0,0,0,0,0,0,1100,1100,1100,1100,1100,1100
10203,67339986,0,0,0,0,0,0,0,0,1100,1100,1100,1100,1100,1100
10248,67350622,0,0,0,0,0,0,0,0,1100,1100,1100,1100,1100,1100
10297,67361030,0,0,0,0,0,0,0,0,1100,1100,1100,1100,1100,1100
10342,67370990,0,0,0,0,0,0,0,0,1100,1100,1100,1100,1100,1100
10387,67380776,0,0,0,0,0,0,0,0,1100,1100,1100,1100,1100,1100
10431,67391422,0,0,0,0,0,0,0,0,1100,1100,1100,1100,1100,1100
10476,67401427,0,0,0,0,0,0,0,0,1100,1100,1100,1100,1100,1100
10521,67412285,0,0,0,0,0,0,0,0,1100,1100,1100,1100,1100,1100
10565,67422311,0,0,0,0,0,0,0,0,1100,1100,1100,1100,1100,1100
10610,67433005,0,0,0,0,0,0,0,0,1100,1100,1100,1100,1100,1100
10654,67443064,0,0,0,0,0,0,0,0,1100,1100,1100,1100,1100,1100
10701,67453447,0,0,0,0,0,0,0,0,1100,1100,1100,1100,1100,1100
10749,67464446,0,0,0,0,0,0,0,0,1100,1100,1100,1100,1100,1100
10793,67474857,0,0,0,0,0,0,0,0,1100,1100,1100,1100,1100,1100
10835,67485361,0,0,0,0,0,0,0,0,1100,1100,1100,1100,1100,1100
10880,67495963,0,0,0,0,0,0,0,0,1100,1100,1100,1100,1100,1100
10928,67509266,0,0,0,0,0,0,0,0,1100,1100,1100,1100,1100,1100
10973,67520042,0,0,0,0,0,0,0,0,1100,1100,1100,1100,1100,1100
11017,67530637,0,0,0,0,0,0,0,0,1100,1100,1100,1100,1100,1100
11062,67540825,0,0,0,0,0,0,0,0,1100,1100,1100,1100,1100,1100
11106,67550817,0,0,0,0,0,0,0,0,1100,1100,1100,1100,1100,1100
11151,67560393,0,0,0,0,0,0,0,0,1100,1100,1100,1100,1100,1100
11201,67571165,0,0,0,0,0,0,0,0,1100,1100,1100,1100,1100,1100
11245,67581251,0,0,0,0,0,0,0,0,1100,1100,1100,1100,1100,1100
11291,67591380,0,0,0,0,0,0,0,0,1100,1100,1100,1100,1100,1100
11335,67601240,0,0,0,0,0,0,0,0,1100,1100,1100,1100,1100,1100
11383,67614158,0,0,0,0,0,0,0,0,1100,1100,1100,1100,1100,1100
11428,67624429,0,0,0,0,0,0,0,0,1100,1100,1100,1100,1100,1100
11472,67634397,0,0,0,0,0,0,0,0,1100,1100,1100,1100,1100,1100
11518,67644721,0,0,0,0,0,0,0,0,1100,1100,1100,1100,1100,1100
11562,67654631,0,0,0,0,0,0,0,0,1100,1100,1100,1100,1100,1100
11609,67665258,0,0,0,0,0,0,0,0,1100,1100,1100,1100,1100,1100
11652,67676667,0,0,0,0,0,0,0,0,1100,1100,1100,1100,1100,1100
11698,67686689,0,0,0,0,0,0,0,0,1100,1100,1100,1100,1100,1100
11742,67696413,0,0,0,0,0,0,0,0,1100,1100,1100,1100,1100,1100
11788,67707440,0,0,0,0,0,0,0,0,1100,1100,1100,1100,1100,1100
11832,67718443,0,0,0,0,0,0,0,0,1100,1100,1100,1100,1100,1100
11877,67729161,0,0,0,0,0,0,0,0,1100,1100,1100,1100,1100,1100
11921,67739612,0,0,0,0,0,0,0,0,1100,1100,1100,1100,1100,1100
11966,67749826,0,0,0,0,0,0,0,0,1100,1100,1100,1100,1100,1100
12011,67760060,0,0,0,0,0,0,0,0,1100,1100,1100,1100,1100,1100
12055,67770014,0,0,0,0,0,0,0,0,1100,1100,1100,1100,1100,1100
12105,67779888,0,0,0,0,0,0,0,0,1100,1100,1100,1100,1100,1100
12149,67790414,0,0,0,0,0,0,0,0,1100,1100,1100,1100,1100,1100
12194,67800256,0,0,0,0,0,0,0,0,1100,1100,1100,1100,1100,1100
12239,67810817,0,0,0,0,0,0,0,0,1100,1100,1100,1100,1100,1100
12287,67821151,0,0,0,0,0,0,0,0,1100,1100,1100,1100,1100,1100
12332,67831269,0,0,0,0,0,0,0,0,1100,1100,1100,1100,1100,1100
12376,67841983,0,0,0,0,0,0,0,0,1100,1100,1100,1100,1100,1100
12420,67852783,0,0,0,0,0,0,0,0,1100,1100,1100,1100,1100,1100
12464,67863200,0,0,0,0,0,0,0,0,1100,1100,1100,1100,1100,1100
12513,67873984,0,0,0,0,0,0,0,0,1100,1100,1100,1100,1100,1100
12558,67884655,0,0,0,0,0,0,0,0,1100,1100,1100,1100,1100,1100
12599,67895073,0,0,0,0,0,0,0,0,1100,1100,1100,1100,1100,1100
12644,67905605,0,0,0,0,0,0,0,0,1100,1100,1100,1100,1100,1100
12689,67915775,0,0,0,0,0,0,0,0,1100,1100,1100,1100,1100,1100
12733,67925864,0,0,0,0,0,0,0,0,1100,1100,1100,1100,1100,1100
12778,67936219,0,0,0,0,0,0,0,0,1100,1100,1100,1100,1100,1100
12823,67946769,0,0,0,0,0,0,0,0,1100,1100,1100,1100,1100,1100
12867,67957221,0,0,0,0,0,0,0,0,1100,1100,1100,1100,1100,1100
12912,67967475,0,0,0,0,0,0,0,0,1100,1100,1100,1100,1100,1100
12957,67977823,0,0,0,0,0,0,0,0,1100,1100,1100,1100,1100,1100
13008,67987828,0,0,0,0,0,0,0,0,1100,1100,1100,1100,1100,1100
13052,67997439,0,0,0,0,0,0,0,0,1100,1100,1100,1100,1100,1100
13097,68008306,0,0,0,0,0,0,0,0,1100,1100,1100,1100,1100,1100
13142,68019018,0,0,0,0,0,0,0,0,1100,1100,1100,1100,1100,1100
13189,68031410,0,0,0,0,0,0,0,0,1100,1100,1100,1100,1100,1100
13234,68042331,0,0,0,0,0,0,0,0,1100,1100,1100,1100,1100,1100
13278,68052282,0,0,0,0,0,0,0,0,1100,1100,1100,1100,1100,1100
13325,68062435,0,0,0,0,0,0,0,0,1100,1100,1100,1100,1100,1100
13366,68073023,0,0,0,0,0,0,0,0,1100,1100,1100,1100,1100,1100
13432,68133860,0,0,0,0,0,0,0,0,1100,1100,1100,1100,1100,1100
13478,68144443,0,0,0,0,0,0,0,0,1100,1100,1100,1100,1100,1100
13522,68154898,0,0,0,0,0,0,0,0,1100,1100,1100,1100,1100,1100
13567,68165275,0,0,0,0,0,0,0,0,1100,1100,1100,1100,1100,1100
13611,68175039,0,0,0,0,0,0,0,0,1100,1100,1100,1100,1100,1100
13656,68185571,0,0,0,0,0,0,0,0,1100,1100,1100,1100,1100,1100
13705,68195654,0,0,0,0,0,0,0,0,1100,1100,1100,1100,1100,1100
13750,68205687,0,0,0,0,0,0,0,0,1100,1100,1100,1100,1100,1100
13795,68216151,0,0,0,0,0,0,0,0,1100,1100,1100,1100,1100,1100
13839,68226571,0,0,0,0,0,0,0,0,1100,1100,1100,1100,1100,1100
13885,68236249,0,0,0,0,0,0,0,0,1100,1100,1100,1100,1100,1100
13929,68246362,0,0,0,0,0,0,0,0,1100,1100,1100,1100,1100,1100
13974,68256861,0,0,0,0,0,0,0,0,1100,1100,1100,1100,1100,1100
14021,68267010,0,0,0,0,0,0,0,0,1100,1100,1100,1100,1100,1100
14060,68278063,0,0,0,0,0,0,0,0,1100,1100,1100,1100,1100,1100
14105,68288203,0,0,0,0,0,0,0,0,1100,1100,1100,1100,1100,1100
14153,68298663,0,0,0,0,0,0,0,0,1100,1100,1100,1100,1100,1100
14198,68308884,0,0,0,0,0,0,0,0,1100,1100,1100,1100,1100,1100
14244,68318783,0,0,0,0,0,0,0,0,1100,1100,1100,1100,1100,1100
14289,68328825,0,0,0,0,0,0,0,0,1100,1100,1100,1100,1100,1100
14333,68339450,0,0,0,0,0,0,0,0,1100,1100,1100,1100,1100,1100
14378,68349852,0,0,0,0,0,0,0,0,1100,1100,1100,1100,1100,1100
14423,68360044,0,0,0,0,0,0,0,0,1100,1100,1100,1100,1100,1100
14469,68370417,0,0,0,0,0,0,0,0,1100,1100,1100,1100,1100,1100
14514,68380278,0,0,0,0,0,0,0,0,1100,1100,1100,1100,1100,1100
14558,68390986,0,0,0,0,0,0,0,0,1100,1100,1100,1100,1100,1100
14607,68400992,0,0,0,0,0,0,0,0,1100,1100,1100,1100,1100,1100
14651,68410963,0,0,0,0,0,0,0,0,1100,1100,1100,1100,1100,1100
14696,68421442,0,0,0,0,0,0,0,0,1100,1100,1100,1100,1100,1100
14742,68431653,0,0,0,0,0,0,0,0,1100,1100,1100,1100,1100,1100
14789,68444205,0,0,0,0,0,0,0,0,1100,1100,1100,1100,1100,1100
14834,68454806,0,0,0,0,0,0,0,0,1100,1100,1100,1100,1100,1100
14878,68464601,0,0,0,0,0,0,0,0,1100,1100,1100,1100,1100,1100
14926,68480208,0,0,0,0,0,0,0,0,1100,1100,1100,1100,1100,1100
14971,68490787,0,0,0,0,0,0,0,0,1100,1100,1100,1100,1100,1100
15020,68500788,0,0,0,0,0,0,0,0,1100,1100,1100,1100,1100,1100
15065,68510563,0,0,0,0,0,0,0,0,1100,1100,1100,1100,1100,1100
15110,68521160,0,0,0,0,0,0,0,0,1100,1100,1100,1100,1100,1100
15154,68531210,0,0,0,0,0,0,0,0,1100,1100,1100,1100,1100,1100
15199,68541143,0,0,0,0,0,0,0,0,1100,1100,1100,1100,1100,1100
15243,68551395,0,0,0,0,0,0,0,0,1100,1100,1100,1100,1100,1100
15288,68561661,0,0,0,0,0,0,0,0,1100,1100,1100,1100,1100,1100
15332,68572175,0,0,0,0,0,0,0,0,1100,1100,1100,1100,1100,1100
15378,68582631,0,0,0,0,0,0,0,0,1100,1100,1100,1100,1100,1100
15423,68592743,0,0,0,0,0,0,0,0,1100,1100,1100,1100,1100,1100
15472,68603257,0,0,0,0,0,0,0,0,1100,1100,1100,1100,1100,1100
15517,68613814,0,0,0,0,0,0,0,0,1100,1100,1100,1100,1100,1100
15561,68623867,0,0,0,0,0,0,0,0,1100,1100,1100,1100,1100,1100
15606,68634229,0,0,0,0,0,0,0,0,1100,1100,1100,1100,1100,1100
15650,68644441,0,0,0,0,0,0,0,0,1100,1100,1100,1100,1100,1100
15698,68655217,0,0,0,0,0,0,0,0,1100,1100,1100,1100,1100,1100
15737,68665765,0,0,0,0,0,0,0,0,1100,1100,1100,1100,1100,1100
15782,68676436,0,0,0,0,0,0,0,0,1100,1100,1100,1100,1100,1100
15827,68686878,0,0,0,0,0,0,0,0,1100,1100,1100,1100,1100,1100
15872,68697382,0,0,0,0,0,0,0,0,1100,1100,1100,1100,1100,1100
15921,68707889,0,0,0,0,0,0,0,0,1100,1100,1100,1100,1100,1100
15967,68717943,0,0,0,0,0,0,0,0,1100,1100,1100,1100,1100,1100
16011,68728216,0,0,0,0,0,0,0,0,1100,1100,1100,1100,1100,1100
16057,68738838,0,0,0,0,0,0,0,0,1100,1100,1100,1100,1100,1100
16104,68748996,0,0,0,0,0,0,0,0,1100,1100,1100,1100,1100,1100
16148,68759616,0,0,0,0,0,0,0,0,1100,1100,1100,1100,1100,1100
16193,68770191,0,0,0,0,0,0,0,0,1100,1100,1100,1100,1100,1100
16238,68780187,0,0,0,0,0,0,0,0,1100,1100,1100,1100,1100,1100
16283,68790199,0,0,0,0,0,0,0,0,1100,1100,1100,1100,1100,1100
16329,68800438,0,0,0,0,0,0,0,0,1100,1100,1100,1100,1100,1100
16380,68810447,0,0,0,0,0,0,0,0,1100,1100,1100,1100,1100,1100
16425,68820991,0,0,0,0,0,0,0,0,1100,1100,1100,1100,1100,1100
16469,68831275,0,0,0,0,0,0,0,0,1100,1100,1100,1100,1100,1100
16514,68841450,0,0,0,0,0,0,0,0,1100,1100,1100,1100,1100,1100
16561,68853998,0,0,0,0,0,0,0,0,1100,1100,1100,1100,1100,1100
16608,68870451,0,0,0,0,0,0,0,0,1100,1100,1100,1100,1100,1100
16652,68881392,0,0,0,0,0,0,0,0,1100,1100,1100,1100,1100,1100
16697,68891994,0,0,0,0,0,0,0,0,1100,1100,1100,1100,1100,1100
16744,68902827,0,0,0,0,0,0,0,0,1100,1100,1100,1100,1100,1100
16792,68913589,0,0,0,0,0,0,0,0,1100,1100,1100,1100,1100,1100
16837,68924290,0,0,0,0,0,0,0,0,1100,1100,1100,1100,1100,1100
16881,68934391,0,0,0,0,0,0,0,0,1100,1100,1100,1100,1100,1100
16926,68944619,0,0,0,0,0,0,0,0,1100,1100,1100,1100,1100,1100
16971,68954496,0,0,0,0,0,0,0,0,1100,1100,1100,1100,1100,1100
17016,68964807,0,0,0,0,0,0,0,0,1100,1100,1100,1100,1100,1100
17061,68975040,0,0,0,0,0,0,0,0,1100,1100,1100,1100,1100,1100
17106,68984991,0,0,0,0,0,0,0,0,1100,1100,1100,1100,1100,1100
17152,68995770,0,0,0,0,0,0,0,0,1100,1100,1100,1100,1100,1100
17196,69006186,0,0,0,0,0,0,0,0,1100,1100,1100,1100,1100,1100
17251,69018877,0,0,0,0,0,0,0,0,1100,1100,1100,1100,1100,1100
17295,69029462,0,0,0,0,0,0,0,0,1100,1100,1100,1100,1100,1100
17340,69039207,0,0,0,0,0,0,0,0,1100,1100,1100,1100,1100,1100
17385,69049790,0,0,0,0,0,0,0,0,1100,1100,1100,1100,1100,1100
17429,69059452,0,0,0,0,0,0,0,0,1100,1100,1100,1100,1100,1100
17475,69069992,0,0,0,0,0,0,0,0,1100,1100,1100,1100,1100,1100
17516,69083869,0,0,0,0,0,0,0,0,1100,1100,1100,1100,1100,1100
17561,69094459,0,0,0,0,0,0,0,0,1100,1100,1100,1100,1100,1100
17607,69104695,0,0,0,0,0,0,0,0,1100,1100,1100,1100,1100,1100
17651,69114446,0,0,0,0,0,0,0,0,1100,1100,1100,1100,1100,1100
17701,69124848,0,0,0,0,0,0,0,0,1100,1100,1100,1100,1100,1100
17745,69134893,0,0,0,0,0,0,0,0,1100,1100,1100,1100,1100,1100
17790,69144877,0,0,0,0,0,0,0,0,1100,1100,1100,1100,1100,1100
17836,69155342,0,0,0,0,0,0,0,0,1100,1100,1100,1100,1100,1100
17880,69165203,0,0,0,0,0,0,0,0,1100,1100,1100,1100,1100,1100
17925,69175421,0,0,0,0,0,0,0,0,1100,1100,1100,1100,1100,1100
17969,69185781,0,0,0,0,0,0,0,0,1100,1100,1100,1100,1100,1100
18014,69195839,0,0,0,0,0,0,0,0,1100,1100,1100,1100,1100,1100
18059,69205557,0,0,0,0,0,0,0,0,1100,1100,1100,1100,1100,1100
18103,69216202,0,0,0,0,0,0,0,0,1100,1100,1100,1100,1100,1100
18154,69226369,0,0,0,0,0,0,0,0,1100,1100,1100,1100,1100,1100
18198,69236195,0,0,0,0,0,0,0,0,1100,1100,1100,1100,1100,1100
18243,69246218,0,0,0,0,0,0,0,0,1100,1100,1100,1100,1100,1100
18290,69256297,0,0,0,0,0,0,0,0,1100,1100,1100,1100,1100,1100
18331,69271210,0,0,0,0,0,0,0,0,1100,1100,1100,1100,1100,1100
18375,69281863,0,0,0,0,0,0,0,0,1100,1100,1100,1100,1100,1100
18420,69292242,0,0,0,0,0,0,0,0,1100,1100,1100,1100,1100,1100
18468,69302195,0,0,0,0,0,0,0,0,1100,1100,1100,1100,1100,1100
18513,69312293,0,0,0,0,0,0,0,0,1100,1100,1100,1100,1100,1100
18557,69322299,0,0,0,0,0,0,0,0,1100,1100,1100,1100,1100,1100
18606,69332820,0,0,0,0,0,0,0,0,1100,1100,1100,1100,1100,1100
18651,69343030,0,0,0,0,0,0,0,0,1100,1100,1100,1100,1100,1100
18696,69353623,0,0,0,0,0,0,0,0,1100,1100,1100,1100,1100,1100
18744,69366837,0,0,0,0,0,0,0,0,1100,1100,1100,1100,1100,1100
18789,69377585,0,0,0,0,0,0,0,0,1100,1100,1100,1100,1100,1100
18834,69387451,0,0,0,0,0,0,0,0,1100,1100,1100,1100,1100,1100
18878,69397900,0,0,0,0,0,0,0,0,1100,1100,1100,1100,1100,1100
18922,69407425,0,0,0,0,0,0,0,0,1100,1100,1100,1100,1100,1100
18966,69418180,0,0,0,0,0,0,0,0,1100,1100,1100,1100,1100,1100
19015,69428870,0,0,0,0,0,0,0,0,1100,1100,1100,1100,1100,1100
19060,69439271,0,0,0,0,0,0,0,0,1100,1100,1100,1100,1100,1100
19106,69449381,0,0,0,0,0,0,0,0,1100,1100,1100,1100,1100,1100
19151,69459397,0,0,0,0,0,0,0,0,1100,1100,1100,1100,1100,1100
19194,69470175,0,0,0,0,0,0,0,0,1100,1100,1100,1100,1100,1100
19236,69480845,0,0,0,0,0,0,0,0,1100,1100,1100,1100,1100,1100
19281,69491402,0,0,0,0,0,0,0,0,1100,1100,1100,1100,1100,1100
19325,69501392,0,0,0,0,0,0,0,0,1100,1100,1100,1100,1100,1100
19371,69511198,0,0,0,0,0,0,0,0,1100,1100,1100,1100,1100,1100
19415,69521995,0,0,0,0,0,0,0,0,1100,1100,1100,1100,1100,1100
19464,69532816,0,0,0,0,0,0,0,0,1100,1100,1100,1100,1100,1100
19508,69542936,0,0,0,0,0,0,0,0,1100,1100,1100,1100,1100,1100
19553,69552991,0,0,0,0,0,0,0,0,1100,1100,1100,1100,1100,1100
19598,69563625,0,0,0,0,0,0,0,0,1100,1100,1100,1100,1100,1100
19647,69576143,0,0,0,0,0,0,0,0,1100,1100,1100,1100,1100,1100
19692,69586973,0,0,0,0,0,0,0,0,1100,1100,1100,1100,1100,1100
19736,69597433,0,0,0,0,0,0,0,0,1100,1100,1100,1100,1100,1100
19781,69607252,0,0,0,0,0,0,0,0,1100,1100,1100,1100,1100,1100
19825,69617199,0,0,0,0,0,0,0,0,1100,1100,1100,1100,1100,1100
19870,69627265,0,0,0,0,0,0,0,0,1100,1100,1100,1100,1100,1100
19918,69637810,0,0,0,0,0,0,0,0,1100,1100,1100,1100,1100,1100
19963,69648607,0,0,0,0,0,0,0,0,1100,1100,1100,1100,1100,1100
20008,69658674,0,0,0,0,0,0,0,0,1100,1100,1100,1100,1100,1100
20055,69669279,0,0,0,0,0,0,0,0,1100,1100,1100,1100,1100,1100
20094,69680039,0,0,0,0,0,0,0,0,1100,1100,1100,1100,1100,1100
20139,69690397,0,0,0,0,0,0,0,0,1100,1100,1100,1100,1100,1100
20183,69700812,0,0,0,0,0,0,0,0,1100,1100,1100,1100,1100,1100
20229,69710439,0,0,0,0,0,0,0,0,1100,1100,1100,1100,1100,1100
20274,69721055,0,0,0,0,0,0,0,0,1100,1100,1100,1100,1100,1100
20320,69731224,0,0,0,0,0,0,0,0,1100,1100,1100,1100,1100,1100
20369,69741367,0,0,0,0,0,0,0,0,1100,1100,1100,1100,1100,1100
20413,69751598,0,0,0,0,0,0,0,0,1100,1100,1100,1100,1100,1100
20458,69761419,0,0,0,0,0,0,0,0,1100,1100,1100,1100,1100,1100
20504,69772492,0,0,0,0,0,0,0,0,1100,1100,1100,1100,1100,1100
20553,69785527,0,0,0,0,0,0,0,0,1100,1100,1100,1100,1100,1100
20599,69796231,0,0,0,0,0,0,0,0,1100,1100,1100,1100,1100,1100
20644,69806204,0,0,0,0,0,0,0,0,1100,1100,1100,1100,1100,1100
20688,69816255,0,0,0,0,0,0,0,0,1100,1100,1100,1100,1100,1100
20734,69826198,0,0,0,0,0,0,0,0,1100,1100,1100,1100,1100,1100
20779,69836033,0,0,0,0,0,0,0,0,1100,1100,1100,1100,1100,1100
20827,69846662,0,0,0,0,0,0,0,0,1100,1100,1100,1100,1100,1100
20874,69862262,0,0,0,0,0,0,0,0,1100,1100,1100,1100,1100,1100
20918,69872671,0,0,0,0,0,0,0,0,1100,1100,1100,1100,1100,1100
20964,69883249,0,0,0,0,0,0,0,0,1100,1100,1100,1100,1100,1100
21009,69894049,0,0,0,0,0,0,0,0,1100,1100,1100,1100,1100,1100
21053,69904645,0,0,0,0,0,0,0,0,1100,1100,1100,1100,1100,1100
21099,69915043,0,0,0,0,0,0,0,0,1100,1100,1100,1100,1100,1100
21144,69924819,0,0,0,0,0,0,0,0,1100,1100,1100,1100,1100,1100
21189,69935055,0,0,0,0,0,0,0,0,1100,1100,1100,1100,1100,1100
21237,69945670,0,0,0,0,0,0,0,0,1100,1100,1100,1100,1100,1100
21282,69955705,0,0,0,0,0,0,0,0,1100,1100,1100,1100,1100,1100
21327,69966019,0,0,0,0,0,0,0,0,1100,1100,1100,1100,1100,1100
21371,69976653,0,0,0,0,0,0,0,0,1100,1100,1100,1100,1100,1100
21418,69986736,0,0,0,0,0,0,0,0,1100,1100,1100,1100,1100,1100
21462,69996438,0,0,0,0,0,0,0,0,1100,1100,1100,1100,1100,1100
21507,70007246,0,0,0,0,0,0,0,0,1100,1100,1100,1100,1100,1100
21552,70017801,0,0,0,0,0,0,0,0,1100,1100,1100,1100,1100,1100
21596,70028000,0,0,0,0,0,0,0,0,1100,1100,1100,1100,1100,1100
21642,70037888,0,0,0,0,0,0,0,0,1100,1100,1100,1100,1100,1100
21692,70050235,0,0,0,0,0,0,0,0,1100,1100,1100,1100,1100,1100
21739,70061253,0,0,0,0,0,0,0,0,1100,1100,1100,1100,1100,1100
21784,70071355,0,0,0,0,0,0,0,0,1100,1100,1100,1100,1100,1100
21822,70082822,0,0,0,0,0,0,0,0,1100,1100,1100,1100,1100,1100
21867,70092810,0,0,0,0,0,0,0,0,1100,1100,1100,1100,1100,1100
21912,70102878,0,0,0,0,0,0,0,0,1100,1100,1100,1100,1100,1100
21957,70112770,0,0,0,0,0,0,0,0,1100,1100,1100,1100,1100,1100
22002,70123145,0,0,0,0,0,0,0,0,1100,1100,1100,1100,1100,1100
22046,70132885,0,0,0,0,0,0,0,0,1100,1100,1100,1100,1100,1100
22091,70143254,0,0,0,0,0,0,0,0,1100,1100,1100,1100,1100,1100
22140,70153650,0,0,0,0,0,0,0,0,1100,1100,1100,1100,1100,1100
22185,70163846,0,0,0,0,0,0,0,0,1100,1100,1100,1100,1100,1100
22230,70173772,0,0,0,0,0,0,0,0,1100,1100,1100,1100,1100,1100
22274,70184799,0,0,0,0,0,0,0,0,1100,1100,1100,1100,1100,1100
22319,70194811,0,0,0,0,0,0,0,0,1100,1100,1100,1100,1100,1100
22364,70204664,0,0,0,0,0,0,0,0,1100,1100,1100,1100,1100,1100
22409,70214759,0,0,0,0,0,0,0,0,1100,1100,1100,1100,1100,1100
22453,70225412,0,0,0,0,0,0,0,0,1100,1100,1100,1100,1100,1100
22498,70235294,0,0,0,0,0,0,0,0,1100,1100,1100,1100,1100,1100
22543,70245355,0,0,0,0,0,0,0,0,1100,1100,1100,1100,1100,1100
22591,70255461,0,0,0,0,0,0,0,0,1100,1100,1100,1100,1100,1100
22638,70265667,0,0,0,0,0,0,0,0,1100,1100,1100,1100,1100,1100
22679,70279183,0,0,0,0,0,0,0,0,1100,1100,1100,1100,1100,1100
22726,70289825,0,0,0,0,0,0,0,0,1100,1100,1100,1100,1100,1100
22773,70302277,0,0,0,0,0,0,0,0,1100,1100,1100,1100,1100,1100
22821,70313071,0,0,0,0,0,0,0,0,1100,1100,1100,1100,1100,1100
22865,70323571,0,0,0,0,0,0,0,0,1100,1100,1100,1100,1100,1100
22909,70333648,0,0,0,0,0,0,0,0,1100,1100,1100,1100,1100,1100
22954,70343390,0,0,0,0,0,0,0,0,1100,1100,1100,1100,1100,1100
22999,70353287,0,0,0,0,0,0,0,0,1100,1100,1100,1100,1100,1100
23048,70363740,0,0,0,0,0,0,0,0,1100,1100,1100,1100,1100,1100
23092,70374049,0,0,0,0,0,0,0,0,1100,1100,1100,1100,1100,1100
23137,70384456,0,0,0,0,0,0,0,0,1100,1100,1100,1100,1100,1100
23183,70394604,0,0,0,0,0,0,0,0,1100,1100,1100,1100,1100,1100
23227,70404354,0,0,0,0,0,0,0,0,1100,1100,1100,1100,1100,1100
23275,70416840,0,0,0,0,0,0,0,0,1100,1100,1100,1100,1100,1100
23319,70427416,0,0,0,0,0,0,0,0,1100,1100,1100,1100,1100,1100
23365,70437827,0,0,0,0,0,0,0,0,1100,1100,1100,1100,1100,1100
23410,70448196,0,0,0,0,0,0,0,0,1100,1100,1100,1100,1100,1100
23458,70458784,0,0,0,0,0,0,0,0,1100,1100,1100,1100,1100,1100
23504,70468937,0,0,0,0,0,0,0,0,1100,1100,1100,1100,1100,1100
23547,70479032,0,0,0,0,0,0,0,0,1100,1100,1100,1100,1100,1100
23589,70490015,0,0,0,0,0,0,0,0,1100,1100,1100,1100,1100,1100
23637,70502501,0,0,0,0,0,0,0,0,1100,1100,1100,1100,1100,1100
23681,70512905,0,0,0,0,0,0,0,0,1100,1100,1100,1100,1100,1100
23726,70522823,0,0,0,0,0,0,0,0,1100,1100,1100,1100,1100,1100
23772,70533435,0,0,0,0,0,0,0,0,1100,1100,1100,1100,1100,1100
23817,70543815,0,0,0,0,0,0,0,0,1100,1100,1100,1100,1100,1100
23861,70553663,0,0,0,0,0,0,0,0,1100,1100,1100,1100,1100,1100
23910,70563468,0,0,0,0,0,0,0,0,1100,1100,1100,1100,1100,1100
23954,70574095,0,0,0,0,0,0,0,0,1100,1100,1100,1100,1100,1100
23999,70584632,0,0,0,0,0,0,0,0,1100,1100,1100,1100,1100,1100
24044,70594777,0,0,0,0,0,0,0,0,1100,1100,1100,1100,1100,1100
24088,70604677,0,0,0,0,0,0,0,0,1100,1100,1100,1100,1100,1100
24133,70615624,0,0,0,0,0,0,0,0,1100,1100,1100,1100,1100,1100
24179,70625690,0,0,0,0,0,0,0,0,1100,1100,1100,1100,1100,1100
24223,70636197,0,0,0,0,0,0,0,0,1100,1100,1100,1100,1100,1100
24268,70646746,0,0,0,0,0,0,0,0,1100,1100,1100,1100,1100,1100
24318,70661790,0,0,0,0,0,0,0,0,1100,1100,1100,1100,1100,1100
24364,70672837,0,0,0,0,0,0,0,0,1100,1100,1100,1100,1100,1100
24408,70683259,0,0,0,0,0,0,0,0,1100,1100,1100,1100,1100,1100
24452,70693761,0,0,0,0,0,0,0,0,1100,1100,1100,1100,1100,1100
24501,70706188,0,0,0,0,0,0,0,0,1100,1100,1100,1100,1100,1100
24545,70716554,0,0,0,0,0,0,0,0,1100,1100,1100,1100,1100,1100
24591,70726510,0,0,0,0,0,0,0,0,1100,1100,1100,1100,1100,1100
24636,70736734,0,0,0,0,0,0,0,0,1100,1100,1100,1100,1100,1100
24682,70747016,0,0,0,0,0,0,0,0,1100,1100,1100,1100,1100,1100
24727,70757576,0,0,0,0,0,0,0,0,1100,1100,1100,1100,1100,1100
24776,70767964,0,0,0,0,0,0,0,0,1100,1100,1100,1100,1100,1100
24826,70780265,0,0,0,0,0,0,0,0,1100,1100,1100,1100,1100,1100
24872,70790906,0,0,0,0,0,0,0,0,1100,1100,1100,1100,1100,1100
24921,70803375,0,0,0,0,0,0,0,0,1100,1100,1100,1100,1100,1100
24969,70815825,0,0,0,0,0,0,0,0,1100,1100,1100,1100,1100,1100
25014,70826293,0,0,0,0,0,0,0,0,1100,1100,1100,1100,1100,1100
25056,70836251,0,0,0,0,0,0,0,0,1100,1100,1100,1100,1100,1100
25101,70846382,0,0,0,0,0,0,0,0,1100,1100,1100,1100,1100,1100
25148,70856841,0,0,0,0,0,0,0,0,1100,1100,1100,1100,1100,1100
25198,70869986,0,0,0,0,0,0,0,0,1100,1100,1100,1100,1100,1100
25240,70880446,0,0,0,0,0,0,0,0,1100,1100,1100,1100,1100,1100
25284,70891051,0,0,0,0,0,0,0,0,1100,1100,1100,1100,1100,1100
25329,70901295,0,0,0,0,0,0,0,0,1100,1100,1100,1100,1100,1100
25373,70911609,0,0,0,0,0,0,0,0,1100,1100,1100,1100,1100,1100
25419,70921844,0,0,0,0,0,0,0,0,1100,1100,1100,1100,1100,1100
25461,70932204,0,0,0,0,0,0,0,0,1100,1100,1100,1100,1100,1100
25505,70942311,0,0,0,0,0,0,0,0,1100,1100,1100,1100,1100,1100
25551,70952335,0,0,0,0,0,0,0,0,1100,1100,1100,1100,1100,1100
25595,70962804,0,0,0,0,0,0,0,0,1100,1100,1100,1100,1100,1100
25648,70974982,0,0,0,0,0,0,0,0,1100,1100,1100,1100,1100,1100
25693,70985268,0,0,0,0,0,0,0,0,1100,1100,1100,1100,1100,1100
25737,70995265,0,0,0,0,0,0,0,0,1100,1100,1100,1100,1100,1100
25782,71004984,0,0,0,0,0,0,0,0,1100,1100,1100,1100,1100,1100
25826,71015057,0,0,0,0,0,0,0,0,1100,1100,1100,1100,1100,1100
25871,71025615,0,0,0,0,0,0,0,0,1100,1100,1100,1100,1100,1100
25916,71035448,0,0,0,0,0,0,0,0,1100,1100,1100,1100,1100,1100
25961,71045779,0,0,0,0,0,0,0,0,1100,1100,1100,1100,1100,1100
26006,71055653,0,0,0,0,0,0,0,0,1100,1100,1100,1100,1100,1100
26051,71065440,0,0,0,0,0,0,0,0,1100,1100,1100,1100,1100,1100
26104,71078248,0,0,0,0,0,0,0,0,1101,1101,1101,1101,1101,1101
26145,71089262,0,0,0,0,0,0,0,0,1104,1104,1104,1104,1104,1104
26191,71099642,0,0,0,0,0,0,0,0,1107,1107,1107,1107,1107,1107
26235,71109824,0,0,0,0,0,0,0,0,1110,1110,1110,1110,1110,1110
26277,71120762,0,0,0,0,0,0,0,0,1113,1113,1113,1113,1113,1113
26322,71130755,0,0,0,0,0,0,0,0,1116,1116,1116,1116,1116,1116
26366,71141009,0,0,0,0,0,0,0,0,1119,1119,1119,1119,1119,1119
26411,71151066,0,0,0,0,0,0,0,0,1122,1122,1122,1122,1122,1122
26456,71161246,0,0,0,0,0,0,0,0,1125,1125,1125,1125,1125,1125
26501,71170966,0,0,0,0,0,0,0,0,1128,1128,1128,1128,1128,1128
26550,71181608,0,0,0,0,0,0,0,0,1131,1131,1131,1131,1131,1131
26594,71191740,0,0,0,0,0,0,0,0,1134,1134,1134,1134,1134,1134
26640,71201827,0,0,0,0,0,0,0,0,1137,1137,1137,1137,1137,1137
26684,71211982,0,0,0,0,0,0,0,0,1140,1140,1140,1140,1140,1140
26729,71222811,0,0,0,0,0,0,0,0,1143,1143,1143,1143,1143,1143
26773,71233284,0,0,0,0,0,0,0,0,1146,1146,1146,1146,1146,1146
26819,71243734,0,0,0,0,0,0,0,0,1149,1149,1149,1149,1149,1149
26866,71256176,0,0,0,0,0,0,0,0,1212,1200,1247,1158,1253,1150
26908,71270034,0,0,0,0,0,0,0,0,1164,1180,1193,1150,1185,1159
26959,71280645,0,0,0,0,0,0,0,0,1163,1194,1165,1192,1150,1205
27003,71291156,0,0,0,0,0,0,0,0,1195,1156,1182,1171,1201,1150
27048,71301771,0,0,0,0,0,0,0,0,1184,1161,1150,1194,1161,1184
27093,71312612,0,0,0,0,0,0,0,0,1163,1276,1285,1150,1234,1215
27134,71325378,0,0,0,0,0,0,0,0,1150,1278,1261,1174,1198,1241
27178,71335852,0,0,0,0,0,0,0,0,1150,1331,1319,1169,1237,1268
27223,71346224,0,0,0,0,0,0,0,0,1207,1168,1204,1171,1220,1152
27267,71356385,0,0,0,0,0,0,0,0,1338,1150,1228,1283,1314,1188
27312,71366840,0,0,0,0,0,0,0,0,1311,1150,1233,1247,1303,1162
27356,71377362,0,0,0,0,0,0,0,0,1238,1178,1226,1193,1251,1161
27406,71387845,0,0,0,0,0,0,0,0,1150,1374,1288,1271,1159,1370
27450,71397939,0,0,0,0,0,0,0,0,1150,1413,1350,1252,1218,1375
27496,71408259,0,0,0,0,0,0,0,0,1231,1234,1177,1279,1173,1282
27541,71418404,0,0,0,0,0,0,0,0,1439,1150,1286,1352,1412,1201
27585,71430756,0,0,0,0,0,0,0,0,1449,1150,1280,1369,1413,1218
27630,71441770,0,0,0,0,0,0,0,0,1276,1235,1285,1224,1302,1203
27674,71452256,0,0,0,0,0,0,0,0,1178,1332,1340,1164,1271,1255
27719,71462988,0,0,0,0,0,0,0,0,1150,1477,1371,1318,1190,1458
27765,71473890,0,0,0,0,0,0,0,0,1194,1346,1362,1167,1294,1261
27804,71484905,0,0,0,0,0,0,0,0,1396,1150,1156,1393,1293,1292
27852,71495204,0,0,0,0,0,0,0,0,1419,1150,1306,1308,1416,1156
27897,71505605,0,0,0,0,0,0,0,0,1334,1258,1312,1284,1343,1247
27943,71515832,0,0,0,0,0,0,0,0,1193,1392,1324,1284,1215,1378
27988,71526018,0,0,0,0,0,0,0,0,1150,1426,1397,1204,1271,1350
28032,71536627,0,0,0,0,0,0,0,0,1355,1278,1281,1353,1320,1317
28077,71546781,0,0,0,0,0,0,0,0,1431,1181,1316,1334,1423,1197
28121,71557435,0,0,0,0,0,0,0,0,1388,1267,1310,1352,1368,1293
28166,71567748,0,0,0,0,0,0,0,0,1273,1395,1330,1347,1260,1405
28210,71578153,0,0,0,0,0,0,0,0,1150,1486,1457,1209,1311,1387
28257,71588659,0,0,0,0,0,0,0,0,1321,1380,1413,1280,1386,1315
28306,71599362,0,0,0,0,0,0,0,0,1540,1150,1152,1539,1386,1387
28351,71609851,0,0,0,0,0,0,0,0,1368,1385,1355,1397,1343,1408
28396,71620500,0,0,0,0,0,0,0,0,1227,1534,1568,1150,1445,1361
28440,71630831,0,0,0,0,0,0,0,0,1485,1305,1419,1386,1497,1286
28482,71641181,0,0,0,0,0,0,0,0,1576,1173,1216,1557,1437,1394
28524,71651614,0,0,0,0,0,0,0,0,1311,1523,1404,1451,1277,1544
28568,71662187,0,0,0,0,0,0,0,0,1150,1625,1585,1244,1385,1494
28613,71672974,0,0,0,0,0,0,0,0,1454,1444,1499,1395,1501,1392
28659,71685839,0,0,0,0,0,0,0,0,1314,1575,1531,1380,1402,1513
28701,71696259,0,0,0,0,0,0,0,0,1620,1252,1428,1503,1588,1312
28750,71707291,0,0,0,0,0,0,0,0,1712,1150,1428,1566,1658,1285
28795,71717439,0,0,0,0,0,0,0,0,1535,1415,1486,1471,1540,1410
28840,71727490,0,0,0,0,0,0,0,0,1354,1591,1516,1453,1389,1567
28886,71738394,0,0,0,0,0,0,0,0,1353,1604,1506,1478,1368,1595
28934,71751266,0,0,0,0,0,0,0,0,1407,1583,1550,1448,1461,1539
28978,71762205,0,0,0,0,0,0,0,0,1592,1413,1518,1500,1598,1405
29025,71773031,0,0,0,0,0,0,0,0,1656,1331,1523,1508,1660,1325
29070,71783641,0,0,0,0,0,0,0,0,1603,1426,1539,1502,1617,1407
29115,71793864,0,0,0,0,0,0,0,0,1484,1563,1558,1489,1517,1533
29164,71804199,0,0,0,0,0,0,0,0,1466,1584,1549,1506,1485,1567
29209,71814639,0,0,0,0,0,0,0,0,1514,1547,1515,1546,1492,1567
29254,71825024,0,0,0,0,0,0,0,0,1603,1456,1494,1571,1562,1503
29301,71835635,0,0,0,0,0,0,0,0,1608,1455,1479,1589,1552,1520
29345,71845794,0,0,0,0,0,0,0,0,1531,1546,1524,1553,1509,1567
29390,71856289,0,0,0,0,0,0,0,0,1514,1565,1544,1536,1510,1569
29440,71869302,0,0,0,0,0,0,0,0,1498,1581,1542,1540,1488,1590
29478,71880885,0,0,0,0,0,0,0,0,1480,1598,1550,1533,1477,1601
29523,71890982,0,0,0,0,0,0,0,0,1556,1527,1537,1547,1539,1545
29567,71901097,0,0,0,0,0,0,0,0,1608,1467,1523,1560,1577,1504
29616,71911195,0,0,0,0,0,0,0,0,1582,1497,1538,1544,1563,1519
29660,71921441,0,0,0,0,0,0,0,0,1520,1558,1540,1539,1499,1577
29705,71931489,0,0,0,0,0,0,0,0,1524,1551,1512,1563,1472,1598
29750,71941425,0,0,0,0,0,0,0,0,1581,1490,1516,1557,1536,1539
29795,71952246,0,0,0,0,0,0,0,0,1644,1407,1504,1568,1589,1480
29840,71962999,0,0,0,0,0,0,0,0,1610,1452,1532,1539,1577,1492
29884,71973844,0,0,0,0,0,0,0,0,1557,1513,1538,1533,1525,1546
29930,71984646,0,0,0,0,0,0,0,0,1527,1545,1528,1543,1478,1589
29974,71994998,0,0,0,0,0,0,0,0,1561,1509,1523,1548,1506,1563
30019,72005762,0,0,0,0,0,0,0,0,1617,1442,1539,1532,1578,1490
30068,72015949,0,0,0,0,0,0,0,0,1629,1428,1518,1554,1567,1505
30113,72025850,0,0,0,0,0,0,0,0,1592,1477,1532,1543,1536,1539
30158,72035842,0,0,0,0,0,0,0,0,1564,1511,1539,1536,1507,1567
30202,72046202,0,0,0,0,0,0,0,0,1579,1496,1528,1549,1508,1568
30250,72056262,0,0,0,0,0,0,0,0,1608,1462,1560,1518,1566,1511
30289,72068871,0,0,0,0,0,0,0,0,1603,1467,1555,1522,1553,1524
30333,72079167,0,0,0,0,0,0,0,0,1549,1528,1553,1524,1488,1586
30377,72089237,0,0,0,0,0,0,0,0,1544,1533,1557,1519,1483,1589
30421,72099637,0,0,0,0,0,0,0,0,1557,1517,1537,1538,1472,1597
30466,72110051,0,0,0,0,0,0,0,0,1575,1496,1548,1526,1500,1572
30517,72120459,0,0,0,0,0,0,0,0,1627,1431,1548,1525,1555,1517
30561,72130806,0,0,0,0,0,0,0,0,1630,1427,1534,1538,1540,1532
30605,72140828,0,0,0,0,0,0,0,0,1612,1449,1559,1511,1542,1529
30651,72151155,0,0,0,0,0,0,0,0,1607,1454,1534,1536,1507,1562
30696,72161823,0,0,0,0,0,0,0,0,1588,1474,1538,1530,1486,1579
30740,72172414,0,0,0,0,0,0,0,0,1610,1446,1556,1509,1527,1540
30785,72182956,0,0,0,0,0,0,0,0,1637,1408,1561,1503,1559,1506
30830,72193741,0,0,0,0,0,0,0,0,1615,1437,1580,1482,1550,1515
30875,72204408,0,0,0,0,0,0,0,0,1563,1500,1562,1501,1467,1591
30919,72214825,0,0,0,0,0,0,0,0,1539,1525,1567,1495,1442,1611
30968,72224665,0,0,0,0,0,0,0,0,1566,1494,1571,1489,1474,1583
31013,72234650,0,0,0,0,0,0,0,0,1587,1470,1535,1528,1453,1602
31057,72245213,0,0,0,0,0,0,0,0,1576,1484,1544,1519,1445,1607
31102,72255792,0,0,0,0,0,0,0,0,1592,1465,1566,1496,1485,1575
31151,72269772,0,0,0,0,0,0,0,0,1626,1424,1553,1511,1506,1558
31196,72283769,0,0,0,0,0,0,0,0,1598,1461,1582,1480,1501,1564
31242,72294066,0,0,0,0,0,0,0,0,1619,1435,1589,1472,1528,1538
31286,72304371,0,0,0,0,0,0,0,0,1606,1451,1609,1448,1533,1534
31331,72314792,0,0,0,0,0,0,0,0,1616,1436,1585,1475,1516,1549
31375,72325631,0,0,0,0,0,0,0,0,1588,1471,1557,1506,1447,1607
31424,72335958,0,0,0,0,0,0,0,0,1592,1464,1563,1498,1457,1598
31469,72346192,0,0,0,0,0,0,0,0,1578,1479,1546,1515,1416,1627
31513,72356601,0,0,0,0,0,0,0,0,1581,1473,1543,1515,1416,1625
31558,72366916,0,0,0,0,0,0,0,0,1586,1465,1542,1514,1418,1622
31602,72377875,0,0,0,0,0,0,0,0,1595,1450,1579,1470,1474,1575
31649,72391014,0,0,0,0,0,0,0,0,1615,1420,1558,1491,1472,1574
31694,72401625,0,0,0,0,0,0,0,0,1597,1441,1549,1498,1437,1600
31740,72412224,0,0,0,0,0,0,0,0,1607,1425,1526,1518,1421,1609
31785,72422222,0,0,0,0,0,0,0,0,1608,1421,1528,1514,1423,1606
31833,72433192,0,0,0,0,0,0,0,0,1594,1436,1556,1482,1438,1593
31878,72443801,0,0,0,0,0,0,0,0,1632,1381,1570,1463,1500,1538
31927,72456666,0,0,0,0,0,0,0,0,1644,1361,1598,1427,1543,1493
31966,72468446,0,0,0,0,0,0,0,0,1619,1397,1550,1484,1457,1573
32010,72478983,0,0,0,0,0,0,0,0,1611,1408,1549,1485,1444,1584
32055,72489434,0,0,0,0,0,0,0,0,1588,1438,1560,1472,1425,1598
32099,72500001,0,0,0,0,0,0,0,0,1587,1438,1540,1493,1396,1618
32144,72510197,0,0,0,0,0,0,0,0,1589,1436,1554,1478,1415,1605
32189,72520191,0,0,0,0,0,0,0,0,1563,1467,1554,1477,1380,1629
32233,72530667,0,0,0,0,0,0,0,0,1581,1448,1556,1477,1403,1615
32282,72541435,0,0,0,0,0,0,0,0,1594,1433,1586,1443,1456,1576
32327,72551668,0,0,0,0,0,0,0,0,1564,1473,1573,1461,1399,1621
32371,72562238,0,0,0,0,0,0,0,0,1561,1479,1575,1463,1396,1626
32419,72574893,0,0,0,0,0,0,0,0,1658,1352,1624,1404,1569,1476
32463,72585375,0,0,0,0,0,0,0,0,1655,1365,1611,1429,1548,1505
32508,72596203,0,0,0,0,0,0,0,0,1646,1386,1635,1402,1561,1496
32553,72606220,0,0,0,0,0,0,0,0,1653,1382,1610,1444,1538,1526
32597,72616253,0,0,0,0,0,0,0,0,1651,1393,1631,1421,1556,1513
32643,72626178,0,0,0,0,0,0,0,0,1620,1441,1645,1407,1535,1539
32687,72636807,0,0,0,0,0,0,0,0,1634,1429,1622,1445,1522,1557
32736,72647212,0,0,0,0,0,0,0,0,1660,1396,1630,1438,1559,1523
32782,72657252,0,0,0,0,0,0,0,0,1684,1362,1640,1428,1595,1486
32828,72667205,0,0,0,0,0,0,0,0,1684,1364,1635,1438,1590,1495
32867,72679007,0,0,0,0,0,0,0,0,1666,1395,1642,1430,1576,1512
32911,72690647,0,0,0,0,0,0,0,0,1629,1449,1618,1463,1506,1583
32956,72701447,0,0,0,0,0,0,0,0,1591,1496,1612,1471,1452,1627
33000,72712182,0,0,0,0,0,0,0,0,1611,1472,1615,1467,1480,1605
33045,72723065,0,0,0,0,0,0,0,0,1607,1478,1582,1507,1434,1641
33090,72733853,0,0,0,0,0,0,0,0,1574,1516,1572,1518,1376,1680
33136,72744391,0,0,0,0,0,0,0,0,1593,1495,1581,1508,1414,1655
33185,72754870,0,0,0,0,0,0,0,0,1579,1510,1592,1496,1412,1657
33231,72765204,0,0,0,0,0,0,0,0,1579,1509,1598,1488,1420,1650
33275,72775432,0,0,0,0,0,0,0,0,1591,1495,1606,1478,1447,1631
33320,72786575,0,0,0,0,0,0,0,0,1629,1449,1607,1477,1493,1593
33365,72797804,0,0,0,0,0,0,0,0,1649,1422,1619,1462,1532,1558
33411,72808752,0,0,0,0,0,0,0,0,1645,1427,1621,1458,1530,1559
33455,72819357,0,0,0,0,0,0,0,0,1652,1415,1591,1494,1506,1581
33500,72830010,0,0,0,0,0,0,0,0,1625,1451,1604,1478,1489,1595
33546,72840138,0,0,0,0,0,0,0,0,1576,1510,1583,1502,1401,1661
33590,72850190,0,0,0,0,0,0,0,0,1604,1477,1571,1516,1424,1645
33639,72864831,0,0,0,0,0,0,0,0,1654,1412,1598,1485,1519,1568
33683,72875273,0,0,0,0,0,0,0,0,1679,1372,1605,1476,1559,1529
33728,72885866,0,0,0,0,0,0,0,0,1667,1392,1611,1469,1551,1537
33779,72902299,0,0,0,0,0,0,0,0,1597,1485,1589,1494,1442,1631
33824,72912868,0,0,0,0,0,0,0,0,1588,1494,1598,1483,1444,1629
33869,72923234,0,0,0,0,0,0,0,0,1611,1467,1586,1496,1459,1617
33914,72933868,0,0,0,0,0,0,0,0,1622,1453,1621,1454,1515,1569
33958,72944653,0,0,0,0,0,0,0,0,1633,1438,1636,1433,1545,1539
34005,72954899,0,0,0,0,0,0,0,0,1645,1420,1627,1446,1551,1534
34053,72964948,0,0,0,0,0,0,0,0,1646,1419,1624,1449,1549,1536
34097,72975170,0,0,0,0,0,0,0,0,1616,1460,1605,1474,1493,1589
34141,72985754,0,0,0,0,0,0,0,0,1596,1485,1611,1466,1477,1603
34186,72995856,0,0,0,0,0,0,0,0,1577,1507,1585,1498,1422,1645
34234,73008785,0,0,0,0,0,0,0,0,1594,1488,1563,1522,1417,1649
34278,73019629,0,0,0,0,0,0,0,0,1631,1444,1597,1486,1504,1582
34324,73030038,0,0,0,0,0,0,0,0,1648,1420,1586,1499,1514,1573
34368,73040385,0,0,0,0,0,0,0,0,1673,1383,1591,1493,1550,1538
34414,73050742,0,0,0,0,0,0,0,0,1649,1420,1611,1470,1544,1545
34458,73061422,0,0,0,0,0,0,0,0,1656,1409,1617,1462,1560,1528
34506,73075777,0,0,0,0,0,0,0,0,1629,1447,1572,1516,1477,1606
34551,73086140,0,0,0,0,0,0,0,0,1645,1426,1570,1518,1495,1591
34595,73096263,0,0,0,0,0,0,0,0,1656,1409,1577,1509,1519,1569
34640,73106907,0,0,0,0,0,0,0,0,1665,1395,1571,1516,1524,1564
34684,73117765,0,0,0,0,0,0,0,0,1668,1391,1615,1464,1575,1511
34729,73128509,0,0,0,0,0,0,0,0,1675,1379,1603,1480,1570,1517
34773,73139275,0,0,0,0,0,0,0,0,1649,1418,1586,1499,1523,1564
34818,73150052,0,0,0,0,0,0,0,0,1614,1465,1581,1505,1475,1606
34864,73160874,0,0,0,0,0,0,0,0,1592,1491,1581,1503,1450,1625
34912,73171830,0,0,0,0,0,0,0,0,1598,1484,1566,1520,1439,1633
34960,73182638,0,0,0,0,0,0,0,0,1606,1474,1598,1484,1487,1595
35005,73193404,0,0,0,0,0,0,0,0,1618,1459,1631,1442,1541,1546
35049,73204359,0,0,0,0,0,0,0,0,1647,1420,1604,1477,1545,1542
35094,73215047,0,0,0,0,0,0,0,0,1627,1449,1583,1503,1499,1586
35140,73225254,0,0,0,0,0,0,0,0,1605,1479,1582,1506,1471,1612
35184,73235978,0,0,0,0,0,0,0,0,1578,1514,1558,1535,1405,1663
35229,73245879,0,0,0,0,0,0,0,0,1572,1523,1550,1547,1385,1679
35276,73256565,0,0,0,0,0,0,0,0,1588,1509,1570,1529,1432,1649
35322,73270234,0,0,0,0,0,0,0,0,1671,1405,1590,1510,1555,1547
35368,73281813,0,0,0,0,0,0,0,0,1640,1450,1585,1518,1513,1589
35414,73291873,0,0,0,0,0,0,0,0,1651,1438,1572,1533,1512,1592
35458,73302799,0,0,0,0,0,0,0,0,1640,1455,1560,1548,1485,1617
35502,73312971,0,0,0,0,0,0,0,0,1638,1458,1594,1513,1521,1586
35546,73323949,0,0,0,0,0,0,0,0,1647,1448,1629,1472,1569,1541
35590,73334799,0,0,0,0,0,0,0,0,1666,1423,1606,1501,1566,1545
35634,73345429,0,0,0,0,0,0,0,0,1627,1478,1585,1527,1496,1612
35678,73355748,0,0,0,0,0,0,0,0,1605,1506,1594,1518,1481,1626
35722,73365441,0,0,0,0,0,0,0,0,1591,1524,1610,1502,1482,1627
35768,73375971,0,0,0,0,0,0,0,0,1604,1511,1592,1525,1474,1635
35818,73386651,0,0,0,0,0,0,0,0,1599,1519,1586,1534,1460,1648
35862,73397137,0,0,0,0,0,0,0,0,1606,1512,1603,1517,1487,1627
35907,73407976,0,0,0,0,0,0,0,0,1622,1496,1619,1499,1524,1597
35951,73418392,0,0,0,0,0,0,0,0,1632,1483,1601,1520,1515,1605
35997,73428820,0,0,0,0,0,0,0,0,1616,1502,1594,1527,1488,1628
36042,73439925,0,0,0,0,0,0,0,0,1625,1491,1591,1529,1495,1621
36086,73450326,0,0,0,0,0,0,0,0,1656,1449,1578,1542,1517,1601
36130,73460147,0,0,0,0,0,0,0,0,1659,1443,1584,1535,1527,1591
36175,73471134,0,0,0,0,0,0,0,0,1649,1454,1603,1510,1536,1580
36220,73481752,0,0,0,0,0,0,0,0,1657,1440,1617,1491,1560,1554
36271,73492521,0,0,0,0,0,0,0,0,1631,1471,1605,1503,1518,1592
36310,73504838,0,0,0,0,0,0,0,0,1588,1520,1617,1487,1480,1622
36355,73514819,0,0,0,0,0,0,0,0,1609,1494,1602,1502,1485,1616
36399,73525386,0,0,0,0,0,0,0,0,1629,1467,1592,1511,1498,1604
36445,73536286,0,0,0,0,0,0,0,0,1633,1460,1611,1487,1522,1580
36489,73547855,0,0,0,0,0,0,0,0,1657,1425,1592,1507,1529,1572
36534,73558607,0,0,0,0,0,0,0,0,1624,1467,1584,1514,1478,1615
36578,73568899,0,0,0,0,0,0,0,0,1594,1501,1591,1505,1447,1638
36623,73578879,0,0,0,0,0,0,0,0,1615,1475,1579,1517,1458,1628
36668,73589003,0,0,0,0,0,0,0,0,1641,1440,1561,1535,1467,1620
36716,73600047,0,0,0,0,0,0,0,0,1636,1445,1573,1521,1474,1614
36761,73610878,0,0,0,0,0,0,0,0,1650,1425,1600,1491,1519,1575
36805,73621465,0,0,0,0,0,0,0,0,1660,1411,1617,1470,1549,1546
36850,73632844,0,0,0,0,0,0,0,0,1662,1409,1601,1490,1531,1564
36895,73644152,0,0,0,0,0,0,0,0,1673,1394,1604,1487,1546,1551
36940,73654281,0,0,0,0,0,0,0,0,1661,1414,1594,1501,1518,1579
36987,73664831,0,0,0,0,0,0,0,0,1645,1440,1571,1529,1467,1624
37026,73676791,0,0,0,0,0,0,0,0,1642,1447,1609,1489,1505,1595
37070,73686764,0,0,0,0,0,0,0,0,1662,1421,1616,1483,1535,1569
37115,73696429,0,0,0,0,0,0,0,0,1673,1407,1630,1466,1562,1545
37164,73707444,0,0,0,0,0,0,0,0,1667,1418,1638,1458,1562,1546
37209,73718627,0,0,0,0,0,0,0,0,1676,1408,1638,1461,1569,1542
37254,73729017,0,0,0,0,0,0,0,0,1673,1414,1645,1454,1572,1540
37299,73739779,0,0,0,0,0,0,0,0,1626,1479,1624,1482,1491,1617
37351,73753168,0,0,0,0,0,0,0,0,1634,1472,1608,1503,1479,1628
37396,73763942,0,0,0,0,0,0,0,0,1612,1500,1623,1487,1468,1638
37441,73774406,0,0,0,0,0,0,0,0,1655,1446,1620,1491,1516,1599
37486,73785210,0,0,0,0,0,0,0,0,1669,1426,1638,1469,1553,1565
37531,73795926,0,0,0,0,0,0,0,0,1663,1435,1650,1454,1558,1560
37576,73806417,0,0,0,0,0,0,0,0,1655,1446,1592,1524,1481,1628
37624,73816423,0,0,0,0,0,0,0,0,1625,1485,1610,1503,1463,1642
37670,73827048,0,0,0,0,0,0,0,0,1607,1505,1613,1498,1445,1655
37715,73837645,0,0,0,0,0,0,0,0,1622,1487,1581,1533,1423,1670
37760,73848187,0,0,0,0,0,0,0,0,1627,1480,1586,1528,1436,1660
37807,73861740,0,0,0,0,0,0,0,0,1693,1387,1630,1476,1569,1546
37848,73873632,0,0,0,0,0,0,0,0,1657,1440,1620,1489,1515,1597
37893,73884581,0,0,0,0,0,0,0,0,1659,1438,1632,1474,1531,1583
37939,73895282,0,0,0,0,0,0,0,0,1649,1452,1609,1503,1490,1619
37983,73905861,0,0,0,0,0,0,0,0,1627,1481,1607,1505,1459,1644
38029,73916450,0,0,0,0,0,0,0,0,1631,1477,1637,1468,1500,1611
38077,73926812,0,0,0,0,0,0,0,0,1669,1425,1611,1501,1516,1598
38121,73936901,0,0,0,0,0,0,0,0,1666,1430,1631,1477,1534,1582
38166,73947424,0,0,0,0,0,0,0,0,1665,1431,1656,1444,1562,1555
38210,73958435,0,0,0,0,0,0,0,0,1679,1412,1635,1472,1554,1564
38254,73969401,0,0,0,0,0,0,0,0,1683,1406,1637,1470,1559,1558
38298,73979810,0,0,0,0,0,0,0,0,1639,1468,1628,1481,1496,1616
38344,73990237,0,0,0,0,0,0,0,0,1643,1462,1620,1491,1490,1621
38389,74000895,0,0,0,0,0,0,0,0,1627,1482,1603,1510,1448,1653
38434,74011749,0,0,0,0,0,0,0,0,1616,1495,1581,1534,1403,1683
38479,74022462,0,0,0,0,0,0,0,0,1620,1489,1601,1512,1436,1660
38527,74032822,0,0,0,0,0,0,0,0,1622,1486,1609,1501,1450,1650
38571,74043226,0,0,0,0,0,0,0,0,1660,1435,1616,1492,1506,1604
38615,74054034,0,0,0,0,0,0,0,0,1666,1426,1627,1477,1526,1585
38661,74064859,0,0,0,0,0,0,0,0,1659,1434,1643,1456,1537,1574
38707,74079199,0,0,0,0,0,0,0,0,1629,1471,1598,1509,1446,1648
38748,74090730,0,0,0,0,0,0,0,0,1684,1393,1605,1500,1525,1583
38793,74101397,0,0,0,0,0,0,0,0,1711,1348,1621,1480,1575,1533
38838,74111858,0,0,0,0,0,0,0,0,1695,1376,1618,1485,1552,1557
38882,74121904,0,0,0,0,0,0,0,0,1692,1381,1610,1494,1540,1569
38927,74131956,0,0,0,0,0,0,0,0,1667,1419,1609,1495,1507,1599
38975,74142801,0,0,0,0,0,0,0,0,1648,1447,1597,1510,1468,1632
39019,74153388,0,0,0,0,0,0,0,0,1638,1460,1593,1515,1450,1646
39064,74163671,0,0,0,0,0,0,0,0,1645,1452,1581,1530,1443,1652
39109,74173814,0,0,0,0,0,0,0,0,1656,1440,1572,1541,1445,1652
39155,74184412,0,0,0,0,0,0,0,0,1661,1435,1622,1486,1510,1601
39199,74195361,0,0,0,0,0,0,0,0,1691,1391,1616,1495,1539,1577
39244,74205607,0,0,0,0,0,0,0,0,1705,1370,1607,1506,1546,1570
39288,74215584,0,0,0,0,0,0,0,0,1697,1384,1635,1473,1566,1552
39333,74226002,0,0,0,0,0,0,0,0,1705,1371,1603,1512,1540,1577
39379,74236778,0,0,0,0,0,0,0,0,1696,1386,1594,1523,1518,1598
39430,74247392,0,0,0,0,0,0,0,0,1660,1440,1605,1510,1483,1627
39474,74257444,0,0,0,0,0,0,0,0,1645,1459,1583,1532,1437,1661
39518,74269221,0,0,0,0,0,0,0,0,1668,1426,1594,1520,1479,1628
39560,74280261,0,0,0,0,0,0,0,0,1687,1396,1631,1475,1546,1569
39607,74294413,0,0,0,0,0,0,0,0,1646,1452,1608,1499,1468,1634
39652,74305035,0,0,0,0,0,0,0,0,1655,1437,1609,1496,1481,1622
39698,74315634,0,0,0,0,0,0,0,0,1652,1440,1602,1504,1468,1631
39742,74326221,0,0,0,0,0,0,0,0,1687,1386,1586,1520,1494,1608
39787,74336274,0,0,0,0,0,0,0,0,1696,1370,1630,1466,1555,1551
39835,74346604,0,0,0,0,0,0,0,0,1702,1357,1629,1465,1561,1543
39881,74357239,0,0,0,0,0,0,0,0,1699,1360,1620,1475,1548,1555
39926,74367977,0,0,0,0,0,0,0,0,1698,1360,1633,1458,1560,1541
39970,74378839,0,0,0,0,0,0,0,0,1705,1347,1631,1458,1566,1534
40015,74390213,0,0,0,0,0,0,0,0,1703,1348,1596,1500,1526,1572
40060,74400862,0,0,0,0,0,0,0,0,1687,1373,1581,1515,1489,1604
40105,74411461,0,0,0,0,0,0,0,0,1673,1396,1570,1527,1455,1631
40149,74421511,0,0,0,0,0,0,0,0,1634,1451,1580,1516,1413,1660
40195,74431275,0,0,0,0,0,0,0,0,1612,1478,1583,1512,1386,1678
40240,74442258,0,0,0,0,0,0,0,0,1618,1472,1609,1483,1429,1650
40293,74458646,0,0,0,0,0,0,0,0,1629,1461,1623,1469,1460,1629
40336,74469783,0,0,0,0,0,0,0,0,1629,1463,1589,1511,1415,1664
40381,74479985,0,0,0,0,0,0,0,0,1627,1468,1597,1505,1420,1663
40425,74490818,0,0,0,0,0,0,0,0,1664,1421,1597,1507,1470,1628
40470,74502062,0,0,0,0,0,0,0,0,1707,1358,1587,1522,1512,1596
40514,74512989,0,0,0,0,0,0,0,0,1719,1341,1622,1486,1564,1550
40559,74523829,0,0,0,0,0,0,0,0,1733,1320,1640,1466,1599,1516
40604,74534457,0,0,0,0,0,0,0,0,1694,1393,1649,1459,1561,1560
40650,74544629,0,0,0,0,0,0,0,0,1712,1368,1638,1477,1568,1557
40695,74554738,0,0,0,0,0,0,0,0,1732,1337,1630,1490,1582,1545
40743,74565200,0,0,0,0,0,0,0,0,1709,1383,1623,1502,1544,1586
40787,74575830,0,0,0,0,0,0,0,0,1679,1433,1603,1529,1481,1643
40831,74585895,0,0,0,0,0,0,0,0,1656,1469,1595,1542,1437,1679
40876,74596648,0,0,0,0,0,0,0,0,1622,1514,1593,1547,1385,1715
40925,74610421,0,0,0,0,0,0,0,0,1729,1365,1643,1492,1585,1557
40970,74621609,0,0,0,0,0,0,0,0,1700,1414,1661,1469,1570,1574
41015,74632422,0,0,0,0,0,0,0,0,1668,1460,1642,1493,1509,1629
41060,74642792,0,0,0,0,0,0,0,0,1699,1415,1615,1526,1517,1623
41104,74652737,0,0,0,0,0,0,0,0,1704,1406,1607,1533,1515,1624
41149,74663135,0,0,0,0,0,0,0,0,1675,1448,1609,1531,1479,1652
41199,74677033,0,0,0,0,0,0,0,0,1712,1390,1657,1472,1581,1560
41240,74688292,0,0,0,0,0,0,0,0,1688,1426,1637,1496,1530,1607
41284,74699208,0,0,0,0,0,0,0,0,1668,1453,1634,1497,1502,1630
41325,74714437,0,0,0,0,0,0,0,0,1711,1385,1638,1490,1562,1574
41370,74724984,0,0,0,0,0,0,0,0,1706,1391,1638,1488,1556,1578
41414,74735207,0,0,0,0,0,0,0,0,1681,1428,1641,1483,1530,1601
41461,74745644,0,0,0,0,0,0,0,0,1672,1439,1618,1509,1492,1632
41508,74756397,0,0,0,0,0,0,0,0,1656,1458,1628,1494,1486,1635
41553,74767030,0,0,0,0,0,0,0,0,1640,1477,1600,1525,1429,1676
41602,74777653,0,0,0,0,0,0,0,0,1658,1451,1576,1549,1425,1676
41646,74788366,0,0,0,0,0,0,0,0,1669,1435,1634,1482,1512,1609
41692,74799161,0,0,0,0,0,0,0,0,1682,1415,1633,1482,1527,1594
41738,74809264,0,0,0,0,0,0,0,0,1704,1378,1628,1486,1552,1570
41779,74820895,0,0,0,0,0,0,0,0,1692,1396,1635,1477,1546,1575
41821,74832848,0,0,0,0,0,0,0,0,1682,1412,1593,1526,1485,1629
41867,74843284,0,0,0,0,0,0,0,0,1682,1412,1587,1533,1478,1634
41911,74853877,0,0,0,0,0,0,0,0,1649,1457,1591,1526,1441,1661
41958,74865248,0,0,0,0,0,0,0,0,1656,1446,1610,1505,1474,1635
41999,74880219,0,0,0,0,0,0,0,0,1638,1468,1596,1519,1435,1663
42048,74890873,0,0,0,0,0,0,0,0,1614,1497,1617,1494,1432,1665
42093,74901819,0,0,0,0,0,0,0,0,1581,1534,1603,1509,1368,1705
42137,74912267,0,0,0,0,0,0,0,0,1592,1521,1605,1507,1388,1692
42182,74922695,0,0,0,0,0,0,0,0,1644,1457,1611,1498,1468,1636
42221,74934963,0,0,0,0,0,0,0,0,1653,1445,1627,1478,1501,1609
42265,74945459,0,0,0,0,0,0,0,0,1657,1438,1620,1486,1500,1609
42313,74955796,0,0,0,0,0,0,0,0,1651,1445,1601,1508,1471,1632
42358,74965796,0,0,0,0,0,0,0,0,1643,1455,1635,1466,1503,1605
42402,74975825,0,0,0,0,0,0,0,0,1644,1453,1597,1511,1459,1639
42447,74985460,0,0,0,0,0,0,0,0,1647,1448,1605,1501,1475,1626
42496,74996096,0,0,0,0,0,0,0,0,1630,1469,1608,1496,1459,1638
42541,75006834,0,0,0,0,0,0,0,0,1622,1477,1578,1529,1411,1671
42586,75017612,0,0,0,0,0,0,0,0,1614,1485,1606,1495,1440,1650
42630,75028187,0,0,0,0,0,0,0,0,1659,1425,1608,1492,1501,1600
42672,75043403,0,0,0,0,0,0,0,0,1591,1511,1601,1498,1406,1671
42716,75053826,0,0,0,0,0,0,0,0,1624,1470,1566,1537,1406,1670
42763,75070627,0,0,0,0,0,0,0,0,1594,1505,1574,1526,1378,1687
42808,75081181,0,0,0,0,0,0,0,0,1595,1502,1598,1499,1414,1663
42853,75091515,0,0,0,0,0,0,0,0,1607,1488,1586,1512,1416,1661
42903,75102460,0,0,0,0,0,0,0,0,1627,1462,1568,1531,1422,1656
42947,75113013,0,0,0,0,0,0,0,0,1636,1450,1592,1504,1465,1624
42992,75123808,0,0,0,0,0,0,0,0,1659,1417,1614,1477,1521,1576
43036,75137498,0,0,0,0,0,0,0,0,1591,1503,1587,1508,1405,1667
43078,75149095,0,0,0,0,0,0,0,0,1607,1485,1576,1520,1413,1661
43123,75160024,0,0,0,0,0,0,0,0,1604,1490,1565,1534,1394,1675
43168,75170513,0,0,0,0,0,0,0,0,1636,1450,1585,1511,1463,1625
43213,75181162,0,0,0,0,0,0,0,0,1655,1424,1609,1484,1517,1580
43259,75191399,0,0,0,0,0,0,0,0,1686,1377,1596,1499,1542,1557
43303,75201821,0,0,0,0,0,0,0,0,1655,1424,1618,1473,1531,1568
43352,75212040,0,0,0,0,0,0,0,0,1628,1460,1630,1458,1513,1584
43396,75222045,0,0,0,0,0,0,0,0,1628,1460,1600,1495,1479,1613
43441,75232727,0,0,0,0,0,0,0,0,1609,1484,1605,1489,1462,1626
43487,75243684,0,0,0,0,0,0,0,0,1603,1491,1578,1519,1422,1656
43534,75257187,0,0,0,0,0,0,0,0,1676,1393,1591,1505,1532,1566
43573,75269781,0,0,0,0,0,0,0,0,1688,1373,1601,1492,1558,1540
43614,75280859,0,0,0,0,0,0,0,0,1636,1449,1572,1526,1462,1626
43661,75291281,0,0,0,0,0,0,0,0,1637,1447,1564,1534,1457,1630
43706,75301289,0,0,0,0,0,0,0,0,1653,1425,1564,1534,1480,1612
43752,75312609,0,0,0,0,0,0,0,0,1657,1420,1559,1539,1481,1611
43803,75323239,0,0,0,0,0,0,0,0,1654,1423,1585,1511,1508,1587
43847,75333833,0,0,0,0,0,0,0,0,1663,1411,1603,1489,1540,1557
43892,75344285,0,0,0,0,0,0,0,0,1694,1360,1623,1464,1600,1492
43937,75354621,0,0,0,0,0,0,0,0,1681,1379,1605,1486,1569,1526
43976,75367013,0,0,0,0,0,0,0,0,1589,1503,1592,1500,1445,1636
44020,75377401,0,0,0,0,0,0,0,0,1615,1471,1598,1491,1488,1601
44064,75387954,0,0,0,0,0,0,0,0,1656,1416,1557,1537,1492,1597
44109,75398543,0,0,0,0,0,0,0,0,1646,1431,1580,1512,1508,1584
44154,75408895,0,0,0,0,0,0,0,0,1651,1423,1606,1482,1545,1549
44198,75419288,0,0,0,0,0,0,0,0,1685,1373,1613,1474,1593,1499
44247,75429828,0,0,0,0,0,0,0,0,1675,1391,1612,1478,1581,1514
44292,75440047,0,0,0,0,0,0,0,0,1632,1454,1622,1467,1545,1553
44336,75450455,0,0,0,0,0,0,0,0,1640,1446,1608,1486,1539,1561
44382,75460867,0,0,0,0,0,0,0,0,1666,1410,1591,1508,1552,1549
44428,75472216,0,0,0,0,0,0,0,0,1631,1461,1576,1525,1495,1603
44466,75484671,0,0,0,0,0,0,0,0,1617,1481,1597,1504,1502,1599
44508,75499479,0,0,0,0,0,0,0,0,1624,1474,1573,1533,1484,1615
44554,75510071,0,0,0,0,0,0,0,0,1637,1459,1552,1555,1478,1622
44599,75520294,0,0,0,0,0,0,0,0,1639,1457,1556,1552,1487,1616
44647,75530428,0,0,0,0,0,0,0,0,1642,1454,1571,1536,1508,1597
44692,75541152,0,0,0,0,0,0,0,0,1661,1426,1585,1522,1548,1561
44737,75551647,0,0,0,0,0,0,0,0,1654,1437,1588,1519,1545,1564
44782,75562785,0,0,0,0,0,0,0,0,1668,1417,1589,1517,1563,1545
44828,75576874,0,0,0,0,0,0,0,0,1629,1470,1573,1535,1501,1604
44872,75587278,0,0,0,0,0,0,0,0,1666,1419,1593,1513,1567,1541
44917,75597836,0,0,0,0,0,0,0,0,1685,1389,1591,1514,1589,1517
44958,75609738,0,0,0,0,0,0,0,0,1614,1487,1583,1523,1499,1604
45002,75619988,0,0,0,0,0,0,0,0,1607,1495,1556,1551,1461,1635
45047,75630222,0,0,0,0,0,0,0,0,1587,1520,1554,1555,1433,1657
45095,75640037,0,0,0,0,0,0,0,0,1596,1512,1567,1543,1460,1639
45141,75650820,0,0,0,0,0,0,0,0,1609,1498,1581,1530,1492,1614
45186,75660883,0,0,0,0,0,0,0,0,1623,1486,1590,1524,1518,1596
45229,75672000,0,0,0,0,0,0,0,0,1610,1506,1602,1515,1515,1602
45271,75690833,0,0,0,0,0,0,0,0,1636,1481,1574,1552,1513,1610
45315,75701157,0,0,0,0,0,0,0,0,1587,1541,1592,1536,1475,1644
45360,75712272,0,0,0,0,0,0,0,0,1601,1527,1584,1546,1483,1638
45407,75723042,0,0,0,0,0,0,0,0,1626,1500,1577,1555,1504,1623
45454,75733967,0,0,0,0,0,0,0,0,1645,1477,1586,1546,1538,1593
45498,75744624,0,0,0,0,0,0,0,0,1642,1482,1573,1560,1522,1609
45547,75755171,0,0,0,0,0,0,0,0,1617,1513,1568,1566,1488,1639
45591,75765274,0,0,0,0,0,0,0,0,1574,1561,1588,1546,1460,1660
45637,75775381,0,0,0,0,0,0,0,0,1591,1544,1579,1556,1471,1652
45681,75786373,0,0,0,0,0,0,0,0,1657,1466,1567,1569,1537,1598
45723,75801398,0,0,0,0,0,0,0,0,1601,1533,1603,1532,1513,1619
45769,75811984,0,0,0,0,0,0,0,0,1622,1510,1597,1538,1532,1603
45813,75822306,0,0,0,0,0,0,0,0,1630,1500,1588,1548,1532,1603
45858,75832960,0,0,0,0,0,0,0,0,1616,1518,1585,1552,1513,1620
45904,75843897,0,0,0,0,0,0,0,0,1607,1529,1603,1534,1523,1612
45953,75854927,0,0,0,0,0,0,0,0,1642,1490,1607,1530,1567,1572
