LineNo,TimeUS,C1,C2,C3,C4,C5,C6,C7,C8,C9,C10,C11,C12,C13,C14
211,6.4899e+07,0,0,0,0,0,0,0,0,1000,1000,1000,1000,1000,1000
660,6.5009e+07,0,0,0,0,0,0,0,0,1000,1000,1000,1000,1000,1000
1000,6.5094e+07,0,0,0,0,0,0,0,0,1000,1000,1000,1000,1000,1000
1225,6.5225e+07,0,0,0,0,0,0,0,0,1000,1000,1000,1000,1000,1000
1596,6.5346e+07,0,0,0,0,0,0,0,0,1000,1000,1000,1000,1000,1000
1640,6.5356e+07,0,0,0,0,0,0,0,0,1000,1000,1000,1000,1000,1000
1685,6.5366e+07,0,0,0,0,0,0,0,0,1000,1000,1000,1000,1000,1000
1730,6.5377e+07,0,0,0,0,0,0,0,0,1000,1000,1000,1000,1000,1000
1774,6.5387e+07,0,0,0,0,0,0,0,0,1000,1000,1000,1000,1000,1000
1823,6.5398e+07,0,0,0,0,0,0,0,0,1000,1000,1000,1000,1000,1000
1867,6.5409e+07,0,0,0,0,0,0,0,0,1000,1000,1000,1000,1000,1000
1912,6.5419e+07,0,0,0,0,0,0,0,0,1000,1000,1000,1000,1000,1000
1958,6.5429e+07,0,0,0,0,0,0,0,0,1000,1000,1000,1000,1000,1000
2003,6.544e+07,0,0,0,0,0,0,0,0,1000,1000,1000,1000,1000,1000
2048,6.545e+07,0,0,0,0,0,0,0,0,1000,1000,1000,1000,1000,1000
2092,6.546e+07,0,0,0,0,0,0,0,0,1000,1000,1000,1000,1000,1000
2137,6.5471e+07,0,0,0,0,0,0,0,0,1000,1000,1000,1000,1000,1000
2183,6.5487e+07,0,0,0,0,0,0,0,0,1000,1000,1000,1000,1000,1000
2229,6.5497e+07,0,0,0,0,0,0,0,0,1000,1000,1000,1000,1000,1000
2278,6.5508e+07,0,0,0,0,0,0,0,0,1000,1000,1000,1000,1000,1000
2322,6.5518e+07,0,0,0,0,0,0,0,0,1000,1000,1000,1000,1000,1000
2367,6.5529e+07,0,0,0,0,0,0,0,0,1000,1000,1000,1000,1000,1000
2411,6.5539e+07,0,0,0,0,0,0,0,0,1000,1000,1000,1000,1000,1000
2456,6.5549e+07,0,0,0,0,0,0,0,0,1000,1000,1000,1000,1000,1000
2503,6.5559e+07,0,0,0,0,0,0,0,0,1000,1000,1000,1000,1000,1000
2549,6.557e+07,0,0,0,0,0,0,0,0,1000,1000,1000,1000,1000,1000
2595,6.558e+07,0,0,0,0,0,0,0,0,1000,1000,1000,1000,1000,1000
2639,6.559e+07,0,0,0,0,0,0,0,0,1000,1000,1000,1000,1000,1000
2684,6.56e+07,0,0,0,0,0,0,0,0,1000,1000,1000,1000,1000,1000
2732,6.5611e+07,0,0,0,0,0,0,0,0,1000,1000,1000,1000,1000,1000
2777,6.5621e+07,0,0,0,0,0,0,0,0,1000,1000,1000,1000,1000,1000
2823,6.5631e+07,0,0,0,0,0,0,0,0,1000,1000,1000,1000,1000,1000
2867,6.5642e+07,0,0,0,0,0,0,0,0,1000,1000,1000,1000,1000,1000
2913,6.5653e+07,0,0,0,0,0,0,0,0,1000,1000,1000,1000,1000,1000
2959,6.5666e+07,0,0,0,0,0,0,0,0,1000,1000,1000,1000,1000,1000
3004,6.5679e+07,0,0,0,0,0,0,0,0,1000,1000,1000,1000,1000,1000
3052,6.5689e+07,0,0,0,0,0,0,0,0,1000,1000,1000,1000,1000,1000
3096,6.57e+07,0,0,0,0,0,0,0,0,1000,1000,1000,1000,1000,1000
3148,6.5713e+07,0,0,0,0,0,0,0,0,1000,1000,1000,1000,1000,1000
3192,6.5723e+07,0,0,0,0,0,0,0,0,1000,1000,1000,1000,1000,1000
3238,6.5733e+07,0,0,0,0,0,0,0,0,1000,1000,1000,1000,1000,1000
3283,6.5744e+07,0,0,0,0,0,0,0,0,1000,1000,1000,1000,1000,1000
3327,6.5754e+07,0,0,0,0,0,0,0,0,1000,1000,1000,1000,1000,1000
3373,6.5764e+07,0,0,0,0,0,0,0,0,1000,1000,1000,1000,1000,1000
3418,6.5775e+07,0,0,0,0,0,0,0,0,1000,1000,1000,1000,1000,1000
3463,6.5785e+07,0,0,0,0,0,0,0,0,1000,1000,1000,1000,1000,1000
3508,6.5794e+07,0,0,0,0,0,0,0,0,1000,1000,1000,1000,1000,1000
3553,6.5804e+07,0,0,0,0,0,0,0,0,1000,1000,1000,1000,1000,1000
3602,6.5815e+07,0,0,0,0,0,0,0,0,1000,1000,1000,1000,1000,1000
3646,6.5825e+07,0,0,0,0,0,0,0,0,1000,1000,1000,1000,1000,1000
3691,6.5836e+07,0,0,0,0,0,0,0,0,1000,1000,1000,1000,1000,1000
3737,6.5846e+07,0,0,0,0,0,0,0,0,1000,1000,1000,1000,1000,1000
3782,6.5855e+07,0,0,0,0,0,0,0,0,1000,1000,1000,1000,1000,1000
3828,6.5866e+07,0,0,0,0,0,0,0,0,1000,1000,1000,1000,1000,1000
3869,6.5879e+07,0,0,0,0,0,0,0,0,1000,1000,1000,1000,1000,1000
3913,6.5889e+07,0,0,0,0,0,0,0,0,1000,1000,1000,1000,1000,1000
3958,6.59e+07,0,0,0,0,0,0,0,0,1000,1000,1000,1000,1000,1000
4004,6.591e+07,0,0,0,0,0,0,0,0,1000,1000,1000,1000,1000,1000
4055,6.5921e+07,0,0,0,0,0,0,0,0,1000,1000,1000,1000,1000,1000
4099,6.5931e+07,0,0,0,0,0,0,0,0,1000,1000,1000,1000,1000,1000
4144,6.5941e+07,0,0,0,0,0,0,0,0,1000,1000,1000,1000,1000,1000
4188,6.5951e+07,0,0,0,0,0,0,0,0,1000,1000,1000,1000,1000,1000
4233,6.5961e+07,0,0,0,0,0,0,0,0,1000,1000,1000,1000,1000,1000
4280,6.5971e+07,0,0,0,0,0,0,0,0,1000,1000,1000,1000,1000,1000
4325,6.5981e+07,0,0,0,0,0,0,0,0,1000,1000,1000,1000,1000,1000
4370,6.5992e+07,0,0,0,0,0,0,0,0,1000,1000,1000,1000,1000,1000
4414,6.6002e+07,0,0,0,0,0,0,0,0,1000,1000,1000,1000,1000,1000
4459,6.6012e+07,0,0,0,0,0,0,0,0,1000,1000,1000,1000,1000,1000
4507,6.6022e+07,0,0,0,0,0,0,0,0,1000,1000,1000,1000,1000,1000
4552,6.6033e+07,0,0,0,0,0,0,0,0,1000,1000,1000,1000,1000,1000
4596,6.6043e+07,0,0,0,0,0,0,0,0,1000,1000,1000,1000,1000,1000
4641,6.6053e+07,0,0,0,0,0,0,0,0,1000,1000,1000,1000,1000,1000
4685,6.6063e+07,0,0,0,0,0,0,0,0,1000,1000,1000,1000,1000,1000
4731,6.6076e+07,0,0,0,0,0,0,0,0,1000,1000,1000,1000,1000,1000
4774,6.6087e+07,0,0,0,0,0,0,0,0,1000,1000,1000,1000,1000,1000
4818,6.6097e+07,0,0,0,0,0,0,0,0,1000,1000,1000,1000,1000,1000
4864,6.6107e+07,0,0,0,0,0,0,0,0,1000,1000,1000,1000,1000,1000
4909,6.6118e+07,0,0,0,0,0,0,0,0,1000,1000,1000,1000,1000,1000
4957,6.6129e+07,0,0,0,0,0,0,0,0,1000,1000,1000,1000,1000,1000
5002,6.6139e+07,0,0,0,0,0,0,0,0,1000,1000,1000,1000,1000,1000
5046,6.6149e+07,0,0,0,0,0,0,0,0,1000,1000,1000,1000,1000,1000
5090,6.6159e+07,0,0,0,0,0,0,0,0,1000,1000,1000,1000,1000,1000
5134,6.6169e+07,0,0,0,0,0,0,0,0,1000,1000,1000,1000,1000,1000
5179,6.618e+07,0,0,0,0,0,0,0,0,1000,1000,1000,1000,1000,1000
5225,6.619e+07,0,0,0,0,0,0,0,0,1000,1000,1000,1000,1000,1000
5269,6.62e+07,0,0,0,0,0,0,0,0,1000,1000,1000,1000,1000,1000
5314,6.6211e+07,0,0,0,0,0,0,0,0,1000,1000,1000,1000,1000,1000
5358,6.622e+07,0,0,0,0,0,0,0,0,1000,1000,1000,1000,1000,1000
5407,6.623e+07,0,0,0,0,0,0,0,0,1000,1000,1000,1000,1000,1000
5452,6.6241e+07,0,0,0,0,0,0,0,0,1000,1000,1000,1000,1000,1000
5497,6.6251e+07,0,0,0,0,0,0,0,0,1000,1000,1000,1000,1000,1000
5541,6.6265e+07,0,0,0,0,0,0,0,0,1000,1000,1000,1000,1000,1000
5585,6.6276e+07,0,0,0,0,0,0,0,0,1000,1000,1000,1000,1000,1000
5630,6.6286e+07,0,0,0,0,0,0,0,0,1000,1000,1000,1000,1000,1000
5676,6.6296e+07,0,0,0,0,0,0,0,0,1000,1000,1000,1000,1000,1000
5720,6.6307e+07,0,0,0,0,0,0,0,0,1000,1000,1000,1000,1000,1000
5766,6.6317e+07,0,0,0,0,0,0,0,0,1000,1000,1000,1000,1000,1000
5814,6.6327e+07,0,0,0,0,0,0,0,0,1000,1000,1000,1000,1000,1000
5861,6.6337e+07,0,0,0,0,0,0,0,0,1000,1000,1000,1000,1000,1000
5905,6.6347e+07,0,0,0,0,0,0,0,0,1000,1000,1000,1000,1000,1000
5950,6.6358e+07,0,0,0,0,0,0,0,0,1000,1000,1000,1000,1000,1000
5998,6.637e+07,0,0,0,0,0,0,0,0,1000,1000,1000,1000,1000,1000
6042,6.6381e+07,0,0,0,0,0,0,0,0,1000,1000,1000,1000,1000,1000
6087,6.6391e+07,0,0,0,0,0,0,0,0,1000,1000,1000,1000,1000,1000
6131,6.6401e+07,0,0,0,0,0,0,0,0,1000,1000,1000,1000,1000,1000
6177,6.6411e+07,0,0,0,0,0,0,0,0,1000,1000,1000,1000,1000,1000
6222,6.6421e+07,0,0,0,0,0,0,0,0,1000,1000,1000,1000,1000,1000
6270,6.6431e+07,0,0,0,0,0,0,0,0,1000,1000,1000,1000,1000,1000
6316,6.6442e+07,0,0,0,0,0,0,0,0,1000,1000,1000,1000,1000,1000
6360,6.6452e+07,0,0,0,0,0,0,0,0,1000,1000,1000,1000,1000,1000
6407,6.6463e+07,0,0,0,0,0,0,0,0,1000,1000,1000,1000,1000,1000
6446,6.6474e+07,0,0,0,0,0,0,0,0,1000,1000,1000,1000,1000,1000
6490,6.6484e+07,0,0,0,0,0,0,0,0,1000,1000,1000,1000,1000,1000
6535,6.6494e+07,0,0,0,0,0,0,0,0,1000,1000,1000,1000,1000,1000
6580,6.6505e+07,0,0,0,0,0,0,0,0,1000,1000,1000,1000,1000,1000
6626,6.6515e+07,0,0,0,0,0,0,0,0,1000,1000,1000,1000,1000,1000
6671,6.6525e+07,0,0,0,0,0,0,0,0,1000,1000,1000,1000,1000,1000
6719,6.6535e+07,0,0,0,0,0,0,0,0,1000,1000,1000,1000,1000,1000
6764,6.6545e+07,0,0,0,0,0,0,0,0,1000,1000,1000,1000,1000,1000
6809,6.6555e+07,0,0,0,0,0,0,0,0,1000,1000,1000,1000,1000,1000
6853,6.6566e+07,0,0,0,0,0,0,0,0,1000,1000,1000,1000,1000,1000
6898,6.6577e+07,0,0,0,0,0,0,0,0,1000,1000,1000,1000,1000,1000
6942,6.6587e+07,0,0,0,0,0,0,0,0,1000,1000,1000,1000,1000,1000
6988,6.6597e+07,0,0,0,0,0,0,0,0,1000,1000,1000,1000,1000,1000
7033,6.6607e+07,0,0,0,0,0,0,0,0,1000,1000,1000,1000,1000,1000
7079,6.6618e+07,0,0,0,0,0,0,0,0,1000,1000,1000,1000,1000,1000
7124,6.6628e+07,0,0,0,0,0,0,0,0,1000,1000,1000,1000,1000,1000
7172,6.6638e+07,0,0,0,0,0,0,0,0,1000,1000,1000,1000,1000,1000
7217,6.6649e+07,0,0,0,0,0,0,0,0,1000,1000,1000,1000,1000,1000
7262,6.6659e+07,0,0,0,0,0,0,0,0,1000,1000,1000,1000,1000,1000
7309,6.667e+07,0,0,0,0,0,0,0,0,1000,1000,1000,1000,1000,1000
7347,6.6681e+07,0,0,0,0,0,0,0,0,1000,1000,1000,1000,1000,1000
7391,6.6692e+07,0,0,0,0,0,0,0,0,1000,1000,1000,1000,1000,1000
7438,6.6702e+07,0,0,0,0,0,0,0,0,1000,1000,1000,1000,1000,1000
7484,6.6712e+07,0,0,0,0,0,0,0,0,1000,1000,1000,1000,1000,1000
7529,6.6723e+07,0,0,0,0,0,0,0,0,1003,1003,1003,1003,1003,1003
7574,6.6734e+07,0,0,0,0,0,0,0,0,1006,1006,1006,1006,1006,1006
7623,6.6744e+07,0,0,0,0,0,0,0,0,1009,1009,1009,1009,1009,1009
7667,6.6754e+07,0,0,0,0,0,0,0,0,1012,1012,1012,1012,1012,1012
7712,6.6764e+07,0,0,0,0,0,0,0,0,1015,1015,1015,1015,1015,1015
7758,6.6775e+07,0,0,0,0,0,0,0,0,1018,1018,1018,1018,1018,1018
7803,6.6785e+07,0,0,0,0,0,0,0,0,1021,1021,1021,1021,1021,1021
7847,6.6795e+07,0,0,0,0,0,0,0,0,1024,1024,1024,1024,1024,1024
7892,6.6805e+07,0,0,0,0,0,0,0,0,1027,1027,1027,1027,1027,1027
7937,6.6815e+07,0,0,0,0,0,0,0,0,1030,1030,1030,1030,1030,1030
7981,6.6825e+07,0,0,0,0,0,0,0,0,1033,1033,1033,1033,1033,1033
8029,6.6836e+07,0,0,0,0,0,0,0,0,1036,1036,1036,1036,1036,1036
8077,6.6847e+07,0,0,0,0,0,0,0,0,1039,1039,1039,1039,1039,1039
8125,6.6857e+07,0,0,0,0,0,0,0,0,1042,1042,1042,1042,1042,1042
8164,6.6868e+07,0,0,0,0,0,0,0,0,1045,1045,1045,1045,1045,1045
8208,6.6878e+07,0,0,0,0,0,0,0,0,1048,1048,1048,1048,1048,1048
8253,6.6888e+07,0,0,0,0,0,0,0,0,1051,1051,1051,1051,1051,1051
8298,6.6898e+07,0,0,0,0,0,0,0,0,1054,1054,1054,1054,1054,1054
8344,6.6908e+07,0,0,0,0,0,0,0,0,1057,1057,1057,1057,1057,1057
8389,6.6918e+07,0,0,0,0,0,0,0,0,1060,1060,1060,1060,1060,1060
8433,6.6929e+07,0,0,0,0,0,0,0,0,1063,1063,1063,1063,1063,1063
8478,6.6938e+07,0,0,0,0,0,0,0,0,1066,1066,1066,1066,1066,1066
8528,6.6949e+07,0,0,0,0,0,0,0,0,1069,1069,1069,1069,1069,1069
8574,6.696e+07,0,0,0,0,0,0,0,0,1072,1072,1072,1072,1072,1072
8619,6.697e+07,0,0,0,0,0,0,0,0,1075,1075,1075,1075,1075,1075
8664,6.6981e+07,0,0,0,0,0,0,0,0,1078,1078,1078,1078,1078,1078
8708,6.6991e+07,0,0,0,0,0,0,0,0,1081,1081,1081,1081,1081,1081
8753,6.7001e+07,0,0,0,0,0,0,0,0,1084,1084,1084,1084,1084,1084
8797,6.7012e+07,0,0,0,0,0,0,0,0,1087,1087,1087,1087,1087,1087
8842,6.7022e+07,0,0,0,0,0,0,0,0,1090,1090,1090,1090,1090,1090
8887,6.7032e+07,0,0,0,0,0,0,0,0,1093,1093,1093,1093,1093,1093
8933,6.7043e+07,0,0,0,0,0,0,0,0,1096,1096,1096,1096,1096,1096
8982,6.7053e+07,0,0,0,0,0,0,0,0,1099,1099,1099,1099,1099,1099
9028,6.7064e+07,0,0,0,0,0,0,0,0,1100,1100,1100,1100,1100,1100
9073,6.708e+07,0,0,0,0,0,0,0,0,1100,1100,1100,1100,1100,1100
9117,6.7091e+07,0,0,0,0,0,0,0,0,1100,1100,1100,1100,1100,1100
9162,6.7101e+07,0,0,0,0,0,0,0,0,1100,1100,1100,1100,1100,1100
9207,6.7111e+07,0,0,0,0,0,0,0,0,1100,1100,1100,1100,1100,1100
9252,6.7122e+07,0,0,0,0,0,0,0,0,1100,1100,1100,1100,1100,1100
9297,6.7132e+07,0,0,0,0,0,0,0,0,1100,1100,1100,1100,1100,1100
9343,6.7142e+07,0,0,0,0,0,0,0,0,1100,1100,1100,1100,1100,1100
9387,6.7152e+07,0,0,0,0,0,0,0,0,1100,1100,1100,1100,1100,1100
9436,6.7163e+07,0,0,0,0,0,0,0,0,1100,1100,1100,1100,1100,1100
9480,6.7173e+07,0,0,0,0,0,0,0,0,1100,1100,1100,1100,1100,1100
9526,6.7183e+07,0,0,0,0,0,0,0,0,1100,1100,1100,1100,1100,1100
9573,6.7196e+07,0,0,0,0,0,0,0,0,1100,1100,1100,1100,1100,1100
9618,6.7206e+07,0,0,0,0,0,0,0,0,1100,1100,1100,1100,1100,1100
9663,6.7216e+07,0,0,0,0,0,0,0,0,1100,1100,1100,1100,1100,1100
9707,6.7227e+07,0,0,0,0,0,0,0,0,1100,1100,1100,1100,1100,1100
9752,6.7237e+07,0,0,0,0,0,0,0,0,1100,1100,1100,1100,1100,1100
9798,6.7247e+07,0,0,0,0,0,0,0,0,1100,1100,1100,1100,1100,1100
9847,6.7257e+07,0,0,0,0,0,0,0,0,1100,1100,1100,1100,1100,1100
9892,6.7267e+07,0,0,0,0,0,0,0,0,1100,1100,1100,1100,1100,1100
9932,6.7279e+07,0,0,0,0,0,0,0,0,1100,1100,1100,1100,1100,1100
9976,6.7289e+07,0,0,0,0,0,0,0,0,1100,1100,1100,1100,1100,1100
10021,6.7299e+07,0,0,0,0,0,0,0,0,1100,1100,1100,1100,1100,1100
10067,6.731e+07,0,0,0,0,0,0,0,0,1100,1100,1100,1100,1100,1100
10112,6.732e+07,0,0,0,0,0,0,0,0,1100,1100,1100,1100,1100,1100
10158,6.733e+07,0,0,0,0,0,0,0,0,1100,1100,1100,1100,1100,1100
10203,6.734e+07,0,0,0,0,0,0,0,0,1100,1100,1100,1100,1100,1100
10248,6.7351e+07,0,0,0,0,0,0,0,0,1100,1100,1100,1100,1100,1100
10297,6.7361e+07,0,0,0,0,0,0,0,0,1100,1100,1100,1100,1100,1100
10342,6.7371e+07,0,0,0,0,0,0,0,0,1100,1100,1100,1100,1100,1100
10387,6.7381e+07,0,0,0,0,0,0,0,0,1100,1100,1100,1100,1100,1100
10431,6.7391e+07,0,0,0,0,0,0,0,0,1100,1100,1100,1100,1100,1100
10476,6.7401e+07,0,0,0,0,0,0,0,0,1100,1100,1100,1100,1100,1100
10521,6.7412e+07,0,0,0,0,0,0,0,0,1100,1100,1100,1100,1100,1100
10565,6.7422e+07,0,0,0,0,0,0,0,0,1100,1100,1100,1100,1100,1100
10610,6.7433e+07,0,0,0,0,0,0,0,0,1100,1100,1100,1100,1100,1100
10654,6.7443e+07,0,0,0,0,0,0,0,0,1100,1100,1100,1100,1100,1100
10701,6.7453e+07,0,0,0,0,0,0,0,0,1100,1100,1100,1100,1100,1100
10749,6.7464e+07,0,0,0,0,0,0,0,0,1100,1100,1100,1100,1100,1100
10793,6.7475e+07,0,0,0,0,0,0,0,0,1100,1100,1100,1100,1100,1100
10835,6.7485e+07,0,0,0,0,0,0,0,0,1100,1100,1100,1100,1100,1100
10880,6.7496e+07,0,0,0,0,0,0,0,0,1100,1100,1100,1100,1100,1100
10928,6.7509e+07,0,0,0,0,0,0,0,0,1100,1100,1100,1100,1100,1100
10973,6.752e+07,0,0,0,0,0,0,0,0,1100,1100,1100,1100,1100,1100
11017,6.7531e+07,0,0,0,0,0,0,0,0,1100,1100,1100,1100,1100,1100
11062,6.7541e+07,0,0,0,0,0,0,0,0,1100,1100,1100,1100,1100,1100
11106,6.7551e+07,0,0,0,0,0,0,0,0,1100,1100,1100,1100,1100,1100
11151,6.756e+07,0,0,0,0,0,0,0,0,1100,1100,1100,1100,1100,1100
11201,6.7571e+07,0,0,0,0,0,0,0,0,1100,1100,1100,1100,1100,1100
11245,6.7581e+07,0,0,0,0,0,0,0,0,1100,1100,1100,1100,1100,1100
11291,6.7591e+07,0,0,0,0,0,0,0,0,1100,1100,1100,1100,1100,1100
11335,6.7601e+07,0,0,0,0,0,0,0,0,1100,1100,1100,1100,1100,1100
11383,6.7614e+07,0,0,0,0,0,0,0,0,1100,1100,1100,1100,1100,1100
11428,6.7624e+07,0,0,0,0,0,0,0,0,1100,1100,1100,1100,1100,1100
11472,6.7634e+07,0,0,0,0,0,0,0,0,1100,1100,1100,1100,1100,1100
11518,6.7645e+07,0,0,0,0,0,0,0,0,1100,1100,1100,1100,1100,1100
11562,6.7655e+07,0,0,0,0,0,0,0,0,1100,1100,1100,1100,1100,1100
11609,6.7665e+07,0,0,0,0,0,0,0,0,1100,1100,1100,1100,1100,1100
11652,6.7677e+07,0,0,0,0,0,0,0,0,1100,1100,1100,1100,1100,1100
11698,6.7687e+07,0,0,0,0,0,0,0,0,1100,1100,1100,1100,1100,1100
11742,6.7696e+07,0,0,0,0,0,0,0,0,1100,1100,1100,1100,1100,1100
11788,6.7707e+07,0,0,0,0,0,0,0,0,1100,1100,1100,1100,1100,1100
11832,6.7718e+07,0,0,0,0,0,0,0,0,1100,1100,1100,1100,1100,1100
11877,6.7729e+07,0,0,0,0,0,0,0,0,1100,1100,1100,1100,1100,1100
11921,6.774e+07,0,0,0,0,0,0,0,0,1100,1100,1100,1100,1100,1100
11966,6.775e+07,0,0,0,0,0,0,0,0,1100,1100,1100,1100,1100,1100
12011,6.776e+07,0,0,0,0,0,0,0,0,1100,1100,1100,1100,1100,1100
12055,6.777e+07,0,0,0,0,0,0,0,0,1100,1100,1100,1100,1100,1100
12105,6.778e+07,0,0,0,0,0,0,0,0,1100,1100,1100,1100,1100,1100
12149,6.779e+07,0,0,0,0,0,0,0,0,1100,1100,1100,1100,1100,1100
12194,6.78e+07,0,0,0,0,0,0,0,0,1100,1100,1100,1100,1100,1100
12239,6.7811e+07,0,0,0,0,0,0,0,0,1100,1100,1100,1100,1100,1100
12287,6.7821e+07,0,0,0,0,0,0,0,0,1100,1100,1100,1100,1100,1100
12332,6.7831e+07,0,0,0,0,0,0,0,0,1100,1100,1100,1100,1100,1100
12376,6.7842e+07,0,0,0,0,0,0,0,0,1100,1100,1100,1100,1100,1100
12420,6.7853e+07,0,0,0,0,0,0,0,0,1100,1100,1100,1100,1100,1100
12464,6.7863e+07,0,0,0,0,0,0,0,0,1100,1100,1100,1100,1100,1100
12513,6.7874e+07,0,0,0,0,0,0,0,0,1100,1100,1100,1100,1100,1100
12558,6.7885e+07,0,0,0,0,0,0,0,0,1100,1100,1100,1100,1100,1100
12599,6.7895e+07,0,0,0,0,0,0,0,0,1100,1100,1100,1100,1100,1100
12644,6.7906e+07,0,0,0,0,0,0,0,0,1100,1100,1100,1100,1100,1100
12689,6.7916e+07,0,0,0,0,0,0,0,0,1100,1100,1100,1100,1100,1100
12733,6.7926e+07,0,0,0,0,0,0,0,0,1100,1100,1100,1100,1100,1100
12778,6.7936e+07,0,0,0,0,0,0,0,0,1100,1100,1100,1100,1100,1100
12823,6.7947e+07,0,0,0,0,0,0,0,0,1100,1100,1100,1100,1100,1100
12867,6.7957e+07,0,0,0,0,0,0,0,0,1100,1100,1100,1100,1100,1100
12912,6.7967e+07,0,0,0,0,0,0,0,0,1100,1100,1100,1100,1100,1100
12957,6.7978e+07,0,0,0,0,0,0,0,0,1100,1100,1100,1100,1100,1100
13008,6.7988e+07,0,0,0,0,0,0,0,0,1100,1100,1100,1100,1100,1100
13052,6.7997e+07,0,0,0,0,0,0,0,0,1100,1100,1100,1100,1100,1100
13097,6.8008e+07,0,0,0,0,0,0,0,0,1100,1100,1100,1100,1100,1100
13142,6.8019e+07,0,0,0,0,0,0,0,0,1100,1100,1100,1100,1100,1100
13189,6.8031e+07,0,0,0,0,0,0,0,0,1100,1100,1100,1100,1100,1100
13234,6.8042e+07,0,0,0,0,0,0,0,0,1100,1100,1100,1100,1100,1100
13278,6.8052e+07,0,0,0,0,0,0,0,0,1100,1100,1100,1100,1100,1100
13325,6.8062e+07,0,0,0,0,0,0,0,0,1100,1100,1100,1100,1100,1100
13366,6.8073e+07,0,0,0,0,0,0,0,0,1100,1100,1100,1100,1100,1100
13432,6.8134e+07,0,0,0,0,0,0,0,0,1100,1100,1100,1100,1100,1100
13478,6.8144e+07,0,0,0,0,0,0,0,0,1100,1100,1100,1100,1100,1100
13522,6.8155e+07,0,0,0,0,0,0,0,0,1100,1100,1100,1100,1100,1100
13567,6.8165e+07,0,0,0,0,0,0,0,0,1100,1100,1100,1100,1100,1100
13611,6.8175e+07,0,0,0,0,0,0,0,0,1100,1100,1100,1100,1100,1100
13656,6.8186e+07,0,0,0,0,0,0,0,0,1100,1100,1100,1100,1100,1100
13705,6.8196e+07,0,0,0,0,0,0,0,0,1100,1100,1100,1100,1100,1100
13750,6.8206e+07,0,0,0,0,0,0,0,0,1100,1100,1100,1100,1100,1100
13795,6.8216e+07,0,0,0,0,0,0,0,0,1100,1100,1100,1100,1100,1100
13839,6.8227e+07,0,0,0,0,0,0,0,0,1100,1100,1100,1100,1100,1100
13885,6.8236e+07,0,0,0,0,0,0,0,0,1100,1100,1100,1100,1100,1100
13929,6.8246e+07,0,0,0,0,0,0,0,0,1100,1100,1100,1100,1100,1100
13974,6.8257e+07,0,0,0,0,0,0,0,0,1100,1100,1100,1100,1100,1100
14021,6.8267e+07,0,0,0,0,0,0,0,0,1100,1100,1100,1100,1100,1100
14060,6.8278e+07,0,0,0,0,0,0,0,0,1100,1100,1100,1100,1100,1100
14105,6.8288e+07,0,0,0,0,0,0,0,0,1100,1100,1100,1100,1100,1100
14153,6.8299e+07,0,0,0,0,0,0,0,0,1100,1100,1100,1100,1100,1100
14198,6.8309e+07,0,0,0,0,0,0,0,0,1100,1100,1100,1100,1100,1100
14244,6.8319e+07,0,0,0,0,0,0,0,0,1100,1100,1100,1100,1100,1100
14289,6.8329e+07,0,0,0,0,0,0,0,0,1100,1100,1100,1100,1100,1100
14333,6.8339e+07,0,0,0,0,0,0,0,0,1100,1100,1100,1100,1100,1100
14378,6.835e+07,0,0,0,0,0,0,0,0,1100,1100,1100,1100,1100,1100
14423,6.836e+07,0,0,0,0,0,0,0,0,1100,1100,1100,1100,1100,1100
14469,6.837e+07,0,0,0,0,0,0,0,0,1100,1100,1100,1100,1100,1100
14514,6.838e+07,0,0,0,0,0,0,0,0,1100,1100,1100,1100,1100,1100
14558,6.8391e+07,0,0,0,0,0,0,0,0,1100,1100,1100,1100,1100,1100
14607,6.8401e+07,0,0,0,0,0,0,0,0,1100,1100,1100,1100,1100,1100
14651,6.8411e+07,0,0,0,0,0,0,0,0,1100,1100,1100,1100,1100,1100
14696,6.8421e+07,0,0,0,0,0,0,0,0,1100,1100,1100,1100,1100,1100
14742,6.8432e+07,0,0,0,0,0,0,0,0,1100,1100,1100,1100,1100,1100
14789,6.8444e+07,0,0,0,0,0,0,0,0,1100,1100,1100,1100,1100,1100
14834,6.8455e+07,0,0,0,0,0,0,0,0,1100,1100,1100,1100,1100,1100
14878,6.8465e+07,0,0,0,0,0,0,0,0,1100,1100,1100,1100,1100,1100
14926,6.848e+07,0,0,0,0,0,0,0,0,1100,1100,1100,1100,1100,1100
14971,6.8491e+07,0,0,0,0,0,0,0,0,1100,1100,1100,1100,1100,1100
15020,6.8501e+07,0,0,0,0,0,0,0,0,1100,1100,1100,1100,1100,1100
15065,6.8511e+07,0,0,0,0,0,0,0,0,1100,1100,1100,1100,1100,1100
15110,6.8521e+07,0,0,0,0,0,0,0,0,1100,1100,1100,1100,1100,1100
15154,6.8531e+07,0,0,0,0,0,0,0,0,1100,1100,1100,1100,1100,1100
15199,6.8541e+07,0,0,0,0,0,0,0,0,1100,1100,1100,1100,1100,1100
15243,6.8551e+07,0,0,0,0,0,0,0,0,1100,1100,1100,1100,1100,1100
15288,6.8562e+07,0,0,0,0,0,0,0,0,1100,1100,1100,1100,1100,1100
15332,6.8572e+07,0,0,0,0,0,0,0,0,1100,1100,1100,1100,1100,1100
15378,6.8583e+07,0,0,0,0,0,0,0,0,1100,1100,1100,1100,1100,1100
15423,6.8593e+07,0,0,0,0,0,0,0,0,1100,1100,1100,1100,1100,1100
15472,6.8603e+07,0,0,0,0,0,0,0,0,1100,1100,1100,1100,1100,1100
15517,6.8614e+07,0,0,0,0,0,0,0,0,1100,1100,1100,1100,1100,1100
15561,6.8624e+07,0,0,0,0,0,0,0,0,1100,1100,1100,1100,1100,1100
15606,6.8634e+07,0,0,0,0,0,0,0,0,1100,1100,1100,1100,1100,1100
15650,6.8644e+07,0,0,0,0,0,0,0,0,1100,1100,1100,1100,1100,1100
15698,6.8655e+07,0,0,0,0,0,0,0,0,1100,1100,1100,1100,1100,1100
15737,6.8666e+07,0,0,0,0,0,0,0,0,1100,1100,1100,1100,1100,1100
15782,6.8676e+07,0,0,0,0,0,0,0,0,1100,1100,1100,1100,1100,1100
15827,6.8687e+07,0,0,0,0,0,0,0,0,1100,1100,1100,1100,1100,1100
15872,6.8697e+07,0,0,0,0,0,0,0,0,1100,1100,1100,1100,1100,1100
15921,6.8708e+07,0,0,0,0,0,0,0,0,1100,1100,1100,1100,1100,1100
15967,6.8718e+07,0,0,0,0,0,0,0,0,1100,1100,1100,1100,1100,1100
16011,6.8728e+07,0,0,0,0,0,0,0,0,1100,1100,1100,1100,1100,1100
16057,6.8739e+07,0,0,0,0,0,0,0,0,1100,1100,1100,1100,1100,1100
16104,6.8749e+07,0,0,0,0,0,0,0,0,1100,1100,1100,1100,1100,1100
16148,6.876e+07,0,0,0,0,0,0,0,0,1100,1100,1100,1100,1100,1100
16193,6.877e+07,0,0,0,0,0,0,0,0,1100,1100,1100,1100,1100,1100
16238,6.878e+07,0,0,0,0,0,0,0,0,1100,1100,1100,1100,1100,1100
16283,6.879e+07,0,0,0,0,0,0,0,0,1100,1100,1100,1100,1100,1100
16329,6.88e+07,0,0,0,0,0,0,0,0,1100,1100,1100,1100,1100,1100
16380,6.881e+07,0,0,0,0,0,0,0,0,1100,1100,1100,1100,1100,1100
16425,6.8821e+07,0,0,0,0,0,0,0,0,1100,1100,1100,1100,1100,1100
16469,6.8831e+07,0,0,0,0,0,0,0,0,1100,1100,1100,1100,1100,1100
16514,6.8841e+07,0,0,0,0,0,0,0,0,1100,1100,1100,1100,1100,1100
16561,6.8854e+07,0,0,0,0,0,0,0,0,1100,1100,1100,1100,1100,1100
16608,6.887e+07,0,0,0,0,0,0,0,0,1100,1100,1100,1100,1100,1100
16652,6.8881e+07,0,0,0,0,0,0,0,0,1100,1100,1100,1100,1100,1100
16697,6.8892e+07,0,0,0,0,0,0,0,0,1100,1100,1100,1100,1100,1100
16744,6.8903e+07,0,0,0,0,0,0,0,0,1100,1100,1100,1100,1100,1100
16792,6.8914e+07,0,0,0,0,0,0,0,0,1100,1100,1100,1100,1100,1100
16837,6.8924e+07,0,0,0,0,0,0,0,0,1100,1100,1100,1100,1100,1100
16881,6.8934e+07,0,0,0,0,0,0,0,0,1100,1100,1100,1100,1100,1100
16926,6.8945e+07,0,0,0,0,0,0,0,0,1100,1100,1100,1100,1100,1100
16971,6.8954e+07,0,0,0,0,0,0,0,0,1100,1100,1100,1100,1100,1100
17016,6.8965e+07,0,0,0,0,0,0,0,0,1100,1100,1100,1100,1100,1100
17061,6.8975e+07,0,0,0,0,0,0,0,0,1100,1100,1100,1100,1100,1100
17106,6.8985e+07,0,0,0,0,0,0,0,0,1100,1100,1100,1100,1100,1100
17152,6.8996e+07,0,0,0,0,0,0,0,0,1100,1100,1100,1100,1100,1100
17196,6.9006e+07,0,0,0,0,0,0,0,0,1100,1100,1100,1100,1100,1100
17251,6.9019e+07,0,0,0,0,0,0,0,0,1100,1100,1100,1100,1100,1100
17295,6.9029e+07,0,0,0,0,0,0,0,0,1100,1100,1100,1100,1100,1100
17340,6.9039e+07,0,0,0,0,0,0,0,0,1100,1100,1100,1100,1100,1100
17385,6.905e+07,0,0,0,0,0,0,0,0,1100,1100,1100,1100,1100,1100
17429,6.9059e+07,0,0,0,0,0,0,0,0,1100,1100,1100,1100,1100,1100
17475,6.907e+07,0,0,0,0,0,0,0,0,1100,1100,1100,1100,1100,1100
17516,6.9084e+07,0,0,0,0,0,0,0,0,1100,1100,1100,1100,1100,1100
17561,6.9094e+07,0,0,0,0,0,0,0,0,1100,1100,1100,1100,1100,1100
17607,6.9105e+07,0,0,0,0,0,0,0,0,1100,1100,1100,1100,1100,1100
17651,6.9114e+07,0,0,0,0,0,0,0,0,1100,1100,1100,1100,1100,1100
17701,6.9125e+07,0,0,0,0,0,0,0,0,1100,1100,1100,1100,1100,1100
17745,6.9135e+07,0,0,0,0,0,0,0,0,1100,1100,1100,1100,1100,1100
17790,6.9145e+07,0,0,0,0,0,0,0,0,1100,1100,1100,1100,1100,1100
17836,6.9155e+07,0,0,0,0,0,0,0,0,1100,1100,1100,1100,1100,1100
17880,6.9165e+07,0,0,0,0,0,0,0,0,1100,1100,1100,1100,1100,1100
17925,6.9175e+07,0,0,0,0,0,0,0,0,1100,1100,1100,1100,1100,1100
17969,6.9186e+07,0,0,0,0,0,0,0,0,1100,1100,1100,1100,1100,1100
18014,6.9196e+07,0,0,0,0,0,0,0,0,1100,1100,1100,1100,1100,1100
18059,6.9206e+07,0,0,0,0,0,0,0,0,1100,1100,1100,1100,1100,1100
18103,6.9216e+07,0,0,0,0,0,0,0,0,1100,1100,1100,1100,1100,1100
18154,6.9226e+07,0,0,0,0,0,0,0,0,1100,1100,1100,1100,1100,1100
18198,6.9236e+07,0,0,0,0,0,0,0,0,1100,1100,1100,1100,1100,1100
18243,6.9246e+07,0,0,0,0,0,0,0,0,1100,1100,1100,1100,1100,1100
18290,6.9256e+07,0,0,0,0,0,0,0,0,1100,1100,1100,1100,1100,1100
18331,6.9271e+07,0,0,0,0,0,0,0,0,1100,1100,1100,1100,1100,1100
18375,6.9282e+07,0,0,0,0,0,0,0,0,1100,1100,1100,1100,1100,1100
18420,6.9292e+07,0,0,0,0,0,0,0,0,1100,1100,1100,1100,1100,1100
18468,6.9302e+07,0,0,0,0,0,0,0,0,1100,1100,1100,1100,1100,1100
18513,6.9312e+07,0,0,0,0,0,0,0,0,1100,1100,1100,1100,1100,1100
18557,6.9322e+07,0,0,0,0,0,0,0,0,1100,1100,1100,1100,1100,1100
18606,6.9333e+07,0,0,0,0,0,0,0,0,1100,1100,1100,1100,1100,1100
18651,6.9343e+07,0,0,0,0,0,0,0,0,1100,1100,1100,1100,1100,1100
18696,6.9354e+07,0,0,0,0,0,0,0,0,1100,1100,1100,1100,1100,1100
18744,6.9367e+07,0,0,0,0,0,0,0,0,1100,1100,1100,1100,1100,1100
18789,6.9378e+07,0,0,0,0,0,0,0,0,1100,1100,1100,1100,1100,1100
18834,6.9387e+07,0,0,0,0,0,0,0,0,1100,1100,1100,1100,1100,1100
18878,6.9398e+07,0,0,0,0,0,0,0,0,1100,1100,1100,1100,1100,1100
18922,6.9407e+07,0,0,0,0,0,0,0,0,1100,1100,1100,1100,1100,1100
18966,6.9418e+07,0,0,0,0,0,0,0,0,1100,1100,1100,1100,1100,1100
19015,6.9429e+07,0,0,0,0,0,0,0,0,1100,1100,1100,1100,1100,1100
19060,6.9439e+07,0,0,0,0,0,0,0,0,1100,1100,1100,1100,1100,1100
19106,6.9449e+07,0,0,0,0,0,0,0,0,1100,1100,1100,1100,1100,1100
19151,6.9459e+07,0,0,0,0,0,0,0,0,1100,1100,1100,1100,1100,1100
19194,6.947e+07,0,0,0,0,0,0,0,0,1100,1100,1100,1100,1100,1100
19236,6.9481e+07,0,0,0,0,0,0,0,0,1100,1100,1100,1100,1100,1100
19281,6.9491e+07,0,0,0,0,0,0,0,0,1100,1100,1100,1100,1100,1100
19325,6.9501e+07,0,0,0,0,0,0,0,0,1100,1100,1100,1100,1100,1100
19371,6.9511e+07,0,0,0,0,0,0,0,0,1100,1100,1100,1100,1100,1100
19415,6.9522e+07,0,0,0,0,0,0,0,0,1100,1100,1100,1100,1100,1100
19464,6.9533e+07,0,0,0,0,0,0,0,0,1100,1100,1100,1100,1100,1100
19508,6.9543e+07,0,0,0,0,0,0,0,0,1100,1100,1100,1100,1100,1100
19553,6.9553e+07,0,0,0,0,0,0,0,0,1100,1100,1100,1100,1100,1100
19598,6.9564e+07,0,0,0,0,0,0,0,0,1100,1100,1100,1100,1100,1100
19647,6.9576e+07,0,0,0,0,0,0,0,0,1100,1100,1100,1100,1100,1100
19692,6.9587e+07,0,0,0,0,0,0,0,0,1100,1100,1100,1100,1100,1100
19736,6.9597e+07,0,0,0,0,0,0,0,0,1100,1100,1100,1100,1100,1100
19781,6.9607e+07,0,0,0,0,0,0,0,0,1100,1100,1100,1100,1100,1100
19825,6.9617e+07,0,0,0,0,0,0,0,0,1100,1100,1100,1100,1100,1100
19870,6.9627e+07,0,0,0,0,0,0,0,0,1100,1100,1100,1100,1100,1100
19918,6.9638e+07,0,0,0,0,0,0,0,0,1100,1100,1100,1100,1100,1100
19963,6.9649e+07,0,0,0,0,0,0,0,0,1100,1100,1100,1100,1100,1100
20008,6.9659e+07,0,0,0,0,0,0,0,0,1100,1100,1100,1100,1100,1100
20055,6.9669e+07,0,0,0,0,0,0,0,0,1100,1100,1100,1100,1100,1100
20094,6.968e+07,0,0,0,0,0,0,0,0,1100,1100,1100,1100,1100,1100
20139,6.969e+07,0,0,0,0,0,0,0,0,1100,1100,1100,1100,1100,1100
20183,6.9701e+07,0,0,0,0,0,0,0,0,1100,1100,1100,1100,1100,1100
20229,6.971e+07,0,0,0,0,0,0,0,0,1100,1100,1100,1100,1100,1100
20274,6.9721e+07,0,0,0,0,0,0,0,0,1100,1100,1100,1100,1100,1100
20320,6.9731e+07,0,0,0,0,0,0,0,0,1100,1100,1100,1100,1100,1100
20369,6.9741e+07,0,0,0,0,0,0,0,0,1100,1100,1100,1100,1100,1100
20413,6.9752e+07,0,0,0,0,0,0,0,0,1100,1100,1100,1100,1100,1100
20458,6.9761e+07,0,0,0,0,0,0,0,0,1100,1100,1100,1100,1100,1100
20504,6.9772e+07,0,0,0,0,0,0,0,0,1100,1100,1100,1100,1100,1100
20553,6.9786e+07,0,0,0,0,0,0,0,0,1100,1100,1100,1100,1100,1100
20599,6.9796e+07,0,0,0,0,0,0,0,0,1100,1100,1100,1100,1100,1100
20644,6.9806e+07,0,0,0,0,0,0,0,0,1100,1100,1100,1100,1100,1100
20688,6.9816e+07,0,0,0,0,0,0,0,0,1100,1100,1100,1100,1100,1100
20734,6.9826e+07,0,0,0,0,0,0,0,0,1100,1100,1100,1100,1100,1100
20779,6.9836e+07,0,0,0,0,0,0,0,0,1100,1100,1100,1100,1100,1100
20827,6.9847e+07,0,0,0,0,0,0,0,0,1100,1100,1100,1100,1100,1100
20874,6.9862e+07,0,0,0,0,0,0,0,0,1100,1100,1100,1100,1100,1100
20918,6.9873e+07,0,0,0,0,0,0,0,0,1100,1100,1100,1100,1100,1100
20964,6.9883e+07,0,0,0,0,0,0,0,0,1100,1100,1100,1100,1100,1100
21009,6.9894e+07,0,0,0,0,0,0,0,0,1100,1100,1100,1100,1100,1100
21053,6.9905e+07,0,0,0,0,0,0,0,0,1100,1100,1100,1100,1100,1100
21099,6.9915e+07,0,0,0,0,0,0,0,0,1100,1100,1100,1100,1100,1100
21144,6.9925e+07,0,0,0,0,0,0,0,0,1100,1100,1100,1100,1100,1100
21189,6.9935e+07,0,0,0,0,0,0,0,0,1100,1100,1100,1100,1100,1100
21237,6.9946e+07,0,0,0,0,0,0,0,0,1100,1100,1100,1100,1100,1100
21282,6.9956e+07,0,0,0,0,0,0,0,0,1100,1100,1100,1100,1100,1100
21327,6.9966e+07,0,0,0,0,0,0,0,0,1100,1100,1100,1100,1100,1100
21371,6.9977e+07,0,0,0,0,0,0,0,0,1100,1100,1100,1100,1100,1100
21418,6.9987e+07,0,0,0,0,0,0,0,0,1100,1100,1100,1100,1100,1100
21462,6.9996e+07,0,0,0,0,0,0,0,0,1100,1100,1100,1100,1100,1100
21507,7.0007e+07,0,0,0,0,0,0,0,0,1100,1100,1100,1100,1100,1100
21552,7.0018e+07,0,0,0,0,0,0,0,0,1100,1100,1100,1100,1100,1100
21596,7.0028e+07,0,0,0,0,0,0,0,0,1100,1100,1100,1100,1100,1100
21642,7.0038e+07,0,0,0,0,0,0,0,0,1100,1100,1100,1100,1100,1100
21692,7.005e+07,0,0,0,0,0,0,0,0,1100,1100,1100,1100,1100,1100
21739,7.0061e+07,0,0,0,0,0,0,0,0,1100,1100,1100,1100,1100,1100
21784,7.0071e+07,0,0,0,0,0,0,0,0,1100,1100,1100,1100,1100,1100
21822,7.0083e+07,0,0,0,0,0,0,0,0,1100,1100,1100,1100,1100,1100
21867,7.0093e+07,0,0,0,0,0,0,0,0,1100,1100,1100,1100,1100,1100
21912,7.0103e+07,0,0,0,0,0,0,0,0,1100,1100,1100,1100,1100,1100
21957,7.0113e+07,0,0,0,0,0,0,0,0,1100,1100,1100,1100,1100,1100
22002,7.0123e+07,0,0,0,0,0,0,0,0,1100,1100,1100,1100,1100,1100
22046,7.0133e+07,0,0,0,0,0,0,0,0,1100,1100,1100,1100,1100,1100
22091,7.0143e+07,0,0,0,0,0,0,0,0,1100,1100,1100,1100,1100,1100
22140,7.0154e+07,0,0,0,0,0,0,0,0,1100,1100,1100,1100,1100,1100
22185,7.0164e+07,0,0,0,0,0,0,0,0,1100,1100,1100,1100,1100,1100
22230,7.0174e+07,0,0,0,0,0,0,0,0,1100,1100,1100,1100,1100,1100
22274,7.0185e+07,0,0,0,0,0,0,0,0,1100,1100,1100,1100,1100,1100
22319,7.0195e+07,0,0,0,0,0,0,0,0,1100,1100,1100,1100,1100,1100
22364,7.0205e+07,0,0,0,0,0,0,0,0,1100,1100,1100,1100,1100,1100
22409,7.0215e+07,0,0,0,0,0,0,0,0,1100,1100,1100,1100,1100,1100
22453,7.0225e+07,0,0,0,0,0,0,0,0,1100,1100,1100,1100,1100,1100
22498,7.0235e+07,0,0,0,0,0,0,0,0,1100,1100,1100,1100,1100,1100
22543,7.0245e+07,0,0,0,0,0,0,0,0,1100,1100,1100,1100,1100,1100
22591,7.0255e+07,0,0,0,0,0,0,0,0,1100,1100,1100,1100,1100,1100
22638,7.0266e+07,0,0,0,0,0,0,0,0,1100,1100,1100,1100,1100,1100
22679,7.0279e+07,0,0,0,0,0,0,0,0,1100,1100,1100,1100,1100,1100
22726,7.029e+07,0,0,0,0,0,0,0,0,1100,1100,1100,1100,1100,1100
22773,7.0302e+07,0,0,0,0,0,0,0,0,1100,1100,1100,1100,1100,1100
22821,7.0313e+07,0,0,0,0,0,0,0,0,1100,1100,1100,1100,1100,1100
22865,7.0324e+07,0,0,0,0,0,0,0,0,1100,1100,1100,1100,1100,1100
22909,7.0334e+07,0,0,0,0,0,0,0,0,1100,1100,1100,1100,1100,1100
22954,7.0343e+07,0,0,0,0,0,0,0,0,1100,1100,1100,1100,1100,1100
22999,7.0353e+07,0,0,0,0,0,0,0,0,1100,1100,1100,1100,1100,1100
23048,7.0364e+07,0,0,0,0,0,0,0,0,1100,1100,1100,1100,1100,1100
23092,7.0374e+07,0,0,0,0,0,0,0,0,1100,1100,1100,1100,1100,1100
23137,7.0384e+07,0,0,0,0,0,0,0,0,1100,1100,1100,1100,1100,1100
23183,7.0395e+07,0,0,0,0,0,0,0,0,1100,1100,1100,1100,1100,1100
23227,7.0404e+07,0,0,0,0,0,0,0,0,1100,1100,1100,1100,1100,1100
23275,7.0417e+07,0,0,0,0,0,0,0,0,1100,1100,1100,1100,1100,1100
23319,7.0427e+07,0,0,0,0,0,0,0,0,1100,1100,1100,1100,1100,1100
23365,7.0438e+07,0,0,0,0,0,0,0,0,1100,1100,1100,1100,1100,1100
23410,7.0448e+07,0,0,0,0,0,0,0,0,1100,1100,1100,1100,1100,1100
23458,7.0459e+07,0,0,0,0,0,0,0,0,1100,1100,1100,1100,1100,1100
23504,7.0469e+07,0,0,0,0,0,0,0,0,1100,1100,1100,1100,1100,1100
23547,7.0479e+07,0,0,0,0,0,0,0,0,1100,1100,1100,1100,1100,1100
23589,7.049e+07,0,0,0,0,0,0,0,0,1100,1100,1100,1100,1100,1100
23637,7.0503e+07,0,0,0,0,0,0,0,0,1100,1100,1100,1100,1100,1100
23681,7.0513e+07,0,0,0,0,0,0,0,0,1100,1100,1100,1100,1100,1100
23726,7.0523e+07,0,0,0,0,0,0,0,0,1100,1100,1100,1100,1100,1100
23772,7.0533e+07,0,0,0,0,0,0,0,0,1100,1100,1100,1100,1100,1100
23817,7.0544e+07,0,0,0,0,0,0,0,0,1100,1100,1100,1100,1100,1100
23861,7.0554e+07,0,0,0,0,0,0,0,0,1100,1100,1100,1100,1100,1100
23910,7.0563e+07,0,0,0,0,0,0,0,0,1100,1100,1100,1100,1100,1100
23954,7.0574e+07,0,0,0,0,0,0,0,0,1100,1100,1100,1100,1100,1100
23999,7.0585e+07,0,0,0,0,0,0,0,0,1100,1100,1100,1100,1100,1100
24044,7.0595e+07,0,0,0,0,0,0,0,0,1100,1100,1100,1100,1100,1100
24088,7.0605e+07,0,0,0,0,0,0,0,0,1100,1100,1100,1100,1100,1100
24133,7.0616e+07,0,0,0,0,0,0,0,0,1100,1100,1100,1100,1100,1100
24179,7.0626e+07,0,0,0,0,0,0,0,0,1100,1100,1100,1100,1100,1100
24223,7.0636e+07,0,0,0,0,0,0,0,0,1100,1100,1100,1100,1100,1100
24268,7.0647e+07,0,0,0,0,0,0,0,0,1100,1100,1100,1100,1100,1100
24318,7.0662e+07,0,0,0,0,0,0,0,0,1100,1100,1100,1100,1100,1100
24364,7.0673e+07,0,0,0,0,0,0,0,0,1100,1100,1100,1100,1100,1100
24408,7.0683e+07,0,0,0,0,0,0,0,0,1100,1100,1100,1100,1100,1100
24452,7.0694e+07,0,0,0,0,0,0,0,0,1100,1100,1100,1100,1100,1100
24501,7.0706e+07,0,0,0,0,0,0,0,0,1100,1100,1100,1100,1100,1100
24545,7.0717e+07,0,0,0,0,0,0,0,0,1100,1100,1100,1100,1100,1100
24591,7.0727e+07,0,0,0,0,0,0,0,0,1100,1100,1100,1100,1100,1100
24636,7.0737e+07,0,0,0,0,0,0,0,0,1100,1100,1100,1100,1100,1100
24682,7.0747e+07,0,0,0,0,0,0,0,0,1100,1100,1100,1100,1100,1100
24727,7.0758e+07,0,0,0,0,0,0,0,0,1100,1100,1100,1100,1100,1100
24776,7.0768e+07,0,0,0,0,0,0,0,0,1100,1100,1100,1100,1100,1100
24826,7.078e+07,0,0,0,0,0,0,0,0,1100,1100,1100,1100,1100,1100
24872,7.0791e+07,0,0,0,0,0,0,0,0,1100,1100,1100,1100,1100,1100
24921,7.0803e+07,0,0,0,0,0,0,0,0,1100,1100,1100,1100,1100,1100
24969,7.0816e+07,0,0,0,0,0,0,0,0,1100,1100,1100,1100,1100,1100
25014,7.0826e+07,0,0,0,0,0,0,0,0,1100,1100,1100,1100,1100,1100
25056,7.0836e+07,0,0,0,0,0,0,0,0,1100,1100,1100,1100,1100,1100
25101,7.0846e+07,0,0,0,0,0,0,0,0,1100,1100,1100,1100,1100,1100
25148,7.0857e+07,0,0,0,0,0,0,0,0,1100,1100,1100,1100,1100,1100
25198,7.087e+07,0,0,0,0,0,0,0,0,1100,1100,1100,1100,1100,1100
25240,7.088e+07,0,0,0,0,0,0,0,0,1100,1100,1100,1100,1100,1100
25284,7.0891e+07,0,0,0,0,0,0,0,0,1100,1100,1100,1100,1100,1100
25329,7.0901e+07,0,0,0,0,0,0,0,0,1100,1100,1100,1100,1100,1100
25373,7.0912e+07,0,0,0,0,0,0,0,0,1100,1100,1100,1100,1100,1100
25419,7.0922e+07,0,0,0,0,0,0,0,0,1100,1100,1100,1100,1100,1100
25461,7.0932e+07,0,0,0,0,0,0,0,0,1100,1100,1100,1100,1100,1100
25505,7.0942e+07,0,0,0,0,0,0,0,0,1100,1100,1100,1100,1100,1100
25551,7.0952e+07,0,0,0,0,0,0,0,0,1100,1100,1100,1100,1100,1100
25595,7.0963e+07,0,0,0,0,0,0,0,0,1100,1100,1100,1100,1100,1100
25648,7.0975e+07,0,0,0,0,0,0,0,0,1100,1100,1100,1100,1100,1100
25693,7.0985e+07,0,0,0,0,0,0,0,0,1100,1100,1100,1100,1100,1100
25737,7.0995e+07,0,0,0,0,0,0,0,0,1100,1100,1100,1100,1100,1100
25782,7.1005e+07,0,0,0,0,0,0,0,0,1100,1100,1100,1100,1100,1100
25826,7.1015e+07,0,0,0,0,0,0,0,0,1100,1100,1100,1100,1100,1100
25871,7.1026e+07,0,0,0,0,0,0,0,0,1100,1100,1100,1100,1100,1100
25916,7.1035e+07,0,0,0,0,0,0,0,0,1100,1100,1100,1100,1100,1100
25961,7.1046e+07,0,0,0,0,0,0,0,0,1100,1100,1100,1100,1100,1100
26006,7.1056e+07,0,0,0,0,0,0,0,0,1100,1100,1100,1100,1100,1100
26051,7.1065e+07,0,0,0,0,0,0,0,0,1100,1100,1100,1100,1100,1100
26104,7.1078e+07,0,0,0,0,0,0,0,0,1101,1101,1101,1101,1101,1101
26145,7.1089e+07,0,0,0,0,0,0,0,0,1104,1104,1104,1104,1104,1104
26191,7.11e+07,0,0,0,0,0,0,0,0,1107,1107,1107,1107,1107,1107
26235,7.111e+07,0,0,0,0,0,0,0,0,1110,1110,1110,1110,1110,1110
26277,7.1121e+07,0,0,0,0,0,0,0,0,1113,1113,1113,1113,1113,1113
26322,7.1131e+07,0,0,0,0,0,0,0,0,1116,1116,1116,1116,1116,1116
26366,7.1141e+07,0,0,0,0,0,0,0,0,1119,1119,1119,1119,1119,1119
26411,7.1151e+07,0,0,0,0,0,0,0,0,1122,1122,1122,1122,1122,1122
26456,7.1161e+07,0,0,0,0,0,0,0,0,1125,1125,1125,1125,1125,1125
26501,7.1171e+07,0,0,0,0,0,0,0,0,1128,1128,1128,1128,1128,1128
26550,7.1182e+07,0,0,0,0,0,0,0,0,1131,1131,1131,1131,1131,1131
26594,7.1192e+07,0,0,0,0,0,0,0,0,1134,1134,1134,1134,1134,1134
26640,7.1202e+07,0,0,0,0,0,0,0,0,1137,1137,1137,1137,1137,1137
26684,7.1212e+07,0,0,0,0,0,0,0,0,1140,1140,1140,1140,1140,1140
26729,7.1223e+07,0,0,0,0,0,0,0,0,1143,1143,1143,1143,1143,1143
26773,7.1233e+07,0,0,0,0,0,0,0,0,1146,1146,1146,1146,1146,1146
26819,7.1244e+07,0,0,0,0,0,0,0,0,1149,1149,1149,1149,1149,1149
26866,7.1256e+07,0,0,0,0,0,0,0,0,1212,1200,1247,1158,1253,1150
26908,7.127e+07,0,0,0,0,0,0,0,0,1164,1180,1193,1150,1185,1159
26959,7.1281e+07,0,0,0,0,0,0,0,0,1163,1194,1165,1192,1150,1205
27003,7.1291e+07,0,0,0,0,0,0,0,0,1195,1156,1182,1171,1201,1150
27048,7.1302e+07,0,0,0,0,0,0,0,0,1184,1161,1150,1194,1161,1184
27093,7.1313e+07,0,0,0,0,0,0,0,0,1163,1276,1285,1150,1234,1215
27134,7.1325e+07,0,0,0,0,0,0,0,0,1150,1278,1261,1174,1198,1241
27178,7.1336e+07,0,0,0,0,0,0,0,0,1150,1331,1319,1169,1237,1268
27223,7.1346e+07,0,0,0,0,0,0,0,0,1207,1168,1204,1171,1220,1152
27267,7.1356e+07,0,0,0,0,0,0,0,0,1338,1150,1228,1283,1314,1188
27312,7.1367e+07,0,0,0,0,0,0,0,0,1311,1150,1233,1247,1303,1162
27356,7.1377e+07,0,0,0,0,0,0,0,0,1238,1178,1226,1193,1251,1161
27406,7.1388e+07,0,0,0,0,0,0,0,0,1150,1374,1288,1271,1159,1370
27450,7.1398e+07,0,0,0,0,0,0,0,0,1150,1413,1350,1252,1218,1375
27496,7.1408e+07,0,0,0,0,0,0,0,0,1231,1234,1177,1279,1173,1282
27541,7.1418e+07,0,0,0,0,0,0,0,0,1439,1150,1286,1352,1412,1201
27585,7.1431e+07,0,0,0,0,0,0,0,0,1449,1150,1280,1369,1413,1218
27630,7.1442e+07,0,0,0,0,0,0,0,0,1276,1235,1285,1224,1302,1203
27674,7.1452e+07,0,0,0,0,0,0,0,0,1178,1332,1340,1164,1271,1255
27719,7.1463e+07,0,0,0,0,0,0,0,0,1150,1477,1371,1318,1190,1458
27765,7.1474e+07,0,0,0,0,0,0,0,0,1194,1346,1362,1167,1294,1261
27804,7.1485e+07,0,0,0,0,0,0,0,0,1396,1150,1156,1393,1293,1292
27852,7.1495e+07,0,0,0,0,0,0,0,0,1419,1150,1306,1308,1416,1156
27897,7.1506e+07,0,0,0,0,0,0,0,0,1334,1258,1312,1284,1343,1247
27943,7.1516e+07,0,0,0,0,0,0,0,0,1193,1392,1324,1284,1215,1378
27988,7.1526e+07,0,0,0,0,0,0,0,0,1150,1426,1397,1204,1271,1350
28032,7.1537e+07,0,0,0,0,0,0,0,0,1355,1278,1281,1353,1320,1317
28077,7.1547e+07,0,0,0,0,0,0,0,0,1431,1181,1316,1334,1423,1197
28121,7.1557e+07,0,0,0,0,0,0,0,0,1388,1267,1310,1352,1368,1293
28166,7.1568e+07,0,0,0,0,0,0,0,0,1273,1395,1330,1347,1260,1405
28210,7.1578e+07,0,0,0,0,0,0,0,0,1150,1486,1457,1209,1311,1387
28257,7.1589e+07,0,0,0,0,0,0,0,0,1321,1380,1413,1280,1386,1315
28306,7.1599e+07,0,0,0,0,0,0,0,0,1540,1150,1152,1539,1386,1387
28351,7.161e+07,0,0,0,0,0,0,0,0,1368,1385,1355,1397,1343,1408
28396,7.162e+07,0,0,0,0,0,0,0,0,1227,1534,1568,1150,1445,1361
28440,7.1631e+07,0,0,0,0,0,0,0,0,1485,1305,1419,1386,1497,1286
28482,7.1641e+07,0,0,0,0,0,0,0,0,1576,1173,1216,1557,1437,1394
28524,7.1652e+07,0,0,0,0,0,0,0,0,1311,1523,1404,1451,1277,1544
28568,7.1662e+07,0,0,0,0,0,0,0,0,1150,1625,1585,1244,1385,1494
28613,7.1673e+07,0,0,0,0,0,0,0,0,1454,1444,1499,1395,1501,1392
28659,7.1686e+07,0,0,0,0,0,0,0,0,1314,1575,1531,1380,1402,1513
28701,7.1696e+07,0,0,0,0,0,0,0,0,1620,1252,1428,1503,1588,1312
28750,7.1707e+07,0,0,0,0,0,0,0,0,1712,1150,1428,1566,1658,1285
28795,7.1717e+07,0,0,0,0,0,0,0,0,1535,1415,1486,1471,1540,1410
28840,7.1727e+07,0,0,0,0,0,0,0,0,1354,1591,1516,1453,1389,1567
28886,7.1738e+07,0,0,0,0,0,0,0,0,1353,1604,1506,1478,1368,1595
28934,7.1751e+07,0,0,0,0,0,0,0,0,1407,1583,1550,1448,1461,1539
28978,7.1762e+07,0,0,0,0,0,0,0,0,1592,1413,1518,1500,1598,1405
29025,7.1773e+07,0,0,0,0,0,0,0,0,1656,1331,1523,1508,1660,1325
29070,7.1784e+07,0,0,0,0,0,0,0,0,1603,1426,1539,1502,1617,1407
29115,7.1794e+07,0,0,0,0,0,0,0,0,1484,1563,1558,1489,1517,1533
29164,7.1804e+07,0,0,0,0,0,0,0,0,1466,1584,1549,1506,1485,1567
29209,7.1815e+07,0,0,0,0,0,0,0,0,1514,1547,1515,1546,1492,1567
29254,7.1825e+07,0,0,0,0,0,0,0,0,1603,1456,1494,1571,1562,1503
29301,7.1836e+07,0,0,0,0,0,0,0,0,1608,1455,1479,1589,1552,1520
29345,7.1846e+07,0,0,0,0,0,0,0,0,1531,1546,1524,1553,1509,1567
29390,7.1856e+07,0,0,0,0,0,0,0,0,1514,1565,1544,1536,1510,1569
29440,7.1869e+07,0,0,0,0,0,0,0,0,1498,1581,1542,1540,1488,1590
29478,7.1881e+07,0,0,0,0,0,0,0,0,1480,1598,1550,1533,1477,1601
29523,7.1891e+07,0,0,0,0,0,0,0,0,1556,1527,1537,1547,1539,1545
29567,7.1901e+07,0,0,0,0,0,0,0,0,1608,1467,1523,1560,1577,1504
29616,7.1911e+07,0,0,0,0,0,0,0,0,1582,1497,1538,1544,1563,1519
29660,7.1921e+07,0,0,0,0,0,0,0,0,1520,1558,1540,1539,1499,1577
29705,7.1931e+07,0,0,0,0,0,0,0,0,1524,1551,1512,1563,1472,1598
29750,7.1941e+07,0,0,0,0,0,0,0,0,1581,1490,1516,1557,1536,1539
29795,7.1952e+07,0,0,0,0,0,0,0,0,1644,1407,1504,1568,1589,1480
29840,7.1963e+07,0,0,0,0,0,0,0,0,1610,1452,1532,1539,1577,1492
29884,7.1974e+07,0,0,0,0,0,0,0,0,1557,1513,1538,1533,1525,1546
29930,7.1985e+07,0,0,0,0,0,0,0,0,1527,1545,1528,1543,1478,1589
29974,7.1995e+07,0,0,0,0,0,0,0,0,1561,1509,1523,1548,1506,1563
30019,7.2006e+07,0,0,0,0,0,0,0,0,1617,1442,1539,1532,1578,1490
30068,7.2016e+07,0,0,0,0,0,0,0,0,1629,1428,1518,1554,1567,1505
30113,7.2026e+07,0,0,0,0,0,0,0,0,1592,1477,1532,1543,1536,1539
30158,7.2036e+07,0,0,0,0,0,0,0,0,1564,1511,1539,1536,1507,1567
30202,7.2046e+07,0,0,0,0,0,0,0,0,1579,1496,1528,1549,1508,1568
30250,7.2056e+07,0,0,0,0,0,0,0,0,1608,1462,1560,1518,1566,1511
30289,7.2069e+07,0,0,0,0,0,0,0,0,1603,1467,1555,1522,1553,1524
30333,7.2079e+07,0,0,0,0,0,0,0,0,1549,1528,1553,1524,1488,1586
30377,7.2089e+07,0,0,0,0,0,0,0,0,1544,1533,1557,1519,1483,1589
30421,7.21e+07,0,0,0,0,0,0,0,0,1557,1517,1537,1538,1472,1597
30466,7.211e+07,0,0,0,0,0,0,0,0,1575,1496,1548,1526,1500,1572
30517,7.212e+07,0,0,0,0,0,0,0,0,1627,1431,1548,1525,1555,1517
30561,7.2131e+07,0,0,0,0,0,0,0,0,1630,1427,1534,1538,1540,1532
30605,7.2141e+07,0,0,0,0,0,0,0,0,1612,1449,1559,1511,1542,1529
30651,7.2151e+07,0,0,0,0,0,0,0,0,1607,1454,1534,1536,1507,1562
30696,7.2162e+07,0,0,0,0,0,0,0,0,1588,1474,1538,1530,1486,1579
30740,7.2172e+07,0,0,0,0,0,0,0,0,1610,1446,1556,1509,1527,1540
30785,7.2183e+07,0,0,0,0,0,0,0,0,1637,1408,1561,1503,1559,1506
30830,7.2194e+07,0,0,0,0,0,0,0,0,1615,1437,1580,1482,1550,1515
30875,7.2204e+07,0,0,0,0,0,0,0,0,1563,1500,1562,1501,1467,1591
30919,7.2215e+07,0,0,0,0,0,0,0,0,1539,1525,1567,1495,1442,1611
30968,7.2225e+07,0,0,0,0,0,0,0,0,1566,1494,1571,1489,1474,1583
31013,7.2235e+07,0,0,0,0,0,0,0,0,1587,1470,1535,1528,1453,1602
31057,7.2245e+07,0,0,0,0,0,0,0,0,1576,1484,1544,1519,1445,1607
31102,7.2256e+07,0,0,0,0,0,0,0,0,1592,1465,1566,1496,1485,1575
31151,7.227e+07,0,0,0,0,0,0,0,0,1626,1424,1553,1511,1506,1558
31196,7.2284e+07,0,0,0,0,0,0,0,0,1598,1461,1582,1480,1501,1564
31242,7.2294e+07,0,0,0,0,0,0,0,0,1619,1435,1589,1472,1528,1538
31286,7.2304e+07,0,0,0,0,0,0,0,0,1606,1451,1609,1448,1533,1534
31331,7.2315e+07,0,0,0,0,0,0,0,0,1616,1436,1585,1475,1516,1549
31375,7.2326e+07,0,0,0,0,0,0,0,0,1588,1471,1557,1506,1447,1607
31424,7.2336e+07,0,0,0,0,0,0,0,0,1592,1464,1563,1498,1457,1598
31469,7.2346e+07,0,0,0,0,0,0,0,0,1578,1479,1546,1515,1416,1627
31513,7.2357e+07,0,0,0,0,0,0,0,0,1581,1473,1543,1515,1416,1625
31558,7.2367e+07,0,0,0,0,0,0,0,0,1586,1465,1542,1514,1418,1622
31602,7.2378e+07,0,0,0,0,0,0,0,0,1595,1450,1579,1470,1474,1575
31649,7.2391e+07,0,0,0,0,0,0,0,0,1615,1420,1558,1491,1472,1574
31694,7.2402e+07,0,0,0,0,0,0,0,0,1597,1441,1549,1498,1437,1600
31740,7.2412e+07,0,0,0,0,0,0,0,0,1607,1425,1526,1518,1421,1609
31785,7.2422e+07,0,0,0,0,0,0,0,0,1608,1421,1528,1514,1423,1606
31833,7.2433e+07,0,0,0,0,0,0,0,0,1594,1436,1556,1482,1438,1593
31878,7.2444e+07,0,0,0,0,0,0,0,0,1632,1381,1570,1463,1500,1538
31927,7.2457e+07,0,0,0,0,0,0,0,0,1644,1361,1598,1427,1543,1493
31966,7.2468e+07,0,0,0,0,0,0,0,0,1619,1397,1550,1484,1457,1573
32010,7.2479e+07,0,0,0,0,0,0,0,0,1611,1408,1549,1485,1444,1584
32055,7.2489e+07,0,0,0,0,0,0,0,0,1588,1438,1560,1472,1425,1598
32099,7.25e+07,0,0,0,0,0,0,0,0,1587,1438,1540,1493,1396,1618
32144,7.251e+07,0,0,0,0,0,0,0,0,1589,1436,1554,1478,1415,1605
32189,7.252e+07,0,0,0,0,0,0,0,0,1563,1467,1554,1477,1380,1629
32233,7.2531e+07,0,0,0,0,0,0,0,0,1581,1448,1556,1477,1403,1615
32282,7.2541e+07,0,0,0,0,0,0,0,0,1594,1433,1586,1443,1456,1576
32327,7.2552e+07,0,0,0,0,0,0,0,0,1564,1473,1573,1461,1399,1621
32371,7.2562e+07,0,0,0,0,0,0,0,0,1561,1479,1575,1463,1396,1626
32419,7.2575e+07,0,0,0,0,0,0,0,0,1658,1352,1624,1404,1569,1476
32463,7.2585e+07,0,0,0,0,0,0,0,0,1655,1365,1611,1429,1548,1505
32508,7.2596e+07,0,0,0,0,0,0,0,0,1646,1386,1635,1402,1561,1496
32553,7.2606e+07,0,0,0,0,0,0,0,0,1653,1382,1610,1444,1538,1526
32597,7.2616e+07,0,0,0,0,0,0,0,0,1651,1393,1631,1421,1556,1513
32643,7.2626e+07,0,0,0,0,0,0,0,0,1620,1441,1645,1407,1535,1539
32687,7.2637e+07,0,0,0,0,0,0,0,0,1634,1429,1622,1445,1522,1557
32736,7.2647e+07,0,0,0,0,0,0,0,0,1660,1396,1630,1438,1559,1523
32782,7.2657e+07,0,0,0,0,0,0,0,0,1684,1362,1640,1428,1595,1486
32828,7.2667e+07,0,0,0,0,0,0,0,0,1684,1364,1635,1438,1590,1495
32867,7.2679e+07,0,0,0,0,0,0,0,0,1666,1395,1642,1430,1576,1512
32911,7.2691e+07,0,0,0,0,0,0,0,0,1629,1449,1618,1463,1506,1583
32956,7.2701e+07,0,0,0,0,0,0,0,0,1591,1496,1612,1471,1452,1627
33000,7.2712e+07,0,0,0,0,0,0,0,0,1611,1472,1615,1467,1480,1605
33045,7.2723e+07,0,0,0,0,0,0,0,0,1607,1478,1582,1507,1434,1641
33090,7.2734e+07,0,0,0,0,0,0,0,0,1574,1516,1572,1518,1376,1680
33136,7.2744e+07,0,0,0,0,0,0,0,0,1593,1495,1581,1508,1414,1655
33185,7.2755e+07,0,0,0,0,0,0,0,0,1579,1510,1592,1496,1412,1657
33231,7.2765e+07,0,0,0,0,0,0,0,0,1579,1509,1598,1488,1420,1650
33275,7.2775e+07,0,0,0,0,0,0,0,0,1591,1495,1606,1478,1447,1631
33320,7.2787e+07,0,0,0,0,0,0,0,0,1629,1449,1607,1477,1493,1593
33365,7.2798e+07,0,0,0,0,0,0,0,0,1649,1422,1619,1462,1532,1558
33411,7.2809e+07,0,0,0,0,0,0,0,0,1645,1427,1621,1458,1530,1559
33455,7.2819e+07,0,0,0,0,0,0,0,0,1652,1415,1591,1494,1506,1581
33500,7.283e+07,0,0,0,0,0,0,0,0,1625,1451,1604,1478,1489,1595
33546,7.284e+07,0,0,0,0,0,0,0,0,1576,1510,1583,1502,1401,1661
33590,7.285e+07,0,0,0,0,0,0,0,0,1604,1477,1571,1516,1424,1645
33639,7.2865e+07,0,0,0,0,0,0,0,0,1654,1412,1598,1485,1519,1568
33683,7.2875e+07,0,0,0,0,0,0,0,0,1679,1372,1605,1476,1559,1529
33728,7.2886e+07,0,0,0,0,0,0,0,0,1667,1392,1611,1469,1551,1537
33779,7.2902e+07,0,0,0,0,0,0,0,0,1597,1485,1589,1494,1442,1631
33824,7.2913e+07,0,0,0,0,0,0,0,0,1588,1494,1598,1483,1444,1629
33869,7.2923e+07,0,0,0,0,0,0,0,0,1611,1467,1586,1496,1459,1617
33914,7.2934e+07,0,0,0,0,0,0,0,0,1622,1453,1621,1454,1515,1569
33958,7.2945e+07,0,0,0,0,0,0,0,0,1633,1438,1636,1433,1545,1539
34005,7.2955e+07,0,0,0,0,0,0,0,0,1645,1420,1627,1446,1551,1534
34053,7.2965e+07,0,0,0,0,0,0,0,0,1646,1419,1624,1449,1549,1536
34097,7.2975e+07,0,0,0,0,0,0,0,0,1616,1460,1605,1474,1493,1589
34141,7.2986e+07,0,0,0,0,0,0,0,0,1596,1485,1611,1466,1477,1603
34186,7.2996e+07,0,0,0,0,0,0,0,0,1577,1507,1585,1498,1422,1645
34234,7.3009e+07,0,0,0,0,0,0,0,0,1594,1488,1563,1522,1417,1649
34278,7.302e+07,0,0,0,0,0,0,0,0,1631,1444,1597,1486,1504,1582
34324,7.303e+07,0,0,0,0,0,0,0,0,1648,1420,1586,1499,1514,1573
34368,7.304e+07,0,0,0,0,0,0,0,0,1673,1383,1591,1493,1550,1538
34414,7.3051e+07,0,0,0,0,0,0,0,0,1649,1420,1611,1470,1544,1545
34458,7.3061e+07,0,0,0,0,0,0,0,0,1656,1409,1617,1462,1560,1528
34506,7.3076e+07,0,0,0,0,0,0,0,0,1629,1447,1572,1516,1477,1606
34551,7.3086e+07,0,0,0,0,0,0,0,0,1645,1426,1570,1518,1495,1591
34595,7.3096e+07,0,0,0,0,0,0,0,0,1656,1409,1577,1509,1519,1569
34640,7.3107e+07,0,0,0,0,0,0,0,0,1665,1395,1571,1516,1524,1564
34684,7.3118e+07,0,0,0,0,0,0,0,0,1668,1391,1615,1464,1575,1511
34729,7.3129e+07,0,0,0,0,0,0,0,0,1675,1379,1603,1480,1570,1517
34773,7.3139e+07,0,0,0,0,0,0,0,0,1649,1418,1586,1499,1523,1564
34818,7.315e+07,0,0,0,0,0,0,0,0,1614,1465,1581,1505,1475,1606
34864,7.3161e+07,0,0,0,0,0,0,0,0,1592,1491,1581,1503,1450,1625
34912,7.3172e+07,0,0,0,0,0,0,0,0,1598,1484,1566,1520,1439,1633
34960,7.3183e+07,0,0,0,0,0,0,0,0,1606,1474,1598,1484,1487,1595
35005,7.3193e+07,0,0,0,0,0,0,0,0,1618,1459,1631,1442,1541,1546
35049,7.3204e+07,0,0,0,0,0,0,0,0,1647,1420,1604,1477,1545,1542
35094,7.3215e+07,0,0,0,0,0,0,0,0,1627,1449,1583,1503,1499,1586
35140,7.3225e+07,0,0,0,0,0,0,0,0,1605,1479,1582,1506,1471,1612
35184,7.3236e+07,0,0,0,0,0,0,0,0,1578,1514,1558,1535,1405,1663
35229,7.3246e+07,0,0,0,0,0,0,0,0,1572,1523,1550,1547,1385,1679
35276,7.3257e+07,0,0,0,0,0,0,0,0,1588,1509,1570,1529,1432,1649
35322,7.327e+07,0,0,0,0,0,0,0,0,1671,1405,1590,1510,1555,1547
35368,7.3282e+07,0,0,0,0,0,0,0,0,1640,1450,1585,1518,1513,1589
35414,7.3292e+07,0,0,0,0,0,0,0,0,1651,1438,1572,1533,1512,1592
35458,7.3303e+07,0,0,0,0,0,0,0,0,1640,1455,1560,1548,1485,1617
35502,7.3313e+07,0,0,0,0,0,0,0,0,1638,1458,1594,1513,1521,1586
35546,7.3324e+07,0,0,0,0,0,0,0,0,1647,1448,1629,1472,1569,1541
35590,7.3335e+07,0,0,0,0,0,0,0,0,1666,1423,1606,1501,1566,1545
35634,7.3345e+07,0,0,0,0,0,0,0,0,1627,1478,1585,1527,1496,1612
35678,7.3356e+07,0,0,0,0,0,0,0,0,1605,1506,1594,1518,1481,1626
35722,7.3365e+07,0,0,0,0,0,0,0,0,1591,1524,1610,1502,1482,1627
35768,7.3376e+07,0,0,0,0,0,0,0,0,1604,1511,1592,1525,1474,1635
35818,7.3387e+07,0,0,0,0,0,0,0,0,1599,1519,1586,1534,1460,1648
35862,7.3397e+07,0,0,0,0,0,0,0,0,1606,1512,1603,1517,1487,1627
35907,7.3408e+07,0,0,0,0,0,0,0,0,1622,1496,1619,1499,1524,1597
35951,7.3418e+07,0,0,0,0,0,0,0,0,1632,1483,1601,1520,1515,1605
35997,7.3429e+07,0,0,0,0,0,0,0,0,1616,1502,1594,1527,1488,1628
36042,7.344e+07,0,0,0,0,0,0,0,0,1625,1491,1591,1529,1495,1621
36086,7.345e+07,0,0,0,0,0,0,0,0,1656,1449,1578,1542,1517,1601
36130,7.346e+07,0,0,0,0,0,0,0,0,1659,1443,1584,1535,1527,1591
36175,7.3471e+07,0,0,0,0,0,0,0,0,1649,1454,1603,1510,1536,1580
36220,7.3482e+07,0,0,0,0,0,0,0,0,1657,1440,1617,1491,1560,1554
36271,7.3493e+07,0,0,0,0,0,0,0,0,1631,1471,1605,1503,1518,1592
36310,7.3505e+07,0,0,0,0,0,0,0,0,1588,1520,1617,1487,1480,1622
36355,7.3515e+07,0,0,0,0,0,0,0,0,1609,1494,1602,1502,1485,1616
36399,7.3525e+07,0,0,0,0,0,0,0,0,1629,1467,1592,1511,1498,1604
36445,7.3536e+07,0,0,0,0,0,0,0,0,1633,1460,1611,1487,1522,1580
36489,7.3548e+07,0,0,0,0,0,0,0,0,1657,1425,1592,1507,1529,1572
36534,7.3559e+07,0,0,0,0,0,0,0,0,1624,1467,1584,1514,1478,1615
36578,7.3569e+07,0,0,0,0,0,0,0,0,1594,1501,1591,1505,1447,1638
36623,7.3579e+07,0,0,0,0,0,0,0,0,1615,1475,1579,1517,1458,1628
36668,7.3589e+07,0,0,0,0,0,0,0,0,1641,1440,1561,1535,1467,1620
36716,7.36e+07,0,0,0,0,0,0,0,0,1636,1445,1573,1521,1474,1614
36761,7.3611e+07,0,0,0,0,0,0,0,0,1650,1425,1600,1491,1519,1575
36805,7.3621e+07,0,0,0,0,0,0,0,0,1660,1411,1617,1470,1549,1546
36850,7.3633e+07,0,0,0,0,0,0,0,0,1662,1409,1601,1490,1531,1564
36895,7.3644e+07,0,0,0,0,0,0,0,0,1673,1394,1604,1487,1546,1551
36940,7.3654e+07,0,0,0,0,0,0,0,0,1661,1414,1594,1501,1518,1579
36987,7.3665e+07,0,0,0,0,0,0,0,0,1645,1440,1571,1529,1467,1624
37026,7.3677e+07,0,0,0,0,0,0,0,0,1642,1447,1609,1489,1505,1595
37070,7.3687e+07,0,0,0,0,0,0,0,0,1662,1421,1616,1483,1535,1569
37115,7.3696e+07,0,0,0,0,0,0,0,0,1673,1407,1630,1466,1562,1545
37164,7.3707e+07,0,0,0,0,0,0,0,0,1667,1418,1638,1458,1562,1546
37209,7.3719e+07,0,0,0,0,0,0,0,0,1676,1408,1638,1461,1569,1542
37254,7.3729e+07,0,0,0,0,0,0,0,0,1673,1414,1645,1454,1572,1540
37299,7.374e+07,0,0,0,0,0,0,0,0,1626,1479,1624,1482,1491,1617
37351,7.3753e+07,0,0,0,0,0,0,0,0,1634,1472,1608,1503,1479,1628
37396,7.3764e+07,0,0,0,0,0,0,0,0,1612,1500,1623,1487,1468,1638
37441,7.3774e+07,0,0,0,0,0,0,0,0,1655,1446,1620,1491,1516,1599
37486,7.3785e+07,0,0,0,0,0,0,0,0,1669,1426,1638,1469,1553,1565
37531,7.3796e+07,0,0,0,0,0,0,0,0,1663,1435,1650,1454,1558,1560
37576,7.3806e+07,0,0,0,0,0,0,0,0,1655,1446,1592,1524,1481,1628
37624,7.3816e+07,0,0,0,0,0,0,0,0,1625,1485,1610,1503,1463,1642
37670,7.3827e+07,0,0,0,0,0,0,0,0,1607,1505,1613,1498,1445,1655
37715,7.3838e+07,0,0,0,0,0,0,0,0,1622,1487,1581,1533,1423,1670
37760,7.3848e+07,0,0,0,0,0,0,0,0,1627,1480,1586,1528,1436,1660
37807,7.3862e+07,0,0,0,0,0,0,0,0,1693,1387,1630,1476,1569,1546
37848,7.3874e+07,0,0,0,0,0,0,0,0,1657,1440,1620,1489,1515,1597
37893,7.3885e+07,0,0,0,0,0,0,0,0,1659,1438,1632,1474,1531,1583
37939,7.3895e+07,0,0,0,0,0,0,0,0,1649,1452,1609,1503,1490,1619
37983,7.3906e+07,0,0,0,0,0,0,0,0,1627,1481,1607,1505,1459,1644
38029,7.3916e+07,0,0,0,0,0,0,0,0,1631,1477,1637,1468,1500,1611
38077,7.3927e+07,0,0,0,0,0,0,0,0,1669,1425,1611,1501,1516,1598
38121,7.3937e+07,0,0,0,0,0,0,0,0,1666,1430,1631,1477,1534,1582
38166,7.3947e+07,0,0,0,0,0,0,0,0,1665,1431,1656,1444,1562,1555
38210,7.3958e+07,0,0,0,0,0,0,0,0,1679,1412,1635,1472,1554,1564
38254,7.3969e+07,0,0,0,0,0,0,0,0,1683,1406,1637,1470,1559,1558
38298,7.398e+07,0,0,0,0,0,0,0,0,1639,1468,1628,1481,1496,1616
38344,7.399e+07,0,0,0,0,0,0,0,0,1643,1462,1620,1491,1490,1621
38389,7.4001e+07,0,0,0,0,0,0,0,0,1627,1482,1603,1510,1448,1653
38434,7.4012e+07,0,0,0,0,0,0,0,0,1616,1495,1581,1534,1403,1683
38479,7.4022e+07,0,0,0,0,0,0,0,0,1620,1489,1601,1512,1436,1660
38527,7.4033e+07,0,0,0,0,0,0,0,0,1622,1486,1609,1501,1450,1650
38571,7.4043e+07,0,0,0,0,0,0,0,0,1660,1435,1616,1492,1506,1604
38615,7.4054e+07,0,0,0,0,0,0,0,0,1666,1426,1627,1477,1526,1585
38661,7.4065e+07,0,0,0,0,0,0,0,0,1659,1434,1643,1456,1537,1574
38707,7.4079e+07,0,0,0,0,0,0,0,0,1629,1471,1598,1509,1446,1648
38748,7.4091e+07,0,0,0,0,0,0,0,0,1684,1393,1605,1500,1525,1583
38793,7.4101e+07,0,0,0,0,0,0,0,0,1711,1348,1621,1480,1575,1533
38838,7.4112e+07,0,0,0,0,0,0,0,0,1695,1376,1618,1485,1552,1557
38882,7.4122e+07,0,0,0,0,0,0,0,0,1692,1381,1610,1494,1540,1569
38927,7.4132e+07,0,0,0,0,0,0,0,0,1667,1419,1609,1495,1507,1599
38975,7.4143e+07,0,0,0,0,0,0,0,0,1648,1447,1597,1510,1468,1632
39019,7.4153e+07,0,0,0,0,0,0,0,0,1638,1460,1593,1515,1450,1646
39064,7.4164e+07,0,0,0,0,0,0,0,0,1645,1452,1581,1530,1443,1652
39109,7.4174e+07,0,0,0,0,0,0,0,0,1656,1440,1572,1541,1445,1652
39155,7.4184e+07,0,0,0,0,0,0,0,0,1661,1435,1622,1486,1510,1601
39199,7.4195e+07,0,0,0,0,0,0,0,0,1691,1391,1616,1495,1539,1577
39244,7.4206e+07,0,0,0,0,0,0,0,0,1705,1370,1607,1506,1546,1570
39288,7.4216e+07,0,0,0,0,0,0,0,0,1697,1384,1635,1473,1566,1552
39333,7.4226e+07,0,0,0,0,0,0,0,0,1705,1371,1603,1512,1540,1577
39379,7.4237e+07,0,0,0,0,0,0,0,0,1696,1386,1594,1523,1518,1598
39430,7.4247e+07,0,0,0,0,0,0,0,0,1660,1440,1605,1510,1483,1627
39474,7.4257e+07,0,0,0,0,0,0,0,0,1645,1459,1583,1532,1437,1661
39518,7.4269e+07,0,0,0,0,0,0,0,0,1668,1426,1594,1520,1479,1628
39560,7.428e+07,0,0,0,0,0,0,0,0,1687,1396,1631,1475,1546,1569
39607,7.4294e+07,0,0,0,0,0,0,0,0,1646,1452,1608,1499,1468,1634
39652,7.4305e+07,0,0,0,0,0,0,0,0,1655,1437,1609,1496,1481,1622
39698,7.4316e+07,0,0,0,0,0,0,0,0,1652,1440,1602,1504,1468,1631
39742,7.4326e+07,0,0,0,0,0,0,0,0,1687,1386,1586,1520,1494,1608
39787,7.4336e+07,0,0,0,0,0,0,0,0,1696,1370,1630,1466,1555,1551
39835,7.4347e+07,0,0,0,0,0,0,0,0,1702,1357,1629,1465,1561,1543
39881,7.4357e+07,0,0,0,0,0,0,0,0,1699,1360,1620,1475,1548,1555
39926,7.4368e+07,0,0,0,0,0,0,0,0,1698,1360,1633,1458,1560,1541
39970,7.4379e+07,0,0,0,0,0,0,0,0,1705,1347,1631,1458,1566,1534
40015,7.439e+07,0,0,0,0,0,0,0,0,1703,1348,1596,1500,1526,1572
40060,7.4401e+07,0,0,0,0,0,0,0,0,1687,1373,1581,1515,1489,1604
40105,7.4411e+07,0,0,0,0,0,0,0,0,1673,1396,1570,1527,1455,1631
40149,7.4422e+07,0,0,0,0,0,0,0,0,1634,1451,1580,1516,1413,1660
40195,7.4431e+07,0,0,0,0,0,0,0,0,1612,1478,1583,1512,1386,1678
40240,7.4442e+07,0,0,0,0,0,0,0,0,1618,1472,1609,1483,1429,1650
40293,7.4459e+07,0,0,0,0,0,0,0,0,1629,1461,1623,1469,1460,1629
40336,7.447e+07,0,0,0,0,0,0,0,0,1629,1463,1589,1511,1415,1664
40381,7.448e+07,0,0,0,0,0,0,0,0,1627,1468,1597,1505,1420,1663
40425,7.4491e+07,0,0,0,0,0,0,0,0,1664,1421,1597,1507,1470,1628
40470,7.4502e+07,0,0,0,0,0,0,0,0,1707,1358,1587,1522,1512,1596
40514,7.4513e+07,0,0,0,0,0,0,0,0,1719,1341,1622,1486,1564,1550
40559,7.4524e+07,0,0,0,0,0,0,0,0,1733,1320,1640,1466,1599,1516
40604,7.4534e+07,0,0,0,0,0,0,0,0,1694,1393,1649,1459,1561,1560
40650,7.4545e+07,0,0,0,0,0,0,0,0,1712,1368,1638,1477,1568,1557
40695,7.4555e+07,0,0,0,0,0,0,0,0,1732,1337,1630,1490,1582,1545
40743,7.4565e+07,0,0,0,0,0,0,0,0,1709,1383,1623,1502,1544,1586
40787,7.4576e+07,0,0,0,0,0,0,0,0,1679,1433,1603,1529,1481,1643
40831,7.4586e+07,0,0,0,0,0,0,0,0,1656,1469,1595,1542,1437,1679
40876,7.4597e+07,0,0,0,0,0,0,0,0,1622,1514,1593,1547,1385,1715
40925,7.461e+07,0,0,0,0,0,0,0,0,1729,1365,1643,1492,1585,1557
40970,7.4622e+07,0,0,0,0,0,0,0,0,1700,1414,1661,1469,1570,1574
41015,7.4632e+07,0,0,0,0,0,0,0,0,1668,1460,1642,1493,1509,1629
41060,7.4643e+07,0,0,0,0,0,0,0,0,1699,1415,1615,1526,1517,1623
41104,7.4653e+07,0,0,0,0,0,0,0,0,1704,1406,1607,1533,1515,1624
41149,7.4663e+07,0,0,0,0,0,0,0,0,1675,1448,1609,1531,1479,1652
41199,7.4677e+07,0,0,0,0,0,0,0,0,1712,1390,1657,1472,1581,1560
41240,7.4688e+07,0,0,0,0,0,0,0,0,1688,1426,1637,1496,1530,1607
41284,7.4699e+07,0,0,0,0,0,0,0,0,1668,1453,1634,1497,1502,1630
41325,7.4714e+07,0,0,0,0,0,0,0,0,1711,1385,1638,1490,1562,1574
41370,7.4725e+07,0,0,0,0,0,0,0,0,1706,1391,1638,1488,1556,1578
41414,7.4735e+07,0,0,0,0,0,0,0,0,1681,1428,1641,1483,1530,1601
41461,7.4746e+07,0,0,0,0,0,0,0,0,1672,1439,1618,1509,1492,1632
41508,7.4756e+07,0,0,0,0,0,0,0,0,1656,1458,1628,1494,1486,1635
41553,7.4767e+07,0,0,0,0,0,0,0,0,1640,1477,1600,1525,1429,1676
41602,7.4778e+07,0,0,0,0,0,0,0,0,1658,1451,1576,1549,1425,1676
41646,7.4788e+07,0,0,0,0,0,0,0,0,1669,1435,1634,1482,1512,1609
41692,7.4799e+07,0,0,0,0,0,0,0,0,1682,1415,1633,1482,1527,1594
41738,7.4809e+07,0,0,0,0,0,0,0,0,1704,1378,1628,1486,1552,1570
41779,7.4821e+07,0,0,0,0,0,0,0,0,1692,1396,1635,1477,1546,1575
41821,7.4833e+07,0,0,0,0,0,0,0,0,1682,1412,1593,1526,1485,1629
41867,7.4843e+07,0,0,0,0,0,0,0,0,1682,1412,1587,1533,1478,1634
41911,7.4854e+07,0,0,0,0,0,0,0,0,1649,1457,1591,1526,1441,1661
41958,7.4865e+07,0,0,0,0,0,0,0,0,1656,1446,1610,1505,1474,1635
41999,7.488e+07,0,0,0,0,0,0,0,0,1638,1468,1596,1519,1435,1663
42048,7.4891e+07,0,0,0,0,0,0,0,0,1614,1497,1617,1494,1432,1665
42093,7.4902e+07,0,0,0,0,0,0,0,0,1581,1534,1603,1509,1368,1705
42137,7.4912e+07,0,0,0,0,0,0,0,0,1592,1521,1605,1507,1388,1692
42182,7.4923e+07,0,0,0,0,0,0,0,0,1644,1457,1611,1498,1468,1636
42221,7.4935e+07,0,0,0,0,0,0,0,0,1653,1445,1627,1478,1501,1609
42265,7.4945e+07,0,0,0,0,0,0,0,0,1657,1438,1620,1486,1500,1609
42313,7.4956e+07,0,0,0,0,0,0,0,0,1651,1445,1601,1508,1471,1632
42358,7.4966e+07,0,0,0,0,0,0,0,0,1643,1455,1635,1466,1503,1605
42402,7.4976e+07,0,0,0,0,0,0,0,0,1644,1453,1597,1511,1459,1639
42447,7.4985e+07,0,0,0,0,0,0,0,0,1647,1448,1605,1501,1475,1626
42496,7.4996e+07,0,0,0,0,0,0,0,0,1630,1469,1608,1496,1459,1638
42541,7.5007e+07,0,0,0,0,0,0,0,0,1622,1477,1578,1529,1411,1671
42586,7.5018e+07,0,0,0,0,0,0,0,0,1614,1485,1606,1495,1440,1650
42630,7.5028e+07,0,0,0,0,0,0,0,0,1659,1425,1608,1492,1501,1600
42672,7.5043e+07,0,0,0,0,0,0,0,0,1591,1511,1601,1498,1406,1671
42716,7.5054e+07,0,0,0,0,0,0,0,0,1624,1470,1566,1537,1406,1670
42763,7.5071e+07,0,0,0,0,0,0,0,0,1594,1505,1574,1526,1378,1687
42808,7.5081e+07,0,0,0,0,0,0,0,0,1595,1502,1598,1499,1414,1663
42853,7.5092e+07,0,0,0,0,0,0,0,0,1607,1488,1586,1512,1416,1661
42903,7.5102e+07,0,0,0,0,0,0,0,0,1627,1462,1568,1531,1422,1656
42947,7.5113e+07,0,0,0,0,0,0,0,0,1636,1450,1592,1504,1465,1624
42992,7.5124e+07,0,0,0,0,0,0,0,0,1659,1417,1614,1477,1521,1576
43036,7.5137e+07,0,0,0,0,0,0,0,0,1591,1503,1587,1508,1405,1667
43078,7.5149e+07,0,0,0,0,0,0,0,0,1607,1485,1576,1520,1413,1661
43123,7.516e+07,0,0,0,0,0,0,0,0,1604,1490,1565,1534,1394,1675
43168,7.5171e+07,0,0,0,0,0,0,0,0,1636,1450,1585,1511,1463,1625
43213,7.5181e+07,0,0,0,0,0,0,0,0,1655,1424,1609,1484,1517,1580
43259,7.5191e+07,0,0,0,0,0,0,0,0,1686,1377,1596,1499,1542,1557
43303,7.5202e+07,0,0,0,0,0,0,0,0,1655,1424,1618,1473,1531,1568
43352,7.5212e+07,0,0,0,0,0,0,0,0,1628,1460,1630,1458,1513,1584
43396,7.5222e+07,0,0,0,0,0,0,0,0,1628,1460,1600,1495,1479,1613
43441,7.5233e+07,0,0,0,0,0,0,0,0,1609,1484,1605,1489,1462,1626
43487,7.5244e+07,0,0,0,0,0,0,0,0,1603,1491,1578,1519,1422,1656
43534,7.5257e+07,0,0,0,0,0,0,0,0,1676,1393,1591,1505,1532,1566
43573,7.527e+07,0,0,0,0,0,0,0,0,1688,1373,1601,1492,1558,1540
43614,7.5281e+07,0,0,0,0,0,0,0,0,1636,1449,1572,1526,1462,1626
43661,7.5291e+07,0,0,0,0,0,0,0,0,1637,1447,1564,1534,1457,1630
43706,7.5301e+07,0,0,0,0,0,0,0,0,1653,1425,1564,1534,1480,1612
43752,7.5313e+07,0,0,0,0,0,0,0,0,1657,1420,1559,1539,1481,1611
43803,7.5323e+07,0,0,0,0,0,0,0,0,1654,1423,1585,1511,1508,1587
43847,7.5334e+07,0,0,0,0,0,0,0,0,1663,1411,1603,1489,1540,1557
43892,7.5344e+07,0,0,0,0,0,0,0,0,1694,1360,1623,1464,1600,1492
43937,7.5355e+07,0,0,0,0,0,0,0,0,1681,1379,1605,1486,1569,1526
43976,7.5367e+07,0,0,0,0,0,0,0,0,1589,1503,1592,1500,1445,1636
44020,7.5377e+07,0,0,0,0,0,0,0,0,1615,1471,1598,1491,1488,1601
44064,7.5388e+07,0,0,0,0,0,0,0,0,1656,1416,1557,1537,1492,1597
44109,7.5399e+07,0,0,0,0,0,0,0,0,1646,1431,1580,1512,1508,1584
44154,7.5409e+07,0,0,0,0,0,0,0,0,1651,1423,1606,1482,1545,1549
44198,7.5419e+07,0,0,0,0,0,0,0,0,1685,1373,1613,1474,1593,1499
44247,7.543e+07,0,0,0,0,0,0,0,0,1675,1391,1612,1478,1581,1514
44292,7.544e+07,0,0,0,0,0,0,0,0,1632,1454,1622,1467,1545,1553
44336,7.545e+07,0,0,0,0,0,0,0,0,1640,1446,1608,1486,1539,1561
44382,7.5461e+07,0,0,0,0,0,0,0,0,1666,1410,1591,1508,1552,1549
44428,7.5472e+07,0,0,0,0,0,0,0,0,1631,1461,1576,1525,1495,1603
44466,7.5485e+07,0,0,0,0,0,0,0,0,1617,1481,1597,1504,1502,1599
44508,7.5499e+07,0,0,0,0,0,0,0,0,1624,1474,1573,1533,1484,1615
44554,7.551e+07,0,0,0,0,0,0,0,0,1637,1459,1552,1555,1478,1622
44599,7.552e+07,0,0,0,0,0,0,0,0,1639,1457,1556,1552,1487,1616
44647,7.553e+07,0,0,0,0,0,0,0,0,1642,1454,1571,1536,1508,1597
