LineNo,TimeUS,C,Roll,Pitch,Yaw,VN,VE,VD,dPD,PN,PE,PD,GX,GY,GZ,OH
194,6.4897e+07,0,-0.52,-0.55,355.53,0.0014561,0.0034504,0.0084585,0.067395,-0.20011,0.77325,-0.53566,-0.02,0.02,-0.04,93.25
643,6.5007e+07,0,-0.51,-0.55,355.53,0.0022636,0.0064074,0.0099331,0.052908,-0.19727,0.77423,-0.53116,-0.02,0.02,-0.04,93.25
983,6.5091e+07,0,-0.51,-0.55,355.52,0.0026501,0.0062401,0.011288,0.046631,-0.19526,0.77392,-0.52626,-0.02,0.02,-0.04,93.25
1208,6.5224e+07,0,-0.51,-0.55,355.53,0.002125,0.0055202,-0.29812,-0.20627,-0.1932,0.77308,-0.53773,-0.01,0.02,-0.04,93.25
1577,6.5344e+07,0,-0.51,-0.55,355.53,0.0035421,0.0049854,-0.47965,-0.37747,-0.18921,0.77139,-0.57705,-0.01,0.02,-0.04,93.25
1623,6.5355e+07,0,-0.51,-0.55,355.53,0.0037375,0.00505,-0.47956,-0.37769,-0.18917,0.77144,-0.58184,-0.01,0.02,-0.04,93.25
1668,6.5365e+07,0,-0.51,-0.55,355.53,0.0042232,0.0048255,-0.47912,-0.37861,-0.18849,0.77116,-0.58565,-0.01,0.02,-0.04,93.25
1713,6.5375e+07,0,-0.51,-0.55,355.53,0.0046772,0.0047216,-0.47864,-0.37992,-0.18783,0.77089,-0.59005,-0.01,0.02,-0.04,93.25
1757,6.5385e+07,0,-0.51,-0.55,355.52,0.0050162,0.004669,-0.47869,-0.38247,-0.18719,0.77063,-0.59401,-0.01,0.02,-0.04,93.25
1806,6.5395e+07,0,-0.51,-0.55,355.52,0.0054678,0.0046255,-0.47849,-0.38473,-0.18658,0.77039,-0.59802,-0.01,0.02,-0.04,93.25
1850,6.5406e+07,0,-0.52,-0.55,355.52,0.0058855,0.0044242,-0.47821,-0.38808,-0.18597,0.77016,-0.60301,-0.01,0.02,-0.04,93.25
1895,6.5417e+07,0,-0.52,-0.55,355.52,0.005985,0.0044062,-0.47836,-0.39083,-0.18591,0.7702,-0.60778,-0.01,0.02,-0.04,93.25
1941,6.5427e+07,0,-0.52,-0.55,355.52,0.0063015,0.004382,-0.47818,-0.394,-0.18533,0.76998,-0.61185,-0.01,0.02,-0.04,93.25
1986,6.5437e+07,0,-0.52,-0.55,355.52,0.0066409,0.0043166,-0.47753,-0.39709,-0.18477,0.76977,-0.61632,-0.01,0.02,-0.04,93.25
2031,6.5448e+07,0,-0.52,-0.55,355.52,0.0069284,0.0041109,-0.47718,-0.3994,-0.18422,0.76957,-0.62083,-0.01,0.02,-0.04,93.25
2075,6.5458e+07,0,-0.52,-0.55,355.52,0.0071179,0.0039468,-0.47684,-0.40185,-0.1837,0.76938,-0.62489,-0.02,0.02,-0.04,93.25
2120,6.5468e+07,0,-0.52,-0.55,355.52,0.0072403,0.0040041,-0.47641,-0.40456,-0.1832,0.7692,-0.62898,-0.02,0.02,-0.04,93.25
2166,6.5485e+07,0,-0.52,-0.55,355.52,0.0075118,0.0040536,-0.47482,-0.39927,-0.18242,0.76901,-0.63331,-0.02,0.02,-0.04,93.25
2212,6.5495e+07,0,-0.52,-0.55,355.51,0.0077921,0.004192,-0.47354,-0.38423,-0.18173,0.7688,-0.63448,-0.02,0.02,-0.04,93.25
2261,6.5505e+07,0,-0.52,-0.55,355.51,0.0080272,0.0042611,-0.47206,-0.37007,-0.18105,0.76861,-0.63579,-0.02,0.02,-0.04,93.25
2305,6.5516e+07,0,-0.52,-0.55,355.51,0.0081274,0.0042523,-0.471,-0.34843,-0.18039,0.76843,-0.63771,-0.02,0.02,-0.04,93.25
2350,6.5526e+07,0,-0.52,-0.55,355.51,0.0081872,0.0042765,-0.47099,-0.32585,-0.18031,0.76848,-0.64242,-0.02,0.02,-0.04,93.25
2394,6.5536e+07,0,-0.52,-0.55,355.51,0.0083841,0.00427,-0.4699,-0.30565,-0.17969,0.76831,-0.64399,-0.02,0.02,-0.04,93.25
2439,6.5547e+07,0,-0.52,-0.55,355.51,0.0087447,0.0043884,-0.46859,-0.2907,-0.17908,0.76815,-0.64576,-0.02,0.02,-0.04,93.25
2486,6.5557e+07,0,-0.52,-0.55,355.51,0.0089834,0.0043943,-0.46736,-0.27325,-0.17849,0.76801,-0.64811,-0.02,0.02,-0.04,93.25
2532,6.5567e+07,0,-0.52,-0.55,355.5,0.0092368,0.0043047,-0.46617,-0.26024,-0.17793,0.76788,-0.65011,-0.02,0.02,-0.04,93.25
2578,6.5578e+07,0,-0.52,-0.55,355.5,0.0091952,0.0044263,-0.46544,-0.2467,-0.17738,0.76776,-0.6527,-0.02,0.02,-0.04,93.25
2622,6.5588e+07,0,-0.52,-0.55,355.5,0.0092595,0.0044228,-0.46514,-0.23516,-0.17729,0.7678,-0.65735,-0.02,0.02,-0.04,93.25
2667,6.5598e+07,0,-0.52,-0.55,355.5,0.0096868,0.0044552,-0.46404,-0.22757,-0.17677,0.76769,-0.65956,-0.02,0.02,-0.04,93.25
2715,6.5608e+07,0,-0.52,-0.55,355.5,0.010065,0.0043419,-0.46318,-0.22255,-0.17626,0.76759,-0.66186,-0.02,0.02,-0.04,93.25
2760,6.5619e+07,0,-0.52,-0.55,355.5,0.010306,0.0042621,-0.46257,-0.21856,-0.17576,0.76749,-0.66474,-0.02,0.02,-0.04,93.25
2806,6.563e+07,0,-0.52,-0.55,355.5,0.01045,0.0043707,-0.46187,-0.21839,-0.17529,0.7674,-0.66724,-0.02,0.02,-0.04,93.25
2850,6.564e+07,0,-0.52,-0.55,355.5,0.010457,0.0043816,-0.46103,-0.21986,-0.17483,0.76733,-0.66978,-0.02,0.02,-0.04,93.25
2896,6.565e+07,0,-0.52,-0.55,355.5,0.010745,0.0044403,-0.46024,-0.22125,-0.17438,0.76726,-0.67288,-0.02,0.02,-0.04,93.25
2942,6.5664e+07,0,-0.52,-0.56,355.5,0.010888,0.0038813,-0.45839,-0.2185,-0.17364,0.76694,-0.67394,-0.02,0.02,-0.04,93.25
2987,6.5678e+07,0,-0.52,-0.56,355.5,0.011037,0.0035852,-0.45606,-0.19862,-0.17293,0.76662,-0.67476,-0.02,0.02,-0.04,93.25
3035,6.5688e+07,0,-0.52,-0.55,355.5,0.011411,0.0033653,-0.45401,-0.18221,-0.17229,0.76631,-0.67441,-0.02,0.02,-0.04,93.25
3079,6.5698e+07,0,-0.52,-0.55,355.5,0.011574,0.0030817,-0.45228,-0.16466,-0.17166,0.76601,-0.67426,-0.02,0.02,-0.04,93.25
3131,6.5711e+07,0,-0.52,-0.55,355.5,0.011801,0.0026545,-0.45059,-0.13576,-0.17102,0.76573,-0.67565,-0.02,0.02,-0.04,93.25
3175,6.5721e+07,0,-0.52,-0.55,355.49,0.011965,0.0024119,-0.44886,-0.11726,-0.17043,0.76545,-0.67632,-0.02,0.02,-0.04,93.25
3221,6.5732e+07,0,-0.52,-0.55,355.49,0.012173,0.0025713,-0.44863,-0.10002,-0.17031,0.76548,-0.6808,-0.02,0.02,-0.04,93.25
3266,6.5742e+07,0,-0.52,-0.55,355.49,0.012507,0.0022768,-0.44694,-0.087556,-0.16974,0.76521,-0.68117,-0.02,0.02,-0.04,93.25
3310,6.5752e+07,0,-0.52,-0.55,355.49,0.012605,0.0021669,-0.44545,-0.078017,-0.16919,0.76495,-0.68171,-0.02,0.02,-0.04,93.25
3356,6.5762e+07,0,-0.52,-0.56,355.49,0.012614,0.0019772,-0.4439,-0.068664,-0.16865,0.7647,-0.68285,-0.02,0.02,-0.04,93.25
3401,6.5772e+07,0,-0.52,-0.56,355.49,0.01275,0.0018758,-0.44238,-0.06555,-0.16814,0.76446,-0.6837,-0.02,0.02,-0.04,93.25
3446,6.5783e+07,0,-0.52,-0.56,355.49,0.012787,0.0019477,-0.44273,-0.065708,-0.16801,0.76448,-0.68812,-0.02,0.02,-0.04,93.25
3491,6.5792e+07,0,-0.52,-0.56,355.48,0.012851,0.0018411,-0.44152,-0.068553,-0.16751,0.76425,-0.68909,-0.02,0.02,-0.04,93.25
3536,6.5803e+07,0,-0.52,-0.55,355.48,0.013016,0.0017314,-0.4407,-0.073,-0.16703,0.76402,-0.6902,-0.02,0.02,-0.04,93.25
3585,6.5812e+07,0,-0.52,-0.55,355.48,0.013248,0.0014469,-0.43937,-0.079787,-0.16656,0.76381,-0.69144,-0.02,0.02,-0.04,93.25
3629,6.5823e+07,0,-0.52,-0.55,355.48,0.013174,0.0012946,-0.43844,-0.087882,-0.16611,0.7636,-0.69282,-0.02,0.02,-0.04,93.25
3674,6.5833e+07,0,-0.52,-0.55,355.48,0.013321,0.0012263,-0.43682,-0.094476,-0.16566,0.7634,-0.69476,-0.02,0.02,-0.04,93.25
3718,6.5844e+07,0,-0.52,-0.55,355.48,0.013424,0.00095854,-0.43667,-0.10035,-0.16553,0.76341,-0.69912,-0.02,0.02,-0.04,93.25
3765,6.5854e+07,0,-0.52,-0.55,355.48,0.013522,0.00086104,-0.43568,-0.1087,-0.1651,0.76322,-0.70068,-0.02,0.02,-0.04,93.25
3811,6.5864e+07,0,-0.52,-0.55,355.48,0.013532,0.00066404,-0.43443,-0.11751,-0.16469,0.76303,-0.70235,-0.02,0.02,-0.04,93.25
3852,6.5877e+07,0,-0.52,-0.55,355.48,0.013899,0.00051851,-0.43207,-0.12306,-0.16391,0.76284,-0.70275,-0.02,0.02,-0.04,93.25
3896,6.5887e+07,0,-0.52,-0.56,355.48,0.014008,0.00051121,-0.43004,-0.12008,-0.16321,0.76266,-0.70163,-0.02,0.02,-0.04,93.25
3941,6.5898e+07,0,-0.52,-0.56,355.48,0.014452,0.00067157,-0.42845,-0.11044,-0.16253,0.76249,-0.70074,-0.02,0.02,-0.04,93.25
3987,6.5908e+07,0,-0.52,-0.56,355.48,0.014859,0.00076661,-0.42649,-0.098861,-0.16187,0.76233,-0.70007,-0.02,0.02,-0.04,93.25
4038,6.5918e+07,0,-0.52,-0.56,355.48,0.015253,0.0007228,-0.42482,-0.082101,-0.16122,0.76218,-0.70002,-0.02,0.02,-0.04,93.25
4082,6.5929e+07,0,-0.52,-0.56,355.48,0.015697,0.00077344,-0.42315,-0.06493,-0.16058,0.76204,-0.70018,-0.02,0.02,-0.04,93.25
4127,6.5939e+07,0,-0.52,-0.55,355.48,0.015776,0.00077223,-0.42327,-0.049888,-0.16043,0.76205,-0.7044,-0.02,0.02,-0.04,93.25
4171,6.5949e+07,0,-0.52,-0.55,355.48,0.016074,0.00090067,-0.42141,-0.039734,-0.15982,0.76192,-0.70429,-0.02,0.02,-0.04,93.25
4216,6.5959e+07,0,-0.52,-0.55,355.48,0.016443,0.0010127,-0.41978,-0.032907,-0.15923,0.7618,-0.70441,-0.02,0.02,-0.04,93.25
4263,6.5969e+07,0,-0.52,-0.55,355.48,0.016815,0.0011553,-0.41816,-0.029217,-0.15865,0.76169,-0.70469,-0.02,0.02,-0.04,93.25
4308,6.5979e+07,0,-0.52,-0.55,355.48,0.016925,0.001213,-0.41691,-0.030809,-0.15809,0.76159,-0.70513,-0.02,0.02,-0.04,93.25
4353,6.599e+07,0,-0.52,-0.55,355.48,0.01689,0.0013804,-0.41684,-0.030861,-0.15793,0.7616,-0.70929,-0.02,0.02,-0.04,93.25
4397,6.6e+07,0,-0.52,-0.55,355.48,0.016853,0.0013064,-0.41554,-0.035173,-0.15736,0.76151,-0.71027,-0.02,0.02,-0.04,93.25
4442,6.601e+07,0,-0.52,-0.56,355.48,0.016989,0.0013246,-0.41443,-0.040143,-0.15685,0.76142,-0.71057,-0.02,0.02,-0.04,93.25
4490,6.602e+07,0,-0.52,-0.56,355.48,0.017156,0.0013586,-0.41347,-0.048954,-0.15634,0.76134,-0.71143,-0.02,0.02,-0.04,93.25
4535,6.603e+07,0,-0.52,-0.56,355.48,0.017128,0.0015085,-0.41253,-0.057165,-0.15582,0.76127,-0.71284,-0.02,0.02,-0.04,93.25
4579,6.6041e+07,0,-0.51,-0.56,355.48,0.017236,0.001546,-0.4116,-0.068312,-0.15532,0.7612,-0.71437,-0.02,0.02,-0.04,93.25
4624,6.6051e+07,0,-0.51,-0.56,355.48,0.017349,0.0015368,-0.41154,-0.076987,-0.15515,0.76122,-0.71848,-0.02,0.02,-0.04,93.25
4668,6.6061e+07,0,-0.51,-0.56,355.48,0.017612,0.0015496,-0.41067,-0.087467,-0.15468,0.76116,-0.71959,-0.02,0.02,-0.04,93.25
4714,6.6074e+07,0,-0.51,-0.55,355.47,0.017849,0.0015815,-0.40997,-0.10147,-0.15416,0.76111,-0.72206,-0.02,0.02,-0.04,93.25
4757,6.6085e+07,0,-0.51,-0.55,355.47,0.017567,0.0016257,-0.40811,-0.10146,-0.15371,0.76094,-0.7209,-0.02,0.02,-0.04,93.25
4801,6.6095e+07,0,-0.51,-0.55,355.47,0.017306,0.0017554,-0.40612,-0.0966,-0.15329,0.76078,-0.71956,-0.02,0.02,-0.04,93.25
4847,6.6105e+07,0,-0.51,-0.55,355.47,0.017334,0.0018722,-0.40421,-0.088039,-0.15289,0.76064,-0.71843,-0.02,0.02,-0.04,93.25
4892,6.6116e+07,0,-0.51,-0.55,355.47,0.017098,0.0015687,-0.40247,-0.075941,-0.15251,0.7605,-0.71752,-0.02,0.02,-0.04,93.25
4940,6.6126e+07,0,-0.52,-0.56,355.47,0.01669,0.0013935,-0.40121,-0.064714,-0.15213,0.76037,-0.71721,-0.02,0.02,-0.04,93.25
4985,6.6137e+07,0,-0.52,-0.56,355.47,0.016668,0.0013689,-0.40113,-0.051807,-0.15196,0.76038,-0.72122,-0.02,0.02,-0.04,93.25
5029,6.6147e+07,0,-0.52,-0.56,355.48,0.016453,0.001762,-0.39969,-0.042839,-0.15162,0.76026,-0.72067,-0.02,0.02,-0.04,93.25
5073,6.6157e+07,0,-0.52,-0.56,355.48,0.016184,0.0018426,-0.39809,-0.03541,-0.15129,0.76015,-0.72029,-0.02,0.02,-0.04,93.25
5117,6.6167e+07,0,-0.51,-0.56,355.48,0.015827,0.0020171,-0.3966,-0.036957,-0.15095,0.76004,-0.72045,-0.02,0.02,-0.04,93.25
5162,6.6178e+07,0,-0.52,-0.56,355.48,0.015767,0.0019166,-0.39487,-0.035026,-0.15065,0.75994,-0.7204,-0.02,0.02,-0.04,93.25
5208,6.6188e+07,0,-0.51,-0.55,355.47,0.015565,0.0019412,-0.39346,-0.031724,-0.15035,0.75986,-0.72091,-0.02,0.02,-0.04,93.25
5252,6.6198e+07,0,-0.51,-0.55,355.47,0.015588,0.0020956,-0.39317,-0.028566,-0.15019,0.75988,-0.72484,-0.02,0.02,-0.04,93.25
5297,6.6208e+07,0,-0.51,-0.55,355.47,0.01546,0.0021589,-0.39187,-0.029645,-0.14992,0.75979,-0.72508,-0.02,0.02,-0.04,93.25
5341,6.6218e+07,0,-0.51,-0.55,355.47,0.015428,0.0021107,-0.39072,-0.03276,-0.14966,0.75972,-0.72548,-0.02,0.02,-0.04,93.25
5390,6.6228e+07,0,-0.51,-0.55,355.47,0.015165,0.0021044,-0.38937,-0.039081,-0.14941,0.75965,-0.72602,-0.02,0.02,-0.04,93.25
5435,6.6238e+07,0,-0.51,-0.55,355.47,0.014739,0.0019113,-0.38826,-0.046841,-0.14917,0.75958,-0.72669,-0.02,0.02,-0.04,93.25
5480,6.6249e+07,0,-0.51,-0.55,355.47,0.014533,0.0017613,-0.38756,-0.054229,-0.14893,0.75952,-0.7279,-0.02,0.02,-0.04,93.25
5524,6.6263e+07,0,-0.51,-0.56,355.47,0.014137,0.0016222,-0.3852,-0.057776,-0.14863,0.75915,-0.72799,-0.02,0.02,-0.04,93.25
5568,6.6273e+07,0,-0.51,-0.56,355.47,0.013629,0.0014163,-0.38342,-0.054206,-0.1484,0.7588,-0.72677,-0.02,0.02,-0.04,93.25
5613,6.6284e+07,0,-0.51,-0.56,355.47,0.013019,0.0011563,-0.38144,-0.048664,-0.14818,0.75845,-0.72612,-0.02,0.02,-0.04,93.25
5659,6.6294e+07,0,-0.51,-0.56,355.47,0.012825,0.0011572,-0.38149,-0.039159,-0.14803,0.75847,-0.73031,-0.02,0.02,-0.04,93.25
5703,6.6305e+07,0,-0.51,-0.55,355.47,0.012312,0.0008132,-0.37995,-0.033711,-0.14784,0.75813,-0.72945,-0.02,0.02,-0.04,93.25
5749,6.6315e+07,0,-0.51,-0.55,355.47,0.011899,0.00049494,-0.37825,-0.029329,-0.14766,0.7578,-0.72914,-0.02,0.02,-0.04,93.25
5797,6.6325e+07,0,-0.51,-0.55,355.47,0.011252,0.00037054,-0.37679,-0.026047,-0.1475,0.75749,-0.72864,-0.02,0.02,-0.04,93.25
5842,6.6335e+07,0,-0.51,-0.55,355.47,0.010906,0.00011072,-0.37503,-0.0257,-0.14735,0.75718,-0.7283,-0.02,0.02,-0.04,93.25
5888,6.6345e+07,0,-0.51,-0.55,355.47,0.010915,0.00013585,-0.37493,-0.022566,-0.14724,0.75718,-0.73205,-0.02,0.02,-0.04,93.25
5933,6.6355e+07,0,-0.51,-0.55,355.47,0.010385,-0.00027023,-0.37321,-0.022163,-0.14711,0.75688,-0.73185,-0.02,0.02,-0.04,93.25
5981,6.6369e+07,0,-0.51,-0.55,355.47,0.0098164,-0.00066062,-0.37189,-0.025506,-0.14696,0.75659,-0.73293,-0.02,0.02,-0.04,93.25
6025,6.6379e+07,0,-0.51,-0.55,355.47,0.0094486,-0.00073682,-0.37034,-0.027971,-0.14685,0.7563,-0.73295,-0.02,0.02,-0.04,93.25
6070,6.6389e+07,0,-0.51,-0.55,355.47,0.0092092,-0.00099151,-0.36908,-0.033359,-0.14675,0.75603,-0.73311,-0.02,0.02,-0.04,93.25
6114,6.6399e+07,0,-0.51,-0.56,355.47,0.0087869,-0.0012301,-0.36783,-0.040569,-0.14666,0.75576,-0.73378,-0.02,0.02,-0.04,93.25
6160,6.6409e+07,0,-0.51,-0.55,355.46,0.008616,-0.0012627,-0.36779,-0.045184,-0.14657,0.75575,-0.73745,-0.02,0.02,-0.04,93.25
6205,6.6419e+07,0,-0.52,-0.55,355.46,0.0082023,-0.0013413,-0.36642,-0.051508,-0.1465,0.75548,-0.73787,-0.02,0.02,-0.04,93.25
6253,6.643e+07,0,-0.51,-0.55,355.46,0.0079156,-0.0015795,-0.36557,-0.058739,-0.14643,0.75523,-0.73843,-0.02,0.02,-0.04,93.25
6299,6.6439e+07,0,-0.51,-0.55,355.46,0.0075763,-0.0016897,-0.36455,-0.067781,-0.14638,0.75498,-0.73912,-0.02,0.02,-0.04,93.25
6343,6.645e+07,0,-0.51,-0.55,355.46,0.0071755,-0.0017983,-0.36366,-0.078561,-0.14632,0.75474,-0.74029,-0.02,0.02,-0.04,93.25
6390,6.646e+07,0,-0.51,-0.55,355.46,0.0071402,-0.0017124,-0.36369,-0.086307,-0.14625,0.75472,-0.74392,-0.02,0.02,-0.04,93.25
6429,6.6472e+07,0,-0.51,-0.55,355.46,0.0073246,-0.0016114,-0.36152,-0.086919,-0.14577,0.75455,-0.74293,-0.02,0.02,-0.04,93.25
6473,6.6482e+07,0,-0.51,-0.55,355.46,0.0073539,-0.0013896,-0.35981,-0.079988,-0.14532,0.7544,-0.74139,-0.02,0.02,-0.04,93.25
6518,6.6492e+07,0,-0.51,-0.55,355.46,0.0073248,-0.0013927,-0.3581,-0.070004,-0.14489,0.75425,-0.74006,-0.02,0.02,-0.04,93.25
6563,6.6502e+07,0,-0.51,-0.55,355.46,0.007384,-0.0014913,-0.35653,-0.059057,-0.14448,0.75411,-0.73893,-0.02,0.02,-0.04,93.25
6609,6.6513e+07,0,-0.51,-0.56,355.46,0.0074622,-0.0011849,-0.35484,-0.044106,-0.14407,0.75398,-0.73835,-0.02,0.02,-0.04,93.25
6654,6.6523e+07,0,-0.51,-0.56,355.46,0.0072557,-0.0011636,-0.3535,-0.035623,-0.14369,0.75386,-0.7376,-0.02,0.02,-0.04,93.25
6702,6.6533e+07,0,-0.51,-0.56,355.46,0.0071392,-0.0012335,-0.35365,-0.024791,-0.14362,0.75384,-0.74113,-0.02,0.02,-0.04,93.25
6747,6.6543e+07,0,-0.51,-0.55,355.46,0.0071558,-0.0011229,-0.35226,-0.017744,-0.14326,0.75373,-0.74054,-0.02,0.02,-0.04,93.25
6792,6.6553e+07,0,-0.51,-0.55,355.46,0.0073068,-0.00097439,-0.35082,-0.012589,-0.14291,0.75363,-0.74011,-0.02,0.02,-0.04,93.25
6836,6.6563e+07,0,-0.5,-0.55,355.46,0.0074257,-0.00086754,-0.34948,-0.011497,-0.14257,0.75353,-0.73984,-0.02,0.02,-0.04,93.25
6881,6.6574e+07,0,-0.51,-0.55,355.46,0.0075648,-0.00080285,-0.34805,-0.012744,-0.14223,0.75344,-0.73993,-0.02,0.02,-0.04,93.25
6925,6.6585e+07,0,-0.5,-0.55,355.46,0.0077572,-0.00065916,-0.3467,-0.012753,-0.1419,0.75336,-0.74019,-0.02,0.02,-0.04,93.25
6971,6.6596e+07,0,-0.51,-0.55,355.46,0.0078758,-0.00047122,-0.34673,-0.01228,-0.14183,0.75335,-0.74365,-0.02,0.02,-0.04,93.25
7016,6.6606e+07,0,-0.51,-0.55,355.46,0.0079193,-0.00047143,-0.34535,-0.014687,-0.14151,0.75328,-0.74369,-0.02,0.02,-0.04,93.25
7062,6.6616e+07,0,-0.51,-0.55,355.46,0.0079521,-0.00049797,-0.34427,-0.018715,-0.14122,0.75321,-0.74387,-0.02,0.02,-0.04,93.25
7107,6.6626e+07,0,-0.51,-0.56,355.46,0.0080114,-0.00043849,-0.34346,-0.023209,-0.14092,0.75315,-0.74454,-0.02,0.02,-0.04,93.25
7155,6.6636e+07,0,-0.51,-0.56,355.46,0.0080543,-0.00028195,-0.3424,-0.028895,-0.14064,0.75309,-0.745,-0.02,0.02,-0.04,93.25
7200,6.6646e+07,0,-0.51,-0.56,355.46,0.0080233,-7.4678e-06,-0.34165,-0.037874,-0.14037,0.75304,-0.74558,-0.02,0.02,-0.04,93.25
7245,6.6657e+07,0,-0.51,-0.56,355.46,0.0080247,-1.7009e-05,-0.34106,-0.046365,-0.1401,0.753,-0.74663,-0.02,0.02,-0.04,93.25
7292,6.6667e+07,0,-0.51,-0.56,355.46,0.00805,0.00011526,-0.34098,-0.05317,-0.14002,0.753,-0.75004,-0.02,0.02,-0.04,93.25
7330,6.6679e+07,0,-0.51,-0.56,355.46,0.0081716,-0.00013561,-0.33905,-0.054605,-0.13964,0.75258,-0.74906,-0.02,0.02,-0.04,93.25
7374,6.6689e+07,0,-0.51,-0.55,355.46,0.0079723,-0.00051813,-0.3372,-0.04737,-0.13929,0.75217,-0.74762,-0.02,0.02,-0.04,93.25
7421,6.67e+07,0,-0.51,-0.55,355.46,0.007743,-0.00066699,-0.3353,-0.041189,-0.13895,0.75177,-0.74669,-0.02,0.02,-0.04,93.25
7467,6.671e+07,0,-0.51,-0.55,355.46,0.0076276,-0.00080454,-0.33377,-0.034433,-0.13863,0.75139,-0.74561,-0.02,0.02,-0.04,93.25
7512,6.672e+07,0,-0.51,-0.55,355.46,0.0074107,-0.0011127,-0.33234,-0.029934,-0.13832,0.75101,-0.74471,-0.02,0.02,-0.04,93.25
7557,6.6731e+07,0,-0.51,-0.56,355.45,0.0070603,-0.0014457,-0.33098,-0.0215,-0.13803,0.75065,-0.74432,-0.02,0.02,-0.04,93.25
7606,6.6742e+07,0,-0.51,-0.56,355.45,0.0071873,-0.0014675,-0.33064,-0.012465,-0.13796,0.75064,-0.74763,-0.02,0.02,-0.04,93.25
7650,6.6752e+07,0,-0.51,-0.56,355.45,0.0068094,-0.0020787,-0.32937,-0.0074489,-0.13769,0.75028,-0.74705,-0.02,0.02,-0.04,93.25
7695,6.6762e+07,0,-0.51,-0.55,355.45,0.0065538,-0.0027877,-0.32777,-0.0019079,-0.13742,0.74993,-0.74698,-0.02,0.02,-0.04,93.25
7741,6.6772e+07,0,-0.5,-0.55,355.45,0.0058752,-0.0037099,-0.32724,-0.00029272,-0.13718,0.74959,-0.74672,-0.02,0.02,-0.04,93.25
7786,6.6783e+07,0,-0.5,-0.55,355.45,0.0053643,-0.0047078,-0.32566,-0.00078228,-0.13693,0.74927,-0.74675,-0.02,0.02,-0.04,93.25
7830,6.6793e+07,0,-0.5,-0.56,355.45,0.0062872,-0.0042704,-0.32286,-0.0024807,-0.13672,0.74895,-0.74628,-0.02,0.02,-0.04,93.25
7875,6.6803e+07,0,-0.5,-0.56,355.45,0.0065977,-0.0047144,-0.32215,-0.003155,-0.13665,0.74892,-0.74984,-0.02,0.02,-0.04,93.25
7920,6.6813e+07,0,-0.5,-0.56,355.45,0.0065038,-0.0040972,-0.32228,-0.0090726,-0.13643,0.74861,-0.74981,-0.02,0.02,-0.04,93.25
7964,6.6823e+07,0,-0.5,-0.55,355.45,0.0057076,-0.0031938,-0.32132,-0.01454,-0.13623,0.74831,-0.74992,-0.02,0.02,-0.04,93.25
8010,6.6833e+07,0,-0.51,-0.56,355.45,0.0048724,-0.0037232,-0.3202,-0.022078,-0.13604,0.74801,-0.75015,-0.02,0.02,-0.04,93.25
8060,6.6844e+07,0,-0.5,-0.56,355.45,0.0039937,-0.0046105,-0.31935,-0.031647,-0.13585,0.74773,-0.75082,-0.02,0.02,-0.04,93.25
8108,6.6855e+07,0,-0.5,-0.56,355.44,0.003998,-0.0044279,-0.31905,-0.038152,-0.13579,0.74769,-0.75401,-0.02,0.02,-0.04,93.25
8147,6.6866e+07,0,-0.5,-0.55,355.44,0.0050239,-0.0050663,-0.31681,-0.038352,-0.1352,0.7471,-0.75264,-0.02,0.02,-0.04,93.25
8191,6.6876e+07,0,-0.5,-0.55,355.43,0.00588,-0.0044106,-0.31617,-0.030984,-0.13463,0.74653,-0.75085,-0.02,0.02,-0.04,93.25
8236,6.6886e+07,0,-0.52,-0.55,355.43,0.0064851,-0.0041734,-0.31523,-0.022969,-0.13408,0.74598,-0.7491,-0.02,0.02,-0.04,93.25
8281,6.6896e+07,0,-0.52,-0.55,355.42,0.0069565,-0.0055746,-0.31279,-0.012033,-0.13355,0.74544,-0.74755,-0.02,0.02,-0.04,93.25
8327,6.6906e+07,0,-0.51,-0.56,355.42,0.0077519,-0.0066707,-0.31031,-0.0034365,-0.13303,0.74492,-0.74618,-0.02,0.02,-0.04,93.25
8372,6.6916e+07,0,-0.5,-0.56,355.42,0.0081763,-0.0065795,-0.3099,0.008499,-0.13295,0.74486,-0.74929,-0.02,0.02,-0.04,93.25
8416,6.6926e+07,0,-0.51,-0.56,355.42,0.0082817,-0.0061372,-0.30904,0.016364,-0.13246,0.74434,-0.74808,-0.02,0.02,-0.04,93.25
8461,6.6936e+07,0,-0.51,-0.55,355.43,0.0084077,-0.0057724,-0.30772,0.023311,-0.13198,0.74384,-0.74704,-0.02,0.02,-0.04,93.25
8511,6.6947e+07,0,-0.51,-0.56,355.44,0.0086677,-0.0062778,-0.30538,0.027567,-0.1315,0.74336,-0.74617,-0.02,0.02,-0.04,93.25
8557,6.6957e+07,0,-0.5,-0.55,355.44,0.0074973,-0.0075114,-0.30312,0.029841,-0.13104,0.74288,-0.74576,-0.02,0.02,-0.04,93.25
8602,6.6968e+07,0,-0.49,-0.55,355.44,0.0068968,-0.009043,-0.30341,0.030158,-0.13061,0.74241,-0.74552,-0.02,0.02,-0.04,93.25
8647,6.6978e+07,0,-0.49,-0.55,355.44,0.0089162,-0.0074847,-0.30344,0.032073,-0.13053,0.74233,-0.74855,-0.02,0.02,-0.04,93.25
8691,6.6989e+07,0,-0.49,-0.55,355.44,0.0095017,-0.0069937,-0.30267,0.030384,-0.13009,0.74186,-0.74828,-0.02,0.02,-0.04,93.25
8736,6.6999e+07,0,-0.5,-0.55,355.43,0.0082653,-0.0081291,-0.30162,0.026784,-0.12968,0.74141,-0.74785,-0.02,0.02,-0.04,93.25
8780,6.7009e+07,0,-0.5,-0.55,355.44,0.0079932,-0.0083979,-0.30025,0.022625,-0.12929,0.74097,-0.74758,-0.02,0.02,-0.04,93.25
8825,6.702e+07,0,-0.5,-0.55,355.43,0.0082947,-0.0070628,-0.29821,0.019426,-0.12891,0.74054,-0.74744,-0.02,0.02,-0.04,93.25
8870,6.703e+07,0,-0.48,-0.55,355.42,0.0084323,-0.0077236,-0.29662,0.014215,-0.12855,0.74014,-0.74743,-0.02,0.02,-0.04,93.25
8916,6.704e+07,0,-0.48,-0.56,355.42,0.010492,-0.010655,-0.29675,0.0077412,-0.12817,0.73972,-0.74786,-0.02,0.02,-0.04,93.25
8965,6.7051e+07,0,-0.49,-0.56,355.41,0.0093539,-0.012021,-0.29477,0.0029757,-0.12781,0.7393,-0.74842,-0.02,0.02,-0.04,93.25
9011,6.7061e+07,0,-0.49,-0.57,355.42,0.0080061,-0.0090118,-0.29544,-0.0039812,-0.12748,0.7389,-0.74881,-0.02,0.02,-0.04,93.25
9056,6.7078e+07,0,-0.47,-0.55,355.41,0.0088892,-0.010259,-0.29194,-0.0040961,-0.1271,0.73851,-0.74887,-0.02,0.02,-0.04,93.25
9100,6.7088e+07,0,-0.47,-0.57,355.42,0.011917,-0.011919,-0.29261,-1.5358e-06,-0.12676,0.73815,-0.74703,-0.02,0.02,-0.04,93.25
9145,6.7099e+07,0,-0.48,-0.56,355.42,0.00828,-0.011733,-0.28855,0.0082819,-0.12645,0.73778,-0.74536,-0.02,0.02,-0.04,93.25
9190,6.7109e+07,0,-0.47,-0.57,355.43,0.0070869,-0.0079209,-0.29144,0.010485,-0.12618,0.73745,-0.74388,-0.02,0.02,-0.04,93.25
9235,6.7119e+07,0,-0.45,-0.54,355.44,0.0085113,-0.0072902,-0.28324,0.027963,-0.12591,0.73716,-0.74288,-0.02,0.02,-0.04,93.25
9280,6.713e+07,0,-0.45,-0.57,355.42,0.01373,-0.013215,-0.28563,0.035143,-0.12562,0.73683,-0.74203,-0.02,0.02,-0.04,93.25
9326,6.714e+07,0,-0.47,-0.55,355.44,0.0082805,-0.013349,-0.28315,0.047273,-0.12552,0.7367,-0.74489,-0.02,0.02,-0.04,93.25
9370,6.715e+07,0,-0.47,-0.56,355.43,0.0046477,-0.011002,-0.28342,0.050939,-0.1253,0.73638,-0.74389,-0.02,0.02,-0.04,93.25
9419,6.716e+07,0,-0.47,-0.54,355.45,0.007211,-0.0076171,-0.27981,0.056152,-0.1251,0.73611,-0.74308,-0.02,0.02,-0.04,93.25
9463,6.7171e+07,0,-0.46,-0.56,355.42,0.013616,-0.015304,-0.28064,0.057084,-0.12484,0.7358,-0.74296,-0.02,0.02,-0.04,93.25
9509,6.7181e+07,0,-0.48,-0.55,355.43,0.0080949,-0.014993,-0.27874,0.055527,-0.12461,0.73549,-0.74247,-0.02,0.02,-0.04,93.25
9556,6.7194e+07,0,-0.48,-0.57,355.42,0.0030718,-0.0092137,-0.27997,0.047998,-0.12444,0.73517,-0.7426,-0.02,0.02,-0.04,93.25
9601,6.7204e+07,0,-0.5,-0.58,355.42,0.010753,-0.010316,-0.27521,0.044566,-0.12428,0.73493,-0.74205,-0.02,0.02,-0.04,93.25
9646,6.7214e+07,0,-0.48,-0.57,355.41,0.011803,-0.015216,-0.27884,0.036779,-0.12417,0.7348,-0.74481,-0.02,0.02,-0.04,93.25
9690,6.7225e+07,0,-0.5,-0.6,355.4,0.005312,-0.015541,-0.27553,0.033081,-0.12399,0.73451,-0.74439,-0.02,0.02,-0.04,93.25
9735,6.7235e+07,0,-0.49,-0.57,355.42,-0.001574,-0.008717,-0.27441,0.025059,-0.12387,0.73424,-0.74436,-0.02,0.02,-0.04,93.25
9781,6.7245e+07,0,-0.51,-0.59,355.41,0.0064961,-0.010414,-0.27212,0.018767,-0.12373,0.73402,-0.74417,-0.02,0.02,-0.04,93.25
9830,6.7255e+07,0,-0.48,-0.56,355.41,0.0066687,-0.013079,-0.27613,0.0052051,-0.12363,0.73391,-0.74691,-0.02,0.02,-0.04,93.25
9875,6.7265e+07,0,-0.5,-0.59,355.4,-0.00077899,-0.013745,-0.27068,-0.00015643,-0.12347,0.73364,-0.74681,-0.02,0.02,-0.04,93.25
9915,6.7277e+07,0,-0.48,-0.52,355.44,-0.00055001,-0.0071019,-0.27024,-0.0056393,-0.12314,0.73329,-0.74538,-0.02,0.02,-0.04,93.25
9959,6.7287e+07,0,-0.47,-0.56,355.42,0.010378,-0.0098025,-0.26789,-0.0025458,-0.12277,0.73298,-0.74358,-0.02,0.02,-0.04,93.25
10004,6.7297e+07,0,-0.46,-0.52,355.43,0.008301,-0.012992,-0.27118,-0.0070705,-0.12267,0.73286,-0.7463,-0.02,0.02,-0.04,93.25
10050,6.7307e+07,0,-0.47,-0.58,355.42,0.0010419,-0.012655,-0.26483,-0.00024345,-0.12232,0.73252,-0.74438,-0.02,0.02,-0.04,93.25
10095,6.7318e+07,0,-0.46,-0.52,355.44,0.0022915,-0.0095824,-0.26468,0.0037352,-0.12204,0.73222,-0.74268,-0.02,0.02,-0.04,93.25
10139,6.7328e+07,0,-0.44,-0.57,355.42,0.013099,-0.012249,-0.26351,0.0081924,-0.1217,0.73194,-0.74112,-0.02,0.02,-0.03,93.25
10186,6.7338e+07,0,-0.46,-0.54,355.42,0.010134,-0.015413,-0.26332,0.01248,-0.12134,0.73162,-0.73979,-0.02,0.02,-0.04,93.25
10231,6.7348e+07,0,-0.47,-0.58,355.42,0.00098975,-0.011319,-0.26316,0.020474,-0.12105,0.7313,-0.73885,-0.02,0.02,-0.04,93.25
10280,6.7359e+07,0,-0.48,-0.56,355.42,0.0062223,-0.010443,-0.25806,0.034659,-0.12106,0.7312,-0.74146,-0.02,0.02,-0.04,93.25
10325,6.7369e+07,0,-0.45,-0.56,355.42,0.012375,-0.012466,-0.26436,0.033116,-0.12073,0.7309,-0.74067,-0.02,0.02,-0.04,93.25
10370,6.7379e+07,0,-0.48,-0.6,355.4,0.0073744,-0.013188,-0.25561,0.043188,-0.12042,0.73061,-0.73977,-0.02,0.02,-0.04,93.25
10414,6.7389e+07,0,-0.46,-0.55,355.42,-0.0019341,-0.0086118,-0.2611,0.037534,-0.1202,0.73035,-0.73902,-0.02,0.02,-0.04,93.25
10459,6.74e+07,0,-0.48,-0.59,355.41,0.0073477,-0.011395,-0.25193,0.046295,-0.11999,0.73011,-0.73842,-0.02,0.02,-0.04,93.25
10504,6.741e+07,0,-0.46,-0.54,355.41,0.0086926,-0.016164,-0.25824,0.036723,-0.1197,0.72983,-0.73824,-0.02,0.02,-0.03,93.25
10548,6.742e+07,0,-0.48,-0.61,355.41,0.0012373,-0.014744,-0.25209,0.041211,-0.11963,0.72969,-0.74078,-0.02,0.02,-0.03,93.25
10593,6.743e+07,0,-0.47,-0.53,355.43,-0.0034151,-0.010154,-0.2531,0.034964,-0.11947,0.72946,-0.74046,-0.02,0.02,-0.03,93.25
10637,6.7441e+07,0,-0.47,-0.58,355.42,0.0088395,-0.012473,-0.25383,0.026304,-0.11926,0.72924,-0.74046,-0.02,0.02,-0.03,93.25
10684,6.7451e+07,0,-0.49,-0.55,355.42,0.0089621,-0.014273,-0.25101,0.021142,-0.11902,0.729,-0.74039,-0.02,0.02,-0.03,93.25
10732,6.7462e+07,0,-0.47,-0.58,355.43,-0.001191,-0.0085891,-0.25458,0.012043,-0.11864,0.72836,-0.73853,-0.02,0.02,-0.04,93.25
10776,6.7473e+07,0,-0.48,-0.57,355.43,0.0027671,-0.0086019,-0.24479,0.023479,-0.11834,0.7278,-0.73664,-0.02,0.02,-0.04,93.25
10818,6.7484e+07,0,-0.43,-0.56,355.43,0.0085024,-0.015089,-0.25207,0.023785,-0.11798,0.72721,-0.73518,-0.02,0.02,-0.04,93.25
10863,6.7494e+07,0,-0.46,-0.61,355.41,0.003284,-0.017091,-0.24129,0.040591,-0.11762,0.72662,-0.73367,-0.02,0.02,-0.04,93.25
10911,6.7507e+07,0,-0.48,-0.53,355.43,-0.0014466,-0.010308,-0.24288,0.053446,-0.11739,0.72603,-0.73308,-0.02,0.02,-0.04,93.25
10956,6.7517e+07,0,-0.47,-0.57,355.41,0.0085699,-0.013625,-0.2454,0.058831,-0.11711,0.72551,-0.73166,-0.02,0.02,-0.04,93.25
11000,6.7528e+07,0,-0.49,-0.57,355.41,0.0069735,-0.01504,-0.24213,0.067402,-0.11679,0.72494,-0.73069,-0.02,0.02,-0.04,93.25
11045,6.7539e+07,0,-0.47,-0.57,355.41,-0.0038428,-0.011032,-0.24545,0.070234,-0.11678,0.72478,-0.73308,-0.02,0.02,-0.04,93.25
11089,6.7549e+07,0,-0.49,-0.57,355.41,0.00074935,-0.012494,-0.23725,0.07981,-0.11659,0.72428,-0.73197,-0.02,0.02,-0.04,93.25
11134,6.7559e+07,0,-0.44,-0.55,355.41,0.0075742,-0.017308,-0.24261,0.073997,-0.11633,0.72378,-0.731,-0.02,0.02,-0.04,93.25
11184,6.7569e+07,0,-0.47,-0.59,355.4,0.0038561,-0.019527,-0.23437,0.0784,-0.11606,0.72326,-0.73018,-0.02,0.02,-0.04,93.25
11228,6.7579e+07,0,-0.47,-0.54,355.43,-0.005401,-0.015492,-0.23669,0.069892,-0.11588,0.72276,-0.72971,-0.02,0.02,-0.04,93.25
11274,6.7589e+07,0,-0.48,-0.57,355.42,0.0039667,-0.01803,-0.23126,0.071729,-0.11588,0.72262,-0.73205,-0.02,0.02,-0.04,93.25
11318,6.7599e+07,0,-0.47,-0.54,355.43,0.0075716,-0.02198,-0.23599,0.060236,-0.11563,0.72213,-0.73148,-0.02,0.02,-0.04,93.25
11366,6.7612e+07,0,-0.48,-0.57,355.42,-0.001854,-0.013032,-0.23571,0.048044,-0.1154,0.72158,-0.73144,-0.02,0.02,-0.03,93.25
11411,6.7622e+07,0,-0.48,-0.56,355.43,-2.206e-05,-0.011647,-0.23117,0.042446,-0.11527,0.72114,-0.73086,-0.02,0.02,-0.03,93.25
11455,6.7633e+07,0,-0.43,-0.55,355.43,0.0076188,-0.015243,-0.23788,0.027192,-0.11523,0.72099,-0.73316,-0.02,0.02,-0.03,93.25
11501,6.7643e+07,0,-0.46,-0.58,355.42,0.0058809,-0.018817,-0.23014,0.025564,-0.115,0.72051,-0.73269,-0.02,0.02,-0.03,93.25
11545,6.7653e+07,0,-0.44,-0.55,355.43,-0.004178,-0.016196,-0.23325,0.013968,-0.11485,0.72005,-0.73231,-0.02,0.02,-0.03,93.25
11592,6.7663e+07,0,-0.45,-0.58,355.42,0.0017109,-0.018626,-0.22482,0.015376,-0.11473,0.71964,-0.73206,-0.02,0.02,-0.03,93.25
11635,6.7675e+07,0,-0.46,-0.54,355.42,0.0078879,-0.024559,-0.22721,0.0095757,-0.11423,0.71916,-0.73077,-0.02,0.02,-0.03,93.25
11681,6.7685e+07,0,-0.49,-0.59,355.4,0.00016634,-0.022031,-0.22339,0.015657,-0.11378,0.71871,-0.72918,-0.02,0.02,-0.03,93.25
11725,6.7695e+07,0,-0.5,-0.55,355.42,-0.0032492,-0.015885,-0.22293,0.01963,-0.11342,0.71831,-0.72778,-0.02,0.02,-0.03,93.25
11771,6.7705e+07,0,-0.49,-0.56,355.41,0.0046396,-0.016633,-0.2245,0.021636,-0.11304,0.71792,-0.72631,-0.02,0.02,-0.03,93.25
11815,6.7716e+07,0,-0.49,-0.58,355.4,0.0053618,-0.019022,-0.22302,0.030605,-0.11261,0.71749,-0.72527,-0.02,0.02,-0.03,93.25
11860,6.7727e+07,0,-0.47,-0.55,355.41,-0.0050469,-0.016594,-0.22278,0.038714,-0.11227,0.71707,-0.72436,-0.02,0.02,-0.03,93.25
11904,6.7737e+07,0,-0.48,-0.57,355.4,0.0014241,-0.019634,-0.21666,0.051798,-0.112,0.7167,-0.7236,-0.02,0.02,-0.03,93.25
11949,6.7748e+07,0,-0.46,-0.54,355.42,0.0082911,-0.023478,-0.22061,0.054319,-0.11196,0.71651,-0.7258,-0.02,0.02,-0.03,93.25
11994,6.7758e+07,0,-0.48,-0.59,355.4,0.0035307,-0.023504,-0.21592,0.060663,-0.1116,0.71612,-0.72494,-0.02,0.02,-0.03,93.25
12038,6.7768e+07,0,-0.49,-0.55,355.42,-0.0040339,-0.017197,-0.2146,0.060488,-0.11135,0.71576,-0.72443,-0.02,0.02,-0.03,93.25
12088,6.7778e+07,0,-0.47,-0.55,355.42,0.0031741,-0.017737,-0.21494,0.057017,-0.11109,0.71543,-0.72381,-0.02,0.02,-0.03,93.25
12132,6.7788e+07,0,-0.47,-0.56,355.41,0.0060966,-0.021503,-0.21424,0.051722,-0.11077,0.71509,-0.72333,-0.02,0.02,-0.03,93.25
12177,6.7799e+07,0,-0.46,-0.57,355.41,-0.0043214,-0.018255,-0.21464,0.047665,-0.11075,0.71487,-0.72547,-0.02,0.02,-0.03,93.25
12222,6.7808e+07,0,-0.46,-0.57,355.41,-0.0058886,-0.016199,-0.21143,0.04438,-0.11054,0.71456,-0.72508,-0.02,0.02,-0.03,93.25
12268,6.7819e+07,0,-0.44,-0.53,355.42,0.0041098,-0.019991,-0.21488,0.032812,-0.1103,0.71423,-0.72473,-0.02,0.02,-0.03,93.25
12315,6.783e+07,0,-0.46,-0.57,355.4,0.0042926,-0.024247,-0.2114,0.028003,-0.11,0.71389,-0.72429,-0.02,0.02,-0.03,93.25
12359,6.784e+07,0,-0.47,-0.54,355.41,-0.0048987,-0.019914,-0.21201,0.019481,-0.10979,0.71356,-0.72397,-0.02,0.02,-0.03,93.25
12403,6.785e+07,0,-0.47,-0.56,355.4,0.0023626,-0.01894,-0.20886,0.016199,-0.10962,0.71325,-0.72396,-0.02,0.02,-0.03,93.25
12447,6.7861e+07,0,-0.47,-0.55,355.41,0.0099148,-0.022558,-0.20924,0.010146,-0.10938,0.71293,-0.72408,-0.02,0.02,-0.03,93.25
12496,6.7871e+07,0,-0.47,-0.58,355.39,0.0023347,-0.0211,-0.20855,0.0067166,-0.10933,0.7127,-0.72616,-0.02,0.02,-0.03,93.25
12541,6.7883e+07,0,-0.48,-0.56,355.4,-0.004669,-0.016885,-0.20409,0.010561,-0.10863,0.71219,-0.72427,-0.02,0.02,-0.03,93.25
12582,6.7893e+07,0,-0.46,-0.54,355.4,0.0035817,-0.020213,-0.20605,0.01494,-0.10792,0.71169,-0.72254,-0.02,0.02,-0.03,93.25
12627,6.7903e+07,0,-0.48,-0.56,355.39,0.0052339,-0.025332,-0.20191,0.028178,-0.10717,0.7112,-0.7208,-0.02,0.02,-0.03,93.25
12672,6.7914e+07,0,-0.48,-0.54,355.4,-0.0042514,-0.021719,-0.20226,0.036618,-0.1065,0.71071,-0.71921,-0.02,0.02,-0.03,93.25
12716,6.7924e+07,0,-0.49,-0.56,355.4,0.001339,-0.020626,-0.19864,0.047944,-0.1059,0.71026,-0.7178,-0.02,0.02,-0.03,93.25
12761,6.7934e+07,0,-0.48,-0.53,355.41,0.0096795,-0.023577,-0.20054,0.050004,-0.10526,0.70984,-0.71617,-0.02,0.02,-0.03,93.25
12806,6.7944e+07,0,-0.49,-0.58,355.39,0.0067506,-0.024061,-0.20041,0.058129,-0.10459,0.70935,-0.71509,-0.02,0.02,-0.03,93.25
12850,6.7955e+07,0,-0.5,-0.56,355.41,-0.00051898,-0.01937,-0.19532,0.070216,-0.10405,0.70892,-0.71398,-0.02,0.02,-0.03,93.25
12895,6.7965e+07,0,-0.47,-0.55,355.41,0.0038072,-0.019778,-0.19982,0.072809,-0.10352,0.70851,-0.71317,-0.02,0.02,-0.03,93.25
12940,6.7976e+07,0,-0.47,-0.58,355.39,0.009388,-0.025215,-0.19283,0.085378,-0.10344,0.70828,-0.71513,-0.02,0.02,-0.03,93.25
12991,6.7986e+07,0,-0.46,-0.54,355.4,-0.0032999,-0.023807,-0.19578,0.082936,-0.10288,0.70782,-0.71446,-0.02,0.02,-0.03,93.25
13035,6.7996e+07,0,-0.47,-0.58,355.39,-0.0027332,-0.020186,-0.18796,0.087873,-0.1024,0.70744,-0.71348,-0.02,0.02,-0.03,93.25
13080,6.8006e+07,0,-0.46,-0.5,355.41,0.0070649,-0.024553,-0.19126,0.076432,-0.10191,0.70704,-0.71301,-0.02,0.02,-0.03,93.25
13125,6.8016e+07,0,-0.47,-0.57,355.38,0.0089367,-0.028146,-0.18969,0.071965,-0.10135,0.70662,-0.71226,-0.02,0.02,-0.03,93.25
13172,6.803e+07,0,-0.47,-0.57,355.39,-0.00066889,-0.020666,-0.18618,0.070862,-0.10089,0.70612,-0.71243,-0.02,0.02,-0.03,93.25
13217,6.804e+07,0,-0.46,-0.51,355.4,0.0032259,-0.022335,-0.19488,0.055064,-0.10046,0.70575,-0.71193,-0.02,0.02,-0.03,93.25
13261,6.805e+07,0,-0.47,-0.59,355.39,0.0097297,-0.030489,-0.18521,0.058932,-0.10035,0.70547,-0.71401,-0.02,0.02,-0.03,93.25
13308,6.806e+07,0,-0.48,-0.52,355.4,-0.00054477,-0.02821,-0.1882,0.047779,-0.099882,0.70505,-0.71363,-0.02,0.02,-0.03,93.25
13349,6.8071e+07,0,-0.5,-0.57,355.4,0.00069175,-0.022784,-0.18523,0.045514,-0.099246,0.70477,-0.71191,-0.02,0.02,-0.03,93.25
13390,6.8082e+07,0,-0.5,-0.52,355.41,0.010667,-0.024945,-0.18395,0.047368,-0.098597,0.70452,-0.71023,-0.02,0.02,-0.03,93.25
13415,6.8132e+07,0,-0.46,-0.54,355.39,0.0076738,-0.022973,-0.18713,0.048818,-0.096048,0.70326,-0.70648,-0.02,0.02,-0.03,93.25
13461,6.8142e+07,0,-0.48,-0.56,355.39,0.0026447,-0.019791,-0.17637,0.059217,-0.095519,0.70302,-0.70535,-0.02,0.02,-0.03,93.25
13505,6.8153e+07,0,-0.45,-0.52,355.4,0.0077148,-0.022951,-0.18104,0.056295,-0.09501,0.7028,-0.70454,-0.02,0.02,-0.03,93.25
13550,6.8163e+07,0,-0.45,-0.57,355.39,0.013085,-0.029329,-0.17486,0.064058,-0.094425,0.70254,-0.70386,-0.02,0.02,-0.03,93.25
13594,6.8173e+07,0,-0.47,-0.55,355.39,0.0039622,-0.027617,-0.1757,0.065261,-0.094342,0.70228,-0.70566,-0.02,0.02,-0.03,93.25
13639,6.8183e+07,0,-0.47,-0.57,355.39,0.0030185,-0.022004,-0.17444,0.06491,-0.093881,0.70206,-0.70487,-0.02,0.02,-0.03,93.25
13688,6.8193e+07,0,-0.48,-0.54,355.4,0.01257,-0.023729,-0.17281,0.063596,-0.093405,0.70186,-0.70426,-0.02,0.02,-0.03,93.25
13733,6.8204e+07,0,-0.47,-0.57,355.39,0.010216,-0.025079,-0.17852,0.052518,-0.092879,0.70163,-0.70371,-0.02,0.02,-0.03,93.25
13778,6.8214e+07,0,-0.51,-0.56,355.39,0.0030646,-0.0216,-0.169,0.055853,-0.092437,0.7014,-0.7033,-0.02,0.02,-0.03,93.25
13822,6.8224e+07,0,-0.46,-0.53,355.4,0.002165,-0.018442,-0.17994,0.039129,-0.092044,0.70118,-0.70306,-0.02,0.02,-0.03,93.25
13868,6.8235e+07,0,-0.45,-0.57,355.39,0.012694,-0.023371,-0.16896,0.045989,-0.091945,0.70096,-0.70477,-0.02,0.02,-0.03,93.25
13912,6.8245e+07,0,-0.45,-0.53,355.4,0.0055144,-0.025659,-0.17862,0.029884,-0.09149,0.70073,-0.70448,-0.02,0.02,-0.03,93.25
13957,6.8254e+07,0,-0.47,-0.57,355.4,0.0019254,-0.024032,-0.16481,0.036717,-0.091119,0.70051,-0.70423,-0.02,0.02,-0.03,93.25
14004,6.8265e+07,0,-0.49,-0.5,355.42,0.0094678,-0.026899,-0.16997,0.024398,-0.090763,0.7003,-0.7043,-0.02,0.02,-0.03,93.25
14043,6.8276e+07,0,-0.48,-0.56,355.4,0.013121,-0.027941,-0.16994,0.019444,-0.089999,0.70014,-0.7027,-0.02,0.02,-0.03,93.25
14088,6.8286e+07,0,-0.52,-0.55,355.4,0.0062373,-0.025912,-0.16091,0.029279,-0.089324,0.69999,-0.70116,-0.02,0.02,-0.03,93.25
14136,6.8296e+07,0,-0.48,-0.55,355.41,0.0036032,-0.019013,-0.17118,0.019934,-0.088718,0.69987,-0.69967,-0.02,0.02,-0.03,93.25
14181,6.8307e+07,0,-0.51,-0.56,355.4,0.013791,-0.020334,-0.16028,0.036932,-0.088637,0.69966,-0.70136,-0.02,0.02,-0.03,93.25
14225,6.8317e+07,0,-0.47,-0.55,355.4,0.0097635,-0.021507,-0.17321,0.028008,-0.087956,0.69952,-0.70002,-0.02,0.02,-0.03,93.25
14272,6.8327e+07,0,-0.49,-0.58,355.39,0.0042658,-0.019709,-0.15635,0.047444,-0.087358,0.69939,-0.69882,-0.02,0.02,-0.03,93.25
14316,6.8337e+07,0,-0.44,-0.52,355.41,0.0063122,-0.01862,-0.16833,0.038776,-0.086809,0.69928,-0.69775,-0.02,0.02,-0.03,93.25
14361,6.8348e+07,0,-0.44,-0.58,355.39,0.016103,-0.022586,-0.15758,0.05289,-0.086204,0.69917,-0.69662,-0.02,0.02,-0.03,93.25
14406,6.8358e+07,0,-0.44,-0.54,355.39,0.011041,-0.025436,-0.16375,0.048861,-0.08562,0.69904,-0.69566,-0.02,0.02,-0.03,93.25
14452,6.8368e+07,0,-0.45,-0.58,355.39,0.0067594,-0.023843,-0.1558,0.059896,-0.08511,0.6989,-0.69491,-0.02,0.02,-0.03,93.25
14497,6.8378e+07,0,-0.47,-0.54,355.4,0.013945,-0.024458,-0.15507,0.063841,-0.085038,0.6987,-0.69652,-0.02,0.02,-0.03,93.25
14541,6.8388e+07,0,-0.45,-0.56,355.39,0.014827,-0.026554,-0.15859,0.059986,-0.084473,0.69858,-0.69572,-0.02,0.02,-0.03,93.25
14590,6.8399e+07,0,-0.5,-0.57,355.39,0.0045533,-0.023275,-0.15171,0.064201,-0.08396,0.69842,-0.69523,-0.02,0.02,-0.03,93.25
14634,6.8409e+07,0,-0.47,-0.54,355.4,0.0027707,-0.017109,-0.16004,0.052232,-0.083525,0.69831,-0.69464,-0.02,0.02,-0.03,93.25
14679,6.8419e+07,0,-0.49,-0.56,355.4,0.012745,-0.018925,-0.15053,0.056054,-0.08306,0.69821,-0.69416,-0.02,0.02,-0.03,93.25
14725,6.843e+07,0,-0.47,-0.53,355.4,0.009346,-0.021385,-0.15982,0.043032,-0.082918,0.69798,-0.69571,-0.02,0.02,-0.03,93.25
14772,6.8443e+07,0,-0.48,-0.56,355.4,0.0069769,-0.023435,-0.14984,0.04504,-0.082474,0.69778,-0.69572,-0.02,0.02,-0.03,93.25
14817,6.8453e+07,0,-0.49,-0.53,355.41,0.012848,-0.02412,-0.15114,0.037336,-0.082077,0.69769,-0.69538,-0.02,0.02,-0.03,93.25
14861,6.8463e+07,0,-0.46,-0.56,355.39,0.016434,-0.026161,-0.15134,0.028161,-0.081614,0.69757,-0.69507,-0.02,0.02,-0.03,93.25
14909,6.8478e+07,0,-0.48,-0.55,355.39,0.0063792,-0.022727,-0.14339,0.028716,-0.080816,0.6973,-0.69417,-0.02,0.02,-0.03,93.25
14954,6.8488e+07,0,-0.47,-0.53,355.4,0.011233,-0.023248,-0.14773,0.026118,-0.080131,0.69719,-0.69254,-0.02,0.02,-0.03,93.25
15003,6.8499e+07,0,-0.45,-0.56,355.37,0.01681,-0.027288,-0.1452,0.034422,-0.079386,0.69706,-0.69115,-0.02,0.02,-0.03,93.25
15048,6.8509e+07,0,-0.49,-0.56,355.38,0.0083853,-0.026243,-0.14364,0.041387,-0.078695,0.69692,-0.6898,-0.02,0.02,-0.03,93.25
15093,6.8519e+07,0,-0.48,-0.56,355.38,0.0044724,-0.021311,-0.14422,0.044232,-0.078089,0.6968,-0.68852,-0.02,0.02,-0.03,93.25
15137,6.8529e+07,0,-0.51,-0.54,355.39,0.011553,-0.020628,-0.14144,0.053355,-0.078004,0.6966,-0.68995,-0.02,0.02,-0.03,93.25
15182,6.8539e+07,0,-0.47,-0.55,355.37,0.012106,-0.023191,-0.14467,0.054174,-0.077324,0.69649,-0.68857,-0.02,0.02,-0.03,93.25
15226,6.8549e+07,0,-0.5,-0.55,355.37,0.0045496,-0.02088,-0.13784,0.064596,-0.076713,0.69636,-0.68732,-0.02,0.02,-0.03,93.25
15271,6.8559e+07,0,-0.48,-0.54,355.39,0.0051313,-0.015417,-0.14187,0.061999,-0.076169,0.69626,-0.68617,-0.02,0.02,-0.03,93.25
15315,6.8569e+07,0,-0.48,-0.54,355.39,0.014486,-0.018304,-0.13585,0.068659,-0.075592,0.69616,-0.68513,-0.02,0.02,-0.03,93.25
15361,6.858e+07,0,-0.47,-0.53,355.39,0.01353,-0.02259,-0.13941,0.067673,-0.075421,0.69592,-0.68665,-0.02,0.02,-0.03,93.25
15406,6.8591e+07,0,-0.47,-0.55,355.39,0.0075032,-0.022427,-0.13223,0.073801,-0.074882,0.6958,-0.68569,-0.02,0.02,-0.03,93.25
15455,6.8601e+07,0,-0.47,-0.53,355.4,0.012768,-0.022343,-0.13445,0.069832,-0.074378,0.69571,-0.68485,-0.02,0.02,-0.03,93.25
15500,6.8611e+07,0,-0.45,-0.55,355.38,0.018126,-0.023977,-0.13593,0.066737,-0.073803,0.69558,-0.68423,-0.02,0.02,-0.03,93.25
15544,6.8622e+07,0,-0.49,-0.56,355.38,0.0088323,-0.021187,-0.13429,0.066305,-0.073261,0.69543,-0.68376,-0.02,0.02,-0.03,93.25
15589,6.8632e+07,0,-0.47,-0.54,355.39,0.0056816,-0.01616,-0.13635,0.060776,-0.072819,0.69531,-0.6832,-0.02,0.02,-0.03,93.25
15633,6.8643e+07,0,-0.49,-0.54,355.39,0.01403,-0.016879,-0.13142,0.061817,-0.072359,0.69522,-0.68274,-0.02,0.02,-0.03,93.25
15681,6.8653e+07,0,-0.46,-0.54,355.38,0.014233,-0.020719,-0.13538,0.053178,-0.072193,0.695,-0.68406,-0.02,0.02,-0.03,93.25
15720,6.8664e+07,0,-0.47,-0.56,355.38,0.0081851,-0.02468,-0.1253,0.059129,-0.071182,0.69471,-0.68253,-0.02,0.02,-0.03,93.25
15765,6.8674e+07,0,-0.47,-0.53,355.39,0.011598,-0.02279,-0.12657,0.056998,-0.070263,0.6945,-0.68087,-0.02,0.02,-0.03,93.25
15810,6.8685e+07,0,-0.47,-0.56,355.38,0.018846,-0.025259,-0.12502,0.058288,-0.069309,0.69429,-0.67932,-0.02,0.02,-0.03,93.25
15855,6.8695e+07,0,-0.5,-0.55,355.38,0.011683,-0.024719,-0.1262,0.057874,-0.068365,0.69403,-0.67804,-0.02,0.02,-0.03,93.25
15904,6.8706e+07,0,-0.5,-0.54,355.38,0.0059948,-0.019838,-0.12736,0.060798,-0.068287,0.69381,-0.67928,-0.02,0.02,-0.03,93.25
15950,6.8716e+07,0,-0.51,-0.53,355.39,0.013605,-0.016423,-0.12623,0.064233,-0.067429,0.6936,-0.67809,-0.02,0.02,-0.03,93.25
15994,6.8726e+07,0,-0.47,-0.53,355.38,0.015302,-0.018856,-0.12899,0.062419,-0.066543,0.6934,-0.67688,-0.02,0.02,-0.03,93.25
16040,6.8736e+07,0,-0.49,-0.56,355.38,0.0086485,-0.019669,-0.12256,0.069413,-0.065721,0.69317,-0.67579,-0.02,0.02,-0.03,93.25
16085,6.8747e+07,0,-0.46,-0.52,355.4,0.010123,-0.018587,-0.12148,0.071881,-0.064972,0.69296,-0.67493,-0.02,0.02,-0.03,93.25
16131,6.8757e+07,0,-0.46,-0.55,355.39,0.019036,-0.02302,-0.11686,0.075015,-0.064197,0.69278,-0.67402,-0.02,0.02,-0.03,93.25
16176,6.8768e+07,0,-0.48,-0.54,355.39,0.016469,-0.02746,-0.11669,0.074467,-0.063399,0.69255,-0.67336,-0.02,0.02,-0.03,93.25
16221,6.8778e+07,0,-0.49,-0.55,355.39,0.0096948,-0.02365,-0.11688,0.074149,-0.063286,0.69232,-0.67454,-0.02,0.02,-0.03,93.25
16266,6.8788e+07,0,-0.49,-0.54,355.4,0.015147,-0.021421,-0.11442,0.073837,-0.062598,0.69215,-0.67383,-0.02,0.02,-0.03,93.25
16312,6.8798e+07,0,-0.47,-0.54,355.38,0.019551,-0.021872,-0.12041,0.062632,-0.061856,0.69196,-0.67318,-0.02,0.02,-0.03,93.25
16361,6.8809e+07,0,-0.48,-0.56,355.38,0.014099,-0.022075,-0.11623,0.061984,-0.061141,0.69175,-0.67265,-0.02,0.02,-0.03,93.25
16408,6.8818e+07,0,-0.48,-0.53,355.38,0.0091609,-0.016382,-0.11973,0.05296,-0.060517,0.69155,-0.67219,-0.02,0.02,-0.03,93.25
16452,6.8829e+07,0,-0.45,-0.55,355.38,0.018245,-0.016006,-0.11525,0.052112,-0.059871,0.69135,-0.67192,-0.02,0.02,-0.03,93.25
16497,6.8839e+07,0,-0.44,-0.53,355.38,0.019791,-0.020734,-0.11776,0.045394,-0.05967,0.69114,-0.67308,-0.02,0.02,-0.03,93.25
16544,6.8852e+07,0,-0.48,-0.55,355.38,0.011931,-0.025753,-0.11107,0.044732,-0.058987,0.69085,-0.67288,-0.02,0.02,-0.03,93.25
16591,6.8868e+07,0,-0.46,-0.56,355.38,0.021752,-0.020271,-0.11076,0.038934,-0.057628,0.69071,-0.67012,-0.02,0.02,-0.03,93.25
16635,6.8879e+07,0,-0.47,-0.55,355.38,0.02147,-0.024807,-0.10864,0.042867,-0.056781,0.69064,-0.66842,-0.02,0.02,-0.03,93.25
16680,6.8889e+07,0,-0.49,-0.55,355.38,0.012476,-0.024478,-0.10685,0.050921,-0.055995,0.69054,-0.66693,-0.02,0.02,-0.03,93.25
16727,6.89e+07,0,-0.5,-0.57,355.39,0.016549,-0.018412,-0.10427,0.058932,-0.055267,0.69047,-0.66555,-0.02,0.02,-0.03,93.25
16775,6.8911e+07,0,-0.46,-0.53,355.38,0.019213,-0.01723,-0.11095,0.059038,-0.054493,0.6904,-0.6643,-0.02,0.02,-0.03,93.25
16820,6.8922e+07,0,-0.46,-0.58,355.37,0.013834,-0.019551,-0.10472,0.072141,-0.053756,0.69031,-0.66316,-0.02,0.02,-0.03,93.25
16864,6.8932e+07,0,-0.46,-0.52,355.39,0.010071,-0.017178,-0.10627,0.077208,-0.053645,0.6901,-0.66421,-0.02,0.02,-0.03,93.25
16909,6.8942e+07,0,-0.45,-0.56,355.37,0.020056,-0.020071,-0.10237,0.084559,-0.052963,0.69004,-0.66313,-0.02,0.02,-0.03,93.25
16954,6.8953e+07,0,-0.45,-0.53,355.37,0.020107,-0.024629,-0.10057,0.084434,-0.052276,0.68999,-0.66208,-0.02,0.02,-0.03,93.25
16999,6.8963e+07,0,-0.46,-0.57,355.36,0.012114,-0.024744,-0.10135,0.082002,-0.052116,0.68977,-0.66308,-0.02,0.02,-0.03,93.25
17044,6.8973e+07,0,-0.48,-0.55,355.38,0.015762,-0.01839,-0.096467,0.083494,-0.051512,0.6897,-0.66217,-0.02,0.02,-0.03,93.25
17089,6.8983e+07,0,-0.45,-0.55,355.37,0.019949,-0.017888,-0.1028,0.07339,-0.050875,0.68966,-0.66124,-0.02,0.02,-0.03,93.25
17135,6.8993e+07,0,-0.46,-0.58,355.36,0.017803,-0.020813,-0.096401,0.075129,-0.050249,0.68959,-0.66041,-0.02,0.02,-0.03,93.25
17179,6.9004e+07,0,-0.46,-0.54,355.38,0.0094044,-0.016528,-0.10244,0.064428,-0.049703,0.68951,-0.65966,-0.02,0.02,-0.03,93.25
17234,6.9017e+07,0,-0.45,-0.58,355.37,0.020688,-0.020038,-0.097202,0.066046,-0.049103,0.68937,-0.65938,-0.02,0.02,-0.03,93.25
17278,6.9027e+07,0,-0.45,-0.55,355.37,0.020929,-0.02401,-0.094984,0.063187,-0.048527,0.6893,-0.65882,-0.02,0.02,-0.03,93.25
17323,6.9037e+07,0,-0.47,-0.57,355.37,0.012148,-0.023329,-0.096938,0.057741,-0.04836,0.68907,-0.65977,-0.02,0.02,-0.03,93.25
17368,6.9048e+07,0,-0.49,-0.56,355.38,0.014411,-0.019821,-0.092359,0.057326,-0.04788,0.689,-0.65925,-0.02,0.02,-0.03,93.25
17412,6.9058e+07,0,-0.48,-0.55,355.38,0.020536,-0.019635,-0.094374,0.050126,-0.047356,0.68894,-0.65876,-0.02,0.02,-0.03,93.25
17458,6.9067e+07,0,-0.49,-0.57,355.36,0.019309,-0.022701,-0.091638,0.046828,-0.046825,0.68885,-0.65836,-0.02,0.02,-0.03,93.25
17499,6.9082e+07,0,-0.49,-0.53,355.38,0.014846,-0.018091,-0.090701,0.040452,-0.046122,0.68872,-0.65727,-0.02,0.02,-0.03,93.25
17544,6.9092e+07,0,-0.48,-0.55,355.37,0.022105,-0.01606,-0.093665,0.034559,-0.045487,0.68872,-0.65582,-0.02,0.02,-0.03,93.25
17590,6.9103e+07,0,-0.47,-0.55,355.36,0.02213,-0.020581,-0.090646,0.040224,-0.045266,0.68854,-0.65674,-0.02,0.02,-0.03,93.25
17634,6.9112e+07,0,-0.47,-0.57,355.36,0.013208,-0.019533,-0.091727,0.041415,-0.044641,0.6885,-0.65539,-0.02,0.02,-0.03,93.25
17684,6.9122e+07,0,-0.47,-0.57,355.36,0.013616,-0.017138,-0.086526,0.049592,-0.044093,0.68849,-0.65413,-0.02,0.02,-0.03,93.25
17728,6.9133e+07,0,-0.46,-0.53,355.37,0.019965,-0.016939,-0.089686,0.050937,-0.04349,0.68849,-0.65309,-0.02,0.02,-0.03,93.25
17773,6.9143e+07,0,-0.46,-0.58,355.34,0.018919,-0.022018,-0.08424,0.0596,-0.042901,0.68846,-0.65204,-0.02,0.02,-0.03,93.25
17819,6.9153e+07,0,-0.46,-0.53,355.36,0.012094,-0.019265,-0.085055,0.060071,-0.042393,0.68843,-0.6511,-0.02,0.02,-0.03,93.25
17863,6.9163e+07,0,-0.44,-0.58,355.36,0.01768,-0.017578,-0.083586,0.06432,-0.042248,0.68828,-0.65194,-0.02,0.02,-0.03,93.25
17908,6.9173e+07,0,-0.45,-0.53,355.36,0.023496,-0.017941,-0.085046,0.064229,-0.04171,0.68828,-0.65079,-0.02,0.02,-0.03,93.25
17952,6.9183e+07,0,-0.45,-0.58,355.35,0.018867,-0.02057,-0.085076,0.065389,-0.041184,0.68823,-0.6497,-0.02,0.02,-0.03,93.25
17997,6.9194e+07,0,-0.48,-0.55,355.37,0.014678,-0.014711,-0.081194,0.071081,-0.040739,0.68817,-0.64881,-0.02,0.02,-0.03,93.25
18042,6.9204e+07,0,-0.45,-0.55,355.36,0.019021,-0.012671,-0.088662,0.064117,-0.040296,0.68816,-0.64791,-0.02,0.02,-0.03,93.25
18086,6.9214e+07,0,-0.46,-0.57,355.35,0.021165,-0.01747,-0.080899,0.070518,-0.039816,0.68813,-0.64711,-0.02,0.02,-0.03,93.25
18137,6.9224e+07,0,-0.45,-0.56,355.35,0.011763,-0.017566,-0.08728,0.064035,-0.039638,0.68792,-0.64792,-0.02,0.02,-0.03,93.25
18181,6.9234e+07,0,-0.48,-0.58,355.36,0.012847,-0.015023,-0.076981,0.07227,-0.039254,0.68788,-0.64717,-0.02,0.02,-0.03,93.25
18226,6.9244e+07,0,-0.46,-0.53,355.36,0.017745,-0.015602,-0.082963,0.063579,-0.038848,0.68786,-0.64651,-0.02,0.02,-0.03,93.25
18273,6.9255e+07,0,-0.47,-0.58,355.34,0.01831,-0.022326,-0.074478,0.068023,-0.038405,0.68781,-0.6459,-0.02,0.02,-0.03,93.25
18314,6.9269e+07,0,-0.53,-0.55,355.35,0.013895,-0.01165,-0.075855,0.063114,-0.037597,0.68745,-0.64444,-0.02,0.02,-0.03,93.25
18358,6.9279e+07,0,-0.48,-0.53,355.35,0.017755,-0.0094718,-0.085193,0.054389,-0.036884,0.68724,-0.6427,-0.02,0.02,-0.03,93.25
18403,6.929e+07,0,-0.46,-0.57,355.34,0.020522,-0.017368,-0.07204,0.069989,-0.036114,0.68701,-0.64114,-0.02,0.02,-0.03,93.25
18449,6.93e+07,0,-0.44,-0.53,355.34,0.011592,-0.018128,-0.078006,0.069686,-0.035946,0.68682,-0.64191,-0.02,0.02,-0.03,93.25
18496,6.931e+07,0,-0.44,-0.57,355.35,0.013838,-0.015079,-0.069501,0.082364,-0.035298,0.68661,-0.64034,-0.02,0.02,-0.03,93.25
18540,6.9321e+07,0,-0.44,-0.51,355.35,0.0213,-0.018051,-0.071475,0.084415,-0.034636,0.68642,-0.63893,-0.02,0.02,-0.03,93.25
18589,6.9331e+07,0,-0.43,-0.56,355.34,0.021433,-0.024247,-0.068135,0.090122,-0.033942,0.6862,-0.63756,-0.02,0.02,-0.03,93.25
18634,6.9341e+07,0,-0.46,-0.52,355.35,0.01443,-0.022204,-0.067515,0.092517,-0.033334,0.68597,-0.63636,-0.02,0.02,-0.03,93.25
18679,6.9351e+07,0,-0.45,-0.55,355.35,0.017684,-0.015612,-0.072229,0.090492,-0.032746,0.68576,-0.63526,-0.02,0.02,-0.03,93.25
18727,6.9365e+07,0,-0.44,-0.57,355.34,0.022787,-0.014616,-0.068355,0.097598,-0.032066,0.68553,-0.6345,-0.02,0.02,-0.03,93.25
18772,6.9375e+07,0,-0.43,-0.54,355.35,0.014055,-0.018532,-0.072984,0.092284,-0.031468,0.68528,-0.63368,-0.02,0.02,-0.03,93.25
18817,6.9386e+07,0,-0.44,-0.57,355.35,0.01616,-0.015196,-0.064449,0.10035,-0.031319,0.68512,-0.63434,-0.02,0.02,-0.03,93.25
18861,6.9396e+07,0,-0.45,-0.52,355.36,0.023339,-0.017917,-0.067996,0.094073,-0.030771,0.68495,-0.63352,-0.02,0.02,-0.03,93.25
18905,6.9406e+07,0,-0.44,-0.57,355.34,0.023673,-0.024068,-0.063283,0.095172,-0.03018,0.68474,-0.63272,-0.02,0.02,-0.03,93.25
18949,6.9416e+07,0,-0.48,-0.54,355.35,0.01665,-0.022623,-0.061967,0.091464,-0.029668,0.68452,-0.63204,-0.02,0.02,-0.03,93.25
18998,6.9426e+07,0,-0.46,-0.56,355.35,0.016905,-0.015595,-0.068605,0.079758,-0.029177,0.68432,-0.63145,-0.02,0.02,-0.03,93.25
19043,6.9437e+07,0,-0.48,-0.56,355.34,0.02435,-0.013996,-0.063227,0.078872,-0.028641,0.68413,-0.63097,-0.02,0.02,-0.03,93.25
19089,6.9447e+07,0,-0.46,-0.55,355.34,0.016008,-0.014711,-0.075306,0.061896,-0.028419,0.68394,-0.63162,-0.02,0.02,-0.03,93.25
19134,6.9457e+07,0,-0.5,-0.56,355.34,0.013908,-0.010627,-0.061856,0.069295,-0.02798,0.68373,-0.63111,-0.02,0.02,-0.03,93.25
19177,6.9468e+07,0,-0.45,-0.51,355.35,0.021019,-0.011459,-0.06971,0.054558,-0.027148,0.6836,-0.62967,-0.02,0.02,-0.03,93.25
19219,6.9479e+07,0,-0.44,-0.56,355.33,0.024286,-0.021257,-0.059493,0.063117,-0.02627,0.68343,-0.62831,-0.02,0.02,-0.03,93.25
19264,6.9489e+07,0,-0.46,-0.54,355.34,0.016541,-0.021435,-0.059537,0.062066,-0.025495,0.68326,-0.62703,-0.02,0.02,-0.03,93.25
19308,6.9499e+07,0,-0.44,-0.56,355.35,0.016415,-0.015462,-0.059529,0.06448,-0.025349,0.68311,-0.62762,-0.02,0.02,-0.03,93.25
19354,6.951e+07,0,-0.47,-0.54,355.35,0.024764,-0.017656,-0.056305,0.069199,-0.0246,0.68299,-0.62641,-0.02,0.02,-0.03,93.25
19398,6.9519e+07,0,-0.45,-0.56,355.34,0.021101,-0.020645,-0.061869,0.065163,-0.02383,0.68284,-0.62524,-0.02,0.02,-0.03,93.25
19447,6.953e+07,0,-0.5,-0.55,355.35,0.013832,-0.014393,-0.05402,0.075324,-0.023135,0.68266,-0.62428,-0.02,0.02,-0.03,93.25
19491,6.9541e+07,0,-0.45,-0.52,355.36,0.01652,-0.0095122,-0.068424,0.063058,-0.022481,0.68254,-0.62337,-0.02,0.02,-0.03,93.25
19536,6.9551e+07,0,-0.45,-0.56,355.35,0.024306,-0.012916,-0.05642,0.075758,-0.021787,0.68243,-0.62249,-0.02,0.02,-0.03,93.25
19581,6.9561e+07,0,-0.45,-0.54,355.35,0.017228,-0.014714,-0.066262,0.064745,-0.021126,0.68227,-0.62151,-0.02,0.02,-0.03,93.25
19630,6.9575e+07,0,-0.44,-0.57,355.36,0.017805,-0.012896,-0.055718,0.075841,-0.020494,0.68211,-0.62073,-0.02,0.02,-0.03,93.25
19675,6.9585e+07,0,-0.47,-0.54,355.36,0.02652,-0.015883,-0.051731,0.078764,-0.019897,0.68201,-0.61992,-0.02,0.02,-0.03,93.25
19719,6.9595e+07,0,-0.45,-0.56,355.35,0.020981,-0.017723,-0.060227,0.069499,-0.019241,0.68185,-0.61918,-0.02,0.02,-0.03,93.25
19764,6.9606e+07,0,-0.49,-0.55,355.35,0.015378,-0.014227,-0.048646,0.08062,-0.019056,0.68169,-0.61975,-0.02,0.02,-0.03,93.25
19808,6.9616e+07,0,-0.44,-0.54,355.36,0.016546,-0.01005,-0.061874,0.065102,-0.018518,0.6816,-0.61902,-0.02,0.02,-0.03,93.25
19853,6.9625e+07,0,-0.46,-0.56,355.34,0.025274,-0.013651,-0.048785,0.07525,-0.017929,0.68149,-0.61838,-0.02,0.02,-0.03,93.25
19901,6.9636e+07,0,-0.44,-0.54,355.34,0.018356,-0.015525,-0.062399,0.057512,-0.017349,0.68135,-0.61779,-0.02,0.02,-0.03,93.25
19946,6.9646e+07,0,-0.46,-0.56,355.35,0.017913,-0.011791,-0.046876,0.067914,-0.016828,0.6812,-0.61729,-0.02,0.02,-0.03,93.25
19991,6.9657e+07,0,-0.45,-0.52,355.36,0.02511,-0.013519,-0.056125,0.054817,-0.01663,0.68109,-0.61784,-0.02,0.02,-0.03,93.25
20038,6.9667e+07,0,-0.43,-0.57,355.34,0.02925,-0.019691,-0.0499,0.055774,-0.016028,0.68095,-0.61738,-0.02,0.02,-0.03,93.25
20077,6.9678e+07,0,-0.48,-0.56,355.35,0.020032,-0.01813,-0.046684,0.057442,-0.015121,0.68062,-0.61601,-0.02,0.02,-0.03,93.25
20122,6.9688e+07,0,-0.44,-0.57,355.36,0.018964,-0.011552,-0.054154,0.051618,-0.014305,0.68036,-0.61461,-0.02,0.02,-0.03,93.25
20166,6.9699e+07,0,-0.47,-0.56,355.35,0.025623,-0.013725,-0.045552,0.062443,-0.01344,0.68009,-0.6134,-0.02,0.02,-0.03,93.25
20212,6.9709e+07,0,-0.45,-0.55,355.35,0.019375,-0.016505,-0.055606,0.054745,-0.012604,0.6798,-0.6122,-0.02,0.02,-0.03,93.25
20257,6.9719e+07,0,-0.48,-0.55,355.35,0.01485,-0.012987,-0.041613,0.070158,-0.01186,0.67953,-0.61108,-0.02,0.02,-0.03,93.25
20303,6.9729e+07,0,-0.46,-0.52,355.36,0.019183,-0.011255,-0.052801,0.062177,-0.011679,0.67941,-0.61155,-0.02,0.02,-0.03,93.25
20352,6.9739e+07,0,-0.45,-0.56,355.35,0.026787,-0.01547,-0.042708,0.073888,-0.010892,0.67917,-0.61048,-0.02,0.02,-0.03,93.25
20396,6.9749e+07,0,-0.47,-0.54,355.35,0.020417,-0.017594,-0.04911,0.068581,-0.010143,0.6789,-0.60951,-0.02,0.02,-0.03,93.25
20441,6.9759e+07,0,-0.47,-0.57,355.35,0.019392,-0.012167,-0.041524,0.075911,-0.009478,0.67865,-0.60856,-0.02,0.02,-0.03,93.25
20487,6.977e+07,0,-0.49,-0.55,355.36,0.02884,-0.013269,-0.043191,0.073212,-0.0087931,0.67844,-0.60779,-0.02,0.02,-0.03,93.25
20536,6.9784e+07,0,-0.46,-0.55,355.35,0.019135,-0.017502,-0.050077,0.066584,-0.0079638,0.67812,-0.60707,-0.02,0.02,-0.03,93.25
20580,6.9794e+07,0,-0.47,-0.56,355.35,0.01384,-0.01318,-0.038252,0.076579,-0.0073691,0.6779,-0.60613,-0.02,0.02,-0.03,93.25
20627,6.9804e+07,0,-0.46,-0.52,355.36,0.019058,-0.012012,-0.049239,0.065333,-0.0071855,0.67779,-0.60658,-0.02,0.02,-0.03,93.25
20671,6.9814e+07,0,-0.45,-0.56,355.34,0.026792,-0.01736,-0.037947,0.075127,-0.0065203,0.67758,-0.60574,-0.02,0.02,-0.03,93.25
20717,6.9824e+07,0,-0.48,-0.54,355.35,0.022025,-0.02043,-0.043687,0.067586,-0.0058873,0.67733,-0.605,-0.02,0.02,-0.03,93.25
20762,6.9834e+07,0,-0.46,-0.55,355.35,0.021639,-0.013095,-0.038564,0.06994,-0.0053129,0.67709,-0.6043,-0.02,0.02,-0.03,93.25
20810,6.9844e+07,0,-0.48,-0.53,355.36,0.030888,-0.014176,-0.037664,0.06838,-0.00475,0.6769,-0.60369,-0.02,0.02,-0.03,93.25
20857,6.986e+07,0,-0.46,-0.53,355.35,0.022519,-0.019665,-0.041843,0.062355,-0.0035952,0.67663,-0.60254,-0.02,0.02,-0.03,93.25
20901,6.987e+07,0,-0.46,-0.54,355.35,0.019342,-0.013812,-0.033725,0.071777,-0.0026969,0.67645,-0.6012,-0.02,0.02,-0.03,93.25
20947,6.9881e+07,0,-0.5,-0.53,355.36,0.031654,-0.014254,-0.036387,0.070655,-0.0017887,0.6763,-0.6001,-0.02,0.02,-0.03,93.25
20992,6.9891e+07,0,-0.45,-0.55,355.35,0.032789,-0.017766,-0.039002,0.068477,-0.00085715,0.67614,-0.59896,-0.02,0.02,-0.03,93.25
21036,6.9902e+07,0,-0.5,-0.58,355.34,0.024344,-0.015153,-0.033653,0.07566,3.6322e-05,0.67593,-0.59801,-0.02,0.02,-0.03,93.25
21082,6.9913e+07,0,-0.44,-0.57,355.35,0.021488,-0.0087733,-0.044379,0.067278,0.00024267,0.6758,-0.59836,-0.02,0.02,-0.03,93.25
21127,6.9923e+07,0,-0.45,-0.58,355.34,0.028753,-0.01265,-0.031727,0.08065,0.0011207,0.67565,-0.59744,-0.02,0.02,-0.03,93.25
21172,6.9933e+07,0,-0.44,-0.57,355.33,0.0248,-0.016868,-0.040756,0.071162,0.0019712,0.67549,-0.59654,-0.02,0.02,-0.03,93.25
21220,6.9943e+07,0,-0.46,-0.58,355.33,0.017347,-0.013985,-0.02796,0.082979,0.0027367,0.67533,-0.59569,-0.02,0.02,-0.03,93.25
21265,6.9954e+07,0,-0.45,-0.55,355.34,0.022916,-0.012818,-0.035236,0.074634,0.0034491,0.67522,-0.59492,-0.02,0.02,-0.03,93.25
21310,6.9964e+07,0,-0.43,-0.56,355.33,0.029625,-0.01597,-0.028405,0.079618,0.0042245,0.6751,-0.59417,-0.02,0.02,-0.03,93.25
21354,6.9974e+07,0,-0.48,-0.57,355.32,0.02662,-0.018373,-0.028866,0.077341,0.0049971,0.67493,-0.59364,-0.02,0.02,-0.03,93.25
21401,6.9985e+07,0,-0.46,-0.54,355.34,0.02098,-0.010669,-0.03127,0.072946,0.0052121,0.67479,-0.59392,-0.02,0.02,-0.03,93.25
21445,6.9995e+07,0,-0.48,-0.55,355.34,0.029736,-0.011537,-0.028823,0.071917,0.0058804,0.6747,-0.59341,-0.02,0.02,-0.03,93.25
21490,7.0005e+07,0,-0.44,-0.55,355.33,0.030871,-0.01442,-0.034795,0.061846,0.0065975,0.67457,-0.59292,-0.02,0.02,-0.03,93.25
21535,7.0015e+07,0,-0.48,-0.59,355.33,0.022168,-0.012092,-0.028728,0.063367,0.0072824,0.67439,-0.59253,-0.02,0.02,-0.03,93.25
21579,7.0026e+07,0,-0.43,-0.56,355.35,0.020006,-0.0088768,-0.036005,0.051309,0.0078779,0.67426,-0.59219,-0.02,0.02,-0.03,93.25
21625,7.0036e+07,0,-0.43,-0.58,355.34,0.02803,-0.013699,-0.02636,0.056134,0.0085012,0.67415,-0.59185,-0.02,0.02,-0.03,93.25
21675,7.0049e+07,0,-0.47,-0.57,355.33,0.024293,-0.021846,-0.027768,0.048558,0.0091785,0.67396,-0.59162,-0.02,0.02,-0.03,93.25
21722,7.0059e+07,0,-0.47,-0.56,355.34,0.018033,-0.015005,-0.026182,0.044743,0.0097109,0.67381,-0.59134,-0.02,0.02,-0.03,93.25
21767,7.0069e+07,0,-0.5,-0.55,355.34,0.027621,-0.010592,-0.026817,0.038875,0.0099437,0.67369,-0.59166,-0.02,0.02,-0.03,93.25
21805,7.0081e+07,0,-0.45,-0.55,355.33,0.02994,-0.01083,-0.032534,0.030781,0.01087,0.67352,-0.59036,-0.02,0.02,-0.03,93.25
21850,7.0091e+07,0,-0.45,-0.57,355.32,0.022561,-0.010445,-0.024322,0.041019,0.011701,0.67333,-0.58889,-0.02,0.02,-0.03,93.25
21895,7.0101e+07,0,-0.42,-0.54,355.33,0.021258,-0.0088877,-0.029457,0.040397,0.012471,0.67319,-0.58751,-0.02,0.02,-0.03,93.25
21940,7.0111e+07,0,-0.41,-0.56,355.32,0.030419,-0.0095016,-0.023117,0.050201,0.013233,0.67307,-0.58616,-0.02,0.02,-0.03,93.25
21985,7.0121e+07,0,-0.41,-0.55,355.32,0.028149,-0.014999,-0.029159,0.048694,0.014038,0.67291,-0.58492,-0.02,0.02,-0.03,93.25
22029,7.0131e+07,0,-0.43,-0.56,355.31,0.018849,-0.016899,-0.018413,0.066122,0.014305,0.67275,-0.58518,-0.02,0.02,-0.03,93.25
22074,7.0141e+07,0,-0.43,-0.54,355.33,0.024366,-0.015588,-0.023659,0.065733,0.015005,0.67263,-0.58401,-0.02,0.02,-0.03,93.25
22123,7.0151e+07,0,-0.42,-0.55,355.32,0.031076,-0.018277,-0.020143,0.073921,0.015764,0.67249,-0.58288,-0.02,0.02,-0.03,93.25
22168,7.0162e+07,0,-0.46,-0.56,355.32,0.02741,-0.019454,-0.019876,0.077892,0.016507,0.67233,-0.58186,-0.02,0.02,-0.03,93.25
22213,7.0172e+07,0,-0.46,-0.55,355.33,0.021421,-0.012524,-0.020226,0.079584,0.017164,0.67218,-0.58084,-0.02,0.02,-0.03,93.25
22257,7.0182e+07,0,-0.49,-0.55,355.34,0.031525,-0.0080849,-0.019487,0.081424,0.017842,0.67206,-0.57976,-0.02,0.02,-0.03,93.25
22302,7.0193e+07,0,-0.43,-0.55,355.33,0.032314,-0.010051,-0.026653,0.076388,0.0182,0.67192,-0.57997,-0.02,0.02,-0.03,93.25
22347,7.0203e+07,0,-0.46,-0.59,355.32,0.024812,-0.0099834,-0.01851,0.085517,0.018866,0.67177,-0.57891,-0.02,0.02,-0.03,93.25
22392,7.0213e+07,0,-0.43,-0.54,355.34,0.024395,-0.0061675,-0.024678,0.078382,0.019458,0.67166,-0.57789,-0.02,0.02,-0.03,93.25
22436,7.0223e+07,0,-0.44,-0.58,355.32,0.033682,-0.010974,-0.017265,0.084214,0.020099,0.67155,-0.57693,-0.02,0.02,-0.03,93.25
22481,7.0233e+07,0,-0.44,-0.55,355.32,0.030501,-0.016727,-0.022155,0.079126,0.020427,0.67141,-0.57714,-0.02,0.02,-0.03,93.25
22526,7.0243e+07,0,-0.45,-0.58,355.31,0.021473,-0.014014,-0.015783,0.084262,0.02103,0.67127,-0.57622,-0.02,0.02,-0.03,93.25
22574,7.0253e+07,0,-0.45,-0.55,355.33,0.025291,-0.01296,-0.017564,0.081028,0.021575,0.67117,-0.5754,-0.02,0.02,-0.03,93.25
22621,7.0263e+07,0,-0.42,-0.56,355.32,0.032134,-0.016237,-0.015028,0.08129,0.022186,0.67106,-0.57458,-0.02,0.02,-0.03,93.25
22662,7.0277e+07,0,-0.47,-0.58,355.3,0.02582,-0.012188,-0.013374,0.080582,0.023191,0.67072,-0.57332,-0.02,0.02,-0.03,93.25
22707,7.0288e+07,0,-0.44,-0.53,355.33,0.022881,-0.0060296,-0.019696,0.074311,0.023965,0.67049,-0.57206,-0.02,0.02,-0.03,93.25
22756,7.03e+07,0,-0.42,-0.57,355.32,0.032091,-0.014275,-0.013139,0.083165,0.024864,0.67023,-0.57064,-0.02,0.02,-0.03,93.25
22804,7.0311e+07,0,-0.47,-0.57,355.31,0.027965,-0.016089,-0.011413,0.088335,0.025706,0.66995,-0.5693,-0.02,0.02,-0.03,93.25
22848,7.0321e+07,0,-0.46,-0.54,355.32,0.019493,-0.010287,-0.013505,0.088252,0.026419,0.66972,-0.56798,-0.02,0.02,-0.03,93.25
22892,7.0332e+07,0,-0.48,-0.55,355.33,0.028525,-0.01042,-0.010886,0.094421,0.026653,0.66962,-0.56812,-0.02,0.02,-0.03,93.25
22937,7.0342e+07,0,-0.44,-0.52,355.33,0.032491,-0.013733,-0.014012,0.093339,0.027426,0.66939,-0.56688,-0.02,0.02,-0.03,93.25
22982,7.0352e+07,0,-0.48,-0.58,355.31,0.027372,-0.014495,-0.0091339,0.099716,0.028164,0.66914,-0.56571,-0.02,0.02,-0.03,93.25
23031,7.0362e+07,0,-0.46,-0.51,355.33,0.023069,-0.0075546,-0.013393,0.095671,0.028807,0.66894,-0.56461,-0.02,0.02,-0.03,93.25
23075,7.0372e+07,0,-0.48,-0.55,355.32,0.032836,-0.010708,-0.0092999,0.09941,0.029474,0.66876,-0.56356,-0.02,0.02,-0.03,93.25
23120,7.0382e+07,0,-0.47,-0.53,355.32,0.033203,-0.015297,-0.010999,0.09766,0.030215,0.66854,-0.5626,-0.02,0.02,-0.03,93.25
23166,7.0392e+07,0,-0.47,-0.56,355.31,0.02444,-0.012135,-0.009092,0.099623,0.030511,0.6684,-0.56269,-0.02,0.02,-0.03,93.25
