LineNo,TimeUS,C,Roll,Pitch,Yaw,VN,VE,VD,dPD,PN,PE,PD,GX,GY,GZ,OH
203,6.4897e+07,1,-0.13,0.18,356.85,-0.22303,0.0039532,0.022668,0.064309,-0.32402,0.76769,-0.51682,-0.08,0.26,-0.05,93.28
652,6.5007e+07,1,-0.13,0.17,356.86,-0.22482,0.0076834,0.018196,0.049677,-0.32846,0.76923,-0.51264,-0.08,0.25,-0.04,93.28
992,6.5091e+07,1,-0.14,0.17,356.84,-0.22535,0.010525,0.024239,0.049465,-0.33205,0.76996,-0.50843,-0.08,0.25,-0.04,93.28
1217,6.5224e+07,1,-0.15,0.18,356.85,-0.223,0.006536,-0.29334,-0.20691,-0.33295,0.76945,-0.51887,-0.08,0.24,-0.04,93.28
1588,6.5344e+07,1,-0.16,0.2,356.85,-0.21849,-0.00077063,-0.47712,-0.38734,-0.33208,0.76816,-0.56048,-0.08,0.24,-0.04,93.28
1632,6.5355e+07,1,-0.15,0.2,356.85,-0.21595,-0.0014963,-0.47585,-0.38758,-0.32979,0.76784,-0.56439,-0.08,0.24,-0.04,93.28
1677,6.5365e+07,1,-0.15,0.2,356.85,-0.21331,-0.00056202,-0.47435,-0.38772,-0.32768,0.76753,-0.56829,-0.08,0.24,-0.04,93.28
1722,6.5375e+07,1,-0.15,0.2,356.85,-0.21113,-0.00060017,-0.47385,-0.38946,-0.32594,0.76724,-0.57288,-0.08,0.24,-0.04,93.28
1766,6.5385e+07,1,-0.15,0.19,356.85,-0.20783,-0.00059644,-0.47468,-0.39317,-0.32412,0.76695,-0.57697,-0.08,0.24,-0.04,93.28
1815,6.5395e+07,1,-0.15,0.19,356.85,-0.20628,-0.00020608,-0.47407,-0.39504,-0.32249,0.76668,-0.58111,-0.08,0.25,-0.04,93.28
1859,6.5406e+07,1,-0.15,0.18,356.84,-0.20693,-0.00093314,-0.47435,-0.39763,-0.32477,0.76668,-0.58633,-0.08,0.25,-0.04,93.28
1904,6.5417e+07,1,-0.15,0.18,356.84,-0.20534,-0.0019233,-0.47256,-0.39883,-0.32325,0.76641,-0.59047,-0.08,0.25,-0.04,93.28
1950,6.5427e+07,1,-0.15,0.18,356.84,-0.20371,-0.0017777,-0.47257,-0.40197,-0.32189,0.76614,-0.59464,-0.08,0.25,-0.04,93.28
1995,6.5437e+07,1,-0.15,0.18,356.84,-0.20206,-0.00061792,-0.4734,-0.40678,-0.32067,0.7659,-0.59875,-0.08,0.25,-0.04,93.28
2040,6.5448e+07,1,-0.15,0.18,356.84,-0.2029,-0.001942,-0.47284,-0.40917,-0.32289,0.76588,-0.60393,-0.08,0.25,-0.04,93.28
2084,6.5458e+07,1,-0.15,0.18,356.84,-0.20188,-0.0014689,-0.47311,-0.41266,-0.32199,0.76563,-0.60851,-0.08,0.25,-0.04,93.28
2129,6.5468e+07,1,-0.15,0.18,356.83,-0.19977,-0.0010203,-0.47264,-0.41435,-0.32105,0.7654,-0.6127,-0.08,0.25,-0.04,93.28
2175,6.5485e+07,1,-0.15,0.17,356.83,-0.19443,-0.0022633,-0.46992,-0.41152,-0.31697,0.76498,-0.61653,-0.08,0.25,-0.04,93.28
2221,6.5495e+07,1,-0.15,0.17,356.83,-0.18966,-0.0026935,-0.46743,-0.40084,-0.31446,0.76478,-0.61773,-0.08,0.25,-0.04,93.28
2270,6.5505e+07,1,-0.15,0.16,356.83,-0.1892,-0.0027938,-0.4679,-0.38261,-0.31636,0.76475,-0.62243,-0.08,0.25,-0.04,93.28
2314,6.5516e+07,1,-0.15,0.16,356.83,-0.18582,-0.0011526,-0.46667,-0.36262,-0.31399,0.76456,-0.6238,-0.08,0.25,-0.04,93.28
2359,6.5526e+07,1,-0.15,0.16,356.83,-0.18335,-0.0013264,-0.46597,-0.33835,-0.31196,0.76438,-0.62577,-0.08,0.25,-0.04,93.28
2403,6.5536e+07,1,-0.15,0.15,356.83,-0.1794,-0.0009829,-0.46398,-0.31591,-0.3099,0.76422,-0.62745,-0.08,0.25,-0.04,93.28
2448,6.5547e+07,1,-0.15,0.15,356.83,-0.17566,-0.0014775,-0.46151,-0.29873,-0.30797,0.76407,-0.62928,-0.08,0.25,-0.04,93.28
2495,6.5557e+07,1,-0.15,0.15,356.82,-0.17629,-0.0019881,-0.45997,-0.27884,-0.3099,0.76405,-0.63432,-0.08,0.25,-0.04,93.28
2541,6.5567e+07,1,-0.15,0.15,356.82,-0.17358,-0.0020484,-0.4588,-0.2654,-0.30808,0.7639,-0.63624,-0.08,0.25,-0.04,93.28
2587,6.5578e+07,1,-0.15,0.15,356.82,-0.17189,-0.0013363,-0.45695,-0.25277,-0.30657,0.76375,-0.63871,-0.08,0.25,-0.04,93.28
2631,6.5588e+07,1,-0.15,0.15,356.82,-0.1695,-0.001421,-0.45474,-0.24046,-0.30505,0.76362,-0.64082,-0.08,0.25,-0.04,93.28
2676,6.5598e+07,1,-0.15,0.15,356.82,-0.16756,-0.0013323,-0.45508,-0.2333,-0.30365,0.76349,-0.643,-0.08,0.25,-0.04,93.28
2724,6.5608e+07,1,-0.15,0.15,356.81,-0.16509,-0.0015968,-0.45386,-0.2281,-0.3024,0.76337,-0.64534,-0.08,0.25,-0.04,93.28
2769,6.5619e+07,1,-0.16,0.15,356.81,-0.16331,-0.0017243,-0.45246,-0.22259,-0.30125,0.76325,-0.64771,-0.08,0.25,-0.04,93.28
2815,6.563e+07,1,-0.16,0.15,356.81,-0.16414,-0.002364,-0.45026,-0.21583,-0.30305,0.76323,-0.65267,-0.08,0.25,-0.04,93.28
2859,6.564e+07,1,-0.16,0.15,356.81,-0.16287,-0.0016723,-0.45001,-0.21757,-0.30201,0.76311,-0.65512,-0.08,0.25,-0.04,93.28
2905,6.565e+07,1,-0.15,0.15,356.81,-0.16099,-0.0015422,-0.44967,-0.21932,-0.30125,0.763,-0.65807,-0.08,0.25,-0.04,93.28
2951,6.5664e+07,1,-0.15,0.14,356.8,-0.16,-0.0020982,-0.44897,-0.22198,-0.30108,0.7629,-0.66246,-0.08,0.26,-0.04,93.28
2996,6.5678e+07,1,-0.15,0.14,356.8,-0.15574,-0.0024845,-0.44943,-0.22844,-0.29898,0.76257,-0.66298,-0.08,0.25,-0.04,93.28
3044,6.5688e+07,1,-0.14,0.14,356.8,-0.15647,-0.0018942,-0.45021,-0.22399,-0.30054,0.76255,-0.66746,-0.08,0.25,-0.04,93.28
3088,6.5698e+07,1,-0.15,0.14,356.79,-0.15322,-0.0026114,-0.44747,-0.21202,-0.29806,0.76224,-0.66681,-0.08,0.25,-0.04,93.28
3140,6.5711e+07,1,-0.15,0.14,356.79,-0.15021,-0.0021696,-0.44689,-0.19368,-0.29618,0.76194,-0.66771,-0.08,0.25,-0.04,93.28
3184,6.5721e+07,1,-0.15,0.14,356.79,-0.14798,-0.0017663,-0.44757,-0.17932,-0.29399,0.76166,-0.66747,-0.08,0.25,-0.04,93.28
3230,6.5732e+07,1,-0.15,0.14,356.79,-0.14437,-0.0030003,-0.4482,-0.15706,-0.29213,0.76139,-0.66798,-0.08,0.26,-0.04,93.28
3275,6.5742e+07,1,-0.15,0.14,356.79,-0.14071,-0.0035951,-0.44817,-0.14114,-0.29023,0.76112,-0.66819,-0.08,0.26,-0.04,93.28
3319,6.5752e+07,1,-0.16,0.14,356.78,-0.13906,-0.0040553,-0.44783,-0.12708,-0.28846,0.76085,-0.66861,-0.08,0.26,-0.04,93.28
3365,6.5762e+07,1,-0.16,0.15,356.78,-0.13901,-0.0040988,-0.44874,-0.11084,-0.28999,0.76081,-0.67354,-0.08,0.26,-0.04,93.28
3410,6.5772e+07,1,-0.16,0.15,356.78,-0.13566,-0.0043252,-0.44774,-0.10118,-0.28831,0.76055,-0.67413,-0.08,0.26,-0.04,93.28
3455,6.5783e+07,1,-0.16,0.15,356.78,-0.13307,-0.0031634,-0.4462,-0.090474,-0.28673,0.76029,-0.67486,-0.08,0.26,-0.04,93.28
3500,6.5792e+07,1,-0.16,0.15,356.77,-0.13011,-0.0032926,-0.44294,-0.086084,-0.28526,0.76005,-0.67576,-0.08,0.26,-0.04,93.28
3545,6.5803e+07,1,-0.16,0.15,356.77,-0.12787,-0.0028539,-0.44023,-0.081008,-0.28389,0.75983,-0.67674,-0.08,0.26,-0.04,93.28
3594,6.5812e+07,1,-0.16,0.15,356.78,-0.12818,-0.0028777,-0.43961,-0.079604,-0.28518,0.7598,-0.68116,-0.08,0.26,-0.04,93.28
3638,6.5823e+07,1,-0.16,0.15,356.78,-0.12723,-0.0036966,-0.44002,-0.083652,-0.2839,0.75958,-0.68229,-0.08,0.26,-0.04,93.28
3683,6.5833e+07,1,-0.16,0.16,356.78,-0.12549,-0.0051232,-0.43867,-0.085198,-0.28288,0.75935,-0.68404,-0.08,0.26,-0.04,93.28
3729,6.5844e+07,1,-0.16,0.16,356.78,-0.12249,-0.0043731,-0.43793,-0.088024,-0.28182,0.75913,-0.68542,-0.08,0.26,-0.04,93.28
3774,6.5854e+07,1,-0.16,0.16,356.78,-0.12207,-0.0053285,-0.44003,-0.096025,-0.28089,0.75892,-0.68699,-0.08,0.26,-0.04,93.28
3820,6.5864e+07,1,-0.16,0.16,356.77,-0.11956,-0.0064455,-0.43957,-0.10461,-0.28004,0.7587,-0.68863,-0.08,0.26,-0.04,93.28
3861,6.5877e+07,1,-0.16,0.16,356.77,-0.11575,-0.0059358,-0.43852,-0.11326,-0.27803,0.75852,-0.68898,-0.08,0.26,-0.04,93.28
3905,6.5887e+07,1,-0.16,0.16,356.77,-0.11268,-0.0058323,-0.43722,-0.11363,-0.27556,0.75837,-0.6874,-0.08,0.26,-0.04,93.28
3950,6.5898e+07,1,-0.16,0.15,356.77,-0.1135,-0.0052761,-0.43806,-0.10205,-0.2768,0.75831,-0.6922,-0.08,0.26,-0.04,93.28
3996,6.5908e+07,1,-0.16,0.16,356.77,-0.11161,-0.0049506,-0.43666,-0.092136,-0.27455,0.75818,-0.69125,-0.08,0.26,-0.04,93.28
4047,6.5918e+07,1,-0.16,0.16,356.76,-0.10789,-0.0042094,-0.43458,-0.080615,-0.27253,0.75805,-0.69096,-0.08,0.26,-0.04,93.28
4091,6.5929e+07,1,-0.17,0.16,356.76,-0.10441,-0.0039825,-0.43509,-0.068152,-0.27053,0.75794,-0.69049,-0.08,0.26,-0.04,93.28
4136,6.5939e+07,1,-0.17,0.16,356.75,-0.10069,-0.0034494,-0.43305,-0.051651,-0.26875,0.75784,-0.69064,-0.08,0.26,-0.04,93.28
4180,6.5949e+07,1,-0.18,0.16,356.75,-0.097886,-0.0034347,-0.43066,-0.039763,-0.26697,0.75774,-0.69063,-0.08,0.26,-0.04,93.28
4225,6.5959e+07,1,-0.18,0.16,356.75,-0.094595,-0.003506,-0.42811,-0.027913,-0.2653,0.75766,-0.69079,-0.08,0.26,-0.04,93.28
4272,6.5969e+07,1,-0.18,0.16,356.75,-0.09112,-0.0023879,-0.42656,-0.023631,-0.26372,0.75758,-0.69112,-0.08,0.26,-0.04,93.28
4317,6.5979e+07,1,-0.18,0.16,356.75,-0.09004,-0.0022316,-0.42747,-0.020158,-0.26462,0.75755,-0.69536,-0.08,0.26,-0.04,93.28
4362,6.599e+07,1,-0.18,0.16,356.75,-0.086674,-0.0027825,-0.42515,-0.019815,-0.26309,0.75748,-0.69585,-0.08,0.26,-0.04,93.28
4406,6.6e+07,1,-0.18,0.16,356.75,-0.083903,-0.0018404,-0.42369,-0.022726,-0.26164,0.75742,-0.69646,-0.08,0.26,-0.04,93.28
4451,6.601e+07,1,-0.18,0.15,356.75,-0.082773,-0.00071434,-0.4218,-0.029151,-0.26029,0.75737,-0.6973,-0.08,0.26,-0.04,93.28
4499,6.602e+07,1,-0.18,0.16,356.76,-0.080728,-0.00028841,-0.42172,-0.039017,-0.25901,0.75734,-0.69812,-0.08,0.26,-0.04,93.28
4544,6.603e+07,1,-0.18,0.16,356.76,-0.081008,-0.00068848,-0.42222,-0.047826,-0.25991,0.75733,-0.70277,-0.08,0.26,-0.04,93.28
4588,6.6041e+07,1,-0.17,0.16,356.76,-0.078801,-0.001038,-0.42234,-0.059957,-0.2587,0.7573,-0.70381,-0.08,0.26,-0.04,93.28
4633,6.6051e+07,1,-0.17,0.16,356.76,-0.076377,-0.00047122,-0.41969,-0.072035,-0.25765,0.75727,-0.70543,-0.08,0.26,-0.04,93.28
4677,6.6061e+07,1,-0.17,0.17,356.75,-0.07398,0.00031945,-0.42022,-0.085909,-0.2566,0.75724,-0.70657,-0.08,0.26,-0.04,93.28
4723,6.6074e+07,1,-0.17,0.17,356.75,-0.071032,0.00088544,-0.41569,-0.095094,-0.25471,0.75715,-0.70615,-0.08,0.26,-0.04,93.28
4766,6.6085e+07,1,-0.17,0.17,356.74,-0.071189,0.0018431,-0.4141,-0.097062,-0.25549,0.75717,-0.71072,-0.08,0.26,-0.04,93.28
4810,6.6095e+07,1,-0.17,0.17,356.74,-0.068058,0.0026854,-0.41236,-0.10504,-0.25341,0.75709,-0.70915,-0.08,0.26,-0.04,93.28
4856,6.6105e+07,1,-0.17,0.17,356.74,-0.065107,0.0021979,-0.41142,-0.1083,-0.25144,0.75703,-0.70779,-0.08,0.26,-0.04,93.28
4901,6.6116e+07,1,-0.17,0.17,356.74,-0.063628,0.0027035,-0.40799,-0.097933,-0.2496,0.75697,-0.70671,-0.08,0.26,-0.04,93.28
4949,6.6126e+07,1,-0.17,0.17,356.74,-0.063033,0.0024457,-0.40845,-0.08265,-0.25029,0.757,-0.71116,-0.08,0.26,-0.04,93.28
4994,6.6137e+07,1,-0.18,0.17,356.73,-0.059949,0.0022491,-0.40805,-0.07255,-0.24851,0.75695,-0.71027,-0.08,0.26,-0.04,93.28
5038,6.6147e+07,1,-0.18,0.17,356.73,-0.059103,0.0031017,-0.40622,-0.061309,-0.24682,0.75691,-0.70958,-0.08,0.26,-0.04,93.28
5082,6.6157e+07,1,-0.18,0.17,356.73,-0.056764,0.0036696,-0.40349,-0.052887,-0.24524,0.75687,-0.70905,-0.08,0.26,-0.04,93.28
5126,6.6167e+07,1,-0.18,0.17,356.73,-0.056867,0.0031821,-0.40263,-0.045996,-0.24581,0.75691,-0.71308,-0.08,0.26,-0.04,93.28
5171,6.6178e+07,1,-0.18,0.18,356.73,-0.056168,0.0040514,-0.40145,-0.044189,-0.24434,0.75689,-0.71309,-0.08,0.26,-0.04,93.28
5217,6.6188e+07,1,-0.17,0.18,356.73,-0.055139,0.0036986,-0.3991,-0.042627,-0.24297,0.75687,-0.71328,-0.08,0.26,-0.04,93.28
5261,6.6198e+07,1,-0.17,0.18,356.73,-0.053256,0.0042735,-0.3973,-0.044119,-0.24164,0.75686,-0.71322,-0.08,0.26,-0.04,93.28
5306,6.6208e+07,1,-0.17,0.18,356.73,-0.051841,0.0042419,-0.39605,-0.042886,-0.2404,0.75686,-0.71335,-0.08,0.26,-0.04,93.28
5350,6.6218e+07,1,-0.17,0.18,356.73,-0.052103,0.0043518,-0.39725,-0.044815,-0.24092,0.7569,-0.71732,-0.08,0.26,-0.04,93.28
5399,6.6228e+07,1,-0.17,0.19,356.73,-0.050262,0.0035345,-0.39495,-0.047006,-0.23973,0.75689,-0.71759,-0.08,0.26,-0.04,93.28
5444,6.6238e+07,1,-0.17,0.18,356.73,-0.050647,0.0031757,-0.3936,-0.051268,-0.23864,0.75688,-0.71801,-0.08,0.26,-0.04,93.28
5489,6.6249e+07,1,-0.17,0.18,356.73,-0.048814,0.0027275,-0.39197,-0.053146,-0.2377,0.75688,-0.71893,-0.08,0.26,-0.04,93.28
5533,6.6263e+07,1,-0.17,0.18,356.72,-0.046148,0.0017964,-0.38777,-0.050101,-0.23606,0.75656,-0.71876,-0.08,0.26,-0.04,93.28
5577,6.6273e+07,1,-0.17,0.18,356.72,-0.043484,0.0014775,-0.38689,-0.044504,-0.23431,0.75623,-0.71719,-0.08,0.26,-0.04,93.28
5622,6.6284e+07,1,-0.17,0.18,356.72,-0.042238,0.0012676,-0.3834,-0.03647,-0.23267,0.75591,-0.71587,-0.08,0.26,-0.04,93.28
5668,6.6294e+07,1,-0.17,0.19,356.71,-0.041009,0.0017457,-0.37996,-0.022807,-0.23117,0.75561,-0.71514,-0.08,0.27,-0.04,93.28
5712,6.6305e+07,1,-0.17,0.19,356.71,-0.039435,0.0020773,-0.37835,-0.014418,-0.22972,0.75532,-0.7142,-0.08,0.27,-0.04,93.28
5758,6.6315e+07,1,-0.17,0.19,356.71,-0.041059,0.0020653,-0.37971,-0.0045486,-0.23012,0.75535,-0.718,-0.08,0.27,-0.04,93.28
5806,6.6325e+07,1,-0.18,0.19,356.71,-0.039185,0.0017387,-0.37785,0.0026996,-0.22876,0.75507,-0.71726,-0.08,0.27,-0.04,93.28
5853,6.6335e+07,1,-0.18,0.19,356.71,-0.037478,0.00021694,-0.3763,0.007417,-0.22748,0.75479,-0.71672,-0.08,0.27,-0.04,93.28
5897,6.6345e+07,1,-0.18,0.2,356.71,-0.035058,0.00027109,-0.3772,0.0099467,-0.22633,0.75452,-0.71675,-0.08,0.27,-0.04,93.28
5942,6.6355e+07,1,-0.19,0.2,356.71,-0.033608,0.00024634,-0.37454,0.0067773,-0.22519,0.75425,-0.71655,-0.08,0.27,-0.04,93.28
5990,6.6369e+07,1,-0.19,0.2,356.71,-0.030813,-0.00033646,-0.37376,0.0064162,-0.22423,0.754,-0.71757,-0.08,0.27,-0.04,93.28
6034,6.6379e+07,1,-0.19,0.2,356.7,-0.030415,0.00039174,-0.37216,0.0024834,-0.22454,0.754,-0.72133,-0.08,0.27,-0.04,93.28
6079,6.6389e+07,1,-0.19,0.21,356.7,-0.029522,-4.1831e-05,-0.37034,-0.0042677,-0.2235,0.75375,-0.72131,-0.08,0.27,-0.04,93.28
6123,6.6399e+07,1,-0.19,0.21,356.71,-0.028534,0.00070245,-0.36925,-0.01414,-0.22258,0.75352,-0.72184,-0.08,0.27,-0.04,93.28
6169,6.6409e+07,1,-0.19,0.21,356.71,-0.029565,0.00043662,-0.37068,-0.029483,-0.22287,0.75352,-0.72553,-0.08,0.27,-0.04,93.28
6214,6.6419e+07,1,-0.19,0.22,356.7,-0.028523,0.0012133,-0.36861,-0.044658,-0.22195,0.7533,-0.7258,-0.08,0.26,-0.04,93.28
6262,6.643e+07,1,-0.19,0.22,356.7,-0.026695,0.00029542,-0.36707,-0.05785,-0.22109,0.75307,-0.72626,-0.08,0.26,-0.04,93.28
6308,6.6439e+07,1,-0.19,0.22,356.7,-0.026598,0.0017805,-0.36703,-0.072216,-0.2203,0.75286,-0.72676,-0.08,0.26,-0.04,93.28
6352,6.645e+07,1,-0.19,0.23,356.7,-0.025883,0.0011833,-0.36674,-0.080872,-0.22057,0.75288,-0.73041,-0.08,0.26,-0.04,93.28
6399,6.646e+07,1,-0.19,0.23,356.71,-0.025451,-0.00012767,-0.36568,-0.092579,-0.21985,0.75267,-0.73148,-0.08,0.26,-0.04,93.28
6438,6.6472e+07,1,-0.19,0.23,356.71,-0.023164,0.00039393,-0.36335,-0.096808,-0.21805,0.75255,-0.73028,-0.08,0.26,-0.04,93.28
6482,6.6482e+07,1,-0.19,0.23,356.71,-0.021673,0.00047594,-0.36199,-0.090263,-0.21629,0.75243,-0.72858,-0.08,0.26,-0.04,93.28
6527,6.6492e+07,1,-0.19,0.23,356.7,-0.021151,0.0011468,-0.35898,-0.078323,-0.21464,0.75232,-0.72713,-0.08,0.26,-0.04,93.28
6572,6.6502e+07,1,-0.19,0.23,356.71,-0.018481,0.0022659,-0.3583,-0.069854,-0.21308,0.75223,-0.72586,-0.08,0.26,-0.04,93.28
6618,6.6513e+07,1,-0.19,0.23,356.71,-0.018456,0.0035785,-0.35711,-0.05397,-0.21326,0.75226,-0.72941,-0.08,0.26,-0.04,93.28
6663,6.6523e+07,1,-0.19,0.23,356.71,-0.017705,0.0048781,-0.35555,-0.04192,-0.21177,0.7522,-0.72833,-0.08,0.26,-0.04,93.28
6711,6.6533e+07,1,-0.19,0.23,356.71,-0.016289,0.0069561,-0.35268,-0.026659,-0.21038,0.75217,-0.72779,-0.08,0.26,-0.04,93.28
6756,6.6543e+07,1,-0.19,0.23,356.71,-0.014314,0.0086378,-0.34957,-0.014808,-0.20906,0.75217,-0.72707,-0.08,0.26,-0.04,93.28
6801,6.6553e+07,1,-0.19,0.23,356.71,-0.01391,0.0077209,-0.34749,-0.0068177,-0.2078,0.75217,-0.72651,-0.08,0.27,-0.04,93.28
6845,6.6563e+07,1,-0.19,0.23,356.71,-0.013101,0.0087669,-0.34633,-0.0043629,-0.20663,0.75218,-0.72601,-0.08,0.27,-0.04,93.28
6890,6.6574e+07,1,-0.19,0.23,356.71,-0.013251,0.0077663,-0.34656,-0.00025352,-0.20677,0.75227,-0.72983,-0.08,0.27,-0.04,93.28
6934,6.6585e+07,1,-0.19,0.24,356.71,-0.012298,0.0085924,-0.34561,-0.00096948,-0.20566,0.7523,-0.72979,-0.08,0.26,-0.04,93.28
6980,6.6596e+07,1,-0.19,0.24,356.7,-0.010266,0.0083334,-0.34406,-0.00056466,-0.20461,0.75232,-0.72961,-0.08,0.27,-0.04,93.28
7025,6.6606e+07,1,-0.19,0.24,356.71,-0.0098007,0.0075645,-0.34323,-0.0027821,-0.20362,0.75234,-0.72956,-0.08,0.27,-0.04,93.28
7071,6.6616e+07,1,-0.19,0.24,356.71,-0.009234,0.0073669,-0.34106,-0.010192,-0.20269,0.75236,-0.72969,-0.08,0.27,-0.04,93.28
7116,6.6626e+07,1,-0.19,0.24,356.71,-0.009741,0.0077428,-0.34038,-0.016246,-0.20279,0.75244,-0.73341,-0.08,0.27,-0.04,93.28
7164,6.6636e+07,1,-0.19,0.24,356.71,-0.0093674,0.0073194,-0.33923,-0.023523,-0.20192,0.75246,-0.73368,-0.08,0.27,-0.04,93.28
7209,6.6646e+07,1,-0.19,0.24,356.71,-0.0090035,0.0075505,-0.33873,-0.032897,-0.20111,0.75249,-0.734,-0.08,0.27,-0.04,93.28
7254,6.6657e+07,1,-0.2,0.24,356.71,-0.0092495,0.0075839,-0.33961,-0.047217,-0.2012,0.75257,-0.73743,-0.08,0.27,-0.04,93.28
7301,6.6667e+07,1,-0.2,0.24,356.71,-0.0082955,0.0089916,-0.33651,-0.064922,-0.20041,0.75261,-0.73815,-0.08,0.26,-0.04,93.28
7339,6.6679e+07,1,-0.2,0.24,356.71,-0.0068195,0.0088847,-0.33453,-0.077668,-0.19895,0.75222,-0.73681,-0.08,0.26,-0.04,93.28
7383,6.6689e+07,1,-0.2,0.25,356.7,-0.0060894,0.0069326,-0.33205,-0.080378,-0.19756,0.75183,-0.73504,-0.08,0.26,-0.04,93.28
7430,6.67e+07,1,-0.2,0.25,356.7,-0.0062086,0.0059427,-0.33156,-0.071905,-0.19763,0.7519,-0.73868,-0.08,0.26,-0.04,93.28
7476,6.671e+07,1,-0.2,0.26,356.7,-0.0056762,0.0044851,-0.33073,-0.068395,-0.1963,0.75149,-0.73713,-0.08,0.26,-0.04,93.28
7521,6.672e+07,1,-0.2,0.26,356.7,-0.0053325,0.0050494,-0.32913,-0.060715,-0.19506,0.75109,-0.73572,-0.08,0.26,-0.04,93.28
7566,6.6731e+07,1,-0.2,0.26,356.69,-0.0068666,0.0045689,-0.3285,-0.053149,-0.19513,0.75114,-0.73935,-0.08,0.26,-0.04,93.28
7615,6.6742e+07,1,-0.2,0.26,356.69,-0.0053774,0.0044709,-0.32676,-0.047124,-0.19395,0.75075,-0.73814,-0.08,0.26,-0.04,93.28
7659,6.6752e+07,1,-0.2,0.27,356.69,-0.0044507,0.0023897,-0.32554,-0.05022,-0.19283,0.75035,-0.73711,-0.08,0.26,-0.03,93.28
7704,6.6762e+07,1,-0.2,0.27,356.69,-0.0040926,0.0010564,-0.32512,-0.04555,-0.19288,0.75037,-0.74064,-0.08,0.26,-0.03,93.28
7750,6.6772e+07,1,-0.19,0.27,356.68,-0.0045769,0.00061129,-0.32533,-0.043933,-0.19182,0.74998,-0.73978,-0.08,0.26,-0.03,93.28
7795,6.6783e+07,1,-0.19,0.27,356.69,-0.0051542,-0.0013015,-0.32571,-0.038524,-0.19085,0.74959,-0.73908,-0.08,0.26,-0.04,93.28
7839,6.6793e+07,1,-0.19,0.27,356.69,-0.0056854,-0.0023309,-0.32464,-0.040092,-0.1909,0.7496,-0.74234,-0.08,0.26,-0.04,93.28
7884,6.6803e+07,1,-0.2,0.27,356.69,-0.0060335,-0.0023436,-0.32213,-0.041858,-0.18998,0.7492,-0.7419,-0.08,0.26,-0.03,93.28
7929,6.6813e+07,1,-0.2,0.28,356.69,-0.005636,-0.0020929,-0.32217,-0.043368,-0.18915,0.74882,-0.74132,-0.08,0.26,-0.03,93.28
7973,6.6823e+07,1,-0.21,0.29,356.69,-0.006364,-0.003636,-0.32025,-0.043634,-0.18839,0.74843,-0.74092,-0.08,0.26,-0.03,93.28
8021,6.6833e+07,1,-0.21,0.28,356.69,-0.0054511,-0.0035586,-0.31901,-0.044178,-0.1877,0.74805,-0.74068,-0.08,0.26,-0.03,93.28
8069,6.6844e+07,1,-0.2,0.28,356.68,-0.0064772,-0.0029552,-0.31925,-0.042067,-0.18774,0.74803,-0.74389,-0.08,0.26,-0.03,93.28
8117,6.6855e+07,1,-0.2,0.28,356.68,-0.0059516,-0.0020003,-0.31777,-0.042784,-0.18711,0.74768,-0.74409,-0.08,0.26,-0.03,93.28
8156,6.6866e+07,1,-0.2,0.29,356.68,-0.0044163,-0.0033146,-0.3152,-0.038854,-0.18555,0.747,-0.74187,-0.08,0.26,-0.03,93.28
8200,6.6876e+07,1,-0.21,0.3,356.67,-0.0030866,-0.0028175,-0.31435,-0.032989,-0.18407,0.74635,-0.7396,-0.08,0.26,-0.03,93.28
8245,6.6886e+07,1,-0.22,0.31,356.66,-0.0032645,-0.001608,-0.31445,-0.022214,-0.1841,0.74632,-0.74274,-0.08,0.26,-0.03,93.28
8290,6.6896e+07,1,-0.21,0.31,356.66,-0.0015237,-0.004325,-0.31263,-0.010486,-0.18269,0.74568,-0.74065,-0.08,0.26,-0.03,93.28
8336,6.6906e+07,1,-0.2,0.3,356.65,-0.00063321,-0.0052534,-0.31007,0.0079354,-0.18139,0.74505,-0.73865,-0.08,0.26,-0.03,93.28
8381,6.6916e+07,1,-0.2,0.31,356.65,-0.00040045,-0.0063282,-0.30909,0.027408,-0.18017,0.74444,-0.73719,-0.08,0.26,-0.03,93.28
8425,6.6926e+07,1,-0.21,0.31,356.65,-5.3602e-05,-0.0060845,-0.30678,0.043917,-0.17904,0.74383,-0.73566,-0.08,0.26,-0.03,93.28
8470,6.6936e+07,1,-0.22,0.32,356.66,-0.00036186,-0.0049549,-0.30584,0.053491,-0.178,0.74325,-0.73432,-0.08,0.26,-0.03,93.28
8520,6.6947e+07,1,-0.22,0.31,356.66,0.00043579,-0.0057482,-0.30278,0.062567,-0.17702,0.74269,-0.73317,-0.08,0.26,-0.03,93.28
8566,6.6957e+07,1,-0.2,0.32,356.66,-0.00092469,-0.0067567,-0.30295,0.070839,-0.17703,0.74262,-0.7365,-0.08,0.26,-0.03,93.28
8611,6.6968e+07,1,-0.2,0.32,356.66,0.00040469,-0.0071144,-0.30382,0.07089,-0.17612,0.74208,-0.73554,-0.08,0.26,-0.03,93.28
8656,6.6978e+07,1,-0.21,0.32,356.66,0.0032575,-0.0058778,-0.30167,0.070499,-0.17525,0.74154,-0.73505,-0.08,0.26,-0.03,93.28
8700,6.6989e+07,1,-0.2,0.33,356.65,0.0037213,-0.0053928,-0.30042,0.066491,-0.17443,0.74103,-0.73458,-0.08,0.26,-0.03,93.28
8745,6.6999e+07,1,-0.21,0.33,356.64,0.0036529,-0.0078691,-0.29716,0.066855,-0.17369,0.74052,-0.73398,-0.08,0.26,-0.03,93.28
8789,6.7009e+07,1,-0.21,0.33,356.65,0.0050938,-0.0084805,-0.29646,0.060783,-0.173,0.74002,-0.73353,-0.08,0.26,-0.03,93.28
8834,6.702e+07,1,-0.21,0.33,356.64,0.0055084,-0.0064552,-0.29379,0.059576,-0.17295,0.73994,-0.73648,-0.08,0.26,-0.03,93.28
8879,6.703e+07,1,-0.2,0.34,356.62,0.004982,-0.0089653,-0.29034,0.048363,-0.17229,0.73946,-0.7361,-0.08,0.26,-0.03,93.28
8925,6.704e+07,1,-0.19,0.33,356.61,0.0061979,-0.013233,-0.29106,0.036669,-0.17167,0.73897,-0.73619,-0.08,0.26,-0.03,93.28
8974,6.7051e+07,1,-0.2,0.34,356.6,0.0057946,-0.013486,-0.29004,0.026357,-0.17162,0.73884,-0.73909,-0.08,0.26,-0.03,93.28
9020,6.7061e+07,1,-0.21,0.33,356.6,0.0037703,-0.0094502,-0.29018,0.012096,-0.17105,0.73834,-0.7393,-0.08,0.26,-0.03,93.28
9065,6.7078e+07,1,-0.18,0.34,356.6,0.0069448,-0.010689,-0.28766,-0.014669,-0.16988,0.73784,-0.73863,-0.08,0.26,-0.03,93.28
9109,6.7088e+07,1,-0.18,0.33,356.6,0.0091651,-0.012633,-0.28522,-0.021171,-0.1688,0.73741,-0.73621,-0.08,0.26,-0.03,93.28
9154,6.7099e+07,1,-0.19,0.35,356.61,0.0055796,-0.012255,-0.28387,-0.014109,-0.16873,0.73728,-0.73905,-0.08,0.26,-0.03,93.28
9199,6.7109e+07,1,-0.18,0.33,356.61,0.004373,-0.008181,-0.28491,-0.0084739,-0.16776,0.73687,-0.73679,-0.08,0.26,-0.03,93.28
9244,6.7119e+07,1,-0.17,0.36,356.62,0.0072435,-0.0079291,-0.27604,0.014775,-0.16687,0.73652,-0.73502,-0.08,0.26,-0.03,93.28
9289,6.713e+07,1,-0.16,0.35,356.6,0.011431,-0.011323,-0.27775,0.023981,-0.16601,0.73615,-0.73319,-0.08,0.26,-0.03,93.28
9335,6.714e+07,1,-0.17,0.36,356.62,0.0083992,-0.011548,-0.27204,0.043167,-0.16522,0.73576,-0.73185,-0.08,0.26,-0.03,93.28
9379,6.715e+07,1,-0.18,0.35,356.61,0.0057993,-0.010405,-0.27262,0.051868,-0.16454,0.73541,-0.73039,-0.08,0.26,-0.03,93.28
9428,6.716e+07,1,-0.18,0.38,356.62,0.010629,-0.0072126,-0.26678,0.062523,-0.16392,0.73511,-0.72916,-0.08,0.26,-0.03,93.28
9472,6.7171e+07,1,-0.17,0.35,356.6,0.014147,-0.01262,-0.27031,0.066403,-0.16381,0.73502,-0.73184,-0.08,0.26,-0.03,93.28
9518,6.7181e+07,1,-0.19,0.37,356.6,0.0070413,-0.013806,-0.27255,0.06631,-0.16321,0.73466,-0.73079,-0.08,0.26,-0.03,93.28
9565,6.7194e+07,1,-0.2,0.35,356.6,0.0041666,-0.010394,-0.26966,0.070171,-0.16272,0.73428,-0.73035,-0.08,0.26,-0.03,93.28
9610,6.7204e+07,1,-0.21,0.38,356.6,0.012191,-0.011095,-0.26667,0.066643,-0.16227,0.73398,-0.72928,-0.08,0.26,-0.03,93.28
9655,6.7214e+07,1,-0.19,0.36,356.59,0.011115,-0.017236,-0.27003,0.059647,-0.16178,0.73362,-0.72871,-0.08,0.26,-0.03,93.28
9699,6.7225e+07,1,-0.22,0.37,356.57,0.004206,-0.017955,-0.26618,0.058397,-0.16141,0.73326,-0.72797,-0.08,0.26,-0.03,93.28
9744,6.7235e+07,1,-0.22,0.37,356.59,-0.0017822,-0.01114,-0.26418,0.058386,-0.1614,0.73311,-0.73064,-0.08,0.26,-0.03,93.28
9790,6.7245e+07,1,-0.23,0.38,356.59,0.0051617,-0.013504,-0.26209,0.054853,-0.16111,0.73282,-0.73005,-0.08,0.26,-0.03,93.28
9839,6.7255e+07,1,-0.2,0.38,356.58,0.0034564,-0.016288,-0.26641,0.037692,-0.16103,0.73267,-0.7327,-0.08,0.26,-0.03,93.28
9884,6.7265e+07,1,-0.22,0.38,356.57,-0.0058518,-0.016674,-0.25896,0.02759,-0.16075,0.73232,-0.73242,-0.08,0.26,-0.03,93.28
9924,6.7277e+07,1,-0.21,0.42,356.6,-0.0056515,-0.011258,-0.25862,0.014825,-0.15987,0.73187,-0.73026,-0.08,0.26,-0.03,93.28
9968,6.7287e+07,1,-0.2,0.4,356.58,0.0098055,-0.013198,-0.25603,0.016811,-0.15899,0.73145,-0.72832,-0.08,0.26,-0.03,93.28
10013,6.7297e+07,1,-0.18,0.43,356.58,0.0056719,-0.015201,-0.2593,0.015414,-0.15893,0.7313,-0.73089,-0.08,0.26,-0.03,93.28
10059,6.7307e+07,1,-0.19,0.39,356.57,-0.0027108,-0.014337,-0.25228,0.021062,-0.15812,0.73088,-0.72884,-0.08,0.25,-0.03,93.28
10104,6.7318e+07,1,-0.19,0.44,356.59,0.0006462,-0.011472,-0.25355,0.020186,-0.15744,0.73051,-0.72677,-0.08,0.25,-0.03,93.28
10150,6.7328e+07,1,-0.18,0.4,356.58,0.0089212,-0.013674,-0.25285,0.025411,-0.1574,0.7304,-0.72927,-0.08,0.25,-0.03,93.28
10195,6.7338e+07,1,-0.19,0.43,356.58,0.0054135,-0.016999,-0.25339,0.028724,-0.15667,0.73,-0.7274,-0.08,0.25,-0.03,93.28
10240,6.7348e+07,1,-0.2,0.39,356.58,-0.0059741,-0.013239,-0.25046,0.040632,-0.15608,0.72959,-0.72596,-0.08,0.26,-0.03,93.28
10289,6.7359e+07,1,-0.21,0.43,356.59,0.00043898,-0.014443,-0.24535,0.054581,-0.1556,0.72923,-0.72449,-0.08,0.26,-0.03,93.28
10334,6.7369e+07,1,-0.19,0.42,356.57,0.0046919,-0.017484,-0.25139,0.054356,-0.15509,0.72884,-0.72343,-0.08,0.26,-0.03,93.28
10379,6.7379e+07,1,-0.22,0.4,356.57,-0.001007,-0.01959,-0.24212,0.0669,-0.15465,0.72845,-0.72232,-0.08,0.26,-0.03,93.28
10423,6.7389e+07,1,-0.2,0.42,356.58,-0.010062,-0.016153,-0.24785,0.060275,-0.15435,0.72808,-0.7214,-0.08,0.26,-0.03,93.28
10468,6.74e+07,1,-0.22,0.41,356.58,0.00031557,-0.018451,-0.24156,0.068276,-0.15439,0.72792,-0.72383,-0.08,0.26,-0.03,93.28
10513,6.741e+07,1,-0.2,0.44,356.58,0.002383,-0.020902,-0.24862,0.051863,-0.15403,0.72755,-0.72304,-0.08,0.26,-0.03,93.28
10557,6.742e+07,1,-0.22,0.38,356.57,-0.0082366,-0.019743,-0.24057,0.053125,-0.15375,0.72716,-0.72263,-0.08,0.26,-0.03,93.28
10602,6.743e+07,1,-0.21,0.45,356.59,-0.01011,-0.013609,-0.24294,0.043481,-0.15361,0.72686,-0.72218,-0.08,0.26,-0.03,93.28
10646,6.7441e+07,1,-0.21,0.41,356.59,0.0011418,-0.016543,-0.2428,0.038462,-0.15365,0.7267,-0.7248,-0.08,0.26,-0.03,93.28
10693,6.7451e+07,1,-0.22,0.46,356.59,0.0023201,-0.018936,-0.23987,0.034442,-0.15344,0.72636,-0.72448,-0.08,0.26,-0.03,93.28
10741,6.7462e+07,1,-0.21,0.42,356.59,-0.010194,-0.014563,-0.2424,0.024564,-0.15335,0.72601,-0.72449,-0.08,0.26,-0.03,93.28
10785,6.7473e+07,1,-0.22,0.45,356.6,-0.0044516,-0.016409,-0.23442,0.019121,-0.15344,0.72585,-0.72687,-0.08,0.26,-0.03,93.28
10827,6.7484e+07,1,-0.18,0.45,356.6,-3.7496e-05,-0.023747,-0.24167,0.0042721,-0.15262,0.72515,-0.72473,-0.08,0.26,-0.03,93.28
10872,6.7494e+07,1,-0.21,0.42,356.59,-0.0061174,-0.025578,-0.23127,0.013118,-0.15187,0.72447,-0.72259,-0.08,0.26,-0.03,93.28
10920,6.7507e+07,1,-0.21,0.49,356.61,-0.0091369,-0.015756,-0.23312,0.0052462,-0.15129,0.72379,-0.72131,-0.08,0.25,-0.03,93.28
10965,6.7517e+07,1,-0.22,0.45,356.58,0.0012367,-0.01813,-0.23337,0.0075178,-0.1507,0.72318,-0.71952,-0.08,0.25,-0.03,93.28
11009,6.7528e+07,1,-0.24,0.47,356.58,4.0975e-05,-0.02067,-0.2307,0.019937,-0.15069,0.72293,-0.72211,-0.08,0.25,-0.03,93.28
11054,6.7539e+07,1,-0.24,0.46,356.58,-0.012628,-0.017424,-0.23419,0.022639,-0.15018,0.72232,-0.72027,-0.08,0.25,-0.03,93.28
11098,6.7549e+07,1,-0.25,0.48,356.59,-0.0042958,-0.019827,-0.22781,0.035759,-0.14974,0.72176,-0.71867,-0.08,0.25,-0.03,93.28
11143,6.7559e+07,1,-0.22,0.48,356.58,0.00097147,-0.026128,-0.23373,0.034076,-0.14926,0.72118,-0.71724,-0.08,0.25,-0.03,93.28
11193,6.7569e+07,1,-0.25,0.46,356.57,-0.0041165,-0.027557,-0.22606,0.045476,-0.14883,0.72058,-0.71603,-0.08,0.26,-0.03,93.28
11237,6.7579e+07,1,-0.24,0.49,356.59,-0.010845,-0.022515,-0.23037,0.048023,-0.14893,0.72034,-0.71854,-0.08,0.26,-0.03,93.28
11283,6.7589e+07,1,-0.26,0.47,356.59,-0.00061392,-0.023451,-0.22302,0.056854,-0.14861,0.71979,-0.71744,-0.08,0.26,-0.03,93.28
11327,6.7599e+07,1,-0.24,0.5,356.6,0.0019565,-0.026807,-0.22923,0.050988,-0.14827,0.71923,-0.71653,-0.08,0.26,-0.03,93.28
11375,6.7612e+07,1,-0.25,0.47,356.59,-0.0095462,-0.018524,-0.22786,0.048103,-0.14802,0.7186,-0.71618,-0.08,0.26,-0.03,93.28
11420,6.7622e+07,1,-0.26,0.5,356.6,-0.0041012,-0.018176,-0.22424,0.047141,-0.1481,0.71841,-0.71845,-0.08,0.26,-0.03,93.28
11464,6.7633e+07,1,-0.22,0.5,356.59,0.0004399,-0.023478,-0.23036,0.035363,-0.14785,0.7179,-0.71753,-0.08,0.25,-0.03,93.28
11510,6.7643e+07,1,-0.26,0.49,356.58,-0.002143,-0.027506,-0.22288,0.037944,-0.14764,0.71735,-0.71681,-0.08,0.25,-0.03,93.28
11554,6.7653e+07,1,-0.23,0.5,356.58,-0.011736,-0.026422,-0.22552,0.029084,-0.14754,0.71683,-0.71624,-0.08,0.25,-0.03,93.28
11601,6.7663e+07,1,-0.25,0.49,356.57,-0.0045539,-0.030142,-0.21804,0.03113,-0.14762,0.71659,-0.71845,-0.08,0.25,-0.03,93.28
11644,6.7675e+07,1,-0.23,0.52,356.57,6.3622e-05,-0.031631,-0.22189,0.025228,-0.14669,0.71604,-0.71669,-0.08,0.25,-0.03,93.28
11690,6.7685e+07,1,-0.26,0.48,356.55,-0.0089572,-0.027578,-0.21692,0.033566,-0.14586,0.71555,-0.71471,-0.08,0.25,-0.03,93.28
11734,6.7695e+07,1,-0.28,0.52,356.57,-0.0092556,-0.021433,-0.21471,0.040958,-0.14517,0.71511,-0.71296,-0.08,0.26,-0.03,93.28
11780,6.7705e+07,1,-0.27,0.51,356.56,-0.0025579,-0.023359,-0.21712,0.042141,-0.14449,0.71468,-0.71133,-0.08,0.26,-0.03,93.28
11824,6.7716e+07,1,-0.28,0.52,356.55,-0.0022954,-0.025837,-0.21653,0.047662,-0.14449,0.71437,-0.7137,-0.08,0.26,-0.03,93.28
11869,6.7727e+07,1,-0.27,0.53,356.55,-0.013383,-0.025536,-0.21581,0.04916,-0.1439,0.71391,-0.71228,-0.08,0.25,-0.03,93.28
11913,6.7737e+07,1,-0.28,0.52,356.56,-0.0047271,-0.027657,-0.20927,0.060707,-0.1434,0.7135,-0.71102,-0.08,0.26,-0.03,93.28
11958,6.7748e+07,1,-0.26,0.55,356.57,0.00098894,-0.031536,-0.2138,0.054099,-0.14285,0.7131,-0.70972,-0.08,0.25,-0.03,93.28
12003,6.7758e+07,1,-0.28,0.51,356.55,-0.0070138,-0.031449,-0.208,0.058257,-0.14237,0.71267,-0.70856,-0.08,0.25,-0.03,93.28
12047,6.7768e+07,1,-0.28,0.56,356.57,-0.013967,-0.024684,-0.20681,0.061217,-0.14252,0.71237,-0.71087,-0.08,0.25,-0.03,93.28
12097,6.7778e+07,1,-0.26,0.54,356.57,-0.0074787,-0.025657,-0.20645,0.060758,-0.14215,0.71199,-0.70986,-0.08,0.26,-0.03,93.28
12141,6.7788e+07,1,-0.26,0.54,356.57,-0.0062782,-0.030621,-0.20511,0.060366,-0.14177,0.71159,-0.70901,-0.08,0.26,-0.03,93.28
12186,6.7799e+07,1,-0.26,0.53,356.56,-0.018218,-0.028578,-0.20444,0.055661,-0.14149,0.71117,-0.70829,-0.08,0.26,-0.03,93.28
12231,6.7808e+07,1,-0.26,0.54,356.57,-0.016459,-0.027894,-0.2021,0.052164,-0.14132,0.7108,-0.70772,-0.08,0.26,-0.03,93.28
12279,6.7819e+07,1,-0.24,0.55,356.57,-0.0078451,-0.03156,-0.20723,0.043871,-0.14142,0.71051,-0.70973,-0.08,0.26,-0.03,93.28
12324,6.783e+07,1,-0.25,0.53,356.54,-0.0071361,-0.035321,-0.20521,0.040346,-0.14119,0.71005,-0.70923,-0.08,0.26,-0.03,93.28
12368,6.784e+07,1,-0.25,0.56,356.55,-0.017014,-0.031515,-0.20388,0.0379,-0.14109,0.70964,-0.70866,-0.08,0.26,-0.03,93.28
12412,6.785e+07,1,-0.25,0.56,356.54,-0.01119,-0.03264,-0.19975,0.036234,-0.14108,0.70921,-0.70836,-0.08,0.26,-0.03,93.28
12456,6.7861e+07,1,-0.26,0.58,356.55,-0.0033077,-0.035388,-0.20059,0.028385,-0.141,0.70879,-0.70805,-0.08,0.26,-0.03,93.28
12505,6.7871e+07,1,-0.27,0.56,356.53,-0.017182,-0.033927,-0.19886,0.021793,-0.14098,0.70833,-0.70802,-0.08,0.26,-0.03,93.28
12550,6.7883e+07,1,-0.28,0.58,356.54,-0.022709,-0.030888,-0.19725,0.016738,-0.14121,0.70797,-0.71024,-0.08,0.26,-0.03,93.28
12591,6.7893e+07,1,-0.27,0.6,356.54,-0.011656,-0.035654,-0.20107,0.0021402,-0.14019,0.70744,-0.70804,-0.08,0.26,-0.03,93.28
12636,6.7903e+07,1,-0.28,0.58,356.53,-0.011219,-0.040411,-0.19887,0.00032798,-0.13916,0.7069,-0.70589,-0.08,0.26,-0.03,93.28
12681,6.7914e+07,1,-0.28,0.59,356.54,-0.021224,-0.037005,-0.19865,0.0072016,-0.13933,0.70652,-0.70788,-0.08,0.26,-0.03,93.28
12725,6.7924e+07,1,-0.28,0.58,356.54,-0.015613,-0.036642,-0.19645,0.0159,-0.13849,0.70602,-0.70589,-0.08,0.26,-0.03,93.28
12770,6.7934e+07,1,-0.28,0.61,356.55,-0.0045228,-0.038622,-0.19856,0.025324,-0.13764,0.70551,-0.70401,-0.08,0.26,-0.03,93.28
12815,6.7944e+07,1,-0.28,0.57,356.53,-0.013748,-0.035888,-0.19734,0.037279,-0.13684,0.70496,-0.70247,-0.08,0.26,-0.03,93.28
12859,6.7955e+07,1,-0.3,0.6,356.54,-0.020659,-0.031236,-0.19318,0.046305,-0.13704,0.70462,-0.70446,-0.08,0.26,-0.03,93.28
12904,6.7965e+07,1,-0.27,0.59,356.54,-0.016487,-0.035367,-0.19555,0.047566,-0.13639,0.70412,-0.70303,-0.08,0.26,-0.03,93.28
12949,6.7976e+07,1,-0.27,0.59,356.53,-0.011932,-0.04078,-0.18882,0.059323,-0.1357,0.70362,-0.70163,-0.08,0.26,-0.03,93.28
13000,6.7986e+07,1,-0.26,0.6,356.52,-0.025482,-0.038307,-0.19211,0.060134,-0.13513,0.70312,-0.70037,-0.08,0.26,-0.03,93.28
13044,6.7996e+07,1,-0.27,0.59,356.52,-0.024121,-0.035967,-0.18577,0.067759,-0.13469,0.70266,-0.69928,-0.08,0.26,-0.03,93.28
13089,6.8006e+07,1,-0.26,0.65,356.54,-0.015616,-0.040145,-0.19015,0.064195,-0.13489,0.7023,-0.7012,-0.08,0.26,-0.03,93.28
13134,6.8016e+07,1,-0.27,0.59,356.51,-0.015651,-0.042024,-0.19081,0.061537,-0.1344,0.70175,-0.70038,-0.08,0.26,-0.03,93.28
13181,6.803e+07,1,-0.29,0.62,356.53,-0.025583,-0.037953,-0.18312,0.063928,-0.13412,0.70114,-0.70011,-0.08,0.26,-0.03,93.28
13226,6.804e+07,1,-0.26,0.64,356.53,-0.021238,-0.039678,-0.191,0.054531,-0.13382,0.70067,-0.69922,-0.08,0.26,-0.03,93.28
13270,6.805e+07,1,-0.27,0.59,356.53,-0.014786,-0.047165,-0.18193,0.060079,-0.13349,0.70013,-0.69868,-0.08,0.26,-0.03,93.28
13317,6.806e+07,1,-0.28,0.63,356.53,-0.025064,-0.042847,-0.18469,0.052165,-0.13324,0.69963,-0.69807,-0.08,0.26,-0.03,93.28
13358,6.8071e+07,1,-0.29,0.59,356.53,-0.025013,-0.037901,-0.18297,0.047961,-0.13351,0.69921,-0.70006,-0.08,0.26,-0.03,93.28
13424,6.8132e+07,1,-0.28,0.66,356.53,-0.021391,-0.036183,-0.18067,0.060097,-0.12947,0.69797,-0.6927,-0.08,0.26,-0.03,93.28
13470,6.8142e+07,1,-0.3,0.66,356.53,-0.025332,-0.034451,-0.17061,0.069484,-0.12971,0.6976,-0.69444,-0.08,0.26,-0.03,93.28
13514,6.8153e+07,1,-0.26,0.68,356.54,-0.020329,-0.037685,-0.17435,0.062976,-0.12911,0.69742,-0.69314,-0.08,0.25,-0.03,93.28
13559,6.8163e+07,1,-0.26,0.65,356.53,-0.01568,-0.041879,-0.16809,0.070446,-0.12847,0.69724,-0.69182,-0.08,0.26,-0.03,93.28
13603,6.8173e+07,1,-0.27,0.67,356.52,-0.024855,-0.038044,-0.16569,0.072617,-0.12796,0.69701,-0.69084,-0.08,0.26,-0.03,93.28
13648,6.8183e+07,1,-0.27,0.65,356.53,-0.025969,-0.033043,-0.16244,0.074884,-0.12753,0.69686,-0.68976,-0.08,0.26,-0.03,93.28
13697,6.8193e+07,1,-0.28,0.69,356.53,-0.015508,-0.033631,-0.16061,0.073549,-0.12712,0.69671,-0.68886,-0.08,0.26,-0.03,93.28
13742,6.8204e+07,1,-0.26,0.66,356.52,-0.020652,-0.034995,-0.16794,0.065476,-0.12729,0.69634,-0.6905,-0.08,0.26,-0.03,93.28
13787,6.8214e+07,1,-0.3,0.68,356.52,-0.02793,-0.033931,-0.1551,0.074941,-0.12694,0.69615,-0.68971,-0.08,0.26,-0.03,93.28
13831,6.8224e+07,1,-0.27,0.69,356.53,-0.028261,-0.035368,-0.1675,0.057127,-0.12671,0.69593,-0.68916,-0.08,0.26,-0.03,93.28
13877,6.8235e+07,1,-0.28,0.68,356.53,-0.017618,-0.039868,-0.153,0.067951,-0.12643,0.69572,-0.68852,-0.08,0.26,-0.03,93.28
13921,6.8245e+07,1,-0.27,0.7,356.53,-0.025168,-0.043054,-0.16291,0.052214,-0.1262,0.69549,-0.688,-0.08,0.26,-0.03,93.28
13966,6.8254e+07,1,-0.29,0.68,356.53,-0.028035,-0.040937,-0.14606,0.062376,-0.12608,0.69525,-0.68754,-0.08,0.26,-0.03,93.28
14013,6.8265e+07,1,-0.27,0.73,356.55,-0.023395,-0.043871,-0.15462,0.048957,-0.12635,0.69488,-0.68905,-0.08,0.26,-0.03,93.28
14052,6.8276e+07,1,-0.27,0.69,356.53,-0.019691,-0.04364,-0.15222,0.046414,-0.12531,0.69475,-0.68709,-0.08,0.26,-0.03,93.28
14097,6.8286e+07,1,-0.31,0.71,356.54,-0.026682,-0.040211,-0.14138,0.058559,-0.12436,0.69467,-0.68512,-0.08,0.26,-0.03,93.28
14145,6.8296e+07,1,-0.28,0.7,356.54,-0.02972,-0.035976,-0.15097,0.051216,-0.1235,0.69465,-0.68309,-0.08,0.26,-0.03,93.28
14190,6.8307e+07,1,-0.31,0.71,356.54,-0.018865,-0.034068,-0.13897,0.070309,-0.12273,0.69457,-0.68157,-0.08,0.26,-0.03,93.28
14236,6.8317e+07,1,-0.28,0.71,356.53,-0.025965,-0.035069,-0.15353,0.061829,-0.12293,0.69419,-0.68304,-0.08,0.26,-0.03,93.28
14281,6.8327e+07,1,-0.31,0.7,356.52,-0.031568,-0.033768,-0.13449,0.078078,-0.1222,0.69413,-0.68145,-0.08,0.26,-0.03,93.28
14325,6.8337e+07,1,-0.27,0.73,356.53,-0.029914,-0.032777,-0.14863,0.062608,-0.12157,0.69411,-0.67983,-0.08,0.26,-0.03,93.28
14370,6.8348e+07,1,-0.27,0.7,356.51,-0.020037,-0.040884,-0.13818,0.07653,-0.12182,0.6937,-0.68136,-0.08,0.26,-0.03,93.28
14415,6.8358e+07,1,-0.26,0.74,356.52,-0.027487,-0.041953,-0.1438,0.071519,-0.12119,0.69362,-0.67992,-0.08,0.26,-0.03,93.28
14461,6.8368e+07,1,-0.28,0.71,356.51,-0.03461,-0.03915,-0.13574,0.082462,-0.12074,0.69351,-0.67869,-0.08,0.26,-0.03,93.28
14506,6.8378e+07,1,-0.28,0.76,356.53,-0.025098,-0.039684,-0.13304,0.085639,-0.12029,0.69344,-0.67749,-0.08,0.26,-0.03,93.28
14550,6.8388e+07,1,-0.26,0.73,356.51,-0.027995,-0.040278,-0.13666,0.078048,-0.11983,0.69334,-0.67638,-0.08,0.26,-0.03,93.28
14599,6.8399e+07,1,-0.29,0.74,356.51,-0.039183,-0.037256,-0.12977,0.083476,-0.12018,0.69291,-0.67788,-0.08,0.26,-0.03,93.28
14643,6.8409e+07,1,-0.28,0.76,356.52,-0.040753,-0.031995,-0.13669,0.073469,-0.11989,0.69282,-0.6769,-0.08,0.26,-0.03,93.28
14688,6.8419e+07,1,-0.3,0.76,356.52,-0.029665,-0.034674,-0.12741,0.07834,-0.11959,0.69273,-0.67603,-0.08,0.26,-0.03,93.28
14734,6.843e+07,1,-0.28,0.77,356.51,-0.034564,-0.036924,-0.13677,0.063182,-0.11932,0.6926,-0.67528,-0.08,0.26,-0.03,93.28
14781,6.8443e+07,1,-0.29,0.76,356.51,-0.039448,-0.037794,-0.12802,0.065867,-0.1193,0.69237,-0.67498,-0.08,0.26,-0.03,93.28
14826,6.8453e+07,1,-0.29,0.8,356.52,-0.033231,-0.035735,-0.12694,0.061992,-0.11923,0.69229,-0.67443,-0.08,0.26,-0.03,93.28
14870,6.8463e+07,1,-0.28,0.77,356.5,-0.033931,-0.037628,-0.12919,0.054506,-0.11956,0.69196,-0.67567,-0.08,0.26,-0.03,93.28
14918,6.8478e+07,1,-0.3,0.78,356.5,-0.042798,-0.032848,-0.12183,0.053368,-0.11834,0.69198,-0.67269,-0.08,0.26,-0.03,93.28
14963,6.8488e+07,1,-0.29,0.81,356.51,-0.037072,-0.032597,-0.12494,0.048285,-0.11743,0.692,-0.6709,-0.08,0.26,-0.03,93.28
15012,6.8499e+07,1,-0.27,0.79,356.49,-0.033665,-0.034888,-0.1246,0.053064,-0.11779,0.69171,-0.67209,-0.08,0.26,-0.03,93.28
15057,6.8509e+07,1,-0.29,0.8,356.49,-0.040956,-0.034767,-0.12445,0.056637,-0.1169,0.6917,-0.67047,-0.08,0.26,-0.03,93.28
15102,6.8519e+07,1,-0.29,0.8,356.49,-0.046643,-0.02977,-0.12325,0.061698,-0.11613,0.69169,-0.66892,-0.08,0.26,-0.03,93.28
15146,6.8529e+07,1,-0.31,0.82,356.5,-0.038605,-0.027385,-0.11669,0.073887,-0.11547,0.69166,-0.66769,-0.08,0.26,-0.03,93.28
15191,6.8539e+07,1,-0.28,0.8,356.48,-0.039619,-0.029171,-0.12049,0.073995,-0.11475,0.69164,-0.66619,-0.08,0.26,-0.03,93.28
15235,6.8549e+07,1,-0.31,0.81,356.49,-0.048047,-0.026922,-0.11135,0.085703,-0.11517,0.69134,-0.66737,-0.08,0.26,-0.03,93.28
15280,6.8559e+07,1,-0.29,0.82,356.49,-0.047183,-0.021927,-0.11597,0.081741,-0.11461,0.69134,-0.66595,-0.08,0.26,-0.03,93.28
15324,6.8569e+07,1,-0.3,0.83,356.5,-0.037611,-0.023513,-0.11189,0.08625,-0.11408,0.69137,-0.66467,-0.08,0.26,-0.03,93.28
15370,6.858e+07,1,-0.29,0.83,356.49,-0.039845,-0.02804,-0.11692,0.080383,-0.11362,0.69133,-0.66366,-0.08,0.26,-0.03,93.28
15415,6.8591e+07,1,-0.29,0.82,356.49,-0.047938,-0.025297,-0.11137,0.085163,-0.11325,0.69133,-0.66263,-0.08,0.26,-0.03,93.28
15464,6.8601e+07,1,-0.28,0.84,356.5,-0.043706,-0.026009,-0.11363,0.08104,-0.11296,0.69135,-0.66174,-0.08,0.26,-0.03,93.28
15509,6.8611e+07,1,-0.27,0.83,356.48,-0.04313,-0.02687,-0.11397,0.079137,-0.11272,0.6913,-0.66104,-0.08,0.26,-0.03,93.28
15553,6.8622e+07,1,-0.3,0.84,356.48,-0.053268,-0.025056,-0.10976,0.082236,-0.11318,0.69103,-0.66216,-0.08,0.26,-0.03,93.28
15598,6.8632e+07,1,-0.3,0.84,356.49,-0.057376,-0.019675,-0.10976,0.078485,-0.11306,0.69102,-0.66142,-0.08,0.26,-0.03,93.28
15642,6.8643e+07,1,-0.32,0.86,356.49,-0.04607,-0.022867,-0.10447,0.079927,-0.113,0.69098,-0.6609,-0.08,0.27,-0.03,93.28
15690,6.8653e+07,1,-0.29,0.86,356.48,-0.047794,-0.028173,-0.10975,0.065989,-0.11346,0.6907,-0.66199,-0.08,0.27,-0.03,93.28
15729,6.8664e+07,1,-0.31,0.85,356.48,-0.05397,-0.030547,-0.10345,0.062592,-0.1122,0.69053,-0.66036,-0.08,0.26,-0.03,93.28
15774,6.8674e+07,1,-0.3,0.87,356.49,-0.049746,-0.030443,-0.10501,0.052773,-0.11095,0.69045,-0.65862,-0.08,0.26,-0.03,93.28
15819,6.8685e+07,1,-0.3,0.86,356.47,-0.044373,-0.031733,-0.10424,0.052178,-0.10973,0.69034,-0.65705,-0.08,0.26,-0.03,93.28
15864,6.8695e+07,1,-0.33,0.87,356.47,-0.052333,-0.030602,-0.10309,0.057002,-0.11022,0.69004,-0.6581,-0.08,0.26,-0.03,93.28
15913,6.8706e+07,1,-0.33,0.88,356.47,-0.061063,-0.022024,-0.1031,0.058906,-0.10923,0.68989,-0.65671,-0.08,0.26,-0.03,93.28
15959,6.8716e+07,1,-0.33,0.9,356.49,-0.051068,-0.022388,-0.098797,0.065391,-0.10825,0.68981,-0.65534,-0.08,0.26,-0.03,93.28
16003,6.8726e+07,1,-0.3,0.91,356.48,-0.051061,-0.024844,-0.10221,0.062895,-0.1073,0.68969,-0.65411,-0.08,0.26,-0.03,93.28
16049,6.8736e+07,1,-0.32,0.89,356.47,-0.057057,-0.028728,-0.092113,0.073309,-0.10652,0.68952,-0.65306,-0.08,0.26,-0.03,93.28
16095,6.8747e+07,1,-0.31,0.92,356.49,-0.057025,-0.025374,-0.094493,0.072883,-0.1071,0.68926,-0.654,-0.08,0.26,-0.03,93.28
16140,6.8757e+07,1,-0.32,0.91,356.49,-0.048026,-0.030774,-0.089713,0.077412,-0.10633,0.68915,-0.65292,-0.08,0.26,-0.03,93.28
16185,6.8768e+07,1,-0.31,0.92,356.48,-0.050994,-0.035021,-0.091886,0.075185,-0.10566,0.68897,-0.65208,-0.08,0.26,-0.03,93.28
16230,6.8778e+07,1,-0.32,0.9,356.48,-0.060199,-0.028469,-0.090501,0.07458,-0.10514,0.6888,-0.65131,-0.08,0.26,-0.03,93.28
16275,6.8788e+07,1,-0.32,0.93,356.49,-0.053452,-0.02648,-0.088503,0.073863,-0.10463,0.68866,-0.65055,-0.08,0.26,-0.03,93.28
16321,6.8798e+07,1,-0.31,0.93,356.47,-0.051962,-0.02765,-0.095133,0.062851,-0.10411,0.68851,-0.64988,-0.08,0.26,-0.03,93.28
16372,6.8809e+07,1,-0.32,0.91,356.47,-0.060507,-0.030051,-0.089781,0.065255,-0.10465,0.68818,-0.6508,-0.08,0.26,-0.03,93.28
16417,6.8818e+07,1,-0.32,0.94,356.47,-0.064691,-0.023985,-0.093265,0.057148,-0.10431,0.688,-0.65021,-0.08,0.26,-0.03,93.28
16461,6.8829e+07,1,-0.33,0.93,356.48,-0.053595,-0.028197,-0.085838,0.058457,-0.10404,0.68782,-0.64979,-0.08,0.26,-0.03,93.28
16506,6.8839e+07,1,-0.29,0.95,356.47,-0.052294,-0.03262,-0.087606,0.050313,-0.10371,0.68765,-0.64936,-0.08,0.26,-0.03,93.28
16553,6.8852e+07,1,-0.31,0.94,356.47,-0.062984,-0.029094,-0.0841,0.046653,-0.10366,0.68736,-0.649,-0.08,0.26,-0.03,93.28
16600,6.8868e+07,1,-0.31,0.94,356.48,-0.050732,-0.030652,-0.08271,0.043598,-0.10278,0.68719,-0.6476,-0.08,0.26,-0.03,93.28
16644,6.8879e+07,1,-0.3,0.96,356.47,-0.051006,-0.035131,-0.081753,0.041486,-0.10156,0.68714,-0.64579,-0.08,0.26,-0.03,93.28
16689,6.8889e+07,1,-0.32,0.94,356.47,-0.062147,-0.031623,-0.079997,0.046503,-0.10056,0.68702,-0.64419,-0.08,0.26,-0.03,93.28
16736,6.89e+07,1,-0.34,0.95,356.48,-0.058108,-0.026901,-0.076958,0.056788,-0.10122,0.68669,-0.64507,-0.08,0.26,-0.03,93.28
16784,6.8911e+07,1,-0.31,0.97,356.47,-0.056391,-0.027667,-0.080698,0.057959,-0.1002,0.68663,-0.64346,-0.08,0.26,-0.03,93.28
16829,6.8922e+07,1,-0.33,0.95,356.45,-0.062051,-0.031763,-0.074624,0.070645,-0.099336,0.68651,-0.64205,-0.08,0.26,-0.03,93.28
16873,6.8932e+07,1,-0.33,1,356.47,-0.063222,-0.032915,-0.075633,0.072833,-0.098632,0.68637,-0.64075,-0.08,0.26,-0.03,93.28
16918,6.8942e+07,1,-0.32,0.96,356.46,-0.05598,-0.034442,-0.074846,0.075597,-0.099232,0.68606,-0.64148,-0.08,0.26,-0.03,93.28
16963,6.8953e+07,1,-0.31,1,356.45,-0.056244,-0.03707,-0.073912,0.077278,-0.098442,0.68597,-0.64019,-0.08,0.26,-0.03,93.28
17008,6.8963e+07,1,-0.32,0.95,356.44,-0.065889,-0.036896,-0.071715,0.076361,-0.099062,0.68563,-0.64091,-0.08,0.26,-0.03,93.28
17053,6.8973e+07,1,-0.33,0.99,356.45,-0.060697,-0.031827,-0.067008,0.075563,-0.098449,0.68549,-0.63972,-0.08,0.26,-0.03,93.28
17098,6.8983e+07,1,-0.31,0.98,356.44,-0.05877,-0.031588,-0.072082,0.067236,-0.097792,0.68537,-0.63855,-0.08,0.26,-0.03,93.28
17144,6.8993e+07,1,-0.31,0.99,356.43,-0.060765,-0.036094,-0.066081,0.070016,-0.097203,0.6852,-0.63749,-0.08,0.26,-0.03,93.28
17188,6.9004e+07,1,-0.32,0.99,356.44,-0.069627,-0.032512,-0.06852,0.067179,-0.097868,0.68482,-0.63816,-0.08,0.26,-0.03,93.28
17243,6.9017e+07,1,-0.32,0.97,356.44,-0.059678,-0.037381,-0.064425,0.069011,-0.09758,0.68456,-0.63734,-0.08,0.26,-0.03,93.28
17287,6.9027e+07,1,-0.31,1.01,356.45,-0.059682,-0.041535,-0.063853,0.067688,-0.09719,0.68433,-0.6365,-0.08,0.26,-0.03,93.28
17332,6.9037e+07,1,-0.34,0.97,356.44,-0.070516,-0.040356,-0.064607,0.06255,-0.096834,0.68411,-0.63563,-0.08,0.26,-0.03,93.28
17377,6.9048e+07,1,-0.35,1.01,356.46,-0.068983,-0.036773,-0.061841,0.061898,-0.097541,0.68374,-0.63628,-0.08,0.26,-0.03,93.28
17421,6.9058e+07,1,-0.35,1.01,356.45,-0.06425,-0.037533,-0.064062,0.055734,-0.097254,0.68356,-0.6355,-0.08,0.26,-0.03,93.28
17467,6.9067e+07,1,-0.35,1.02,356.44,-0.06669,-0.040003,-0.06357,0.053714,-0.097013,0.68335,-0.63483,-0.08,0.26,-0.03,93.28
17508,6.9082e+07,1,-0.36,1.05,356.45,-0.070526,-0.035608,-0.062714,0.052023,-0.096111,0.68315,-0.63347,-0.08,0.26,-0.03,93.28
17553,6.9092e+07,1,-0.36,1.01,356.44,-0.063643,-0.035,-0.062529,0.053983,-0.094919,0.68316,-0.63189,-0.08,0.26,-0.03,93.28
17599,6.9103e+07,1,-0.35,1.03,356.43,-0.062313,-0.038526,-0.060907,0.060633,-0.093788,0.68312,-0.63046,-0.08,0.26,-0.03,93.28
17643,6.9112e+07,1,-0.34,1,356.42,-0.073059,-0.038887,-0.061749,0.063406,-0.092761,0.68308,-0.62911,-0.08,0.26,-0.03,93.28
17693,6.9122e+07,1,-0.34,1.02,356.44,-0.07047,-0.037339,-0.05771,0.071564,-0.093473,0.68271,-0.62971,-0.08,0.26,-0.03,93.28
17737,6.9133e+07,1,-0.32,1.02,356.44,-0.066072,-0.035838,-0.059633,0.072111,-0.092535,0.68269,-0.62844,-0.08,0.26,-0.03,93.28
17782,6.9143e+07,1,-0.31,1.01,356.42,-0.066891,-0.041269,-0.053265,0.081937,-0.091672,0.68263,-0.62728,-0.08,0.26,-0.03,93.28
17828,6.9153e+07,1,-0.31,1.05,356.42,-0.074498,-0.039453,-0.055644,0.081727,-0.090961,0.68254,-0.62621,-0.08,0.26,-0.03,93.28
17872,6.9163e+07,1,-0.31,1.02,356.43,-0.066061,-0.036738,-0.05354,0.086605,-0.090412,0.68244,-0.62499,-0.08,0.26,-0.03,93.28
17917,6.9173e+07,1,-0.31,1.07,356.43,-0.061122,-0.036955,-0.05421,0.087533,-0.089803,0.68236,-0.62383,-0.08,0.26,-0.03,93.28
17961,6.9183e+07,1,-0.32,1.03,356.41,-0.069645,-0.039216,-0.05287,0.088802,-0.089283,0.68222,-0.62273,-0.08,0.26,-0.03,93.28
18006,6.9194e+07,1,-0.34,1.08,356.43,-0.07144,-0.035696,-0.04872,0.094155,-0.090029,0.68183,-0.62325,-0.08,0.26,-0.03,93.28
18051,6.9204e+07,1,-0.33,1.05,356.42,-0.067012,-0.033902,-0.056306,0.085791,-0.089613,0.68173,-0.62222,-0.08,0.26,-0.03,93.28
18095,6.9214e+07,1,-0.34,1.07,356.42,-0.064355,-0.037137,-0.049066,0.08963,-0.0892,0.68161,-0.62129,-0.08,0.26,-0.03,93.28
18146,6.9224e+07,1,-0.34,1.05,356.41,-0.077952,-0.039312,-0.052209,0.08238,-0.088957,0.6814,-0.62048,-0.08,0.26,-0.03,93.28
18190,6.9234e+07,1,-0.36,1.06,356.42,-0.076816,-0.037914,-0.043161,0.088863,-0.089719,0.68102,-0.62095,-0.08,0.26,-0.03,93.28
18235,6.9244e+07,1,-0.34,1.09,356.42,-0.071255,-0.040646,-0.050645,0.077619,-0.089496,0.68088,-0.62016,-0.08,0.26,-0.03,93.28
18282,6.9255e+07,1,-0.35,1.05,356.4,-0.072076,-0.047414,-0.04523,0.079035,-0.089293,0.68068,-0.61943,-0.08,0.26,-0.03,93.28
18323,6.9269e+07,1,-0.42,1.09,356.41,-0.077973,-0.036721,-0.041517,0.079504,-0.088259,0.68021,-0.61794,-0.08,0.26,-0.03,93.28
18367,6.9279e+07,1,-0.38,1.11,356.41,-0.074505,-0.034903,-0.050409,0.066722,-0.086912,0.68,-0.61625,-0.08,0.26,-0.03,93.28
18412,6.929e+07,1,-0.38,1.1,356.4,-0.07321,-0.042326,-0.038965,0.079692,-0.087634,0.67958,-0.61668,-0.08,0.26,-0.03,93.28
18460,6.93e+07,1,-0.35,1.11,356.39,-0.083046,-0.044943,-0.044103,0.076408,-0.086464,0.6793,-0.61515,-0.08,0.26,-0.03,93.28
18505,6.931e+07,1,-0.36,1.1,356.4,-0.081277,-0.039231,-0.036637,0.081899,-0.087276,0.67892,-0.61553,-0.08,0.26,-0.03,93.28
18549,6.9321e+07,1,-0.35,1.16,356.41,-0.073387,-0.043339,-0.038923,0.078597,-0.086104,0.67874,-0.61401,-0.08,0.26,-0.03,93.28
18598,6.9331e+07,1,-0.34,1.12,356.39,-0.073715,-0.048518,-0.037052,0.082384,-0.084988,0.67851,-0.61255,-0.08,0.26,-0.03,93.28
18643,6.9341e+07,1,-0.37,1.16,356.41,-0.081486,-0.045655,-0.034797,0.086782,-0.084052,0.67825,-0.61124,-0.08,0.26,-0.03,93.28
18688,6.9351e+07,1,-0.36,1.13,356.41,-0.079456,-0.037372,-0.041283,0.083238,-0.083306,0.67798,-0.61002,-0.08,0.26,-0.03,93.28
18736,6.9365e+07,1,-0.37,1.13,356.41,-0.075419,-0.044625,-0.032784,0.090179,-0.0827,0.67762,-0.60897,-0.08,0.26,-0.03,93.28
18781,6.9375e+07,1,-0.35,1.15,356.41,-0.085896,-0.050949,-0.038772,0.08399,-0.083579,0.6771,-0.60939,-0.08,0.26,-0.03,93.28
18826,6.9386e+07,1,-0.38,1.13,356.42,-0.081974,-0.046961,-0.032137,0.088892,-0.082916,0.6768,-0.60833,-0.08,0.26,-0.03,93.28
18870,6.9396e+07,1,-0.38,1.18,356.42,-0.075109,-0.047717,-0.034033,0.085136,-0.082293,0.67653,-0.60741,-0.08,0.26,-0.03,93.28
18914,6.9406e+07,1,-0.39,1.14,356.41,-0.078155,-0.050539,-0.031354,0.084948,-0.081718,0.67623,-0.60651,-0.08,0.26,-0.03,93.28
18958,6.9416e+07,1,-0.4,1.18,356.41,-0.085075,-0.047906,-0.028317,0.084895,-0.081282,0.67592,-0.60573,-0.08,0.26,-0.03,93.28
19007,6.9426e+07,1,-0.4,1.16,356.42,-0.086968,-0.041095,-0.034468,0.075898,-0.081038,0.6756,-0.60498,-0.08,0.26,-0.03,93.28
19052,6.9437e+07,1,-0.42,1.19,356.41,-0.078272,-0.042526,-0.025708,0.082511,-0.081845,0.67517,-0.60529,-0.08,0.26,-0.03,93.28
19098,6.9447e+07,1,-0.41,1.18,356.4,-0.088163,-0.041873,-0.036314,0.068037,-0.081612,0.67478,-0.60463,-0.08,0.26,-0.03,93.28
19143,6.9457e+07,1,-0.44,1.18,356.4,-0.088065,-0.038612,-0.018897,0.080405,-0.081413,0.67445,-0.60394,-0.08,0.26,-0.03,93.28
19186,6.9468e+07,1,-0.41,1.21,356.41,-0.080942,-0.044641,-0.026397,0.067101,-0.082367,0.67398,-0.60422,-0.08,0.26,-0.03,93.28
19228,6.9479e+07,1,-0.39,1.18,356.4,-0.080127,-0.05307,-0.019242,0.07074,-0.080778,0.67388,-0.6027,-0.08,0.26,-0.03,93.28
19273,6.9489e+07,1,-0.4,1.19,356.4,-0.088209,-0.049824,-0.016393,0.072434,-0.079291,0.67381,-0.60131,-0.08,0.26,-0.03,93.28
19317,6.9499e+07,1,-0.39,1.17,356.42,-0.089186,-0.044826,-0.017511,0.072918,-0.077966,0.67378,-0.59993,-0.08,0.26,-0.03,93.28
19363,6.951e+07,1,-0.41,1.2,356.42,-0.079026,-0.045208,-0.012267,0.080173,-0.076726,0.67373,-0.5987,-0.08,0.26,-0.03,93.28
19407,6.9519e+07,1,-0.4,1.19,356.41,-0.084689,-0.046167,-0.021103,0.072299,-0.075518,0.67365,-0.59751,-0.08,0.26,-0.03,93.28
19456,6.953e+07,1,-0.45,1.2,356.43,-0.091205,-0.039403,-0.010457,0.085472,-0.076481,0.67315,-0.59771,-0.08,0.26,-0.03,93.28
19500,6.9541e+07,1,-0.41,1.22,356.44,-0.089217,-0.037044,-0.026153,0.070436,-0.075469,0.6731,-0.59661,-0.08,0.26,-0.03,93.28
19545,6.9551e+07,1,-0.43,1.21,356.43,-0.081581,-0.040074,-0.014914,0.082011,-0.074475,0.67303,-0.59561,-0.08,0.26,-0.03,93.28
19590,6.9561e+07,1,-0.41,1.22,356.43,-0.089313,-0.042805,-0.026506,0.06895,-0.075325,0.67258,-0.59582,-0.08,0.26,-0.03,93.28
19639,6.9575e+07,1,-0.42,1.2,356.44,-0.09058,-0.041306,-0.019067,0.072857,-0.074832,0.67231,-0.59489,-0.08,0.26,-0.03,93.28
19684,6.9585e+07,1,-0.44,1.24,356.44,-0.081389,-0.043517,-0.01461,0.076281,-0.074032,0.67223,-0.59384,-0.08,0.26,-0.03,93.28
19728,6.9595e+07,1,-0.41,1.22,356.43,-0.091402,-0.043698,-0.027367,0.059442,-0.074948,0.67174,-0.59405,-0.08,0.26,-0.03,93.28
19773,6.9606e+07,1,-0.46,1.23,356.43,-0.095327,-0.041662,-0.013,0.070674,-0.074248,0.67161,-0.59302,-0.08,0.25,-0.03,93.28
19817,6.9616e+07,1,-0.42,1.23,356.44,-0.093869,-0.038425,-0.025873,0.055745,-0.073646,0.67152,-0.59205,-0.08,0.26,-0.03,93.28
19862,6.9625e+07,1,-0.43,1.24,356.43,-0.085443,-0.042881,-0.011426,0.06824,-0.073056,0.6714,-0.59114,-0.08,0.26,-0.03,93.28
19910,6.9636e+07,1,-0.41,1.24,356.42,-0.094135,-0.045128,-0.025806,0.052304,-0.072577,0.67122,-0.59033,-0.08,0.26,-0.03,93.28
19955,6.9646e+07,1,-0.45,1.23,356.43,-0.095856,-0.041614,-0.010426,0.067377,-0.073521,0.67077,-0.59047,-0.08,0.26,-0.03,93.28
20000,6.9657e+07,1,-0.42,1.27,356.44,-0.087109,-0.045364,-0.017612,0.058655,-0.073265,0.67059,-0.58975,-0.08,0.26,-0.03,93.28
20047,6.9667e+07,1,-0.41,1.23,356.43,-0.090926,-0.05089,-0.016409,0.057158,-0.073017,0.67034,-0.58901,-0.08,0.25,-0.03,93.28
20086,6.9678e+07,1,-0.45,1.25,356.44,-0.10129,-0.047871,-0.0086028,0.063658,-0.071452,0.67019,-0.58787,-0.08,0.26,-0.03,93.28
20131,6.9688e+07,1,-0.42,1.24,356.45,-0.10378,-0.042601,-0.01989,0.052091,-0.072466,0.66974,-0.58798,-0.08,0.26,-0.03,93.28
20175,6.9699e+07,1,-0.45,1.27,356.45,-0.09604,-0.04553,-0.0083756,0.06455,-0.070901,0.66967,-0.58659,-0.08,0.26,-0.03,93.28
20221,6.9709e+07,1,-0.42,1.25,356.44,-0.1037,-0.048313,-0.021014,0.054192,-0.069472,0.66954,-0.58528,-0.08,0.26,-0.03,93.28
20266,6.9719e+07,1,-0.46,1.26,356.44,-0.10691,-0.044972,-0.0064976,0.070975,-0.068234,0.6694,-0.58407,-0.08,0.26,-0.03,93.28
20312,6.9729e+07,1,-0.43,1.29,356.45,-0.097873,-0.045387,-0.018041,0.061879,-0.067201,0.66925,-0.58295,-0.08,0.26,-0.03,93.28
20361,6.9739e+07,1,-0.44,1.26,356.43,-0.094529,-0.051286,-0.011369,0.071929,-0.068151,0.66878,-0.58307,-0.08,0.26,-0.03,93.28
20405,6.9749e+07,1,-0.45,1.28,356.43,-0.10156,-0.052093,-0.015228,0.070285,-0.067095,0.6686,-0.58204,-0.08,0.26,-0.03,93.28
20450,6.9759e+07,1,-0.46,1.27,356.44,-0.1033,-0.044749,-0.0093233,0.078714,-0.066207,0.66843,-0.58102,-0.08,0.26,-0.03,93.28
20496,6.977e+07,1,-0.46,1.3,356.45,-0.094724,-0.04553,-0.0091384,0.080466,-0.065414,0.66829,-0.58014,-0.08,0.26,-0.03,93.28
20545,6.9784e+07,1,-0.42,1.27,356.42,-0.10885,-0.048349,-0.01722,0.073003,-0.065061,0.66792,-0.57915,-0.08,0.26,-0.03,93.28
20591,6.9794e+07,1,-0.45,1.27,356.43,-0.11357,-0.043805,-0.0044826,0.085218,-0.064478,0.66775,-0.57819,-0.08,0.26,-0.03,93.28
20636,6.9804e+07,1,-0.43,1.29,356.43,-0.10574,-0.04634,-0.014936,0.074048,-0.065679,0.66728,-0.57832,-0.08,0.26,-0.03,93.28
20680,6.9814e+07,1,-0.42,1.28,356.42,-0.10037,-0.050573,-0.0073369,0.079307,-0.065108,0.66709,-0.57738,-0.08,0.26,-0.03,93.28
20726,6.9824e+07,1,-0.42,1.3,356.42,-0.10917,-0.052467,-0.010232,0.07328,-0.066188,0.6666,-0.57751,-0.08,0.26,-0.03,93.28
20771,6.9834e+07,1,-0.44,1.3,356.43,-0.11109,-0.045167,-0.0092248,0.071207,-0.065796,0.66639,-0.5766,-0.08,0.25,-0.03,93.28
20819,6.9844e+07,1,-0.45,1.34,356.44,-0.10164,-0.045894,-0.0087583,0.067101,-0.065443,0.66619,-0.57582,-0.08,0.25,-0.02,93.28
20866,6.986e+07,1,-0.43,1.32,356.43,-0.10884,-0.053702,-0.014398,0.058048,-0.064236,0.66599,-0.57448,-0.08,0.25,-0.03,93.28
20910,6.987e+07,1,-0.45,1.31,356.44,-0.11204,-0.045729,-0.0052066,0.068415,-0.062599,0.66608,-0.57312,-0.08,0.25,-0.03,93.28
20956,6.9881e+07,1,-0.45,1.34,356.45,-0.10106,-0.045906,-0.0099803,0.065204,-0.061105,0.66617,-0.57193,-0.08,0.26,-0.03,93.28
21001,6.9891e+07,1,-0.43,1.32,356.43,-0.1014,-0.047725,-0.012108,0.066883,-0.062246,0.66566,-0.57199,-0.08,0.26,-0.03,93.28
21045,6.9902e+07,1,-0.47,1.31,356.43,-0.11154,-0.045222,-0.0025962,0.078686,-0.06095,0.66564,-0.57093,-0.08,0.26,-0.02,93.28
21091,6.9913e+07,1,-0.44,1.32,356.43,-0.11479,-0.040414,-0.014898,0.068647,-0.05975,0.6657,-0.56988,-0.08,0.26,-0.02,93.28
21136,6.9923e+07,1,-0.46,1.31,356.43,-0.10727,-0.044222,-0.0022599,0.082713,-0.058698,0.66572,-0.56893,-0.08,0.26,-0.02,93.28
21181,6.9933e+07,1,-0.42,1.32,356.41,-0.1107,-0.047981,-0.014096,0.071491,-0.057629,0.66573,-0.56806,-0.08,0.26,-0.02,93.28
21229,6.9943e+07,1,-0.45,1.3,356.41,-0.11721,-0.044917,-0.0008721,0.084198,-0.056721,0.66573,-0.56721,-0.08,0.26,-0.02,93.28
21274,6.9954e+07,1,-0.42,1.34,356.42,-0.11001,-0.043263,-0.0080734,0.077065,-0.057862,0.66533,-0.56729,-0.08,0.26,-0.02,93.28
21319,6.9964e+07,1,-0.42,1.34,356.41,-0.10443,-0.04674,-0.0012357,0.082714,-0.056985,0.66535,-0.56646,-0.08,0.26,-0.02,93.28
21363,6.9974e+07,1,-0.45,1.34,356.4,-0.1082,-0.047615,-0.0011312,0.080771,-0.056331,0.66527,-0.56574,-0.08,0.26,-0.02,93.28
21410,6.9985e+07,1,-0.44,1.36,356.41,-0.11577,-0.039768,-0.0057292,0.073043,-0.057476,0.66483,-0.56574,-0.08,0.26,-0.02,93.28
21454,6.9995e+07,1,-0.46,1.37,356.42,-0.10828,-0.041426,4.0879e-05,0.074527,-0.056861,0.66483,-0.56515,-0.08,0.25,-0.02,93.28
21499,7.0005e+07,1,-0.43,1.37,356.41,-0.11103,-0.046148,-0.0072803,0.062143,-0.056286,0.66477,-0.56457,-0.08,0.25,-0.02,93.28
21544,7.0015e+07,1,-0.47,1.35,356.41,-0.12165,-0.043724,0.0039616,0.068762,-0.055989,0.66462,-0.56406,-0.08,0.25,-0.02,93.28
21588,7.0026e+07,1,-0.46,1.38,356.42,-0.12411,-0.039678,-0.0060957,0.055104,-0.057225,0.66418,-0.56405,-0.08,0.25,-0.02,93.28
21634,7.0036e+07,1,-0.47,1.36,356.42,-0.11539,-0.045181,0.004045,0.061279,-0.056904,0.66411,-0.56356,-0.08,0.25,-0.02,93.28
21684,7.0049e+07,1,-0.45,1.37,356.42,-0.12097,-0.052472,0.0022316,0.053903,-0.057016,0.66383,-0.56311,-0.08,0.25,-0.02,93.28
21731,7.0059e+07,1,-0.46,1.37,356.42,-0.12693,-0.04407,0.0053101,0.05275,-0.056915,0.66371,-0.56263,-0.08,0.25,-0.02,93.28
21776,7.0069e+07,1,-0.49,1.4,356.42,-0.11839,-0.039914,0.0062257,0.049348,-0.058297,0.66325,-0.56261,-0.08,0.25,-0.02,93.28
21814,7.0081e+07,1,-0.45,1.4,356.4,-0.11872,-0.043567,-0.00098951,0.039229,-0.056707,0.66321,-0.5612,-0.08,0.25,-0.02,93.28
21859,7.0091e+07,1,-0.48,1.39,356.4,-0.12653,-0.042686,0.010014,0.050104,-0.05519,0.66316,-0.5599,-0.08,0.25,-0.02,93.28
21904,7.0101e+07,1,-0.44,1.42,356.41,-0.13046,-0.04007,0.0022566,0.044579,-0.056498,0.66273,-0.55983,-0.08,0.25,-0.02,93.28
21949,7.0111e+07,1,-0.45,1.41,356.4,-0.12129,-0.045865,0.012052,0.057854,-0.055107,0.66272,-0.5583,-0.08,0.25,-0.02,93.28
21994,7.0121e+07,1,-0.44,1.43,356.4,-0.125,-0.051053,0.0029002,0.05455,-0.053836,0.66266,-0.5569,-0.08,0.25,-0.02,93.28
22038,7.0131e+07,1,-0.45,1.41,356.4,-0.13437,-0.051976,0.014859,0.072736,-0.052895,0.66251,-0.55552,-0.08,0.25,-0.02,93.28
22083,7.0141e+07,1,-0.44,1.44,356.42,-0.12755,-0.048292,0.0098423,0.073218,-0.051984,0.66244,-0.55427,-0.08,0.25,-0.02,93.28
22132,7.0151e+07,1,-0.44,1.43,356.41,-0.12319,-0.049445,0.013481,0.081079,-0.051097,0.66235,-0.55303,-0.08,0.25,-0.02,93.28
22177,7.0162e+07,1,-0.47,1.43,356.41,-0.12832,-0.048692,0.013898,0.086572,-0.052361,0.66188,-0.55293,-0.08,0.25,-0.02,93.28
22222,7.0172e+07,1,-0.48,1.43,356.42,-0.13532,-0.039662,0.013185,0.089257,-0.051679,0.66179,-0.55175,-0.08,0.26,-0.02,93.28
22266,7.0182e+07,1,-0.5,1.44,356.43,-0.12475,-0.037333,0.015707,0.095399,-0.051221,0.66167,-0.55067,-0.08,0.26,-0.02,93.28
22311,7.0193e+07,1,-0.47,1.44,356.42,-0.12772,-0.041628,0.0086351,0.08832,-0.05249,0.66123,-0.55052,-0.08,0.26,-0.02,93.28
22356,7.0203e+07,1,-0.51,1.42,356.42,-0.13596,-0.042597,0.015542,0.094364,-0.051943,0.66107,-0.54928,-0.08,0.25,-0.02,93.28
22401,7.0213e+07,1,-0.48,1.45,356.43,-0.13904,-0.039927,0.0071967,0.084576,-0.053339,0.66063,-0.54915,-0.08,0.25,-0.02,93.28
22445,7.0223e+07,1,-0.5,1.44,356.42,-0.12886,-0.045534,0.018679,0.094956,-0.052882,0.66048,-0.54794,-0.08,0.25,-0.02,93.28
22490,7.0233e+07,1,-0.47,1.46,356.41,-0.13507,-0.05592,0.012973,0.088445,-0.052657,0.66022,-0.54678,-0.08,0.25,-0.02,93.28
22535,7.0243e+07,1,-0.49,1.43,356.4,-0.14472,-0.051498,0.020794,0.095414,-0.05245,0.65999,-0.54565,-0.08,0.25,-0.02,93.28
22583,7.0253e+07,1,-0.48,1.47,356.41,-0.14127,-0.051335,0.017887,0.092098,-0.053888,0.65951,-0.54549,-0.08,0.25,-0.02,93.28
22630,7.0263e+07,1,-0.47,1.45,356.39,-0.13646,-0.054599,0.020294,0.093618,-0.053727,0.6593,-0.5444,-0.08,0.25,-0.02,93.28
22671,7.0277e+07,1,-0.51,1.44,356.39,-0.14331,-0.050858,0.026418,0.099994,-0.05253,0.65893,-0.5429,-0.08,0.25,-0.02,93.28
22718,7.0288e+07,1,-0.49,1.49,356.41,-0.14556,-0.044939,0.01946,0.094436,-0.051017,0.65882,-0.54153,-0.08,0.25,-0.02,93.28
22765,7.03e+07,1,-0.48,1.47,356.4,-0.13833,-0.05188,0.025169,0.10097,-0.050013,0.65854,-0.54013,-0.08,0.25,-0.02,93.28
22813,7.0311e+07,1,-0.51,1.47,356.4,-0.14253,-0.051805,0.027623,0.10589,-0.048861,0.65832,-0.53863,-0.08,0.25,-0.02,93.28
22857,7.0321e+07,1,-0.51,1.49,356.4,-0.15202,-0.046796,0.025409,0.10417,-0.050347,0.65781,-0.53835,-0.08,0.25,-0.02,93.28
22901,7.0332e+07,1,-0.52,1.49,356.41,-0.14169,-0.048139,0.028492,0.10783,-0.049237,0.65766,-0.53691,-0.08,0.25,-0.02,93.28
22946,7.0342e+07,1,-0.49,1.51,356.4,-0.14128,-0.053437,0.021783,0.10211,-0.0482,0.65745,-0.53555,-0.08,0.25,-0.02,93.28
22991,7.0352e+07,1,-0.53,1.47,356.38,-0.14991,-0.053906,0.02992,0.11076,-0.047328,0.65721,-0.53427,-0.08,0.25,-0.02,93.28
23040,7.0362e+07,1,-0.51,1.53,356.4,-0.15473,-0.047656,0.0244,0.10589,-0.048889,0.65669,-0.53399,-0.08,0.25,-0.02,93.28
23084,7.0372e+07,1,-0.53,1.49,356.39,-0.14543,-0.049837,0.030609,0.11202,-0.048167,0.65649,-0.53272,-0.08,0.25,-0.02,93.28
23129,7.0382e+07,1,-0.51,1.53,356.39,-0.14559,-0.055251,0.027763,0.10867,-0.04764,0.6562,-0.53151,-0.08,0.25,-0.02,93.28
23175,7.0392e+07,1,-0.53,1.48,356.38,-0.15717,-0.052052,0.031411,0.1112,-0.047153,0.65592,-0.53034,-0.08,0.25,-0.02,93.28
23219,7.0403e+07,1,-0.52,1.52,356.4,-0.15245,-0.05084,0.030527,0.10978,-0.046828,0.65567,-0.5292,-0.08,0.25,-0.02,93.28
23267,7.0415e+07,1,-0.49,1.53,356.39,-0.14709,-0.054537,0.028204,0.10684,-0.046979,0.65524,-0.52801,-0.08,0.25,-0.02,93.28
23311,7.0425e+07,1,-0.52,1.48,356.37,-0.15104,-0.054135,0.035148,0.11237,-0.046661,0.65497,-0.52702,-0.08,0.25,-0.02,93.28
23357,7.0436e+07,1,-0.51,1.53,356.39,-0.15994,-0.049784,0.029812,0.10588,-0.048389,0.65442,-0.52666,-0.08,0.25,-0.02,93.28
