LineNo,TimeUS,C,Roll,Pitch,Yaw,VN,VE,VD,dPD,PN,PE,PD,GX,GY,GZ,OH
194,64896897,0,-0.52,-0.55,355.53,0.001456072,0.00345035,0.008458485,0.06739473999999999,-0.2001066,0.7732494,-0.5356557,-0.02,0.02,-0.04,93.25
643,65007007,0,-0.51,-0.55,355.53,0.002263625,0.006407432,0.009933136,0.05290837,-0.1972738,0.7742297,-0.531155,-0.02,0.02,-0.04,93.25
983,65090930,0,-0.51,-0.55,355.52,0.002650109,0.006240126,0.01128833,0.04663107,-0.1952622,0.7739187,-0.5262566,-0.02,0.02,-0.04,93.25
1208,65223892,0,-0.51,-0.55,355.53,0.002124987,0.005520247,-0.2981229,-0.2062747,-0.1932037,0.7730794,-0.5377334,-0.01,0.02,-0.04,93.25
1577,65344004,0,-0.51,-0.55,355.53,0.003542069,0.004985406,-0.4796527,-0.3774728,-0.1892087,0.7713929,-0.5770515000000001,-0.01,0.02,-0.04,93.25
1623,65354533,0,-0.51,-0.55,355.53,0.003737545,0.005049981,-0.4795594,-0.3776852,-0.1891726,0.7714431,-0.5818430999999999,-0.01,0.02,-0.04,93.25
1668,65364761,0,-0.51,-0.55,355.53,0.004223174,0.004825493,-0.479124,-0.3786103,-0.1884926,0.7711599,-0.5856494,-0.01,0.02,-0.04,93.25
1713,65375007,0,-0.51,-0.55,355.53,0.00467717,0.004721564,-0.4786379,-0.3799236,-0.1878266,0.7708912,-0.5900515,-0.01,0.02,-0.04,93.25
1757,65385006,0,-0.51,-0.55,355.52,0.005016163,0.00466904,-0.4786894,-0.382472,-0.1871886,0.7706313,-0.5940134,-0.01,0.02,-0.04,93.25
1806,65395331,0,-0.51,-0.55,355.52,0.00546779,0.004625506,-0.478489,-0.384726,-0.186576,0.7703863,-0.5980158,-0.01,0.02,-0.04,93.25
1850,65406026,0,-0.52,-0.55,355.52,0.005885494,0.004424172,-0.4782063,-0.3880783,-0.1859702,0.7701607,-0.6030071,-0.01,0.02,-0.04,93.25
1895,65416874,0,-0.52,-0.55,355.52,0.005985049,0.004406225,-0.4783643,-0.3908339,-0.1859105,0.7702044,-0.6077847,-0.01,0.02,-0.04,93.25
1941,65426850,0,-0.52,-0.55,355.52,0.006301471,0.004381991,-0.4781756,-0.3939956,-0.1853331,0.7699800999999999,-0.611851,-0.01,0.02,-0.04,93.25
1986,65436992,0,-0.52,-0.55,355.52,0.006640884,0.004316646,-0.4775265,-0.3970876,-0.1847679,0.7697716,-0.6163234,-0.01,0.02,-0.04,93.25
2031,65448004,0,-0.52,-0.55,355.52,0.006928435,0.004110941,-0.4771798,-0.3994035,-0.1842226,0.769574,-0.6208291,-0.01,0.02,-0.04,93.25
2075,65458163,0,-0.52,-0.55,355.52,0.007117906,0.003946785,-0.476837,-0.4018531,-0.1837031,0.7693821,-0.6248913,-0.02,0.02,-0.04,93.25
2120,65468106,0,-0.52,-0.55,355.52,0.007240342,0.004004128,-0.476415,-0.4045645,-0.1832023,0.7692004,-0.6289829,-0.02,0.02,-0.04,93.25
2166,65485072,0,-0.52,-0.55,355.52,0.007511778,0.004053646,-0.4748167,-0.3992678,-0.1824238,0.7690075,-0.6333137,-0.02,0.02,-0.04,93.25
2212,65495009,0,-0.52,-0.55,355.51,0.007792119,0.004192035,-0.4735394,-0.3842341,-0.1817255,0.768802,-0.6344806,-0.02,0.02,-0.04,93.25
2261,65505404,0,-0.52,-0.55,355.51,0.008027197,0.004261097,-0.4720554,-0.3700722,-0.1810505,0.7686089,-0.6357862,-0.02,0.02,-0.04,93.25
2305,65515949,0,-0.52,-0.55,355.51,0.008127397999999999,0.004252325,-0.4710016,-0.348429,-0.1803945,0.768434,-0.6377109,-0.02,0.02,-0.04,93.25
2350,65526454,0,-0.52,-0.55,355.51,0.00818723,0.004276541,-0.4709948,-0.3258545,-0.1803129,0.7684766,-0.6424153,-0.02,0.02,-0.04,93.25
2394,65536454,0,-0.52,-0.55,355.51,0.008384149,0.004269992,-0.469896,-0.3056534,-0.1796866,0.7683086,-0.6439912,-0.02,0.02,-0.04,93.25
2439,65546758,0,-0.52,-0.55,355.51,0.008744678000000001,0.00438838,-0.4685902,-0.2906996,-0.1790819,0.7681519999999999,-0.6457554,-0.02,0.02,-0.04,93.25
2486,65557398,0,-0.52,-0.55,355.51,0.008983397000000001,0.00439427,-0.4673621,-0.273248,-0.1784904,0.7680118,-0.6481116,-0.02,0.02,-0.04,93.25
2532,65567374,0,-0.52,-0.55,355.5,0.009236806,0.004304678,-0.4661664,-0.2602403,-0.1779289,0.7678772,-0.6501141,-0.02,0.02,-0.04,93.25
2578,65578022,0,-0.52,-0.55,355.5,0.009195182,0.004426297,-0.4654386,-0.2467041,-0.1773804,0.7677580000000001,-0.6526978,-0.02,0.02,-0.04,93.25
2622,65588368,0,-0.52,-0.55,355.5,0.009259457,0.004422803,-0.4651356,-0.2351619,-0.1772882,0.7678026,-0.6573454,-0.02,0.02,-0.04,93.25
2667,65598383,0,-0.52,-0.55,355.5,0.009686812,0.004455199,-0.4640411,-0.2275726,-0.1767658,0.7676899,-0.6595554,-0.02,0.02,-0.04,93.25
2715,65608378,0,-0.52,-0.55,355.5,0.01006497,0.00434189,-0.4631809,-0.2225509,-0.1762595,0.7675853,-0.6618635,-0.02,0.02,-0.04,93.25
2760,65619011,0,-0.52,-0.55,355.5,0.01030574,0.004262052,-0.4625685,-0.2185626,-0.1757602,0.7674936999999999,-0.6647375,-0.02,0.02,-0.04,93.25
2806,65629540,0,-0.52,-0.55,355.5,0.01044953,0.004370684,-0.4618698,-0.2183929,-0.1752869,0.7674048,-0.667239,-0.02,0.02,-0.04,93.25
2850,65639933,0,-0.52,-0.55,355.5,0.01045702,0.004381585,-0.4610268,-0.2198585,-0.1748303,0.7673253,-0.6697834,-0.02,0.02,-0.04,93.25
2896,65650440,0,-0.52,-0.55,355.5,0.01074492,0.004440308,-0.4602388,-0.2212461,-0.1743799,0.7672582,-0.6728774,-0.02,0.02,-0.04,93.25
2942,65664417,0,-0.52,-0.5600000000000001,355.5,0.01088843,0.003881277,-0.4583945,-0.2185013,-0.1736383,0.766938,-0.6739396,-0.02,0.02,-0.04,93.25
2987,65677918,0,-0.52,-0.5600000000000001,355.5,0.01103736,0.003585201,-0.4560614,-0.1986215,-0.1729341,0.7666248,-0.6747603,-0.02,0.02,-0.04,93.25
3035,65687569,0,-0.52,-0.55,355.5,0.01141101,0.00336526,-0.4540133,-0.1822051,-0.1722858,0.7663124,-0.6744082,-0.02,0.02,-0.04,93.25
3079,65697888,0,-0.52,-0.55,355.5,0.01157445,0.003081738,-0.4522762,-0.1646649,-0.1716599,0.7660127,-0.6742569,-0.02,0.02,-0.04,93.25
3131,65710808,0,-0.52,-0.55,355.5,0.0118006,0.002654485,-0.4505874,-0.1357554,-0.1710221,0.7657319,-0.6756548999999999,-0.02,0.02,-0.04,93.25
3175,65720928,0,-0.52,-0.55,355.49,0.01196544,0.002411922,-0.4488576,-0.1172577,-0.1704274,0.7654539,-0.6763217,-0.02,0.02,-0.04,93.25
3221,65731661,0,-0.52,-0.55,355.49,0.01217268,0.002571335,-0.4486326,-0.1000227,-0.1703066,0.7654787,-0.6808037,-0.02,0.02,-0.04,93.25
3266,65741783,0,-0.52,-0.55,355.49,0.01250666,0.002276813,-0.4469376,-0.0875565,-0.169738,0.7652084,-0.6811698,-0.02,0.02,-0.04,93.25
3310,65751534,0,-0.52,-0.55,355.49,0.01260487,0.002166921,-0.4454539,-0.07801659,-0.1691883,0.7649483,-0.6817073,-0.02,0.02,-0.04,93.25
3356,65762253,0,-0.52,-0.5600000000000001,355.49,0.012614,0.001977214,-0.4438977,-0.06866422,-0.1686472,0.7647011,-0.6828527,-0.02,0.02,-0.04,93.25
3401,65772467,0,-0.52,-0.5600000000000001,355.49,0.01275046,0.001875781,-0.4423846,-0.06555005,-0.1681364,0.7644616,-0.6836997,-0.02,0.02,-0.04,93.25
3446,65782774,0,-0.52,-0.5600000000000001,355.49,0.01278689,0.001947716,-0.4427334,-0.06570845,-0.1680085,0.7644801,-0.6881201,-0.02,0.02,-0.04,93.25
3491,65792497,0,-0.52,-0.5600000000000001,355.48,0.01285071,0.001841122,-0.4415244,-0.06855271,-0.1675101,0.7642476,-0.689087,-0.02,0.02,-0.04,93.25
3536,65802515,0,-0.52,-0.55,355.48,0.01301583,0.001731389,-0.4407004,-0.07299954,-0.1670287,0.7640241,-0.6901988,-0.02,0.02,-0.04,93.25
3585,65812471,0,-0.52,-0.55,355.48,0.01324821,0.001446864,-0.4393679,-0.07978749,-0.1665612,0.763809,-0.6914439,-0.02,0.02,-0.04,93.25
3629,65822514,0,-0.52,-0.55,355.48,0.01317387,0.001294605,-0.4384436,-0.08788222,-0.1661092,0.7636006,-0.6928181,-0.02,0.02,-0.04,93.25
3674,65833020,0,-0.52,-0.55,355.48,0.01332076,0.001226285,-0.4368241,-0.09447597000000001,-0.1656604,0.7634024,-0.6947565999999999,-0.02,0.02,-0.04,93.25
3718,65843846,0,-0.52,-0.55,355.48,0.01342393,0.0009585386,-0.4366705,-0.1003537,-0.1655272,0.763413,-0.6991189,-0.02,0.02,-0.04,93.25
3765,65853846,0,-0.52,-0.55,355.48,0.01352172,0.0008610447,-0.4356754,-0.1086956,-0.165102,0.7632174,-0.7006766,-0.02,0.02,-0.04,93.25
3811,65863768,0,-0.52,-0.55,355.48,0.01353177,0.0006640428000000001,-0.4344255,-0.1175078,-0.1646909,0.7630295,-0.7023509,-0.02,0.02,-0.04,93.25
3852,65876887,0,-0.52,-0.55,355.48,0.01389869,0.0005185076,-0.4320691,-0.1230629,-0.1639116,0.76284,-0.702751,-0.02,0.02,-0.04,93.25
3896,65887009,0,-0.52,-0.5600000000000001,355.48,0.01400841,0.0005112054,-0.4300416,-0.1200799,-0.1632094,0.7626586,-0.7016321,-0.02,0.02,-0.04,93.25
3941,65897597,0,-0.52,-0.5600000000000001,355.48,0.01445238,0.0006715669,-0.4284483,-0.1104446,-0.1625307,0.7624880000000001,-0.7007444,-0.02,0.02,-0.04,93.25
3987,65907636,0,-0.52,-0.5600000000000001,355.48,0.01485875,0.0007666057,-0.4264859,-0.09886076000000001,-0.1618719,0.7623288,-0.7000679,-0.02,0.02,-0.04,93.25
4038,65918017,0,-0.52,-0.5600000000000001,355.48,0.01525271,0.0007228045999999999,-0.4248244,-0.0821007,-0.1612184,0.762181,-0.7000239,-0.02,0.02,-0.04,93.25
4082,65928845,0,-0.52,-0.5600000000000001,355.48,0.01569664,0.0007734378,-0.4231538,-0.06492974999999999,-0.1605838,0.7620426,-0.7001765,-0.02,0.02,-0.04,93.25
4127,65939476,0,-0.52,-0.55,355.48,0.01577584,0.0007722271,-0.423267,-0.04988826,-0.1604262,0.7620503,-0.7044035,-0.02,0.02,-0.04,93.25
4171,65949260,0,-0.52,-0.55,355.48,0.0160735,0.0009006732,-0.4214065,-0.03973369,-0.1598196,0.7619204000000001,-0.7042904,-0.02,0.02,-0.04,93.25
4216,65959174,0,-0.52,-0.55,355.48,0.01644278,0.0010127,-0.4197818,-0.03290665,-0.1592299,0.7618007,-0.7044131,-0.02,0.02,-0.04,93.25
4263,65969204,0,-0.52,-0.55,355.48,0.01681496,0.001155332,-0.4181571,-0.02921674,-0.1586547,0.7616897,-0.7046926,-0.02,0.02,-0.04,93.25
4308,65979218,0,-0.52,-0.55,355.48,0.01692511,0.001212962,-0.4169103,-0.0308086,-0.1580947,0.7615872,-0.7051255,-0.02,0.02,-0.04,93.25
4353,65989582,0,-0.52,-0.55,355.48,0.01688972,0.001380416,-0.416842,-0.03086051,-0.1579257,0.7615996,-0.7092895,-0.02,0.02,-0.04,93.25
4397,65999981,0,-0.52,-0.55,355.48,0.0168527,0.001306393,-0.4155373,-0.03517323,-0.1573643,0.7615079,-0.7102728,-0.02,0.02,-0.04,93.25
4442,66009574,0,-0.52,-0.5600000000000001,355.48,0.01698885,0.001324568,-0.4144286,-0.04014289,-0.1568536,0.7614197,-0.710573,-0.02,0.02,-0.04,93.25
4490,66019567,0,-0.52,-0.5600000000000001,355.48,0.01715609,0.001358577,-0.4134683,-0.04895397,-0.1563398,0.7613392,-0.7114269,-0.02,0.02,-0.04,93.25
4535,66030376,0,-0.52,-0.5600000000000001,355.48,0.01712761,0.001508523,-0.4125293,-0.057165,-0.155825,0.7612681,-0.7128371999999999,-0.02,0.02,-0.04,93.25
4579,66040891,0,-0.51,-0.5600000000000001,355.48,0.0172364,0.001545993,-0.4116049,-0.06831199,-0.1553242,0.7612031,-0.7143689,-0.02,0.02,-0.04,93.25
4624,66051342,0,-0.51,-0.5600000000000001,355.48,0.01734942,0.001536801,-0.4115369,-0.07698721,-0.1551517,0.7612185,-0.7184794,-0.02,0.02,-0.04,93.25
4668,66061465,0,-0.51,-0.5600000000000001,355.48,0.0176125,0.001549601,-0.4106705,-0.08746695,-0.1546773,0.7611582,-0.7195897,-0.02,0.02,-0.04,93.25
4714,66074244,0,-0.51,-0.55,355.47,0.01784931,0.001581486,-0.4099743,-0.1014675,-0.1541611,0.761108,-0.7220566,-0.02,0.02,-0.04,93.25
4757,66085173,0,-0.51,-0.55,355.47,0.01756713,0.00162568,-0.4081125,-0.1014649,-0.1537087,0.7609413,-0.7209021,-0.02,0.02,-0.04,93.25
4801,66095017,0,-0.51,-0.55,355.47,0.01730586,0.001755425,-0.4061225,-0.09659958,-0.1532925,0.7607834,-0.7195578,-0.02,0.02,-0.04,93.25
4847,66105000,0,-0.51,-0.55,355.47,0.01733417,0.00187219,-0.404208,-0.08803919,-0.152893,0.7606367000000001,-0.7184331,-0.02,0.02,-0.04,93.25
4892,66115861,0,-0.51,-0.55,355.47,0.01709765,0.00156873,-0.4024655,-0.07594134,-0.1525111,0.7604994,-0.7175246,-0.02,0.02,-0.04,93.25
4940,66126022,0,-0.52,-0.5600000000000001,355.47,0.01669045,0.001393487,-0.4012116,-0.06471401,-0.1521289,0.7603687,-0.7172118,-0.02,0.02,-0.04,93.25
4985,66136925,0,-0.52,-0.5600000000000001,355.47,0.016668,0.001368929,-0.4011276,-0.05180671,-0.1519622,0.7603818,-0.7212189,-0.02,0.02,-0.04,93.25
5029,66146858,0,-0.52,-0.5600000000000001,355.48,0.01645301,0.001762004,-0.3996852,-0.04283899,-0.1516158,0.7602589,-0.7206738,-0.02,0.02,-0.04,93.25
5073,66156910,0,-0.52,-0.5600000000000001,355.48,0.01618398,0.001842638,-0.398095,-0.03541012,-0.151286,0.7601466,-0.7202911,-0.02,0.02,-0.04,93.25
5117,66166830,0,-0.51,-0.5600000000000001,355.48,0.01582679,0.002017057,-0.3965966,-0.03695749,-0.1509526,0.7600427,-0.7204539,-0.02,0.02,-0.04,93.25
5162,66177921,0,-0.52,-0.5600000000000001,355.48,0.01576698,0.001916614,-0.3948711,-0.03502642,-0.1506515,0.7599447,-0.7204005999999999,-0.02,0.02,-0.04,93.25
5208,66187957,0,-0.51,-0.55,355.47,0.01556465,0.001941236,-0.3934625,-0.03172362,-0.1503489,0.7598562,-0.7209073,-0.02,0.02,-0.04,93.25
5252,66198444,0,-0.51,-0.55,355.47,0.01558796,0.002095615,-0.3931747,-0.0285657,-0.1501936,0.7598765,-0.7248363,-0.02,0.02,-0.04,93.25
5297,66208414,0,-0.51,-0.55,355.47,0.01546003,0.002158891,-0.3918682,-0.02964546,-0.1499209,0.7597945,-0.7250824,-0.02,0.02,-0.04,93.25
5341,66218437,0,-0.51,-0.55,355.47,0.01542818,0.002110705,-0.3907228,-0.03275958,-0.1496588,0.7597178,-0.7254822,-0.02,0.02,-0.04,93.25
5390,66228422,0,-0.51,-0.55,355.47,0.01516483,0.002104402,-0.3893666,-0.03908123,-0.1494075,0.7596468,-0.7260197,-0.02,0.02,-0.04,93.25
5435,66238433,0,-0.51,-0.55,355.47,0.01473897,0.001911262,-0.3882641,-0.04684139,-0.1491693,0.7595806000000001,-0.7266949,-0.02,0.02,-0.04,93.25
5480,66248831,0,-0.51,-0.55,355.47,0.01453259,0.001761338,-0.3875636,-0.05422905,-0.1489286,0.7595199,-0.7278986,-0.02,0.02,-0.04,93.25
5524,66263443,0,-0.51,-0.5600000000000001,355.47,0.01413737,0.001622211,-0.385198,-0.05777615,-0.1486274,0.7591542,-0.7279949,-0.02,0.02,-0.04,93.25
5568,66273491,0,-0.51,-0.5600000000000001,355.47,0.01362864,0.001416304,-0.3834228,-0.05420646,-0.1484004,0.7587975,-0.7267694,-0.02,0.02,-0.04,93.25
5613,66284033,0,-0.51,-0.5600000000000001,355.47,0.01301853,0.001156334,-0.3814429,-0.04866399,-0.1481754,0.7584546,-0.7261207,-0.02,0.02,-0.04,93.25
5659,66294458,0,-0.51,-0.5600000000000001,355.47,0.01282508,0.001157184,-0.3814939,-0.03915872,-0.1480332,0.7584677,-0.730312,-0.02,0.02,-0.04,93.25
5703,66304553,0,-0.51,-0.55,355.47,0.01231225,0.0008132033,-0.3799461,-0.03371103,-0.1478439,0.7581308,-0.7294474,-0.02,0.02,-0.04,93.25
5749,66315097,0,-0.51,-0.55,355.47,0.01189856,0.0004949396,-0.3782459,-0.02932948,-0.1476561,0.7578039,-0.7291424,-0.02,0.02,-0.04,93.25
5797,66324961,0,-0.51,-0.55,355.47,0.01125188,0.0003705417,-0.3767859,-0.02604713,-0.147496,0.7574872,-0.7286388,-0.02,0.02,-0.04,93.25
5842,66334981,0,-0.51,-0.55,355.47,0.01090628,0.0001107189,-0.3750263,-0.02570047,-0.1473484,0.7571808,-0.7283001,-0.02,0.02,-0.04,93.25
5888,66345378,0,-0.51,-0.55,355.47,0.0109145,0.0001358523,-0.3749276,-0.02256596,-0.14724,0.7571818,-0.7320465,-0.02,0.02,-0.04,93.25
5933,66355404,0,-0.51,-0.55,355.47,0.01038515,-0.000270232,-0.3732082,-0.0221626,-0.1471074,0.7568821999999999,-0.7318528,-0.02,0.02,-0.04,93.25
5981,66368799,0,-0.51,-0.55,355.47,0.009816359,-0.0006606153999999999,-0.3718901,-0.02550619,-0.1469577,0.7565873,-0.7329286,-0.02,0.02,-0.04,93.25
6025,66378939,0,-0.51,-0.55,355.47,0.009448645,-0.0007368188,-0.3703413,-0.02797084,-0.1468504,0.7563034,-0.7329479,-0.02,0.02,-0.04,93.25
6070,66388563,0,-0.51,-0.55,355.47,0.009209201,-0.0009915116,-0.3690839,-0.03335871,-0.146753,0.7560278,-0.7331107,-0.02,0.02,-0.04,93.25
6114,66399030,0,-0.51,-0.5600000000000001,355.47,0.008786939000000001,-0.001230147,-0.3678348,-0.040569,-0.1466559,0.7557577,-0.7337785999999999,-0.02,0.02,-0.04,93.25
6160,66409355,0,-0.51,-0.55,355.46,0.008615975999999999,-0.001262696,-0.3677945,-0.04518419,-0.1465693,0.7557457,-0.7374522999999999,-0.02,0.02,-0.04,93.25
6205,66419358,0,-0.52,-0.55,355.46,0.008202301,-0.001341265,-0.3664159,-0.05150802,-0.1464969,0.7554833,-0.7378749999999999,-0.02,0.02,-0.04,93.25
6253,66429741,0,-0.51,-0.55,355.46,0.007915607,-0.001579544,-0.365566,-0.05873925,-0.1464324,0.7552292,-0.7384341,-0.02,0.02,-0.04,93.25
6299,66439374,0,-0.51,-0.55,355.46,0.007576302,-0.001689726,-0.3645534,-0.06778117,-0.1463757,0.7549822,-0.7391195,-0.02,0.02,-0.04,93.25
6343,66450014,0,-0.51,-0.55,355.46,0.007175537,-0.001798298,-0.3636571,-0.07856128,-0.1463192,0.7547412,-0.7402883,-0.02,0.02,-0.04,93.25
6390,66460379,0,-0.51,-0.55,355.46,0.007140219,-0.001712365,-0.3636875,-0.08630733,-0.1462478,0.7547241,-0.743922,-0.02,0.02,-0.04,93.25
6429,66472110,0,-0.51,-0.55,355.46,0.007324645,-0.001611421,-0.3615189,-0.08691852999999999,-0.1457663,0.7545532,-0.7429315,-0.02,0.02,-0.04,93.25
6473,66481960,0,-0.51,-0.55,355.46,0.007353918,-0.001389569,-0.3598069,-0.07998782,-0.145318,0.7543962,-0.7413889,-0.02,0.02,-0.04,93.25
6518,66492210,0,-0.51,-0.55,355.46,0.007324755,-0.001392728,-0.3581048,-0.07000394,-0.1448882,0.7542486,-0.7400568,-0.02,0.02,-0.04,93.25
6563,66502010,0,-0.51,-0.55,355.46,0.007383971,-0.001491304,-0.3565317,-0.0590568,-0.1444762,0.7541084,-0.7389277,-0.02,0.02,-0.04,93.25
6609,66512984,0,-0.51,-0.5600000000000001,355.46,0.007462222,-0.001184923,-0.3548446,-0.04410576,-0.1440733,0.7539771,-0.738354,-0.02,0.02,-0.04,93.25
6654,66523038,0,-0.51,-0.5600000000000001,355.46,0.007255708,-0.001163554,-0.3535034,-0.03562258,-0.1436938,0.7538557,-0.7376021,-0.02,0.02,-0.04,93.25
6702,66533374,0,-0.51,-0.5600000000000001,355.46,0.007139201,-0.001233484,-0.3536505,-0.02479086,-0.1436215,0.7538437,-0.7411335999999999,-0.02,0.02,-0.04,93.25
6747,66543376,0,-0.51,-0.55,355.46,0.007155797,-0.001122934,-0.3522592,-0.01774437,-0.1432578,0.7537302,-0.7405386,-0.02,0.02,-0.04,93.25
6792,66553357,0,-0.51,-0.55,355.46,0.007306783,-0.0009743851,-0.350818,-0.01258908,-0.1429064,0.7536256,-0.740113,-0.02,0.02,-0.04,93.25
6836,66563363,0,-0.5,-0.55,355.46,0.007425729,-0.0008675408,-0.3494798,-0.01149677,-0.1425661,0.7535286,-0.7398418,-0.02,0.02,-0.04,93.25
6881,66573992,0,-0.51,-0.55,355.46,0.007564781,-0.0008028453,-0.348052,-0.01274378,-0.1422288,0.7534378,-0.7399341,-0.02,0.02,-0.04,93.25
6925,66584972,0,-0.5,-0.55,355.46,0.007757209,-0.0006591567,-0.3466951,-0.01275301,-0.1419028,0.7533554,-0.7401874000000001,-0.02,0.02,-0.04,93.25
6971,66595762,0,-0.51,-0.55,355.46,0.007875759,-0.0004712183,-0.3467313,-0.01227955,-0.141825,0.7533497,-0.7436507,-0.02,0.02,-0.04,93.25
7016,66605772,0,-0.51,-0.55,355.46,0.007919267000000001,-0.0004714336,-0.3453504,-0.01468684,-0.1415148,0.7532771,-0.7436876,-0.02,0.02,-0.04,93.25
7062,66615537,0,-0.51,-0.55,355.46,0.007952122000000001,-0.0004979701,-0.344271,-0.01871489,-0.1412154,0.7532099,-0.7438689000000001,-0.02,0.02,-0.04,93.25
7107,66626218,0,-0.51,-0.5600000000000001,355.46,0.008011407,-0.0004384913,-0.3434617,-0.0232087,-0.1409187,0.7531483,-0.7445393,-0.02,0.02,-0.04,93.25
7155,66635997,0,-0.51,-0.5600000000000001,355.46,0.008054268,-0.0002819452,-0.3424037,-0.02889537,-0.1406399,0.7530926,-0.7449987,-0.02,0.02,-0.04,93.25
7200,66646172,0,-0.51,-0.5600000000000001,355.46,0.008023269,-7.467803e-06,-0.3416459,-0.03787386,-0.1403697,0.7530438,-0.7455807,-0.02,0.02,-0.04,93.25
7245,66656982,0,-0.51,-0.5600000000000001,355.46,0.008024653,-1.700893e-05,-0.3410646,-0.04636455,-0.1401015,0.7530015,-0.7466344,-0.02,0.02,-0.04,93.25
7292,66667356,0,-0.51,-0.5600000000000001,355.46,0.008049967,0.000115262,-0.3409758,-0.05317032,-0.1400214,0.7530019999999999,-0.7500408,-0.02,0.02,-0.04,93.25
7330,66679063,0,-0.51,-0.5600000000000001,355.46,0.008171616,-0.0001356069,-0.3390484,-0.05460494,-0.139639,0.7525767,-0.7490599999999999,-0.02,0.02,-0.04,93.25
7374,66689023,0,-0.51,-0.55,355.46,0.007972257999999999,-0.0005181265,-0.3371968,-0.04736972,-0.1392891,0.7521667,-0.7476161,-0.02,0.02,-0.04,93.25
7421,66699969,0,-0.51,-0.55,355.46,0.00774296,-0.0006669851,-0.3353037,-0.04118908,-0.1389467,0.7517685,-0.7466866,-0.02,0.02,-0.04,93.25
7467,66709979,0,-0.51,-0.55,355.46,0.007627597,-0.0008045448,-0.3337722,-0.03443318,-0.1386283,0.7513856,-0.7456093,-0.02,0.02,-0.04,93.25
7512,66719971,0,-0.51,-0.55,355.46,0.007410691,-0.001112656,-0.3323402,-0.02993354,-0.1383241,0.7510148,-0.7447087999999999,-0.02,0.02,-0.04,93.25
7557,66730977,0,-0.51,-0.5600000000000001,355.45,0.007060338,-0.001445724,-0.330977,-0.02149965,-0.1380293,0.7506536,-0.744322,-0.02,0.02,-0.04,93.25
7606,66741969,0,-0.51,-0.5600000000000001,355.45,0.00718731,-0.001467503,-0.3306448,-0.01246473,-0.1379582,0.7506365,-0.7476265,-0.02,0.02,-0.04,93.25
7650,66751886,0,-0.51,-0.5600000000000001,355.45,0.006809363,-0.002078744,-0.3293734,-0.007448944,-0.1376859,0.7502799,-0.7470509,-0.02,0.02,-0.04,93.25
7695,66762400,0,-0.51,-0.55,355.45,0.006553809,-0.002787666,-0.3277736,-0.001907869,-0.1374218,0.7499316,-0.7469754,-0.02,0.02,-0.04,93.25
7741,66772349,0,-0.5,-0.55,355.45,0.005875227,-0.003709943,-0.3272392,-0.0002927182,-0.1371764,0.7495949,-0.7467193,-0.02,0.02,-0.04,93.25
7786,66783161,0,-0.5,-0.55,355.45,0.005364276,-0.00470778,-0.3256563,-0.0007822793,-0.1369348,0.7492664999999999,-0.7467514,-0.02,0.02,-0.04,93.25
7830,66793042,0,-0.5,-0.5600000000000001,355.45,0.006287243,-0.004270396,-0.3228631,-0.002480749,-0.136717,0.7489532,-0.7462777,-0.02,0.02,-0.04,93.25
7875,66803491,0,-0.5,-0.5600000000000001,355.45,0.006597734,-0.004714402,-0.3221469,-0.003154963,-0.1366451,0.7489204,-0.7498373,-0.02,0.02,-0.04,93.25
7920,66813443,0,-0.5,-0.5600000000000001,355.45,0.006503769,-0.004097185,-0.322285,-0.00907262,-0.1364336,0.7486085,-0.7498065,-0.02,0.02,-0.04,93.25
7964,66823444,0,-0.5,-0.55,355.45,0.005707597,-0.003193798,-0.3213235,-0.01453972,-0.1362318,0.7483065,-0.7499158,-0.02,0.02,-0.04,93.25
8010,66833445,0,-0.51,-0.5600000000000001,355.45,0.00487235,-0.00372324,-0.3201971,-0.02207845,-0.136038,0.7480142,-0.750147,-0.02,0.02,-0.04,93.25
8060,66844038,0,-0.5,-0.5600000000000001,355.45,0.003993716,-0.004610477,-0.319347,-0.03164715,-0.1358498,0.7477279,-0.7508183,-0.02,0.02,-0.04,93.25
8108,66854532,0,-0.5,-0.5600000000000001,355.44,0.003998008,-0.004427918,-0.3190452,-0.0381518,-0.1357941,0.7476916,-0.7540069,-0.02,0.02,-0.04,93.25
8147,66865915,0,-0.5,-0.55,355.44,0.005023863,-0.005066325,-0.3168054,-0.03835223,-0.1351969,0.7470974,-0.7526366,-0.02,0.02,-0.04,93.25
8191,66875900,0,-0.5,-0.55,355.43,0.005879991,-0.004410551,-0.3161711,-0.03098396,-0.1346293,0.7465290999999999,-0.7508538,-0.02,0.02,-0.04,93.25
8236,66885932,0,-0.52,-0.55,355.43,0.006485059,-0.004173395,-0.315226,-0.02296949,-0.1340787,0.7459774,-0.7491038,-0.02,0.02,-0.04,93.25
8281,66895865,0,-0.52,-0.55,355.42,0.006956474,-0.005574646,-0.3127898,-0.01203318,-0.1335452,0.7454422000000001,-0.7475526,-0.02,0.02,-0.04,93.25
8327,66905964,0,-0.51,-0.5600000000000001,355.42,0.007751889,-0.006670671,-0.3103068,-0.003436473,-0.1330284,0.7449212,-0.7461816999999999,-0.02,0.02,-0.04,93.25
8372,66916457,0,-0.5,-0.5600000000000001,355.42,0.008176265,-0.006579503,-0.3099021,0.008498952000000001,-0.132955,0.7448628,-0.749287,-0.02,0.02,-0.04,93.25
8416,66926439,0,-0.51,-0.5600000000000001,355.42,0.008281748,-0.006137243,-0.3090366,0.01636385,-0.1324572,0.7443445,-0.7480778,-0.02,0.02,-0.04,93.25
8461,66936415,0,-0.51,-0.55,355.43,0.008407734,-0.005772413,-0.3077238,0.02331098,-0.1319758,0.7438409,-0.7470437,-0.02,0.02,-0.04,93.25
8511,66946830,0,-0.51,-0.5600000000000001,355.44,0.008667687,-0.006277842,-0.3053786,0.02756699,-0.1315034,0.7433562,-0.7461714,-0.02,0.02,-0.04,93.25
8557,66957346,0,-0.5,-0.55,355.44,0.007497328,-0.007511396,-0.3031239,0.02984102,-0.1310428,0.7428809,-0.7457614,-0.02,0.02,-0.04,93.25
8602,66968118,0,-0.49,-0.55,355.44,0.006896784,-0.009042956,-0.3034111,0.03015784,-0.1306099,0.7424085,-0.7455155,-0.02,0.02,-0.04,93.25
8647,66978286,0,-0.49,-0.55,355.44,0.008916212999999999,-0.007484672,-0.303442,0.03207349,-0.1305336,0.7423297,-0.7485508,-0.02,0.02,-0.04,93.25
8691,66989202,0,-0.49,-0.55,355.44,0.009501749,-0.006993664,-0.3026702,0.03038393,-0.130091,0.7418649,-0.748279,-0.02,0.02,-0.04,93.25
8736,66999140,0,-0.5,-0.55,355.43,0.008265265000000001,-0.008129112000000001,-0.3016245,0.02678379,-0.1296793,0.7414121,-0.747849,-0.02,0.02,-0.04,93.25
8780,67009178,0,-0.5,-0.55,355.44,0.007993198999999999,-0.008397928000000001,-0.3002506,0.02262479,-0.1292927,0.7409654,-0.7475756,-0.02,0.02,-0.04,93.25
8825,67019562,0,-0.5,-0.55,355.43,0.008294707,-0.007062769,-0.2982112,0.0194256,-0.1289137,0.7405427,-0.7474405,-0.02,0.02,-0.04,93.25
8870,67029556,0,-0.48,-0.55,355.42,0.008432321,-0.007723636,-0.2966216,0.01421544,-0.1285466,0.7401392,-0.7474285000000001,-0.02,0.02,-0.04,93.25
8916,67039958,0,-0.48,-0.5600000000000001,355.42,0.01049169,-0.01065548,-0.2967455,0.007741182,-0.1281746,0.7397227,-0.7478641,-0.02,0.02,-0.04,93.25
8965,67050908,0,-0.49,-0.5600000000000001,355.41,0.009353882000000001,-0.01202059,-0.2947698,0.002975681,-0.1278102,0.7392982,-0.7484217,-0.02,0.02,-0.04,93.25
9011,67061293,0,-0.49,-0.57,355.42,0.008006103000000001,-0.009011765999999999,-0.2954369,-0.003981152,-0.1274816,0.7389013,-0.7488117,-0.02,0.02,-0.04,93.25
9056,67078163,0,-0.47,-0.55,355.41,0.008889172000000001,-0.0102591,-0.2919352,-0.004096056,-0.1271006,0.7385064,-0.7488686,-0.02,0.02,-0.04,93.25
9100,67088154,0,-0.47,-0.57,355.42,0.01191714,-0.01191922,-0.2926064,-1.535751e-06,-0.126763,0.7381467,-0.7470267,-0.02,0.02,-0.04,93.25
9145,67098562,0,-0.48,-0.5600000000000001,355.42,0.008279992999999999,-0.01173295,-0.2885499,0.008281940999999999,-0.1264459,0.7377849,-0.7453556,-0.02,0.02,-0.04,93.25
9190,67108909,0,-0.47,-0.57,355.43,0.007086854,-0.007920903999999999,-0.2914393,0.01048503,-0.1261777,0.7374501999999999,-0.7438799,-0.02,0.02,-0.04,93.25
9235,67119291,0,-0.45,-0.54,355.44,0.008511305,-0.007290236,-0.2832397,0.02796346,-0.125915,0.7371554,-0.7428768,-0.02,0.02,-0.04,93.25
9280,67129883,0,-0.45,-0.57,355.42,0.01373032,-0.01321544,-0.2856272,0.03514309,-0.1256236,0.7368309,-0.7420335,-0.02,0.02,-0.04,93.25
9326,67140399,0,-0.47,-0.55,355.44,0.008280459,-0.01334935,-0.2831483,0.04727282,-0.1255196,0.7366977,-0.7448853,-0.02,0.02,-0.04,93.25
9370,67150362,0,-0.47,-0.5600000000000001,355.43,0.004647713,-0.01100219,-0.2834201,0.05093862,-0.125305,0.7363756,-0.7438934,-0.02,0.02,-0.04,93.25
9419,67160368,0,-0.47,-0.54,355.45,0.00721098,-0.007617117,-0.2798138,0.0561518,-0.1251009,0.7361051,-0.7430832000000001,-0.02,0.02,-0.04,93.25
9463,67171028,0,-0.46,-0.5600000000000001,355.42,0.01361647,-0.01530351,-0.280644,0.05708422,-0.1248371,0.7357967,-0.7429633,-0.02,0.02,-0.04,93.25
9509,67180921,0,-0.48,-0.55,355.43,0.008094944999999999,-0.01499259,-0.2787387,0.05552684,-0.1246112,0.7354907000000001,-0.7424685,-0.02,0.02,-0.04,93.25
9556,67193878,0,-0.48,-0.57,355.42,0.003071817,-0.009213657,-0.2799713,0.0479983,-0.1244443,0.7351704,-0.7425994,-0.02,0.02,-0.04,93.25
9601,67204021,0,-0.5,-0.58,355.42,0.01075265,-0.01031622,-0.2752111,0.04456616,-0.1242772,0.7349327,-0.7420481,-0.02,0.02,-0.04,93.25
9646,67214471,0,-0.48,-0.57,355.41,0.0118025,-0.01521634,-0.2788364,0.03677873,-0.1241711,0.7348028,-0.744814,-0.02,0.02,-0.04,93.25
9690,67224504,0,-0.5,-0.6,355.4,0.005311977,-0.01554072,-0.2755276,0.03308127,-0.1239895,0.7345096,-0.7443936,-0.02,0.02,-0.04,93.25
9735,67235012,0,-0.49,-0.57,355.42,-0.001574007,-0.008717000000000001,-0.2744142,0.02505945,-0.123872,0.7342411,-0.7443616,-0.02,0.02,-0.04,93.25
9781,67244978,0,-0.51,-0.59,355.41,0.006496088,-0.01041423,-0.2721195,0.01876679,-0.1237345,0.7340249,-0.7441695,-0.02,0.02,-0.04,93.25
9830,67255101,0,-0.48,-0.5600000000000001,355.41,0.006668652,-0.0130789,-0.2761263,0.0052051,-0.1236272,0.7339066,-0.7469062,-0.02,0.02,-0.04,93.25
9875,67265335,0,-0.5,-0.59,355.4,-0.0007789945,-0.01374493,-0.270684,-0.0001564289,-0.1234743,0.7336444,-0.7468138,-0.02,0.02,-0.04,93.25
9915,67276859,0,-0.48,-0.52,355.44,-0.0005500052,-0.007101867,-0.2702388,-0.005639266,-0.1231413,0.7332883,-0.7453834,-0.02,0.02,-0.04,93.25
9959,67287272,0,-0.47,-0.5600000000000001,355.42,0.01037832,-0.009802538,-0.2678938,-0.00254579,-0.1227711,0.7329805,-0.7435815,-0.02,0.02,-0.04,93.25
10004,67297342,0,-0.46,-0.52,355.43,0.008300971000000001,-0.01299163,-0.2711818,-0.007070523,-0.1226667,0.7328619,-0.7462977,-0.02,0.02,-0.04,93.25
10050,67307375,0,-0.47,-0.58,355.42,0.001041885,-0.0126547,-0.2648332,-0.000243445,-0.1223189,0.7325188,-0.7443767999999999,-0.02,0.02,-0.04,93.25
10095,67317862,0,-0.46,-0.52,355.44,0.002291521,-0.009582436999999999,-0.2646805,0.00373515,-0.1220397,0.7322246,-0.7426787,-0.02,0.02,-0.04,93.25
10139,67327646,0,-0.44,-0.57,355.42,0.01309942,-0.01224912,-0.263508,0.008192417,-0.1216985,0.7319354,-0.7411232,-0.02,0.02,-0.03,93.25
10186,67337899,0,-0.46,-0.54,355.42,0.01013415,-0.01541251,-0.2633176,0.01247955,-0.1213394,0.7316227,-0.7397911,-0.02,0.02,-0.04,93.25
10231,67347994,0,-0.47,-0.58,355.42,0.0009897494,-0.01131919,-0.2631571,0.02047375,-0.1210544,0.7313005,-0.73885,-0.02,0.02,-0.04,93.25
10280,67358905,0,-0.48,-0.5600000000000001,355.42,0.00622232,-0.01044327,-0.2580582,0.03465893,-0.1210564,0.7311963,-0.7414619,-0.02,0.02,-0.04,93.25
10325,67368949,0,-0.45,-0.5600000000000001,355.42,0.01237533,-0.01246591,-0.2643636,0.03311561,-0.1207272,0.7309037,-0.7406666,-0.02,0.02,-0.04,93.25
10370,67378992,0,-0.48,-0.6,355.4,0.007374447,-0.01318815,-0.2556083,0.04318843,-0.1204186,0.7306095,-0.7397726999999999,-0.02,0.02,-0.04,93.25
10414,67388975,0,-0.46,-0.55,355.42,-0.001934073,-0.008611849,-0.2610962,0.03753425,-0.1202008,0.7303468,-0.7390223,-0.02,0.02,-0.04,93.25
10459,67399776,0,-0.48,-0.59,355.41,0.00734768,-0.01139465,-0.2519285,0.04629474,-0.1199943,0.7301099,-0.7384221,-0.02,0.02,-0.04,93.25
10504,67409873,0,-0.46,-0.54,355.41,0.008692587999999999,-0.01616375,-0.2582369,0.03672309,-0.1197045,0.7298342,-0.7382389,-0.02,0.02,-0.03,93.25
10548,67420441,0,-0.48,-0.61,355.41,0.001237289,-0.01474435,-0.2520913,0.0412112,-0.1196289,0.7296855,-0.740776,-0.02,0.02,-0.03,93.25
10593,67430423,0,-0.47,-0.53,355.43,-0.003415076,-0.01015441,-0.2530975,0.03496352,-0.1194685,0.7294649,-0.7404551,-0.02,0.02,-0.03,93.25
10637,67441020,0,-0.47,-0.58,355.42,0.008839530999999999,-0.01247287,-0.2538336,0.026304,-0.119263,0.7292398,-0.7404593,-0.02,0.02,-0.03,93.25
10684,67451250,0,-0.49,-0.55,355.42,0.008962101,-0.01427304,-0.2510112,0.02114164,-0.1190165,0.728998,-0.7403947,-0.02,0.02,-0.03,93.25
10732,67462280,0,-0.47,-0.58,355.43,-0.001191045,-0.008589075999999999,-0.254578,0.0120426,-0.1186406,0.7283641,-0.7385306,-0.02,0.02,-0.04,93.25
10776,67472944,0,-0.48,-0.57,355.43,0.002767114,-0.008601938,-0.2447903,0.02347902,-0.1183435,0.7278007,-0.736637,-0.02,0.02,-0.04,93.25
10818,67483534,0,-0.43,-0.5600000000000001,355.43,0.00850243,-0.01508851,-0.2520728,0.02378471,-0.1179753,0.7272139,-0.7351832,-0.02,0.02,-0.04,93.25
10863,67493504,0,-0.46,-0.61,355.41,0.003283979,-0.01709148,-0.2412864,0.04059079,-0.1176223,0.7266243999999999,-0.7336671,-0.02,0.02,-0.04,93.25
10911,67506869,0,-0.48,-0.53,355.43,-0.001446565,-0.01030799,-0.2428844,0.05344648,-0.1173864,0.7260342,-0.7330791,-0.02,0.02,-0.04,93.25
10956,67517413,0,-0.47,-0.57,355.41,0.008569899000000001,-0.01362452,-0.2454014,0.05883075,-0.1171091,0.7255098,-0.7316593,-0.02,0.02,-0.04,93.25
11000,67527978,0,-0.49,-0.57,355.41,0.006973488,-0.0150403,-0.2421304,0.06740226000000001,-0.1167891,0.7249409999999999,-0.7306868,-0.02,0.02,-0.04,93.25
11045,67538933,0,-0.47,-0.57,355.41,-0.003842754,-0.01103154,-0.2454537,0.0702342,-0.1167799,0.7247751,-0.7330825,-0.02,0.02,-0.04,93.25
11089,67548918,0,-0.49,-0.57,355.41,0.0007493549,-0.01249386,-0.2372548,0.07981006,-0.1165889,0.7242826999999999,-0.7319709,-0.02,0.02,-0.04,93.25
11134,67558591,0,-0.44,-0.55,355.41,0.007574228,-0.01730792,-0.2426082,0.07399707,-0.1163256,0.7237787,-0.7309971,-0.02,0.02,-0.04,93.25
11184,67568590,0,-0.47,-0.59,355.4,0.003856139,-0.01952669,-0.2343667,0.07840028,-0.1160554,0.7232551,-0.730179,-0.02,0.02,-0.04,93.25
11228,67579040,0,-0.47,-0.54,355.43,-0.005400989,-0.01549205,-0.2366897,0.06989241,-0.1158774,0.7227575000000001,-0.7297113,-0.02,0.02,-0.04,93.25
11274,67589363,0,-0.48,-0.57,355.42,0.003966662,-0.0180296,-0.2312553,0.07172865,-0.1158821,0.7226192,-0.7320493,-0.02,0.02,-0.04,93.25
11318,67599370,0,-0.47,-0.54,355.43,0.007571582,-0.02197982,-0.2359936,0.06023553,-0.115628,0.7221291,-0.7314759,-0.02,0.02,-0.04,93.25
11366,67612267,0,-0.48,-0.57,355.42,-0.001853985,-0.01303168,-0.2357095,0.04804386,-0.1154028,0.7215791,-0.7314405,-0.02,0.02,-0.03,93.25
11411,67622448,0,-0.48,-0.5600000000000001,355.43,-2.206047e-05,-0.01164709,-0.2311674,0.04244566,-0.1152732,0.7211441,-0.7308566,-0.02,0.02,-0.03,93.25
11455,67632766,0,-0.43,-0.55,355.43,0.007618845,-0.01524338,-0.2378805,0.02719242,-0.1152314,0.720987,-0.733164,-0.02,0.02,-0.03,93.25
11501,67642730,0,-0.46,-0.58,355.42,0.005880934,-0.01881708,-0.2301356,0.02556418,-0.1150016,0.7205063,-0.7326853,-0.02,0.02,-0.03,93.25
11545,67653007,0,-0.44,-0.55,355.43,-0.004178001,-0.01619602,-0.2332522,0.01396817,-0.1148522,0.7200497,-0.7323112000000001,-0.02,0.02,-0.03,93.25
11592,67663049,0,-0.45,-0.58,355.42,0.00171095,-0.01862622,-0.2248182,0.01537585,-0.1147348,0.7196356,-0.7320623000000001,-0.02,0.02,-0.03,93.25
11635,67674936,0,-0.46,-0.54,355.42,0.007887948000000001,-0.02455907,-0.227212,0.009575673999999999,-0.1142347,0.7191615,-0.730772,-0.02,0.02,-0.03,93.25
11681,67684945,0,-0.49,-0.59,355.4,0.0001663356,-0.02203134,-0.2233901,0.01565678,-0.1137754,0.7187112,-0.7291834,-0.02,0.02,-0.03,93.25
11725,67694840,0,-0.5,-0.55,355.42,-0.003249186,-0.01588491,-0.2229291,0.01963019,-0.1134178,0.7183089,-0.7277806999999999,-0.02,0.02,-0.03,93.25
11771,67704941,0,-0.49,-0.5600000000000001,355.41,0.004639605,-0.0166332,-0.2245008,0.02163595,-0.1130391,0.7179238999999999,-0.7263117,-0.02,0.02,-0.03,93.25
11815,67715909,0,-0.49,-0.58,355.4,0.005361781,-0.01902225,-0.2230174,0.03060502,-0.1126127,0.7174904,-0.7252684,-0.02,0.02,-0.03,93.25
11860,67726820,0,-0.47,-0.55,355.41,-0.005046912,-0.01659434,-0.2227831,0.03871366,-0.1122737,0.7170714,-0.7243636,-0.02,0.02,-0.03,93.25
11904,67737201,0,-0.48,-0.57,355.4,0.00142415,-0.01963376,-0.2166648,0.0517982,-0.1119978,0.7167013,-0.7236025,-0.02,0.02,-0.03,93.25
11949,67748092,0,-0.46,-0.54,355.42,0.008291072999999999,-0.02347801,-0.2206123,0.05431869,-0.1119576,0.7165132,-0.7258008,-0.02,0.02,-0.03,93.25
11994,67757904,0,-0.48,-0.59,355.4,0.00353068,-0.02350401,-0.2159195,0.06066331,-0.1116042,0.7161216,-0.7249409999999999,-0.02,0.02,-0.03,93.25
12038,67768016,0,-0.49,-0.55,355.42,-0.004033851,-0.0171968,-0.2146037,0.0604881,-0.1113542,0.7157561,-0.7244309,-0.02,0.02,-0.03,93.25
12088,67778254,0,-0.47,-0.55,355.42,0.003174136,-0.01773719,-0.2149403,0.05701704,-0.1110948,0.7154344,-0.7238101,-0.02,0.02,-0.03,93.25
12132,67788056,0,-0.47,-0.5600000000000001,355.41,0.006096577,-0.02150266,-0.214245,0.05172212,-0.1107742,0.7150882,-0.7233316,-0.02,0.02,-0.03,93.25
12177,67798641,0,-0.46,-0.57,355.41,-0.004321356,-0.01825488,-0.2146423,0.04766488,-0.1107471,0.7148719,-0.7254691,-0.02,0.02,-0.03,93.25
12222,67808447,0,-0.46,-0.57,355.41,-0.005888557,-0.01619854,-0.2114258,0.04438023,-0.1105447,0.7145593,-0.7250804,-0.02,0.02,-0.03,93.25
12268,67818932,0,-0.44,-0.53,355.42,0.004109786,-0.01999076,-0.2148751,0.03281214,-0.1102955,0.7142349,-0.7247291,-0.02,0.02,-0.03,93.25
12315,67829748,0,-0.46,-0.57,355.4,0.004292632,-0.02424733,-0.2113981,0.02800323,-0.1100033,0.7138905,-0.7242914,-0.02,0.02,-0.03,93.25
12359,67839902,0,-0.47,-0.54,355.41,-0.004898694,-0.01991382,-0.2120076,0.01948101,-0.1097877,0.713562,-0.7239728,-0.02,0.02,-0.03,93.25
12403,67850027,0,-0.47,-0.5600000000000001,355.4,0.002362604,-0.0189396,-0.2088643,0.0161995,-0.1096221,0.7132536,-0.7239574,-0.02,0.02,-0.03,93.25
12447,67860908,0,-0.47,-0.55,355.41,0.009914799,-0.02255804,-0.2092355,0.010146,-0.1093756,0.7129315000000001,-0.7240807,-0.02,0.02,-0.03,93.25
12496,67871220,0,-0.47,-0.58,355.39,0.002334655,-0.02110023,-0.2085514,0.006716587,-0.109329,0.7126971,-0.7261628,-0.02,0.02,-0.03,93.25
12541,67882969,0,-0.48,-0.5600000000000001,355.4,-0.004669012,-0.01688544,-0.2040892,0.01056072,-0.1086307,0.7121858,-0.7242661,-0.02,0.02,-0.03,93.25
12582,67893377,0,-0.46,-0.54,355.4,0.00358166,-0.02021326,-0.2060511,0.0149404,-0.1079196,0.711695,-0.7225364,-0.02,0.02,-0.03,93.25
12627,67903277,0,-0.48,-0.5600000000000001,355.39,0.005233869,-0.02533216,-0.201913,0.02817784,-0.1071661,0.7111976,-0.7207952,-0.02,0.02,-0.03,93.25
12672,67913664,0,-0.48,-0.54,355.4,-0.004251401,-0.02171897,-0.2022562,0.03661771,-0.1064952,0.7107126,-0.7192101,-0.02,0.02,-0.03,93.25
12716,67923942,0,-0.49,-0.5600000000000001,355.4,0.001338961,-0.02062642,-0.1986417,0.04794362,-0.1058962,0.7102563,-0.717797,-0.02,0.02,-0.03,93.25
12761,67933787,0,-0.48,-0.53,355.41,0.009679482,-0.02357722,-0.2005444,0.05000423,-0.1052573,0.7098396,-0.7161735,-0.02,0.02,-0.03,93.25
12806,67944347,0,-0.49,-0.58,355.39,0.006750587,-0.02406078,-0.2004064,0.05812863,-0.1045936,0.7093518,-0.7150917,-0.02,0.02,-0.03,93.25
12850,67954966,0,-0.5,-0.5600000000000001,355.41,-0.0005189801,-0.01937034,-0.1953178,0.07021645999999999,-0.1040472,0.7089233,-0.713975,-0.02,0.02,-0.03,93.25
12895,67965282,0,-0.47,-0.55,355.41,0.003807168,-0.01977845,-0.1998222,0.07280894,-0.1035203,0.7085092,-0.7131722,-0.02,0.02,-0.03,93.25
12940,67975941,0,-0.47,-0.58,355.39,0.009387959,-0.02521455,-0.1928288,0.08537781999999999,-0.1034407,0.7082798,-0.7151343999999999,-0.02,0.02,-0.03,93.25
12991,67985903,0,-0.46,-0.54,355.4,-0.003299898,-0.0238067,-0.1957843,0.08293641,-0.1028766,0.7078167,-0.714458,-0.02,0.02,-0.03,93.25
13035,67995902,0,-0.47,-0.58,355.39,-0.002733154,-0.02018617,-0.1879609,0.08787275,-0.1024047,0.7074445,-0.7134792,-0.02,0.02,-0.03,93.25
13080,68005901,0,-0.46,-0.5,355.41,0.007064899,-0.02455284,-0.1912649,0.07643242,-0.1019072,0.7070388,-0.7130138,-0.02,0.02,-0.03,93.25
13125,68016382,0,-0.47,-0.57,355.38,0.008936734999999999,-0.02814605,-0.1896889,0.0719648,-0.1013511,0.7066168,-0.7122644,-0.02,0.02,-0.03,93.25
13172,68029801,0,-0.47,-0.57,355.39,-0.000668888,-0.02066602,-0.1861781,0.07086220999999999,-0.1008875,0.7061198,-0.7124316000000001,-0.02,0.02,-0.03,93.25
13217,68039846,0,-0.46,-0.51,355.4,0.003225924,-0.02233502,-0.1948775,0.05506373,-0.100458,0.7057531,-0.7119346,-0.02,0.02,-0.03,93.25
13261,68050447,0,-0.47,-0.59,355.39,0.009729669,-0.03048909,-0.1852125,0.05893249,-0.1003495,0.7054707,-0.7140098,-0.02,0.02,-0.03,93.25
13308,68060450,0,-0.48,-0.52,355.4,-0.0005447681,-0.02821028,-0.1882014,0.04777932,-0.09988151000000001,0.7050539,-0.7136316,-0.02,0.02,-0.03,93.25
13349,68070906,0,-0.5,-0.57,355.4,0.0006917483000000001,-0.02278356,-0.1852263,0.04551387,-0.09924609,0.7047717999999999,-0.7119142000000001,-0.02,0.02,-0.03,93.25
13390,68081935,0,-0.5,-0.52,355.41,0.01066697,-0.02494547,-0.1839525,0.04736847,-0.09859661,0.7045218,-0.7102301,-0.02,0.02,-0.03,93.25
13415,68131871,0,-0.46,-0.54,355.39,0.007673768,-0.02297333,-0.1871277,0.04881796,-0.09604786,0.7032602,-0.7064751,-0.02,0.02,-0.03,93.25
13461,68141945,0,-0.48,-0.5600000000000001,355.39,0.002644681,-0.01979076,-0.176368,0.0592175,-0.09551922,0.7030211,-0.705348,-0.02,0.02,-0.03,93.25
13505,68152536,0,-0.45,-0.52,355.4,0.007714803,-0.0229514,-0.1810418,0.0562949,-0.09501049,0.7027987999999999,-0.7045437,-0.02,0.02,-0.03,93.25
13550,68163008,0,-0.45,-0.57,355.39,0.01308478,-0.02932915,-0.1748623,0.06405763,-0.09442478,0.7025388,-0.703855,-0.02,0.02,-0.03,93.25
13594,68173339,0,-0.47,-0.55,355.39,0.003962176,-0.02761668,-0.1756959,0.06526135,-0.09434199,0.702277,-0.7056578999999999,-0.02,0.02,-0.03,93.25
13639,68183340,0,-0.47,-0.57,355.39,0.003018468,-0.022004,-0.1744363,0.0649097,-0.09388059,0.7020643,-0.704874,-0.02,0.02,-0.03,93.25
13688,68193347,0,-0.48,-0.54,355.4,0.01257011,-0.02372887,-0.1728091,0.06359614,-0.09340531000000001,0.7018642,-0.7042634,-0.02,0.02,-0.03,93.25
13733,68203922,0,-0.47,-0.57,355.39,0.01021645,-0.02507914,-0.1785199,0.05251776,-0.09287922999999999,0.70163,-0.7037096,-0.02,0.02,-0.03,93.25
13778,68213917,0,-0.51,-0.5600000000000001,355.39,0.003064632,-0.02159976,-0.1690021,0.05585324,-0.09243669,0.7013952,-0.7032985,-0.02,0.02,-0.03,93.25
13822,68224004,0,-0.46,-0.53,355.4,0.002164997,-0.01844187,-0.1799429,0.03912935,-0.09204424,0.7011834,-0.7030557,-0.02,0.02,-0.03,93.25
13868,68234670,0,-0.45,-0.57,355.39,0.01269363,-0.02337079,-0.1689556,0.04598867,-0.09194461,0.7009552,-0.7047749,-0.02,0.02,-0.03,93.25
13912,68244818,0,-0.45,-0.53,355.4,0.005514424,-0.02565885,-0.1786238,0.02988388,-0.09149037,0.7007257,-0.7044787,-0.02,0.02,-0.03,93.25
13957,68254474,0,-0.47,-0.57,355.4,0.001925427,-0.02403232,-0.1648121,0.03671699,-0.09111872,0.7005069,-0.7042339,-0.02,0.02,-0.03,93.25
14004,68265095,0,-0.49,-0.5,355.42,0.009467842000000001,-0.02689923,-0.1699715,0.02439751,-0.09076302,0.7003001,-0.7043024,-0.02,0.02,-0.03,93.25
14043,68276266,0,-0.48,-0.5600000000000001,355.4,0.01312122,-0.02794106,-0.1699389,0.01944436,-0.08999923999999999,0.7001395,-0.7026999,-0.02,0.02,-0.03,93.25
14088,68285973,0,-0.52,-0.55,355.4,0.00623726,-0.02591183,-0.1609083,0.02927891,-0.08932391000000001,0.699991,-0.7011579,-0.02,0.02,-0.03,93.25
14136,68296018,0,-0.48,-0.55,355.41,0.003603203,-0.01901251,-0.1711773,0.01993384,-0.0887178,0.699872,-0.6996744,-0.02,0.02,-0.03,93.25
14181,68306877,0,-0.51,-0.5600000000000001,355.4,0.01379062,-0.02033399,-0.1602775,0.03693163,-0.0886367,0.699658,-0.7013582,-0.02,0.02,-0.03,93.25
14225,68316953,0,-0.47,-0.55,355.4,0.009763480999999999,-0.02150721,-0.1732101,0.02800795,-0.08795567999999999,0.699524,-0.7000198,-0.02,0.02,-0.03,93.25
14272,68326899,0,-0.49,-0.58,355.39,0.004265802,-0.01970897,-0.1563467,0.04744381,-0.08735759,0.6993911,-0.6988178,-0.02,0.02,-0.03,93.25
14316,68336863,0,-0.44,-0.52,355.41,0.006312157,-0.01861955,-0.1683304,0.03877633,-0.08680858,0.6992769,-0.6977493,-0.02,0.02,-0.03,93.25
14361,68348106,0,-0.44,-0.58,355.39,0.01610265,-0.02258638,-0.1575792,0.0528903,-0.08620438,0.6991706,-0.6966197,-0.02,0.02,-0.03,93.25
14406,68357962,0,-0.44,-0.54,355.39,0.01104141,-0.0254357,-0.163748,0.04886093,-0.08562,0.6990395,-0.6956624,-0.02,0.02,-0.03,93.25
14452,68368050,0,-0.45,-0.58,355.39,0.006759419,-0.02384296,-0.1557992,0.05989628,-0.08511000000000001,0.6988969,-0.6949142,-0.02,0.02,-0.03,93.25
14497,68378381,0,-0.47,-0.54,355.4,0.01394485,-0.02445823,-0.1550675,0.0638412,-0.08503816,0.698697,-0.6965159,-0.02,0.02,-0.03,93.25
14541,68388353,0,-0.45,-0.5600000000000001,355.39,0.01482685,-0.0265536,-0.1585916,0.05998619,-0.08447344,0.6985803,-0.6957152,-0.02,0.02,-0.03,93.25
14590,68399007,0,-0.5,-0.57,355.39,0.004553251,-0.02327521,-0.1517144,0.06420078999999999,-0.08396002,0.69842,-0.6952254,-0.02,0.02,-0.03,93.25
14634,68408950,0,-0.47,-0.54,355.4,0.002770689,-0.01710906,-0.1600391,0.05223239,-0.08352497,0.6983135,-0.6946391,-0.02,0.02,-0.03,93.25
14679,68419097,0,-0.49,-0.5600000000000001,355.4,0.01274535,-0.01892514,-0.1505349,0.05605415,-0.08306015,0.698213,-0.6941615,-0.02,0.02,-0.03,93.25
14725,68429526,0,-0.47,-0.53,355.4,0.009345976000000001,-0.0213847,-0.1598151,0.04303242,-0.08291756,0.6979777,-0.6957092,-0.02,0.02,-0.03,93.25
14772,68442560,0,-0.48,-0.5600000000000001,355.4,0.006976881,-0.02343468,-0.1498385,0.04503997,-0.08247362,0.6977803,-0.6957169,-0.02,0.02,-0.03,93.25
14817,68452505,0,-0.49,-0.53,355.41,0.01284769,-0.02412018,-0.151143,0.03733616,-0.08207673,0.6976863,-0.6953802,-0.02,0.02,-0.03,93.25
14861,68462509,0,-0.46,-0.5600000000000001,355.39,0.0164338,-0.02616053,-0.1513398,0.02816053,-0.08161354,0.6975743,-0.6950656,-0.02,0.02,-0.03,93.25
14909,68478409,0,-0.48,-0.55,355.39,0.006379239,-0.02272671,-0.1433865,0.02871639,-0.08081631,0.6972969,-0.6941715000000001,-0.02,0.02,-0.03,93.25
14954,68488302,0,-0.47,-0.53,355.4,0.01123345,-0.02324841,-0.1477338,0.0261177,-0.08013145000000001,0.6971949,-0.6925353,-0.02,0.02,-0.03,93.25
15003,68498913,0,-0.45,-0.5600000000000001,355.37,0.0168105,-0.02728841,-0.1452016,0.03442229,-0.07938553,0.6970562,-0.6911526,-0.02,0.02,-0.03,93.25
15048,68508931,0,-0.49,-0.5600000000000001,355.38,0.008385325000000001,-0.02624346,-0.143636,0.04138724,-0.07869527,0.696919,-0.6898041,-0.02,0.02,-0.03,93.25
15093,68518928,0,-0.48,-0.5600000000000001,355.38,0.004472413,-0.02131105,-0.1442208,0.04423213,-0.07808949,0.6967998,-0.6885152,-0.02,0.02,-0.03,93.25
15137,68529197,0,-0.51,-0.54,355.39,0.01155306,-0.02062822,-0.1414424,0.05335471,-0.07800385,0.6966037,-0.6899535999999999,-0.02,0.02,-0.03,93.25
15182,68539405,0,-0.47,-0.55,355.37,0.01210609,-0.02319059,-0.1446681,0.0541742,-0.07732417,0.6964867,-0.6885653,-0.02,0.02,-0.03,93.25
15226,68549198,0,-0.5,-0.55,355.37,0.00454956,-0.02087986,-0.1378353,0.06459637,-0.07671260000000001,0.6963581,-0.6873216,-0.02,0.02,-0.03,93.25
15271,68559473,0,-0.48,-0.54,355.39,0.00513127,-0.01541722,-0.1418655,0.0619993,-0.07616942,0.6962584000000001,-0.6861672,-0.02,0.02,-0.03,93.25
15315,68569481,0,-0.48,-0.54,355.39,0.01448621,-0.01830435,-0.135849,0.06865880000000001,-0.07559219,0.6961642,-0.6851264,-0.02,0.02,-0.03,93.25
15361,68580388,0,-0.47,-0.53,355.39,0.01352953,-0.02259047,-0.139413,0.06767303,-0.07542074999999999,0.6959225999999999,-0.6866527,-0.02,0.02,-0.03,93.25
15406,68590866,0,-0.47,-0.55,355.39,0.007503207,-0.02242677,-0.1322327,0.07380130999999999,-0.07488204,0.6957979,-0.6856877,-0.02,0.02,-0.03,93.25
15455,68600888,0,-0.47,-0.53,355.4,0.01276803,-0.02234259,-0.1344458,0.06983238,-0.07437805,0.6957058,-0.6848495999999999,-0.02,0.02,-0.03,93.25
15500,68611339,0,-0.45,-0.55,355.38,0.01812633,-0.02397745,-0.1359315,0.06673678,-0.07380346,0.6955789999999999,-0.6842317999999999,-0.02,0.02,-0.03,93.25
15544,68621980,0,-0.49,-0.5600000000000001,355.38,0.008832322,-0.02118718,-0.1342926,0.06630505,-0.07326108000000001,0.6954266,-0.6837552,-0.02,0.02,-0.03,93.25
15589,68631960,0,-0.47,-0.54,355.39,0.005681552,-0.01616047,-0.1363543,0.06077595,-0.07281896,0.6953134,-0.6831997,-0.02,0.02,-0.03,93.25
15633,68642811,0,-0.49,-0.54,355.39,0.01402952,-0.01687896,-0.1314205,0.06181658,-0.07235894,0.6952212,-0.6827438,-0.02,0.02,-0.03,93.25
15681,68652970,0,-0.46,-0.54,355.38,0.01423319,-0.02071866,-0.1353824,0.05317767,-0.07219345000000001,0.695002,-0.6840618000000001,-0.02,0.02,-0.03,93.25
15720,68664219,0,-0.47,-0.5600000000000001,355.38,0.008185072999999999,-0.02467993,-0.1252958,0.0591285,-0.07118219000000001,0.6947114,-0.6825343,-0.02,0.02,-0.03,93.25
15765,68674003,0,-0.47,-0.53,355.39,0.01159834,-0.02278953,-0.1265708,0.05699842,-0.0702633,0.6945007,-0.6808724,-0.02,0.02,-0.03,93.25
15810,68684507,0,-0.47,-0.5600000000000001,355.38,0.01884576,-0.02525946,-0.1250167,0.05828784,-0.06930884,0.6942897,-0.6793196,-0.02,0.02,-0.03,93.25
15855,68695043,0,-0.5,-0.55,355.38,0.0116833,-0.02471928,-0.1262028,0.05787426,-0.06836528,0.6940333,-0.6780363,-0.02,0.02,-0.03,93.25
15904,68705548,0,-0.5,-0.54,355.38,0.005994821,-0.0198382,-0.127359,0.06079754,-0.06828679,0.6938091,-0.6792824,-0.02,0.02,-0.03,93.25
15950,68715994,0,-0.51,-0.53,355.39,0.01360516,-0.01642298,-0.1262258,0.06423345,-0.06742896,0.6936024,-0.6780901,-0.02,0.02,-0.03,93.25
15994,68725967,0,-0.47,-0.53,355.38,0.01530165,-0.01885625,-0.1289949,0.06241851,-0.06654267,0.6933964,-0.6768835,-0.02,0.02,-0.03,93.25
16040,68736285,0,-0.49,-0.5600000000000001,355.38,0.008648484,-0.01966896,-0.122557,0.06941333,-0.06572115000000001,0.6931728,-0.6757896,-0.02,0.02,-0.03,93.25
16085,68746983,0,-0.46,-0.52,355.4,0.01012341,-0.01858673,-0.1214751,0.07188126,-0.0649724,0.6929604,-0.6749253,-0.02,0.02,-0.03,93.25
16131,68757027,0,-0.46,-0.55,355.39,0.01903562,-0.02302024,-0.1168593,0.0750154,-0.0641965,0.6927776,-0.6740205,-0.02,0.02,-0.03,93.25
16176,68768079,0,-0.48,-0.54,355.39,0.01646946,-0.02745954,-0.1166852,0.07446662,-0.063399,0.6925467,-0.6733614,-0.02,0.02,-0.03,93.25
16221,68778087,0,-0.49,-0.55,355.39,0.00969478,-0.02364982,-0.1168783,0.07414875999999999,-0.06328581,0.6923233,-0.6745419,-0.02,0.02,-0.03,93.25
16266,68788143,0,-0.49,-0.54,355.4,0.01514689,-0.02142059,-0.1144246,0.07383695,-0.06259769,0.692148,-0.6738272,-0.02,0.02,-0.03,93.25
16312,68798085,0,-0.47,-0.54,355.38,0.01955093,-0.02187211,-0.1204088,0.06263241999999999,-0.06185556,0.6919635,-0.6731845,-0.02,0.02,-0.03,93.25
16361,68808813,0,-0.48,-0.5600000000000001,355.38,0.01409859,-0.0220753,-0.1162346,0.06198402,-0.06114131,0.691752,-0.6726522,-0.02,0.02,-0.03,93.25
16408,68818444,0,-0.48,-0.53,355.38,0.009160926,-0.01638173,-0.1197321,0.05296022,-0.06051696,0.6915467,-0.6721916999999999,-0.02,0.02,-0.03,93.25
16452,68828949,0,-0.45,-0.55,355.38,0.01824548,-0.01600577,-0.1152549,0.05211229,-0.05987087,0.691354,-0.6719217,-0.02,0.02,-0.03,93.25
16497,68839345,0,-0.44,-0.53,355.38,0.01979066,-0.02073422,-0.1177615,0.04539365,-0.05966958,0.691142,-0.6730793,-0.02,0.02,-0.03,93.25
16544,68852331,0,-0.48,-0.55,355.38,0.01193094,-0.02575266,-0.1110717,0.04473222,-0.05898703,0.6908531999999999,-0.6728806000000001,-0.02,0.02,-0.03,93.25
16591,68868256,0,-0.46,-0.5600000000000001,355.38,0.02175157,-0.02027086,-0.1107574,0.03893368,-0.0576276,0.69071,-0.6701208,-0.02,0.02,-0.03,93.25
16635,68878579,0,-0.47,-0.55,355.38,0.0214697,-0.02480665,-0.1086426,0.04286695,-0.05678082,0.6906442,-0.6684169,-0.02,0.02,-0.03,93.25
16680,68889381,0,-0.49,-0.55,355.38,0.01247587,-0.02447776,-0.1068534,0.05092103,-0.05599532,0.6905369,-0.6669295,-0.02,0.02,-0.03,93.25
16727,68900019,0,-0.5,-0.57,355.39,0.01654853,-0.01841239,-0.1042731,0.05893185,-0.05526719,0.690466,-0.6655516,-0.02,0.02,-0.03,93.25
16775,68910890,0,-0.46,-0.53,355.38,0.01921323,-0.01722979,-0.1109462,0.05903751,-0.05449256,0.6904011,-0.6642978,-0.02,0.02,-0.03,93.25
16820,68921960,0,-0.46,-0.58,355.37,0.01383407,-0.01955082,-0.1047209,0.07214066,-0.05375583,0.6903057,-0.6631584,-0.02,0.02,-0.03,93.25
16864,68932381,0,-0.46,-0.52,355.39,0.01007126,-0.01717759,-0.1062705,0.07720848,-0.05364462,0.6901016,-0.6642112999999999,-0.02,0.02,-0.03,93.25
16909,68942370,0,-0.45,-0.5600000000000001,355.37,0.02005555,-0.02007141,-0.1023706,0.08455861000000001,-0.05296308,0.6900449,-0.6631309,-0.02,0.02,-0.03,93.25
16954,68952888,0,-0.45,-0.53,355.37,0.02010676,-0.02462888,-0.1005712,0.08443444,-0.05227558,0.6899916,-0.6620752,-0.02,0.02,-0.03,93.25
16999,68963003,0,-0.46,-0.57,355.36,0.01211367,-0.02474403,-0.1013474,0.08200188999999999,-0.05211633,0.6897721999999999,-0.6630791,-0.02,0.02,-0.03,93.25
17044,68973201,0,-0.48,-0.55,355.38,0.0157621,-0.01839013,-0.09646694,0.08349403,-0.05151238,0.6897025,-0.6621707,-0.02,0.02,-0.03,93.25
17089,68983282,0,-0.45,-0.55,355.37,0.01994855,-0.01788837,-0.1028019,0.07339,-0.05087534,0.6896635,-0.6612374,-0.02,0.02,-0.03,93.25
17135,68993072,0,-0.46,-0.58,355.36,0.01780337,-0.02081309,-0.09640077,0.07512869,-0.05024918,0.6895918,-0.6604096,-0.02,0.02,-0.03,93.25
17179,69003938,0,-0.46,-0.54,355.38,0.009404424,-0.0165277,-0.1024361,0.0644279,-0.04970284,0.6895059,-0.6596587,-0.02,0.02,-0.03,93.25
17234,69017031,0,-0.45,-0.58,355.37,0.02068821,-0.02003787,-0.09720223,0.06604633,-0.04910346,0.6893736,-0.6593778,-0.02,0.02,-0.03,93.25
17278,69027012,0,-0.45,-0.55,355.37,0.02092942,-0.02401035,-0.09498408,0.06318744,-0.04852703,0.6893010000000001,-0.6588163,-0.02,0.02,-0.03,93.25
17323,69037496,0,-0.47,-0.57,355.37,0.01214818,-0.02332932,-0.09693762,0.05774099,-0.04835996,0.6890724,-0.6597698,-0.02,0.02,-0.03,93.25
17368,69047553,0,-0.49,-0.5600000000000001,355.38,0.0144106,-0.01982096,-0.09235893000000001,0.05732616,-0.04787994,0.6889999,-0.6592475,-0.02,0.02,-0.03,93.25
17412,69057530,0,-0.48,-0.55,355.38,0.02053646,-0.01963492,-0.09437426,0.05012579,-0.04735586,0.6889373,-0.6587626,-0.02,0.02,-0.03,93.25
17458,69067422,0,-0.49,-0.57,355.36,0.01930923,-0.02270067,-0.09163816,0.04682808,-0.04682457,0.6888542,-0.6583560000000001,-0.02,0.02,-0.03,93.25
17499,69081979,0,-0.49,-0.53,355.38,0.01484612,-0.01809053,-0.09070072,0.04045205,-0.0461225,0.6887187,-0.657272,-0.02,0.02,-0.03,93.25
17544,69091995,0,-0.48,-0.55,355.37,0.02210531,-0.0160601,-0.09366480000000001,0.03455853,-0.04548734,0.6887161000000001,-0.6558166,-0.02,0.02,-0.03,93.25
17590,69102765,0,-0.47,-0.55,355.36,0.02213009,-0.02058142,-0.09064622999999999,0.04022386,-0.04526602,0.6885393,-0.6567355,-0.02,0.02,-0.03,93.25
17634,69112454,0,-0.47,-0.57,355.36,0.01320778,-0.01953346,-0.09172708,0.04141469,-0.04464125,0.6885015,-0.6553885,-0.02,0.02,-0.03,93.25
17684,69122495,0,-0.47,-0.57,355.36,0.01361633,-0.01713752,-0.08652559999999999,0.04959195,-0.04409251,0.6884935,-0.6541346,-0.02,0.02,-0.03,93.25
17728,69133030,0,-0.46,-0.53,355.37,0.01996459,-0.01693929,-0.08968553999999999,0.05093654,-0.0434895,0.6884855,-0.6530903,-0.02,0.02,-0.03,93.25
17773,69143056,0,-0.46,-0.58,355.34,0.01891893,-0.02201804,-0.08423986,0.05960028,-0.04290098,0.6884625,-0.652045,-0.02,0.02,-0.03,93.25
17819,69152972,0,-0.46,-0.53,355.36,0.01209371,-0.01926526,-0.08505529000000001,0.06007112,-0.04239316,0.6884335,-0.6511021,-0.02,0.02,-0.03,93.25
17863,69163450,0,-0.44,-0.58,355.36,0.0176797,-0.01757822,-0.08358634,0.06431956,-0.04224789,0.6882817,-0.6519439,-0.02,0.02,-0.03,93.25
17908,69173423,0,-0.45,-0.53,355.36,0.02349589,-0.01794052,-0.08504618999999999,0.06422884,-0.04171009,0.6882777,-0.6507902,-0.02,0.02,-0.03,93.25
17952,69183457,0,-0.45,-0.58,355.35,0.01886676,-0.02056976,-0.08507589,0.06538852000000001,-0.04118435,0.6882309,-0.6496983,-0.02,0.02,-0.03,93.25
17997,69193926,0,-0.48,-0.55,355.37,0.01467838,-0.01471118,-0.0811943,0.07108065,-0.04073871,0.6881736000000001,-0.6488134,-0.02,0.02,-0.03,93.25
18042,69203906,0,-0.45,-0.55,355.36,0.01902081,-0.01267123,-0.08866177,0.06411717,-0.04029574,0.6881613,-0.6479089,-0.02,0.02,-0.03,93.25
18086,69213836,0,-0.46,-0.57,355.35,0.0211648,-0.01746991,-0.08089921999999999,0.07051814000000001,-0.03981607,0.6881305,-0.647105,-0.02,0.02,-0.03,93.25
18137,69224268,0,-0.45,-0.5600000000000001,355.35,0.0117626,-0.01756642,-0.08728002999999999,0.06403511000000001,-0.03963781,0.6879246999999999,-0.6479236,-0.02,0.02,-0.03,93.25
18181,69234436,0,-0.48,-0.58,355.36,0.01284653,-0.01502273,-0.0769806,0.07227022,-0.03925437,0.6878821000000001,-0.6471676,-0.02,0.02,-0.03,93.25
18226,69244434,0,-0.46,-0.53,355.36,0.01774472,-0.01560227,-0.0829633,0.0635792,-0.0388476,0.6878598,-0.6465131,-0.02,0.02,-0.03,93.25
18273,69254663,0,-0.47,-0.58,355.34,0.01830996,-0.02232629,-0.07447781000000001,0.06802256,-0.03840511,0.6878062,-0.6458976,-0.02,0.02,-0.03,93.25
18314,69269302,0,-0.53,-0.55,355.35,0.01389535,-0.01165025,-0.07585527,0.06311441,-0.03759746,0.6874487,-0.6444411,-0.02,0.02,-0.03,93.25
18358,69279301,0,-0.48,-0.53,355.35,0.0177547,-0.009471765,-0.08519267,0.0543886,-0.03688358,0.6872424,-0.6426979,-0.02,0.02,-0.03,93.25
18403,69289879,0,-0.46,-0.57,355.34,0.02052185,-0.01736834,-0.07204001,0.06998881999999999,-0.03611442,0.6870115,-0.6411378,-0.02,0.02,-0.03,93.25
18449,69300445,0,-0.44,-0.53,355.34,0.01159187,-0.0181279,-0.07800594,0.06968584,-0.03594607,0.6868241,-0.6419068999999999,-0.02,0.02,-0.03,93.25
18496,69310255,0,-0.44,-0.57,355.35,0.01383754,-0.01507916,-0.06950059,0.08236385,-0.03529833,0.6866077,-0.6403381,-0.02,0.02,-0.03,93.25
18540,69320661,0,-0.44,-0.51,355.35,0.02129985,-0.01805133,-0.07147514000000001,0.08441491,-0.0346358,0.6864176,-0.6389271,-0.02,0.02,-0.03,93.25
18589,69330778,0,-0.43,-0.5600000000000001,355.34,0.02143328,-0.02424693,-0.06813539,0.09012189,-0.03394225,0.6861985,-0.6375622,-0.02,0.02,-0.03,93.25
18634,69340648,0,-0.46,-0.52,355.35,0.01443035,-0.02220403,-0.06751491,0.09251695,-0.03333435,0.6859671000000001,-0.636358,-0.02,0.02,-0.03,93.25
18679,69351007,0,-0.45,-0.55,355.35,0.01768414,-0.01561246,-0.07222908,0.09049213,-0.03274645,0.6857571,-0.6352635,-0.02,0.02,-0.03,93.25
18727,69364504,0,-0.44,-0.57,355.34,0.02278692,-0.01461596,-0.0683549,0.09759787,-0.03206622,0.6855274,-0.6345025,-0.02,0.02,-0.03,93.25
18772,69374955,0,-0.43,-0.54,355.35,0.01405494,-0.01853198,-0.07298449,0.09228446999999999,-0.03146821,0.6852841,-0.6336794,-0.02,0.02,-0.03,93.25
18817,69385886,0,-0.44,-0.57,355.35,0.01615963,-0.01519647,-0.06444935,0.1003457,-0.03131872,0.6851244,-0.6343413,-0.02,0.02,-0.03,93.25
18861,69395920,0,-0.45,-0.52,355.36,0.02333931,-0.0179168,-0.06799605,0.0940729,-0.03077107,0.6849487,-0.6335197,-0.02,0.02,-0.03,93.25
18905,69405840,0,-0.44,-0.57,355.34,0.02367336,-0.02406782,-0.0632833,0.09517248,-0.03018047,0.684738,-0.6327183,-0.02,0.02,-0.03,93.25
18949,69415859,0,-0.48,-0.54,355.35,0.01664951,-0.02262346,-0.06196703,0.09146411,-0.02966841,0.684517,-0.6320443,-0.02,0.02,-0.03,93.25
18998,69426269,0,-0.46,-0.5600000000000001,355.35,0.01690452,-0.01559511,-0.06860492999999999,0.07975778,-0.02917745,0.6843224999999999,-0.6314532,-0.02,0.02,-0.03,93.25
19043,69436993,0,-0.48,-0.5600000000000001,355.34,0.02435027,-0.01399566,-0.06322695,0.07887234999999999,-0.02864115,0.6841298,-0.630969,-0.02,0.02,-0.03,93.25
19089,69447379,0,-0.46,-0.55,355.34,0.01600788,-0.01471105,-0.07530576,0.06189636,-0.02841941,0.68394,-0.6316236,-0.02,0.02,-0.03,93.25
19134,69457336,0,-0.5,-0.5600000000000001,355.34,0.01390751,-0.01062713,-0.06185621,0.06929451,-0.02797958,0.6837326,-0.6311099999999999,-0.02,0.02,-0.03,93.25
19177,69468417,0,-0.45,-0.51,355.35,0.02101915,-0.01145859,-0.06970999,0.05455837,-0.02714779,0.6835998,-0.629675,-0.02,0.02,-0.03,93.25
19219,69479152,0,-0.44,-0.5600000000000001,355.33,0.02428551,-0.02125683,-0.05949283,0.06311723,-0.02626999,0.6834333,-0.6283105,-0.02,0.02,-0.03,93.25
19264,69489003,0,-0.46,-0.54,355.34,0.01654124,-0.02143529,-0.05953725,0.06206585,-0.0254954,0.6832582,-0.6270329,-0.02,0.02,-0.03,93.25
19308,69499419,0,-0.44,-0.5600000000000001,355.35,0.01641452,-0.01546183,-0.05952908,0.06448014000000001,-0.02534914,0.6831082000000001,-0.6276153,-0.02,0.02,-0.03,93.25
19354,69509638,0,-0.47,-0.54,355.35,0.02476404,-0.01765607,-0.05630537,0.06919888,-0.02459959,0.682992,-0.6264127,-0.02,0.02,-0.03,93.25
19398,69519424,0,-0.45,-0.5600000000000001,355.34,0.02110087,-0.02064491,-0.06186854,0.06516276,-0.02382955,0.6828378000000001,-0.6252441,-0.02,0.02,-0.03,93.25
19447,69530313,0,-0.5,-0.55,355.35,0.01383183,-0.01439325,-0.05402034,0.0753236,-0.0231353,0.6826603,-0.6242761999999999,-0.02,0.02,-0.03,93.25
19491,69540922,0,-0.45,-0.52,355.36,0.01651984,-0.00951222,-0.06842394,0.06305819999999999,-0.02248051,0.6825425000000001,-0.6233715,-0.02,0.02,-0.03,93.25
19536,69550947,0,-0.45,-0.5600000000000001,355.35,0.02430581,-0.01291562,-0.05641978,0.07575755000000001,-0.0217867,0.6824251,-0.6224893,-0.02,0.02,-0.03,93.25
19581,69560963,0,-0.45,-0.54,355.35,0.01722794,-0.01471355,-0.06626232999999999,0.06474526999999999,-0.02112645,0.6822733,-0.6215064,-0.02,0.02,-0.03,93.25
19630,69574516,0,-0.44,-0.57,355.36,0.01780541,-0.01289616,-0.05571829,0.07584067999999999,-0.02049363,0.6821057,-0.6207335,-0.02,0.02,-0.03,93.25
19675,69584822,0,-0.47,-0.54,355.36,0.02652002,-0.01588321,-0.05173065,0.07876387999999999,-0.01989694,0.6820082,-0.6199202,-0.02,0.02,-0.03,93.25
19719,69594988,0,-0.45,-0.5600000000000001,355.35,0.02098122,-0.01772348,-0.06022697,0.06949922,-0.01924051,0.6818529,-0.6191826,-0.02,0.02,-0.03,93.25
19764,69605527,0,-0.49,-0.55,355.35,0.01537787,-0.01422724,-0.0486463,0.08061965,-0.01905575,0.681686,-0.6197485,-0.02,0.02,-0.03,93.25
19808,69615530,0,-0.44,-0.54,355.36,0.01654625,-0.01004965,-0.06187375,0.06510191999999999,-0.01851835,0.6815955,-0.6190209,-0.02,0.02,-0.03,93.25
19853,69625494,0,-0.46,-0.5600000000000001,355.34,0.02527377,-0.01365132,-0.04878474,0.07525039,-0.01792895,0.6814937,-0.618376,-0.02,0.02,-0.03,93.25
19901,69635514,0,-0.44,-0.54,355.34,0.01835587,-0.01552479,-0.06239921,0.05751241,-0.01734859,0.6813513,-0.6177883,-0.02,0.02,-0.03,93.25
19946,69645984,0,-0.46,-0.5600000000000001,355.35,0.0179128,-0.01179141,-0.04687552,0.06791358,-0.01682813,0.6812049999999999,-0.6172868,-0.02,0.02,-0.03,93.25
19991,69656875,0,-0.45,-0.52,355.36,0.02510971,-0.01351894,-0.05612488,0.05481723,-0.01663013,0.6810884,-0.6178353,-0.02,0.02,-0.03,93.25
20038,69667042,0,-0.43,-0.57,355.34,0.02925025,-0.01969096,-0.04989991,0.05577426,-0.01602831,0.6809485,-0.6173775,-0.02,0.02,-0.03,93.25
20077,69678381,0,-0.48,-0.5600000000000001,355.35,0.02003217,-0.01813029,-0.04668389,0.05744165,-0.01512115,0.6806189,-0.6160055,-0.02,0.02,-0.03,93.25
20122,69688293,0,-0.44,-0.57,355.36,0.01896362,-0.01155225,-0.05415359,0.05161796,-0.01430471,0.6803578,-0.6146119,-0.02,0.02,-0.03,93.25
20166,69698622,0,-0.47,-0.5600000000000001,355.35,0.02562253,-0.01372501,-0.045552,0.06244287,-0.01343984,0.6800929,-0.6134045,-0.02,0.02,-0.03,93.25
20212,69708825,0,-0.45,-0.55,355.35,0.01937505,-0.01650478,-0.05560572,0.0547449,-0.01260423,0.6798038,-0.6122035,-0.02,0.02,-0.03,93.25
