LineNo,TimeUS,C,Roll,Pitch,Yaw,VN,VE,VD,dPD,PN,PE,PD,GX,GY,GZ,OH
203,64896897,1,-0.13,0.18,356.85,-0.2230328,0.00395318,0.0226676,0.06430938,-0.3240236,0.7676873,-0.5168157,-0.08,0.26,-0.05,93.28
652,65007007,1,-0.13,0.17,356.86,-0.2248215,0.007683435,0.01819572,0.0496766,-0.3284566,0.7692332,-0.512638,-0.08,0.25,-0.04,93.28
992,65090930,1,-0.14,0.17,356.84,-0.2253481,0.01052545,0.02423878,0.04946502,-0.3320465,0.7699593,-0.5084286,-0.08,0.25,-0.04,93.28
1217,65223892,1,-0.15,0.18,356.85,-0.2230033,0.006535992,-0.2933377,-0.2069134,-0.3329517,0.769454,-0.5188677,-0.08,0.24,-0.04,93.28
1588,65344004,1,-0.16,0.2,356.85,-0.2184881,-0.0007706273,-0.4771174,-0.3873414,-0.3320762,0.7681603,-0.5604826000000001,-0.08,0.24,-0.04,93.28
1632,65354533,1,-0.15,0.2,356.85,-0.215952,-0.001496294,-0.4758523,-0.3875765,-0.3297879,0.7678427,-0.5643879000000001,-0.08,0.24,-0.04,93.28
1677,65364761,1,-0.15,0.2,356.85,-0.2133074,-0.0005620239,-0.474346,-0.3877171,-0.3276794,0.7675349,-0.5682922,-0.08,0.24,-0.04,93.28
1722,65375007,1,-0.15,0.2,356.85,-0.2111346,-0.0006001719,-0.4738538,-0.3894627,-0.3259401,0.7672382,-0.5728812,-0.08,0.24,-0.04,93.28
1766,65385006,1,-0.15,0.19,356.85,-0.2078291,-0.0005964353,-0.4746815,-0.3931689,-0.3241197,0.7669529,-0.5769718,-0.08,0.24,-0.04,93.28
1815,65395331,1,-0.15,0.19,356.85,-0.2062812,-0.00020608,-0.4740738,-0.3950357,-0.3224877,0.7666845,-0.5811107,-0.08,0.25,-0.04,93.28
1859,65406026,1,-0.15,0.18,356.84,-0.2069285,-0.0009331446,-0.4743525,-0.3976294,-0.3247655,0.7666809999999999,-0.5863323,-0.08,0.25,-0.04,93.28
1904,65416874,1,-0.15,0.18,356.84,-0.2053412,-0.001923349,-0.4725555,-0.3988341,-0.3232503,0.7664095,-0.5904735,-0.08,0.25,-0.04,93.28
1950,65426850,1,-0.15,0.18,356.84,-0.2037082,-0.001777714,-0.4725672,-0.4019729,-0.3218932,0.7661449,-0.5946428,-0.08,0.25,-0.04,93.28
1995,65436992,1,-0.15,0.18,356.84,-0.2020576,-0.0006179239999999999,-0.4733997,-0.4067815,-0.3206726,0.765897,-0.598747,-0.08,0.25,-0.04,93.28
2040,65448004,1,-0.15,0.18,356.84,-0.2029024,-0.00194198,-0.4728431,-0.4091729,-0.3228877,0.7658836999999999,-0.6039293,-0.08,0.25,-0.04,93.28
2084,65458163,1,-0.15,0.18,356.84,-0.2018835,-0.001468921,-0.4731086,-0.4126636,-0.3219859,0.7656338,-0.6085137,-0.08,0.25,-0.04,93.28
2129,65468106,1,-0.15,0.18,356.83,-0.1997723,-0.001020275,-0.4726391,-0.4143467,-0.321054,0.7654048,-0.6126988,-0.08,0.25,-0.04,93.28
2175,65485072,1,-0.15,0.17,356.83,-0.1944301,-0.002263261,-0.4699156,-0.4115243,-0.3169674,0.7649789,-0.6165305,-0.08,0.25,-0.04,93.28
2221,65495009,1,-0.15,0.17,356.83,-0.1896621,-0.002693539,-0.4674324,-0.400839,-0.31446,0.7647759,-0.6177256,-0.08,0.25,-0.04,93.28
2270,65505404,1,-0.15,0.16,356.83,-0.1892025,-0.0027938,-0.4679005,-0.382611,-0.3163647,0.7647507,-0.6224277,-0.08,0.25,-0.04,93.28
2314,65515949,1,-0.15,0.16,356.83,-0.1858233,-0.001152639,-0.4666745,-0.3626214,-0.3139874,0.7645575999999999,-0.6238047,-0.08,0.25,-0.04,93.28
2359,65526454,1,-0.15,0.16,356.83,-0.1833453,-0.001326427,-0.4659706,-0.3383495,-0.3119623,0.7643843,-0.6257702000000001,-0.08,0.25,-0.04,93.28
2403,65536454,1,-0.15,0.15,356.83,-0.1793978,-0.0009829032000000001,-0.4639793,-0.3159103,-0.3098982,0.7642249,-0.6274549,-0.08,0.25,-0.04,93.28
2448,65546758,1,-0.15,0.15,356.83,-0.1756622,-0.001477533,-0.4615147,-0.2987284,-0.3079706,0.7640676,-0.6292843,-0.08,0.25,-0.04,93.28
2495,65557398,1,-0.15,0.15,356.82,-0.1762948,-0.001988052,-0.4599686,-0.2788408,-0.3098984,0.7640498,-0.6343243,-0.08,0.25,-0.04,93.28
2541,65567374,1,-0.15,0.15,356.82,-0.1735827,-0.002048363,-0.4588032,-0.2654042,-0.3080793,0.7638966,-0.6362423,-0.08,0.25,-0.04,93.28
2587,65578022,1,-0.15,0.15,356.82,-0.1718893,-0.001336294,-0.4569547,-0.252765,-0.3065737,0.7637505999999999,-0.6387056,-0.08,0.25,-0.04,93.28
2631,65588368,1,-0.15,0.15,356.82,-0.1694958,-0.001421012,-0.4547354,-0.2404585,-0.3050535,0.7636158,-0.6408247,-0.08,0.25,-0.04,93.28
2676,65598383,1,-0.15,0.15,356.82,-0.1675594,-0.001332288,-0.4550846,-0.2332955,-0.3036504,0.7634884,-0.6430013999999999,-0.08,0.25,-0.04,93.28
2724,65608378,1,-0.15,0.15,356.81,-0.1650892,-0.001596805,-0.4538632,-0.2281007,-0.3023963,0.7633685,-0.645339,-0.08,0.25,-0.04,93.28
2769,65619011,1,-0.16,0.15,356.81,-0.163306,-0.001724252,-0.4524591,-0.2225884,-0.3012541,0.7632495,-0.6477094,-0.08,0.25,-0.04,93.28
2815,65629540,1,-0.16,0.15,356.81,-0.1641413,-0.002363964,-0.4502602,-0.215835,-0.3030536,0.763226,-0.6526732,-0.08,0.25,-0.04,93.28
2859,65639933,1,-0.16,0.15,356.81,-0.1628655,-0.001672268,-0.4500095,-0.2175703,-0.3020102,0.7631093,-0.6551188999999999,-0.08,0.25,-0.04,93.28
2905,65650440,1,-0.15,0.15,356.81,-0.1609868,-0.001542156,-0.4496695,-0.2193244,-0.3012463,0.7630006,-0.6580747,-0.08,0.25,-0.04,93.28
2951,65664417,1,-0.15,0.14,356.8,-0.160004,-0.00209821,-0.4489743,-0.2219839,-0.3010779,0.7628987,-0.6624579,-0.08,0.26,-0.04,93.28
2996,65677918,1,-0.15,0.14,356.8,-0.1557445,-0.002484522,-0.4494296,-0.2284386,-0.2989811,0.762574,-0.6629786,-0.08,0.25,-0.04,93.28
3044,65687569,1,-0.14,0.14,356.8,-0.1564699,-0.001894202,-0.4502058,-0.2239928,-0.3005375,0.7625515,-0.6674606,-0.08,0.25,-0.04,93.28
3088,65697888,1,-0.15,0.14,356.79,-0.1532218,-0.002611357,-0.4474681,-0.2120213,-0.2980572,0.7622447,-0.6668109,-0.08,0.25,-0.04,93.28
3140,65710808,1,-0.15,0.14,356.79,-0.1502113,-0.002169615,-0.446895,-0.1936821,-0.2961776,0.7619402,-0.6677071,-0.08,0.25,-0.04,93.28
3184,65720928,1,-0.15,0.14,356.79,-0.1479807,-0.001766304,-0.4475661,-0.1793152,-0.2939929,0.7616638,-0.6674728,-0.08,0.25,-0.04,93.28
3230,65731661,1,-0.15,0.14,356.79,-0.1443684,-0.003000269,-0.4481961,-0.1570561,-0.2921325,0.7613912,-0.6679817,-0.08,0.26,-0.04,93.28
3275,65741783,1,-0.15,0.14,356.79,-0.1407087,-0.003595131,-0.4481693,-0.1411433,-0.2902265,0.7611197,-0.6681926,-0.08,0.26,-0.04,93.28
3319,65751534,1,-0.16,0.14,356.78,-0.1390641,-0.004055315,-0.4478267,-0.1270787,-0.288458,0.7608514,-0.6686114,-0.08,0.26,-0.04,93.28
3365,65762253,1,-0.16,0.15,356.78,-0.1390096,-0.004098759,-0.4487365,-0.1108378,-0.2899897,0.7608095,-0.6735423,-0.08,0.26,-0.04,93.28
3410,65772467,1,-0.16,0.15,356.78,-0.1356622,-0.004325196,-0.4477377,-0.1011756,-0.2883089,0.7605479000000001,-0.6741276,-0.08,0.26,-0.04,93.28
3455,65782774,1,-0.16,0.15,356.78,-0.1330663,-0.003163446,-0.4461968,-0.0904737,-0.2867306,0.7602943,-0.6748619,-0.08,0.26,-0.04,93.28
3500,65792497,1,-0.16,0.15,356.77,-0.1301052,-0.003292575,-0.442943,-0.08608411000000001,-0.2852613,0.7600538999999999,-0.6757581,-0.08,0.26,-0.04,93.28
3545,65802515,1,-0.16,0.15,356.77,-0.127874,-0.002853908,-0.4402289,-0.08100784,-0.283892,0.7598265,-0.6767446,-0.08,0.26,-0.04,93.28
3594,65812471,1,-0.16,0.15,356.78,-0.1281838,-0.002877729,-0.4396122,-0.07960354,-0.2851788,0.7598039,-0.681162,-0.08,0.26,-0.04,93.28
3638,65822514,1,-0.16,0.15,356.78,-0.1272258,-0.003696592,-0.4400211,-0.08365158,-0.2838979,0.7595825,-0.6822914,-0.08,0.26,-0.04,93.28
3683,65833020,1,-0.16,0.16,356.78,-0.1254928,-0.00512318,-0.4386675,-0.08519797,-0.2828799,0.7593531,-0.6840411,-0.08,0.26,-0.04,93.28
3729,65843846,1,-0.16,0.16,356.78,-0.1224907,-0.004373052,-0.4379264,-0.08802417999999999,-0.2818231,0.7591329,-0.685418,-0.08,0.26,-0.04,93.28
3774,65853846,1,-0.16,0.16,356.78,-0.1220659,-0.005328498,-0.4400325,-0.09602465,-0.2808949,0.7589198,-0.686991,-0.08,0.26,-0.04,93.28
3820,65863768,1,-0.16,0.16,356.77,-0.1195639,-0.006445528,-0.4395658,-0.1046125,-0.2800406,0.7587017,-0.6886349,-0.08,0.26,-0.04,93.28
3861,65876887,1,-0.16,0.16,356.77,-0.115748,-0.005935762,-0.4385224,-0.1132649,-0.2780278,0.7585164,-0.6889753,-0.08,0.26,-0.04,93.28
3905,65887009,1,-0.16,0.16,356.77,-0.112676,-0.005832301,-0.4372242,-0.1136322,-0.275559,0.7583737,-0.6873953,-0.08,0.26,-0.04,93.28
3950,65897597,1,-0.16,0.15,356.77,-0.1135042,-0.005276111,-0.4380608,-0.1020468,-0.2767977,0.7583101,-0.692197,-0.08,0.26,-0.04,93.28
3996,65907636,1,-0.16,0.16,356.77,-0.1116086,-0.004950578,-0.4366552,-0.09213615999999999,-0.2745461,0.758178,-0.6912513,-0.08,0.26,-0.04,93.28
4047,65918017,1,-0.16,0.16,356.76,-0.107889,-0.00420944,-0.4345808,-0.08061525999999999,-0.2725303,0.7580534,-0.6909597,-0.08,0.26,-0.04,93.28
4091,65928845,1,-0.17,0.16,356.76,-0.104413,-0.003982509,-0.4350882,-0.06815162,-0.2705327,0.757943,-0.690486,-0.08,0.26,-0.04,93.28
4136,65939476,1,-0.17,0.16,356.75,-0.1006855,-0.003449401,-0.4330475,-0.05165075,-0.2687485,0.7578402,-0.6906415,-0.08,0.26,-0.04,93.28
4180,65949260,1,-0.18,0.16,356.75,-0.097886,-0.003434706,-0.4306624,-0.03976278,-0.2669716,0.757744,-0.6906307,-0.08,0.26,-0.04,93.28
4225,65959174,1,-0.18,0.16,356.75,-0.09459471999999999,-0.003506045,-0.4281113,-0.02791303,-0.2653027,0.7576557,-0.6907905,-0.08,0.26,-0.04,93.28
4272,65969204,1,-0.18,0.16,356.75,-0.09112012,-0.002387924,-0.426563,-0.02363051,-0.2637187,0.7575778,-0.6911168,-0.08,0.26,-0.04,93.28
4317,65979218,1,-0.18,0.16,356.75,-0.0900402,-0.002231627,-0.4274693,-0.02015807,-0.2646188,0.7575499999999999,-0.6953597,-0.08,0.26,-0.04,93.28
4362,65989582,1,-0.18,0.16,356.75,-0.08667409,-0.002782534,-0.4251473,-0.01981458,-0.2630883,0.7574801,-0.6958529,-0.08,0.26,-0.04,93.28
4406,65999981,1,-0.18,0.16,356.75,-0.08390263000000001,-0.001840417,-0.4236852,-0.02272614,-0.2616365,0.7574196,-0.6964648,-0.08,0.26,-0.04,93.28
4451,66009574,1,-0.18,0.15,356.75,-0.0827726,-0.0007143439,-0.4218041,-0.02915052,-0.2602936,0.7573692,-0.6973026,-0.08,0.26,-0.04,93.28
4499,66019567,1,-0.18,0.16,356.76,-0.08072789,-0.0002884147,-0.4217227,-0.03901691,-0.2590147,0.7573372,-0.6981219,-0.08,0.26,-0.04,93.28
4544,66030376,1,-0.18,0.16,356.76,-0.08100794,-0.0006884759,-0.4222238,-0.04782635,-0.2599057,0.7573324,-0.7027733,-0.08,0.26,-0.04,93.28
4588,66040891,1,-0.17,0.16,356.76,-0.07880073999999999,-0.001037963,-0.4223369,-0.05995744,-0.2586992,0.7572964,-0.7038071,-0.08,0.26,-0.04,93.28
4633,66051342,1,-0.17,0.16,356.76,-0.07637705,-0.000471223,-0.419687,-0.07203494000000001,-0.2576508,0.7572659,-0.7054256,-0.08,0.26,-0.04,93.28
4677,66061465,1,-0.17,0.17,356.75,-0.07398043999999999,0.0003194473,-0.4202181,-0.08590946000000001,-0.2565951,0.7572432,-0.7065675,-0.08,0.26,-0.04,93.28
4723,66074244,1,-0.17,0.17,356.75,-0.07103232,0.0008854352999999999,-0.4156868,-0.09509363,-0.2547104,0.7571507,-0.7061518,-0.08,0.26,-0.04,93.28
4766,66085173,1,-0.17,0.17,356.74,-0.07118884,0.001843133,-0.4141017,-0.09706204,-0.2554921,0.7571686,-0.7107244,-0.08,0.26,-0.04,93.28
4810,66095017,1,-0.17,0.17,356.74,-0.06805794,0.002685365,-0.4123578,-0.1050374,-0.2534146,0.757092,-0.7091503,-0.08,0.26,-0.04,93.28
4856,66105000,1,-0.17,0.17,356.74,-0.0651066,0.002197872,-0.4114159,-0.1082952,-0.2514415,0.7570302,-0.7077906,-0.08,0.26,-0.04,93.28
4901,66115861,1,-0.17,0.17,356.74,-0.06362816,0.002703511,-0.4079923,-0.09793296,-0.2495967,0.7569722,-0.7067071,-0.08,0.26,-0.04,93.28
4949,66126022,1,-0.17,0.17,356.74,-0.06303325999999999,0.002445674,-0.4084474,-0.08265045,-0.2502876,0.7570027,-0.7111574000000001,-0.08,0.26,-0.04,93.28
4994,66136925,1,-0.18,0.17,356.73,-0.05994919,0.002249116,-0.4080484,-0.07254960000000001,-0.2485057,0.7569501,-0.7102728,-0.08,0.26,-0.04,93.28
5038,66146858,1,-0.18,0.17,356.73,-0.05910343,0.003101713,-0.4062228,-0.06130884,-0.2468241,0.7569056,-0.7095826,-0.08,0.26,-0.04,93.28
5082,66156910,1,-0.18,0.17,356.73,-0.05676365,0.003669639,-0.4034888,-0.05288662,-0.2452372,0.7568748,-0.7090527,-0.08,0.26,-0.04,93.28
5126,66166830,1,-0.18,0.17,356.73,-0.05686677,0.00318206,-0.4026304,-0.04599611,-0.2458076,0.7569069,-0.7130762,-0.08,0.26,-0.04,93.28
5171,66177921,1,-0.18,0.18,356.73,-0.05616808,0.004051375,-0.4014494,-0.04418939,-0.2443391,0.7568873,-0.7130873,-0.08,0.26,-0.04,93.28
5217,66187957,1,-0.17,0.18,356.73,-0.05513927,0.003698586,-0.3990951,-0.04262664,-0.2429738,0.7568735,-0.7132822,-0.08,0.26,-0.04,93.28
5261,66198444,1,-0.17,0.18,356.73,-0.05325626,0.004273518,-0.3972978,-0.04411935,-0.2416366,0.7568635,-0.7132219,-0.08,0.26,-0.04,93.28
5306,66208414,1,-0.17,0.18,356.73,-0.05184096,0.004241927,-0.3960509,-0.04288634,-0.2403995,0.7568581,-0.7133535,-0.08,0.26,-0.04,93.28
5350,66218437,1,-0.17,0.18,356.73,-0.05210309,0.004351843,-0.3972549,-0.04481493,-0.240917,0.7569003,-0.7173237,-0.08,0.26,-0.04,93.28
5399,66228422,1,-0.17,0.19,356.73,-0.05026246,0.003534534,-0.3949547,-0.04700623,-0.2397323,0.756892,-0.7175875,-0.08,0.26,-0.04,93.28
5444,66238433,1,-0.17,0.18,356.73,-0.05064705,0.003175671,-0.3935951,-0.05126821,-0.2386445,0.7568828,-0.7180056,-0.08,0.26,-0.04,93.28
5489,66248831,1,-0.17,0.18,356.73,-0.04881405,0.002727543,-0.391973,-0.05314622,-0.2377009,0.756881,-0.7189319,-0.08,0.26,-0.04,93.28
5533,66263443,1,-0.17,0.18,356.72,-0.04614826,0.001796405,-0.3877662,-0.05010102,-0.2360569,0.7565585,-0.7187605,-0.08,0.26,-0.04,93.28
5577,66273491,1,-0.17,0.18,356.72,-0.04348386,0.00147748,-0.3868879,-0.04450403,-0.2343107,0.7562286,-0.7171893,-0.08,0.26,-0.04,93.28
5622,66284033,1,-0.17,0.18,356.72,-0.04223846,0.001267634,-0.3834021,-0.03647032,-0.2326663,0.7559133,-0.7158724,-0.08,0.26,-0.04,93.28
5668,66294458,1,-0.17,0.19,356.71,-0.04100898,0.001745747,-0.3799576,-0.0228067,-0.2311683,0.7556094,-0.7151438,-0.08,0.27,-0.04,93.28
5712,66304553,1,-0.17,0.19,356.71,-0.03943509,0.002077343,-0.3783479,-0.01441775,-0.2297177,0.7553249,-0.7142013,-0.08,0.27,-0.04,93.28
5758,66315097,1,-0.17,0.19,356.71,-0.04105897,0.002065326,-0.3797126,-0.00454855,-0.2301245,0.7553456,-0.717998,-0.08,0.27,-0.04,93.28
5806,66324961,1,-0.18,0.19,356.71,-0.03918482,0.001738676,-0.3778452,0.002699573,-0.2287619,0.7550657,-0.7172617999999999,-0.08,0.27,-0.04,93.28
5853,66334981,1,-0.18,0.19,356.71,-0.03747799,0.0002169352,-0.3762965,0.007417001,-0.2274848,0.7547902,-0.7167163,-0.08,0.27,-0.04,93.28
5897,66345378,1,-0.18,0.2,356.71,-0.03505765,0.0002710895,-0.377202,0.009946747000000001,-0.2263258,0.7545179,-0.716747,-0.08,0.27,-0.04,93.28
5942,66355404,1,-0.19,0.2,356.71,-0.03360849,0.000246336,-0.3745357,0.006777322,-0.2251883,0.7542529,-0.7165473,-0.08,0.27,-0.04,93.28
5990,66368799,1,-0.19,0.2,356.71,-0.03081295,-0.0003364581,-0.3737617,0.006416209,-0.2242264,0.7540006,-0.7175655,-0.08,0.27,-0.04,93.28
6034,66378939,1,-0.19,0.2,356.7,-0.03041521,0.0003917377,-0.3721649,0.002483352,-0.2245364,0.7540008,-0.7213308,-0.08,0.27,-0.04,93.28
6079,66388563,1,-0.19,0.21,356.7,-0.02952201,-4.183126e-05,-0.3703411,-0.004267692,-0.2235046,0.7537524,-0.7213131,-0.08,0.27,-0.04,93.28
6123,66399030,1,-0.19,0.21,356.71,-0.02853419,0.0007024462,-0.3692483,-0.01413978,-0.2225752,0.7535188,-0.7218409,-0.08,0.27,-0.04,93.28
6169,66409355,1,-0.19,0.21,356.71,-0.02956527,0.000436624,-0.3706807,-0.02948287,-0.2228692,0.7535212,-0.7255276000000001,-0.08,0.27,-0.04,93.28
6214,66419358,1,-0.19,0.22,356.7,-0.02852336,0.001213348,-0.3686089,-0.04465816,-0.2219488,0.7532956,-0.7258032,-0.08,0.26,-0.04,93.28
6262,66429741,1,-0.19,0.22,356.7,-0.02669499,0.0002954241,-0.3670654,-0.05785,-0.2210948,0.7530732,-0.7262586,-0.08,0.26,-0.04,93.28
6308,66439374,1,-0.19,0.22,356.7,-0.02659804,0.001780526,-0.3670334,-0.07221585,-0.220304,0.7528626,-0.7267557,-0.08,0.26,-0.04,93.28
6352,66450014,1,-0.19,0.23,356.7,-0.02588348,0.001183294,-0.3667401,-0.08087229999999999,-0.2205653,0.7528771,-0.7304094,-0.08,0.26,-0.04,93.28
6399,66460379,1,-0.19,0.23,356.71,-0.02545122,-0.0001276703,-0.3656755,-0.09257863,-0.2198543,0.7526702,-0.7314805,-0.08,0.26,-0.04,93.28
6438,66472110,1,-0.19,0.23,356.71,-0.02316415,0.0003939273,-0.3633527,-0.0968078,-0.2180466,0.7525472,-0.7302827,-0.08,0.26,-0.04,93.28
6482,66481960,1,-0.19,0.23,356.71,-0.02167301,0.0004759397,-0.3619875,-0.09026339999999999,-0.2162931,0.7524304000000001,-0.7285762,-0.08,0.26,-0.04,93.28
6527,66492210,1,-0.19,0.23,356.7,-0.02115111,0.001146832,-0.358976,-0.07832304,-0.2146434,0.7523228,-0.727128,-0.08,0.26,-0.04,93.28
6572,66502010,1,-0.19,0.23,356.71,-0.01848075,0.002265933,-0.3583013,-0.06985416,-0.2130811,0.7522339,-0.7258566,-0.08,0.26,-0.04,93.28
6618,66512984,1,-0.19,0.23,356.71,-0.01845645,0.003578454,-0.3571091,-0.05397047,-0.2132624,0.7522603,-0.7294052,-0.08,0.26,-0.04,93.28
6663,66523038,1,-0.19,0.23,356.71,-0.01770496,0.004878072,-0.3555512,-0.04192042,-0.2117692,0.7522033,-0.7283298,-0.08,0.26,-0.04,93.28
6711,66533374,1,-0.19,0.23,356.71,-0.0162885,0.00695611,-0.3526759,-0.02665904,-0.2103848,0.7521745,-0.7277922999999999,-0.08,0.26,-0.04,93.28
6756,66543376,1,-0.19,0.23,356.71,-0.01431363,0.008637763999999999,-0.3495726,-0.01480762,-0.2090551,0.7521669,-0.7270731,-0.08,0.26,-0.04,93.28
6801,66553357,1,-0.19,0.23,356.71,-0.01391028,0.007720905,-0.3474853,-0.006817731,-0.2078045,0.752171,-0.7265135,-0.08,0.27,-0.04,93.28
6845,66563363,1,-0.19,0.23,356.71,-0.01310129,0.008766927000000001,-0.3463272,-0.004362867,-0.206629,0.7521819,-0.7260122,-0.08,0.27,-0.04,93.28
6890,66573992,1,-0.19,0.23,356.71,-0.01325087,0.007766345,-0.3465574,-0.0002535182,-0.2067737,0.7522739000000001,-0.7298335,-0.08,0.27,-0.04,93.28
6934,66584972,1,-0.19,0.24,356.71,-0.01229752,0.008592430999999999,-0.3456133,-0.000969481,-0.2056639,0.7522981,-0.7297908,-0.08,0.26,-0.04,93.28
6980,66595762,1,-0.19,0.24,356.7,-0.0102655,0.008333447000000001,-0.3440551,-0.0005646613,-0.2046126,0.7523203000000001,-0.7296093,-0.08,0.27,-0.04,93.28
7025,66605772,1,-0.19,0.24,356.71,-0.009800652,0.007564452,-0.3432253,-0.002782146,-0.2036245,0.7523391,-0.7295613,-0.08,0.27,-0.04,93.28
7071,66615537,1,-0.19,0.24,356.71,-0.009234030000000001,0.007366903,-0.3410603,-0.01019226,-0.202694,0.7523588,-0.7296872,-0.08,0.27,-0.04,93.28
7116,66626218,1,-0.19,0.24,356.71,-0.009741012,0.007742817,-0.340383,-0.01624556,-0.2027939,0.7524393,-0.7334138,-0.08,0.27,-0.04,93.28
7164,66635997,1,-0.19,0.24,356.71,-0.00936741,0.007319435,-0.3392329,-0.02352268,-0.2019211,0.7524629,-0.7336803,-0.08,0.27,-0.04,93.28
7209,66646172,1,-0.19,0.24,356.71,-0.00900347,0.007550518,-0.3387276,-0.03289715,-0.2011099,0.7524899,-0.7340008,-0.08,0.27,-0.04,93.28
7254,66656982,1,-0.2,0.24,356.71,-0.009249459999999999,0.007583922,-0.3396069,-0.04721742,-0.2012034,0.7525667,-0.73743,-0.08,0.27,-0.04,93.28
7301,66667356,1,-0.2,0.24,356.71,-0.008295515999999999,0.008991624,-0.3365144,-0.06492156,-0.2004085,0.7526128,-0.7381456,-0.08,0.26,-0.04,93.28
7339,66679063,1,-0.2,0.24,356.71,-0.0068195,0.008884733000000001,-0.3345345,-0.07766801,-0.1989508,0.7522238999999999,-0.7368059,-0.08,0.26,-0.04,93.28
7383,66689023,1,-0.2,0.25,356.7,-0.006089354,0.006932616,-0.3320518,-0.08037756,-0.1975646,0.7518276,-0.7350407,-0.08,0.26,-0.04,93.28
7430,66699969,1,-0.2,0.25,356.7,-0.006208612,0.005942693,-0.3315586,-0.07190536,-0.1976295,0.7519017,-0.7386782,-0.08,0.26,-0.04,93.28
7476,66709979,1,-0.2,0.26,356.7,-0.005676164,0.004485069,-0.3307276,-0.06839544,-0.1963027,0.7514895,-0.7371271,-0.08,0.26,-0.04,93.28
7521,66719971,1,-0.2,0.26,356.7,-0.005332492,0.005049395,-0.3291251,-0.06071456,-0.1950639,0.7510871,-0.7357208,-0.08,0.26,-0.04,93.28
7566,66730977,1,-0.2,0.26,356.69,-0.006866632,0.004568878,-0.328503,-0.05314864,-0.1951316,0.7511393,-0.7393546,-0.08,0.26,-0.04,93.28
7615,66741969,1,-0.2,0.26,356.69,-0.005377352,0.004470904,-0.3267552,-0.04712439,-0.1939534,0.7507458,-0.7381389,-0.08,0.26,-0.04,93.28
7659,66751886,1,-0.2,0.27,356.69,-0.004450706,0.002389691,-0.3255447,-0.05021997,-0.1928324,0.7503521,-0.7371115,-0.08,0.26,-0.03,93.28
7704,66762400,1,-0.2,0.27,356.69,-0.004092601,0.001056415,-0.3251153,-0.0455498,-0.1928769,0.7503716,-0.7406430000000001,-0.08,0.26,-0.03,93.28
7750,66772349,1,-0.19,0.27,356.68,-0.004576913,0.0006112875,-0.325332,-0.04393313,-0.1918167,0.7499763,-0.7397777,-0.08,0.26,-0.03,93.28
7795,66783161,1,-0.19,0.27,356.69,-0.005154176,-0.001301494,-0.3257057,-0.03852393,-0.1908537,0.7495927,-0.7390825,-0.08,0.26,-0.04,93.28
7839,66793042,1,-0.19,0.27,356.69,-0.00568538,-0.002330943,-0.324636,-0.04009177,-0.1908953,0.7495955,-0.7423353,-0.08,0.26,-0.04,93.28
7884,66803491,1,-0.2,0.27,356.69,-0.006033455,-0.002343575,-0.3221323,-0.04185823,-0.1899807,0.7491955,-0.7419049,-0.08,0.26,-0.03,93.28
7929,66813443,1,-0.2,0.28,356.69,-0.00563598,-0.002092947,-0.3221672,-0.04336773,-0.1891464,0.7488151,-0.741317,-0.08,0.26,-0.03,93.28
7973,66823444,1,-0.21,0.29,356.69,-0.006363999,-0.003635977,-0.3202456,-0.04363368,-0.1883905,0.7484305,-0.7409205,-0.08,0.26,-0.03,93.28
8021,66833445,1,-0.21,0.28,356.69,-0.005451105,-0.003558553,-0.319015,-0.04417777,-0.1876979,0.748053,-0.7406756,-0.08,0.26,-0.03,93.28
8069,66844038,1,-0.2,0.28,356.68,-0.006477169,-0.002955198,-0.319251,-0.04206705,-0.187744,0.7480274,-0.743889,-0.08,0.26,-0.03,93.28
8117,66854532,1,-0.2,0.28,356.68,-0.005951592,-0.002000348,-0.3177738,-0.04278408,-0.1871129,0.7476752,-0.744086,-0.08,0.26,-0.03,93.28
8156,66865915,1,-0.2,0.29,356.68,-0.004416299,-0.003314621,-0.3151971,-0.03885376,-0.1855516,0.7470012,-0.7418742,-0.08,0.26,-0.03,93.28
8200,66875900,1,-0.21,0.3,356.67,-0.003086555,-0.002817453,-0.3143459,-0.03298901,-0.1840732,0.7463453,-0.7395981,-0.08,0.26,-0.03,93.28
8245,66885932,1,-0.22,0.31,356.66,-0.003264485,-0.001608048,-0.3144454,-0.02221353,-0.1841023,0.7463156,-0.7427399,-0.08,0.26,-0.03,93.28
8290,66895865,1,-0.21,0.31,356.66,-0.001523742,-0.004325042,-0.3126296,-0.0104865,-0.1826939,0.7456754,-0.7406490999999999,-0.08,0.26,-0.03,93.28
8336,66905964,1,-0.2,0.3,356.65,-0.0006332067,-0.005253353,-0.3100727,0.007935408,-0.1813857,0.7450503000000001,-0.7386485,-0.08,0.26,-0.03,93.28
8381,66916457,1,-0.2,0.31,356.65,-0.0004004514,-0.006328224,-0.309088,0.0274082,-0.18017,0.7444363000000001,-0.7371855,-0.08,0.26,-0.03,93.28
8425,66926439,1,-0.21,0.31,356.65,-5.360186e-05,-0.006084538,-0.3067751,0.04391745,-0.1790448,0.7438348,-0.7356637,-0.08,0.26,-0.03,93.28
8470,66936415,1,-0.22,0.32,356.66,-0.0003618628,-0.004954899,-0.3058435,0.0534906,-0.1779983,0.7432519,-0.7343153,-0.08,0.26,-0.03,93.28
8520,66946830,1,-0.22,0.31,356.66,0.0004357925,-0.005748173,-0.3027769,0.06256713999999999,-0.1770225,0.7426884,-0.7331698,-0.08,0.26,-0.03,93.28
8566,66957346,1,-0.2,0.32,356.66,-0.0009246938,-0.006756653,-0.3029497,0.07083877,-0.1770315,0.7426212,-0.7365049,-0.08,0.26,-0.03,93.28
8611,66968118,1,-0.2,0.32,356.66,0.0004046909,-0.00711441,-0.3038241,0.07089031,-0.176116,0.7420773000000001,-0.7355441,-0.08,0.26,-0.03,93.28
8656,66978286,1,-0.21,0.32,356.66,0.003257516,-0.005877848,-0.301669,0.07049863000000001,-0.1752485,0.7415445000000001,-0.7350478,-0.08,0.26,-0.03,93.28
8700,66989202,1,-0.2,0.33,356.65,0.003721306,-0.005392829,-0.3004233,0.06649119000000001,-0.1744274,0.7410302,-0.7345812,-0.08,0.26,-0.03,93.28
8745,66999140,1,-0.21,0.33,356.64,0.003652873,-0.007869144,-0.297163,0.06685528,-0.1736872,0.7405242,-0.7339821,-0.08,0.26,-0.03,93.28
8789,67009178,1,-0.21,0.33,356.65,0.00509378,-0.008480544,-0.2964608,0.06078311,-0.1729984,0.7400208,-0.7335321,-0.08,0.26,-0.03,93.28
8834,67019562,1,-0.21,0.33,356.64,0.005508446,-0.006455157,-0.2937937,0.05957636,-0.1729531,0.7399397,-0.7364837,-0.08,0.26,-0.03,93.28
8879,67029556,1,-0.2,0.34,356.62,0.004981959,-0.008965280000000001,-0.290337,0.0483629,-0.1722859,0.7394628,-0.7361025,-0.08,0.26,-0.03,93.28
8925,67039958,1,-0.19,0.33,356.61,0.006197925,-0.01323312,-0.2910557,0.03666948,-0.1716747,0.7389675,-0.7361949,-0.08,0.26,-0.03,93.28
8974,67050908,1,-0.2,0.34,356.6,0.005794631,-0.01348609,-0.2900449,0.02635702,-0.1716196,0.7388394,-0.7390897,-0.08,0.26,-0.03,93.28
9020,67061293,1,-0.21,0.33,356.6,0.003770328,-0.009450204,-0.2901839,0.01209584,-0.1710526,0.7383384,-0.7393028,-0.08,0.26,-0.03,93.28
9065,67078163,1,-0.18,0.34,356.6,0.006944764,-0.01068896,-0.2876638,-0.01466906,-0.1698847,0.7378443,-0.7386293,-0.08,0.26,-0.03,93.28
9109,67088154,1,-0.18,0.33,356.6,0.009165088,-0.01263273,-0.2852223,-0.0211708,-0.1688025,0.7374081,-0.7362143,-0.08,0.26,-0.03,93.28
9154,67098562,1,-0.19,0.35,356.61,0.005579582,-0.01225509,-0.283866,-0.01410931,-0.1687278,0.73728,-0.7390454,-0.08,0.26,-0.03,93.28
9199,67108909,1,-0.18,0.33,356.61,0.004373038,-0.008181034,-0.284909,-0.008473922,-0.1677637,0.736872,-0.7367855,-0.08,0.26,-0.03,93.28
9244,67119291,1,-0.17,0.36,356.62,0.007243475,-0.007929141000000001,-0.2760397,0.01477546,-0.1668713,0.7365169,-0.7350175,-0.08,0.26,-0.03,93.28
9289,67129883,1,-0.16,0.35,356.6,0.01143069,-0.01132332,-0.2777545,0.02398126,-0.1660082,0.7361456,-0.7331925,-0.08,0.26,-0.03,93.28
9335,67140399,1,-0.17,0.36,356.62,0.008399228999999999,-0.01154762,-0.272036,0.04316661,-0.1652199,0.735764,-0.7318473,-0.08,0.26,-0.03,93.28
9379,67150362,1,-0.18,0.35,356.61,0.005799255,-0.01040485,-0.2726191,0.05186799,-0.1645399,0.7354117,-0.7303875,-0.08,0.26,-0.03,93.28
9428,67160368,1,-0.18,0.38,356.62,0.01062877,-0.007212648,-0.2667789,0.06252325,-0.1639198,0.7351102,-0.7291586,-0.08,0.26,-0.03,93.28
9472,67171028,1,-0.17,0.35,356.6,0.01414654,-0.01261981,-0.2703103,0.06640259,-0.1638068,0.7350171,-0.7318392,-0.08,0.26,-0.03,93.28
9518,67180921,1,-0.19,0.37,356.6,0.007041344,-0.01380617,-0.2725486,0.06630989,-0.1632124,0.7346635,-0.7307853,-0.08,0.26,-0.03,93.28
9565,67193878,1,-0.2,0.35,356.6,0.004166613,-0.01039414,-0.2696593,0.07017139999999999,-0.1627215,0.7342827,-0.7303523,-0.08,0.26,-0.03,93.28
9610,67204021,1,-0.21,0.38,356.6,0.01219097,-0.01109467,-0.2666708,0.06664328,-0.1622687,0.7339761,-0.7292795,-0.08,0.26,-0.03,93.28
9655,67214471,1,-0.19,0.36,356.59,0.01111539,-0.01723619,-0.270025,0.0596472,-0.1617846,0.7336212,-0.7287114,-0.08,0.26,-0.03,93.28
9699,67224504,1,-0.22,0.37,356.57,0.004206005,-0.01795491,-0.2661797,0.05839715,-0.1614074,0.7332630999999999,-0.7279667,-0.08,0.26,-0.03,93.28
9744,67235012,1,-0.22,0.37,356.59,-0.001782164,-0.01114044,-0.2641753,0.05838622,-0.1613975,0.7331126,-0.7306411,-0.08,0.26,-0.03,93.28
9790,67244978,1,-0.23,0.38,356.59,0.005161704,-0.01350356,-0.2620858,0.05485282,-0.1611103,0.7328183,-0.7300537,-0.08,0.26,-0.03,93.28
9839,67255101,1,-0.2,0.38,356.58,0.003456355,-0.01628849,-0.2664083,0.03769215,-0.1610312,0.7326732,-0.7326996,-0.08,0.26,-0.03,93.28
9884,67265335,1,-0.22,0.38,356.57,-0.005851774,-0.0166743,-0.2589619,0.02758956,-0.1607506,0.7323163,-0.7324159,-0.08,0.26,-0.03,93.28
9924,67276859,1,-0.21,0.42,356.6,-0.005651524,-0.01125766,-0.2586201,0.01482483,-0.1598732,0.7318651,-0.730261,-0.08,0.26,-0.03,93.28
9968,67287272,1,-0.2,0.4,356.58,0.009805497999999999,-0.01319786,-0.25603,0.0168114,-0.1589939,0.7314455,-0.7283212999999999,-0.08,0.26,-0.03,93.28
10013,67297342,1,-0.18,0.43,356.58,0.005671918,-0.01520099,-0.2593027,0.01541384,-0.158925,0.7313033,-0.7308915,-0.08,0.26,-0.03,93.28
10059,67307375,1,-0.19,0.39,356.57,-0.002710839,-0.01433711,-0.2522796,0.02106232,-0.1581216,0.7308828000000001,-0.728838,-0.08,0.25,-0.03,93.28
10104,67317862,1,-0.19,0.44,356.59,0.0006462038,-0.01147162,-0.2535529,0.02018609,-0.1574382,0.7305127,-0.7267745,-0.08,0.25,-0.03,93.28
10150,67327646,1,-0.18,0.4,356.58,0.008921159,-0.01367405,-0.2528541,0.02541134,-0.1574011,0.730396,-0.7292717,-0.08,0.25,-0.03,93.28
10195,67337899,1,-0.19,0.43,356.58,0.00541348,-0.01699901,-0.2533928,0.02872374,-0.1566697,0.7299987999999999,-0.7274016,-0.08,0.25,-0.03,93.28
10240,67347994,1,-0.2,0.39,356.58,-0.005974051,-0.01323948,-0.2504637,0.04063199,-0.1560816,0.7295918,-0.725965,-0.08,0.26,-0.03,93.28
10289,67358905,1,-0.21,0.43,356.59,0.0004389812,-0.01444328,-0.2453544,0.05458076,-0.1555979,0.7292328,-0.7244896,-0.08,0.26,-0.03,93.28
10334,67368949,1,-0.19,0.42,356.57,0.004691856,-0.01748409,-0.2513881,0.05435629,-0.1550941,0.7288377,-0.7234302,-0.08,0.26,-0.03,93.28
10379,67378992,1,-0.22,0.4,356.57,-0.001006952,-0.01958975,-0.2421158,0.06690015000000001,-0.1546509,0.728453,-0.7223236,-0.08,0.26,-0.03,93.28
10423,67388975,1,-0.2,0.42,356.58,-0.01006228,-0.01615313,-0.2478519,0.06027504,-0.1543452,0.7280836000000001,-0.7213969,-0.08,0.26,-0.03,93.28
10468,67399776,1,-0.22,0.41,356.58,0.0003155654,-0.01845147,-0.2415604,0.06827569999999999,-0.1543925,0.7279156,-0.7238329999999999,-0.08,0.26,-0.03,93.28
10513,67409873,1,-0.2,0.44,356.58,0.002382997,-0.02090172,-0.2486196,0.05186332,-0.154031,0.7275463,-0.7230383,-0.08,0.26,-0.03,93.28
10557,67420441,1,-0.22,0.38,356.57,-0.008236622000000001,-0.01974256,-0.2405744,0.05312478,-0.1537453,0.7271647,-0.7226305,-0.08,0.26,-0.03,93.28
10602,67430423,1,-0.21,0.45,356.59,-0.01010969,-0.01360859,-0.2429426,0.04348142,-0.1536136,0.72686,-0.722182,-0.08,0.26,-0.03,93.28
10646,67441020,1,-0.21,0.41,356.59,0.001141751,-0.01654348,-0.242799,0.03846217,-0.15365,0.7267038,-0.7248043,-0.08,0.26,-0.03,93.28
10693,67451250,1,-0.22,0.46,356.59,0.002320059,-0.01893554,-0.2398697,0.03444225,-0.1534438,0.7263634,-0.7244846,-0.08,0.26,-0.03,93.28
10741,67462280,1,-0.21,0.42,356.59,-0.01019386,-0.01456271,-0.2424018,0.02456437,-0.1533477,0.7260149,-0.7244877,-0.08,0.26,-0.03,93.28
10785,67472944,1,-0.22,0.45,356.6,-0.00445162,-0.01640941,-0.234415,0.01912065,-0.1534433,0.7258518,-0.7268718,-0.08,0.26,-0.03,93.28
10827,67483534,1,-0.18,0.45,356.6,-3.749609e-05,-0.02374703,-0.2416673,0.004272091,-0.1526233,0.7251503,-0.7247306999999999,-0.08,0.26,-0.03,93.28
10872,67493504,1,-0.21,0.42,356.59,-0.00611739,-0.02557836,-0.2312672,0.0131177,-0.1518728,0.7244724,-0.7225946,-0.08,0.26,-0.03,93.28
10920,67506869,1,-0.21,0.49,356.61,-0.00913685,-0.0157563,-0.2331215,0.005246185,-0.1512912,0.7237939,-0.7213117999999999,-0.08,0.25,-0.03,93.28
10965,67517413,1,-0.22,0.45,356.58,0.001236674,-0.01812963,-0.2333703,0.007517763,-0.1507002,0.7231816,-0.7195153,-0.08,0.25,-0.03,93.28
11009,67527978,1,-0.24,0.47,356.58,4.097517e-05,-0.02066963,-0.2306958,0.01993676,-0.1506931,0.7229319,-0.7221074,-0.08,0.25,-0.03,93.28
11054,67538933,1,-0.24,0.46,356.58,-0.01262799,-0.01742436,-0.2341868,0.02263947,-0.1501753,0.7223214999999999,-0.7202652,-0.08,0.25,-0.03,93.28
11098,67548918,1,-0.25,0.48,356.59,-0.004295835,-0.01982702,-0.2278118,0.03575911,-0.1497355,0.7217582,-0.7186694,-0.08,0.25,-0.03,93.28
11143,67558591,1,-0.22,0.48,356.58,0.0009714748,-0.02612798,-0.2337306,0.03407557,-0.1492592,0.7211786,-0.7172369,-0.08,0.25,-0.03,93.28
11193,67568590,1,-0.25,0.46,356.57,-0.004116491,-0.02755659,-0.2260622,0.04547561,-0.1488331,0.7205849,-0.7160318,-0.08,0.26,-0.03,93.28
11237,67579040,1,-0.24,0.49,356.59,-0.01084494,-0.02251478,-0.2303716,0.0480235,-0.148927,0.7203434,-0.7185384,-0.08,0.26,-0.03,93.28
11283,67589363,1,-0.26,0.47,356.59,-0.0006139234,-0.02345055,-0.22302,0.05685394,-0.1486052,0.7197949,-0.7174426,-0.08,0.26,-0.03,93.28
11327,67599370,1,-0.24,0.5,356.6,0.00195654,-0.0268065,-0.2292336,0.05098802,-0.1482675,0.7192295,-0.7165321,-0.08,0.26,-0.03,93.28
11375,67612267,1,-0.25,0.47,356.59,-0.009546156,-0.01852429,-0.2278614,0.04810316,-0.1480183,0.7186036,-0.7161763,-0.08,0.26,-0.03,93.28
11420,67622448,1,-0.26,0.5,356.6,-0.00410123,-0.01817599,-0.2242403,0.04714106,-0.1481016,0.7184107,-0.7184518,-0.08,0.26,-0.03,93.28
11464,67632766,1,-0.22,0.5,356.59,0.0004399047,-0.02347795,-0.2303598,0.0353629,-0.1478531,0.7178977,-0.7175295,-0.08,0.25,-0.03,93.28
11510,67642730,1,-0.26,0.49,356.58,-0.00214301,-0.02750634,-0.2228779,0.03794393,-0.1476367,0.7173537,-0.7168142,-0.08,0.25,-0.03,93.28
11554,67653007,1,-0.23,0.5,356.58,-0.01173583,-0.02642238,-0.2255197,0.02908423,-0.1475401,0.7168251,-0.7162369,-0.08,0.25,-0.03,93.28
11601,67663049,1,-0.25,0.49,356.57,-0.004553855,-0.0301416,-0.2180385,0.03112975,-0.1476209,0.7165852,-0.7184463,-0.08,0.25,-0.03,93.28
11644,67674936,1,-0.23,0.52,356.57,6.362163e-05,-0.03163062,-0.2218945,0.02522847,-0.1466938,0.71604,-0.7166938,-0.08,0.25,-0.03,93.28
11690,67684945,1,-0.26,0.48,356.55,-0.008957234999999999,-0.0275779,-0.2169204,0.03356641,-0.1458591,0.7155489,-0.7147122,-0.08,0.25,-0.03,93.28
11734,67694840,1,-0.28,0.52,356.57,-0.009255602999999999,-0.02143263,-0.2147071,0.04095787,-0.1451688,0.7151065,-0.7129561,-0.08,0.26,-0.03,93.28
11780,67704941,1,-0.27,0.51,356.56,-0.002557914,-0.02335935,-0.2171176,0.0421412,-0.144487,0.7146806,-0.7113254,-0.08,0.26,-0.03,93.28
11824,67715909,1,-0.28,0.52,356.55,-0.002295432,-0.02583658,-0.2165279,0.04766228,-0.1444919,0.7143686,-0.7137026,-0.08,0.26,-0.03,93.28
11869,67726820,1,-0.27,0.53,356.55,-0.01338318,-0.02553561,-0.2158052,0.04915979,-0.1438992,0.7139143999999999,-0.7122773,-0.08,0.25,-0.03,93.28
11913,67737201,1,-0.28,0.52,356.56,-0.004727131,-0.02765699,-0.2092672,0.06070717,-0.1433983,0.7134982,-0.7110242,-0.08,0.26,-0.03,93.28
11958,67748092,1,-0.26,0.55,356.57,0.0009889402000000001,-0.03153564,-0.2137956,0.0540986,-0.1428539,0.7131009,-0.7097174000000001,-0.08,0.25,-0.03,93.28
12003,67757904,1,-0.28,0.51,356.55,-0.007013752,-0.03144892,-0.2079968,0.05825694,-0.1423696,0.7126706,-0.7085609,-0.08,0.25,-0.03,93.28
12047,67768016,1,-0.28,0.5600000000000001,356.57,-0.01396681,-0.02468429,-0.2068128,0.06121674,-0.1425156,0.7123718999999999,-0.7108698,-0.08,0.25,-0.03,93.28
12097,67778254,1,-0.26,0.54,356.57,-0.007478708,-0.02565656,-0.2064513,0.06075771,-0.1421464,0.7119909,-0.7098629,-0.08,0.26,-0.03,93.28
12141,67788056,1,-0.26,0.54,356.57,-0.006278163,-0.03062121,-0.2051122,0.06036555,-0.141766,0.7115855,-0.7090147,-0.08,0.26,-0.03,93.28
12186,67798641,1,-0.26,0.53,356.56,-0.01821844,-0.02857825,-0.204439,0.05566059,-0.1414865,0.7111735,-0.7082861,-0.08,0.26,-0.03,93.28
12231,67808447,1,-0.26,0.54,356.57,-0.01645925,-0.02789357,-0.2020992,0.05216385,-0.141316,0.7107989,-0.7077222,-0.08,0.26,-0.03,93.28
12279,67818932,1,-0.24,0.55,356.57,-0.007845138999999999,-0.03155993,-0.2072349,0.04387114,-0.1414156,0.7105117,-0.7097265,-0.08,0.26,-0.03,93.28
12324,67829748,1,-0.25,0.53,356.54,-0.007136132,-0.03532083,-0.2052138,0.04034633,-0.141193,0.7100509,-0.7092313,-0.08,0.26,-0.03,93.28
12368,67839902,1,-0.25,0.5600000000000001,356.55,-0.0170135,-0.03151511,-0.2038772,0.03790022,-0.1410947,0.7096376,-0.7086584,-0.08,0.26,-0.03,93.28
12412,67850027,1,-0.25,0.5600000000000001,356.54,-0.01118956,-0.03263997,-0.199752,0.03623436,-0.1410783,0.7092109,-0.7083607,-0.08,0.26,-0.03,93.28
12456,67860908,1,-0.26,0.58,356.55,-0.0033077,-0.03538801,-0.2005916,0.02838477,-0.1410038,0.708794,-0.7080543,-0.08,0.26,-0.03,93.28
12505,67871220,1,-0.27,0.5600000000000001,356.53,-0.01718213,-0.03392664,-0.1988597,0.02179278,-0.14098,0.7083296,-0.7080225999999999,-0.08,0.26,-0.03,93.28
12550,67882969,1,-0.28,0.58,356.54,-0.02270887,-0.03088769,-0.1972453,0.01673848,-0.1412072,0.7079692,-0.710238,-0.08,0.26,-0.03,93.28
12591,67893377,1,-0.27,0.6,356.54,-0.01165568,-0.03565444,-0.2010659,0.002140214,-0.1401892,0.707436,-0.7080445,-0.08,0.26,-0.03,93.28
12636,67903277,1,-0.28,0.58,356.53,-0.01121855,-0.04041096,-0.1988714,0.0003279839,-0.1391644,0.7068995,-0.7058862,-0.08,0.26,-0.03,93.28
12681,67913664,1,-0.28,0.59,356.54,-0.02122354,-0.03700467,-0.1986534,0.007201583,-0.1393348,0.7065229,-0.707883,-0.08,0.26,-0.03,93.28
12725,67923942,1,-0.28,0.58,356.54,-0.01561314,-0.03664158,-0.1964474,0.01589962,-0.1384863,0.7060159,-0.7058929,-0.08,0.26,-0.03,93.28
12770,67933787,1,-0.28,0.61,356.55,-0.004522759,-0.03862229,-0.1985649,0.02532396,-0.1376413,0.7055125,-0.7040063,-0.08,0.26,-0.03,93.28
12815,67944347,1,-0.28,0.57,356.53,-0.0137483,-0.03588769,-0.1973397,0.03727872,-0.136843,0.7049593,-0.7024726,-0.08,0.26,-0.03,93.28
12859,67954966,1,-0.3,0.6,356.54,-0.02065935,-0.03123556,-0.1931825,0.04630543,-0.1370439,0.7046151,-0.7044584,-0.08,0.26,-0.03,93.28
12904,67965282,1,-0.27,0.59,356.54,-0.01648688,-0.03536671,-0.1955481,0.04756611,-0.1363864,0.7041231,-0.7030282,-0.08,0.26,-0.03,93.28
12949,67975941,1,-0.27,0.59,356.53,-0.01193171,-0.04077983,-0.1888194,0.0593226,-0.1356957,0.7036213,-0.7016295,-0.08,0.26,-0.03,93.28
13000,67985903,1,-0.26,0.6,356.52,-0.02548207,-0.03830748,-0.1921054,0.0601336,-0.1351273,0.7031235,-0.7003736,-0.08,0.26,-0.03,93.28
13044,67995902,1,-0.27,0.59,356.52,-0.02412116,-0.03596673,-0.185771,0.06775942,-0.1346882,0.7026648,-0.6992761,-0.08,0.26,-0.03,93.28
13089,68005901,1,-0.26,0.65,356.54,-0.01561582,-0.04014522,-0.190152,0.06419545,-0.1348886,0.7022969999999999,-0.7011957,-0.08,0.26,-0.03,93.28
13134,68016382,1,-0.27,0.59,356.51,-0.01565086,-0.04202399,-0.1908131,0.06153694,-0.1344036,0.7017525,-0.7003756,-0.08,0.26,-0.03,93.28
13181,68029801,1,-0.29,0.62,356.53,-0.02558315,-0.03795256,-0.1831223,0.06392819,-0.1341211,0.701142,-0.7001086,-0.08,0.26,-0.03,93.28
13226,68039846,1,-0.26,0.64,356.53,-0.02123782,-0.03967849,-0.1910001,0.05453068,-0.1338227,0.7006694,-0.6992242,-0.08,0.26,-0.03,93.28
13270,68050447,1,-0.27,0.59,356.53,-0.01478604,-0.04716535,-0.1819296,0.06007851,-0.1334931,0.7001275,-0.6986752000000001,-0.08,0.26,-0.03,93.28
13317,68060450,1,-0.28,0.63,356.53,-0.02506385,-0.04284724,-0.1846871,0.05216482,-0.1332449,0.6996305,-0.698072,-0.08,0.26,-0.03,93.28
13358,68070906,1,-0.29,0.59,356.53,-0.02501278,-0.03790144,-0.1829657,0.04796144,-0.1335096,0.6992084,-0.7000609,-0.08,0.26,-0.03,93.28
13424,68131871,1,-0.28,0.66,356.53,-0.02139069,-0.03618309,-0.1806686,0.0600966,-0.129469,0.6979731,-0.6927017,-0.08,0.26,-0.03,93.28
13470,68141945,1,-0.3,0.66,356.53,-0.02533169,-0.03445101,-0.1706129,0.06948382,-0.1297146,0.6976014,-0.6944437,-0.08,0.26,-0.03,93.28
13514,68152536,1,-0.26,0.68,356.54,-0.02032927,-0.03768493,-0.174351,0.06297609,-0.129112,0.697419,-0.6931382,-0.08,0.25,-0.03,93.28
13559,68163008,1,-0.26,0.65,356.53,-0.01567974,-0.04187901,-0.1680929,0.07044565,-0.1284707,0.6972418,-0.6918167,-0.08,0.26,-0.03,93.28
13603,68173339,1,-0.27,0.67,356.52,-0.02485526,-0.03804424,-0.1656936,0.07261745999999999,-0.1279575,0.6970121,-0.6908369,-0.08,0.26,-0.03,93.28
13648,68183340,1,-0.27,0.65,356.53,-0.02596904,-0.03304274,-0.162439,0.0748844,-0.1275342,0.6968567,-0.6897596,-0.08,0.26,-0.03,93.28
13697,68193347,1,-0.28,0.6899999999999999,356.53,-0.01550836,-0.03363142,-0.1606084,0.07354926000000001,-0.127121,0.6967074,-0.6888635,-0.08,0.26,-0.03,93.28
13742,68203922,1,-0.26,0.66,356.52,-0.02065209,-0.03499479,-0.1679382,0.06547557,-0.1272881,0.6963392,-0.6905024,-0.08,0.26,-0.03,93.28
13787,68213917,1,-0.3,0.68,356.52,-0.02793047,-0.03393121,-0.1551016,0.07494111000000001,-0.1269436,0.6961502000000001,-0.6897077,-0.08,0.26,-0.03,93.28
13831,68224004,1,-0.27,0.6899999999999999,356.53,-0.02826146,-0.03536845,-0.167504,0.05712674,-0.126713,0.6959312,-0.6891607,-0.08,0.26,-0.03,93.28
13877,68234670,1,-0.28,0.68,356.53,-0.01761792,-0.03986845,-0.1529956,0.06795133,-0.1264288,0.695724,-0.6885167,-0.08,0.26,-0.03,93.28
13921,68244818,1,-0.27,0.7,356.53,-0.02516774,-0.04305383,-0.1629102,0.05221433,-0.1261993,0.6954862000000001,-0.6880032,-0.08,0.26,-0.03,93.28
13966,68254474,1,-0.29,0.68,356.53,-0.02803549,-0.04093705,-0.1460594,0.06237566,-0.1260753,0.6952548,-0.6875414,-0.08,0.26,-0.03,93.28
14013,68265095,1,-0.27,0.73,356.55,-0.02339454,-0.04387146,-0.1546166,0.04895658,-0.126355,0.6948799,-0.689053,-0.08,0.26,-0.03,93.28
14052,68276266,1,-0.27,0.6899999999999999,356.53,-0.01969088,-0.04363965,-0.1522218,0.046414,-0.1253085,0.6947501,-0.6870905,-0.08,0.26,-0.03,93.28
14097,68285973,1,-0.31,0.71,356.54,-0.02668176,-0.04021099,-0.1413769,0.05855886,-0.1243582,0.6946696999999999,-0.6851156,-0.08,0.26,-0.03,93.28
14145,68296018,1,-0.28,0.7,356.54,-0.02971966,-0.03597559,-0.1509718,0.05121641,-0.1235015,0.6946547,-0.6830887,-0.08,0.26,-0.03,93.28
14190,68306877,1,-0.31,0.71,356.54,-0.01886452,-0.03406789,-0.1389657,0.07030886,-0.1227268,0.694573,-0.6815741,-0.08,0.26,-0.03,93.28
14236,68316953,1,-0.28,0.71,356.53,-0.02596471,-0.0350687,-0.1535303,0.06182854,-0.1229301,0.694186,-0.6830378,-0.08,0.26,-0.03,93.28
14281,68326899,1,-0.31,0.7,356.52,-0.03156826,-0.03376827,-0.1344868,0.07807832000000001,-0.1222008,0.6941339,-0.6814468,-0.08,0.26,-0.03,93.28
14325,68336863,1,-0.27,0.73,356.53,-0.02991446,-0.0327773,-0.1486274,0.06260794,-0.1215705,0.6941066,-0.6798334,-0.08,0.26,-0.03,93.28
14370,68348106,1,-0.27,0.7,356.51,-0.02003731,-0.04088391,-0.1381786,0.07653011,-0.1218214,0.6937031,-0.6813649000000001,-0.08,0.26,-0.03,93.28
14415,68357962,1,-0.26,0.74,356.52,-0.02748702,-0.04195322,-0.1438022,0.07151858,-0.1211945,0.6936198,-0.6799225,-0.08,0.26,-0.03,93.28
14461,68368050,1,-0.28,0.71,356.51,-0.0346103,-0.03915034,-0.1357376,0.08246164,-0.1207352,0.6935076,-0.6786856,-0.08,0.26,-0.03,93.28
14506,68378381,1,-0.28,0.76,356.53,-0.02509793,-0.03968389,-0.1330424,0.08563915,-0.1202914,0.6934413,-0.6774873,-0.08,0.26,-0.03,93.28
14550,68388353,1,-0.26,0.73,356.51,-0.02799537,-0.04027777,-0.1366634,0.07804846,-0.1198263,0.6933433,-0.6763775,-0.08,0.26,-0.03,93.28
14599,68399007,1,-0.29,0.74,356.51,-0.03918329,-0.03725591,-0.12977,0.08347554,-0.1201757,0.6929075,-0.6778824,-0.08,0.26,-0.03,93.28
14643,68408950,1,-0.28,0.76,356.52,-0.04075266,-0.03199534,-0.1366911,0.07346907,-0.1198912,0.6928197,-0.6768972,-0.08,0.26,-0.03,93.28
14688,68419097,1,-0.3,0.76,356.52,-0.02966525,-0.03467366,-0.1274055,0.07833982,-0.1195938,0.6927273,-0.6760328,-0.08,0.26,-0.03,93.28
14734,68429526,1,-0.28,0.77,356.51,-0.03456393,-0.0369236,-0.1367656,0.06318226,-0.1193244,0.6926038,-0.6752821,-0.08,0.26,-0.03,93.28
14781,68442560,1,-0.29,0.76,356.51,-0.0394481,-0.03779391,-0.1280226,0.06586665999999999,-0.1192976,0.6923748,-0.6749823,-0.08,0.26,-0.03,93.28
14826,68452505,1,-0.29,0.8,356.52,-0.03323112,-0.035735,-0.1269435,0.06199215,-0.11923,0.6922932000000001,-0.6744302,-0.08,0.26,-0.03,93.28
14870,68462509,1,-0.28,0.77,356.5,-0.0339311,-0.0376283,-0.1291898,0.05450615,-0.1195579,0.6919573999999999,-0.675667,-0.08,0.26,-0.03,93.28
14918,68478409,1,-0.3,0.78,356.5,-0.04279833,-0.03284754,-0.1218269,0.05336794,-0.1183398,0.6919777,-0.6726947,-0.08,0.26,-0.03,93.28
14963,68488302,1,-0.29,0.8100000000000001,356.51,-0.03707171,-0.03259727,-0.1249358,0.04828475,-0.1174307,0.6920037,-0.6708979,-0.08,0.26,-0.03,93.28
15012,68498913,1,-0.27,0.79,356.49,-0.03366541,-0.03488845,-0.124597,0.05306449,-0.1177874,0.6917098,-0.6720925,-0.08,0.26,-0.03,93.28
15057,68508931,1,-0.29,0.8,356.49,-0.04095581,-0.03476691,-0.1244492,0.05663703,-0.1168979,0.6916991,-0.6704744,-0.08,0.26,-0.03,93.28
15102,68518928,1,-0.29,0.8,356.49,-0.04664264,-0.02977046,-0.1232466,0.06169808,-0.1161328,0.6916912,-0.6689176,-0.08,0.26,-0.03,93.28
15146,68529197,1,-0.31,0.82,356.5,-0.03860454,-0.0273851,-0.1166875,0.07388712,-0.1154682,0.6916626,-0.6676852,-0.08,0.26,-0.03,93.28
15191,68539405,1,-0.28,0.8,356.48,-0.03961885,-0.0291707,-0.1204925,0.07399505000000001,-0.1147545,0.6916386,-0.6661889,-0.08,0.26,-0.03,93.28
15235,68549198,1,-0.31,0.8100000000000001,356.49,-0.04804655,-0.02692177,-0.1113451,0.08570337,-0.1151652,0.6913357,-0.6673721,-0.08,0.26,-0.03,93.28
15280,68559473,1,-0.29,0.82,356.49,-0.04718333,-0.02192651,-0.1159732,0.08174093,-0.1146149,0.6913443,-0.6659471,-0.08,0.26,-0.03,93.28
15324,68569481,1,-0.3,0.83,356.5,-0.03761148,-0.0235131,-0.1118913,0.08625047,-0.1140805,0.6913651,-0.664671,-0.08,0.26,-0.03,93.28
15370,68580388,1,-0.29,0.83,356.49,-0.03984513,-0.02803962,-0.1169172,0.08038267,-0.1136165,0.6913332,-0.6636602,-0.08,0.26,-0.03,93.28
15415,68590866,1,-0.29,0.82,356.49,-0.04793787,-0.02529716,-0.1113689,0.08516265000000001,-0.1132504,0.6913281,-0.6626316,-0.08,0.26,-0.03,93.28
15464,68600888,1,-0.28,0.84,356.5,-0.04370576,-0.02600948,-0.1136344,0.08103979,-0.1129619,0.6913481,-0.6617376,-0.08,0.26,-0.03,93.28
15509,68611339,1,-0.27,0.83,356.48,-0.04313039,-0.02686976,-0.1139679,0.07913671,-0.1127174,0.6913039,-0.6610419,-0.08,0.26,-0.03,93.28
15553,68621980,1,-0.3,0.84,356.48,-0.05326792,-0.0250559,-0.1097642,0.08223647000000001,-0.113184,0.6910338,-0.6621631,-0.08,0.26,-0.03,93.28
15598,68631960,1,-0.3,0.84,356.49,-0.05737584,-0.01967527,-0.109757,0.07848518,-0.113063,0.6910157,-0.6614166,-0.08,0.26,-0.03,93.28
15642,68642811,1,-0.32,0.86,356.49,-0.04607029,-0.02286738,-0.1044671,0.07992734999999999,-0.1130008,0.690975,-0.6609049,-0.08,0.27,-0.03,93.28
15690,68652970,1,-0.29,0.86,356.48,-0.04779446,-0.02817316,-0.1097505,0.06598867,-0.1134569,0.6906961,-0.6619883,-0.08,0.27,-0.03,93.28
15729,68664219,1,-0.31,0.85,356.48,-0.0539697,-0.03054747,-0.1034492,0.06259241,-0.1121968,0.6905326000000001,-0.6603560000000001,-0.08,0.26,-0.03,93.28
15774,68674003,1,-0.3,0.87,356.49,-0.04974646,-0.03044316,-0.1050111,0.05277278,-0.1109477,0.6904477,-0.6586227,-0.08,0.26,-0.03,93.28
15819,68684507,1,-0.3,0.86,356.47,-0.04437253,-0.03173339,-0.1042446,0.05217814,-0.1097324,0.6903424,-0.6570492999999999,-0.08,0.26,-0.03,93.28
15864,68695043,1,-0.33,0.87,356.47,-0.05233333,-0.03060203,-0.1030914,0.05700173,-0.1102199,0.6900366999999999,-0.6581015,-0.08,0.26,-0.03,93.28
15913,68705548,1,-0.33,0.88,356.47,-0.06106344,-0.02202421,-0.1031022,0.05890583,-0.1092333,0.6898915,-0.6567075999999999,-0.08,0.26,-0.03,93.28
15959,68715994,1,-0.33,0.9,356.49,-0.05106777,-0.02238822,-0.09879692,0.06539074,-0.1082534,0.6898076,-0.6553426999999999,-0.08,0.26,-0.03,93.28
16003,68725967,1,-0.3,0.91,356.48,-0.05106145,-0.02484434,-0.1022132,0.06289494,-0.1073013,0.6896865,-0.6541077,-0.08,0.26,-0.03,93.28
16049,68736285,1,-0.32,0.89,356.47,-0.05705654,-0.02872768,-0.09211341000000001,0.07330871,-0.1065165,0.6895243,-0.653064,-0.08,0.26,-0.03,93.28
16095,68746983,1,-0.31,0.92,356.49,-0.05702516,-0.02537355,-0.09449278,0.07288268000000001,-0.1071022,0.6892591,-0.6540017,-0.08,0.26,-0.03,93.28
16140,68757027,1,-0.32,0.91,356.49,-0.04802578,-0.03077424,-0.08971306,0.07741170999999999,-0.1063257,0.6891536,-0.6529192,-0.08,0.26,-0.03,93.28
16185,68768079,1,-0.31,0.92,356.48,-0.05099436,-0.03502113,-0.09188572,0.07518464,-0.1056639,0.688974,-0.6520828,-0.08,0.26,-0.03,93.28
16230,68778087,1,-0.32,0.9,356.48,-0.06019925,-0.02846899,-0.09050145,0.07457951,-0.1051405,0.6887966,-0.6513127,-0.08,0.26,-0.03,93.28
16275,68788143,1,-0.32,0.93,356.49,-0.05345214,-0.02648,-0.08850280000000001,0.07386345,-0.1046296,0.6886616,-0.6505501,-0.08,0.26,-0.03,93.28
16321,68798085,1,-0.31,0.93,356.47,-0.05196169,-0.02764991,-0.09513307,0.06285117,-0.104111,0.6885111,-0.6498801,-0.08,0.26,-0.03,93.28
16372,68808813,1,-0.32,0.91,356.47,-0.06050689,-0.03005066,-0.08978105,0.06525475999999999,-0.1046546,0.6881815,-0.6508017,-0.08,0.26,-0.03,93.28
16417,68818444,1,-0.32,0.9399999999999999,356.47,-0.06469128,-0.02398501,-0.09326513,0.05714808,-0.1043061,0.6879997,-0.6502106,-0.08,0.26,-0.03,93.28
16461,68828949,1,-0.33,0.93,356.48,-0.05359532,-0.02819684,-0.0858385,0.05845712,-0.104038,0.6878192,-0.6497858,-0.08,0.26,-0.03,93.28
16506,68839345,1,-0.29,0.95,356.47,-0.05229397,-0.03261993,-0.08760554,0.05031276,-0.1037106,0.6876462,-0.6493563999999999,-0.08,0.26,-0.03,93.28
16553,68852331,1,-0.31,0.9399999999999999,356.47,-0.06298402,-0.02909367,-0.08410031,0.04665294,-0.1036627,0.6873605,-0.649004,-0.08,0.26,-0.03,93.28
16600,68868256,1,-0.31,0.9399999999999999,356.48,-0.05073237,-0.03065235,-0.08270966,0.04359817,-0.1027792,0.6871862,-0.6475956,-0.08,0.26,-0.03,93.28
16644,68878579,1,-0.3,0.96,356.47,-0.05100629,-0.03513136,-0.0817534,0.04148569,-0.1015648,0.6871375,-0.645793,-0.08,0.26,-0.03,93.28
16689,68889381,1,-0.32,0.9399999999999999,356.47,-0.06214716,-0.03162264,-0.07999705999999999,0.04650294,-0.1005592,0.6870222,-0.644186,-0.08,0.26,-0.03,93.28
16736,68900019,1,-0.34,0.95,356.48,-0.05810758,-0.02690146,-0.07695799,0.05678844,-0.101223,0.6866930999999999,-0.6450663,-0.08,0.26,-0.03,93.28
16784,68910890,1,-0.31,0.97,356.47,-0.05639143,-0.02766687,-0.08069809,0.05795929,-0.1001994,0.6866304,-0.6434643,-0.08,0.26,-0.03,93.28
16829,68921960,1,-0.33,0.95,356.45,-0.06205086,-0.03176341,-0.07462359,0.07064485,-0.09933641999999999,0.6865056,-0.6420515999999999,-0.08,0.26,-0.03,93.28
16873,68932381,1,-0.33,1,356.47,-0.06322245,-0.03291487,-0.0756333,0.07283307,-0.09863153,0.6863677,-0.6407455,-0.08,0.26,-0.03,93.28
16918,68942370,1,-0.32,0.96,356.46,-0.05597973,-0.03444159,-0.07484642,0.07559688000000001,-0.09923220000000001,0.6860648,-0.641485,-0.08,0.26,-0.03,93.28
16963,68952888,1,-0.31,1,356.45,-0.05624421,-0.03706963,-0.07391158,0.07727826,-0.09844211,0.685968,-0.6401902,-0.08,0.26,-0.03,93.28
17008,68963003,1,-0.32,0.95,356.44,-0.06588877999999999,-0.03689589,-0.07171455,0.07636059000000001,-0.09906217,0.685626,-0.6409141,-0.08,0.26,-0.03,93.28
17053,68973201,1,-0.33,0.99,356.45,-0.06069688,-0.03182677,-0.0670079,0.07556345,-0.09844949,0.6854873,-0.6397182,-0.08,0.26,-0.03,93.28
17098,68983282,1,-0.31,0.98,356.44,-0.05876959,-0.03158771,-0.07208212,0.06723624,-0.09779182,0.6853653,-0.6385458000000001,-0.08,0.26,-0.03,93.28
17144,68993072,1,-0.31,0.99,356.43,-0.06076496,-0.03609395,-0.06608145999999999,0.07001649,-0.09720346000000001,0.6852024,-0.6374881,-0.08,0.26,-0.03,93.28
17188,69003938,1,-0.32,0.99,356.44,-0.06962748000000001,-0.03251237,-0.06852036,0.06717861,-0.09786805,0.6848229,-0.6381588,-0.08,0.26,-0.03,93.28
17243,69017031,1,-0.32,0.97,356.44,-0.05967815,-0.03738099,-0.06442456000000001,0.06901148999999999,-0.09758002,0.6845571,-0.637337,-0.08,0.26,-0.03,93.28
17287,69027012,1,-0.31,1.01,356.45,-0.05968247,-0.04153527,-0.06385338,0.06768823,-0.09718962,0.6843286,-0.6365025,-0.08,0.26,-0.03,93.28
17332,69037496,1,-0.34,0.97,356.44,-0.07051586999999999,-0.04035629,-0.06460744,0.06255005,-0.09683382,0.6841129,-0.6356331,-0.08,0.26,-0.03,93.28
17377,69047553,1,-0.35,1.01,356.46,-0.06898327999999999,-0.03677261,-0.06184075,0.06189765,-0.09754123000000001,0.6837426,-0.6362808,-0.08,0.26,-0.03,93.28
17421,69057530,1,-0.35,1.01,356.45,-0.0642499,-0.03753303,-0.0640619,0.05573397,-0.09725352,0.6835588,-0.6355001,-0.08,0.26,-0.03,93.28
17467,69067422,1,-0.35,1.02,356.44,-0.06669011,-0.04000277,-0.06357045,0.05371357,-0.09701261999999999,0.6833506,-0.6348348,-0.08,0.26,-0.03,93.28
17508,69081979,1,-0.36,1.05,356.45,-0.07052625,-0.03560812,-0.06271433999999999,0.05202286,-0.09611142,0.6831482,-0.6334718,-0.08,0.26,-0.03,93.28
17553,69091995,1,-0.36,1.01,356.44,-0.06364267,-0.03499985,-0.0625289,0.0539833,-0.09491854,0.683156,-0.6318948,-0.08,0.26,-0.03,93.28
17599,69102765,1,-0.35,1.03,356.43,-0.06231287,-0.0385262,-0.06090692,0.06063296,-0.09378812,0.683122,-0.6304581,-0.08,0.26,-0.03,93.28
17643,69112454,1,-0.34,1,356.42,-0.07305879999999999,-0.03888715,-0.0617489,0.06340583,-0.09276088,0.683077,-0.6291118,-0.08,0.26,-0.03,93.28
17693,69122495,1,-0.34,1.02,356.44,-0.07047022,-0.03733936,-0.05770984,0.07156411999999999,-0.09347305,0.6827142,-0.6297083999999999,-0.08,0.26,-0.03,93.28
17737,69133030,1,-0.32,1.02,356.44,-0.06607161,-0.03583767,-0.0596335,0.07211078,-0.09253488,0.6826892,-0.6284438,-0.08,0.26,-0.03,93.28
17782,69143056,1,-0.31,1.01,356.42,-0.06689145000000001,-0.0412687,-0.05326501,0.08193669000000001,-0.09167195,0.682627,-0.627283,-0.08,0.26,-0.03,93.28
17828,69152972,1,-0.31,1.05,356.42,-0.07449788,-0.03945282,-0.05564396,0.08172685,-0.09096123,0.6825434,-0.6262138,-0.08,0.26,-0.03,93.28
17872,69163450,1,-0.31,1.02,356.43,-0.06606093,-0.03673841,-0.05354045,0.08660502,-0.09041183,0.6824361,-0.6249861,-0.08,0.26,-0.03,93.28
17917,69173423,1,-0.31,1.07,356.43,-0.06112156,-0.03695488,-0.05421019,0.08753302,-0.08980285,0.6823567,-0.6238302999999999,-0.08,0.26,-0.03,93.28
17961,69183457,1,-0.32,1.03,356.41,-0.06964463,-0.03921571,-0.05287039,0.08880188,-0.08928311999999999,0.6822244,-0.6227282,-0.08,0.26,-0.03,93.28
18006,69193926,1,-0.34,1.08,356.43,-0.07143969,-0.03569569,-0.04871979,0.09415494000000001,-0.09002880000000001,0.6818348,-0.6232491,-0.08,0.26,-0.03,93.28
18051,69203906,1,-0.33,1.05,356.42,-0.06701238,-0.03390175,-0.05630641,0.08579051,-0.08961292999999999,0.6817293,-0.622216,-0.08,0.26,-0.03,93.28
18095,69213836,1,-0.34,1.07,356.42,-0.06435515,-0.03713657,-0.0490658,0.08962959,-0.08919961999999999,0.6816072,-0.6212929,-0.08,0.26,-0.03,93.28
18146,69224268,1,-0.34,1.05,356.41,-0.07795224000000001,-0.03931246,-0.0522095,0.08237975,-0.08895683,0.6814049,-0.6204776,-0.08,0.26,-0.03,93.28
18190,69234436,1,-0.36,1.06,356.42,-0.07681615999999999,-0.03791373,-0.04316072,0.08886313,-0.08971862999999999,0.6810176999999999,-0.6209457,-0.08,0.26,-0.03,93.28
18235,69244434,1,-0.34,1.09,356.42,-0.07125529,-0.04064647,-0.05064484,0.07761861,-0.08949566,0.680877,-0.6201551,-0.08,0.26,-0.03,93.28
18282,69254663,1,-0.35,1.05,356.4,-0.07207622,-0.04741427,-0.04522996,0.07903468,-0.08929326999999999,0.6806838,-0.6194329,-0.08,0.26,-0.03,93.28
18323,69269302,1,-0.42,1.09,356.41,-0.07797316,-0.03672101,-0.04151706,0.07950382,-0.08825851999999999,0.6802112,-0.6179351,-0.08,0.26,-0.03,93.28
18367,69279301,1,-0.38,1.11,356.41,-0.07450451,-0.03490315,-0.05040928,0.06672227,-0.08691232,0.6799976,-0.6162493,-0.08,0.26,-0.03,93.28
18412,69289879,1,-0.38,1.1,356.4,-0.07320958,-0.04232605,-0.03896471,0.07969207,-0.08763396,0.6795796,-0.6166813,-0.08,0.26,-0.03,93.28
18460,69300445,1,-0.35,1.11,356.39,-0.08304617,-0.04494292,-0.0441025,0.07640754,-0.08646432,0.6793036,-0.6151463,-0.08,0.26,-0.03,93.28
18505,69310255,1,-0.36,1.1,356.4,-0.08127711999999999,-0.03923073,-0.03663727,0.0818986,-0.0872758,0.6789235,-0.6155310000000001,-0.08,0.26,-0.03,93.28
18549,69320661,1,-0.35,1.16,356.41,-0.0733867,-0.04333895,-0.0389226,0.07859727,-0.08610442,0.6787383,-0.6140084,-0.08,0.26,-0.03,93.28
18598,69330778,1,-0.34,1.12,356.39,-0.07371484,-0.04851762,-0.03705233,0.08238383000000001,-0.08498793,0.6785072,-0.6125491,-0.08,0.26,-0.03,93.28
18643,69340648,1,-0.37,1.16,356.41,-0.08148646,-0.04565478,-0.03479693,0.08678213999999999,-0.08405223000000001,0.6782538,-0.6112429,-0.08,0.26,-0.03,93.28
18688,69351007,1,-0.36,1.13,356.41,-0.07945576,-0.03737232,-0.04128335,0.0832384,-0.08330609,0.6779788,-0.6100243,-0.08,0.26,-0.03,93.28
18736,69364504,1,-0.37,1.13,356.41,-0.07541874,-0.04462463,-0.03278388,0.0901792,-0.08269992,0.6776159,-0.6089699,-0.08,0.26,-0.03,93.28
18781,69374955,1,-0.35,1.15,356.41,-0.08589645999999999,-0.05094897,-0.03877242,0.08398954,-0.08357862000000001,0.6771033,-0.6093889,-0.08,0.26,-0.03,93.28
18826,69385886,1,-0.38,1.13,356.42,-0.08197378,-0.04696085,-0.03213724,0.08889167000000001,-0.08291560000000001,0.6768029,-0.6083301,-0.08,0.26,-0.03,93.28
18870,69395920,1,-0.38,1.18,356.42,-0.0751088,-0.04771653,-0.03403321,0.08513621,-0.08229280999999999,0.6765298,-0.6074088,-0.08,0.26,-0.03,93.28
18914,69405840,1,-0.39,1.14,356.41,-0.07815459,-0.05053851,-0.03135376,0.08494846,-0.08171786,0.6762304,-0.6065078,-0.08,0.26,-0.03,93.28
18958,69415859,1,-0.4,1.18,356.41,-0.085075,-0.04790574,-0.02831689,0.0848954,-0.08128162999999999,0.6759164,-0.6057272,-0.08,0.26,-0.03,93.28
19007,69426269,1,-0.4,1.16,356.42,-0.08696762,-0.04109458,-0.03446756,0.07589806,-0.08103845,0.6755983,-0.604984,-0.08,0.26,-0.03,93.28
19052,69436993,1,-0.42,1.19,356.41,-0.07827207,-0.04252579,-0.02570837,0.08251070000000001,-0.08184466999999999,0.6751674,-0.6052921,-0.08,0.26,-0.03,93.28
19098,69447379,1,-0.41,1.18,356.4,-0.08816323,-0.04187267,-0.03631368,0.06803662000000001,-0.08161189000000001,0.6747831,-0.6046299000000001,-0.08,0.26,-0.03,93.28
19143,69457336,1,-0.44,1.18,356.4,-0.08806472,-0.03861232,-0.01889661,0.08040459,-0.08141259000000001,0.6744471,-0.6039442,-0.08,0.26,-0.03,93.28
19186,69468417,1,-0.41,1.21,356.41,-0.08094218,-0.04464126,-0.02639743,0.06710077,-0.08236688,0.6739757,-0.6042187,-0.08,0.26,-0.03,93.28
19228,69479152,1,-0.39,1.18,356.4,-0.08012721,-0.05307034,-0.01924191,0.07073958,-0.08077789,0.6738775,-0.6027005,-0.08,0.26,-0.03,93.28
19273,69489003,1,-0.4,1.19,356.4,-0.08820894999999999,-0.04982361,-0.01639283,0.07243374,-0.07929050999999999,0.6738149,-0.6013084,-0.08,0.26,-0.03,93.28
19317,69499419,1,-0.39,1.17,356.42,-0.08918639,-0.04482592,-0.01751094,0.07291771,-0.07796633,0.6737816,-0.5999322,-0.08,0.26,-0.03,93.28
19363,69509638,1,-0.41,1.2,356.42,-0.07902624,-0.0452084,-0.01226668,0.08017256,-0.07672565000000001,0.6737304,-0.5987048,-0.08,0.26,-0.03,93.28
19407,69519424,1,-0.4,1.19,356.41,-0.08468854000000001,-0.04616729,-0.02110331,0.07229872,-0.07551751,0.6736504,-0.5975059,-0.08,0.26,-0.03,93.28
19456,69530313,1,-0.45,1.2,356.43,-0.09120464,-0.03940322,-0.01045689,0.08547212,-0.0764808,0.6731513,-0.5977055,-0.08,0.26,-0.03,93.28
19500,69540922,1,-0.41,1.22,356.44,-0.08921651999999999,-0.03704386,-0.0261526,0.07043599,-0.07546936999999999,0.6731032,-0.5966085,-0.08,0.26,-0.03,93.28
19545,69550947,1,-0.43,1.21,356.43,-0.08158119,-0.04007393,-0.01491397,0.08201101,-0.07447484,0.6730338,-0.5956085,-0.08,0.26,-0.03,93.28
19590,69560963,1,-0.41,1.22,356.43,-0.08931314999999999,-0.04280458,-0.02650577,0.06894993000000001,-0.075325,0.6725803,-0.5958152,-0.08,0.26,-0.03,93.28
19639,69574516,1,-0.42,1.2,356.44,-0.09057958000000001,-0.04130611,-0.01906685,0.07285716,-0.07483156000000001,0.6723146,-0.5948877,-0.08,0.26,-0.03,93.28
19684,69584822,1,-0.44,1.24,356.44,-0.08138910000000001,-0.04351668,-0.01460962,0.07628077,-0.07403165,0.6722293,-0.5938433,-0.08,0.26,-0.03,93.28
19728,69594988,1,-0.41,1.22,356.43,-0.09140234999999999,-0.0436977,-0.02736696,0.05944172,-0.07494839,0.671744,-0.5940464,-0.08,0.26,-0.03,93.28
19773,69605527,1,-0.46,1.23,356.43,-0.09532665,-0.04166197,-0.01299999,0.07067418,-0.07424815999999999,0.671612,-0.5930226,-0.08,0.25,-0.03,93.28
19817,69615530,1,-0.42,1.23,356.44,-0.09386881,-0.03842486,-0.02587325,0.05574534,-0.07364585,0.671517,-0.5920527,-0.08,0.26,-0.03,93.28
19862,69625494,1,-0.43,1.24,356.43,-0.08544284000000001,-0.04288102,-0.01142579,0.06823973,-0.07305609,0.6713964,-0.5911429,-0.08,0.26,-0.03,93.28
19910,69635514,1,-0.41,1.24,356.42,-0.09413467,-0.04512768,-0.02580593,0.05230357,-0.07257729,0.6712218,-0.5903310000000001,-0.08,0.26,-0.03,93.28
19955,69645984,1,-0.45,1.23,356.43,-0.09585594,-0.04161393,-0.01042622,0.0673767,-0.07352126,0.6707744,-0.5904716,-0.08,0.26,-0.03,93.28
20000,69656875,1,-0.42,1.27,356.44,-0.08710942000000001,-0.04536351,-0.01761177,0.05865517,-0.07326465,0.6705922,-0.5897471,-0.08,0.26,-0.03,93.28
20047,69667042,1,-0.41,1.23,356.43,-0.09092624000000001,-0.05088982,-0.01640889,0.05715756,-0.07301748,0.6703429,-0.5890084,-0.08,0.25,-0.03,93.28
20086,69678381,1,-0.45,1.25,356.44,-0.1012897,-0.04787107,-0.008602828,0.06365788,-0.07145166,0.6701858000000001,-0.5878657,-0.08,0.26,-0.03,93.28
20131,69688293,1,-0.42,1.24,356.45,-0.1037776,-0.04260052,-0.01989004,0.05209072,-0.07246558,0.6697403,-0.5879818,-0.08,0.26,-0.03,93.28
20175,69698622,1,-0.45,1.27,356.45,-0.09603994,-0.04552954,-0.008375623,0.06455029,-0.07090141,0.6696689,-0.5865905,-0.08,0.26,-0.03,93.28
20221,69708825,1,-0.42,1.25,356.44,-0.1037028,-0.04831349,-0.02101364,0.05419153,-0.06947163000000001,0.6695353000000001,-0.5852804,-0.08,0.26,-0.03,93.28
20266,69718809,1,-0.46,1.26,356.44,-0.1069116,-0.04497166,-0.006497567,0.07097523,-0.06823423000000001,0.6693977,-0.5840661,-0.08,0.26,-0.03,93.28
20312,69728953,1,-0.43,1.29,356.45,-0.0978725,-0.0453872,-0.01804069,0.06187899,-0.06720052999999999,0.6692506,-0.5829518,-0.08,0.26,-0.03,93.28
20361,69739359,1,-0.44,1.26,356.43,-0.09452936000000001,-0.051286,-0.01136949,0.07192871000000001,-0.0681508,0.6687821,-0.5830703,-0.08,0.26,-0.03,93.28
20405,69749353,1,-0.45,1.28,356.43,-0.1015612,-0.0520933,-0.01522812,0.07028536000000001,-0.06709503,0.6685979,-0.5820354,-0.08,0.26,-0.03,93.28
20450,69759369,1,-0.46,1.27,356.44,-0.1032989,-0.04474912,-0.009323306,0.07871393,-0.06620724,0.6684348,-0.5810168,-0.08,0.26,-0.03,93.28
20496,69769903,1,-0.46,1.3,356.45,-0.09472448,-0.04552984,-0.009138422,0.08046599,-0.06541369,0.668292,-0.5801373,-0.08,0.26,-0.03,93.28
20545,69783859,1,-0.42,1.27,356.42,-0.1088543,-0.0483493,-0.01721987,0.07300300999999999,-0.06506098,0.667924,-0.5791487,-0.08,0.26,-0.03,93.28
20591,69793976,1,-0.45,1.27,356.43,-0.1135737,-0.04380465,-0.004482619,0.0852176,-0.06447778999999999,0.6677457999999999,-0.578187,-0.08,0.26,-0.03,93.28
20636,69804374,1,-0.43,1.29,356.43,-0.1057424,-0.04633987,-0.01493646,0.07404785999999999,-0.06567886000000001,0.6672829,-0.5783178,-0.08,0.26,-0.03,93.28
20680,69814374,1,-0.42,1.28,356.42,-0.1003737,-0.05057289,-0.007336913,0.07930738,-0.06510819,0.6670928,-0.5773845,-0.08,0.26,-0.03,93.28
20726,69824471,1,-0.42,1.3,356.42,-0.1091728,-0.05246738,-0.01023182,0.07328023,-0.06618796,0.6665951,-0.5775149000000001,-0.08,0.26,-0.03,93.28
