LineNo,TimeUS,DesRoll,Roll,DesPitch,Pitch,DesYaw,Yaw,ErrRP,ErrYaw,AEKF
989,5.6705e+07,0,-0.29,0,3.38,3.83,3.83,0,0.04,3
1453,5.6876e+07,0,-0.29,0,3.38,3.82,3.82,0,0.03,3
1471,5.6896e+07,0,-0.29,0,3.38,3.81,3.81,0,0.03,3
1513,5.6906e+07,0,-0.3,0,3.38,3.81,3.81,0,0.03,3
1553,5.6917e+07,0,-0.3,0,3.38,3.8,3.81,0,0.03,3
1598,5.6927e+07,0,-0.3,0,3.38,3.8,3.8,0,0.03,3
1639,5.6937e+07,0,-0.3,0,3.38,3.8,3.8,0,0.03,3
1679,5.6947e+07,0,-0.3,0,3.38,3.79,3.79,0,0.03,3
1721,5.6957e+07,0,-0.3,0,3.38,3.79,3.79,0,0.03,3
1767,5.6971e+07,0,-0.3,0,3.38,3.78,3.79,0,0.03,3
1807,5.6982e+07,0,-0.29,0,3.38,3.78,3.78,0,0.03,3
1849,5.6992e+07,0,-0.29,0,3.38,3.77,3.78,0,0.03,3
1889,5.7002e+07,0,-0.29,0,3.38,3.77,3.77,0,0.03,3
1930,5.7012e+07,0,-0.29,0,3.38,3.77,3.77,0,0.03,3
1970,5.7023e+07,0,-0.29,0,3.38,3.76,3.77,0,0.03,3
2015,5.7033e+07,0,-0.29,0,3.38,3.76,3.76,0,0.02,3
2056,5.7043e+07,0,-0.3,0,3.38,3.76,3.76,0,0.02,3
2097,5.7053e+07,0,-0.3,0,3.38,3.75,3.76,0,0.02,3
2144,5.7066e+07,0,-0.3,0,3.38,3.75,3.75,0,0.02,3
2184,5.7076e+07,0,-0.3,0,3.38,3.75,3.75,0,0.02,3
2225,5.7087e+07,0,-0.3,0,3.38,3.74,3.75,0,0.02,3
2265,5.7097e+07,0,-0.3,0,3.38,3.74,3.74,0,0.02,3
2307,5.7107e+07,0,-0.3,0,3.38,3.74,3.74,0,0.02,3
2348,5.7117e+07,0,-0.3,0,3.38,3.73,3.74,0,0.02,3
2388,5.7127e+07,0,-0.3,0,3.38,3.73,3.74,0,0.02,3
2433,5.7138e+07,0,-0.3,0,3.38,3.73,3.74,0,0.02,3
2473,5.7148e+07,0,-0.3,0,3.38,3.73,3.73,0,0.02,3
2515,5.7158e+07,0,-0.3,0,3.38,3.73,3.73,0,0.02,3
2556,5.7168e+07,0,-0.3,0,3.38,3.73,3.73,0,0.02,3
2592,5.7179e+07,0,-0.3,0,3.38,3.73,3.73,0,0.02,3
2634,5.7189e+07,0,-0.3,0,3.38,3.73,3.73,0,0.02,3
2674,5.72e+07,0,-0.3,0,3.38,3.73,3.73,0,0.02,3
2716,5.7211e+07,0,-0.3,0,3.38,3.72,3.73,0,0.02,3
2756,5.7221e+07,0,-0.3,0,3.38,3.72,3.73,0,0.02,3
2797,5.7232e+07,0,-0.3,0,3.38,3.72,3.73,0,0.02,3
2844,5.7242e+07,0,-0.3,0,3.38,3.72,3.72,0,0.01,3
2885,5.7252e+07,0,-0.3,0,3.38,3.72,3.72,0,0.01,3
2926,5.7262e+07,0,-0.3,0,3.38,3.72,3.72,0,0.01,3
2970,5.7276e+07,0,-0.3,0,3.38,3.72,3.72,0,0.01,3
3011,5.7286e+07,0,-0.3,0,3.38,3.72,3.72,0,0.01,3
3051,5.7297e+07,0,-0.3,0,3.38,3.72,3.72,0,0.01,3
3093,5.7307e+07,0,-0.3,0,3.38,3.72,3.72,0,0.01,3
3134,5.7317e+07,0,-0.3,0,3.38,3.72,3.72,0,0.01,3
3174,5.7327e+07,0,-0.3,0,3.38,3.72,3.72,0,0.01,3
3219,5.7337e+07,0,-0.3,0,3.38,3.72,3.72,0,0.01,3
3260,5.7348e+07,0,-0.3,0,3.38,3.72,3.72,0,0.01,3
3301,5.7358e+07,0,-0.3,0,3.38,3.72,3.72,0,0.01,3
3343,5.7369e+07,0,-0.3,0,3.38,3.72,3.72,0,0.01,3
3384,5.7379e+07,0,-0.3,0,3.38,3.72,3.72,0,0.01,3
3424,5.7389e+07,0,-0.3,0,3.38,3.72,3.72,0,0.01,3
3465,5.74e+07,0,-0.3,0,3.38,3.72,3.72,0,0.01,3
3506,5.741e+07,0,-0.3,0,3.38,3.72,3.72,0,0.01,3
3548,5.742e+07,0,-0.3,0,3.38,3.72,3.72,0,0.01,3
3588,5.743e+07,0,-0.3,0,3.38,3.72,3.72,0,0.01,3
3633,5.7441e+07,0,-0.3,0,3.38,3.72,3.72,0,0.01,3
3674,5.7452e+07,0,-0.3,0,3.38,3.72,3.73,0,0.01,3
3715,5.7462e+07,0,-0.3,0,3.38,3.72,3.72,0,0.01,3
3756,5.7473e+07,0,-0.3,0,3.38,3.72,3.72,0,0.01,3
3796,5.7483e+07,0,-0.3,0,3.38,3.72,3.73,0,0.01,3
3837,5.7493e+07,0,-0.3,0,3.38,3.72,3.73,0,0.01,3
3878,5.7503e+07,0,-0.3,0,3.38,3.72,3.73,0,0.01,3
3919,5.7513e+07,0,-0.3,0,3.38,3.73,3.73,0,0.01,3
3959,5.7523e+07,0,-0.3,0,3.38,3.73,3.73,0,0.01,3
4000,5.7534e+07,0,-0.3,0,3.38,3.73,3.73,0,0.01,3
4047,5.7545e+07,0,-0.3,0,3.38,3.73,3.73,0,0.01,3
4090,5.7555e+07,0,-0.3,0,3.38,3.73,3.73,0,0.01,3
4131,5.7565e+07,0,-0.3,0,3.38,3.73,3.73,0,0.01,3
4173,5.7576e+07,0,-0.3,0,3.38,3.73,3.73,0,0.01,3
4215,5.7586e+07,0,-0.3,0,3.38,3.73,3.73,0,0.01,3
4255,5.7596e+07,0,-0.3,0,3.38,3.73,3.73,0,0.01,3
4296,5.7606e+07,0,-0.3,0,3.38,3.73,3.74,0,0.01,3
4336,5.7617e+07,0,-0.3,0,3.38,3.73,3.74,0,0.01,3
4377,5.7627e+07,0,-0.3,0,3.38,3.73,3.74,0,0.01,3
4419,5.7637e+07,0,-0.3,0,3.38,3.73,3.74,0,0.01,3
4463,5.7648e+07,0,-0.3,0,3.38,3.73,3.74,0,0.01,3
4504,5.7658e+07,0,-0.3,0,3.38,3.73,3.74,0,0.01,3
4544,5.7668e+07,0,-0.3,0,3.38,3.73,3.74,0,0.01,3
4585,5.7678e+07,0,-0.3,0,3.38,3.73,3.74,0,0.01,3
4629,5.7691e+07,0,-0.3,0,3.38,3.74,3.74,0,0.01,3
4670,5.7701e+07,0,-0.3,0,3.38,3.74,3.74,0,0.01,3
4707,5.7712e+07,0,-0.3,0,3.38,3.73,3.74,0,0.01,3
4747,5.7723e+07,0,-0.3,0,3.38,3.74,3.74,0,0.01,3
4787,5.7733e+07,0,-0.31,0,3.38,3.73,3.74,0,0.01,3
4830,5.7743e+07,0,-0.31,0,3.38,3.74,3.74,0,0.01,3
4874,5.7754e+07,0,-0.31,0,3.38,3.73,3.74,0,0.01,3
4915,5.7764e+07,0,-0.31,0,3.38,3.73,3.74,0,0.01,3
4955,5.7774e+07,0,-0.31,0,3.38,3.73,3.74,0,0.01,3
4998,5.7785e+07,0,-0.3,0,3.38,3.73,3.74,0,0.01,3
5036,5.7795e+07,0,-0.3,0,3.38,3.73,3.74,0,0.01,3
5076,5.7806e+07,0,-0.3,0,3.38,3.73,3.74,0,0.01,3
5117,5.7816e+07,0,-0.3,0,3.38,3.73,3.74,0,0.01,3
5158,5.7826e+07,0,-0.3,0,3.38,3.73,3.74,0,0.01,3
5199,5.7836e+07,0,-0.3,0,3.38,3.73,3.74,0,0.01,3
5240,5.7847e+07,0,-0.3,0,3.38,3.73,3.73,0,0.01,3
5285,5.7857e+07,0,-0.3,0,3.38,3.73,3.73,0,0.01,3
5327,5.7867e+07,0,-0.3,0,3.38,3.73,3.73,0,0.01,3
5367,5.7877e+07,0,-0.3,0,3.38,3.73,3.73,0,0.01,3
5409,5.7887e+07,0,-0.3,0,3.38,3.73,3.73,0,0.01,3
5449,5.79e+07,0,-0.31,0,3.38,3.73,3.73,0,0.01,3
5490,5.7911e+07,0,-0.31,0,3.38,3.72,3.73,0,0.01,3
5531,5.7921e+07,0,-0.31,0,3.38,3.72,3.73,0,0.01,3
5571,5.7931e+07,0,-0.3,0,3.38,3.72,3.73,0,0.01,3
5612,5.7941e+07,0,-0.3,0,3.38,3.72,3.72,0,0.01,3
5653,5.7951e+07,0,-0.3,0,3.38,3.72,3.72,0,0.01,3
5698,5.7961e+07,0,-0.3,0,3.38,3.72,3.72,0,0.01,3
5740,5.7972e+07,0,-0.3,0,3.39,3.72,3.72,0,0.01,3
5780,5.7981e+07,0,-0.3,0,3.38,3.72,3.72,0,0.01,3
5823,5.7992e+07,0,-0.3,0,3.38,3.72,3.72,0,0.01,3
5861,5.8005e+07,0,-0.3,0,3.39,3.72,3.72,0,0.01,3
5901,5.8016e+07,0,-0.3,0,3.39,3.72,3.72,0,0.01,3
5942,5.8026e+07,0,-0.3,0,3.39,3.72,3.72,0,0.01,3
5983,5.8036e+07,0,-0.3,0,3.39,3.72,3.72,0,0.01,3
6026,5.8046e+07,0,-0.3,0,3.39,3.71,3.72,0,0.01,3
6067,5.8056e+07,0,-0.3,0,3.39,3.71,3.72,0,0.01,3
6111,5.8067e+07,0,-0.3,0,3.39,3.71,3.72,0,0.01,3
6153,5.8077e+07,0,-0.3,0,3.38,3.71,3.72,0,0.01,3
6194,5.8087e+07,0,-0.3,0,3.39,3.71,3.71,0,0.01,3
6234,5.8097e+07,0,-0.3,0,3.39,3.71,3.71,0,0.01,3
6273,5.8108e+07,0,-0.3,0,3.39,3.71,3.71,0,0.01,3
6313,5.812e+07,0,-0.3,0,3.39,3.71,3.71,0,0.01,3
6354,5.8131e+07,0,-0.3,0,3.39,3.71,3.71,0,0.01,3
6395,5.8141e+07,0,-0.3,0,3.39,3.71,3.71,0,0.01,3
6436,5.8151e+07,0,-0.3,0,3.39,3.71,3.71,0,0.01,3
6481,5.8161e+07,0,-0.3,0,3.39,3.71,3.71,0,0.01,3
6523,5.8172e+07,0,-0.3,0,3.39,3.71,3.71,0,0.01,3
6565,5.8182e+07,0,-0.3,0,3.39,3.71,3.71,0,0.01,3
6606,5.8192e+07,0,-0.3,0,3.39,3.71,3.71,0,0.01,3
6647,5.8202e+07,0,-0.3,0,3.38,3.71,3.71,0,0.01,3
6685,5.8212e+07,0,-0.3,0,3.39,3.71,3.71,0,0.01,3
6725,5.8222e+07,0,-0.31,0,3.39,3.71,3.71,0,0.01,3
6766,5.8232e+07,0,-0.31,0,3.39,3.71,3.71,0,0.01,3
6807,5.8243e+07,0,-0.31,0,3.38,3.71,3.71,0,0.01,3
6848,5.8253e+07,0,-0.31,0,3.39,3.71,3.71,0,0.01,3
6893,5.8263e+07,0,-0.31,0,3.39,3.71,3.71,0,0.01,3
6933,5.8273e+07,0,-0.3,0,3.39,3.71,3.71,0,0.01,3
6975,5.8284e+07,0,-0.3,0,3.39,3.71,3.72,0,0.01,3
7015,5.8294e+07,0,-0.3,0,3.39,3.71,3.72,0,0.01,3
7053,5.8307e+07,0,-0.3,0,3.39,3.71,3.72,0,0.01,3
7096,5.8317e+07,0,-0.3,0,3.39,3.71,3.72,0,0.01,3
7136,5.8327e+07,0,-0.31,0,3.39,3.71,3.72,0,0.01,3
7177,5.8338e+07,0,-0.31,0,3.39,3.71,3.72,0,0.01,3
7217,5.8348e+07,0,-0.31,0,3.39,3.71,3.72,0,0.01,3
7258,5.8358e+07,0,-0.31,0,3.39,3.71,3.72,0,0.01,3
7303,5.8368e+07,0,-0.3,0,3.39,3.71,3.72,0,0.01,3
7346,5.8378e+07,0,-0.31,0,3.39,3.71,3.72,0,0.01,3
7387,5.8388e+07,0,-0.31,0,3.39,3.71,3.72,0,0.01,3
7428,5.8398e+07,0,-0.31,0,3.39,3.71,3.71,0,0.01,3
7471,5.8408e+07,0,-0.31,0,3.39,3.71,3.71,0,0.01,3
7505,5.8419e+07,0,-0.31,0,3.39,3.71,3.71,0,0.01,3
7545,5.843e+07,0,-0.31,0,3.39,3.71,3.71,0,0.01,3
7586,5.844e+07,0,-0.31,0,3.39,3.71,3.71,0,0.01,3
7627,5.845e+07,0,-0.31,0,3.39,3.71,3.71,0,0.01,3
7667,5.846e+07,0,-0.31,0,3.39,3.71,3.71,0,0.01,3
7713,5.847e+07,0,-0.31,0,3.39,3.71,3.71,0,0.01,3
7754,5.848e+07,0,-0.31,0,3.39,3.7,3.71,0,0.01,3
7794,5.8491e+07,0,-0.31,0,3.39,3.7,3.71,0,0.01,3
7835,5.8501e+07,0,-0.31,0,3.39,3.7,3.71,0,0.01,3
7876,5.8512e+07,0,-0.31,0,3.39,3.7,3.71,0,0.01,3
7914,5.8522e+07,0,-0.31,0,3.39,3.7,3.71,0,0.01,3
7956,5.8532e+07,0,-0.31,0,3.39,3.7,3.7,0,0.01,3
7998,5.8543e+07,0,-0.31,0,3.39,3.7,3.7,0,0.01,3
8039,5.8553e+07,0,-0.31,0,3.39,3.7,3.7,0,0.01,3
8079,5.8563e+07,0,-0.31,0,3.39,3.7,3.7,0,0.01,3
8126,5.8573e+07,0,-0.31,0,3.39,3.7,3.7,0,0,3
8170,5.8584e+07,0,-0.31,0,3.39,3.7,3.7,0,0,3
8210,5.8594e+07,0,-0.31,0,3.39,3.7,3.7,0,0,3
8251,5.8605e+07,0,-0.31,0,3.39,3.7,3.7,0,0,3
8291,5.8615e+07,0,-0.31,0,3.39,3.7,3.7,0,0,3
8329,5.8625e+07,0,-0.31,0,3.39,3.7,3.7,0,0,3
8370,5.8635e+07,0,-0.31,0,3.39,3.7,3.7,0,0,3
8412,5.8646e+07,0,-0.31,0,3.39,3.7,3.7,0,0,3
8452,5.8656e+07,0,-0.31,0,3.39,3.69,3.7,0,0,3
8493,5.8667e+07,0,-0.31,0,3.39,3.69,3.7,0,0,3
8538,5.8676e+07,0,-0.31,0,3.39,3.69,3.7,0,0,3
8578,5.8687e+07,0,-0.31,0,3.39,3.69,3.7,0,0,3
8619,5.8697e+07,0,-0.31,0,3.39,3.69,3.7,0,0,3
8660,5.8707e+07,0,-0.31,0,3.39,3.69,3.7,0,0,3
8704,5.8722e+07,0,-0.31,0,3.39,3.69,3.7,0,0,3
8745,5.8733e+07,0,-0.31,0,3.39,3.69,3.7,0,0,3
8785,5.8743e+07,0,-0.31,0,3.39,3.69,3.7,0,0,3
8827,5.8753e+07,0,-0.31,0,3.39,3.69,3.7,0,0,3
8868,5.8764e+07,0,-0.31,0,3.39,3.69,3.7,0,0,3
8911,5.8774e+07,0,-0.31,0,3.39,3.69,3.7,0,0,3
8955,5.8784e+07,0,-0.31,0,3.39,3.69,3.7,0,0.01,3
8996,5.8793e+07,0,-0.31,0,3.39,3.69,3.7,0,0.01,3
9037,5.8804e+07,0,-0.31,0,3.38,3.69,3.7,0,0.01,3
9078,5.8817e+07,0,-0.31,0,3.38,3.69,3.7,0,0.01,3
9120,5.8827e+07,0,-0.31,0,3.38,3.69,3.7,0,0.01,3
9161,5.8838e+07,0,-0.31,0,3.38,3.7,3.7,0,0.01,3
9203,5.8848e+07,0,-0.31,0,3.38,3.7,3.7,0,0.01,3
9243,5.8858e+07,0,-0.31,0,3.38,3.7,3.7,0,0.01,3
9284,5.8868e+07,0,-0.31,0,3.38,3.7,3.7,0,0.01,3
9329,5.8878e+07,0,-0.31,0,3.38,3.7,3.7,0,0.01,3
9369,5.8888e+07,0,-0.31,0,3.38,3.7,3.7,0,0,3
9410,5.8898e+07,0,-0.31,0,3.38,3.7,3.7,0,0,3
9450,5.8908e+07,0,-0.31,0,3.38,3.7,3.7,0,0,3
9491,5.8918e+07,0,-0.31,0,3.38,3.7,3.7,0,0,3
9532,5.8929e+07,0,-0.31,0,3.38,3.7,3.7,0,0,3
9572,5.8939e+07,0,-0.31,0,3.38,3.7,3.7,0,0,3
9615,5.895e+07,0,-0.31,0,3.38,3.7,3.71,0,0,3
9655,5.896e+07,0,-0.31,0,3.38,3.7,3.71,0,0,3
9696,5.8971e+07,0,-0.31,0,3.38,3.7,3.71,0,0,3
9744,5.8982e+07,0,-0.31,0,3.38,3.7,3.71,0,0,3
9784,5.8992e+07,0,-0.31,0,3.38,3.71,3.71,0,0,3
9825,5.9003e+07,0,-0.31,0,3.38,3.71,3.71,0,0,3
9866,5.9013e+07,0,-0.31,0,3.38,3.71,3.71,0,0,3
9907,5.9023e+07,0,-0.31,0,3.38,3.71,3.71,0,0,3
9948,5.9033e+07,0,-0.31,0,3.38,3.71,3.71,0,0,3
9990,5.9044e+07,0,-0.31,0,3.38,3.71,3.71,0,0,3
10031,5.9054e+07,0,-0.31,0,3.38,3.71,3.71,0,0,3
10071,5.9065e+07,0,-0.31,0,3.38,3.71,3.71,0,0,3
10112,5.9075e+07,0,-0.31,0,3.38,3.71,3.71,0,0,3
10157,5.9085e+07,0,-0.31,0,3.38,3.7,3.71,0,0,3
10198,5.9095e+07,0,-0.31,0,3.38,3.7,3.71,0,0,3
10238,5.9105e+07,0,-0.31,0,3.38,3.7,3.71,0,0,3
10279,5.9115e+07,0,-0.31,0,3.38,3.7,3.71,0,0,3
10320,5.9129e+07,0,-0.31,0,3.38,3.7,3.71,0,0,3
10360,5.9138e+07,0,-0.31,0,3.38,3.7,3.71,0,0,3
10401,5.9149e+07,0,-0.31,0,3.38,3.71,3.71,0,0,3
10441,5.916e+07,0,-0.31,0,3.38,3.71,3.71,0,0,3
10482,5.917e+07,0,-0.3,0,3.38,3.71,3.71,0,0,3
10524,5.9181e+07,0,-0.31,0,3.38,3.71,3.71,0,0,3
10569,5.9194e+07,0,-0.31,0,3.38,3.71,3.71,0,0,3
10610,5.9204e+07,0,-0.31,0,3.38,3.71,3.71,0,0,3
10653,5.9245e+07,0,-0.31,0,3.38,3.71,3.71,0,0,3
10694,5.9255e+07,0,-0.31,0,3.38,3.71,3.71,0,0,3
10734,5.9266e+07,0,-0.31,0,3.38,3.71,3.71,0,0,3
10775,5.9275e+07,0,-0.31,0,3.38,3.71,3.71,0,0,3
10815,5.9285e+07,0,-0.31,0,3.38,3.71,3.71,0,0,3
10860,5.9296e+07,0,-0.31,0,3.38,3.71,3.71,0,0,3
10900,5.9306e+07,0,-0.31,0,3.38,3.71,3.72,0,0,3
10942,5.9316e+07,0,-0.31,0,3.38,3.71,3.72,0,0,3
10984,5.9326e+07,0,-0.31,0,3.38,3.71,3.72,0,0,3
11022,5.9336e+07,0,-0.31,0,3.38,3.71,3.72,0,0,3
11063,5.9346e+07,0,-0.31,0,3.38,3.71,3.72,0,0,3
11104,5.9357e+07,0,-0.31,0,3.38,3.71,3.72,0,0,3
11145,5.9367e+07,0,-0.31,0,3.38,3.72,3.72,0,0,3
11186,5.9377e+07,0,-0.31,0,3.38,3.72,3.72,0,0,3
11228,5.9388e+07,0,-0.31,0,3.38,3.72,3.72,0,0,3
11271,5.9398e+07,0,-0.31,0,3.38,3.72,3.72,0,0.01,3
11312,5.9408e+07,0,-0.31,0,3.38,3.72,3.72,0,0.01,3
11353,5.9418e+07,0,-0.31,0,3.38,3.72,3.72,0,0.01,3
11394,5.9428e+07,0,-0.31,0,3.38,3.72,3.72,0,0.01,3
11434,5.9438e+07,0,-0.31,0,3.38,3.72,3.72,0,0.01,3
11472,5.9448e+07,0,-0.31,0,3.38,3.72,3.72,0,0.01,3
11517,5.9461e+07,0,-0.31,0,3.38,3.72,3.72,0,0.01,3
11558,5.9471e+07,0,-0.31,0,3.38,3.72,3.72,0,0.01,3
11599,5.9481e+07,0,-0.31,0,3.38,3.72,3.72,0,0.01,3
11639,5.9491e+07,0,-0.31,0,3.39,3.72,3.72,0,0.01,3
11684,5.9501e+07,0,-0.31,0,3.39,3.72,3.72,0,0.01,3
11724,5.9512e+07,0,-0.31,0,3.39,3.72,3.72,0,0.01,3
11764,5.9522e+07,0,-0.31,0,3.39,3.72,3.72,0,0.01,3
11805,5.9532e+07,0,-0.31,0,3.39,3.72,3.72,0,0.01,3
11847,5.9545e+07,0,-0.31,0,3.39,3.72,3.72,0,0.01,3
11888,5.9555e+07,0,-0.31,0,3.38,3.72,3.72,0,0.01,3
11931,5.9567e+07,0,-0.31,0,3.39,3.71,3.72,0,0.01,3
11972,5.9578e+07,0,-0.31,0,3.39,3.71,3.72,0,0.01,3
12014,5.9588e+07,0,-0.31,0,3.39,3.71,3.71,0,0.01,3
12058,5.9599e+07,0,-0.31,0,3.39,3.71,3.71,0,0.01,3
12098,5.9609e+07,0,-0.31,0,3.39,3.71,3.71,0,0.01,3
12140,5.962e+07,0,-0.31,0,3.39,3.71,3.71,0,0.01,3
12181,5.963e+07,0,-0.31,0,3.39,3.7,3.71,0,0.01,3
12221,5.9641e+07,0,-0.31,0,3.39,3.7,3.71,0,0.01,3
12259,5.9651e+07,0,-0.31,0,3.39,3.7,3.71,0,0.01,3
12302,5.9664e+07,0,-0.31,0,3.39,3.7,3.7,0,0.01,3
12343,5.9674e+07,0,-0.31,0,3.39,3.7,3.7,0,0.01,3
12385,5.9684e+07,0,-0.31,0,3.39,3.7,3.7,0,0.01,3
12425,5.9694e+07,0,-0.31,0,3.39,3.7,3.7,0,0.01,3
12470,5.9704e+07,0,-0.31,0,3.39,3.7,3.7,0,0.01,3
12510,5.9714e+07,0,-0.31,0,3.39,3.7,3.7,0,0.01,3
12552,5.9724e+07,0,-0.31,0,3.39,3.7,3.7,0,0.01,3
12592,5.9735e+07,0,-0.31,0,3.39,3.69,3.7,0,0.01,3
12634,5.9748e+07,0,-0.31,0,3.39,3.69,3.7,0,0.01,3
12675,5.9759e+07,0,-0.31,0,3.39,3.69,3.7,0,0.01,3
12715,5.9769e+07,0,-0.31,0,3.39,3.69,3.7,0,0.01,3
12755,5.9779e+07,0,-0.31,0,3.39,3.69,3.7,0,0.01,3
12792,5.9789e+07,0,-0.31,0,3.39,3.69,3.7,0,0.01,3
12833,5.98e+07,0,-0.31,0,3.39,3.69,3.7,0,0.01,3
12879,5.981e+07,0,-0.31,0,3.39,3.69,3.7,0,0,3
12919,5.9821e+07,0,-0.31,0,3.39,3.69,3.7,0,0,3
12961,5.983e+07,0,-0.31,0,3.39,3.69,3.69,0,0,3
13001,5.9841e+07,0,-0.31,0,3.39,3.69,3.69,0,0,3
13044,5.9853e+07,0,-0.31,0,3.39,3.69,3.69,0,0,3
13084,5.9863e+07,0,-0.31,0,3.39,3.69,3.69,0,0,3
13125,5.9873e+07,0,-0.31,0,3.39,3.69,3.69,0,0,3
13166,5.9884e+07,0,-0.31,0,3.39,3.69,3.69,0,0,3
13206,5.9894e+07,0,-0.31,0,3.39,3.69,3.69,0,0,3
13247,5.9904e+07,0,-0.31,0,3.39,3.69,3.69,0,0,3
13291,5.9915e+07,0,-0.31,0,3.39,3.69,3.69,0,0,3
13332,5.9925e+07,0,-0.31,0,3.38,3.69,3.69,0,0,3
13373,5.9935e+07,0,-0.31,0,3.38,3.69,3.69,0,0,3
13414,5.9945e+07,0,-0.31,0,3.38,3.69,3.69,0,0,3
13458,5.9957e+07,0,-0.31,0,3.39,3.69,3.69,0,0,3
13499,5.9968e+07,0,-0.31,0,3.39,3.69,3.69,0,0,3
13543,5.9978e+07,0,-0.31,0,3.38,3.69,3.69,0,0,3
13581,5.9988e+07,0,-0.31,0,3.38,3.69,3.69,0,0,3
13621,5.9998e+07,0,-0.31,0,3.38,3.69,3.69,0,0,3
13669,6.0011e+07,0,-0.32,0,3.38,3.69,3.69,0,0,3
13710,6.0021e+07,0,-0.31,0,3.38,3.69,3.69,0,0,3
13751,6.0031e+07,0,-0.31,0,3.38,3.69,3.69,0,0,3
13795,6.0041e+07,0,-0.31,0,3.38,3.69,3.69,0,0,3
13835,6.0051e+07,0,-0.31,0,3.38,3.69,3.69,0,0,3
13873,6.0061e+07,0,-0.31,0,3.38,3.69,3.69,0,0,3
13914,6.0071e+07,0,-0.31,0,3.38,3.69,3.69,0,0,3
13954,6.0081e+07,0,-0.31,0,3.38,3.69,3.69,0,0,3
13996,6.0092e+07,0,-0.31,0,3.38,3.69,3.69,0,0,3
14036,6.0102e+07,0,-0.31,0,3.38,3.69,3.69,0,0,3
14081,6.0112e+07,0,-0.32,0,3.38,3.69,3.69,0,0.01,3
14121,6.0122e+07,0,-0.32,0,3.38,3.69,3.69,0,0.01,3
14162,6.0133e+07,0,-0.32,0,3.38,3.69,3.69,0,0.01,3
14205,6.0143e+07,0,-0.32,0,3.38,3.69,3.69,0,0.01,3
14242,6.0154e+07,0,-0.32,0,3.38,3.69,3.69,0,0.01,3
14285,6.0164e+07,0,-0.32,0,3.38,3.69,3.69,0,0.01,3
14322,6.0175e+07,0,-0.32,0,3.38,3.69,3.69,0,0.01,3
14362,6.0185e+07,0,-0.32,0,3.38,3.69,3.7,0,0.01,3
14404,6.0195e+07,0,-0.32,0,3.38,3.69,3.7,0,0.01,3
14444,6.0205e+07,0,-0.32,0,3.38,3.69,3.7,0,0.01,3
14489,6.0215e+07,0,-0.32,0,3.38,3.69,3.7,0,0.01,3
14529,6.0226e+07,0,-0.32,0,3.38,3.69,3.7,0,0.01,3
14570,6.0236e+07,0,-0.31,0,3.38,3.69,3.7,0,0.01,3
14610,6.0246e+07,0,-0.31,0,3.38,3.69,3.7,0,0.01,3
14651,6.0259e+07,0,-0.31,0,3.38,3.7,3.7,0,0.01,3
14693,6.0269e+07,0,-0.31,0,3.38,3.7,3.7,0,0.01,3
14734,6.0279e+07,0,-0.32,0,3.38,3.7,3.7,0,0.01,3
14775,6.029e+07,0,-0.32,0,3.38,3.7,3.7,0,0.01,3
14815,6.03e+07,0,-0.32,0,3.38,3.7,3.7,0,0.01,3
14858,6.031e+07,0,-0.32,0,3.38,3.7,3.71,0,0.01,3
14903,6.0321e+07,0,-0.32,0,3.38,3.7,3.71,0,0.01,3
14944,6.0331e+07,0,-0.32,0,3.38,3.7,3.71,0,0.01,3
14985,6.0341e+07,0,-0.32,0,3.38,3.7,3.71,0,0.01,3
15028,6.0353e+07,0,-0.32,0,3.38,3.7,3.71,0,0.01,3
15069,6.0364e+07,0,-0.32,0,3.38,3.7,3.71,0,0.01,3
15110,6.0374e+07,0,-0.32,0,3.38,3.7,3.71,0,0.01,3
15153,6.0385e+07,0,-0.32,0,3.38,3.7,3.71,0,0.01,3
15192,6.0395e+07,0,-0.32,0,3.39,3.7,3.71,0,0.01,3
15233,6.0405e+07,0,-0.32,0,3.38,3.7,3.71,0,0.01,3
15275,6.0415e+07,0,-0.32,0,3.38,3.7,3.71,0,0.01,3
15319,6.0425e+07,0,-0.32,0,3.38,3.71,3.71,0,0.01,3
15360,6.0436e+07,0,-0.32,0,3.38,3.71,3.71,0,0.01,3
15401,6.0446e+07,0,-0.32,0,3.38,3.71,3.71,0,0.01,3
15441,6.0456e+07,0,-0.32,0,3.38,3.71,3.71,0,0.01,3
15478,6.0466e+07,0,-0.32,0,3.38,3.71,3.71,0,0.01,3
15519,6.0477e+07,0,-0.32,0,3.39,3.71,3.71,0,0.01,3
15560,6.0487e+07,0,-0.32,0,3.39,3.71,3.71,0,0.01,3
15601,6.0497e+07,0,-0.32,0,3.39,3.71,3.71,0,0.01,3
15642,6.0507e+07,0,-0.32,0,3.39,3.71,3.71,0,0.01,3
15683,6.0517e+07,0,-0.32,0,3.39,3.71,3.71,0,0.01,3
15728,6.0527e+07,0,-0.32,0,3.39,3.71,3.71,0,0.01,3
15771,6.0538e+07,0,-0.32,0,3.39,3.71,3.71,0,0.01,3
15811,6.0548e+07,0,-0.32,0,3.39,3.71,3.71,0,0.01,3
15852,6.0557e+07,0,-0.32,0,3.39,3.71,3.71,0,0.01,3
15890,6.0568e+07,0,-0.32,0,3.39,3.71,3.71,0,0.01,3
15931,6.0578e+07,0,-0.32,0,3.39,3.71,3.71,0,0.01,3
15971,6.0588e+07,0,-0.32,0,3.39,3.71,3.71,0,0.01,3
16013,6.0598e+07,0,-0.32,0,3.39,3.71,3.71,0,0.01,3
16054,6.0608e+07,0,-0.32,0,3.39,3.71,3.71,0,0.01,3
16103,6.0622e+07,0,-0.32,0,3.39,3.71,3.71,0,0.01,3
16145,6.0632e+07,0,-0.32,0,3.39,3.71,3.71,0,0.01,3
16186,6.0642e+07,0,-0.32,0,3.39,3.71,3.71,0,0.01,3
16227,6.0652e+07,0,-0.32,0,3.39,3.71,3.71,0,0.01,3
16271,6.0667e+07,0,-0.32,0,3.39,3.71,3.71,0,0.01,3
16311,6.0678e+07,0,-0.32,0,3.39,3.71,3.71,0,0.01,3
16352,6.0688e+07,0,-0.32,0,3.39,3.71,3.71,0,0.01,3
16394,6.0698e+07,0,-0.32,0,3.39,3.7,3.71,0,0.01,3
16435,6.0708e+07,0,-0.32,0,3.39,3.7,3.71,0,0.01,3
16475,6.0719e+07,0,-0.32,0,3.39,3.7,3.71,0,0.01,3
16520,6.0728e+07,0,-0.32,0,3.39,3.7,3.71,0,0.01,3
16561,6.0738e+07,0,-0.32,0,3.39,3.7,3.71,0,0.01,3
16602,6.0748e+07,0,-0.32,0,3.39,3.7,3.71,0,0.01,3
16643,6.0759e+07,0,-0.32,0,3.39,3.7,3.71,0,0.01,3
16683,6.0769e+07,0,-0.33,0,3.39,3.7,3.71,0,0.01,3
16726,6.078e+07,0,-0.33,0,3.39,3.7,3.71,0,0.01,3
16763,6.079e+07,0,-0.33,0,3.39,3.7,3.71,0,0.01,3
16804,6.08e+07,0,-0.33,0,3.39,3.7,3.71,0,0.01,3
16847,6.081e+07,0,-0.32,0,3.39,3.7,3.71,0,0.01,3
16887,6.082e+07,0,-0.32,0,3.39,3.7,3.71,0,0.01,3
16932,6.0831e+07,0,-0.32,0,3.39,3.7,3.71,0,0.01,3
16972,6.0841e+07,0,-0.32,0,3.39,3.7,3.71,0,0.01,3
17013,6.0851e+07,0,-0.32,0,3.39,3.7,3.71,0,0.01,3
17054,6.0861e+07,0,-0.32,0,3.39,3.7,3.71,0,0.01,3
17092,6.0871e+07,0,-0.32,0,3.39,3.71,3.71,0,0.01,3
17137,6.0884e+07,0,-0.32,0,3.39,3.71,3.71,0,0.01,3
17178,6.0894e+07,0,-0.32,0,3.39,3.71,3.71,0,0.01,3
17219,6.0905e+07,0,-0.32,0,3.39,3.71,3.71,0,0.01,3
17260,6.0915e+07,0,-0.32,0,3.39,3.71,3.71,0,0.01,3
17301,6.0925e+07,0,-0.32,0,3.39,3.71,3.71,0,0.01,3
17347,6.0935e+07,0,-0.32,0,3.39,3.71,3.72,0,0.01,3
17387,6.0946e+07,0,-0.32,0,3.39,3.71,3.72,0,0.01,3
17428,6.0956e+07,0,-0.32,0,3.39,3.71,3.72,0,0.01,3
17465,6.0966e+07,0,-0.32,0,3.39,3.71,3.72,0,0.01,3
17512,6.0979e+07,0,-0.32,0,3.39,3.71,3.72,0,0.01,3
17550,6.0989e+07,0,-0.32,0,3.39,3.72,3.72,0,0.01,3
17591,6.1e+07,0,-0.32,0,3.39,3.72,3.72,0,0.01,3
17632,6.1009e+07,0,-0.32,0,3.39,3.72,3.72,0,0.01,3
17672,6.1019e+07,0,-0.32,0,3.39,3.72,3.72,0,0.01,3
17720,6.103e+07,0,-0.32,0,3.39,3.72,3.72,0,0.01,3
17761,6.1041e+07,0,-0.32,0,3.39,3.72,3.72,0,0.01,3
17802,6.1051e+07,0,-0.32,0,3.39,3.72,3.72,0,0.01,3
17842,6.1062e+07,0,-0.32,0,3.39,3.72,3.72,0,0.01,3
17885,6.1074e+07,0,-0.32,0,3.39,3.72,3.72,0,0.01,3
17926,6.1085e+07,0,-0.32,0,3.39,3.72,3.72,0,0.01,3
17966,6.1095e+07,0,-0.32,0,3.39,3.72,3.72,0,0.01,3
18008,6.1106e+07,0,-0.32,0,3.39,3.72,3.72,0,0.01,3
18049,6.1116e+07,0,-0.32,0,3.39,3.72,3.72,0,0.01,3
18089,6.1126e+07,0,-0.32,0,3.39,3.72,3.72,0,0.01,3
18135,6.1136e+07,0,-0.32,0,3.39,3.72,3.72,0,0.01,3
18175,6.1146e+07,0,-0.32,0,3.39,3.72,3.72,0,0.01,3
18217,6.1157e+07,0,-0.32,0,3.39,3.72,3.73,0,0.01,3
18257,6.1167e+07,0,-0.32,0,3.39,3.72,3.73,0,0.01,3
18298,6.1177e+07,0,-0.32,0,3.39,3.72,3.73,0,0.01,3
18340,6.119e+07,0,-0.32,0,3.39,3.72,3.73,0,0.01,3
18377,6.12e+07,0,-0.32,0,3.39,3.72,3.73,0,0.01,3
18419,6.121e+07,0,-0.32,0,3.39,3.72,3.73,0,0.01,3
18459,6.122e+07,0,-0.32,0,3.39,3.73,3.73,0,0.01,3
18500,6.123e+07,0,-0.32,0,3.39,3.73,3.73,0,0.01,3
18547,6.1241e+07,0,-0.32,0,3.39,3.73,3.73,0,0.01,3
18587,6.1251e+07,0,-0.33,0,3.39,3.73,3.74,0,0.01,3
18628,6.1261e+07,0,-0.33,0,3.39,3.73,3.74,0,0.01,3
18668,6.1272e+07,0,-0.33,0,3.39,3.73,3.74,0,0.01,3
18709,6.1282e+07,0,-0.32,0,3.39,3.73,3.73,0,0.01,3
18750,6.1292e+07,0,-0.32,0,3.39,3.73,3.73,0,0.01,3
18791,6.1302e+07,0,-0.32,0,3.39,3.73,3.73,0,0.01,3
18832,6.1312e+07,0,-0.32,0,3.39,3.73,3.73,0,0.01,3
18872,6.1323e+07,0,-0.32,0,3.39,3.73,3.73,0,0.01,3
18913,6.1333e+07,0,-0.32,0,3.39,3.73,3.73,0,0.01,3
18959,6.1343e+07,0,-0.31,0,3.39,3.73,3.73,0,0.01,3
19000,6.1353e+07,0,-0.31,0,3.39,3.73,3.73,0,0.01,3
19042,6.1364e+07,0,-0.32,0,3.39,3.73,3.73,0,0.01,3
19082,6.1374e+07,0,-0.32,0,3.39,3.73,3.74,0,0.01,3
19123,6.1385e+07,0,-0.32,0,3.39,3.73,3.74,0,0.01,3
19162,6.1395e+07,0,-0.32,0,3.39,3.73,3.74,0,0.01,3
19200,6.1405e+07,0,-0.32,0,3.39,3.74,3.74,0,0.01,3
19242,6.1416e+07,0,-0.32,0,3.39,3.74,3.74,0,0.01,3
19282,6.1426e+07,0,-0.32,0,3.39,3.74,3.74,0,0.01,3
19323,6.1436e+07,0,-0.32,0,3.39,3.74,3.74,0,0.01,3
19367,6.1446e+07,0,-0.32,0,3.39,3.74,3.74,0,0.01,3
19408,6.1456e+07,0,-0.32,0,3.39,3.74,3.74,0,0.01,3
19450,6.1467e+07,0,-0.32,0,3.39,3.74,3.74,0,0.01,3
19491,6.1478e+07,0,-0.31,0,3.39,3.74,3.74,0,0.01,3
19532,6.1488e+07,0,-0.31,0,3.39,3.74,3.74,0,0.01,3
19572,6.1499e+07,0,-0.31,0,3.39,3.74,3.74,0,0.01,3
19613,6.1509e+07,0,-0.31,0,3.39,3.74,3.74,0,0.01,3
19654,6.1519e+07,0,-0.32,0,3.39,3.74,3.74,0,0.01,3
19697,6.153e+07,0,-0.32,0,3.39,3.74,3.75,0,0.01,3
19738,6.154e+07,0,-0.32,0,3.4,3.74,3.75,0,0.01,3
19782,6.155e+07,0,-0.32,0,3.4,3.74,3.75,0,0.01,3
19824,6.156e+07,0,-0.32,0,3.4,3.75,3.75,0,0.01,3
19864,6.157e+07,0,-0.32,0,3.4,3.75,3.75,0,0.01,3
19908,6.158e+07,0,-0.32,0,3.4,3.75,3.75,0,0.01,3
19942,6.1592e+07,0,-0.32,0,3.4,3.75,3.75,0,0.01,3
19982,6.1602e+07,0,-0.32,0,3.4,3.75,3.75,0,0.01,3
20023,6.1613e+07,0,-0.32,0,3.4,3.75,3.75,0,0.01,3
20064,6.1623e+07,0,-0.31,0,3.4,3.75,3.75,0,0.01,3
20104,6.1633e+07,0,-0.31,0,3.4,3.75,3.75,0,0.01,3
20145,6.1644e+07,0,-0.31,0,3.4,3.75,3.75,0,0.01,3
20192,6.1654e+07,0,-0.31,0,3.4,3.75,3.75,0,0.01,3
20235,6.1665e+07,0,-0.31,0,3.4,3.75,3.75,0,0.01,3
20276,6.1675e+07,0,-0.31,0,3.4,3.75,3.75,0,0.01,3
20316,6.1685e+07,0,-0.31,0,3.4,3.75,3.76,0,0.01,3
20357,6.1695e+07,0,-0.31,0,3.4,3.75,3.76,0,0.01,3
20397,6.1704e+07,0,-0.31,0,3.4,3.75,3.76,0,0.01,3
20439,6.1715e+07,0,-0.31,0,3.4,3.76,3.76,0,0.01,3
20479,6.1725e+07,0,-0.31,0,3.4,3.76,3.76,0,0.01,3
20520,6.1735e+07,0,-0.32,0,3.4,3.76,3.76,0,0.01,3
20561,6.1746e+07,0,-0.32,0,3.4,3.76,3.76,0,0.01,3
20606,6.1755e+07,0,-0.32,0,3.4,3.76,3.76,0,0.01,3
20647,6.1766e+07,0,-0.31,0,3.4,3.76,3.76,0,0.01,3
20688,6.1776e+07,0,-0.31,0,3.4,3.76,3.76,0,0.01,3
20731,6.1786e+07,0,-0.31,0,3.4,3.76,3.76,0,0.01,3
20766,6.1798e+07,0,-0.31,0,3.4,3.76,3.76,0,0.01,3
20806,6.1808e+07,0,-0.31,0,3.4,3.76,3.76,0,0.01,3
20848,6.1818e+07,0,-0.31,0,3.4,3.76,3.76,0,0.01,3
20889,6.1829e+07,0,-0.31,0,3.4,3.76,3.76,0,0.01,3
20929,6.1839e+07,0,-0.31,0,3.4,3.76,3.76,0,0.01,3
20971,6.1849e+07,0,-0.31,0,3.4,3.76,3.76,0,0.01,3
21015,6.1859e+07,0,-0.31,0,3.4,3.76,3.76,0,0.01,3
21057,6.187e+07,0,-0.31,0,3.4,3.76,3.76,0,0.01,3
21099,6.188e+07,0,-0.31,0,3.4,3.76,3.76,0,0.01,3
21139,6.189e+07,0,-0.31,0,3.4,3.76,3.76,0,0.01,3
21183,6.1902e+07,0,-0.31,0,3.4,3.76,3.76,0,0.01,3
21223,6.1913e+07,0,-0.31,0,3.4,3.76,3.76,0,0.01,3
21265,6.1923e+07,0,-0.31,0,3.4,3.76,3.76,0,0.01,3
21305,6.1934e+07,0,-0.31,0,3.4,3.76,3.77,0,0.01,3
21346,6.1944e+07,0,-0.31,0,3.4,3.76,3.77,0,0.01,3
21386,6.1954e+07,0,-0.31,0,3.4,3.76,3.76,0,0.01,3
21432,6.1964e+07,0,-0.31,0,3.4,3.76,3.77,0,0.01,3
21475,6.198e+07,0,-0.31,0,3.4,3.76,3.76,0,0.01,3
21515,6.199e+07,0,-0.31,0,3.4,3.76,3.76,0,0.01,3
21556,6.2001e+07,0,-0.31,0,3.4,3.76,3.76,0,0.01,3
21596,6.2012e+07,0,-0.31,0,3.4,3.76,3.77,0,0.01,3
21640,6.2022e+07,0,-0.31,0,3.4,3.76,3.77,0,0.01,3
21681,6.2032e+07,0,-0.31,0,3.4,3.76,3.77,0,0.01,3
21722,6.2042e+07,0,-0.31,0,3.4,3.76,3.77,0,0.01,3
21763,6.2053e+07,0,-0.31,0,3.4,3.76,3.77,0,0.01,3
21807,6.2064e+07,0,-0.31,0,3.4,3.76,3.77,0,0.01,3
21848,6.2074e+07,0,-0.31,0,3.4,3.77,3.77,0,0.01,3
21888,6.2084e+07,0,-0.31,0,3.41,3.77,3.77,0,0.01,3
21933,6.2096e+07,0,-0.31,0,3.41,3.77,3.77,0,0.01,3
21977,6.2109e+07,0,-0.31,0,3.41,3.77,3.77,0,0.01,3
22019,6.2119e+07,0,-0.31,0,3.41,3.77,3.77,0,0.01,3
22059,6.213e+07,0,-0.31,0,3.41,3.77,3.77,0,0.01,3
22100,6.2141e+07,0,-0.31,0,3.41,3.77,3.77,0,0.01,3
22142,6.2151e+07,0,-0.31,0,3.41,3.77,3.77,0,0.01,3
22182,6.2162e+07,0,-0.31,0,3.41,3.77,3.77,0,0.01,3
22227,6.2172e+07,0,-0.31,0,3.41,3.77,3.77,0,0,3
22269,6.2182e+07,0,-0.31,0,3.41,3.77,3.77,0,0,3
22303,6.2193e+07,0,-0.31,0,3.41,3.77,3.77,0,0,3
22344,6.2203e+07,0,-0.31,0,3.41,3.77,3.77,0,0,3
22388,6.2217e+07,0,-0.31,0,3.41,3.77,3.77,0,0,3
22429,6.2227e+07,0,-0.31,0,3.41,3.77,3.77,0,0,3
22471,6.2238e+07,0,-0.31,0,3.41,3.77,3.77,0,0,3
22511,6.2248e+07,0,-0.31,0,3.41,3.77,3.77,0,0,3
22552,6.2258e+07,0,-0.31,0,3.41,3.77,3.77,0,0,3
22597,6.2268e+07,0,-0.31,0,3.41,3.77,3.78,0,0,3
22637,6.2279e+07,0,-0.3,0,3.41,3.77,3.78,0,0,3
22679,6.2289e+07,0,-0.3,0,3.41,3.77,3.78,0,0,3
22719,6.2299e+07,0,-0.3,0,3.41,3.77,3.78,0,0,3
22760,6.2309e+07,0,-0.3,0,3.41,3.77,3.78,0,0,3
22797,6.232e+07,0,-0.3,0,3.41,3.77,3.78,0,0,3
22838,6.233e+07,0,-0.3,0,3.41,3.77,3.78,0,0,3
22881,6.234e+07,0,-0.31,0,3.41,3.77,3.78,0,0,3
22921,6.235e+07,0,-0.31,0,3.41,3.77,3.78,0,0,3
22962,6.2361e+07,0,-0.31,0,3.41,3.77,3.78,0,0,3
23008,6.2371e+07,0,-0.31,0,3.41,3.77,3.77,0,0,3
23049,6.2381e+07,0,-0.31,0,3.41,3.77,3.77,0,0,3
23085,6.2391e+07,0,-0.31,0,3.41,3.77,3.77,0,0,3
23126,6.2402e+07,0,-0.31,0,3.41,3.77,3.77,0,0,3
23169,6.2411e+07,0,-0.31,0,3.41,3.77,3.77,0,0,3
23206,6.2422e+07,0,-0.3,0,3.41,3.77,3.77,0,0,3
23247,6.2432e+07,0,-0.3,0,3.41,3.77,3.77,0,0,3
23289,6.2442e+07,0,-0.3,0,3.41,3.77,3.77,0,0,3
23329,6.2452e+07,0,-0.3,0,3.41,3.77,3.77,0,0,3
23372,6.2463e+07,0,-0.3,0,3.41,3.77,3.77,0,0,3
23416,6.2473e+07,0,-0.3,0,3.41,3.77,3.77,0,0,3
23457,6.2484e+07,0,-0.3,0,3.41,3.77,3.77,0,0,3
23498,6.2494e+07,0,-0.3,0,3.41,3.77,3.77,0,0,3
23538,6.2504e+07,0,-0.3,0,3.41,3.77,3.78,0,0,3
23582,6.2514e+07,0,-0.3,0,3.41,3.77,3.78,0,0,3
23625,6.2527e+07,0,-0.3,0,3.41,3.77,3.77,0,0,3
23666,6.2538e+07,0,-0.3,0,3.41,3.77,3.78,0,0,3
23707,6.2548e+07,0,-0.3,0,3.41,3.77,3.77,0,0,3
23748,6.2558e+07,0,-0.3,0,3.41,3.77,3.78,0,0,3
23789,6.2568e+07,0,-0.3,0,3.41,3.77,3.78,0,0,3
23833,6.2578e+07,0,-0.3,0,3.41,3.77,3.78,0,0.01,3
23877,6.2589e+07,0,-0.3,0,3.41,3.77,3.78,0,0.01,3
23917,6.2602e+07,0,-0.3,0,3.41,3.77,3.78,0,0.01,3
23957,6.2613e+07,0,-0.3,0,3.41,3.77,3.78,0,0.01,3
23998,6.2624e+07,0,-0.3,0,3.41,3.77,3.78,0,0.01,3
24038,6.2634e+07,0,-0.3,0,3.41,3.77,3.77,0,0.01,3
24078,6.2644e+07,0,-0.3,0,3.41,3.77,3.77,0,0.01,3
24121,6.2654e+07,0,-0.3,0,3.41,3.77,3.78,0,0.01,3
24162,6.2664e+07,0,-0.3,0,3.41,3.77,3.78,0,0.01,3
24202,6.2674e+07,0,-0.3,0,3.41,3.77,3.78,0,0.01,3
24249,6.2685e+07,0,-0.3,0,3.41,3.77,3.78,0,0,3
24290,6.2695e+07,0,-0.3,0,3.41,3.78,3.78,0,0,3
24331,6.2705e+07,0,-0.3,0,3.41,3.78,3.78,0,0,3
24371,6.2716e+07,0,-0.3,0,3.41,3.78,3.78,0,0,3
24413,6.2726e+07,0,-0.3,0,3.41,3.78,3.78,0,0,3
24454,6.2737e+07,0,-0.3,0,3.41,3.78,3.78,0,0,3
24494,6.2747e+07,0,-0.3,0,3.41,3.78,3.78,0,0,3
24536,6.2757e+07,0,-0.3,0,3.41,3.78,3.78,0,0,3
24577,6.2767e+07,0,-0.3,0,3.41,3.78,3.78,0,0,3
24619,6.2778e+07,0,-0.3,0,3.41,3.78,3.78,0,0,3
24661,6.2791e+07,0,-0.31,0,3.41,3.78,3.78,0,0,3
24701,6.2802e+07,0,-0.31,0,3.41,3.78,3.79,0,0,3
24742,6.2812e+07,0,-0.31,0,3.41,3.78,3.79,0,0,3
24783,6.2822e+07,0,-0.31,0,3.41,3.78,3.79,0,0,3
24824,6.2833e+07,0,-0.31,0,3.41,3.78,3.78,0,0,3
24864,6.2843e+07,0,-0.31,0,3.41,3.78,3.78,0,0,3
24905,6.2853e+07,0,-0.3,0,3.41,3.78,3.78,0,0,3
24946,6.2864e+07,0,-0.3,0,3.41,3.78,3.78,0,0,3
24989,6.2874e+07,0,-0.3,0,3.41,3.78,3.78,0,0,3
25030,6.2884e+07,0,-0.3,0,3.41,3.78,3.78,0,0,3
25074,6.2895e+07,0,-0.31,0,3.41,3.78,3.78,0,0.01,3
25115,6.2905e+07,0,-0.31,0,3.41,3.78,3.78,0,0.01,3
25156,6.2915e+07,0,-0.31,0,3.41,3.78,3.78,0,0.01,3
25197,6.2925e+07,0,-0.31,0,3.41,3.78,3.78,0,0.01,3
25238,6.2935e+07,0,-0.31,0,3.41,3.78,3.78,0,0.01,3
25278,6.2946e+07,0,-0.31,0,3.41,3.78,3.78,0,0.01,3
25318,6.2956e+07,0,-0.31,0,3.41,3.77,3.78,0,0.01,3
25359,6.2966e+07,0,-0.31,0,3.42,3.77,3.78,0,0.01,3
25402,6.2977e+07,0,-0.3,0,3.42,3.77,3.77,0,0.01,3
25445,6.2987e+07,0,-0.3,0,3.42,3.77,3.77,0,0.01,3
25483,6.2998e+07,0,-0.3,0,3.42,3.77,3.77,0,0,3
25526,6.3007e+07,0,-0.3,0,3.42,3.77,3.77,0,0,3
25566,6.3018e+07,0,-0.3,0,3.42,3.77,3.77,0,0,3
25613,6.3033e+07,0,-0.3,0,3.42,3.77,3.77,0,0,3
25655,6.3044e+07,0,-0.3,0,3.41,3.76,3.77,0,0,3
25696,6.3054e+07,0,-0.3,0,3.41,3.76,3.77,0,0,3
25736,6.3064e+07,0,-0.31,0,3.41,3.76,3.77,0,0,3
25778,6.3074e+07,0,-0.31,0,3.41,3.76,3.76,0,0,3
25819,6.3084e+07,0,-0.31,0,3.41,3.76,3.76,0,0,3
25864,6.3094e+07,0,-0.31,0,3.41,3.76,3.76,0,0.01,3
25905,6.3104e+07,0,-0.31,0,3.41,3.75,3.76,0,0.01,3
25945,6.3115e+07,0,-0.31,0,3.41,3.75,3.76,0,0.01,3
25986,6.3125e+07,0,-0.31,0,3.41,3.75,3.75,0,0.01,3
26026,6.3135e+07,0,-0.31,0,3.41,3.75,3.75,0,0.01,3
26068,6.3145e+07,0,-0.31,0,3.41,3.75,3.75,0,0.01,3
26108,6.3156e+07,0,-0.3,0,3.4,3.74,3.75,0,0.01,3
26149,6.3166e+07,0,-0.3,0,3.4,3.74,3.74,0,0.01,3
26191,6.3177e+07,0,-0.3,0,3.4,3.74,3.74,0,0.01,3
26233,6.3187e+07,0,-0.3,0,3.4,3.74,3.74,0,0.01,3
26272,6.3198e+07,0,-0.3,0,3.4,3.74,3.74,0,0.01,3
26312,6.3208e+07,0,-0.3,0,3.4,3.73,3.74,0,0.01,3
26354,6.3218e+07,0,-0.3,0,3.4,3.73,3.74,0,0.01,3
26394,6.3228e+07,0,-0.31,0,3.4,3.73,3.74,0,0.01,3
26435,6.3238e+07,0,-0.31,0,3.4,3.73,3.74,0,0.01,3
26475,6.3249e+07,0,-0.31,0,3.4,3.73,3.74,0,0.01,3
26516,6.3259e+07,0,-0.32,0,3.4,3.73,3.73,0,0.01,3
26557,6.3269e+07,0,-0.32,0,3.4,3.73,3.73,0,0.01,3
26599,6.3279e+07,0,-0.31,0,3.4,3.72,3.73,0,0.01,3
26640,6.3289e+07,0,-0.31,0,3.4,3.72,3.72,0,0.01,3
26684,6.3299e+07,0,-0.31,0,3.4,3.72,3.72,0,0.01,3
26726,6.331e+07,0,-0.31,0,3.39,3.72,3.72,0,0.01,3
26767,6.332e+07,0,-0.31,0,3.39,3.72,3.72,0,0.01,3
26807,6.333e+07,0,-0.31,0,3.39,3.71,3.72,0,0.01,3
26848,6.3341e+07,0,-0.31,0,3.39,3.71,3.72,0,0.01,3
26888,6.3351e+07,0,-0.31,0,3.39,3.71,3.72,0,0.01,3
26929,6.3361e+07,0,-0.31,0,3.39,3.71,3.72,0,0.01,3
26971,6.3372e+07,0,-0.31,0,3.39,3.71,3.71,0,0.01,3
27014,6.3388e+07,0,-0.32,0,3.39,3.71,3.71,0,0.01,3
27054,6.3398e+07,0,-0.32,0,3.39,3.71,3.71,0,0.01,3
27100,6.3408e+07,0,-0.32,0,3.39,3.71,3.71,0,0.01,3
27141,6.3418e+07,0,-0.32,0,3.39,3.71,3.71,0,0.01,3
27181,6.3428e+07,0,-0.32,0,3.39,3.71,3.71,0,0.01,3
27222,6.3438e+07,0,-0.32,0,3.4,3.71,3.71,0,0.01,3
27263,6.3449e+07,0,-0.32,0,3.4,3.71,3.71,0,0.01,3
27304,6.346e+07,0,-0.31,0,3.4,3.71,3.71,0,0.01,3
27344,6.347e+07,0,-0.31,0,3.4,3.71,3.71,0,0.01,3
27386,6.348e+07,0,-0.31,0,3.41,3.71,3.71,0,0.01,3
27427,6.349e+07,0,-0.31,0,3.41,3.71,3.71,0,0.01,3
27471,6.3501e+07,0,-0.3,0,3.41,3.71,3.71,0,0.01,3
27516,6.3511e+07,0,-0.31,0,3.42,3.71,3.71,0,0.01,3
27556,6.3522e+07,0,-0.31,0,3.42,3.71,3.71,0,0.01,3
27597,6.3532e+07,0,-0.31,0,3.42,3.71,3.72,0,0.01,3
27637,6.3542e+07,0,-0.31,0,3.42,3.71,3.72,0,0.01,3
27681,6.3555e+07,0,-0.31,0,3.42,3.71,3.72,0,0.01,3
27721,6.3565e+07,0,-0.31,0,3.42,3.71,3.72,0,0.01,3
27763,6.3575e+07,0,-0.31,0,3.42,3.71,3.72,0,0.01,3
27806,6.3588e+07,0,-0.31,0,3.42,3.71,3.72,0,0.01,3
27843,6.3599e+07,0,-0.31,0,3.42,3.71,3.72,0,0.01,3
27889,6.3609e+07,0,-0.31,0,3.42,3.71,3.72,0,0.01,3
27930,6.362e+07,0,-0.31,0,3.42,3.71,3.72,0,0.01,3
27971,6.363e+07,0,-0.3,0,3.42,3.71,3.72,0,0.01,3
28012,6.364e+07,0,-0.3,0,3.42,3.72,3.72,0,0.01,3
28055,6.3653e+07,0,-0.3,0,3.42,3.72,3.72,0,0.01,3
28096,6.3663e+07,0,-0.3,0,3.42,3.72,3.73,0,0.01,3
28137,6.3673e+07,0,-0.3,0,3.42,3.72,3.73,0,0.01,3
28177,6.3683e+07,0,-0.31,0,3.42,3.72,3.73,0,0.01,3
28219,6.3693e+07,0,-0.31,0,3.42,3.72,3.73,0,0.01,3
28260,6.3704e+07,0,-0.32,0,3.42,3.73,3.73,0,0.01,3
28307,6.3714e+07,0,-0.32,0,3.42,3.72,3.73,0,0.01,3
28348,6.3724e+07,0,-0.32,0,3.43,3.72,3.73,0,0.01,3
28388,6.3734e+07,0,-0.33,0,3.43,3.72,3.73,0,0.01,3
28429,6.3745e+07,0,-0.33,0,3.43,3.72,3.72,0,0.01,3
28467,6.3758e+07,0,-0.33,0,3.43,3.72,3.72,0,0.01,3
28507,6.3768e+07,0,-0.33,0,3.43,3.72,3.72,0,0.01,3
28548,6.3778e+07,0,-0.32,0,3.43,3.72,3.72,0,0.01,3
28587,6.3788e+07,0,-0.32,0,3.43,3.72,3.72,0,0.01,3
28625,6.3799e+07,0,-0.32,0,3.42,3.72,3.72,0,0.01,3
28666,6.3809e+07,0,-0.31,0,3.42,3.72,3.73,0,0.01,3
28712,6.3819e+07,0,-0.31,0,3.42,3.72,3.73,0,0.01,3
28752,6.3829e+07,0,-0.31,0,3.42,3.73,3.73,0,0.01,3
28793,6.384e+07,0,-0.31,0,3.42,3.73,3.73,0,0.01,3
28834,6.385e+07,0,-0.31,0,3.42,3.73,3.73,0,0.01,3
28874,6.386e+07,0,-0.31,0,3.42,3.73,3.73,0,0.01,3
28915,6.387e+07,0,-0.31,0,3.42,3.73,3.73,0,0.01,3
28956,6.388e+07,0,-0.32,0,3.41,3.73,3.73,0,0.01,3
28998,6.3891e+07,0,-0.32,0,3.41,3.73,3.73,0,0.01,3
29039,6.3901e+07,0,-0.32,0,3.41,3.73,3.73,0,0.01,3
29080,6.3911e+07,0,-0.32,0,3.4,3.73,3.73,0,0.01,3
29126,6.3922e+07,0,-0.31,0,3.4,3.72,3.73,0,0.01,3
29166,6.3932e+07,0,-0.31,0,3.4,3.72,3.73,0,0.01,3
29208,6.3942e+07,0,-0.31,0,3.4,3.72,3.73,0,0.01,3
29248,6.3952e+07,0,-0.31,0,3.41,3.72,3.73,0,0.01,3
29289,6.3963e+07,0,-0.31,0,3.41,3.73,3.73,0,0.01,3
29328,6.3977e+07,0,-0.3,0,3.41,3.73,3.73,0,0.01,3
29369,6.3987e+07,0,-0.3,0,3.41,3.73,3.73,0,0.01,3
29412,6.3998e+07,0,-0.3,0,3.4,3.73,3.74,0,0.01,3
29453,6.4008e+07,0,-0.3,0,3.4,3.74,3.74,0,0.01,3
29499,6.4018e+07,0,-0.3,0,3.4,3.74,3.74,0,0.01,3
29540,6.4028e+07,0,-0.3,0,3.39,3.74,3.74,0,0.01,3
29580,6.4038e+07,0,-0.3,0,3.39,3.74,3.74,0,0.01,3
29621,6.4048e+07,0,-0.3,0,3.39,3.74,3.74,0,0.01,3
29662,6.4059e+07,0,-0.3,0,3.39,3.73,3.74,0,0.01,3
29703,6.4069e+07,0,-0.3,0,3.39,3.73,3.73,0,0.01,3
29743,6.4079e+07,0,-0.3,0,3.39,3.73,3.73,0,0.01,3
29784,6.409e+07,0,-0.3,0,3.39,3.73,3.73,0,0.01,3
29825,6.41e+07,0,-0.3,0,3.39,3.72,3.73,0,0.01,3
29866,6.4111e+07,0,-0.3,0,3.39,3.72,3.73,0,0.01,3
29911,6.4121e+07,0,-0.3,0,3.38,3.72,3.73,0,0.01,3
29951,6.4132e+07,0,-0.3,0,3.38,3.73,3.73,0,0,3
29992,6.4142e+07,0,-0.3,0,3.38,3.73,3.73,0,0,3
30033,6.4151e+07,0,-0.3,0,3.38,3.73,3.73,0,0,3
30077,6.4164e+07,0,-0.3,0,3.38,3.73,3.73,0,0,3
30119,6.4175e+07,0,-0.3,0,3.38,3.73,3.73,0,0,3
30155,6.4186e+07,0,-0.3,0,3.38,3.73,3.73,0,0,3
30195,6.4196e+07,0,-0.3,0,3.39,3.73,3.73,0,0,3
30236,6.4206e+07,0,-0.3,0,3.39,3.73,3.73,0,0,3
30276,6.4216e+07,0,-0.3,0,3.39,3.73,3.73,0,0,3
30322,6.4226e+07,0,-0.3,0,3.39,3.72,3.72,0,0.01,3
30363,6.4236e+07,0,-0.31,0,3.39,3.72,3.72,0,0.01,3
30403,6.4246e+07,0,-0.31,0,3.39,3.71,3.72,0,0.01,3
30445,6.4257e+07,0,-0.31,0,3.38,3.71,3.71,0,0.01,3
30491,6.4272e+07,0,-0.32,0,3.38,3.71,3.71,0,0.01,3
30533,6.4282e+07,0,-0.32,0,3.38,3.71,3.71,0,0.01,3
30573,6.4292e+07,0,-0.32,0,3.38,3.71,3.71,0,0.01,3
30614,6.4302e+07,0,-0.32,0,3.39,3.71,3.71,0,0.01,3
30654,6.4313e+07,0,-0.32,0,3.39,3.71,3.71,0,0.01,3
30695,6.4323e+07,0,-0.32,0,3.39,3.72,3.72,0,0.01,3
30740,6.4332e+07,0,-0.31,0,3.4,3.72,3.72,0,0.01,3
30780,6.4342e+07,0,-0.31,0,3.4,3.72,3.72,0,0.01,3
30822,6.4353e+07,0,-0.31,0,3.4,3.72,3.73,0,0.01,3
30862,6.4364e+07,0,-0.31,0,3.39,3.72,3.73,0,0.01,3
30904,6.4374e+07,0,-0.31,0,3.39,3.72,3.73,0,0.01,3
30946,6.4384e+07,0,-0.31,0,3.39,3.72,3.72,0,0.01,3
30981,6.4396e+07,0,-0.31,0,3.39,3.72,3.72,0,0.01,3
31022,6.4406e+07,0,-0.31,0,3.39,3.72,3.72,0,0.01,3
31064,6.4416e+07,0,-0.31,0,3.39,3.71,3.72,0,0.01,3
31104,6.4427e+07,0,-0.31,0,3.39,3.71,3.71,0,0.01,3
31149,6.4437e+07,0,-0.32,0,3.39,3.71,3.71,0,0,3
31189,6.4447e+07,0,-0.32,0,3.4,3.71,3.71,0,0,3
31232,6.4457e+07,0,-0.32,0,3.4,3.71,3.71,0,0,3
31272,6.4467e+07,0,-0.33,0,3.39,3.71,3.71,0,0,3
31313,6.4479e+07,0,-0.33,0,3.39,3.71,3.72,0,0,3
31356,6.4489e+07,0,-0.33,0,3.39,3.71,3.72,0,0,3
31398,6.4499e+07,0,-0.32,0,3.39,3.72,3.72,0,0,3
31439,6.4509e+07,0,-0.32,0,3.39,3.71,3.72,0,0,3
31479,6.4519e+07,0,-0.32,0,3.39,3.71,3.72,0,0,3
31520,6.453e+07,0,-0.32,0,3.39,3.71,3.72,0,0,3
31564,6.454e+07,0,-0.32,0,3.39,3.71,3.71,0,0.01,3
31605,6.455e+07,0,-0.32,0,3.39,3.71,3.71,0,0.01,3
31646,6.456e+07,0,-0.32,0,3.4,3.71,3.71,0,0.01,3
31687,6.4571e+07,0,-0.32,0,3.4,3.71,3.71,0,0.01,3
31728,6.4581e+07,0,-0.32,0,3.39,3.7,3.71,0,0.01,3
31767,6.4592e+07,0,-0.32,0,3.39,3.7,3.7,0,0.01,3
31804,6.4603e+07,0,-0.32,0,3.39,3.7,3.71,0,0.01,3
31845,6.4613e+07,0,-0.32,0,3.39,3.7,3.71,0,0.01,3
31886,6.4623e+07,0,-0.32,0,3.39,3.7,3.71,0,0.01,3
31926,6.4633e+07,0,-0.33,0,3.39,3.7,3.71,0,0.01,3
31972,6.4644e+07,0,-0.33,0,3.39,3.71,3.71,0,0.01,3
32012,6.4654e+07,0,-0.33,0,3.39,3.71,3.71,0,0.01,3
32053,6.4664e+07,0,-0.33,0,3.39,3.71,3.71,0,0.01,3
32093,6.4674e+07,0,-0.32,0,3.39,3.71,3.71,0,0.01,3
32135,6.4684e+07,0,-0.32,0,3.4,3.71,3.71,0,0.01,3
32177,6.4694e+07,0,-0.32,0,3.4,3.71,3.71,0,0.01,3
32217,6.4704e+07,0,-0.32,0,3.4,3.71,3.71,0,0.01,3
32258,6.4715e+07,0,-0.31,0,3.4,3.71,3.71,0,0.01,3
32298,6.4725e+07,0,-0.31,0,3.4,3.71,3.71,0,0.01,3
32339,6.4735e+07,0,-0.31,0,3.39,3.71,3.71,0,0.01,3
32385,6.4745e+07,0,-0.31,0,3.39,3.71,3.71,0,0,3
32426,6.4756e+07,0,-0.31,0,3.39,3.71,3.71,0,0,3
32468,6.4766e+07,0,-0.31,0,3.39,3.71,3.71,0,0,3
32510,6.4782e+07,0,-0.32,0,3.39,3.71,3.71,0,0,3
32552,6.4792e+07,0,-0.32,0,3.4,3.71,3.71,0,0,3
32596,6.4805e+07,0,-0.32,0,3.4,3.71,3.71,0,0,3
32638,6.4815e+07,0,-0.33,0,3.4,3.71,3.71,0,0,3
32679,6.4826e+07,0,-0.33,0,3.4,3.71,3.72,0,0,3
32720,6.4836e+07,0,-0.33,0,3.4,3.72,3.72,0,0,3
32764,6.4847e+07,0,-0.32,0,3.4,3.72,3.72,0,0.01,3
32805,6.4857e+07,0,-0.32,0,3.39,3.72,3.72,0,0.01,3
32847,6.4866e+07,0,-0.32,0,3.39,3.72,3.72,0,0.01,3
32888,6.4877e+07,0,-0.31,0,3.39,3.72,3.72,0,0.01,3
32929,6.4887e+07,0,-0.31,0,3.39,3.72,3.72,0,0.01,3
32969,6.4897e+07,0,-0.31,0,3.39,3.71,3.72,0,0.01,3
33010,6.4907e+07,0,-0.31,0,3.39,3.71,3.72,0,0.01,3
33050,6.4918e+07,0,-0.31,0,3.39,3.71,3.71,0,0.01,3
33091,6.4927e+07,0,-0.31,0,3.4,3.71,3.71,0,0.01,3
33134,6.4937e+07,0,-0.31,0,3.4,3.71,3.71,0,0.01,3
33178,6.4948e+07,0,-0.32,0,3.4,3.71,3.71,0,0.01,3
33219,6.4958e+07,0,-0.32,0,3.4,3.71,3.71,0,0.01,3
33259,6.4968e+07,0,-0.32,0,3.4,3.71,3.72,0,0.01,3
33302,6.4978e+07,0,-0.33,0,3.4,3.72,3.72,0,0.01,3
33338,6.4989e+07,0,-0.33,0,3.39,3.72,3.72,0,0.01,3
33380,6.5e+07,0,-0.33,0,3.39,3.72,3.72,0,0.01,3
33420,6.501e+07,0,-0.32,0,3.39,3.72,3.72,0,0.01,3
33461,6.502e+07,0,-0.32,0,3.39,3.72,3.72,0,0.01,3
33502,6.5031e+07,0,-0.32,0,3.39,3.72,3.72,0,0.01,3
33543,6.5041e+07,0,-0.32,0,3.4,3.72,3.72,0,0.01,3
33588,6.5052e+07,0,-0.31,0,3.4,3.72,3.72,0,0.01,3
33629,6.5061e+07,0,-0.31,0,3.4,3.72,3.72,0,0.01,3
33669,6.5071e+07,0,-0.31,0,3.4,3.72,3.72,0,0.01,3
33709,6.5082e+07,0,-0.31,0,3.39,3.72,3.72,0,0.01,3
33750,6.5092e+07,0,-0.31,0,3.39,3.72,3.72,0,0.01,3
33790,6.5102e+07,0,-0.31,0,3.39,3.72,3.72,0,0.01,3
33831,6.5112e+07,0,-0.32,0,3.39,3.72,3.72,0,0.01,3
33871,6.5123e+07,0,-0.32,0,3.39,3.72,3.72,0,0.01,3
33913,6.5134e+07,0,-0.32,0,3.39,3.72,3.72,0,0.01,3
33955,6.5144e+07,0,-0.32,0,3.39,3.72,3.72,0,0.01,3
33999,6.5154e+07,0,-0.32,0,3.39,3.72,3.72,0,0.01,3
34040,6.5164e+07,0,-0.32,0,3.39,3.71,3.72,0,0.01,3
34081,6.5174e+07,0,-0.32,0,3.39,3.72,3.72,0,0.01,3
34124,6.5191e+07,0,-0.32,0,3.39,3.72,3.72,0,0.01,3
34164,6.5201e+07,0,-0.32,0,3.39,3.71,3.72,0,0.01,3
34205,6.5212e+07,0,-0.31,0,3.39,3.71,3.72,0,0.01,3
34247,6.5222e+07,0,-0.31,0,3.39,3.71,3.71,0,0.01,3
34288,6.5232e+07,0,-0.31,0,3.39,3.71,3.71,0,0.01,3
34329,6.5243e+07,0,-0.31,0,3.39,3.71,3.71,0,0.01,3
34374,6.5253e+07,0,-0.31,0,3.39,3.71,3.71,0,0.01,3
34414,6.5263e+07,0,-0.31,0,3.4,3.71,3.71,0,0.01,3
34456,6.5274e+07,0,-0.31,0,3.4,3.7,3.71,0,0.01,3
34496,6.5284e+07,0,-0.31,0,3.4,3.7,3.71,0,0.01,3
34534,6.5295e+07,0,-0.31,0,3.4,3.7,3.7,0,0.01,3
34574,6.5305e+07,0,-0.32,0,3.4,3.7,3.7,0,0.01,3
34617,6.5315e+07,0,-0.32,0,3.4,3.7,3.71,0,0.01,3
34659,6.5325e+07,0,-0.32,0,3.4,3.7,3.7,0,0.01,3
34699,6.5335e+07,0,-0.32,0,3.4,3.7,3.7,0,0.01,3
34741,6.5346e+07,0,-0.32,0,3.4,3.7,3.7,0,0.01,3
34785,6.5356e+07,0,-0.32,0,3.4,3.7,3.7,0,0.01,3
34827,6.5367e+07,0,-0.31,0,3.4,3.7,3.7,0,0.01,3
34870,6.5377e+07,0,-0.31,0,3.41,3.69,3.7,0,0.01,3
34905,6.5387e+07,0,-0.31,0,3.41,3.69,3.69,0,0.01,3
34945,6.5397e+07,0,-0.31,0,3.41,3.69,3.69,0,0.01,3
34986,6.5407e+07,0,-0.31,0,3.41,3.69,3.69,0,0.01,3
35027,6.5418e+07,0,-0.31,0,3.41,3.69,3.69,0,0.01,3
35068,6.5428e+07,0,-0.31,0,3.41,3.69,3.69,0,0.01,3
35108,6.5438e+07,0,-0.31,0,3.41,3.69,3.69,0,0.01,3
35150,6.5449e+07,0,-0.31,0,3.41,3.69,3.69,0,0.01,3
35195,6.5459e+07,0,-0.31,0,3.41,3.69,3.69,0,0.01,3
35235,6.5469e+07,0,-0.32,0,3.41,3.69,3.69,0,0.01,3
35278,6.5479e+07,0,-0.32,0,3.41,3.69,3.69,0,0.01,3
35318,6.549e+07,0,-0.32,0,3.41,3.69,3.7,0,0.01,3
35362,6.5503e+07,0,-0.32,0,3.41,3.7,3.7,0,0.01,3
35403,6.5513e+07,0,-0.32,0,3.41,3.7,3.7,0,0.01,3
35444,6.5523e+07,0,-0.31,0,3.41,3.7,3.7,0,0.01,3
35485,6.5534e+07,0,-0.31,0,3.41,3.7,3.7,0,0.01,3
35526,6.5543e+07,0,-0.31,0,3.41,3.7,3.7,0,0.01,3
35567,6.5554e+07,0,-0.31,0,3.41,3.69,3.7,0,0.01,3
35613,6.5564e+07,0,-0.31,0,3.41,3.69,3.7,0,0.01,3
35659,6.5579e+07,0,-0.31,0,3.41,3.69,3.7,0,0.01,3
35696,6.5591e+07,0,-0.31,0,3.41,3.69,3.69,0,0.01,3
35737,6.5601e+07,0,-0.31,0,3.4,3.69,3.69,0,0.01,3
35778,6.5611e+07,0,-0.31,0,3.4,3.69,3.69,0,0.01,3
35818,6.5622e+07,0,-0.31,0,3.4,3.69,3.7,0,0.01,3
35860,6.5631e+07,0,-0.31,0,3.4,3.69,3.7,0,0.01,3
35900,6.5642e+07,0,-0.31,0,3.4,3.7,3.7,0,0.01,3
35940,6.5652e+07,0,-0.31,0,3.41,3.7,3.7,0,0.01,3
35981,6.5662e+07,0,-0.32,0,3.41,3.7,3.7,0,0.01,3
36026,6.5672e+07,0,-0.32,0,3.41,3.7,3.7,0,0.01,3
36066,6.5683e+07,0,-0.31,0,3.41,3.7,3.7,0,0.01,3
36106,6.5693e+07,0,-0.31,0,3.4,3.7,3.7,0,0.01,3
36148,6.5703e+07,0,-0.31,0,3.4,3.7,3.7,0,0.01,3
36188,6.5713e+07,0,-0.31,0,3.4,3.7,3.7,0,0.01,3
36228,6.5724e+07,0,-0.31,0,3.4,3.7,3.7,0,0.01,3
36268,6.5735e+07,0,-0.31,0,3.4,3.69,3.7,0,0.01,3
36309,6.5745e+07,0,-0.31,0,3.4,3.7,3.7,0,0.01,3
36351,6.5755e+07,0,-0.31,0,3.4,3.7,3.7,0,0.01,3
36392,6.5765e+07,0,-0.31,0,3.4,3.7,3.7,0,0.01,3
36439,6.5775e+07,0,-0.31,0,3.4,3.7,3.7,0,0.01,3
36478,6.5789e+07,0,-0.32,0,3.4,3.7,3.7,0,0.01,3
36519,6.5799e+07,0,-0.32,0,3.4,3.7,3.7,0,0.01,3
36561,6.5809e+07,0,-0.32,0,3.4,3.7,3.7,0,0.01,3
36601,6.582e+07,0,-0.32,0,3.4,3.7,3.71,0,0.01,3
36642,6.5831e+07,0,-0.32,0,3.4,3.7,3.71,0,0.01,3
36682,6.5841e+07,0,-0.32,0,3.4,3.7,3.71,0,0.01,3
36723,6.5851e+07,0,-0.32,0,3.4,3.7,3.71,0,0.01,3
36764,6.5861e+07,0,-0.32,0,3.4,3.7,3.71,0,0.01,3
36818,6.5875e+07,0,-0.31,0,3.4,3.71,3.71,0,0.01,3
36860,6.5885e+07,0,-0.31,0,3.4,3.73,3.71,0,0.01,3
36901,6.5895e+07,0,-0.31,0,3.4,3.78,3.71,0,0.01,3
36942,6.5905e+07,0,-0.31,0,3.4,3.86,3.71,0,0.01,3
36982,6.5916e+07,0,-0.31,0,3.4,3.97,3.71,0,0.01,3
37023,6.5926e+07,0,-0.31,0,3.4,4.11,3.71,0,0.01,3
37064,6.5936e+07,0,-0.31,0,3.4,4.27,3.71,0,0.01,3
37104,6.5946e+07,0,-0.32,0,3.4,4.46,3.71,0,0.01,3
37146,6.5956e+07,0,-0.32,0,3.4,4.68,3.71,0,0.01,3
37186,6.5967e+07,0,-0.32,0,3.4,4.93,3.71,0,0.01,3
37234,6.5977e+07,0,-0.33,0,3.4,5.21,3.71,0,0.01,3
37276,6.5987e+07,0,-0.33,0,3.4,5.51,3.71,0,0.01,3
37319,6.6003e+07,0,-0.33,0,3.4,5.84,3.71,0,0.01,3
37364,6.6013e+07,0,-0.32,0,3.4,6.2,3.71,0,0.01,3
37408,6.6024e+07,0,-0.32,0,3.4,6.59,3.71,0,0.01,3
37453,6.6035e+07,0,-0.32,0,3.4,7,3.71,0,0.01,3
37498,6.6045e+07,0,-0.32,0,3.4,7.44,3.71,0,0.01,3
37542,6.6055e+07,0,-0.31,0,3.4,7.91,3.71,0,0.01,3
37587,6.6065e+07,0,-0.31,0,3.4,8.41,3.72,0,0.01,3
37631,6.6076e+07,0,-0.31,0,3.4,8.94,3.72,0,0.01,3
37680,6.6086e+07,0,-0.31,0,3.4,9.49,3.72,0,0.01,3
37725,6.6096e+07,0,-0.32,0,3.4,10.08,3.72,0,0.01,3
37771,6.6106e+07,0,-0.32,0,3.4,10.69,3.72,0,0.01,3
37816,6.6116e+07,0,-0.32,0,3.4,11.33,3.72,0,0.01,3
37860,6.6127e+07,0,-0.32,0,3.4,11.99,3.71,0,0.01,3
37905,6.6137e+07,0,-0.32,0,3.41,12.69,3.71,0,0.01,3
37950,6.6147e+07,0,-0.32,0,3.41,13.41,3.71,0,0.01,3
37995,6.6157e+07,0,-0.32,0,3.41,14.16,3.71,0,0.01,3
38039,6.6168e+07,0,-0.32,0,3.41,14.94,3.71,0,0.01,3
38086,6.6177e+07,0,-0.32,0,3.4,15.74,3.71,0,0.01,3
38129,6.6188e+07,0,-0.31,0,3.4,16.15,3.71,0,0.01,3
38176,6.6198e+07,0,-0.31,0,3.4,17,3.71,0,0.01,3
38220,6.6208e+07,0,-0.31,0,3.4,17.88,3.71,0,0.01,3
38265,6.6218e+07,0,-0.31,0,3.4,18.78,3.71,0,0.01,3
38312,6.6231e+07,0,-0.31,0,3.41,19.95,3.72,0,0.01,3
38357,6.6241e+07,0,-0.31,0,3.41,20.91,3.71,0,0.01,3
38402,6.6252e+07,0,-0.31,0,3.41,21.91,3.71,0,0.01,3
38447,6.6262e+07,0,-0.31,0,3.41,22.93,3.71,0,0.01,3
38492,6.6272e+07,0,-0.32,0,3.41,23.98,3.71,0,0.01,3
38536,6.6282e+07,0,-0.32,0,3.41,25.06,3.71,0,0.01,3
38585,6.6292e+07,0,-0.32,0,3.41,26.16,3.71,0,0.04,3
38630,6.6302e+07,0,-0.32,0,3.41,27.3,3.71,0,0.04,3
38675,6.6313e+07,0,-0.32,0,3.41,28.46,3.71,0,0.04,3
38721,6.6323e+07,0,-0.32,0,3.41,29.65,3.71,0,0.04,3
38765,6.6333e+07,0,-0.32,0,3.41,30.69,3.71,0,0.04,3
38809,6.6343e+07,0,-0.32,0,3.41,30.7,3.71,0,0.04,3
38853,6.6353e+07,0,-0.31,0,3.41,30.71,3.72,0,0.04,3
38898,6.6363e+07,0,-0.31,0,3.41,30.72,3.72,0,0.04,3
38942,6.6373e+07,0,-0.31,0,3.41,30.73,3.73,0,0.04,3
38985,6.6384e+07,0,-0.31,0,3.41,30.74,3.73,0.01,0.04,3
39032,6.6395e+07,0,-0.31,0,3.41,30.75,3.74,0.01,0.03,3
39077,6.6405e+07,0,-0.31,0,3.41,30.76,3.74,0.01,0.03,3
39123,6.6415e+07,0,-0.32,0,3.41,30.78,3.75,0.01,0.03,3
39168,6.6426e+07,0,-0.32,0,3.41,30.79,3.75,0.01,0.03,3
39215,6.6438e+07,0,-0.32,0,3.41,30.8,3.75,0.01,0.03,3
39260,6.6449e+07,0,-0.32,0,3.41,30.81,3.76,0.01,0.03,3
39305,6.6459e+07,0,-0.33,0,3.41,30.82,3.76,0.01,0.03,3
39351,6.6469e+07,0,-0.33,0,3.41,30.83,3.76,0.01,0.03,3
39396,6.6479e+07,0,-0.33,0,3.41,30.84,3.77,0.01,0.03,3
39440,6.6489e+07,0,-0.32,0,3.41,30.85,3.77,0.01,0.03,3
39489,6.6499e+07,0,-0.32,0,3.41,30.86,3.78,0.01,0.03,3
39534,6.651e+07,0,-0.32,0,3.41,30.87,3.78,0.01,0.03,3
39579,6.652e+07,0,-0.32,0,3.41,30.89,3.78,0.01,0.03,3
39624,6.653e+07,0,-0.32,0,3.41,30.9,3.79,0.01,0.03,3
39668,6.654e+07,0,-0.31,0,3.41,30.9,3.79,0.01,0.03,3
39714,6.6551e+07,0,-0.31,0,3.41,30.91,3.79,0.01,0.03,3
39759,6.656e+07,0,-0.31,0,3.41,30.92,3.79,0.01,0.03,3
39803,6.6571e+07,0,-0.31,0,3.41,30.93,3.79,0.01,0.03,3
39851,6.6582e+07,0,-0.32,0,3.41,30.94,3.79,0.01,0.03,3
39892,6.6596e+07,0,-0.32,0,3.41,30.94,3.79,0.01,0.03,3
39941,6.6606e+07,0,-0.32,0,3.41,30.95,3.79,0.01,0.02,3
39986,6.6616e+07,0,-0.32,0,3.41,30.96,3.79,0.01,0.02,3
40035,6.6629e+07,0,-0.33,0,3.41,30.97,3.79,0.01,0.02,3
40080,6.6639e+07,0,-0.33,0,3.41,30.97,3.79,0.01,0.02,3
40124,6.665e+07,0,-0.33,0,3.41,30.97,3.79,0.01,0.02,3
40169,6.666e+07,0,-0.33,0,3.41,30.97,3.79,0.01,0.02,3
40213,6.667e+07,0,-0.32,0,3.41,30.97,3.79,0.01,0.02,3
40259,6.668e+07,0,-0.32,0,3.41,30.97,3.79,0.01,0.02,3
40304,6.669e+07,0,-0.32,0,3.41,30.97,3.79,0.01,0.02,3
40352,6.67e+07,0,-0.32,0,3.41,30.97,3.79,0.01,0.02,3
40397,6.6711e+07,0,-0.32,0,3.41,30.97,3.79,0.01,0.02,3
40441,6.6721e+07,0,-0.31,0,3.41,30.97,3.79,0.01,0.02,3
40488,6.6731e+07,0,-0.32,0,3.41,30.97,3.79,0.01,0.02,3
40532,6.6741e+07,0,-0.32,0,3.41,30.97,3.79,0.01,0.02,3
40577,6.6752e+07,0,-0.32,0,3.41,30.97,3.79,0.01,0.02,3
40621,6.6762e+07,0,-0.32,0,3.41,30.97,3.79,0.01,0.02,3
40665,6.6773e+07,0,-0.33,0,3.41,30.96,3.78,0.01,0.02,3
40710,6.6783e+07,0,-0.33,0,3.41,30.96,3.78,0.01,0.02,3
40753,6.6793e+07,0,-0.33,0,3.41,30.96,3.78,0.01,0.02,3
40802,6.6805e+07,0,-0.33,0,3.41,30.96,3.78,0.01,0.02,3
40847,6.6815e+07,0,-0.33,0,3.41,30.96,3.78,0.01,0.02,3
40891,6.6826e+07,0,-0.32,0,3.41,30.96,3.78,0.01,0.02,3
40937,6.6836e+07,0,-0.32,0,3.41,30.96,3.78,0.01,0.02,3
40981,6.6846e+07,0,-0.32,0,3.41,30.95,3.78,0.01,0.02,3
41026,6.6857e+07,0,-0.32,0,3.41,30.95,3.77,0.01,0.02,3
41071,6.6867e+07,0,-0.31,0,3.41,30.95,3.77,0.01,0.02,3
41116,6.6877e+07,0,-0.31,0,3.41,30.95,3.77,0.01,0.02,3
41162,6.6887e+07,0,-0.31,0,3.41,30.95,3.77,0.01,0.02,3
41206,6.6897e+07,0,-0.32,0,3.41,30.95,3.77,0.01,0.02,3
41257,6.6907e+07,0,-0.32,0,3.41,30.95,3.77,0.01,0.02,3
41301,6.6917e+07,0,-0.32,0,3.41,30.95,3.77,0.01,0.01,3
41346,6.6928e+07,0,-0.32,0,3.4,30.95,3.77,0.01,0.01,3
41390,6.6937e+07,0,-0.32,0,3.4,30.95,3.77,0.01,0.01,3
41435,6.6947e+07,0,-0.32,0,3.4,30.95,3.77,0.01,0.01,3
41478,6.6958e+07,0,-0.33,0,3.4,30.95,3.77,0.01,0.01,3
41527,6.697e+07,0,-0.33,0,3.4,30.95,3.77,0.01,0.01,3
41574,6.6983e+07,0,-0.33,0,3.4,30.95,3.77,0.01,0.01,3
41617,6.6994e+07,0,-0.32,0,3.4,30.94,3.77,0.01,0.01,3
41661,6.7004e+07,0,-0.32,0,3.4,30.94,3.77,0.01,0.01,3
41710,6.7014e+07,0,-0.32,0,3.4,30.94,3.77,0.01,0.01,3
41754,6.7025e+07,0,-0.31,0,3.4,30.94,3.77,0.01,0.01,3
41799,6.7035e+07,0,-0.31,0,3.4,30.94,3.77,0.01,0.01,3
41843,6.7046e+07,0,-0.31,0,3.4,30.94,3.77,0.01,0.01,3
41890,6.7056e+07,0,-0.31,0,3.4,30.94,3.77,0.01,0.01,3
41934,6.7066e+07,0,-0.31,0,3.4,30.94,3.76,0.01,0.01,3
41979,6.7076e+07,0,-0.31,0,3.4,30.94,3.76,0.01,0.01,3
42027,6.7089e+07,0,-0.32,0,3.4,30.94,3.76,0.01,0.01,3
42071,6.7099e+07,0,-0.32,0,3.4,30.94,3.76,0.01,0.01,3
42116,6.7109e+07,0,-0.32,0,3.4,30.94,3.76,0.01,0.01,3
42164,6.712e+07,0,-0.32,0,3.4,30.94,3.76,0.01,0.01,3
42209,6.713e+07,0,-0.32,0,3.4,30.94,3.76,0.01,0.01,3
42254,6.714e+07,0,-0.32,0,3.4,30.94,3.76,0.01,0.01,3
42298,6.7151e+07,0,-0.32,0,3.4,30.94,3.76,0.01,0.01,3
42344,6.7161e+07,0,-0.32,0,3.4,30.94,3.76,0.01,0.01,3
42389,6.7171e+07,0,-0.31,0,3.4,30.94,3.76,0.01,0.01,3
42435,6.7181e+07,0,-0.31,0,3.4,30.94,3.77,0.01,0.01,3
42473,6.7192e+07,0,-0.31,0,3.4,30.94,3.77,0.01,0.01,3
42518,6.7203e+07,0,-0.3,0,3.4,30.95,3.77,0.01,0.01,3
42564,6.7213e+07,0,-0.3,0,3.4,30.95,3.77,0.01,0.01,3
42612,6.7223e+07,0,-0.3,0,3.4,30.95,3.77,0.01,0.05,3
42657,6.7233e+07,0,-0.31,0,3.4,30.95,3.77,0.01,0.05,3
42701,6.7244e+07,0,-0.31,0,3.4,30.95,3.77,0.01,0.05,3
42746,6.7254e+07,0,-0.31,0,3.4,30.95,3.77,0.01,0.05,3
42790,6.7264e+07,0,-0.31,0,3.4,30.95,3.77,0.01,0.05,3
42835,6.7274e+07,0,-0.32,0,3.4,30.95,3.78,0.01,0.05,3
42879,6.7285e+07,0,-0.32,0,3.4,30.96,3.78,0.01,0.05,3
42923,6.7295e+07,0,-0.32,0,3.4,30.96,3.79,0.01,0.05,3
42969,6.7305e+07,0,-0.32,0,3.4,30.97,3.79,0.01,0.05,3
43014,6.7315e+07,0,-0.32,0,3.4,30.97,3.8,0.01,0.05,3
43063,6.7325e+07,0,-0.32,0,3.4,30.98,3.8,0.01,0.04,3
43107,6.7336e+07,0,-0.31,0,3.41,30.98,3.8,0.01,0.04,3
43152,6.7346e+07,0,-0.31,0,3.41,30.99,3.81,0.01,0.04,3
43197,6.7356e+07,0,-0.31,0,3.41,30.99,3.82,0.01,0.04,3
43238,6.7366e+07,0,-0.31,0,3.41,31,3.82,0.01,0.04,3
43285,6.7376e+07,0,-0.31,0,3.41,31,3.83,0.01,0.04,3
43331,6.7387e+07,0,-0.31,0,3.41,31.01,3.83,0.01,0.04,3
43370,6.7398e+07,0,-0.31,0,3.41,31.01,3.84,0.01,0.04,3
43416,6.7408e+07,0,-0.31,0,3.41,31.02,3.84,0.01,0.04,3
43461,6.7418e+07,0,-0.32,0,3.41,31.02,3.84,0.01,0.04,3
43510,6.7428e+07,0,-0.32,0,3.41,31.02,3.85,0.01,0.03,3
43555,6.7439e+07,0,-0.32,0,3.41,31.03,3.85,0.01,0.03,3
43600,6.7449e+07,0,-0.32,0,3.41,31.03,3.85,0.01,0.03,3
43646,6.7459e+07,0,-0.33,0,3.41,31.03,3.85,0.01,0.03,3
43690,6.7469e+07,0,-0.33,0,3.41,31.03,3.86,0.01,0.03,3
43735,6.748e+07,0,-0.32,0,3.41,31.04,3.86,0.01,0.03,3
43779,6.749e+07,0,-0.32,0,3.41,31.04,3.86,0.01,0.03,3
43825,6.7501e+07,0,-0.32,0,3.41,31.04,3.86,0.01,0.03,3
43871,6.7511e+07,0,-0.31,0,3.41,31.04,3.86,0.01,0.03,3
43915,6.7521e+07,0,-0.31,0,3.41,31.04,3.86,0.01,0.03,3
43964,6.7531e+07,0,-0.31,0,3.41,31.04,3.86,0.01,0.03,3
44008,6.7541e+07,0,-0.31,0,3.41,31.04,3.87,0.01,0.03,3
44053,6.7551e+07,0,-0.31,0,3.41,31.05,3.87,0.01,0.03,3
44097,6.7561e+07,0,-0.31,0,3.41,31.05,3.87,0.01,0.03,3
44144,6.7571e+07,0,-0.31,0,3.41,31.05,3.87,0.01,0.03,3
44182,6.7582e+07,0,-0.31,0,3.41,31.05,3.87,0.01,0.03,3
44227,6.7593e+07,0,-0.32,0,3.41,31.05,3.87,0.01,0.03,3
44272,6.7604e+07,0,-0.32,0,3.41,31.05,3.87,0.01,0.03,3
44318,6.7614e+07,0,-0.32,0,3.41,31.05,3.87,0.01,0.03,3
44364,6.7624e+07,0,-0.32,0,3.41,31.05,3.87,0.01,0.03,3
44413,6.7634e+07,0,-0.32,0,3.41,31.05,3.87,0.01,0.03,3
44458,6.7645e+07,0,-0.32,0,3.41,31.05,3.87,0.01,0.03,3
44502,6.7655e+07,0,-0.32,0,3.41,31.05,3.87,0.01,0.03,3
44547,6.7666e+07,0,-0.32,0,3.41,31.05,3.87,0.01,0.03,3
44591,6.7676e+07,0,-0.32,0,3.41,31.05,3.87,0.01,0.03,3
44636,6.7686e+07,0,-0.31,0,3.41,31.05,3.87,0.01,0.03,3
44682,6.7697e+07,0,-0.31,0,3.41,31.05,3.87,0.01,0.03,3
44726,6.7707e+07,0,-0.31,0,3.4,31.05,3.87,0.01,0.03,3
44772,6.7717e+07,0,-0.31,0,3.4,31.05,3.87,0.01,0.03,3
44816,6.7727e+07,0,-0.31,0,3.4,31.05,3.88,0.01,0.03,3
44865,6.7737e+07,0,-0.31,0,3.4,31.05,3.88,0.01,0.06,3
44909,6.7747e+07,0,-0.32,0,3.4,31.05,3.87,0.01,0.06,3
44955,6.7758e+07,0,-0.32,0,3.4,31.05,3.87,0.01,0.06,3
45000,6.7768e+07,0,-0.32,0,3.4,31.05,3.87,0.01,0.06,3
45049,6.7784e+07,0,-0.33,0,3.4,31.05,3.87,0.01,0.06,3
45094,6.7797e+07,0,-0.33,0,3.4,31.04,3.86,0.01,0.06,3
45139,6.7807e+07,0,-0.32,0,3.4,31.04,3.86,0.01,0.06,3
45183,6.7818e+07,0,-0.32,0,3.4,31.03,3.85,0.01,0.06,3
45232,6.7828e+07,0,-0.32,0,3.4,31.03,3.85,0.01,0.06,3
45280,6.7838e+07,0,-0.31,0,3.4,31.02,3.84,0.01,0.06,3
45326,6.7848e+07,0,-0.31,0,3.4,31.02,3.84,0.01,0.06,3
45371,6.7858e+07,0,-0.31,0,3.4,31.01,3.83,0.01,0.06,3
45415,6.7869e+07,0,-0.31,0,3.4,31.01,3.83,0.01,0.06,3
45461,6.7879e+07,0,-0.31,0,3.4,3.82,3.82,0.01,0.06,3
45505,6.789e+07,0,-0.31,0,3.4,3.81,3.82,0.01,0.06,3
45552,6.7901e+07,0,-0.31,0,3.4,3.81,3.81,0.01,0.06,3
45596,6.7911e+07,0,-0.32,0,3.4,3.81,3.81,0.01,0.06,3
45641,6.7921e+07,0,-0.32,0,3.4,3.8,3.8,0.01,0.06,3
45686,6.7931e+07,0,-0.32,0,3.4,3.8,3.8,0.01,0.06,3
45736,6.7941e+07,0,-0.31,0,3.4,3.79,3.8,0.01,0.05,3
45783,6.7951e+07,0,-0.32,0,3.41,3.79,3.79,0.01,0.05,3
45827,6.7961e+07,0,-0.33,0,3.41,3.79,3.79,0.01,0.05,3
45872,6.7971e+07,0,-0.33,0,3.4,3.79,3.79,0.01,0.05,3
45921,6.7984e+07,0,-0.32,0,3.39,3.79,3.79,0.01,0.05,3
45960,6.7996e+07,0,-0.32,0,3.39,3.79,3.79,0.01,0.05,3
46004,6.8006e+07,0,-0.3,0,3.4,3.78,3.79,0.01,0.05,3
46049,6.8017e+07,0,-0.3,0,3.4,3.78,3.79,0.01,0.05,3
46094,6.8027e+07,0,-0.31,0,3.4,3.78,3.78,0.01,0.05,3
46139,6.8037e+07,0,-0.31,0,3.4,3.78,3.78,0.01,0.05,3
46188,6.8047e+07,0,-0.3,0,3.41,3.78,3.78,0.01,0.04,3
46233,6.8057e+07,0,-0.3,0,3.4,3.78,3.78,0.01,0.04,3
46277,6.8067e+07,0,-0.3,0,3.4,3.78,3.78,0.01,0.04,3
46322,6.8077e+07,0,-0.31,0,3.4,3.78,3.78,0.01,0.04,3
46367,6.8088e+07,0,-0.31,0,3.4,3.78,3.78,0.01,0.04,3
46415,6.81e+07,0,-0.32,0,3.4,3.78,3.79,0.01,0.04,3
46460,6.8111e+07,0,-0.33,0,3.4,3.78,3.79,0.01,0.04,3
46504,6.8121e+07,0,-0.32,0,3.4,3.78,3.79,0.01,0.04,3
46549,6.8131e+07,0,-0.31,0,3.4,3.78,3.79,0.01,0.04,3
46597,6.8142e+07,0,-0.3,0,3.4,3.78,3.78,0.01,0.04,3
46644,6.8152e+07,0,-0.31,0,3.4,3.78,3.78,0.01,0.03,3
46688,6.8162e+07,0,-0.31,0,3.41,3.78,3.79,0.01,0.03,3
46735,6.8178e+07,0,-0.29,0,3.4,3.79,3.79,0.01,0.03,3
46783,6.8191e+07,0,-0.29,0,3.4,3.79,3.79,0.01,0.03,3
46828,6.8201e+07,0,-0.3,0,3.4,3.78,3.79,0.01,0.03,3
46873,6.8212e+07,0,-0.29,0,3.4,3.78,3.79,0.01,0.03,3
46918,6.8222e+07,0,-0.29,0,3.4,3.78,3.79,0.01,0.03,3
46963,6.8232e+07,0,-0.29,0,3.4,3.79,3.79,0.01,0.03,3
47007,6.8243e+07,0,-0.3,0,3.4,3.78,3.79,0.01,0.03,3
47056,6.8253e+07,0,-0.3,0,3.41,3.78,3.79,0.01,0.03,3
47102,6.8263e+07,0,-0.3,0,3.41,3.78,3.79,0.01,0.03,3
47147,6.8274e+07,0,-0.3,0,3.41,3.79,3.79,0.01,0.03,3
47192,6.8284e+07,0,-0.3,0,3.4,3.79,3.79,0.01,0.03,3
47236,6.8294e+07,0,-0.3,0,3.4,3.78,3.78,0.01,0.03,3
47281,6.8304e+07,0,-0.3,0,3.4,3.78,3.79,0.01,0.03,3
47325,6.8315e+07,0,-0.29,0,3.4,3.79,3.79,0.01,0.03,3
47370,6.8325e+07,0,-0.3,0,3.39,3.78,3.78,0.01,0.03,3
47414,6.8336e+07,0,-0.3,0,3.41,3.78,3.79,0.01,0.03,3
47460,6.8345e+07,0,-0.3,0,3.4,3.77,3.78,0.01,0.03,3
47509,6.8355e+07,0,-0.28,0,3.4,3.79,3.79,0.01,0.03,3
47554,6.8366e+07,0,-0.29,0,3.4,3.77,3.78,0.01,0.03,3
47604,6.8382e+07,0,-0.29,0,3.44,3.78,3.78,0.01,0.03,3
47645,6.8393e+07,0,-0.29,0,3.41,3.79,3.8,0.01,0.03,3
47691,6.8403e+07,0,-0.28,0,3.43,3.78,3.79,0.01,0.03,3
47735,6.8413e+07,0,-0.29,0,3.4,3.78,3.79,0.01,0.03,3
47781,6.8423e+07,0,-0.3,0,3.44,3.79,3.79,0.01,0.03,3
47825,6.8433e+07,0,-0.3,0,3.4,3.79,3.79,0.01,0.03,3
47872,6.8443e+07,0,-0.29,0,3.43,3.79,3.79,0.01,0.03,3
47921,6.8453e+07,0,-0.3,0,3.4,3.78,3.78,0.01,0.02,3
47966,6.8464e+07,0,-0.3,0,3.44,3.79,3.79,0.01,0.02,3
48011,6.8474e+07,0,-0.29,0,3.4,3.79,3.79,0.01,0.02,3
48055,6.8485e+07,0,-0.28,0,3.44,3.79,3.79,0.01,0.02,3
48101,6.8495e+07,0,-0.3,0,3.41,3.78,3.78,0.01,0.02,3
48145,6.8505e+07,0,-0.29,0,3.45,3.79,3.79,0.01,0.02,3
48190,6.8516e+07,0,-0.29,0,3.41,3.79,3.8,0.01,0.02,3
48236,6.8526e+07,0,-0.28,0,3.42,3.78,3.79,0.01,0.02,3
48280,6.8536e+07,0,-0.28,0,3.39,3.79,3.79,0.01,0.02,3
48325,6.8546e+07,0,-0.29,0,3.42,3.79,3.79,0.01,0.02,3
48373,6.8557e+07,0,-0.29,0,3.39,3.8,3.8,0.01,0.02,3
48419,6.8567e+07,0,-0.29,0,3.39,3.78,3.78,0.01,0.02,3
48463,6.8577e+07,0,-0.28,0,3.39,3.79,3.79,0.01,0.02,3
48510,6.8587e+07,0,-0.31,0,3.4,3.78,3.78,0.01,0.02,3
48549,6.8598e+07,0,-0.29,0,3.4,3.8,3.8,0.01,0.02,3
48593,6.8609e+07,0,-0.3,0,3.38,3.77,3.77,0.01,0.02,3
48638,6.8619e+07,0,-0.29,0,3.4,3.78,3.79,0.01,0.02,3
48682,6.8629e+07,0,-0.31,0,3.39,3.77,3.77,0.01,0.02,3
48727,6.864e+07,0,-0.29,0,3.42,3.8,3.8,0.01,0.02,3
48771,6.865e+07,0,-0.29,0,3.37,3.76,3.77,0.01,0.02,3
48821,6.866e+07,0,-0.27,0,3.42,3.78,3.79,0.01,0.02,3
48866,6.867e+07,0,-0.3,0,3.38,3.77,3.78,0.01,0.02,3
48911,6.8681e+07,0,-0.29,0,3.42,3.8,3.8,0.01,0.02,3
48957,6.8691e+07,0,-0.28,0,3.39,3.77,3.77,0.01,0.02,3
49001,6.8702e+07,0,-0.26,0,3.42,3.78,3.78,0.01,0.02,3
49046,6.8712e+07,0,-0.28,0,3.4,3.78,3.79,0.01,0.02,3
49090,6.8722e+07,0,-0.29,0,3.41,3.78,3.79,0.01,0.02,3
49136,6.8732e+07,0,-0.27,0,3.41,3.78,3.78,0.01,0.02,3
49181,6.8743e+07,0,-0.28,0,3.41,3.77,3.77,0.01,0.02,3
49225,6.8753e+07,0,-0.29,0,3.41,3.79,3.79,0.01,0.02,3
49274,6.8763e+07,0,-0.3,0,3.39,3.77,3.77,0.01,0.01,3
49318,6.8773e+07,0,-0.29,0,3.4,3.78,3.78,0.01,0.01,3
49364,6.8783e+07,0,-0.3,0,3.38,3.76,3.76,0.01,0.01,3
49410,6.8793e+07,0,-0.31,0,3.4,3.79,3.79,0.01,0.01,3
49449,6.8804e+07,0,-0.31,0,3.36,3.76,3.76,0.01,0.01,3
49494,6.8815e+07,0,-0.3,0,3.4,3.77,3.77,0.01,0.01,3
49541,6.8828e+07,0,-0.3,0,3.39,3.77,3.77,0.01,0.01,3
49586,6.8838e+07,0,-0.32,0,3.41,3.77,3.78,0.01,0.01,3
49630,6.8848e+07,0,-0.29,0,3.4,3.77,3.77,0.01,0.01,3
49677,6.8859e+07,0,-0.28,0,3.4,3.76,3.76,0.01,0.01,3
49726,6.8868e+07,0,-0.27,0,3.41,3.78,3.78,0.01,0.01,3
49770,6.8879e+07,0,-0.3,0,3.39,3.77,3.77,0.01,0.01,3
49815,6.8889e+07,0,-0.27,0,3.4,3.77,3.77,0.01,0.01,3
49859,6.8899e+07,0,-0.27,0,3.38,3.76,3.76,0.01,0.01,3
49905,6.8909e+07,0,-0.27,0,3.41,3.79,3.79,0.01,0.01,3
49949,6.8919e+07,0,-0.3,0,3.37,3.76,3.77,0.01,0.01,3
49998,6.8971e+07,0,-0.29,0,3.4,3.75,3.76,0.01,0.01,3
50047,6.8982e+07,0,-0.29,0,3.4,3.75,3.75,0.01,0.01,3
50086,6.8993e+07,0,-0.32,0,3.42,3.77,3.77,0.01,0.01,3
50130,6.9003e+07,0,-0.29,0,3.39,3.75,3.76,0.01,0.01,3
50175,6.9013e+07,0,-0.28,0,3.4,3.76,3.76,0.01,0.01,3
50219,6.9023e+07,0,-0.27,0,3.4,3.76,3.76,0.01,0.01,3
50264,6.9034e+07,0,-0.29,0,3.4,3.78,3.78,0.01,0.01,3
50309,6.9045e+07,0,-0.27,0,3.39,3.76,3.76,0.01,0.01,3
50353,6.9055e+07,0,-0.28,0,3.4,3.77,3.77,0.01,0.01,3
50398,6.9065e+07,0,-0.28,0,3.39,3.76,3.77,0.01,0.01,3
50448,6.9075e+07,0,-0.3,0,3.42,3.78,3.79,0.01,0.05,3
50493,6.9085e+07,0,-0.3,0,3.39,3.75,3.75,0.01,0.05,3
50537,6.9096e+07,0,-0.29,0,3.42,3.77,3.77,0.01,0.05,3
50585,6.9109e+07,0,-0.31,0,3.4,3.77,3.77,0.01,0.05,3
50633,6.9122e+07,0,-0.29,0,3.37,3.73,3.74,0.01,0.05,3
50678,6.9132e+07,0,-0.28,0,3.4,3.74,3.74,0.01,0.05,3
50723,6.9142e+07,0,-0.29,0,3.38,3.72,3.72,0.01,0.05,3
50768,6.9152e+07,0,-0.29,0,3.4,3.74,3.75,0.01,0.05,3
50812,6.9163e+07,0,-0.27,0,3.37,3.7,3.71,0.01,0.05,3
50862,6.9173e+07,0,-0.26,0,3.4,3.71,3.72,0.01,0.04,3
50909,6.9183e+07,0,-0.28,0,3.38,3.72,3.72,0.01,0.04,3
50948,6.9194e+07,0,-0.27,0,3.39,3.71,3.71,0.01,0.04,3
50993,6.9204e+07,0,-0.27,0,3.38,3.7,3.71,0.01,0.04,3
51037,6.9215e+07,0,-0.27,0,3.4,3.69,3.69,0.01,0.04,3
51082,6.9224e+07,0,-0.29,0,3.39,3.71,3.71,0.01,0.04,3
51126,6.9235e+07,0,-0.28,0,3.4,3.68,3.69,0.01,0.04,3
51171,6.9245e+07,0,-0.27,0,3.39,3.68,3.69,0.01,0.04,3
51215,6.9255e+07,0,-0.28,0,3.39,3.65,3.66,0.01,0.04,3
51260,6.9266e+07,0,-0.31,0,3.39,3.68,3.69,0.01,0.04,3
51311,6.9276e+07,0,-0.29,0,3.38,3.64,3.65,0.01,0.04,3
51355,6.9286e+07,0,-0.28,0,3.4,3.66,3.66,0.01,0.04,3
51400,6.9296e+07,0,-0.29,0,3.39,3.63,3.63,0.01,0.04,3
51444,6.9307e+07,0,-0.29,0,3.4,3.66,3.66,0.01,0.04,3
51489,6.9319e+07,0,-0.31,0,3.37,3.62,3.63,0.01,0.04,3
51534,6.933e+07,0,-0.28,0,3.41,3.63,3.63,0.01,0.04,3
51579,6.934e+07,0,-0.3,0,3.38,3.63,3.64,0.01,0.04,3
51624,6.935e+07,0,-0.28,0,3.4,3.64,3.64,0.01,0.04,3
51668,6.936e+07,0,-0.27,0,3.38,3.63,3.63,0.01,0.04,3
51713,6.937e+07,0,-0.26,0,3.4,3.62,3.62,0.01,0.04,3
