LineNo,TimeUS,DesRoll,Roll,DesPitch,Pitch,DesYaw,Yaw,ErrRP,ErrYaw,AEKF
989,56704789,0,-0.29,0,3.38,3.83,3.83,0,0.04,3
1453,56876368,0,-0.29,0,3.38,3.82,3.82,0,0.03,3
1471,56896316,0,-0.29,0,3.38,3.81,3.81,0,0.03,3
1513,56906355,0,-0.3,0,3.38,3.81,3.81,0,0.03,3
1553,56916595,0,-0.3,0,3.38,3.8,3.81,0,0.03,3
1598,56926868,0,-0.3,0,3.38,3.8,3.8,0,0.03,3
1639,56937285,0,-0.3,0,3.38,3.8,3.8,0,0.03,3
1679,56947063,0,-0.3,0,3.38,3.79,3.79,0,0.03,3
1721,56957134,0,-0.3,0,3.38,3.79,3.79,0,0.03,3
1767,56971268,0,-0.3,0,3.38,3.78,3.79,0,0.03,3
1807,56981790,0,-0.29,0,3.38,3.78,3.78,0,0.03,3
1849,56991851,0,-0.29,0,3.38,3.77,3.78,0,0.03,3
1889,57001718,0,-0.29,0,3.38,3.77,3.77,0,0.03,3
1930,57011935,0,-0.29,0,3.38,3.77,3.77,0,0.03,3
1970,57022509,0,-0.29,0,3.38,3.76,3.77,0,0.03,3
2015,57032636,0,-0.29,0,3.38,3.76,3.76,0,0.02,3
2056,57042916,0,-0.3,0,3.38,3.76,3.76,0,0.02,3
2097,57052864,0,-0.3,0,3.38,3.75,3.76,0,0.02,3
2144,57065554,0,-0.3,0,3.38,3.75,3.75,0,0.02,3
2184,57076319,0,-0.3,0,3.38,3.75,3.75,0,0.02,3
2225,57087118,0,-0.3,0,3.38,3.74,3.75,0,0.02,3
2265,57097347,0,-0.3,0,3.38,3.74,3.74,0,0.02,3
2307,57107436,0,-0.3,0,3.38,3.74,3.74,0,0.02,3
2348,57117274,0,-0.3,0,3.38,3.73,3.74,0,0.02,3
2388,57127302,0,-0.3,0,3.38,3.73,3.74,0,0.02,3
2433,57137808,0,-0.3,0,3.38,3.73,3.74,0,0.02,3
2473,57147916,0,-0.3,0,3.38,3.73,3.73,0,0.02,3
2515,57157637,0,-0.3,0,3.38,3.73,3.73,0,0.02,3
2556,57167648,0,-0.3,0,3.38,3.73,3.73,0,0.02,3
2592,57178999,0,-0.3,0,3.38,3.73,3.73,0,0.02,3
2634,57189212,0,-0.3,0,3.38,3.73,3.73,0,0.02,3
2674,57200301,0,-0.3,0,3.38,3.73,3.73,0,0.02,3
2716,57210850,0,-0.3,0,3.38,3.72,3.73,0,0.02,3
2756,57221357,0,-0.3,0,3.38,3.72,3.73,0,0.02,3
2797,57231555,0,-0.3,0,3.38,3.72,3.73,0,0.02,3
2844,57241844,0,-0.3,0,3.38,3.72,3.72,0,0.01,3
2885,57251865,0,-0.3,0,3.38,3.72,3.72,0,0.01,3
2926,57262295,0,-0.3,0,3.38,3.72,3.72,0,0.01,3
2970,57275805,0,-0.3,0,3.38,3.72,3.72,0,0.01,3
3011,57286404,0,-0.3,0,3.38,3.72,3.72,0,0.01,3
3051,57296721,0,-0.3,0,3.38,3.72,3.72,0,0.01,3
3093,57306522,0,-0.3,0,3.38,3.72,3.72,0,0.01,3
3134,57316913,0,-0.3,0,3.38,3.72,3.72,0,0.01,3
3174,57327301,0,-0.3,0,3.38,3.72,3.72,0,0.01,3
3219,57337439,0,-0.3,0,3.38,3.72,3.72,0,0.01,3
3260,57347875,0,-0.3,0,3.38,3.72,3.72,0,0.01,3
3301,57358388,0,-0.3,0,3.38,3.72,3.72,0,0.01,3
3343,57368867,0,-0.3,0,3.38,3.72,3.72,0,0.01,3
3384,57378688,0,-0.3,0,3.38,3.72,3.72,0,0.01,3
3424,57389385,0,-0.3,0,3.38,3.72,3.72,0,0.01,3
3465,57400268,0,-0.3,0,3.38,3.72,3.72,0,0.01,3
3506,57410349,0,-0.3,0,3.38,3.72,3.72,0,0.01,3
3548,57420299,0,-0.3,0,3.38,3.72,3.72,0,0.01,3
3588,57430286,0,-0.3,0,3.38,3.72,3.72,0,0.01,3
3633,57440892,0,-0.3,0,3.38,3.72,3.72,0,0.01,3
3674,57451726,0,-0.3,0,3.38,3.72,3.73,0,0.01,3
3715,57462345,0,-0.3,0,3.38,3.72,3.72,0,0.01,3
3756,57472528,0,-0.3,0,3.38,3.72,3.72,0,0.01,3
3796,57482937,0,-0.3,0,3.38,3.72,3.73,0,0.01,3
3837,57493113,0,-0.3,0,3.38,3.72,3.73,0,0.01,3
3878,57503116,0,-0.3,0,3.38,3.72,3.73,0,0.01,3
3919,57513406,0,-0.3,0,3.38,3.73,3.73,0,0.01,3
3959,57523389,0,-0.3,0,3.38,3.73,3.73,0,0.01,3
4000,57533859,0,-0.3,0,3.38,3.73,3.73,0,0.01,3
4047,57544565,0,-0.3,0,3.38,3.73,3.73,0,0.01,3
4090,57554954,0,-0.3,0,3.38,3.73,3.73,0,0.01,3
4131,57564930,0,-0.3,0,3.38,3.73,3.73,0,0.01,3
4173,57575606,0,-0.3,0,3.38,3.73,3.73,0,0.01,3
4215,57585811,0,-0.3,0,3.38,3.73,3.73,0,0.01,3
4255,57596210,0,-0.3,0,3.38,3.73,3.73,0,0.01,3
4296,57606406,0,-0.3,0,3.38,3.73,3.74,0,0.01,3
4336,57616671,0,-0.3,0,3.38,3.73,3.74,0,0.01,3
4377,57626593,0,-0.3,0,3.38,3.73,3.74,0,0.01,3
4419,57636949,0,-0.3,0,3.38,3.73,3.74,0,0.01,3
4463,57647560,0,-0.3,0,3.38,3.73,3.74,0,0.01,3
4504,57657828,0,-0.3,0,3.38,3.73,3.74,0,0.01,3
4544,57667554,0,-0.3,0,3.38,3.73,3.74,0,0.01,3
4585,57677596,0,-0.3,0,3.38,3.73,3.74,0,0.01,3
4629,57690515,0,-0.3,0,3.38,3.74,3.74,0,0.01,3
4670,57701367,0,-0.3,0,3.38,3.74,3.74,0,0.01,3
4707,57712388,0,-0.3,0,3.38,3.73,3.74,0,0.01,3
4747,57723113,0,-0.3,0,3.38,3.74,3.74,0,0.01,3
4787,57732953,0,-0.31,0,3.38,3.73,3.74,0,0.01,3
4830,57743034,0,-0.31,0,3.38,3.74,3.74,0,0.01,3
4874,57753534,0,-0.31,0,3.38,3.73,3.74,0,0.01,3
4915,57763940,0,-0.31,0,3.38,3.73,3.74,0,0.01,3
4955,57774499,0,-0.31,0,3.38,3.73,3.74,0,0.01,3
4998,57784523,0,-0.3,0,3.38,3.73,3.74,0,0.01,3
5036,57795408,0,-0.3,0,3.38,3.73,3.74,0,0.01,3
5076,57805563,0,-0.3,0,3.38,3.73,3.74,0,0.01,3
5117,57816005,0,-0.3,0,3.38,3.73,3.74,0,0.01,3
5158,57826260,0,-0.3,0,3.38,3.73,3.74,0,0.01,3
5199,57836385,0,-0.3,0,3.38,3.73,3.74,0,0.01,3
5240,57846796,0,-0.3,0,3.38,3.73,3.73,0,0.01,3
5285,57857277,0,-0.3,0,3.38,3.73,3.73,0,0.01,3
5327,57867283,0,-0.3,0,3.38,3.73,3.73,0,0.01,3
5367,57877344,0,-0.3,0,3.38,3.73,3.73,0,0.01,3
5409,57887131,0,-0.3,0,3.38,3.73,3.73,0,0.01,3
5449,57900180,0,-0.31,0,3.38,3.73,3.73,0,0.01,3
5490,57911027,0,-0.31,0,3.38,3.72,3.73,0,0.01,3
5531,57921012,0,-0.31,0,3.38,3.72,3.73,0,0.01,3
5571,57931070,0,-0.3,0,3.38,3.72,3.73,0,0.01,3
5612,57941097,0,-0.3,0,3.38,3.72,3.72,0,0.01,3
5653,57951046,0,-0.3,0,3.38,3.72,3.72,0,0.01,3
5698,57961373,0,-0.3,0,3.38,3.72,3.72,0,0.01,3
5740,57971704,0,-0.3,0,3.39,3.72,3.72,0,0.01,3
5780,57981437,0,-0.3,0,3.38,3.72,3.72,0,0.01,3
5823,57991878,0,-0.3,0,3.38,3.72,3.72,0,0.01,3
5861,58004900,0,-0.3,0,3.39,3.72,3.72,0,0.01,3
5901,58015830,0,-0.3,0,3.39,3.72,3.72,0,0.01,3
5942,58025926,0,-0.3,0,3.39,3.72,3.72,0,0.01,3
5983,58036068,0,-0.3,0,3.39,3.72,3.72,0,0.01,3
6026,58046306,0,-0.3,0,3.39,3.71,3.72,0,0.01,3
6067,58056147,0,-0.3,0,3.39,3.71,3.72,0,0.01,3
6111,58066560,0,-0.3,0,3.39,3.71,3.72,0,0.01,3
6153,58077011,0,-0.3,0,3.38,3.71,3.72,0,0.01,3
6194,58087049,0,-0.3,0,3.39,3.71,3.71,0,0.01,3
6234,58096858,0,-0.3,0,3.39,3.71,3.71,0,0.01,3
6273,58107515,0,-0.3,0,3.39,3.71,3.71,0,0.01,3
6313,58119977,0,-0.3,0,3.39,3.71,3.71,0,0.01,3
6354,58130825,0,-0.3,0,3.39,3.71,3.71,0,0.01,3
6395,58141084,0,-0.3,0,3.39,3.71,3.71,0,0.01,3
6436,58151181,0,-0.3,0,3.39,3.71,3.71,0,0.01,3
6481,58161382,0,-0.3,0,3.39,3.71,3.71,0,0.01,3
6523,58171502,0,-0.3,0,3.39,3.71,3.71,0,0.01,3
6565,58181545,0,-0.3,0,3.39,3.71,3.71,0,0.01,3
6606,58191530,0,-0.3,0,3.39,3.71,3.71,0,0.01,3
6647,58201619,0,-0.3,0,3.38,3.71,3.71,0,0.01,3
6685,58211970,0,-0.3,0,3.39,3.71,3.71,0,0.01,3
6725,58221949,0,-0.31,0,3.39,3.71,3.71,0,0.01,3
6766,58232430,0,-0.31,0,3.39,3.71,3.71,0,0.01,3
6807,58242598,0,-0.31,0,3.38,3.71,3.71,0,0.01,3
6848,58252552,0,-0.31,0,3.39,3.71,3.71,0,0.01,3
6893,58262950,0,-0.31,0,3.39,3.71,3.71,0,0.01,3
6933,58273414,0,-0.3,0,3.39,3.71,3.71,0,0.01,3
6975,58283626,0,-0.3,0,3.39,3.71,3.72,0,0.01,3
7015,58293837,0,-0.3,0,3.39,3.71,3.72,0,0.01,3
7053,58306633,0,-0.3,0,3.39,3.71,3.72,0,0.01,3
7096,58317158,0,-0.3,0,3.39,3.71,3.72,0,0.01,3
7136,58327027,0,-0.31,0,3.39,3.71,3.72,0,0.01,3
7177,58337637,0,-0.31,0,3.39,3.71,3.72,0,0.01,3
7217,58347868,0,-0.31,0,3.39,3.71,3.72,0,0.01,3
7258,58357550,0,-0.31,0,3.39,3.71,3.72,0,0.01,3
7303,58367533,0,-0.3,0,3.39,3.71,3.72,0,0.01,3
7346,58377621,0,-0.31,0,3.39,3.71,3.72,0,0.01,3
7387,58388052,0,-0.31,0,3.39,3.71,3.72,0,0.01,3
7428,58397988,0,-0.31,0,3.39,3.71,3.71,0,0.01,3
7471,58407887,0,-0.31,0,3.39,3.71,3.71,0,0.01,3
7505,58418872,0,-0.31,0,3.39,3.71,3.71,0,0.01,3
7545,58429519,0,-0.31,0,3.39,3.71,3.71,0,0.01,3
7586,58439818,0,-0.31,0,3.39,3.71,3.71,0,0.01,3
7627,58450142,0,-0.31,0,3.39,3.71,3.71,0,0.01,3
7667,58460404,0,-0.31,0,3.39,3.71,3.71,0,0.01,3
7713,58470281,0,-0.31,0,3.39,3.71,3.71,0,0.01,3
7754,58480426,0,-0.31,0,3.39,3.7,3.71,0,0.01,3
7794,58490627,0,-0.31,0,3.39,3.7,3.71,0,0.01,3
7835,58501245,0,-0.31,0,3.39,3.7,3.71,0,0.01,3
7876,58511615,0,-0.31,0,3.39,3.7,3.71,0,0.01,3
7914,58522081,0,-0.31,0,3.39,3.7,3.71,0,0.01,3
7956,58532387,0,-0.31,0,3.39,3.7,3.7,0,0.01,3
7998,58542664,0,-0.31,0,3.39,3.7,3.7,0,0.01,3
8039,58552619,0,-0.31,0,3.39,3.7,3.7,0,0.01,3
8079,58563111,0,-0.31,0,3.39,3.7,3.7,0,0.01,3
8126,58573340,0,-0.31,0,3.39,3.7,3.7,0,0,3
8170,58584022,0,-0.31,0,3.39,3.7,3.7,0,0,3
8210,58594499,0,-0.31,0,3.39,3.7,3.7,0,0,3
8251,58604567,0,-0.31,0,3.39,3.7,3.7,0,0,3
8291,58614797,0,-0.31,0,3.39,3.7,3.7,0,0,3
8329,58624938,0,-0.31,0,3.39,3.7,3.7,0,0,3
8370,58635347,0,-0.31,0,3.39,3.7,3.7,0,0,3
8412,58645934,0,-0.31,0,3.39,3.7,3.7,0,0,3
8452,58656462,0,-0.31,0,3.39,3.69,3.7,0,0,3
8493,58666587,0,-0.31,0,3.39,3.69,3.7,0,0,3
8538,58676396,0,-0.31,0,3.39,3.69,3.7,0,0,3
8578,58686800,0,-0.31,0,3.39,3.69,3.7,0,0,3
8619,58696900,0,-0.31,0,3.39,3.69,3.7,0,0,3
8660,58706896,0,-0.31,0,3.39,3.69,3.7,0,0,3
8704,58722371,0,-0.31,0,3.39,3.69,3.7,0,0,3
8745,58732549,0,-0.31,0,3.39,3.69,3.7,0,0,3
8785,58742959,0,-0.31,0,3.39,3.69,3.7,0,0,3
8827,58753380,0,-0.31,0,3.39,3.69,3.7,0,0,3
8868,58763825,0,-0.31,0,3.39,3.69,3.7,0,0,3
8911,58773605,0,-0.31,0,3.39,3.69,3.7,0,0,3
8955,58783502,0,-0.31,0,3.39,3.69,3.7,0,0.01,3
8996,58793432,0,-0.31,0,3.39,3.69,3.7,0,0.01,3
9037,58803884,0,-0.31,0,3.38,3.69,3.7,0,0.01,3
9078,58817235,0,-0.31,0,3.38,3.69,3.7,0,0.01,3
9120,58827415,0,-0.31,0,3.38,3.69,3.7,0,0.01,3
9161,58837848,0,-0.31,0,3.38,3.7,3.7,0,0.01,3
9203,58848032,0,-0.31,0,3.38,3.7,3.7,0,0.01,3
9243,58858180,0,-0.31,0,3.38,3.7,3.7,0,0.01,3
9284,58867929,0,-0.31,0,3.38,3.7,3.7,0,0.01,3
9329,58877971,0,-0.31,0,3.38,3.7,3.7,0,0.01,3
9369,58888263,0,-0.31,0,3.38,3.7,3.7,0,0,3
9410,58897687,0,-0.31,0,3.38,3.7,3.7,0,0,3
9450,58908297,0,-0.31,0,3.38,3.7,3.7,0,0,3
9491,58918408,0,-0.31,0,3.38,3.7,3.7,0,0,3
9532,58928720,0,-0.31,0,3.38,3.7,3.7,0,0,3
9572,58939158,0,-0.31,0,3.38,3.7,3.7,0,0,3
9615,58949528,0,-0.31,0,3.38,3.7,3.71,0,0,3
9655,58960035,0,-0.31,0,3.38,3.7,3.71,0,0,3
9696,58970533,0,-0.31,0,3.38,3.7,3.71,0,0,3
9744,58981510,0,-0.31,0,3.38,3.7,3.71,0,0,3
9784,58992029,0,-0.31,0,3.38,3.71,3.71,0,0,3
9825,59002561,0,-0.31,0,3.38,3.71,3.71,0,0,3
9866,59012593,0,-0.31,0,3.38,3.71,3.71,0,0,3
9907,59022565,0,-0.31,0,3.38,3.71,3.71,0,0,3
9948,59033402,0,-0.31,0,3.38,3.71,3.71,0,0,3
9990,59043985,0,-0.31,0,3.38,3.71,3.71,0,0,3
10031,59054399,0,-0.31,0,3.38,3.71,3.71,0,0,3
10071,59064720,0,-0.31,0,3.38,3.71,3.71,0,0,3
10112,59074609,0,-0.31,0,3.38,3.71,3.71,0,0,3
10157,59084585,0,-0.31,0,3.38,3.7,3.71,0,0,3
10198,59094882,0,-0.31,0,3.38,3.7,3.71,0,0,3
10238,59105313,0,-0.31,0,3.38,3.7,3.71,0,0,3
10279,59115070,0,-0.31,0,3.38,3.7,3.71,0,0,3
10320,59128557,0,-0.31,0,3.38,3.7,3.71,0,0,3
10360,59138425,0,-0.31,0,3.38,3.7,3.71,0,0,3
10401,59148921,0,-0.31,0,3.38,3.71,3.71,0,0,3
10441,59159548,0,-0.31,0,3.38,3.71,3.71,0,0,3
10482,59170295,0,-0.3,0,3.38,3.71,3.71,0,0,3
10524,59180835,0,-0.31,0,3.38,3.71,3.71,0,0,3
10569,59193950,0,-0.31,0,3.38,3.71,3.71,0,0,3
10610,59204379,0,-0.31,0,3.38,3.71,3.71,0,0,3
10653,59244634,0,-0.31,0,3.38,3.71,3.71,0,0,3
10694,59255372,0,-0.31,0,3.38,3.71,3.71,0,0,3
10734,59265661,0,-0.31,0,3.38,3.71,3.71,0,0,3
10775,59275429,0,-0.31,0,3.38,3.71,3.71,0,0,3
10815,59285353,0,-0.31,0,3.38,3.71,3.71,0,0,3
10860,59295517,0,-0.31,0,3.38,3.71,3.71,0,0,3
10900,59305634,0,-0.31,0,3.38,3.71,3.72,0,0,3
10942,59315833,0,-0.31,0,3.38,3.71,3.72,0,0,3
10984,59326379,0,-0.31,0,3.38,3.71,3.72,0,0,3
11022,59336389,0,-0.31,0,3.38,3.71,3.72,0,0,3
11063,59346413,0,-0.31,0,3.38,3.71,3.72,0,0,3
11104,59356546,0,-0.31,0,3.38,3.71,3.72,0,0,3
11145,59366908,0,-0.31,0,3.38,3.72,3.72,0,0,3
11186,59377335,0,-0.31,0,3.38,3.72,3.72,0,0,3
11228,59387505,0,-0.31,0,3.38,3.72,3.72,0,0,3
11271,59397522,0,-0.31,0,3.38,3.72,3.72,0,0.01,3
11312,59407648,0,-0.31,0,3.38,3.72,3.72,0,0.01,3
11353,59417511,0,-0.31,0,3.38,3.72,3.72,0,0.01,3
11394,59427879,0,-0.31,0,3.38,3.72,3.72,0,0.01,3
11434,59437615,0,-0.31,0,3.38,3.72,3.72,0,0.01,3
11472,59447919,0,-0.31,0,3.38,3.72,3.72,0,0.01,3
11517,59460594,0,-0.31,0,3.38,3.72,3.72,0,0.01,3
11558,59470512,0,-0.31,0,3.38,3.72,3.72,0,0.01,3
11599,59481091,0,-0.31,0,3.38,3.72,3.72,0,0.01,3
11639,59491112,0,-0.31,0,3.39,3.72,3.72,0,0.01,3
11684,59501050,0,-0.31,0,3.39,3.72,3.72,0,0.01,3
11724,59511533,0,-0.31,0,3.39,3.72,3.72,0,0.01,3
11764,59521629,0,-0.31,0,3.39,3.72,3.72,0,0.01,3
11805,59531865,0,-0.31,0,3.39,3.72,3.72,0,0.01,3
11847,59544517,0,-0.31,0,3.39,3.72,3.72,0,0.01,3
11888,59554909,0,-0.31,0,3.38,3.72,3.72,0,0.01,3
11931,59567354,0,-0.31,0,3.39,3.71,3.72,0,0.01,3
11972,59577785,0,-0.31,0,3.39,3.71,3.72,0,0.01,3
12014,59588011,0,-0.31,0,3.39,3.71,3.71,0,0.01,3
12058,59599108,0,-0.31,0,3.39,3.71,3.71,0,0.01,3
12098,59609410,0,-0.31,0,3.39,3.71,3.71,0,0.01,3
12140,59619853,0,-0.31,0,3.39,3.71,3.71,0,0.01,3
12181,59630400,0,-0.31,0,3.39,3.7,3.71,0,0.01,3
12221,59640798,0,-0.31,0,3.39,3.7,3.71,0,0.01,3
12259,59651007,0,-0.31,0,3.39,3.7,3.71,0,0.01,3
12302,59663674,0,-0.31,0,3.39,3.7,3.7,0,0.01,3
12343,59674030,0,-0.31,0,3.39,3.7,3.7,0,0.01,3
12385,59684030,0,-0.31,0,3.39,3.7,3.7,0,0.01,3
12425,59694130,0,-0.31,0,3.39,3.7,3.7,0,0.01,3
12470,59704324,0,-0.31,0,3.39,3.7,3.7,0,0.01,3
12510,59714012,0,-0.31,0,3.39,3.7,3.7,0,0.01,3
12552,59724425,0,-0.31,0,3.39,3.7,3.7,0,0.01,3
12592,59734873,0,-0.31,0,3.39,3.69,3.7,0,0.01,3
12634,59748125,0,-0.31,0,3.39,3.69,3.7,0,0.01,3
12675,59758858,0,-0.31,0,3.39,3.69,3.7,0,0.01,3
12715,59769251,0,-0.31,0,3.39,3.69,3.7,0,0.01,3
12755,59779425,0,-0.31,0,3.39,3.69,3.7,0,0.01,3
12792,59789273,0,-0.31,0,3.39,3.69,3.7,0,0.01,3
12833,59799815,0,-0.31,0,3.39,3.69,3.7,0,0.01,3
12879,59810308,0,-0.31,0,3.39,3.69,3.7,0,0,3
12919,59820574,0,-0.31,0,3.39,3.69,3.7,0,0,3
12961,59830375,0,-0.31,0,3.39,3.69,3.69,0,0,3
13001,59840646,0,-0.31,0,3.39,3.69,3.69,0,0,3
13044,59852657,0,-0.31,0,3.39,3.69,3.69,0,0,3
13084,59863329,0,-0.31,0,3.39,3.69,3.69,0,0,3
13125,59873391,0,-0.31,0,3.39,3.69,3.69,0,0,3
13166,59883655,0,-0.31,0,3.39,3.69,3.69,0,0,3
13206,59894093,0,-0.31,0,3.39,3.69,3.69,0,0,3
13247,59904289,0,-0.31,0,3.39,3.69,3.69,0,0,3
13291,59914504,0,-0.31,0,3.39,3.69,3.69,0,0,3
13332,59924561,0,-0.31,0,3.38,3.69,3.69,0,0,3
13373,59934640,0,-0.31,0,3.38,3.69,3.69,0,0,3
13414,59944927,0,-0.31,0,3.38,3.69,3.69,0,0,3
13458,59957381,0,-0.31,0,3.39,3.69,3.69,0,0,3
13499,59967786,0,-0.31,0,3.39,3.69,3.69,0,0,3
13543,59977885,0,-0.31,0,3.38,3.69,3.69,0,0,3
13581,59988344,0,-0.31,0,3.38,3.69,3.69,0,0,3
13621,59998410,0,-0.31,0,3.38,3.69,3.69,0,0,3
13669,60010705,0,-0.32,0,3.38,3.69,3.69,0,0,3
13710,60021041,0,-0.31,0,3.38,3.69,3.69,0,0,3
13751,60030596,0,-0.31,0,3.38,3.69,3.69,0,0,3
13795,60041259,0,-0.31,0,3.38,3.69,3.69,0,0,3
13835,60051270,0,-0.31,0,3.38,3.69,3.69,0,0,3
13873,60061437,0,-0.31,0,3.38,3.69,3.69,0,0,3
13914,60071421,0,-0.31,0,3.38,3.69,3.69,0,0,3
13954,60081373,0,-0.31,0,3.38,3.69,3.69,0,0,3
13996,60091572,0,-0.31,0,3.38,3.69,3.69,0,0,3
14036,60101950,0,-0.31,0,3.38,3.69,3.69,0,0,3
14081,60112109,0,-0.32,0,3.38,3.69,3.69,0,0.01,3
14121,60122435,0,-0.32,0,3.38,3.69,3.69,0,0.01,3
14162,60132923,0,-0.32,0,3.38,3.69,3.69,0,0.01,3
14205,60143376,0,-0.32,0,3.38,3.69,3.69,0,0.01,3
14242,60153700,0,-0.32,0,3.38,3.69,3.69,0,0.01,3
14285,60164125,0,-0.32,0,3.38,3.69,3.69,0,0.01,3
14322,60175107,0,-0.32,0,3.38,3.69,3.69,0,0.01,3
14362,60184859,0,-0.32,0,3.38,3.69,3.7,0,0.01,3
14404,60194632,0,-0.32,0,3.38,3.69,3.7,0,0.01,3
14444,60204885,0,-0.32,0,3.38,3.69,3.7,0,0.01,3
14489,60215421,0,-0.32,0,3.38,3.69,3.7,0,0.01,3
14529,60225878,0,-0.32,0,3.38,3.69,3.7,0,0.01,3
14570,60235899,0,-0.31,0,3.38,3.69,3.7,0,0.01,3
14610,60246094,0,-0.31,0,3.38,3.69,3.7,0,0.01,3
14651,60258841,0,-0.31,0,3.38,3.7,3.7,0,0.01,3
14693,60269143,0,-0.31,0,3.38,3.7,3.7,0,0.01,3
14734,60279251,0,-0.32,0,3.38,3.7,3.7,0,0.01,3
14775,60289634,0,-0.32,0,3.38,3.7,3.7,0,0.01,3
14815,60300400,0,-0.32,0,3.38,3.7,3.7,0,0.01,3
14858,60310360,0,-0.32,0,3.38,3.7,3.71,0,0.01,3
14903,60320829,0,-0.32,0,3.38,3.7,3.71,0,0.01,3
14944,60330637,0,-0.32,0,3.38,3.7,3.71,0,0.01,3
14985,60340749,0,-0.32,0,3.38,3.7,3.71,0,0.01,3
15028,60353262,0,-0.32,0,3.38,3.7,3.71,0,0.01,3
15069,60363886,0,-0.32,0,3.38,3.7,3.71,0,0.01,3
15110,60374395,0,-0.32,0,3.38,3.7,3.71,0,0.01,3
15153,60384567,0,-0.32,0,3.38,3.7,3.71,0,0.01,3
15192,60394928,0,-0.32,0,3.39,3.7,3.71,0,0.01,3
15233,60404914,0,-0.32,0,3.38,3.7,3.71,0,0.01,3
15275,60415381,0,-0.32,0,3.38,3.7,3.71,0,0.01,3
15319,60425421,0,-0.32,0,3.38,3.71,3.71,0,0.01,3
15360,60435811,0,-0.32,0,3.38,3.71,3.71,0,0.01,3
15401,60445540,0,-0.32,0,3.38,3.71,3.71,0,0.01,3
15441,60455899,0,-0.32,0,3.38,3.71,3.71,0,0.01,3
15478,60466343,0,-0.32,0,3.38,3.71,3.71,0,0.01,3
15519,60476614,0,-0.32,0,3.39,3.71,3.71,0,0.01,3
15560,60486718,0,-0.32,0,3.39,3.71,3.71,0,0.01,3
15601,60497070,0,-0.32,0,3.39,3.71,3.71,0,0.01,3
15642,60506598,0,-0.32,0,3.39,3.71,3.71,0,0.01,3
15683,60516640,0,-0.32,0,3.39,3.71,3.71,0,0.01,3
15728,60527021,0,-0.32,0,3.39,3.71,3.71,0,0.01,3
15771,60537528,0,-0.32,0,3.39,3.71,3.71,0,0.01,3
15811,60547503,0,-0.32,0,3.39,3.71,3.71,0,0.01,3
15852,60557402,0,-0.32,0,3.39,3.71,3.71,0,0.01,3
15890,60567560,0,-0.32,0,3.39,3.71,3.71,0,0.01,3
15931,60577699,0,-0.32,0,3.39,3.71,3.71,0,0.01,3
15971,60587863,0,-0.32,0,3.39,3.71,3.71,0,0.01,3
16013,60598286,0,-0.32,0,3.39,3.71,3.71,0,0.01,3
16054,60608194,0,-0.32,0,3.39,3.71,3.71,0,0.01,3
16103,60621624,0,-0.32,0,3.39,3.71,3.71,0,0.01,3
16145,60631861,0,-0.32,0,3.39,3.71,3.71,0,0.01,3
16186,60641904,0,-0.32,0,3.39,3.71,3.71,0,0.01,3
16227,60652101,0,-0.32,0,3.39,3.71,3.71,0,0.01,3
16271,60667141,0,-0.32,0,3.39,3.71,3.71,0,0.01,3
16311,60677603,0,-0.32,0,3.39,3.71,3.71,0,0.01,3
16352,60687656,0,-0.32,0,3.39,3.71,3.71,0,0.01,3
16394,60698310,0,-0.32,0,3.39,3.7,3.71,0,0.01,3
16435,60708331,0,-0.32,0,3.39,3.7,3.71,0,0.01,3
16475,60718547,0,-0.32,0,3.39,3.7,3.71,0,0.01,3
16520,60728386,0,-0.32,0,3.39,3.7,3.71,0,0.01,3
16561,60738270,0,-0.32,0,3.39,3.7,3.71,0,0.01,3
16602,60748352,0,-0.32,0,3.39,3.7,3.71,0,0.01,3
16643,60758583,0,-0.32,0,3.39,3.7,3.71,0,0.01,3
16683,60769341,0,-0.33,0,3.39,3.7,3.71,0,0.01,3
16726,60779607,0,-0.33,0,3.39,3.7,3.71,0,0.01,3
16763,60789523,0,-0.33,0,3.39,3.7,3.71,0,0.01,3
16804,60799944,0,-0.33,0,3.39,3.7,3.71,0,0.01,3
16847,60809899,0,-0.32,0,3.39,3.7,3.71,0,0.01,3
16887,60820303,0,-0.32,0,3.39,3.7,3.71,0,0.01,3
16932,60830593,0,-0.32,0,3.39,3.7,3.71,0,0.01,3
16972,60841247,0,-0.32,0,3.39,3.7,3.71,0,0.01,3
17013,60851288,0,-0.32,0,3.39,3.7,3.71,0,0.01,3
17054,60861353,0,-0.32,0,3.39,3.7,3.71,0,0.01,3
17092,60871107,0,-0.32,0,3.39,3.71,3.71,0,0.01,3
17137,60883679,0,-0.32,0,3.39,3.71,3.71,0,0.01,3
17178,60894381,0,-0.32,0,3.39,3.71,3.71,0,0.01,3
17219,60904542,0,-0.32,0,3.39,3.71,3.71,0,0.01,3
17260,60914826,0,-0.32,0,3.39,3.71,3.71,0,0.01,3
17301,60925069,0,-0.32,0,3.39,3.71,3.71,0,0.01,3
17347,60935107,0,-0.32,0,3.39,3.71,3.72,0,0.01,3
17387,60945539,0,-0.32,0,3.39,3.71,3.72,0,0.01,3
17428,60955853,0,-0.32,0,3.39,3.71,3.72,0,0.01,3
17465,60965613,0,-0.32,0,3.39,3.71,3.72,0,0.01,3
17512,60978881,0,-0.32,0,3.39,3.71,3.72,0,0.01,3
17550,60989349,0,-0.32,0,3.39,3.72,3.72,0,0.01,3
17591,60999634,0,-0.32,0,3.39,3.72,3.72,0,0.01,3
17632,61009347,0,-0.32,0,3.39,3.72,3.72,0,0.01,3
17672,61019427,0,-0.32,0,3.39,3.72,3.72,0,0.01,3
17720,61030098,0,-0.32,0,3.39,3.72,3.72,0,0.01,3
17761,61040550,0,-0.32,0,3.39,3.72,3.72,0,0.01,3
17802,61051065,0,-0.32,0,3.39,3.72,3.72,0,0.01,3
17842,61061670,0,-0.32,0,3.39,3.72,3.72,0,0.01,3
17885,61074281,0,-0.32,0,3.39,3.72,3.72,0,0.01,3
17926,61084901,0,-0.32,0,3.39,3.72,3.72,0,0.01,3
17966,61095275,0,-0.32,0,3.39,3.72,3.72,0,0.01,3
18008,61105532,0,-0.32,0,3.39,3.72,3.72,0,0.01,3
18049,61116040,0,-0.32,0,3.39,3.72,3.72,0,0.01,3
18089,61126122,0,-0.32,0,3.39,3.72,3.72,0,0.01,3
18135,61136148,0,-0.32,0,3.39,3.72,3.72,0,0.01,3
18175,61146461,0,-0.32,0,3.39,3.72,3.72,0,0.01,3
18217,61156930,0,-0.32,0,3.39,3.72,3.73,0,0.01,3
18257,61166875,0,-0.32,0,3.39,3.72,3.73,0,0.01,3
18298,61176964,0,-0.32,0,3.39,3.72,3.73,0,0.01,3
18340,61189586,0,-0.32,0,3.39,3.72,3.73,0,0.01,3
18377,61199899,0,-0.32,0,3.39,3.72,3.73,0,0.01,3
18419,61210263,0,-0.32,0,3.39,3.72,3.73,0,0.01,3
18459,61220036,0,-0.32,0,3.39,3.73,3.73,0,0.01,3
18500,61230102,0,-0.32,0,3.39,3.73,3.73,0,0.01,3
18547,61240540,0,-0.32,0,3.39,3.73,3.73,0,0.01,3
18587,61250933,0,-0.33,0,3.39,3.73,3.74,0,0.01,3
18628,61261424,0,-0.33,0,3.39,3.73,3.74,0,0.01,3
18668,61271631,0,-0.33,0,3.39,3.73,3.74,0,0.01,3
18709,61282072,0,-0.32,0,3.39,3.73,3.73,0,0.01,3
18750,61291975,0,-0.32,0,3.39,3.73,3.73,0,0.01,3
18791,61301899,0,-0.32,0,3.39,3.73,3.73,0,0.01,3
18832,61312328,0,-0.32,0,3.39,3.73,3.73,0,0.01,3
18872,61322533,0,-0.32,0,3.39,3.73,3.73,0,0.01,3
18913,61332635,0,-0.32,0,3.39,3.73,3.73,0,0.01,3
18959,61343277,0,-0.31,0,3.39,3.73,3.73,0,0.01,3
19000,61353308,0,-0.31,0,3.39,3.73,3.73,0,0.01,3
19042,61363720,0,-0.32,0,3.39,3.73,3.73,0,0.01,3
19082,61374369,0,-0.32,0,3.39,3.73,3.74,0,0.01,3
19123,61384640,0,-0.32,0,3.39,3.73,3.74,0,0.01,3
19162,61394847,0,-0.32,0,3.39,3.73,3.74,0,0.01,3
19200,61405400,0,-0.32,0,3.39,3.74,3.74,0,0.01,3
19242,61415788,0,-0.32,0,3.39,3.74,3.74,0,0.01,3
19282,61425584,0,-0.32,0,3.39,3.74,3.74,0,0.01,3
19323,61435850,0,-0.32,0,3.39,3.74,3.74,0,0.01,3
19367,61446396,0,-0.32,0,3.39,3.74,3.74,0,0.01,3
19408,61456334,0,-0.32,0,3.39,3.74,3.74,0,0.01,3
19450,61466882,0,-0.32,0,3.39,3.74,3.74,0,0.01,3
19491,61477626,0,-0.31,0,3.39,3.74,3.74,0,0.01,3
19532,61488500,0,-0.31,0,3.39,3.74,3.74,0,0.01,3
19572,61498549,0,-0.31,0,3.39,3.74,3.74,0,0.01,3
19613,61508928,0,-0.31,0,3.39,3.74,3.74,0,0.01,3
19654,61519347,0,-0.32,0,3.39,3.74,3.74,0,0.01,3
19697,61529653,0,-0.32,0,3.39,3.74,3.75,0,0.01,3
19738,61539906,0,-0.32,0,3.4,3.74,3.75,0,0.01,3
19782,61550222,0,-0.32,0,3.4,3.74,3.75,0,0.01,3
19824,61560062,0,-0.32,0,3.4,3.75,3.75,0,0.01,3
19864,61570234,0,-0.32,0,3.4,3.75,3.75,0,0.01,3
19908,61580160,0,-0.32,0,3.4,3.75,3.75,0,0.01,3
19942,61591865,0,-0.32,0,3.4,3.75,3.75,0,0.01,3
19982,61601945,0,-0.32,0,3.4,3.75,3.75,0,0.01,3
20023,61612614,0,-0.32,0,3.4,3.75,3.75,0,0.01,3
20064,61623322,0,-0.31,0,3.4,3.75,3.75,0,0.01,3
20104,61633387,0,-0.31,0,3.4,3.75,3.75,0,0.01,3
20145,61643670,0,-0.31,0,3.4,3.75,3.75,0,0.01,3
20192,61653873,0,-0.31,0,3.4,3.75,3.75,0,0.01,3
20235,61664526,0,-0.31,0,3.4,3.75,3.75,0,0.01,3
20276,61674577,0,-0.31,0,3.4,3.75,3.75,0,0.01,3
20316,61684612,0,-0.31,0,3.4,3.75,3.76,0,0.01,3
20357,61694593,0,-0.31,0,3.4,3.75,3.76,0,0.01,3
20397,61704409,0,-0.31,0,3.4,3.75,3.76,0,0.01,3
20439,61714881,0,-0.31,0,3.4,3.76,3.76,0,0.01,3
20479,61725427,0,-0.31,0,3.4,3.76,3.76,0,0.01,3
20520,61735426,0,-0.32,0,3.4,3.76,3.76,0,0.01,3
20561,61745582,0,-0.32,0,3.4,3.76,3.76,0,0.01,3
20606,61755361,0,-0.32,0,3.4,3.76,3.76,0,0.01,3
20647,61765899,0,-0.31,0,3.4,3.76,3.76,0,0.01,3
20688,61776360,0,-0.31,0,3.4,3.76,3.76,0,0.01,3
20731,61786436,0,-0.31,0,3.4,3.76,3.76,0,0.01,3
20766,61798414,0,-0.31,0,3.4,3.76,3.76,0,0.01,3
20806,61808292,0,-0.31,0,3.4,3.76,3.76,0,0.01,3
20848,61818342,0,-0.31,0,3.4,3.76,3.76,0,0.01,3
20889,61828583,0,-0.31,0,3.4,3.76,3.76,0,0.01,3
20929,61839217,0,-0.31,0,3.4,3.76,3.76,0,0.01,3
20971,61849131,0,-0.31,0,3.4,3.76,3.76,0,0.01,3
21015,61859403,0,-0.31,0,3.4,3.76,3.76,0,0.01,3
21057,61869606,0,-0.31,0,3.4,3.76,3.76,0,0.01,3
21099,61879605,0,-0.31,0,3.4,3.76,3.76,0,0.01,3
21139,61889647,0,-0.31,0,3.4,3.76,3.76,0,0.01,3
21183,61902093,0,-0.31,0,3.4,3.76,3.76,0,0.01,3
21223,61912577,0,-0.31,0,3.4,3.76,3.76,0,0.01,3
21265,61923266,0,-0.31,0,3.4,3.76,3.76,0,0.01,3
21305,61933660,0,-0.31,0,3.4,3.76,3.77,0,0.01,3
21346,61943895,0,-0.31,0,3.4,3.76,3.77,0,0.01,3
21386,61953891,0,-0.31,0,3.4,3.76,3.76,0,0.01,3
21432,61963930,0,-0.31,0,3.4,3.76,3.77,0,0.01,3
21475,61979807,0,-0.31,0,3.4,3.76,3.76,0,0.01,3
21515,61990404,0,-0.31,0,3.4,3.76,3.76,0,0.01,3
21556,62001384,0,-0.31,0,3.4,3.76,3.76,0,0.01,3
21596,62011524,0,-0.31,0,3.4,3.76,3.77,0,0.01,3
21640,62021909,0,-0.31,0,3.4,3.76,3.77,0,0.01,3
21681,62032333,0,-0.31,0,3.4,3.76,3.77,0,0.01,3
21722,62042359,0,-0.31,0,3.4,3.76,3.77,0,0.01,3
21763,62052972,0,-0.31,0,3.4,3.76,3.77,0,0.01,3
21807,62063588,0,-0.31,0,3.4,3.76,3.77,0,0.01,3
21848,62073983,0,-0.31,0,3.4,3.77,3.77,0,0.01,3
21888,62084130,0,-0.31,0,3.41,3.77,3.77,0,0.01,3
21933,62096425,0,-0.31,0,3.41,3.77,3.77,0,0.01,3
21977,62109116,0,-0.31,0,3.41,3.77,3.77,0,0.01,3
22019,62119293,0,-0.31,0,3.41,3.77,3.77,0,0.01,3
22059,62129953,0,-0.31,0,3.41,3.77,3.77,0,0.01,3
22100,62140592,0,-0.31,0,3.41,3.77,3.77,0,0.01,3
22142,62151348,0,-0.31,0,3.41,3.77,3.77,0,0.01,3
22182,62161662,0,-0.31,0,3.41,3.77,3.77,0,0.01,3
22227,62171843,0,-0.31,0,3.41,3.77,3.77,0,0,3
22269,62181638,0,-0.31,0,3.41,3.77,3.77,0,0,3
22303,62192537,0,-0.31,0,3.41,3.77,3.77,0,0,3
22344,62203437,0,-0.31,0,3.41,3.77,3.77,0,0,3
22388,62217063,0,-0.31,0,3.41,3.77,3.77,0,0,3
22429,62227412,0,-0.31,0,3.41,3.77,3.77,0,0,3
22471,62237938,0,-0.31,0,3.41,3.77,3.77,0,0,3
22511,62247938,0,-0.31,0,3.41,3.77,3.77,0,0,3
22552,62258001,0,-0.31,0,3.41,3.77,3.77,0,0,3
22597,62268420,0,-0.31,0,3.41,3.77,3.78,0,0,3
22637,62278505,0,-0.3,0,3.41,3.77,3.78,0,0,3
22679,62288824,0,-0.3,0,3.41,3.77,3.78,0,0,3
22719,62298501,0,-0.3,0,3.41,3.77,3.78,0,0,3
22760,62308875,0,-0.3,0,3.41,3.77,3.78,0,0,3
22797,62319576,0,-0.3,0,3.41,3.77,3.78,0,0,3
22838,62329571,0,-0.3,0,3.41,3.77,3.78,0,0,3
22881,62339800,0,-0.31,0,3.41,3.77,3.78,0,0,3
22921,62350283,0,-0.31,0,3.41,3.77,3.78,0,0,3
22962,62360535,0,-0.31,0,3.41,3.77,3.78,0,0,3
23008,62370822,0,-0.31,0,3.41,3.77,3.77,0,0,3
23049,62380951,0,-0.31,0,3.41,3.77,3.77,0,0,3
23085,62391392,0,-0.31,0,3.41,3.77,3.77,0,0,3
23126,62401504,0,-0.31,0,3.41,3.77,3.77,0,0,3
23169,62411311,0,-0.31,0,3.41,3.77,3.77,0,0,3
23206,62421927,0,-0.3,0,3.41,3.77,3.77,0,0,3
23247,62431921,0,-0.3,0,3.41,3.77,3.77,0,0,3
23289,62442345,0,-0.3,0,3.41,3.77,3.77,0,0,3
23329,62452329,0,-0.3,0,3.41,3.77,3.77,0,0,3
23372,62462828,0,-0.3,0,3.41,3.77,3.77,0,0,3
23416,62473456,0,-0.3,0,3.41,3.77,3.77,0,0,3
23457,62483963,0,-0.3,0,3.41,3.77,3.77,0,0,3
23498,62494105,0,-0.3,0,3.41,3.77,3.77,0,0,3
23538,62504019,0,-0.3,0,3.41,3.77,3.78,0,0,3
23582,62514151,0,-0.3,0,3.41,3.77,3.78,0,0,3
23625,62527421,0,-0.3,0,3.41,3.77,3.77,0,0,3
23666,62537585,0,-0.3,0,3.41,3.77,3.78,0,0,3
23707,62547639,0,-0.3,0,3.41,3.77,3.77,0,0,3
23748,62558048,0,-0.3,0,3.41,3.77,3.78,0,0,3
23789,62568358,0,-0.3,0,3.41,3.77,3.78,0,0,3
23833,62578434,0,-0.3,0,3.41,3.77,3.78,0,0.01,3
23877,62588569,0,-0.3,0,3.41,3.77,3.78,0,0.01,3
23917,62601862,0,-0.3,0,3.41,3.77,3.78,0,0.01,3
23957,62612580,0,-0.3,0,3.41,3.77,3.78,0,0.01,3
23998,62623559,0,-0.3,0,3.41,3.77,3.78,0,0.01,3
24038,62633813,0,-0.3,0,3.41,3.77,3.77,0,0.01,3
24078,62643597,0,-0.3,0,3.41,3.77,3.77,0,0.01,3
24121,62653946,0,-0.3,0,3.41,3.77,3.78,0,0.01,3
24162,62664264,0,-0.3,0,3.41,3.77,3.78,0,0.01,3
24202,62674462,0,-0.3,0,3.41,3.77,3.78,0,0.01,3
24249,62684881,0,-0.3,0,3.41,3.77,3.78,0,0,3
24290,62694903,0,-0.3,0,3.41,3.78,3.78,0,0,3
24331,62704912,0,-0.3,0,3.41,3.78,3.78,0,0,3
24371,62715558,0,-0.3,0,3.41,3.78,3.78,0,0,3
24413,62726436,0,-0.3,0,3.41,3.78,3.78,0,0,3
24454,62737264,0,-0.3,0,3.41,3.78,3.78,0,0,3
24494,62746852,0,-0.3,0,3.41,3.78,3.78,0,0,3
24536,62756954,0,-0.3,0,3.41,3.78,3.78,0,0,3
24577,62767358,0,-0.3,0,3.41,3.78,3.78,0,0,3
24619,62777571,0,-0.3,0,3.41,3.78,3.78,0,0,3
24661,62791125,0,-0.31,0,3.41,3.78,3.78,0,0,3
24701,62801629,0,-0.31,0,3.41,3.78,3.79,0,0,3
24742,62811992,0,-0.31,0,3.41,3.78,3.79,0,0,3
24783,62822426,0,-0.31,0,3.41,3.78,3.79,0,0,3
24824,62832549,0,-0.31,0,3.41,3.78,3.78,0,0,3
24864,62843098,0,-0.31,0,3.41,3.78,3.78,0,0,3
24905,62853424,0,-0.3,0,3.41,3.78,3.78,0,0,3
24946,62863931,0,-0.3,0,3.41,3.78,3.78,0,0,3
24989,62874163,0,-0.3,0,3.41,3.78,3.78,0,0,3
25030,62884057,0,-0.3,0,3.41,3.78,3.78,0,0,3
25074,62894543,0,-0.31,0,3.41,3.78,3.78,0,0.01,3
25115,62904568,0,-0.31,0,3.41,3.78,3.78,0,0.01,3
25156,62915026,0,-0.31,0,3.41,3.78,3.78,0,0.01,3
25197,62925144,0,-0.31,0,3.41,3.78,3.78,0,0.01,3
25238,62935140,0,-0.31,0,3.41,3.78,3.78,0,0.01,3
25278,62945572,0,-0.31,0,3.41,3.78,3.78,0,0.01,3
25318,62955951,0,-0.31,0,3.41,3.77,3.78,0,0.01,3
25359,62966409,0,-0.31,0,3.42,3.77,3.78,0,0.01,3
25402,62976540,0,-0.3,0,3.42,3.77,3.77,0,0.01,3
25445,62986507,0,-0.3,0,3.42,3.77,3.77,0,0.01,3
25483,62997512,0,-0.3,0,3.42,3.77,3.77,0,0,3
25526,63007349,0,-0.3,0,3.42,3.77,3.77,0,0,3
25566,63017724,0,-0.3,0,3.42,3.77,3.77,0,0,3
25613,63033021,0,-0.3,0,3.42,3.77,3.77,0,0,3
25655,63043597,0,-0.3,0,3.41,3.76,3.77,0,0,3
25696,63054012,0,-0.3,0,3.41,3.76,3.77,0,0,3
25736,63064093,0,-0.31,0,3.41,3.76,3.77,0,0,3
25778,63074222,0,-0.31,0,3.41,3.76,3.76,0,0,3
25819,63083948,0,-0.31,0,3.41,3.76,3.76,0,0,3
25864,63094098,0,-0.31,0,3.41,3.76,3.76,0,0.01,3
25905,63104355,0,-0.31,0,3.41,3.75,3.76,0,0.01,3
25945,63114918,0,-0.31,0,3.41,3.75,3.76,0,0.01,3
25986,63124866,0,-0.31,0,3.41,3.75,3.75,0,0.01,3
26026,63135033,0,-0.31,0,3.41,3.75,3.75,0,0.01,3
26068,63145409,0,-0.31,0,3.41,3.75,3.75,0,0.01,3
26108,63155748,0,-0.3,0,3.4,3.74,3.75,0,0.01,3
26149,63166255,0,-0.3,0,3.4,3.74,3.74,0,0.01,3
26191,63176526,0,-0.3,0,3.4,3.74,3.74,0,0.01,3
26233,63186802,0,-0.3,0,3.4,3.74,3.74,0,0.01,3
26272,63197529,0,-0.3,0,3.4,3.74,3.74,0,0.01,3
26312,63207748,0,-0.3,0,3.4,3.73,3.74,0,0.01,3
26354,63217600,0,-0.3,0,3.4,3.73,3.74,0,0.01,3
26394,63228270,0,-0.31,0,3.4,3.73,3.74,0,0.01,3
26435,63238297,0,-0.31,0,3.4,3.73,3.74,0,0.01,3
26475,63248847,0,-0.31,0,3.4,3.73,3.74,0,0.01,3
26516,63258928,0,-0.32,0,3.4,3.73,3.73,0,0.01,3
26557,63268852,0,-0.32,0,3.4,3.73,3.73,0,0.01,3
26599,63278869,0,-0.31,0,3.4,3.72,3.73,0,0.01,3
26640,63288965,0,-0.31,0,3.4,3.72,3.72,0,0.01,3
26684,63299436,0,-0.31,0,3.4,3.72,3.72,0,0.01,3
26726,63310283,0,-0.31,0,3.39,3.72,3.72,0,0.01,3
26767,63320455,0,-0.31,0,3.39,3.72,3.72,0,0.01,3
26807,63330369,0,-0.31,0,3.39,3.71,3.72,0,0.01,3
26848,63340655,0,-0.31,0,3.39,3.71,3.72,0,0.01,3
26888,63350805,0,-0.31,0,3.39,3.71,3.72,0,0.01,3
26929,63360806,0,-0.31,0,3.39,3.71,3.72,0,0.01,3
26971,63371596,0,-0.31,0,3.39,3.71,3.71,0,0.01,3
27014,63387573,0,-0.32,0,3.39,3.71,3.71,0,0.01,3
27054,63397862,0,-0.32,0,3.39,3.71,3.71,0,0.01,3
27100,63407713,0,-0.32,0,3.39,3.71,3.71,0,0.01,3
27141,63417896,0,-0.32,0,3.39,3.71,3.71,0,0.01,3
27181,63428401,0,-0.32,0,3.39,3.71,3.71,0,0.01,3
27222,63438413,0,-0.32,0,3.4,3.71,3.71,0,0.01,3
27263,63448525,0,-0.32,0,3.4,3.71,3.71,0,0.01,3
27304,63459581,0,-0.31,0,3.4,3.71,3.71,0,0.01,3
27344,63469957,0,-0.31,0,3.4,3.71,3.71,0,0.01,3
27386,63480157,0,-0.31,0,3.41,3.71,3.71,0,0.01,3
27427,63490373,0,-0.31,0,3.41,3.71,3.71,0,0.01,3
27471,63500908,0,-0.3,0,3.41,3.71,3.71,0,0.01,3
27516,63511405,0,-0.31,0,3.42,3.71,3.71,0,0.01,3
27556,63521633,0,-0.31,0,3.42,3.71,3.71,0,0.01,3
27597,63531999,0,-0.31,0,3.42,3.71,3.72,0,0.01,3
27637,63541929,0,-0.31,0,3.42,3.71,3.72,0,0.01,3
27681,63554872,0,-0.31,0,3.42,3.71,3.72,0,0.01,3
27721,63565316,0,-0.31,0,3.42,3.71,3.72,0,0.01,3
27763,63575360,0,-0.31,0,3.42,3.71,3.72,0,0.01,3
27806,63587926,0,-0.31,0,3.42,3.71,3.72,0,0.01,3
27843,63598592,0,-0.31,0,3.42,3.71,3.72,0,0.01,3
27889,63609066,0,-0.31,0,3.42,3.71,3.72,0,0.01,3
27930,63619803,0,-0.31,0,3.42,3.71,3.72,0,0.01,3
27971,63630370,0,-0.3,0,3.42,3.71,3.72,0,0.01,3
28012,63640418,0,-0.3,0,3.42,3.72,3.72,0,0.01,3
28055,63652853,0,-0.3,0,3.42,3.72,3.72,0,0.01,3
28096,63663253,0,-0.3,0,3.42,3.72,3.73,0,0.01,3
28137,63672750,0,-0.3,0,3.42,3.72,3.73,0,0.01,3
28177,63682957,0,-0.31,0,3.42,3.72,3.73,0,0.01,3
28219,63693137,0,-0.31,0,3.42,3.72,3.73,0,0.01,3
28260,63703616,0,-0.32,0,3.42,3.73,3.73,0,0.01,3
28307,63713842,0,-0.32,0,3.42,3.72,3.73,0,0.01,3
28348,63724349,0,-0.32,0,3.43,3.72,3.73,0,0.01,3
28388,63734433,0,-0.33,0,3.43,3.72,3.73,0,0.01,3
28429,63744801,0,-0.33,0,3.43,3.72,3.72,0,0.01,3
28467,63757538,0,-0.33,0,3.43,3.72,3.72,0,0.01,3
28507,63768328,0,-0.33,0,3.43,3.72,3.72,0,0.01,3
28548,63778395,0,-0.32,0,3.43,3.72,3.72,0,0.01,3
28587,63788436,0,-0.32,0,3.43,3.72,3.72,0,0.01,3
28625,63798657,0,-0.32,0,3.42,3.72,3.72,0,0.01,3
28666,63808675,0,-0.31,0,3.42,3.72,3.73,0,0.01,3
28712,63819016,0,-0.31,0,3.42,3.72,3.73,0,0.01,3
28752,63829433,0,-0.31,0,3.42,3.73,3.73,0,0.01,3
28793,63840253,0,-0.31,0,3.42,3.73,3.73,0,0.01,3
28834,63850132,0,-0.31,0,3.42,3.73,3.73,0,0.01,3
28874,63860424,0,-0.31,0,3.42,3.73,3.73,0,0.01,3
28915,63870382,0,-0.31,0,3.42,3.73,3.73,0,0.01,3
28956,63880444,0,-0.32,0,3.41,3.73,3.73,0,0.01,3
28998,63890636,0,-0.32,0,3.41,3.73,3.73,0,0.01,3
29039,63901086,0,-0.32,0,3.41,3.73,3.73,0,0.01,3
29080,63911462,0,-0.32,0,3.4,3.73,3.73,0,0.01,3
29126,63921638,0,-0.31,0,3.4,3.72,3.73,0,0.01,3
29166,63931514,0,-0.31,0,3.4,3.72,3.73,0,0.01,3
29208,63941520,0,-0.31,0,3.4,3.72,3.73,0,0.01,3
29248,63952025,0,-0.31,0,3.41,3.72,3.73,0,0.01,3
29289,63962657,0,-0.31,0,3.41,3.73,3.73,0,0.01,3
29328,63976719,0,-0.3,0,3.41,3.73,3.73,0,0.01,3
29369,63987314,0,-0.3,0,3.41,3.73,3.73,0,0.01,3
29412,63997860,0,-0.3,0,3.4,3.73,3.74,0,0.01,3
29453,64008083,0,-0.3,0,3.4,3.74,3.74,0,0.01,3
29499,64018281,0,-0.3,0,3.4,3.74,3.74,0,0.01,3
29540,64027854,0,-0.3,0,3.39,3.74,3.74,0,0.01,3
29580,64037789,0,-0.3,0,3.39,3.74,3.74,0,0.01,3
29621,64048254,0,-0.3,0,3.39,3.74,3.74,0,0.01,3
29662,64058618,0,-0.3,0,3.39,3.73,3.74,0,0.01,3
29703,64068667,0,-0.3,0,3.39,3.73,3.73,0,0.01,3
29743,64079367,0,-0.3,0,3.39,3.73,3.73,0,0.01,3
29784,64089714,0,-0.3,0,3.39,3.73,3.73,0,0.01,3
29825,64100461,0,-0.3,0,3.39,3.72,3.73,0,0.01,3
29866,64110951,0,-0.3,0,3.39,3.72,3.73,0,0.01,3
29911,64121413,0,-0.3,0,3.38,3.72,3.73,0,0.01,3
29951,64131629,0,-0.3,0,3.38,3.73,3.73,0,0,3
29992,64141515,0,-0.3,0,3.38,3.73,3.73,0,0,3
30033,64151416,0,-0.3,0,3.38,3.73,3.73,0,0,3
30077,64163870,0,-0.3,0,3.38,3.73,3.73,0,0,3
30119,64174565,0,-0.3,0,3.38,3.73,3.73,0,0,3
30155,64185575,0,-0.3,0,3.38,3.73,3.73,0,0,3
30195,64195820,0,-0.3,0,3.39,3.73,3.73,0,0,3
30236,64205917,0,-0.3,0,3.39,3.73,3.73,0,0,3
30276,64216089,0,-0.3,0,3.39,3.73,3.73,0,0,3
30322,64226395,0,-0.3,0,3.39,3.72,3.72,0,0.01,3
30363,64236422,0,-0.31,0,3.39,3.72,3.72,0,0.01,3
30403,64246426,0,-0.31,0,3.39,3.71,3.72,0,0.01,3
30445,64256816,0,-0.31,0,3.38,3.71,3.71,0,0.01,3
30491,64271659,0,-0.32,0,3.38,3.71,3.71,0,0.01,3
30533,64282129,0,-0.32,0,3.38,3.71,3.71,0,0.01,3
30573,64292141,0,-0.32,0,3.38,3.71,3.71,0,0.01,3
30614,64302412,0,-0.32,0,3.39,3.71,3.71,0,0.01,3
30654,64312577,0,-0.32,0,3.39,3.71,3.71,0,0.01,3
30695,64322838,0,-0.32,0,3.39,3.72,3.72,0,0.01,3
30740,64332396,0,-0.31,0,3.4,3.72,3.72,0,0.01,3
30780,64342392,0,-0.31,0,3.4,3.72,3.72,0,0.01,3
30822,64352645,0,-0.31,0,3.4,3.72,3.73,0,0.01,3
30862,64363860,0,-0.31,0,3.39,3.72,3.73,0,0.01,3
30904,64374333,0,-0.31,0,3.39,3.72,3.73,0,0.01,3
30946,64384285,0,-0.31,0,3.39,3.72,3.72,0,0.01,3
30981,64395817,0,-0.31,0,3.39,3.72,3.72,0,0.01,3
31022,64405662,0,-0.31,0,3.39,3.72,3.72,0,0.01,3
31064,64416239,0,-0.31,0,3.39,3.71,3.72,0,0.01,3
31104,64426631,0,-0.31,0,3.39,3.71,3.71,0,0.01,3
31149,64437097,0,-0.32,0,3.39,3.71,3.71,0,0,3
31189,64447295,0,-0.32,0,3.4,3.71,3.71,0,0,3
31232,64457350,0,-0.32,0,3.4,3.71,3.71,0,0,3
31272,64467366,0,-0.33,0,3.39,3.71,3.71,0,0,3
31313,64478520,0,-0.33,0,3.39,3.71,3.72,0,0,3
31356,64488925,0,-0.33,0,3.39,3.71,3.72,0,0,3
31398,64499014,0,-0.32,0,3.39,3.72,3.72,0,0,3
31439,64508928,0,-0.32,0,3.39,3.71,3.72,0,0,3
31479,64519216,0,-0.32,0,3.39,3.71,3.72,0,0,3
31520,64529582,0,-0.32,0,3.39,3.71,3.72,0,0,3
31564,64540259,0,-0.32,0,3.39,3.71,3.71,0,0.01,3
31605,64550343,0,-0.32,0,3.39,3.71,3.71,0,0.01,3
31646,64560371,0,-0.32,0,3.4,3.71,3.71,0,0.01,3
31687,64570806,0,-0.32,0,3.4,3.71,3.71,0,0.01,3
31728,64581119,0,-0.32,0,3.39,3.7,3.71,0,0.01,3
31767,64591907,0,-0.32,0,3.39,3.7,3.7,0,0.01,3
31804,64602813,0,-0.32,0,3.39,3.7,3.71,0,0.01,3
31845,64613167,0,-0.32,0,3.39,3.7,3.71,0,0.01,3
31886,64623437,0,-0.32,0,3.39,3.7,3.71,0,0.01,3
31926,64633437,0,-0.33,0,3.39,3.7,3.71,0,0.01,3
31972,64643690,0,-0.33,0,3.39,3.71,3.71,0,0.01,3
32012,64653572,0,-0.33,0,3.39,3.71,3.71,0,0.01,3
32053,64663707,0,-0.33,0,3.39,3.71,3.71,0,0.01,3
32093,64673537,0,-0.32,0,3.39,3.71,3.71,0,0.01,3
32135,64683956,0,-0.32,0,3.4,3.71,3.71,0,0.01,3
32177,64694240,0,-0.32,0,3.4,3.71,3.71,0,0.01,3
32217,64704038,0,-0.32,0,3.4,3.71,3.71,0,0.01,3
32258,64714541,0,-0.31,0,3.4,3.71,3.71,0,0.01,3
32298,64724837,0,-0.31,0,3.4,3.71,3.71,0,0.01,3
32339,64734914,0,-0.31,0,3.39,3.71,3.71,0,0.01,3
32385,64745401,0,-0.31,0,3.39,3.71,3.71,0,0,3
32426,64755536,0,-0.31,0,3.39,3.71,3.71,0,0,3
32468,64765918,0,-0.31,0,3.39,3.71,3.71,0,0,3
32510,64782147,0,-0.32,0,3.39,3.71,3.71,0,0,3
32552,64792127,0,-0.32,0,3.4,3.71,3.71,0,0,3
32596,64804925,0,-0.32,0,3.4,3.71,3.71,0,0,3
32638,64815316,0,-0.33,0,3.4,3.71,3.71,0,0,3
32679,64825579,0,-0.33,0,3.4,3.71,3.72,0,0,3
32720,64835920,0,-0.33,0,3.4,3.72,3.72,0,0,3
32764,64846522,0,-0.32,0,3.4,3.72,3.72,0,0.01,3
32805,64856535,0,-0.32,0,3.39,3.72,3.72,0,0.01,3
32847,64866434,0,-0.32,0,3.39,3.72,3.72,0,0.01,3
32888,64876555,0,-0.31,0,3.39,3.72,3.72,0,0.01,3
32929,64886529,0,-0.31,0,3.39,3.72,3.72,0,0.01,3
32969,64897020,0,-0.31,0,3.39,3.71,3.72,0,0.01,3
33010,64907333,0,-0.31,0,3.39,3.71,3.72,0,0.01,3
33050,64917531,0,-0.31,0,3.39,3.71,3.71,0,0.01,3
33091,64927366,0,-0.31,0,3.4,3.71,3.71,0,0.01,3
33134,64937323,0,-0.31,0,3.4,3.71,3.71,0,0.01,3
33178,64947671,0,-0.32,0,3.4,3.71,3.71,0,0.01,3
33219,64957961,0,-0.32,0,3.4,3.71,3.71,0,0.01,3
33259,64967605,0,-0.32,0,3.4,3.71,3.72,0,0.01,3
33302,64977903,0,-0.33,0,3.4,3.72,3.72,0,0.01,3
33338,64989267,0,-0.33,0,3.39,3.72,3.72,0,0.01,3
33380,64999528,0,-0.33,0,3.39,3.72,3.72,0,0.01,3
33420,65009889,0,-0.32,0,3.39,3.72,3.72,0,0.01,3
33461,65020426,0,-0.32,0,3.39,3.72,3.72,0,0.01,3
33502,65030801,0,-0.32,0,3.39,3.72,3.72,0,0.01,3
33543,65041310,0,-0.32,0,3.4,3.72,3.72,0,0.01,3
33588,65051561,0,-0.31,0,3.4,3.72,3.72,0,0.01,3
33629,65061324,0,-0.31,0,3.4,3.72,3.72,0,0.01,3
33669,65071431,0,-0.31,0,3.4,3.72,3.72,0,0.01,3
33709,65081583,0,-0.31,0,3.39,3.72,3.72,0,0.01,3
33750,65091604,0,-0.31,0,3.39,3.72,3.72,0,0.01,3
33790,65102298,0,-0.31,0,3.39,3.72,3.72,0,0.01,3
33831,65112351,0,-0.32,0,3.39,3.72,3.72,0,0.01,3
33871,65122814,0,-0.32,0,3.39,3.72,3.72,0,0.01,3
33913,65133531,0,-0.32,0,3.39,3.72,3.72,0,0.01,3
33955,65143512,0,-0.32,0,3.39,3.72,3.72,0,0.01,3
33999,65153653,0,-0.32,0,3.39,3.72,3.72,0,0.01,3
34040,65163930,0,-0.32,0,3.39,3.71,3.72,0,0.01,3
34081,65174088,0,-0.32,0,3.39,3.72,3.72,0,0.01,3
34124,65190618,0,-0.32,0,3.39,3.72,3.72,0,0.01,3
34164,65200647,0,-0.32,0,3.39,3.71,3.72,0,0.01,3
34205,65211508,0,-0.31,0,3.39,3.71,3.72,0,0.01,3
34247,65221915,0,-0.31,0,3.39,3.71,3.71,0,0.01,3
34288,65232393,0,-0.31,0,3.39,3.71,3.71,0,0.01,3
34329,65242563,0,-0.31,0,3.39,3.71,3.71,0,0.01,3
34374,65253154,0,-0.31,0,3.39,3.71,3.71,0,0.01,3
34414,65263404,0,-0.31,0,3.4,3.71,3.71,0,0.01,3
34456,65273656,0,-0.31,0,3.4,3.7,3.71,0,0.01,3
34496,65283629,0,-0.31,0,3.4,3.7,3.71,0,0.01,3
34534,65294515,0,-0.31,0,3.4,3.7,3.7,0,0.01,3
34574,65304678,0,-0.32,0,3.4,3.7,3.7,0,0.01,3
34617,65315391,0,-0.32,0,3.4,3.7,3.71,0,0.01,3
34659,65325379,0,-0.32,0,3.4,3.7,3.7,0,0.01,3
34699,65335353,0,-0.32,0,3.4,3.7,3.7,0,0.01,3
34741,65345534,0,-0.32,0,3.4,3.7,3.7,0,0.01,3
34785,65355953,0,-0.32,0,3.4,3.7,3.7,0,0.01,3
34827,65366602,0,-0.31,0,3.4,3.7,3.7,0,0.01,3
34870,65376787,0,-0.31,0,3.41,3.69,3.7,0,0.01,3
34905,65387263,0,-0.31,0,3.41,3.69,3.69,0,0.01,3
34945,65397235,0,-0.31,0,3.41,3.69,3.69,0,0.01,3
34986,65407095,0,-0.31,0,3.41,3.69,3.69,0,0.01,3
35027,65417663,0,-0.31,0,3.41,3.69,3.69,0,0.01,3
35068,65428020,0,-0.31,0,3.41,3.69,3.69,0,0.01,3
35108,65438361,0,-0.31,0,3.41,3.69,3.69,0,0.01,3
35150,65448610,0,-0.31,0,3.41,3.69,3.69,0,0.01,3
35195,65458862,0,-0.31,0,3.41,3.69,3.69,0,0.01,3
35235,65468915,0,-0.32,0,3.41,3.69,3.69,0,0.01,3
35278,65479396,0,-0.32,0,3.41,3.69,3.69,0,0.01,3
35318,65489541,0,-0.32,0,3.41,3.69,3.7,0,0.01,3
35362,65502544,0,-0.32,0,3.41,3.7,3.7,0,0.01,3
35403,65512556,0,-0.32,0,3.41,3.7,3.7,0,0.01,3
35444,65523318,0,-0.31,0,3.41,3.7,3.7,0,0.01,3
35485,65533631,0,-0.31,0,3.41,3.7,3.7,0,0.01,3
35526,65543382,0,-0.31,0,3.41,3.7,3.7,0,0.01,3
35567,65553540,0,-0.31,0,3.41,3.69,3.7,0,0.01,3
35613,65563787,0,-0.31,0,3.41,3.69,3.7,0,0.01,3
35659,65579403,0,-0.31,0,3.41,3.69,3.7,0,0.01,3
35696,65590583,0,-0.31,0,3.41,3.69,3.69,0,0.01,3
35737,65600599,0,-0.31,0,3.4,3.69,3.69,0,0.01,3
35778,65611370,0,-0.31,0,3.4,3.69,3.69,0,0.01,3
35818,65621540,0,-0.31,0,3.4,3.69,3.7,0,0.01,3
35860,65631413,0,-0.31,0,3.4,3.69,3.7,0,0.01,3
35900,65641924,0,-0.31,0,3.4,3.7,3.7,0,0.01,3
35940,65651943,0,-0.31,0,3.41,3.7,3.7,0,0.01,3
35981,65662086,0,-0.32,0,3.41,3.7,3.7,0,0.01,3
36026,65672159,0,-0.32,0,3.41,3.7,3.7,0,0.01,3
36066,65682908,0,-0.31,0,3.41,3.7,3.7,0,0.01,3
36106,65692995,0,-0.31,0,3.4,3.7,3.7,0,0.01,3
36148,65702929,0,-0.31,0,3.4,3.7,3.7,0,0.01,3
36188,65713138,0,-0.31,0,3.4,3.7,3.7,0,0.01,3
36228,65723855,0,-0.31,0,3.4,3.7,3.7,0,0.01,3
36268,65734542,0,-0.31,0,3.4,3.69,3.7,0,0.01,3
36309,65745014,0,-0.31,0,3.4,3.7,3.7,0,0.01,3
36351,65755082,0,-0.31,0,3.4,3.7,3.7,0,0.01,3
36392,65764954,0,-0.31,0,3.4,3.7,3.7,0,0.01,3
36439,65775334,0,-0.31,0,3.4,3.7,3.7,0,0.01,3
36478,65788648,0,-0.32,0,3.4,3.7,3.7,0,0.01,3
36519,65799150,0,-0.32,0,3.4,3.7,3.7,0,0.01,3
36561,65809302,0,-0.32,0,3.4,3.7,3.7,0,0.01,3
36601,65819942,0,-0.32,0,3.4,3.7,3.71,0,0.01,3
36642,65830747,0,-0.32,0,3.4,3.7,3.71,0,0.01,3
36682,65841297,0,-0.32,0,3.4,3.7,3.71,0,0.01,3
36723,65851417,0,-0.32,0,3.4,3.7,3.71,0,0.01,3
36764,65861403,0,-0.32,0,3.4,3.7,3.71,0,0.01,3
36818,65875030,0,-0.31,0,3.4,3.71,3.71,0,0.01,3
36860,65884964,0,-0.31,0,3.4,3.73,3.71,0,0.01,3
36901,65895434,0,-0.31,0,3.4,3.78,3.71,0,0.01,3
36942,65905209,0,-0.31,0,3.4,3.86,3.71,0,0.01,3
36982,65915546,0,-0.31,0,3.4,3.97,3.71,0,0.01,3
37023,65925948,0,-0.31,0,3.4,4.11,3.71,0,0.01,3
37064,65936357,0,-0.31,0,3.4,4.27,3.71,0,0.01,3
37104,65945902,0,-0.32,0,3.4,4.46,3.71,0,0.01,3
37146,65956461,0,-0.32,0,3.4,4.68,3.71,0,0.01,3
37186,65966667,0,-0.32,0,3.4,4.93,3.71,0,0.01,3
37234,65976791,0,-0.33,0,3.4,5.21,3.71,0,0.01,3
37276,65987097,0,-0.33,0,3.4,5.51,3.71,0,0.01,3
37319,66003108,0,-0.33,0,3.4,5.84,3.71,0,0.01,3
37364,66013349,0,-0.32,0,3.4,6.2,3.71,0,0.01,3
37408,66024017,0,-0.32,0,3.4,6.59,3.71,0,0.01,3
37453,66034632,0,-0.32,0,3.4,7,3.71,0,0.01,3
37498,66045039,0,-0.32,0,3.4,7.44,3.71,0,0.01,3
37542,66055425,0,-0.31,0,3.4,7.91,3.71,0,0.01,3
37587,66064960,0,-0.31,0,3.4,8.41,3.72,0,0.01,3
37631,66075647,0,-0.31,0,3.4,8.94,3.72,0,0.01,3
37680,66085668,0,-0.31,0,3.4,9.49,3.72,0,0.01,3
37725,66095855,0,-0.32,0,3.4,10.08,3.72,0,0.01,3
37771,66106163,0,-0.32,0,3.4,10.69,3.72,0,0.01,3
37816,66116320,0,-0.32,0,3.4,11.33,3.72,0,0.01,3
37860,66126570,0,-0.32,0,3.4,11.99,3.71,0,0.01,3
37905,66136917,0,-0.32,0,3.41,12.69,3.71,0,0.01,3
37950,66147385,0,-0.32,0,3.41,13.41,3.71,0,0.01,3
37995,66157374,0,-0.32,0,3.41,14.16,3.71,0,0.01,3
38039,66167800,0,-0.32,0,3.41,14.94,3.71,0,0.01,3
38086,66177315,0,-0.32,0,3.4,15.74,3.71,0,0.01,3
38129,66188304,0,-0.31,0,3.4,16.15,3.71,0,0.01,3
38176,66198006,0,-0.31,0,3.4,17,3.71,0,0.01,3
38220,66208382,0,-0.31,0,3.4,17.88,3.71,0,0.01,3
38265,66218379,0,-0.31,0,3.4,18.78,3.71,0,0.01,3
38312,66231364,0,-0.31,0,3.41,19.95,3.72,0,0.01,3
38357,66241398,0,-0.31,0,3.41,20.91,3.71,0,0.01,3
38402,66251906,0,-0.31,0,3.41,21.91,3.71,0,0.01,3
38447,66262346,0,-0.31,0,3.41,22.93,3.71,0,0.01,3
38492,66271948,0,-0.32,0,3.41,23.98,3.71,0,0.01,3
38536,66281950,0,-0.32,0,3.41,25.06,3.71,0,0.01,3
38585,66292063,0,-0.32,0,3.41,26.16,3.71,0,0.04,3
38630,66302260,0,-0.32,0,3.41,27.3,3.71,0,0.04,3
38675,66312543,0,-0.32,0,3.41,28.46,3.71,0,0.04,3
38721,66322663,0,-0.32,0,3.41,29.65,3.71,0,0.04,3
38765,66332762,0,-0.32,0,3.41,30.69,3.71,0,0.04,3
38809,66342596,0,-0.32,0,3.41,30.7,3.71,0,0.04,3
38853,66352903,0,-0.31,0,3.41,30.71,3.72,0,0.04,3
38898,66363285,0,-0.31,0,3.41,30.72,3.72,0,0.04,3
38942,66373413,0,-0.31,0,3.41,30.73,3.73,0,0.04,3
38985,66383902,0,-0.31,0,3.41,30.74,3.73,0.01,0.04,3
39032,66394654,0,-0.31,0,3.41,30.75,3.74,0.01,0.03,3
39077,66405124,0,-0.31,0,3.41,30.76,3.74,0.01,0.03,3
39123,66415439,0,-0.32,0,3.41,30.78,3.75,0.01,0.03,3
39168,66425595,0,-0.32,0,3.41,30.79,3.75,0.01,0.03,3
39215,66438155,0,-0.32,0,3.41,30.8,3.75,0.01,0.03,3
39260,66448966,0,-0.32,0,3.41,30.81,3.76,0.01,0.03,3
39305,66458940,0,-0.33,0,3.41,30.82,3.76,0.01,0.03,3
39351,66469035,0,-0.33,0,3.41,30.83,3.76,0.01,0.03,3
39396,66478880,0,-0.33,0,3.41,30.84,3.77,0.01,0.03,3
39440,66489092,0,-0.32,0,3.41,30.85,3.77,0.01,0.03,3
39489,66499426,0,-0.32,0,3.41,30.86,3.78,0.01,0.03,3
39534,66509564,0,-0.32,0,3.41,30.87,3.78,0.01,0.03,3
39579,66520086,0,-0.32,0,3.41,30.89,3.78,0.01,0.03,3
39624,66530171,0,-0.32,0,3.41,30.9,3.79,0.01,0.03,3
39668,66540412,0,-0.31,0,3.41,30.9,3.79,0.01,0.03,3
39714,66550569,0,-0.31,0,3.41,30.91,3.79,0.01,0.03,3
39759,66560407,0,-0.31,0,3.41,30.92,3.79,0.01,0.03,3
39803,66570879,0,-0.31,0,3.41,30.93,3.79,0.01,0.03,3
39851,66581812,0,-0.32,0,3.41,30.94,3.79,0.01,0.03,3
39892,66595870,0,-0.32,0,3.41,30.94,3.79,0.01,0.03,3
39941,66605580,0,-0.32,0,3.41,30.95,3.79,0.01,0.02,3
39986,66616025,0,-0.32,0,3.41,30.96,3.79,0.01,0.02,3
40035,66628883,0,-0.33,0,3.41,30.97,3.79,0.01,0.02,3
40080,66638864,0,-0.33,0,3.41,30.97,3.79,0.01,0.02,3
40124,66649517,0,-0.33,0,3.41,30.97,3.79,0.01,0.02,3
40169,66659545,0,-0.33,0,3.41,30.97,3.79,0.01,0.02,3
40213,66669566,0,-0.32,0,3.41,30.97,3.79,0.01,0.02,3
40259,66679637,0,-0.32,0,3.41,30.97,3.79,0.01,0.02,3
40304,66689808,0,-0.32,0,3.41,30.97,3.79,0.01,0.02,3
40352,66700433,0,-0.32,0,3.41,30.97,3.79,0.01,0.02,3
40397,66710587,0,-0.32,0,3.41,30.97,3.79,0.01,0.02,3
40441,66720879,0,-0.31,0,3.41,30.97,3.79,0.01,0.02,3
40488,66731049,0,-0.32,0,3.41,30.97,3.79,0.01,0.02,3
40532,66740841,0,-0.32,0,3.41,30.97,3.79,0.01,0.02,3
40577,66751584,0,-0.32,0,3.41,30.97,3.79,0.01,0.02,3
40621,66762238,0,-0.32,0,3.41,30.97,3.79,0.01,0.02,3
40665,66772600,0,-0.33,0,3.41,30.96,3.78,0.01,0.02,3
40710,66782841,0,-0.33,0,3.41,30.96,3.78,0.01,0.02,3
40753,66793157,0,-0.33,0,3.41,30.96,3.78,0.01,0.02,3
40802,66804507,0,-0.33,0,3.41,30.96,3.78,0.01,0.02,3
40847,66815017,0,-0.33,0,3.41,30.96,3.78,0.01,0.02,3
40891,66825650,0,-0.32,0,3.41,30.96,3.78,0.01,0.02,3
40937,66836266,0,-0.32,0,3.41,30.96,3.78,0.01,0.02,3
40981,66846178,0,-0.32,0,3.41,30.95,3.78,0.01,0.02,3
41026,66856507,0,-0.32,0,3.41,30.95,3.77,0.01,0.02,3
41071,66866793,0,-0.31,0,3.41,30.95,3.77,0.01,0.02,3
41116,66876612,0,-0.31,0,3.41,30.95,3.77,0.01,0.02,3
41162,66886919,0,-0.31,0,3.41,30.95,3.77,0.01,0.02,3
41206,66896648,0,-0.32,0,3.41,30.95,3.77,0.01,0.02,3
41257,66907421,0,-0.32,0,3.41,30.95,3.77,0.01,0.02,3
41301,66917381,0,-0.32,0,3.41,30.95,3.77,0.01,0.01,3
41346,66927661,0,-0.32,0,3.4,30.95,3.77,0.01,0.01,3
41390,66937386,0,-0.32,0,3.4,30.95,3.77,0.01,0.01,3
41435,66947365,0,-0.32,0,3.4,30.95,3.77,0.01,0.01,3
41478,66958031,0,-0.33,0,3.4,30.95,3.77,0.01,0.01,3
41527,66970437,0,-0.33,0,3.4,30.95,3.77,0.01,0.01,3
41574,66983430,0,-0.33,0,3.4,30.95,3.77,0.01,0.01,3
41617,66994039,0,-0.32,0,3.4,30.94,3.77,0.01,0.01,3
41661,67004094,0,-0.32,0,3.4,30.94,3.77,0.01,0.01,3
41710,67014056,0,-0.32,0,3.4,30.94,3.77,0.01,0.01,3
41754,67024606,0,-0.31,0,3.4,30.94,3.77,0.01,0.01,3
41799,67035278,0,-0.31,0,3.4,30.94,3.77,0.01,0.01,3
41843,67045504,0,-0.31,0,3.4,30.94,3.77,0.01,0.01,3
41890,67056148,0,-0.31,0,3.4,30.94,3.77,0.01,0.01,3
41934,67066343,0,-0.31,0,3.4,30.94,3.76,0.01,0.01,3
41979,67076070,0,-0.31,0,3.4,30.94,3.76,0.01,0.01,3
42027,67088633,0,-0.32,0,3.4,30.94,3.76,0.01,0.01,3
42071,67098574,0,-0.32,0,3.4,30.94,3.76,0.01,0.01,3
42116,67109215,0,-0.32,0,3.4,30.94,3.76,0.01,0.01,3
42164,67119516,0,-0.32,0,3.4,30.94,3.76,0.01,0.01,3
42209,67130030,0,-0.32,0,3.4,30.94,3.76,0.01,0.01,3
42254,67140238,0,-0.32,0,3.4,30.94,3.76,0.01,0.01,3
42298,67150532,0,-0.32,0,3.4,30.94,3.76,0.01,0.01,3
42344,67160590,0,-0.32,0,3.4,30.94,3.76,0.01,0.01,3
42389,67170645,0,-0.31,0,3.4,30.94,3.76,0.01,0.01,3
42435,67181350,0,-0.31,0,3.4,30.94,3.77,0.01,0.01,3
42473,67192343,0,-0.31,0,3.4,30.94,3.77,0.01,0.01,3
42518,67202564,0,-0.3,0,3.4,30.95,3.77,0.01,0.01,3
42564,67212804,0,-0.3,0,3.4,30.95,3.77,0.01,0.01,3
42612,67223286,0,-0.3,0,3.4,30.95,3.77,0.01,0.05,3
42657,67233167,0,-0.31,0,3.4,30.95,3.77,0.01,0.05,3
42701,67243789,0,-0.31,0,3.4,30.95,3.77,0.01,0.05,3
42746,67253872,0,-0.31,0,3.4,30.95,3.77,0.01,0.05,3
42790,67263640,0,-0.31,0,3.4,30.95,3.77,0.01,0.05,3
42835,67274365,0,-0.32,0,3.4,30.95,3.78,0.01,0.05,3
42879,67284635,0,-0.32,0,3.4,30.96,3.78,0.01,0.05,3
42923,67295285,0,-0.32,0,3.4,30.96,3.79,0.01,0.05,3
42969,67305107,0,-0.32,0,3.4,30.97,3.79,0.01,0.05,3
43014,67315069,0,-0.32,0,3.4,30.97,3.8,0.01,0.05,3
43063,67325181,0,-0.32,0,3.4,30.98,3.8,0.01,0.04,3
43107,67335582,0,-0.31,0,3.41,30.98,3.8,0.01,0.04,3
43152,67346091,0,-0.31,0,3.41,30.99,3.81,0.01,0.04,3
43197,67356061,0,-0.31,0,3.41,30.99,3.82,0.01,0.04,3
43238,67366423,0,-0.31,0,3.41,31,3.82,0.01,0.04,3
43285,67376431,0,-0.31,0,3.41,31,3.83,0.01,0.04,3
43331,67386885,0,-0.31,0,3.41,31.01,3.83,0.01,0.04,3
43370,67397873,0,-0.31,0,3.41,31.01,3.84,0.01,0.04,3
43416,67407895,0,-0.31,0,3.41,31.02,3.84,0.01,0.04,3
43461,67417585,0,-0.32,0,3.41,31.02,3.84,0.01,0.04,3
43510,67428290,0,-0.32,0,3.41,31.02,3.85,0.01,0.03,3
43555,67438639,0,-0.32,0,3.41,31.03,3.85,0.01,0.03,3
43600,67449218,0,-0.32,0,3.41,31.03,3.85,0.01,0.03,3
43646,67459359,0,-0.33,0,3.41,31.03,3.85,0.01,0.03,3
43690,67469177,0,-0.33,0,3.41,31.03,3.86,0.01,0.03,3
43735,67479594,0,-0.32,0,3.41,31.04,3.86,0.01,0.03,3
43779,67490313,0,-0.32,0,3.41,31.04,3.86,0.01,0.03,3
43825,67500831,0,-0.32,0,3.41,31.04,3.86,0.01,0.03,3
43871,67511069,0,-0.31,0,3.41,31.04,3.86,0.01,0.03,3
43915,67520720,0,-0.31,0,3.41,31.04,3.86,0.01,0.03,3
43964,67530620,0,-0.31,0,3.41,31.04,3.86,0.01,0.03,3
44008,67541000,0,-0.31,0,3.41,31.04,3.87,0.01,0.03,3
44053,67550865,0,-0.31,0,3.41,31.05,3.87,0.01,0.03,3
44097,67560840,0,-0.31,0,3.41,31.05,3.87,0.01,0.03,3
44144,67571338,0,-0.31,0,3.41,31.05,3.87,0.01,0.03,3
44182,67582432,0,-0.31,0,3.41,31.05,3.87,0.01,0.03,3
44227,67593124,0,-0.32,0,3.41,31.05,3.87,0.01,0.03,3
44272,67603614,0,-0.32,0,3.41,31.05,3.87,0.01,0.03,3
44318,67614086,0,-0.32,0,3.41,31.05,3.87,0.01,0.03,3
44364,67624271,0,-0.32,0,3.41,31.05,3.87,0.01,0.03,3
44413,67634363,0,-0.32,0,3.41,31.05,3.87,0.01,0.03,3
44458,67644854,0,-0.32,0,3.41,31.05,3.87,0.01,0.03,3
44502,67655389,0,-0.32,0,3.41,31.05,3.87,0.01,0.03,3
44547,67665542,0,-0.32,0,3.41,31.05,3.87,0.01,0.03,3
44591,67675631,0,-0.32,0,3.41,31.05,3.87,0.01,0.03,3
44636,67685514,0,-0.31,0,3.41,31.05,3.87,0.01,0.03,3
44682,67696527,0,-0.31,0,3.41,31.05,3.87,0.01,0.03,3
44726,67706915,0,-0.31,0,3.4,31.05,3.87,0.01,0.03,3
44772,67717385,0,-0.31,0,3.4,31.05,3.87,0.01,0.03,3
44816,67727359,0,-0.31,0,3.4,31.05,3.88,0.01,0.03,3
44865,67737326,0,-0.31,0,3.4,31.05,3.88,0.01,0.06,3
44909,67747360,0,-0.32,0,3.4,31.05,3.87,0.01,0.06,3
44955,67757702,0,-0.32,0,3.4,31.05,3.87,0.01,0.06,3
45000,67768249,0,-0.32,0,3.4,31.05,3.87,0.01,0.06,3
45049,67783946,0,-0.33,0,3.4,31.05,3.87,0.01,0.06,3
45094,67797268,0,-0.33,0,3.4,31.04,3.86,0.01,0.06,3
45139,67807073,0,-0.32,0,3.4,31.04,3.86,0.01,0.06,3
45183,67817575,0,-0.32,0,3.4,31.03,3.85,0.01,0.06,3
45232,67827793,0,-0.32,0,3.4,31.03,3.85,0.01,0.06,3
45280,67838059,0,-0.31,0,3.4,31.02,3.84,0.01,0.06,3
45326,67848016,0,-0.31,0,3.4,31.02,3.84,0.01,0.06,3
45371,67858075,0,-0.31,0,3.4,31.01,3.83,0.01,0.06,3
45415,67868609,0,-0.31,0,3.4,31.01,3.83,0.01,0.06,3
45461,67879425,0,-0.31,0,3.4,3.82,3.82,0.01,0.06,3
45505,67890328,0,-0.31,0,3.4,3.81,3.82,0.01,0.06,3
45552,67900562,0,-0.31,0,3.4,3.81,3.81,0.01,0.06,3
45596,67911045,0,-0.32,0,3.4,3.81,3.81,0.01,0.06,3
45641,67921118,0,-0.32,0,3.4,3.8,3.8,0.01,0.06,3
45686,67930908,0,-0.32,0,3.4,3.8,3.8,0.01,0.06,3
45736,67941259,0,-0.31,0,3.4,3.79,3.8,0.01,0.05,3
45783,67950905,0,-0.32,0,3.41,3.79,3.79,0.01,0.05,3
45827,67961418,0,-0.33,0,3.41,3.79,3.79,0.01,0.05,3
45872,67971470,0,-0.33,0,3.4,3.79,3.79,0.01,0.05,3
45921,67984397,0,-0.32,0,3.39,3.79,3.79,0.01,0.05,3
45960,67996054,0,-0.32,0,3.39,3.79,3.79,0.01,0.05,3
46004,68006381,0,-0.3,0,3.4,3.78,3.79,0.01,0.05,3
46049,68016832,0,-0.3,0,3.4,3.78,3.79,0.01,0.05,3
46094,68026875,0,-0.31,0,3.4,3.78,3.78,0.01,0.05,3
46139,68036876,0,-0.31,0,3.4,3.78,3.78,0.01,0.05,3
46188,68046927,0,-0.3,0,3.41,3.78,3.78,0.01,0.04,3
46233,68057281,0,-0.3,0,3.4,3.78,3.78,0.01,0.04,3
46277,68067317,0,-0.3,0,3.4,3.78,3.78,0.01,0.04,3
46322,68077336,0,-0.31,0,3.4,3.78,3.78,0.01,0.04,3
46367,68087508,0,-0.31,0,3.4,3.78,3.78,0.01,0.04,3
46415,68100381,0,-0.32,0,3.4,3.78,3.79,0.01,0.04,3
46460,68110568,0,-0.33,0,3.4,3.78,3.79,0.01,0.04,3
46504,68121065,0,-0.32,0,3.4,3.78,3.79,0.01,0.04,3
46549,68131048,0,-0.31,0,3.4,3.78,3.79,0.01,0.04,3
46597,68141510,0,-0.3,0,3.4,3.78,3.78,0.01,0.04,3
46644,68151624,0,-0.31,0,3.4,3.78,3.78,0.01,0.03,3
46688,68161900,0,-0.31,0,3.41,3.78,3.79,0.01,0.03,3
46735,68178043,0,-0.29,0,3.4,3.79,3.79,0.01,0.03,3
46783,68190848,0,-0.29,0,3.4,3.79,3.79,0.01,0.03,3
46828,68201091,0,-0.3,0,3.4,3.78,3.79,0.01,0.03,3
46873,68211609,0,-0.29,0,3.4,3.78,3.79,0.01,0.03,3
46918,68222021,0,-0.29,0,3.4,3.78,3.79,0.01,0.03,3
46963,68232419,0,-0.29,0,3.4,3.79,3.79,0.01,0.03,3
47007,68243050,0,-0.3,0,3.4,3.78,3.79,0.01,0.03,3
47056,68252991,0,-0.3,0,3.41,3.78,3.79,0.01,0.03,3
47102,68263109,0,-0.3,0,3.41,3.78,3.79,0.01,0.03,3
47147,68273628,0,-0.3,0,3.41,3.79,3.79,0.01,0.03,3
47192,68283669,0,-0.3,0,3.4,3.79,3.79,0.01,0.03,3
47236,68293689,0,-0.3,0,3.4,3.78,3.78,0.01,0.03,3
47281,68304179,0,-0.3,0,3.4,3.78,3.79,0.01,0.03,3
47325,68315000,0,-0.29,0,3.4,3.79,3.79,0.01,0.03,3
47370,68325422,0,-0.3,0,3.39,3.78,3.78,0.01,0.03,3
47414,68335549,0,-0.3,0,3.41,3.78,3.79,0.01,0.03,3
47460,68345409,0,-0.3,0,3.4,3.77,3.78,0.01,0.03,3
47509,68355389,0,-0.28,0,3.4,3.79,3.79,0.01,0.03,3
47554,68365925,0,-0.29,0,3.4,3.77,3.78,0.01,0.03,3
47604,68381578,0,-0.29,0,3.44,3.78,3.78,0.01,0.03,3
47645,68392645,0,-0.29,0,3.41,3.79,3.8,0.01,0.03,3
47691,68402636,0,-0.28,0,3.43,3.78,3.79,0.01,0.03,3
47735,68412665,0,-0.29,0,3.4,3.78,3.79,0.01,0.03,3
47781,68423345,0,-0.3,0,3.44,3.79,3.79,0.01,0.03,3
47825,68433406,0,-0.3,0,3.4,3.79,3.79,0.01,0.03,3
47872,68443403,0,-0.29,0,3.43,3.79,3.79,0.01,0.03,3
47921,68453318,0,-0.3,0,3.4,3.78,3.78,0.01,0.02,3
47966,68464092,0,-0.3,0,3.44,3.79,3.79,0.01,0.02,3
48011,68474393,0,-0.29,0,3.4,3.79,3.79,0.01,0.02,3
48055,68484550,0,-0.28,0,3.44,3.79,3.79,0.01,0.02,3
48101,68494538,0,-0.3,0,3.41,3.78,3.78,0.01,0.02,3
48145,68505065,0,-0.29,0,3.45,3.79,3.79,0.01,0.02,3
48190,68515938,0,-0.29,0,3.41,3.79,3.8,0.01,0.02,3
48236,68526289,0,-0.28,0,3.42,3.78,3.79,0.01,0.02,3
48280,68536072,0,-0.28,0,3.39,3.79,3.79,0.01,0.02,3
48325,68546281,0,-0.29,0,3.42,3.79,3.79,0.01,0.02,3
48373,68556716,0,-0.29,0,3.39,3.8,3.8,0.01,0.02,3
48419,68567177,0,-0.29,0,3.39,3.78,3.78,0.01,0.02,3
48463,68577259,0,-0.28,0,3.39,3.79,3.79,0.01,0.02,3
48510,68586955,0,-0.31,0,3.4,3.78,3.78,0.01,0.02,3
48549,68597660,0,-0.29,0,3.4,3.8,3.8,0.01,0.02,3
48593,68608599,0,-0.3,0,3.38,3.77,3.77,0.01,0.02,3
48638,68618596,0,-0.29,0,3.4,3.78,3.79,0.01,0.02,3
48682,68629432,0,-0.31,0,3.39,3.77,3.77,0.01,0.02,3
48727,68639637,0,-0.29,0,3.42,3.8,3.8,0.01,0.02,3
48771,68649943,0,-0.29,0,3.37,3.76,3.77,0.01,0.02,3
48821,68660412,0,-0.27,0,3.42,3.78,3.79,0.01,0.02,3
48866,68670385,0,-0.3,0,3.38,3.77,3.78,0.01,0.02,3
48911,68680889,0,-0.29,0,3.42,3.8,3.8,0.01,0.02,3
48957,68691342,0,-0.28,0,3.39,3.77,3.77,0.01,0.02,3
49001,68701500,0,-0.26,0,3.42,3.78,3.78,0.01,0.02,3
49046,68711927,0,-0.28,0,3.4,3.78,3.79,0.01,0.02,3
49090,68721926,0,-0.29,0,3.41,3.78,3.79,0.01,0.02,3
49136,68732409,0,-0.27,0,3.41,3.78,3.78,0.01,0.02,3
49181,68742587,0,-0.28,0,3.41,3.77,3.77,0.01,0.02,3
49225,68752576,0,-0.29,0,3.41,3.79,3.79,0.01,0.02,3
49274,68762526,0,-0.3,0,3.39,3.77,3.77,0.01,0.01,3
49318,68772584,0,-0.29,0,3.4,3.78,3.78,0.01,0.01,3
49364,68782875,0,-0.3,0,3.38,3.76,3.76,0.01,0.01,3
49410,68792936,0,-0.31,0,3.4,3.79,3.79,0.01,0.01,3
49449,68803965,0,-0.31,0,3.36,3.76,3.76,0.01,0.01,3
49494,68814630,0,-0.3,0,3.4,3.77,3.77,0.01,0.01,3
49541,68827506,0,-0.3,0,3.39,3.77,3.77,0.01,0.01,3
49586,68838037,0,-0.32,0,3.41,3.77,3.78,0.01,0.01,3
49630,68848177,0,-0.29,0,3.4,3.77,3.77,0.01,0.01,3
49677,68858569,0,-0.28,0,3.4,3.76,3.76,0.01,0.01,3
49726,68868330,0,-0.27,0,3.41,3.78,3.78,0.01,0.01,3
49770,68878623,0,-0.3,0,3.39,3.77,3.77,0.01,0.01,3
49815,68888929,0,-0.27,0,3.4,3.77,3.77,0.01,0.01,3
49859,68899222,0,-0.27,0,3.38,3.76,3.76,0.01,0.01,3
49905,68909025,0,-0.27,0,3.41,3.79,3.79,0.01,0.01,3
49949,68919111,0,-0.3,0,3.37,3.76,3.77,0.01,0.01,3
49998,68971415,0,-0.29,0,3.4,3.75,3.76,0.01,0.01,3
50047,68981906,0,-0.29,0,3.4,3.75,3.75,0.01,0.01,3
50086,68993107,0,-0.32,0,3.42,3.77,3.77,0.01,0.01,3
50130,69003107,0,-0.29,0,3.39,3.75,3.76,0.01,0.01,3
50175,69013190,0,-0.28,0,3.4,3.76,3.76,0.01,0.01,3
50219,69023339,0,-0.27,0,3.4,3.76,3.76,0.01,0.01,3
50264,69034042,0,-0.29,0,3.4,3.78,3.78,0.01,0.01,3
50309,69044504,0,-0.27,0,3.39,3.76,3.76,0.01,0.01,3
50353,69054829,0,-0.28,0,3.4,3.77,3.77,0.01,0.01,3
50398,69064600,0,-0.28,0,3.39,3.76,3.77,0.01,0.01,3
50448,69074900,0,-0.3,0,3.42,3.78,3.79,0.01,0.05,3
50493,69085332,0,-0.3,0,3.39,3.75,3.75,0.01,0.05,3
50537,69095824,0,-0.29,0,3.42,3.77,3.77,0.01,0.05,3
50585,69108839,0,-0.31,0,3.4,3.77,3.77,0.01,0.05,3
50633,69121584,0,-0.29,0,3.37,3.73,3.74,0.01,0.05,3
50678,69131841,0,-0.28,0,3.4,3.74,3.74,0.01,0.05,3
50723,69141912,0,-0.29,0,3.38,3.72,3.72,0.01,0.05,3
50768,69152408,0,-0.29,0,3.4,3.74,3.75,0.01,0.05,3
50812,69163049,0,-0.27,0,3.37,3.7,3.71,0.01,0.05,3
50862,69172987,0,-0.26,0,3.4,3.71,3.72,0.01,0.04,3
50909,69182977,0,-0.28,0,3.38,3.72,3.72,0.01,0.04,3
50948,69193910,0,-0.27,0,3.39,3.71,3.71,0.01,0.04,3
50993,69204316,0,-0.27,0,3.38,3.7,3.71,0.01,0.04,3
51037,69214541,0,-0.27,0,3.4,3.69,3.69,0.01,0.04,3
51082,69224210,0,-0.29,0,3.39,3.71,3.71,0.01,0.04,3
51126,69235016,0,-0.28,0,3.4,3.68,3.69,0.01,0.04,3
51171,69245080,0,-0.27,0,3.39,3.68,3.69,0.01,0.04,3
51215,69255075,0,-0.28,0,3.39,3.65,3.66,0.01,0.04,3
51260,69265629,0,-0.31,0,3.39,3.68,3.69,0.01,0.04,3
51311,69276232,0,-0.29,0,3.38,3.64,3.65,0.01,0.04,3
51355,69286141,0,-0.28,0,3.4,3.66,3.66,0.01,0.04,3
51400,69296132,0,-0.29,0,3.39,3.63,3.63,0.01,0.04,3
51444,69306708,0,-0.29,0,3.4,3.66,3.66,0.01,0.04,3
51489,69319295,0,-0.31,0,3.37,3.62,3.63,0.01,0.04,3
51534,69330084,0,-0.28,0,3.41,3.63,3.63,0.01,0.04,3
51579,69340068,0,-0.3,0,3.38,3.63,3.64,0.01,0.04,3
51624,69350283,0,-0.28,0,3.4,3.64,3.64,0.01,0.04,3
51668,69360066,0,-0.27,0,3.38,3.63,3.63,0.01,0.04,3
51713,69370319,0,-0.26,0,3.4,3.62,3.62,0.01,0.04,3
51761,69380059,0,-0.29,0,3.39,3.64,3.64,0.01,0.03,3
51804,69390376,0,-0.27,0,3.4,3.63,3.64,0.01,0.03,3
51845,69400385,0,-0.27,0,3.38,3.62,3.63,0.01,0.03,3
51891,69410913,0,-0.27,0,3.41,3.62,3.62,0.01,0.03,3
51937,69424039,0,-0.28,0,3.39,3.64,3.64,0.01,0.03,3
51983,69434142,0,-0.28,0,3.39,3.61,3.62,0.01,0.03,3
52027,69444801,0,-0.28,0,3.38,3.61,3.62,0.01,0.03,3
52073,69455366,0,-0.3,0,3.38,3.61,3.61,0.01,0.03,3
52117,69465552,0,-0.29,0,3.39,3.63,3.63,0.01,0.03,3
52162,69475340,0,-0.3,0,3.37,3.6,3.6,0.01,0.03,3
52210,69485866,0,-0.28,0,3.38,3.61,3.62,0.01,0.03,3
52255,69496402,0,-0.3,0,3.37,3.6,3.61,0.01,0.03,3
52299,69506592,0,-0.28,0,3.4,3.63,3.64,0.01,0.03,3
52349,69518645,0,-0.27,0,3.38,3.61,3.61,0.01,0.03,3
52393,69529389,0,-0.26,0,3.41,3.62,3.62,0.01,0.03,3
52438,69539531,0,-0.28,0,3.38,3.63,3.63,0.01,0.03,3
52483,69549906,0,-0.27,0,3.4,3.63,3.63,0.01,0.03,3
52527,69559798,0,-0.26,0,3.38,3.62,3.62,0.01,0.03,3
52577,69572296,0,-0.29,0,3.37,3.6,3.61,0.01,0.03,3
52620,69583340,0,-0.29,0,3.39,3.64,3.64,0.01,0.02,3
52664,69593918,0,-0.3,0,3.36,3.6,3.6,0.01,0.02,3
52711,69604302,0,-0.29,0,3.39,3.62,3.62,0.01,0.02,3
52755,69614087,0,-0.31,0,3.38,3.6,3.61,0.01,0.02,3
52803,69626405,0,-0.3,0,3.4,3.62,3.63,0.01,0.02,3
52847,69636648,0,-0.29,0,3.38,3.6,3.61,0.01,0.02,3
52892,69646882,0,-0.3,0,3.4,3.61,3.61,0.01,0.02,3
52937,69657245,0,-0.3,0,3.38,3.62,3.62,0.01,0.02,3
52982,69667046,0,-0.3,0,3.39,3.61,3.62,0.01,0.02,3
53027,69676889,0,-0.28,0,3.38,3.61,3.61,0.01,0.02,3
53075,69687391,0,-0.29,0,3.4,3.6,3.61,0.01,0.02,3
53121,69697901,0,-0.3,0,3.39,3.63,3.63,0.01,0.02,3
53168,69708363,0,-0.29,0,3.39,3.61,3.61,0.01,0.02,3
53212,69718568,0,-0.27,0,3.4,3.61,3.62,0.01,0.02,3
53257,69728307,0,-0.29,0,3.39,3.6,3.61,0.01,0.02,3
53298,69738408,0,-0.29,0,3.41,3.63,3.63,0.01,0.02,3
53342,69748812,0,-0.29,0,3.39,3.61,3.61,0.01,0.02,3
53386,69759269,0,-0.26,0,3.4,3.61,3.61,0.01,0.02,3
53432,69769614,0,-0.28,0,3.38,3.6,3.6,0.01,0.02,3
53479,69779643,0,-0.28,0,3.4,3.62,3.63,0.01,0.02,3
53521,69790937,0,-0.28,0,3.36,3.6,3.6,0.01,0.02,3
53566,69801337,0,-0.28,0,3.38,3.6,3.6,0.01,0.02,3
53611,69811073,0,-0.29,0,3.37,3.6,3.61,0.01,0.02,3
53656,69821554,0,-0.3,0,3.4,3.62,3.62,0.01,0.02,3
53701,69831919,0,-0.29,0,3.38,3.61,3.61,0.01,0.02,3
