LineNo,TimeUS,ThI,ABst,ThO,ThH,DAlt,Alt,BAlt,DSAlt,SAlt,TAlt,DCRt,CRt
1100,56761413,0,0,0,0.2585996,-0.7546948,-0.7546948,-0.82,NaN,0,0.3197162,20,20
1591,56923983,0,0,0,0.2585996,-0.6965998,-0.6965998,-0.98,NaN,0,0.3775365,51,51
2005,57027383,0,0,0,0.2585996,-0.6512743,-0.6512743,-0.66,NaN,0,0.4227095,51,51
2419,57130042,0,0,0,0.2585996,-0.60401,-0.60401,-0.73,NaN,0,0.4699737,50,50
2828,57234524,0,0,0,0.2585996,-0.5562736,-0.5562736,-0.7,NaN,0,0.5175728000000001,50,50
3215,57337297,0,0,0,0.2585996,-0.5090837,-0.5090837,-0.96,NaN,0,0.5647627,50,50
3629,57440646,0,0,0,0.2585996,-0.4668526,-0.4668526,-0.92,NaN,0,0.6067191,50,50
4041,57544085,0,0,0,0.2585996,-0.4275137,-0.4275137,-0.65,NaN,0,0.6460581,49,49
4459,57647355,0,0,0,0.2585996,-0.3903228,-0.3903228,-0.9399999999999999,NaN,0,0.6832489,49,49
4867,57750785,0,0,0,0.2585996,-0.3549279,-0.3549279,-0.88,NaN,0,0.7186439,49,49
5278,57854809,0,0,0,0.2585996,-0.3235497,-0.3235497,-0.86,NaN,0,0.7496177000000001,48,48
5687,57956086,0,0,0,0.2585996,-0.2943651,-0.2943651,-0.83,NaN,0,0.7788022,48,48
6098,58058650,0,0,0,0.2585996,-0.2670874,-0.2670874,-0.66,NaN,0,0.8057901,47,47
6477,58161080,0,0,0,0.2585996,-0.2405248,-0.2405248,-0.85,NaN,0,0.8323526999999999,47,47
6889,58262808,0,0,0,0.2585996,-0.2184841,-0.2184841,-0.97,NaN,0,0.8541034,46,46
7296,58365009,0,0,0,0.2585996,-0.1979549,-0.1979549,-0.87,NaN,0,0.8746326,46,46
7706,58467796,0,0,0,0.2585996,-0.1791734,-0.1791734,-0.74,NaN,0,0.8929793,45,45
8117,58571056,0,0,0,0.2585996,-0.1646143,-0.1646143,-0.77,NaN,0,0.9075384,44,44
8531,58674048,0,0,0,0.2585996,-0.1474082,-0.1474082,-0.91,NaN,0,0.9247445,44,44
8942,58776437,0,0,0,0.2585996,-0.1322637,-0.1322637,-0.64,NaN,0,0.9397593,43,43
9325,58877603,0,0,0,0.2585996,-0.1207344,-0.1207344,-0.76,NaN,0,0.9512885,42,42
9740,58981258,0,0,0,0.2585996,-0.1092546,-0.1092546,-0.66,NaN,0,0.9624937,41,41
10153,59084381,0,0,0,0.2585996,-0.09370804000000001,-0.09370804000000001,-0.79,NaN,0,0.9780403,41,41
10562,59188392,0,0,0,0.2585996,-0.08151841,-0.08151841,-0.92,NaN,0,0.9900697000000001,40,40
10850,59290605,0,0,0,0.2585996,-0.07189893999999999,-0.07189893999999999,-0.87,NaN,0,0.9996891999999999,39,39
11262,59395292,0,0,0,0.2585996,-0.06697657999999999,-0.06697657999999999,-0.84,NaN,0,1.004871,38,38
11673,59496111,0,0,0,0.2585996,-0.06137097,-0.06137097,-0.58,NaN,0,1.010477,38,38
12054,59598823,0,0,0,0.2585996,-0.05478616,-0.05478616,-0.88,NaN,0,1.017061,37,37
12463,59701662,0,0,0,0.2585996,-0.05013608,-0.05013608,-0.89,NaN,0,1.021711,36,36
12869,59804909,0,0,0,0.2585996,-0.04906093,-0.04906093,-0.92,NaN,0,1.022787,35,35
13278,59907417,0,0,0,0.2585996,-0.05577449,-0.05577449,-1,NaN,0,1.016073,34,34
13662,60008937,0,0,0,0.2585996,-0.06159952,-0.06159952,-0.77,NaN,0,1.010507,33,33
14074,60109822,0,0,0,0.2585996,-0.06588593,-0.06588593,-1.02,NaN,0,1.006221,32,32
14481,60212641,0,0,0,0.2585996,-0.0722638,-0.0722638,-0.83,NaN,0,1.000232,31,31
14892,60315651,0,0,0,0.2585996,-0.08458069999999999,-0.08458069999999999,-0.6,NaN,0,0.9879153000000001,30,30
15306,60417841,0,0,0,0.2585996,-0.08913962,-0.08913962,-0.75,NaN,0,0.9833564,29,29
15714,60519133,0,0,0,0.2585996,-0.09231207,-0.09231207,-0.76,NaN,0,0.9801840000000001,28,28
16097,60621143,0,0,0,0.2585996,-0.09612324999999999,-0.09612324999999999,-1.05,NaN,0,0.9763727,27,27
16510,60723637,0,0,0,0.2585996,-0.1081326,-0.1081326,-0.89,NaN,0,0.9643634,26,26
16922,60824973,0,0,0,0.2585996,-0.1182937,-0.1182937,-1.02,NaN,0,0.954477,25,25
17332,60927438,0,0,0,0.2585996,-0.1334778,-0.1334778,-0.84,NaN,0,0.9392928,24,24
17716,61029944,0,0,0,0.2585996,-0.1461119,-0.1461119,-0.9399999999999999,NaN,0,0.9265061999999999,23,23
18128,61134244,0,0,0,0.2585996,-0.1617771,-0.1617771,-0.95,NaN,0,0.9108409,22,22
18535,61235373,0,0,0,0.2585996,-0.1838179,-0.1838179,-0.89,NaN,0,0.8882966,21,21
18947,61338076,0,0,0,0.2585996,-0.2106137,-0.2106137,-0.92,NaN,0,0.8615008,20,20
19357,61441521,0,0,0,0.2585996,-0.2450864,-0.2450864,-0.85,NaN,0,0.8270281,18,18
19772,61545578,0,0,0,0.2585996,-0.2715125,-0.2715125,-0.71,NaN,0,0.8008767,17,17
20180,61649058,0,0,0,0.2585996,-0.2990229,-0.2990229,-0.77,NaN,0,0.7733663,15,15
20595,61751010,0,0,0,0.2585996,-0.3186026,-0.3186026,-0.86,NaN,0,0.7537866,14,14
21005,61854516,0,0,0,0.2585996,-0.3375787,-0.3375787,-0.8,NaN,0,0.7348105,13,13
21417,61956635,0,0,0,0.2585996,-0.3536716,-0.3536716,-0.86,NaN,0,0.7188473,12,12
21800,62060837,0,0,0,0.2585996,-0.3786685,-0.3786685,-0.71,NaN,0,0.6940869,10,10
22213,62164525,0,0,0,0.2585996,-0.3986355,-0.3986355,-0.91,NaN,0,0.6741199,9,9
22593,62268138,0,0,0,0.2585996,-0.4183104,-0.4183104,-0.77,NaN,0,0.6544450000000001,8,8
23004,62370574,0,0,0,0.2585996,-0.4349529,-0.4349529,-0.93,NaN,0,0.6378025,7,7
23412,62473094,0,0,0,0.2585996,-0.4558907,-0.4558907,-0.88,NaN,0,0.6168647,6,6
23826,62575940,0,0,0,0.2585996,-0.4720927,-0.4720927,-1.03,NaN,0,0.6006627,6,6
24237,62680157,0,0,0,0.2585996,-0.4944834,-0.4944834,-1.25,NaN,0,0.578272,5,5
24650,62782950,0,0,0,0.2585996,-0.515924,-0.515924,-1.07,NaN,0,0.5569839,4,4
25061,62886595,0,0,0,0.2585996,-0.5414852,-0.5414852,-1.02,NaN,0,0.5314227,3,3
25476,62988849,0,0,0,0.2585996,-0.56521,-0.56521,-1.09,NaN,0,0.507698,2,2
25856,63091897,0,0,0,0.2585996,-0.5950553,-0.5950553,-0.6899999999999999,NaN,0,0.4778526,1,1
26264,63195304,0,0,0,0.2585996,-0.6160828,-0.6160828,-1.16,NaN,0,0.4568252,0,0
26677,63296609,0,0,0,0.2585996,-0.637883,-0.637883,-1.12,NaN,0,0.435025,0,0
27085,63400426,0,0,0,0.2585996,-0.6622902000000001,-0.6622902000000001,-0.9399999999999999,NaN,0,0.4106178,-1,-1
27502,63503533,0,0,0,0.2585996,-0.6853816,-0.6853816,-1.36,NaN,0,0.3876789,-2,-2
27882,63606097,0,0,0,0.2585996,-0.7083252,-0.7083252,-1.11,NaN,0,0.3647354,-3,-3
28295,63708511,0,0,0,0.2585996,-0.7352256,-0.7352256,-0.97,NaN,0,0.3376824,-4,-4
28697,63811377,0,0,0,0.2585996,-0.7571213,-0.7571213,-1.19,NaN,0,0.3157867,-4,-4
29111,63914361,0,0,0,0.2585996,-0.7814054,-0.7814054,-1.17,NaN,0,0.2916551,-5,-5
29495,64017964,0,0,0,0.2585996,-0.8060338,-0.8060338,-1.16,NaN,0,0.2670267,-6,-6
29907,64121030,0,0,0,0.2585996,-0.831263,-0.831263,-0.78,NaN,0,0.2422324,-7,-7
30313,64223587,0,0,0,0.2585996,-0.8517333,-0.8517333,-0.95,NaN,0,0.2217621,-8,-8
30726,64325360,0,0,0,0.2585996,-0.8686334,-0.8686334,-1.21,NaN,0,0.204862,-8,-8
31135,64429088,0,0,0,0.2585996,-0.8852196,-0.8852196,-1.03,NaN,0,0.1882758,-9,-9
31551,64532043,0,0,0,0.2585996,-0.8990899,-0.8990899,-1.22,NaN,0,0.1745353,-9,-9
31957,64635977,0,0,0,0.2585996,-0.9139011,-0.9139011,-1.24,NaN,0,0.159724,-9,-9
32370,64737434,0,0,0,0.2585996,-0.9300881,-0.9300881,-1.26,NaN,0,0.1435371,-10,-10
32754,64841087,0,0,0,0.2585996,-0.9459774,-0.9459774,-0.97,NaN,0,0.1276477,-10,-10
33168,64942437,0,0,0,0.2585996,-0.9593374,-0.9593374,-0.88,NaN,0,0.1142877,-11,-11
33578,65046424,0,0,0,0.2585996,-0.970113,-0.970113,-1.02,NaN,0,0.1036494,-11,-11
33989,65148537,0,0,0,0.2585996,-0.980447,-0.980447,-1.11,NaN,0,0.0933155,-11,-11
34370,65252937,0,0,0,0.2585996,-0.9906678,-0.9906678,-0.97,NaN,0,0.08309467,-12,-12
34781,65355811,0,0,0,0.2585996,-1.000238,-1.000238,-1.11,NaN,0,0.07352479000000001,-12,-12
35191,65458579,0,0,0,0.2585996,-1.00974,-1.00974,-0.92,NaN,0,0.06402285000000001,-12,-12
35606,65561377,0,0,0,0.2585996,-1.018892,-1.018892,-1.03,NaN,0,0.05502267,-12,-12
36012,65664796,0,0,0,0.2585996,-1.027263,-1.027263,-1.07,NaN,0,0.04692717,-12,-12
36423,65767515,0,0,0,0.2585996,-1.037091,-1.037091,-1.03,NaN,0,0.03709872,-13,-13
36814,65874550,0,0,0,0.2585996,-1.04514,-1.04514,-0.87,NaN,0,0.004859949,-13,-13
37230,65976560,0,0,0,0.2585996,-1.054276,-1.054276,-0.97,NaN,0,-0.004275894,-13,-13
37670,66081299,0,0,0,0.2585996,-1.058441,-1.058441,-0.75,NaN,0,-0.008303618,-13,-13
38121,66185555,0,0,0,0.2585996,-1.064604,-1.064604,-0.8,NaN,0,-0.0144665,-14,-14
38574,66287570,0,0,0,0.2585996,-1.069093,-1.069093,-0.89,NaN,0,-0.01895533,-14,-14
39025,66392286,0,0,0,0.2585996,-1.07622,-1.07622,-1.19,NaN,0,-0.02608285,-14,-14
39479,66494504,0,0,0,0.2585996,-1.08099,-1.08099,-0.96,NaN,0,-0.03057835,-14,-14
39927,66598504,0,0,0,0.2585996,-1.087159,-1.087159,-0.73,NaN,0,-0.03674731,-14,-14
40348,66700305,0,0,0,0.2585996,-1.091735,-1.091735,-0.88,NaN,0,-0.04118595,-14,-14
40798,66804271,0,0,0,0.2585996,-1.098742,-1.098742,-0.9399999999999999,NaN,0,-0.04819307,-14,-14
41253,66907292,0,0,0,0.2585996,-1.105364,-1.105364,-0.9,NaN,0,-0.05481455,-14,-14
41699,67008961,0,0,0,0.2585996,-1.112248,-1.112248,-0.96,NaN,0,-0.0614321,-14,-14
42151,67111930,0,0,0,0.2585996,-1.117017,-1.117017,-0.89,NaN,0,-0.06604765,-14,-14
42599,67215839,0,0,0,0.2585996,-1.121146,-1.121146,-0.85,NaN,0,-0.07003222000000001,-14,-14
43049,67317885,0,0,0,0.2585996,-1.124071,-1.124071,-0.96,NaN,0,-0.07295736999999999,-14,-14
43496,67420297,0,0,0,0.2585996,-1.127382,-1.127382,-0.93,NaN,0,-0.07626840999999999,-14,-14
43950,67523855,0,0,0,0.2585996,-1.132667,-1.132667,-0.82,NaN,0,-0.08141551,-14,-14
44399,67626983,0,0,0,0.2585996,-1.135237,-1.135237,-0.83,NaN,0,-0.08398543,-14,-14
44851,67730300,0,0,0,0.2585996,-1.138545,-1.138545,-0.62,NaN,0,-0.0872936,-14,-14
45270,67832847,0,0,0,0.2585996,-1.140249,-1.140249,-0.9399999999999999,NaN,0,-0.08884559,-14,-14
45725,67936524,0,0,0,0.2585996,-1.142064,-1.142064,-0.79,NaN,0,-0.09039292,-14,-14
46174,68039612,0,0,0,0.2585996,-1.144816,-1.144816,-0.85,NaN,0,-0.09314511,-13,-13
46593,68141306,0,0,0,0.2585996,-1.14819,-1.14819,-0.8100000000000001,NaN,0,-0.09651969000000001,-13,-13
47042,68245575,0,0,0,0.2585996,-1.147291,-1.147291,-1.01,NaN,0,-0.09532306,-13,-13
47495,68347650,0,0,0,0.2585996,-1.149989,-1.149989,-0.96,NaN,0,-0.09802101000000001,-13,-13
47914,68451292,0,0,0,0.2585996,-1.151086,-1.151086,-0.66,NaN,0,-0.09911797,-13,-13
48366,68554101,0,0,0,0.2585996,-1.155041,-1.155041,-0.84,NaN,0,-0.1030725,-13,-13
48814,68657891,0,0,0,0.2585996,-1.151863,-1.151863,-0.7,NaN,0,-0.09962723,-12,-12
49267,68760132,0,0,0,0.2585996,-1.150772,-1.150772,-0.64,NaN,0,-0.09853634999999999,-13,-13
49716,68863748,0,0,0,0.2585996,-1.150725,-1.150725,-0.75,NaN,0,-0.09848998,-12,-12
50433,69067294,0,0,0,0.2585996,-1.154788,-1.154788,-0.64,NaN,0,-0.1024152,-12,-12
50855,69170572,0,0,0,0.2585996,-1.156817,-1.156817,-0.87,NaN,0,-0.1041701,-12,-12
51303,69273513,0,0,0,0.2585996,-1.157854,-1.157854,-0.96,NaN,0,-0.1052063,-12,-12
51751,69375646,0,0,0,0.2585996,-1.161087,-1.161087,-0.8100000000000001,NaN,0,-0.10844,-12,-12
52197,69477829,0,0,0,0.2585996,-1.161056,-1.161056,-0.6899999999999999,NaN,0,-0.1081186,-12,-12
52613,69580955,0,0,0,0.2585996,-1.160598,-1.160598,-0.85,NaN,0,-0.1075235,-12,-12
53065,69682384,0,0,0,0.2585996,-1.159691,-1.159691,-1.05,NaN,0,-0.1063496,-12,-12
53517,69790681,0,0,0,0.2585996,-1.16225,-1.16225,-0.87,NaN,0,-0.108908,-12,-12
53968,69893654,0,0,0,0.2585996,-1.161498,-1.161498,-0.96,NaN,0,-0.1081559,-11,-11
54421,69997636,0,0,0,0.2585996,-1.161893,-1.161893,-0.84,NaN,0,-0.1084068,-11,-11
54871,70100333,0,0,0,0.2585996,-1.16288,-1.16288,-0.9399999999999999,NaN,0,-0.1089734,-11,-11
55318,70202887,0,0,0,0.2585996,-1.165387,-1.165387,-1.05,NaN,0,-0.1113435,-11,-11
55770,70305650,0,0,0,0.2585996,-1.166499,-1.166499,-1.13,NaN,0,-0.1121804,-11,-11
56218,70408989,0,0,0,0.2585996,-1.171772,-1.171772,-0.88,NaN,0,-0.1170881,-11,-11
56674,70512141,0,0,0,0.2585996,-1.17758,-1.17758,-0.91,NaN,0,-0.1228957,-11,-11
57090,70614098,0,0,0,0.2585996,-1.183412,-1.183412,-0.88,NaN,0,-0.1285906,-12,-12
57543,70715909,0,0,0,0.2585996,-1.184508,-1.184508,-1.06,NaN,0,-0.1294193,-12,-12
57992,70818883,0,0,0,0.2585996,-1.186062,-1.186062,-0.68,NaN,0,-0.1308356,-11,-11
58450,70923096,0,0,0,0.2585996,-1.187679,-1.187679,-0.78,NaN,0,-0.1320179,-11,-11
58896,71026153,0,0,0,0.2585996,-1.186336,-1.186336,-0.62,NaN,0,-0.1305452,-11,-11
59347,71128654,0,0,0,0.2585996,-1.185256,-1.185256,-0.7,NaN,0,-0.1294648,-11,-11
59761,71231561,0,0,0,0.2585996,-1.185384,-1.185384,-0.71,NaN,0,-0.1293188,-11,-11
60214,71333402,0,0,0,0.2585996,-1.184853,-1.184853,-0.6,NaN,0,-0.1284979,-11,-11
60665,71436608,0,0,0,0.2585996,-1.183752,-1.183752,-0.5600000000000001,NaN,0,-0.127397,-11,-11
61117,71539059,0,0,0,0.2585996,-1.181043,-1.181043,-0.71,NaN,0,-0.1245506,-10,-10
61533,71641829,0,0,0,0.2585996,-1.177203,-1.177203,-0.51,NaN,0,-0.1203597,-10,-10
61984,71745426,0,0,0,0.2585996,-1.174263,-1.174263,-0.83,NaN,0,-0.1172821,-10,-10
62433,71848592,0,0,0,0.2585996,-1.171316,-1.171316,-0.8,NaN,0,-0.1138392,-10,-10
62892,71950541,0,0,0,0.2585996,-1.169781,-1.169781,-0.91,NaN,0,-0.1123044,-10,-10
63340,72053659,0,0,0,0.2585996,-1.167161,-1.167161,-0.87,NaN,0,-0.1093945,-10,-10
63792,72155080,0,0,0,0.2585996,-1.167853,-1.167853,-0.63,NaN,0,-0.1099417,-10,-10
64207,72258923,0,0,0,0.2585996,-1.167478,-1.167478,-0.72,NaN,0,-0.1092998,-10,-10
64659,72361390,0,0,0,0.2585996,-1.168577,-1.168577,-0.72,NaN,0,-0.1102378,-10,-10
65111,72464109,0,0,0,0.2585996,-1.167706,-1.167706,-0.57,NaN,0,-0.1092369,-9,-9
65564,72568425,0,0,0,0.2585996,-1.166184,-1.166184,-0.59,NaN,0,-0.1074408,-10,-10
66011,72670684,0,0,0,0.2585996,-1.164371,-1.164371,-0.76,NaN,0,-0.1054903,-10,-10
66464,72773808,0,0,0,0.2585996,-1.16309,-1.16309,-0.67,NaN,0,-0.1037824,-10,-10
66913,72876845,0,0,0,0.2585996,-1.160522,-1.160522,-0.8,NaN,0,-0.1010767,-10,-10
67369,72979536,0,0,0,0.2585996,-1.160147,-1.160147,-0.76,NaN,0,-0.1005726,-10,-10
67785,73082857,0,0,0,0.2585996,-1.158805,-1.158805,-0.68,NaN,0,-0.09880278000000001,-10,-10
68236,73186246,0,0,0,0.2585996,-1.157614,-1.157614,-0.72,NaN,0,-0.09747479000000001,-10,-10
68653,73288530,0,0,0,0.2585996,-1.14972,-1.14972,-0.58,NaN,0,-0.0893055,-9,-9
69106,73391083,0,0,0,0.2585996,-1.146322,-1.146322,-0.7,NaN,0,-0.08577035,-9,-9
69555,73493561,0,0,0,0.2585996,-1.143335,-1.143335,-0.82,NaN,0,-0.08250902,-9,-9
69975,73596514,0,0,0,0.2585996,-1.142748,-1.142748,-0.61,NaN,0,-0.08184538,-9,-9
70424,73699431,0,0,0,0.2585996,-1.141231,-1.141231,-0.85,NaN,0,-0.08019862,-9,-9
70872,73803274,0,0,0,0.2585996,-1.140131,-1.140131,-0.58,NaN,0,-0.07868728999999999,-9,-9
71328,73905021,0,0,0,0.2585996,-1.140022,-1.140022,-0.9399999999999999,NaN,0,-0.078441,-9,-9
71780,74008536,0,0,0,0.2585996,-1.142426,-1.142426,-0.84,NaN,0,-0.08084462000000001,-9,-9
72199,74110424,0,0,0,0.2585996,-1.146784,-1.146784,-0.92,NaN,0,-0.08463822,-9,-9
72646,74214509,0,0,0,0.2585996,-1.150497,-1.150497,-0.77,NaN,0,-0.0880836,-9,-9
73099,74317529,0,0,0,0.2585996,-1.153393,-1.153393,-0.76,NaN,0,-0.09083495,-9,-9
73549,74420894,0,0,0,0.2585996,-1.156882,-1.156882,-0.8,NaN,0,-0.09417949,-9,-9
74002,74524351,0,0,0,0.2585996,-1.160431,-1.160431,-0.7,NaN,0,-0.09759066,-10,-10
74418,74627343,0,0,0,0.2585996,-1.163367,-1.163367,-0.65,NaN,0,-0.1000231,-9,-9
74871,74730281,0,0,0,0.2585996,-1.165238,-1.165238,-0.76,NaN,0,-0.1017564,-9,-9
75317,74834028,0,0,0,0.2585996,-1.164684,-1.164684,-0.64,NaN,0,-0.1009363,-9,-9
75771,74936405,0,0,0,0.2585996,-1.164399,-1.164399,-0.89,NaN,0,-0.1005138,-9,-9
76223,75039546,0,0,0,0.2585996,-1.164775,-1.164775,-0.74,NaN,0,-0.1004619,-9,-9
76644,75143317,0,0,0,0.2585996,-1.164159,-1.164159,-0.84,NaN,0,-0.09970888999999999,-9,-9
77093,75248309,0,0,0,0.2585996,-1.161639,-1.161639,-0.6899999999999999,NaN,0,-0.09705196000000001,-9,-9
77546,75351332,0,0,0,0.2585996,-1.159973,-1.159973,-0.92,NaN,0,-0.0949584,-9,-9
77995,75455214,0,0,0,0.2585996,-1.157658,-1.157658,-1.08,NaN,0,-0.09250627,-9,-9
78446,75557818,0,0,0,0.2585996,-1.158711,-1.158711,-0.76,NaN,0,-0.09328446999999999,-9,-9
78895,75661915,0,0,0,0.2585996,-1.158663,-1.158663,-0.8100000000000001,NaN,0,-0.09295426,-9,-9
79342,75764235,0,0,0,0.2585996,-1.159833,-1.159833,-0.83,NaN,0,-0.09412394,-8,-8
79792,75866891,0,0,0,0.2585996,-1.160087,-1.160087,-1.13,NaN,0,-0.09396622,-8,-8
80244,75969652,0,0,0,0.2585996,-1.162582,-1.162582,-0.68,NaN,0,-0.09631584,-8,-8
80663,76072850,0,0,0,0.2585996,-1.164553,-1.164553,-0.9,NaN,0,-0.09787474,-8,-8
81116,76175250,0,0,0,0.2585996,-1.16698,-1.16698,-0.87,NaN,0,-0.1001652,-9,-9
81563,76280111,0.03999962,7.017702e-05,0.01423711,0.2585996,-1.167576,-1.167576,-0.76,NaN,0,-0.1003335,-8,-8
81984,76383910,0.0899992,0.0001629069,0.05347869,0.2585996,-1.168489,-1.168489,-0.58,NaN,0,-0.1011095,-7,-7
82433,76488067,0.1374989,0.0002380311,0.09881455,0.2585996,-1.168372,-1.168372,-0.97,NaN,0,-0.1008551,-7,-7
82883,76596875,0.1862488,0.0003231615,0.1483969,0.2585996,-1.168058,-1.168058,-0.83,NaN,0,-0.1001212,-7,-7
83333,76700288,0.2362488,0.0004272014,0.196406,0.2585996,-1.16911,-1.16911,-0.55,NaN,0,-0.101036,-6,-6
83778,76805393,0.2849987,0.0005671382,0.2458058,0.2585996,-1.16874,-1.16874,-0.67,NaN,0,-0.1002384,-6,-6
84203,76909395,0.3414164,0.0006045103,0.2953783,0.2585996,-1.164101,-1.163074,-0.42,NaN,0,-0.09457227999999999,0,0
84653,77015551,0.2797318,0.0001939833,0.303954,0.2585996,-1.157792,-1.142397,-0.73,NaN,0,-0.07374272,11,20
85107,77121554,0.2379293,2.090633e-05,0.2673166,0.2585996,-1.138979,-1.09604,-0.61,NaN,0,-0.02738652,20,41
85522,77227160,0.2296986,0.0001359284,0.2366995,0.2585996,-1.111577,-1.033968,-0.76,NaN,0,0.03497603,25,56
85974,77332341,0.2484196,0.0001447201,0.2454803,0.2585996,-1.074502,-0.9685899,-0.77,NaN,0,0.1003539,30,55
86425,77439431,0.2527163,0.0001117587,0.2532033,0.2585996,-1.03159,-0.8988814000000001,-0.67,NaN,0,0.1706346,33,55
86876,77545665,0.2499407,7.328391000000001e-05,0.2541043,0.2585996,-0.9818845,-0.8296662,-0.8,NaN,0,0.2402999,36,57
87292,77654649,0.2437441,1.877546e-05,0.2443184,0.2585996,-0.9275681,-0.7619687000000001,-0.67,NaN,0,0.3085085,39,56
87742,77759368,0.2604382,1.341105e-05,0.2489641,0.2585996,-0.8695327,-0.6982313,-0.54,NaN,0,0.3729784,42,56
88192,77866250,0.2538245,0.000172317,0.2517016,0.2585996,-0.8100089,-0.6343235,-0.08,NaN,0,0.4373362,44,55
88643,77969884,0.2509842,0.0003478229,0.2503434,0.2585996,-0.7465823,-0.5641325,-0.29,NaN,0,0.5081377,46,56
89094,78076595,0.2608337,0.0004384816,0.2538183,0.2585996,-0.6827908,-0.4907061,-0.29,NaN,0,0.5819456,47,53
89547,78182559,0.2724832,0.0003146231,0.2612503,0.2585996,-0.6158239,-0.418218,0.07000000000000001,NaN,0,0.6548837,47,52
89994,78288550,0.2462476,0.0002029836,0.2585013,0.2585996,-0.5477247,-0.3428387,-0.06,NaN,0,0.7309802,48,52
90445,78395877,0.2578651,0.0004033148,0.2526266,0.2585996,-0.4787071,-0.2644843,-0.05,NaN,0,0.8101587,47,53
90897,78500421,0.2454145,0.0005575567,0.2473014,0.2585996,-0.4089774,-0.1853132,0.06,NaN,0,0.8901156,47,55
91345,78606051,0.2446054,0.0008387119,0.2465729,0.2585996,-0.3386113,-0.1080214,-0.06,NaN,0,0.9680787,47,53
91797,78711235,0.2420701,0.0008293837,0.2461155,0.2585996,-0.2677942,-0.03183643,0.1,NaN,0,1.044416,47,52
92244,78818092,0.2402797,0.0006825179,0.240577,0.2585996,-0.19835,0.04295731,0.06,NaN,0,1.119363,47,52
92698,78924722,0.249216,0.0006824434000000001,0.2466414,0.2585996,-0.1267956,0.1156008,0.09,NaN,0,1.192159,47,51
93112,79031345,0.2540653,0.0007091463,0.2536603,0.2585996,-0.05683105,0.1812848,-0.02,NaN,0,1.257995,48,48
93566,79136911,0.2495639,0.000605911,0.252643,0.2585996,0.01514111,0.2391073,0.1,NaN,0,1.315818,49,48
94016,79244103,0.2464519,0.0006033927,0.250535,0.2585996,0.0872618,0.2963382,0.5,NaN,0,1.372621,51,50
94468,79349352,0.2565794,0.0006708503,0.2533147,0.2585996,0.1595808,0.3545022,0.42,NaN,0,1.430518,52,51
94886,79456418,0.2767644,0.0007138252,0.2598106,0.2585996,0.2304118,0.4155675,0.45,NaN,0,1.491294,54,52
95336,79560393,0.301652,0.000782758,0.2833053,0.2585996,0.3063203,0.4763665,0.45,NaN,0,1.551688,62,52
95783,79665607,0.3127928,0.0008966625,0.3012758,0.2585996,0.3858846,0.5443892,0.47,NaN,0,1.619589,72,60
96203,79768297,0.3144599,0.001017988,0.3071432,0.2585996,0.479864,0.6185562,0.48,NaN,0,1.693481,85,72
96653,79876485,0.3079827,0.001035243,0.3085182,0.2585996,0.5836743,0.7058302,0.78,NaN,0,1.780336,95,81
97101,79984576,0.2921714,0.0008180439000000001,0.3043902,0.2585996,0.6958008,0.8057402,0.64,NaN,0,1.879681,104,92
97554,80088587,0.2997775,0.0008316934,0.2976449,0.2585996,0.8148428,0.916023,0.96,NaN,0,1.989529,111,104
98003,80196311,0.2813773,0.0007523596,0.2917349,0.2585996,0.9363028,1.038914,1.05,NaN,0,2.111626,116,111
98457,80300108,0.2773765,0.0008754432,0.283267,0.2585996,1.065325,1.168947,0.91,NaN,0,2.241217,120,119
98876,80408633,0.2778383,0.0008167922,0.2798528,0.2585996,1.198092,1.308994,1.07,NaN,0,2.380814,123,124
99329,80514903,0.2707569,0.0009309649,0.2760855,0.2585996,1.333859,1.448223,1.38,NaN,0,2.519578,125,128
99777,80620860,0.2752599,0.001217335,0.2761361,0.2585996,1.468628,1.591627,1.48,NaN,0,2.662531,126,131
100231,80727400,0.282178,0.001481622,0.2800291,0.2585996,1.608818,1.739281,1.84,NaN,0,2.809377,127,130
100673,80833949,0.2752562,0.001342863,0.2786578,0.2585996,1.743431,1.888575,1.84,NaN,0,2.958717,127,132
101119,80939662,0.2732277,0.0009598732,0.2776682,0.2585996,1.879311,2.036451,1.97,NaN,0,3.106341,127,131
101531,81045938,0.2699501,0.0007306933,0.2733513,0.2585996,2.012605,2.187612,2.17,NaN,0,3.257456,127,134
101977,81151301,0.251537,0.0004655421,0.2659647,0.2585996,2.150245,2.336752,2.41,NaN,0,3.40655,126,132
102420,81258866,0.2542109,0.000221014,0.2602743,0.2585996,2.288451,2.489251,2.23,NaN,0,3.55892,125,133
102838,81365372,0.2586862,8.672476e-05,0.258433,0.2585996,2.427093,2.636769,2.3,NaN,0,3.706682,125,133
103280,81474316,0.2563612,9.980798e-05,0.2573674,0.2585996,2.566185,2.778069,2.69,NaN,0,3.848218,125,132
103728,81583347,0.2722307,0.0001765788,0.2603801,0.2585996,2.705574,2.919825,2.99,NaN,0,3.990371,125,130
104136,81691650,0.2665155,0.0003201962,0.2657159,0.2585996,2.845239,3.056832,3.08,NaN,0,4.12763,125,128
104578,81802603,0.2451794,0.0002410412,0.2611575,0.2585996,2.985194,3.198346,3.15,NaN,0,4.269679,126,129
105027,81910715,0.2485453,0.0002169162,0.2475035,0.2585996,3.125339,3.337898,3.1,NaN,0,4.409657,126,131
105440,82019827,0.2581723,0.0003467798,0.2554957,0.2585996,3.265695,3.478348,3.38,NaN,0,4.550511,126,129
105886,82127059,0.2634277,0.0005370975,0.2574016,0.2585996,3.406179,3.613437,3.58,NaN,0,4.68586,127,130
106326,82233848,0.2680654,0.0006369054,0.2604682,0.2585996,3.543104,3.74477,3.48,NaN,0,4.817444,127,128
106774,82338560,0.2667641,0.0005904436000000001,0.264682,0.2585996,3.683906,3.871278,3.82,NaN,0,4.944212,129,128
107188,82445663,0.2653084,0.0003834367,0.2650317,0.2585996,3.821049,4.000406,4.3,NaN,0,5.073173,130,125
107635,82553256,0.2670457,0.0002375543,0.2670361,0.2585996,3.961943,4.133974,4.5,NaN,0,5.206634,131,129
108076,82661034,0.2541782,4.407763e-05,0.2623693,0.2585996,4.095433,4.268181,4.65,NaN,0,5.340597,131,129
108522,82768063,0.2600781,1.633167e-05,0.2595787,0.2585996,4.236398,4.408662,4.76,NaN,0,5.48097,131,130
108966,82874664,0.2669146,6.622076e-05,0.2652297,0.2585996,4.377392,4.552603,4.69,NaN,0,5.624896,130,129
109409,82982340,0.2679004,0.0001012087,0.2661227,0.2585996,4.518403,4.698309,4.84,NaN,0,5.770434,130,130
109823,83090586,0.2604773,0.0001664162,0.2650044,0.2585996,4.659453,4.846236,4.84,NaN,0,5.918377,129,130
110264,83197427,0.2549406,0.0001817346,0.2590846,0.2585996,4.79677,4.99189,5.13,NaN,0,6.064031,128,131
110712,83302867,0.2604632,0.0003136992,0.2589138,0.2585996,4.93783,5.132854,5.56,NaN,0,6.20501,128,129
111154,83411652,0.2526529,0.0004602671,0.2580768,0.2585996,5.078887,5.282032,5.39,NaN,0,6.354218,128,130
111600,83518362,0.244569,0.0004999787,0.253446,0.2585996,5.219894,5.428949,5.77,NaN,0,6.501364,127,132
112014,83625657,0.2477486,0.0005216599,0.2464746,0.2585996,5.356289,5.57607,5.76,NaN,0,6.648561,124,129
112460,83731817,0.2414081,0.0004826337,0.2444515,0.2585996,5.493873,5.720078,6.11,NaN,0,6.79312,120,126
112904,83838880,0.2361897,0.0004869848,0.2422031,0.2585996,5.624009,5.862452,6.05,NaN,0,6.935645,114,119
113347,83944558,0.2414977,0.0005653799,0.2412772,0.2585996,5.752378,5.993212,6.24,NaN,0,7.066855,107,112
113758,84051605,0.2392321,0.0005940944,0.2437933,0.2585996,5.871115,6.118983,6.4,NaN,0,7.192513,99,102
114173,84159387,0.2388624,0.0005758107,0.2413349,0.2585996,5.98569,6.237174,6.39,NaN,0,7.310291,91,93
114612,84267461,0.2361588,0.0004087389,0.2391421,0.2585996,6.089441,6.346634,6.21,NaN,0,7.419767,82,84
115062,84371986,0.2186366,0.0002500266,0.2333804,0.2585996,6.187574,6.438957,6.33,NaN,0,7.511525,73,75
115505,84480473,0.2189084,0.0002946258,0.2206513,0.2585996,6.277093,6.525342,6.69,NaN,0,7.597932,64,70
115917,84589943,0.2395118,0.0003941059,0.2274273,0.2585996,6.358088,6.601962,6.53,NaN,0,7.674552,56,59
116363,84697075,0.2336476,0.0004152358,0.2343175,0.2585996,6.430793,6.662603,6.98,NaN,0,7.735072,49,47
116803,84805722,0.2416456,0.0005687177,0.2407173,0.2585996,6.495624,6.715397,6.73,NaN,0,7.787729,42,40
117249,84913120,0.2445555,0.0005990416,0.2420218,0.2585996,6.553091,6.759016,7,NaN,0,7.8315,36,31
117662,85021366,0.2445016,0.0005637258,0.2407461,0.2585996,6.603751,6.795167,7.14,NaN,0,7.867789,30,26
118108,85128608,0.2558748,0.0005190969,0.2472355,0.2585996,6.648187,6.825357,7.16,NaN,0,7.898124,25,20
118551,85238863,0.2490231,0.000402838,0.2519041,0.2585996,6.686974,6.851097,7.2,NaN,0,7.923863,21,13
118999,85347592,0.246562,0.000357464,0.2495106,0.2585996,6.720665,6.873988,7.19,NaN,0,7.946754,17,10
119446,85457506,0.2449754,0.0003770739,0.2479273,0.2585996,6.749769,6.893522,7.06,NaN,0,7.966006,14,8
119892,85564620,0.2532357,0.0004351139,0.2466738,0.2585996,6.775371,6.908734,6.83,NaN,0,7.981065,10,8
120337,85673703,0.2562094,0.0004601181,0.2527919,0.2585996,6.796638,6.915456,7.06,NaN,0,7.987635,8,2
120782,85782568,0.2526887,0.0004673302,0.254076,0.2585996,6.814787,6.91889,7.25,NaN,0,7.990917,7,2
121197,85888024,0.2466997,0.0005898029,0.2526145,0.2585996,6.830305,6.921969,7.12,NaN,0,7.993995,5,1
121643,86001156,0.2425998,0.001527354,0.2480979,0.2585996,6.844557,6.92737,7.18,NaN,0,7.998824,4,0
122090,86109953,0.241787,0.002995715,0.2481106,0.2585996,6.855779,6.933631,7,NaN,0,8.004483,3,0
122506,86219546,0.2442929,0.003661588,0.2457607,0.2585996,6.865324,6.939274,6.89,NaN,0,8.009043,1,0
122955,86328512,0.2448125,0.003695115,0.2487306,0.2585996,6.873396,6.940552,7.07,NaN,0,8.008991999999999,1,-1
123397,86436386,0.2514256,0.003128886,0.2536663,0.2585996,6.880229,6.938382,6.92,NaN,0,8.005136,0,0
123844,86542545,0.2485837,0.002651796,0.2517369,0.2585996,6.886068,6.934538,7.1,NaN,0,7.999531,0,-2
124253,86650866,0.2626085,0.002784133,0.2605318,0.2585996,6.891157,6.928506,6.97,NaN,0,7.99108,1,-2
124701,86757072,0.2585333,0.002916157,0.2618888,0.2585996,6.895716,6.922462,6.91,NaN,0,7.982555,1,-4
125145,86865616,0.2570796,0.002758414,0.2633463,0.2585996,6.899833,6.914867,6.92,NaN,0,7.971894,2,-1
125559,86972296,0.2510398,0.002309412,0.2593034,0.2585996,6.903901,6.909212,6.91,NaN,0,7.963187,3,0
126002,87080788,0.2626376,0.002288699,0.2574181,0.2585996,6.907947,6.901614,6.63,NaN,0,7.952026,4,2
126443,87189461,0.2642622,0.002310485,0.2657718,0.2585996,6.912093,6.893695,7.22,NaN,0,7.940064,6,1
126892,87296023,0.2612164,0.00216496,0.2658788,0.2585996,6.916459,6.885762,6.8,NaN,0,7.928133,7,1
127336,87405058,0.2424279,0.002275035,0.2587336,0.2585996,6.921116,6.884558,7.42,NaN,0,7.922664,8,4
127782,87511858,0.2429843,0.002587616,0.2494249,0.2585996,6.92603,6.891219,7.12,NaN,0,7.924755,8,10
128189,87618584,0.2317856,0.002700627,0.2441093,0.2585996,6.931052,6.905523,7.47,NaN,0,7.934223,7,12
128636,87725798,0.228935,0.002262741,0.2372159,0.2585996,6.935925,6.925547,7.76,NaN,0,7.949249,5,13
129082,87833104,0.2509133,0.002579361,0.2424525,0.2585996,6.940348,6.950062,7.87,NaN,0,7.96885,3,9
129530,87938617,0.2524315,0.002951473,0.2516333,0.2585996,6.94401,6.973219,6.99,NaN,0,7.987018,0,5
129971,88047033,0.2371924,0.00269118,0.2461822,0.2585996,6.946592,6.991255,6.75,NaN,0,7.999339,-2,3
130418,88153024,0.2468016,0.002349973,0.2402728,0.2585996,6.948121,7.000454,6.78,NaN,0,8.003237,-4,0
130861,88261958,0.2619825,0.002695709,0.2509136,0.2585996,6.948571,6.997908,6.7,NaN,0,7.994578,-4,-4
131308,88367637,0.2605238,0.002726912,0.2645029,0.2585996,6.948168,6.986572,6.49,NaN,0,7.977208,-4,-7
131749,88475828,0.231328,0.001644745,0.252296,0.2585996,6.947266,6.970166,7.56,NaN,0,7.954469,-3,-7
132197,88583411,0.232028,0.0007613897,0.2382038,0.2585996,6.946151,6.965495,7.85,NaN,0,7.931587,-3,-1
132606,88691287,0.2656416,0.0006963611,0.2437439,0.2585996,6.944979,6.965265,7.59,NaN,0,7.906318,-3,-2
133050,88801414,0.245704,0.000354588,0.2574297,0.2585996,6.943757,6.967947,6.97,NaN,0,7.882281,-3,-4
133498,88906792,0.2320938,0.0002967715,0.2340574,0.2585996,6.94246,6.970084,6.1,NaN,0,7.858685,-4,0
133938,89013910,0.2750629,0.0002498031,0.2532045,0.2585996,6.941097,6.965088,6.58,NaN,0,7.828855,-3,-2
134385,89119361,0.2440993,0.0001365542,0.2533953,0.2585996,6.939709,6.948414,7.36,NaN,0,7.787744,-2,-4
134794,89225846,0.2598703,0.0003372133,0.2567316,0.2585996,6.938606,6.933775,7.04,NaN,0,7.747821,0,-5
135241,89332949,0.274686,0.0007299483,0.2674526,0.2585996,6.937923,6.922602,6.84,NaN,0,7.714043,1,-6
135683,89440390,0.262134,0.001065195,0.2680467,0.2585996,6.937806,6.912273,6.6,NaN,0,7.681703,2,-2
136130,89546378,0.2646091,0.001284063,0.264338,0.2585996,6.938329,6.903746,6.58,NaN,0,7.649638,4,2
136571,89653611,0.2577926,0.001481503,0.2622311,0.2585996,6.939477,6.896182,6.65,NaN,0,7.62114,5,0
136986,89761605,0.2524528,0.00135839,0.2582724,0.2585996,6.941333,6.890971,6.28,NaN,0,7.593987,7,7
137429,89868417,0.2627332,0.001532614,0.252105,0.2585996,6.943705,6.882288,6.25,NaN,0,7.564437,9,6
137873,89974658,0.2510101,0.001477599,0.26186,0.2585996,6.94688,6.872519,6.33,NaN,0,7.535244,11,8
138284,90083701,0.2331112,0.001106054,0.2425253,0.2585996,6.950669,6.866573,6.89,NaN,0,7.509102,12,13
138725,90190952,0.2484473,0.001104727,0.2461134,0.2585996,6.955242,6.868594,7.15,NaN,0,7.492698,13,15
139140,90296372,0.2299739,0.001668587,0.2416653,0.2585996,6.960355,6.876884,6.37,NaN,0,7.484333,13,17
139585,90403388,0.2459297,0.00276953,0.2424939,0.2585996,6.965779,6.886441,6.37,NaN,0,7.478998,13,18
140031,90510078,0.2643143,0.00376752,0.2575043,0.2585996,6.971326,6.888273,6.58,NaN,0,7.468028,14,12
140441,90617405,0.2546032,0.003658652,0.2586423,0.2585996,6.976782,6.887532,6.59,NaN,0,7.45508,14,10
140887,90723748,0.2550378,0.002645135,0.2554474,0.2585996,6.982433,6.88582,6.73,NaN,0,7.443099,15,13
141329,90832469,0.2462915,0.001826271,0.2549222,0.2585996,6.988144,6.891036,6.47,NaN,0,7.439739,15,14
141775,90939570,0.240483,0.001155391,0.2493488,0.2585996,6.993834,6.898851,6.83,NaN,0,7.437881,15,15
142194,91047611,0.2490391,0.001006335,0.2456575,0.2585996,6.999371,6.909073,6.64,NaN,0,7.440122,14,17
142644,91154427,0.2562842,0.001106501,0.2504773,0.2585996,7.004616,6.919717,6.92,NaN,0,7.442015,13,15
143087,91262614,0.2675375,0.002570212,0.2605644,0.2585996,7.009454,6.928915,7.11,NaN,0,7.443233,12,12
143534,91368427,0.2531555,0.004350871,0.2611431,0.2585996,7.013803,6.938652,7,NaN,0,7.443807,11,10
143944,91477288,0.2557366,0.005783379,0.2627629,0.2585996,7.017489,6.950067,7.18,NaN,0,7.446829,10,8
144392,91584235,0.2544486,0.006476521,0.264919,0.2585996,7.020622,6.961617,7.3,NaN,0,7.448735,8,8
144833,91693125,0.2541447,0.006182373,0.2629615,0.2585996,7.02302,6.97368,7.52,NaN,0,7.45098,7,7
145280,91800522,0.2490001,0.005074739,0.2567916,0.2585996,7.024604,6.98852,7.38,NaN,0,7.456367,4,8
145722,91907825,0.2388134,0.004120708,0.2484896,0.2585996,7.02528,7.004369,8.06,NaN,0,7.461986,2,6
146164,92017550,0.2424573,0.003403753,0.2444243,0.2585996,7.024941,7.019073,8.1,NaN,0,7.465039,0,3
146613,92125407,0.2380798,0.002169177,0.2427764,0.2585996,7.023517,7.039636,8.380000000000001,NaN,0,7.475554,-3,2
147022,92234301,0.2282741,0.001015455,0.2393681,0.2585996,7.020868,7.06454,7.81,NaN,0,7.489655,-7,0
147470,92341947,0.2263262,0.0007893294,0.2272957,0.2585996,7.016802,7.088122,7.21,NaN,0,7.503097,-12,-1
147915,92449919,0.2287355,0.0005849153,0.2216645,0.2585996,7.011523,7.100486,7.74,NaN,0,7.506268,-15,-4
148330,92556374,0.2582416,0.0006783605,0.2405558,0.2585996,7.004495,7.101653,7.84,NaN,0,7.49931,-17,-14
148772,92664417,0.2603801,0.000666827,0.2516893,0.2585996,6.996197,7.092853,7.39,NaN,0,7.482719,-18,-18
149219,92770402,0.2453391,0.0005776286,0.2530642,0.2585996,6.986993,7.077782,7.07,NaN,0,7.459767,-19,-21
149660,92877820,0.2435961,0.0005578101,0.2456129,0.2585996,6.977294,7.058667,7.09,NaN,0,7.434724,-18,-18
150073,92989586,0.2516682,0.00054124,0.2453361,0.2585996,6.967229,7.038941,6.88,NaN,0,7.407537,-17,-18
150519,93096894,0.2519791,0.0004782379,0.2520663,0.2585996,6.957668,7.016852,7.1,NaN,0,7.381207,-15,-19
150964,93203565,0.2558711,0.0003795326,0.252194,0.2585996,6.948662,6.99645,7.01,NaN,0,7.356036,-13,-17
151411,93309363,0.2626161,0.0002855659,0.2550178,0.2585996,6.940449,6.97897,7.49,NaN,0,7.333962,-12,-16
151820,93416852,0.2538876,0.0002535582,0.2569383,0.2585996,6.933184,6.962646,7.47,NaN,0,7.312345,-10,-12
152266,93523589,0.2478832,0.0009541065,0.249685,0.2585996,6.926965,6.950695,7.53,NaN,0,7.296205,-8,-9
152706,93631835,0.2485408,0.001663134,0.2507412,0.2585996,6.921814,6.940512,6.55,NaN,0,7.282932,-6,-7
153154,93740400,0.2565346,0.0011895,0.2563925,0.2585996,6.917714,6.928303,6.73,NaN,0,7.268724,-4,-9
153596,93847353,0.259977,0.0005472302,0.2639709,0.2585996,6.914751,6.915717,6.99,NaN,0,7.254467,-2,-7
154043,93953534,0.2582835,0.000348866,0.2578601,0.2585996,6.912782,6.906319,6.64,NaN,0,7.244169,0,-4
154484,94059608,0.2565164,0.0003695488,0.2578893,0.2585996,6.911883,6.898979,6.74,NaN,0,7.236173,0,0
154900,94167662,0.2669964,0.0004027486,0.2627341,0.2585996,6.911941,6.893402,6.57,NaN,0,7.229939,2,-1
155345,94275641,0.2622295,0.0004078448,0.2640179,0.2585996,6.912897,6.883901,7.01,NaN,0,7.220873,4,0
155791,94381586,0.26263,0.0002915263,0.2619674,0.2585996,6.914784,6.879208,7.01,NaN,0,7.215852,6,3
156199,94489398,0.2699132,0.0003933609,0.2685797,0.2585996,6.917503,6.877683,6.83,NaN,0,7.214846,7,2
156645,94599352,0.2723525,0.0006148219,0.2732773,0.2585996,6.921034,6.878398,6.71,NaN,0,7.217103,8,2
157088,94706308,0.2774694,0.001387537,0.2800691,0.2585996,6.925065,6.877861,6.6,NaN,0,7.218946,9,1
157531,94812935,0.2679479,0.001626343,0.2792361,0.2585996,6.929584,6.876714,6.44,NaN,0,7.221042,10,4
157975,94919188,0.2556733,0.001803935,0.2678829,0.2585996,6.934525,6.873785,6.52,NaN,0,7.221515,11,8
158418,95027820,0.2596176,0.001901954,0.2601939,0.2585996,6.939857,6.872538,6.77,NaN,0,7.223511,12,11
158864,95133642,0.2572208,0.001575291,0.2614115,0.2585996,6.945533,6.874371,7.03,NaN,0,7.231729,13,13
159305,95240654,0.2547504,0.001391083,0.2603763,0.2585996,6.951456,6.882089,7.42,NaN,0,7.243453,13,16
159724,95347807,0.2296537,0.001140937,0.2464313,0.2585996,6.95745,6.899953,7.73,NaN,0,7.266009,12,19
160164,95455432,0.225409,0.001127884,0.2315606,0.2585996,6.963207,6.928607,6.9,NaN,0,7.300125,9,19
160609,95561376,0.2446232,0.001517236,0.2334819,0.2585996,6.968319,6.953907,7.83,NaN,0,7.331048,6,16
161049,95669247,0.2460679,0.002154559,0.243941,0.2585996,6.972474,6.979685,8.42,NaN,0,7.362456,3,10
161498,95775918,0.2354954,0.002479374,0.2432764,0.2585996,6.9754,7.01367,7.74,NaN,0,7.402675,-1,7
161908,95884098,0.2328389,0.002531588,0.232898,0.2585996,6.97679,7.042921,8.050000000000001,NaN,0,7.438403,-6,5
162353,95991409,0.2256803,0.002453253,0.2296267,0.2585996,6.976402,7.066783,8.49,NaN,0,7.470276,-10,0
162796,96098554,0.2373789,0.002778724,0.2331291,0.2585996,6.974169,7.081017,7.71,NaN,0,7.492529,-13,-4
163206,96205642,0.2338163,0.002810553,0.2398922,0.2585996,6.970178,7.085809,7.35,NaN,0,7.505178,-16,-11
163653,96313870,0.2354535,0.002721548,0.241604,0.2585996,6.964656,7.079671,7.44,NaN,0,7.509447,-17,-14
164097,96422973,0.2421075,0.002440095,0.2341787,0.2585996,6.95796,7.067761,7.36,NaN,0,7.508028,-18,-16
164543,96531629,0.2333537,0.002074078,0.2368996,0.2585996,6.950489,7.051307,6.92,NaN,0,7.502835,-18,-18
164984,96640407,0.2213289,0.001571015,0.2313253,0.2585996,6.942651,7.031351,7.06,NaN,0,7.495841,-17,-16
165400,96746380,0.2365144,0.001450285,0.23465,0.2585996,6.934826,7.011767,6.73,NaN,0,7.488541,-15,-16
165842,96855852,0.2419924,0.001460329,0.236776,0.2585996,6.927533,6.990967,6.92,NaN,0,7.480626,-13,-15
166288,96962279,0.2582304,0.002096444,0.2559724,0.2585996,6.920664,6.968454,7.32,NaN,0,7.471403,-11,-18
166731,97069555,0.2384153,0.002074897,0.2516592,0.2585996,6.914826,6.949394,6.89,NaN,0,7.467015,-9,-14
167176,97174894,0.2431994,0.001819313,0.2426141,0.2585996,6.909863,6.936341,7.21,NaN,0,7.469809,-7,-9
167588,97283276,0.2547173,0.001961648,0.2500362,0.2585996,6.906074,6.926362,7.19,NaN,0,7.474585,-5,-8
168037,97390642,0.2573138,0.002384186,0.25638,0.2585996,6.903234,6.919571,7.06,NaN,0,7.48441,-4,-6
168480,97497499,0.1824662,0.0011563,0.2240712,0.2585996,6.901426,6.917572,6.87,NaN,0,7.500204,-3,2
168890,97605909,0.2208314,0.001006648,0.2095515,0.2585996,6.900418,6.922859,8.07,NaN,0,7.52406,-2,5
169340,97714662,0.2382318,0.0007428676,0.2248276,0.2585996,6.900001,6.932124,8.699999999999999,NaN,0,7.551361,-3,2
169782,97824075,0.268571,0.001157463,0.2538215,0.2585996,6.89994,6.952038,8.140000000000001,NaN,0,7.590921,-5,-5
170228,97931570,0.2307825,0.0009199828,0.2482592,0.2585996,6.89986,6.970904,8.74,NaN,0,7.62992,-7,-5
170670,98038614,0.2209494,0.0007316321,0.2320813,0.2585996,6.899434,7.001361,8.630000000000001,NaN,0,7.681291,-10,-4
171117,98144415,0.2305162,0.0008691251,0.2313064,0.2585996,6.898233,7.038404,7.89,NaN,0,7.738535,-15,-8
171559,98253528,0.2163369,0.001183912,0.2294798,0.2585996,6.895855,7.06921,7.1,NaN,0,7.790406,-20,-12
172006,98359431,0.2433391,0.001749113,0.2304805,0.2585996,6.891915,7.083876,7.12,NaN,0,7.825115,-24,-16
172447,98466718,0.2333181,0.001685709,0.2343187,0.2585996,6.886652,7.078928,6.84,NaN,0,7.840208,-25,-21
172896,98573581,0.2382931,0.001382902,0.2350535,0.2585996,6.880084,7.064162,6.82,NaN,0,7.843631,-25,-26
173338,98680629,0.2476016,0.0009631217,0.2450054,0.2585996,6.872804,7.033853,6.73,NaN,0,7.830496,-23,-29
173788,98793414,0.2682109,0.0006565154,0.2557344,0.2585996,6.865035,6.995153,6.65,NaN,0,7.809817,-20,-29
174236,98897887,0.2774427,0.000541836,0.26462,0.2585996,6.858201,6.955646,7.12,NaN,0,7.786477,-16,-29
174677,99004266,0.2799017,0.0005070567,0.2795494,0.2585996,6.852602,6.916328,6.82,NaN,0,7.762471,-11,-27
175092,99111016,0.2838275,0.0004250407,0.2826707,0.2585996,6.848374,6.884143,7.01,NaN,0,7.744912,-7,-22
175536,99220641,0.2749852,0.0004208386,0.279945,0.2585996,6.845961,6.858908,6.66,NaN,0,7.734989,-2,-16
175981,99327883,0.2825984,0.0004762411,0.280932,0.2585996,6.845461,6.841098,6.97,NaN,0,7.722282,0,-12
176391,99434838,0.2825282,0.0005699098,0.2833186,0.2585996,6.846775,6.829542,7.01,NaN,0,7.713244,4,-7
176836,99540840,0.2828276,0.0005382895,0.2844092,0.2585996,6.849843,6.825041,6.67,NaN,0,7.710666,6,-2
177278,99647968,0.2709033,0.0002889931,0.2770899,0.2585996,6.854296,6.823105,6.58,NaN,0,7.710798,8,3
177725,99753918,0.2601797,0.000708282,0.2663803,0.2585996,6.860145,6.825407,6.54,NaN,0,7.715175,10,8
178164,99862360,0.2579696,0.0009888411000000001,0.2611217,0.2585996,6.866833,6.831517,6.67,NaN,0,7.722909,11,12
178614,99968623,0.262115,0.0006632507,0.263509,0.2585996,6.874453,6.838809,6.58,NaN,0,7.731384,11,13
179055,100075297,0.2569124,0.0003526807,0.2599042,0.2585996,6.882367,6.843481,6.68,NaN,0,7.737391,12,16
179502,100179687,0.2486609,0.0001408309,0.2546288,0.2585996,6.890827,6.85064,6.09,NaN,0,7.745733,13,15
179912,100288554,0.2511765,0.0001229048,0.2495941,0.2585996,6.899463,6.855279,6.34,NaN,0,7.75141,13,16
180359,100396529,0.2383067,0.0001619607,0.2448904,0.2585996,6.908173,6.856636,6.63,NaN,0,7.753804,14,18
180803,100504533,0.2457793,0.0001947284,0.2425019,0.2585996,6.91689,6.863569,6.43,NaN,0,7.761615,14,18
181212,100613201,0.2604586,0.0002636611,0.2529295,0.2585996,6.925521,6.867289,6.56,NaN,0,7.766449,14,15
181662,100721513,0.2489852,0.0002262592,0.2520662,0.2585996,6.934025,6.866709,6.56,NaN,0,7.766616,15,15
182106,100831519,0.2460237,0.0005384684,0.249201,0.2585996,6.942193,6.868821,6.59,NaN,0,7.769613,16,15
182554,100937070,0.2530706,0.001002461,0.2506722,0.2585996,6.950451,6.874022,6.28,NaN,0,7.775996,16,16
182996,101044554,0.2427704,0.001186728,0.247487,0.2585996,6.958531,6.878514,6.52,NaN,0,7.781755,16,18
183442,101151335,0.2393389,0.001013726,0.2447531,0.2585996,6.966389,6.88439,6.7,NaN,0,7.789196,16,17
183888,101258581,0.2547396,0.0008704662,0.2432961,0.2585996,6.973961,6.892434,6.47,NaN,0,7.798887,15,19
184334,101365856,0.272058,0.0007832646,0.2568866,0.2585996,6.981164,6.899371,6.3,NaN,0,7.807678,15,14
184776,101474862,0.2572677,0.0008996129,0.2602592,0.2585996,6.987963,6.902285,6.49,NaN,0,7.812598,15,14
185225,101581064,0.2539591,0.0009559989,0.2553295,0.2585996,6.994372,6.905091,6.55,NaN,0,7.817267,15,13
185633,101689907,0.23995,0.0008517504,0.251684,0.2585996,7.000404,6.911595,6.66,NaN,0,7.826082,15,15
186076,101798857,0.2442277,0.0009361356,0.2457317,0.2585996,7.006022,6.919929,6.25,NaN,0,7.836499,14,15
186524,101906406,0.2443407,0.000876829,0.2475541,0.2585996,7.011161,6.925065,6.48,NaN,0,7.843702,13,15
186937,102015838,0.252112,0.0008327961,0.2488869,0.2585996,7.015812,6.926177,6.46,NaN,0,7.846965,13,13
187384,102122603,0.243487,0.0007758588,0.2477438,0.2585996,7.020039,6.927141,6.58,NaN,0,7.84986,13,14
187827,102231374,0.2380191,0.0006563216,0.2405424,0.2585996,7.023909,6.929451,6.69,NaN,0,7.854154,13,15
188273,102338419,0.246939,0.0007948725999999999,0.2413395,0.2585996,7.02744,6.933891,6.54,NaN,0,7.860516,12,14
188685,102446883,0.2489957,0.0009044558,0.2476684,0.2585996,7.030541,6.934689,6.84,NaN,0,7.863229,12,13
189131,102554215,0.2443117,0.0007043332,0.2465157,0.2585996,7.033413,6.937495,6.58,NaN,0,7.86795,12,13
189574,102663363,0.2339594,0.0005885959,0.2391652,0.2585996,7.035985,6.943413,6.91,NaN,0,7.875638,11,13
190018,102770312,0.2372676,0.0005415976,0.2419783,0.2585996,7.038219,6.95002,7.16,NaN,0,7.884313,10,13
190465,102879399,0.2428761,0.0004735291,0.2424769,0.2585996,7.04006,6.959197,6.94,NaN,0,7.895557,9,13
190875,102989388,0.2389021,0.0004272163,0.236682,0.2585996,7.041457,6.970353,6.71,NaN,0,7.90862,8,12
191323,103097297,0.2455871,0.0006419419999999999,0.2385308,0.2585996,7.042247,6.9765,6.54,NaN,0,7.916386,7,8
191769,103206275,0.2292521,0.001032785,0.2406567,0.2585996,7.042468,6.978187,6.8,NaN,0,7.920139,6,8
192214,103312564,0.2374508,0.001426533,0.2357106,0.2585996,7.042176,6.97965,6.79,NaN,0,7.923518,5,8
192623,103420695,0.2472827,0.001534387,0.2417004,0.2585996,7.041444,6.981553,6.75,NaN,0,7.927565,5,6
193068,103525921,0.2442484,0.001414686,0.2393615,0.2585996,7.040321,6.98118,7.06,NaN,0,7.929327,4,5
193509,103634311,0.2507593,0.001323879,0.2420696,0.2585996,7.038873,6.982278,6.87,NaN,0,7.932486,3,4
193957,103741064,0.2549901,0.001303911,0.2474839,0.2585996,7.037145,6.98198,6.88,NaN,0,7.93469,3,1
194365,103850882,0.2411129,0.001160085,0.2487335,0.2585996,7.035295,6.982756,6.86,NaN,0,7.937968,3,3
194815,103957899,0.236309,0.0009673982999999999,0.240181,0.2585996,7.033141,6.984785,7.13,NaN,0,7.942355,2,2
195256,104068310,0.2525642,0.001204938,0.2455735,0.2585996,7.030788,6.985927,6.66,NaN,0,7.946152,1,1
195704,104174649,0.259779,0.001545936,0.2521848,0.2585996,7.028257,6.982832,7.35,NaN,0,7.945552,1,0
196113,104282994,0.2634274,0.001768738,0.2594041,0.2585996,7.025639,6.976397,7.6,NaN,0,7.941619,2,-3
196556,104395594,0.2633529,0.001790732,0.2663283,0.2585996,7.022968,6.975002,7.81,NaN,0,7.943169,2,-4
197000,104502432,0.2502483,0.001068592,0.2643254,0.2585996,7.020406,6.980659,7.99,NaN,0,7.951183,1,-2
197441,104610425,0.2449077,0.0006138086,0.2550414,0.2585996,7.017774,6.998326,8.01,NaN,0,7.971498,0,0
197888,104716799,0.2570536,0.0005898774,0.2489683,0.2585996,7.014811,7.020751,7.91,NaN,0,7.996426,-4,0
198327,104824993,0.2437606,0.000573352,0.2471019,0.2585996,7.011183,7.046489,7.37,NaN,0,8.024811,-7,-2
198769,104930834,0.2387578,0.0006914586,0.2417566,0.2585996,7.006594,7.064018,8.25,NaN,0,8.044994000000001,-11,-4
199212,105039648,0.2437445,0.0008491576,0.2400301,0.2585996,7.001086,7.076184,8.140000000000001,NaN,0,8.059808,-14,-7
199627,105145701,0.2334947,0.0009979308,0.2422568,0.2585996,6.994325,7.092107,8.220000000000001,NaN,0,8.078234,-17,-11
200069,105255793,0.2331285,0.001081571,0.2408681,0.2585996,6.986617,7.105574,7.87,NaN,0,8.094867000000001,-20,-14
200515,105363547,0.268758,0.001642972,0.2519617,0.2585996,6.977538,7.11107,7.36,NaN,0,8.102789,-23,-21
200956,105471385,0.2605026,0.001871914,0.2607094,0.2585996,6.967691,7.100207,7.47,NaN,0,8.094498,-24,-25
201373,105577722,0.2519455,0.001997888,0.2638647,0.2585996,6.956875,7.082466,7.09,NaN,0,8.078961,-24,-29
201812,105687320,0.2587431,0.001898915,0.2607417,0.2585996,6.945766,7.058255,7.75,NaN,0,8.057032,-22,-24
202252,105797638,0.2580366,0.001605868,0.2620577,0.2585996,6.934808,7.033376,8.029999999999999,NaN,0,8.03406,-21,-26
202697,105904586,0.2701104,0.001756787,0.2664702,0.2585996,6.92438,7.008425,8.029999999999999,NaN,0,8.011024000000001,-18,-25
203139,106012661,0.2655531,0.001658827,0.2703588,0.2585996,6.914793,6.986935,7.82,NaN,0,7.991296,-16,-23
203587,106118711,0.2760644,0.001968384,0.2693112,0.2585996,6.906257,6.969897,7.67,NaN,0,7.975868,-14,-21
204029,106226853,0.2638796,0.002008587,0.2726344,0.2585996,6.898868,6.954902,7.91,NaN,0,7.962346,-12,-18
204440,106331867,0.2707129,0.002177358,0.2677833,0.2585996,6.892679,6.942865,7.97,NaN,0,7.951476,-10,-13
204885,106440147,0.2842403,0.002504081,0.2748429,0.2585996,6.887674,6.933969,7.66,NaN,0,7.9439,-9,-15
205329,106546370,0.2879317,0.002858788,0.2871462,0.2585996,6.883803,6.924516,6.37,NaN,0,7.935484,-7,-14
205740,106654381,0.2683793,0.002683848,0.2808765,0.2585996,6.881028,6.915334,6.23,NaN,0,7.92718,-5,-12
206185,106761010,0.2946369,0.003059775,0.2883361,0.2585996,6.879306,6.906573,6.32,NaN,0,7.919442,-4,-8
206594,106870527,0.2830372,0.002772778,0.2914583,0.2585996,6.878608,6.893333,6.16,NaN,0,7.907232,-1,-7
207039,106976333,0.2781001,0.002465129,0.2857831,0.2585996,6.878964,6.876918,6.12,NaN,0,7.891549,1,-6
207481,107082856,0.2900037,0.002343297,0.2898589,0.2585996,6.880468,6.850334,6.35,NaN,0,7.865849,5,-4
207897,107188896,0.281425,0.002016038,0.2881831,0.2585996,6.883332,6.829397,6.1,NaN,0,7.845789,9,1
208339,107295345,0.2957357,0.002111316,0.289181,0.2585996,6.887689,6.811775,6.23,NaN,0,7.828908,12,5
208780,107402347,0.2949154,0.002178848,0.2972258,0.2585996,6.893566,6.797312,6.22,NaN,0,7.81533,16,9
209227,107510253,0.2971908,0.001900524,0.295534,0.2585996,6.90092,6.787269,5.97,NaN,0,7.806165,19,10
209669,107618611,0.2914999,0.001440763,0.2985149,0.2585996,6.90966,6.77865,6.03,NaN,0,7.797987,23,16
210081,107723707,0.2678497,0.001712352,0.2861424,0.2585996,6.919681,6.777068,6.29,NaN,0,7.796849,25,21
210491,107831525,0.2729437,0.002194464,0.2792105,0.2585996,6.930802,6.780676,6.6,NaN,0,7.800746,27,26
210936,107939614,0.2748188,0.001476526,0.278583,0.2585996,6.942758,6.793122,6.58,NaN,0,7.812833,27,30
211376,108047942,0.2588608,0.0006590188,0.2756473,0.2585996,6.955221,6.812335,6.21,NaN,0,7.831612,27,31
211823,108153645,0.2821226,0.001110762,0.2750857,0.2585996,6.967791,6.833124,6.3,NaN,0,7.852027,26,31
212267,108261823,0.275403,0.002216995,0.2760339,0.2585996,6.979795,6.847419,5.96,NaN,0,7.865666,26,29
212712,108366705,0.2635762,0.002463907,0.2746198,0.2585996,6.991687,6.858733,6.45,NaN,0,7.876538,25,26
213153,108476906,0.2569262,0.001185387,0.2670542,0.2585996,7.003031,6.870606,6.42,NaN,0,7.888121,24,31
213599,108584042,0.2503679,0.001814336,0.2577758,0.2585996,7.013712,6.887197,6.84,NaN,0,7.904566,23,29
214042,108691421,0.2466404,0.003717631,0.2539629,0.2585996,7.023555,6.909806,7.4,NaN,0,7.927603,21,30
214450,108800821,0.2450403,0.003766537,0.255205,0.2585996,7.032345,6.937457,8.01,NaN,0,7.956207,18,27
214896,108906172,0.2376546,0.002491176,0.2482059,0.2585996,7.039817,6.971216,8.09,NaN,0,7.99105,13,25
215336,109013997,0.2440392,0.001486704,0.2473429,0.2585996,7.045634,7.015501,7.35,NaN,0,8.036792,8,20
215750,109120386,0.2480765,0.001421452,0.2500418,0.2585996,7.049378,7.055994,7.35,NaN,0,8.078811,2,13
216189,109229388,0.2266612,0.001293316,0.2424873,0.2585996,7.050714,7.093263,7.47,NaN,0,8.118048,-4,9
216637,109334859,0.2250059,0.001168475,0.2305949,0.2585996,7.049481,7.11809,7.87,NaN,0,8.145057,-9,5
217078,109442922,0.2444901,0.001014963,0.2353387,0.2585996,7.045958,7.140348,7.6,NaN,0,8.170014999999999,-14,-3
217524,109551534,0.2590245,0.0005302726999999999,0.2475666,0.2585996,7.039638,7.154605,7.91,NaN,0,8.187112000000001,-19,-12
217935,109660524,0.2454706,0.0002222806,0.2498775,0.2585996,7.03117,7.16081,7.02,NaN,0,8.19652,-22,-19
218380,109767421,0.2498034,0.0003662109,0.2490499,0.2585996,7.020701,7.158407,7.19,NaN,0,8.197322,-25,-23
218821,109876554,0.258079,0.001180649,0.2540668,0.2585996,7.008619,7.147231,7.12,NaN,0,8.189128999999999,-27,-26
219263,109983949,0.2585584,0.001991093,0.2565686,0.2585996,6.995405,7.12625,7.04,NaN,0,8.171284,-27,-29
219673,110091664,0.2630267,0.002402544,0.2580222,0.2585996,6.981586,7.101816,6.8,NaN,0,8.149917,-26,-29
220120,110200594,0.268032,0.002384484,0.257542,0.2585996,6.967672,7.071776,7.21,NaN,0,8.122935999999999,-24,-28
220568,110306909,0.2802675,0.002351254,0.2713509,0.2585996,6.954163,7.043027,7.31,NaN,0,8.096735000000001,-22,-30
220978,110414501,0.2933342,0.002686679,0.2859747,0.2585996,6.941465,7.015316,6.74,NaN,0,8.071726,-20,-31
221421,110520404,0.263508,0.00207451,0.2784854,0.2585996,6.929893,6.988555,6.97,NaN,0,8.047153,-17,-24
221863,110628509,0.2797453,0.002358198,0.2765538,0.2585996,6.919687,6.965924,6.63,NaN,0,8.02694,-14,-19
222307,110735515,0.3164075,0.003173947,0.2874205,0.2585996,6.910987,6.945652,6.38,NaN,0,8.008501000000001,-11,-21
222752,110843930,0.2984657,0.0030334,0.3029957,0.2585996,6.903872,6.923548,6.91,NaN,0,7.988297,-8,-18
223196,110951642,0.2923117,0.003481835,0.2960977,0.2585996,6.89842,6.906368,6.82,NaN,0,7.972588,-5,-13
223606,111059347,0.2774658,0.004741162,0.292544,0.2585996,6.894627,6.894903,6.8,NaN,0,7.962528,-3,-10
224051,111166791,0.2750652,0.006468028,0.2853571,0.2585996,6.892393,6.888995,7.25,NaN,0,7.957443,-1,-5
224494,111275114,0.2650964,0.006185532,0.2771266,0.2585996,6.891547,6.888332,7.2,NaN,0,7.957597,0,0
224902,111384892,0.2699593,0.00541085,0.2748208,0.2585996,6.891856,6.893923,7.51,NaN,0,7.963508,0,0
225350,111491403,0.2470046,0.003907308,0.2697437,0.2585996,6.893032,6.904664,7.16,NaN,0,7.974768,0,4
225768,111601526,0.2208129,0.002655908,0.241572,0.2585996,6.894794,6.923452,6.85,NaN,0,7.994007,0,9
226211,111710966,0.2424866,0.002308175,0.241425,0.2585996,6.896657,6.94125,7.37,NaN,0,8.012536000000001,-2,10
226652,111821011,0.230908,0.0008854121,0.2381078,0.2585996,6.898337,6.959214,7.98,NaN,0,8.031018,-4,9
227094,111929399,0.2297722,0.0004803836,0.2332404,0.2585996,6.899563,6.983957,7.96,NaN,0,8.056775999999999,-7,4
227510,112037108,0.260931,0.001194239,0.2416043,0.2585996,6.900029,7.009222,8.119999999999999,NaN,0,8.08314,-10,1
227957,112143628,0.2607338,0.00189665,0.2517137,0.2585996,6.899474,7.02249,8.359999999999999,NaN,0,8.097866,-13,-7
228397,112253353,0.2880179,0.001386225,0.2676582,0.2585996,6.897823,7.026965,8.220000000000001,NaN,0,8.104094999999999,-15,-13
228844,112361329,0.2677674,0.0006605685,0.2755441,0.2585996,6.895115,7.023726,8.27,NaN,0,8.102482,-16,-19
229287,112470422,0.2465093,0.000209257,0.2585844,0.2585996,6.891705,7.020238,7.13,NaN,0,8.101259000000001,-16,-14
229736,112579378,0.2586901,0.0002368689,0.2535838,0.2585996,6.887613,7.018017,6.68,NaN,0,8.101380000000001,-17,-14
230178,112687606,0.2651812,0.0004075468,0.2608789,0.2585996,6.883213,7.006093,6.99,NaN,0,8.091455,-17,-16
230586,112796869,0.2591479,0.0006651878,0.2589314,0.2585996,6.878652,6.991214,7.19,NaN,0,8.078568000000001,-16,-16
231032,112903064,0.2610262,0.0006895661,0.2570518,0.2585996,6.874198,6.977747,6.8,NaN,0,8.06723,-14,-15
231471,113012572,0.2586758,0.000783354,0.260475,0.2585996,6.87006,6.963453,7.04,NaN,0,8.055071999999999,-13,-15
231918,113118331,0.2694671,0.001043022,0.2650643,0.2585996,6.866416,6.949564,6.68,NaN,0,8.043532000000001,-11,-15
232326,113226825,0.2794625,0.001117796,0.2713007,0.2585996,6.863419,6.932492,6.53,NaN,0,8.029329000000001,-9,-14
232773,113333867,0.2949985,0.00128597,0.2873115,0.2585996,6.861235,6.91086,6.72,NaN,0,8.010771999999999,-6,-16
233214,113443354,0.2681897,0.0007204711,0.2841447,0.2585996,6.860078,6.887169,6.9,NaN,0,7.990094,-3,-11
233658,113548325,0.2726729,0.0003157854,0.2732963,0.2585996,6.860147,6.870935,7.18,NaN,0,7.977096,0,-6
234071,113658253,0.2689593,0.0001732707,0.2717767,0.2585996,6.861493,6.864272,6.75,NaN,0,7.974094,1,-2
234512,113763620,0.2775583,0.0002400577,0.2703945,0.2585996,6.86401,6.861786,6.96,NaN,0,7.974905,3,1
234954,113872853,0.2825532,0.0004801452,0.2767048,0.2585996,6.867539,6.861682,6.98,NaN,0,7.978463,4,0
235369,113978607,0.2830276,0.0006620586,0.2811036,0.2585996,6.871911,6.864511,6.71,NaN,0,7.984823,5,1
235812,114087936,0.2804976,0.0007741451,0.2798182,0.2585996,6.87694,6.864703,6.71,NaN,0,7.988831,6,2
236261,114193956,0.2796592,0.0007235408,0.2820736,0.2585996,6.882502,6.865177,6.88,NaN,0,7.992906,7,2
236672,114302316,0.2817363,0.0007742345,0.2838906,0.2585996,6.888507,6.864141,6.64,NaN,0,7.995333,8,3
237113,114413067,0.263019,0.0006166697,0.2743968,0.2585996,6.894885,6.865805,6.83,NaN,0,8.000591,9,10
237556,114518868,0.2474357,0.0006878078,0.2609092,0.2585996,6.90153,6.875082,7.22,NaN,0,8.013400000000001,9,14
238001,114627149,0.2581915,0.0007807612,0.2562661,0.2585996,6.908245,6.891351,7.05,NaN,0,8.033056,8,14
238445,114734057,0.268584,0.0008285642,0.2636387,0.2585996,6.914766,6.908991,6.77,NaN,0,8.053741,7,11
238851,114842247,0.2707538,0.0009676218000000001,0.2672385,0.2585996,6.920839,6.922691,6.93,NaN,0,8.070698,5,8
239296,114948461,0.2721476,0.001048505,0.2709906,0.2585996,6.926316,6.932219,7.24,NaN,0,8.083607000000001,4,5
239740,115057461,0.2710188,0.001082271,0.2723852,0.2585996,6.931013,6.944142,6.68,NaN,0,8.098649999999999,3,6
240183,115164082,0.2668065,0.001011223,0.2684422,0.2585996,6.935114,6.9515,7.06,NaN,0,8.109173999999999,2,4
240592,115271070,0.2656937,0.0009721816,0.2678995,0.2585996,6.938477,6.958549,7.08,NaN,0,8.119343000000001,1,1
241041,115378945,0.2757882,0.000916332,0.2738792,0.2585996,6.941115,6.963976,6.99,NaN,0,8.127883000000001,0,-1
241482,115485055,0.2720214,0.0009298623,0.2732463,0.2585996,6.943072,6.966519,7.18,NaN,0,8.133737,0,-1
241896,115590968,0.2748838,0.0009854435999999999,0.273542,0.2585996,6.944416,6.968531,6.83,NaN,0,8.138992,-1,0
242337,115698321,0.2775415,0.0009665191,0.2760202,0.2585996,6.945218,6.969596,7.03,NaN,0,8.143169,-1,-3
242782,115806529,0.2775654,0.0009114742,0.2762899,0.2585996,6.945562,6.968194,6.97,NaN,0,8.145071,-2,-4
243227,115914363,0.2787872,0.0007916689,0.2749652,0.2585996,6.945544,6.96682,6.81,NaN,0,8.147069,-2,-2
243667,116022610,0.2743102,0.0006226599,0.2756184,0.2585996,6.945256,6.962584,7.03,NaN,0,8.146214000000001,-2,-2
244082,116128873,0.2716188,0.0005130768,0.2728995,0.2585996,6.944811,6.958214,6.86,NaN,0,8.145146,-1,-1
244526,116237520,0.2644007,0.0003980994,0.2692506,0.2585996,6.944306,6.953917,7.22,NaN,0,8.144228999999999,-1,0
244972,116343791,0.2662321,0.0004898906,0.2666117,0.2585996,6.943819,6.953021,7.1,NaN,0,8.146637,-1,0
245416,116451659,0.2763567,0.000666976,0.2715158,0.2585996,6.943366,6.95395,6.8,NaN,0,8.150808,-1,-1
245865,116558056,0.2820423,0.0008567274,0.2788654,0.2585996,6.942928,6.952172,6.75,NaN,0,8.152334,-1,-1
246305,116664681,0.2796792,0.001130372,0.2777289,0.2585996,6.942532,6.948596,7.01,NaN,0,8.152139,0,-1
246748,116769973,0.2626022,0.001278549,0.2722769,0.2585996,6.942226,6.945962,7.23,NaN,0,8.152730999999999,0,1
247191,116879363,0.2585568,0.001312852,0.2638989,0.2585996,6.942037,6.947435,7.36,NaN,0,8.156959000000001,0,0
247602,116988138,0.2554758,0.001079082,0.2610078,0.2585996,6.941916,6.954993,7.55,NaN,0,8.167324000000001,-1,2
248049,117095571,0.2577343,0.0008528233000000001,0.2571855,0.2585996,6.941729,6.967597,7.55,NaN,0,8.182392,-2,4
248490,117203123,0.253245,0.0006450117,0.2547131,0.2585996,6.941289,6.981878,7.37,NaN,0,8.199244,-4,3
248934,117310608,0.2502566,0.0006179512,0.2525302,0.2585996,6.940411,6.996306,7.62,NaN,0,8.216113,-6,1
249342,117419364,0.2513841,0.0006242096,0.2543682,0.2585996,6.93891,7.011766,7.54,NaN,0,8.233938999999999,-9,-3
249788,117527269,0.249307,0.000469625,0.2515575,0.2585996,6.936666,7.024755,7.73,NaN,0,8.249347,-11,-5
250231,117635523,0.2626596,0.0005350709,0.2517177,0.2585996,6.933589,7.034466,7.6,NaN,0,8.261339,-13,-6
250676,117742138,0.2673892,0.0004571378,0.2596385,0.2585996,6.929662,7.041267,7.6,NaN,0,8.270016,-15,-13
251117,117850785,0.2640835,0.000382483,0.2639598,0.2585996,6.924922,7.043111,7.83,NaN,0,8.273989,-17,-14
251531,117956377,0.2554062,0.0005128384,0.2613169,0.2585996,6.919482,7.044131,7.61,NaN,0,8.277015,-18,-14
251974,118064625,0.2457505,0.0006224215,0.2519583,0.2585996,6.913767,7.04655,7.74,NaN,0,8.281311000000001,-19,-16
252419,118170379,0.2462619,0.0005367845,0.251077,0.2585996,6.907216,7.047347,7.63,NaN,0,8.284381,-21,-15
252828,118277617,0.2401854,0.0003270656,0.2444165,0.2585996,6.900199,7.04978,7.39,NaN,0,8.289096000000001,-22,-16
253243,118389173,0.2399214,0.0003038794,0.240933,0.2585996,6.892552,7.05059,7.36,NaN,0,8.292346999999999,-23,-15
253686,118498324,0.2476203,0.0003043413,0.2436756,0.2585996,6.88474,7.045039,7.34,NaN,0,8.288817999999999,-24,-18
254129,118605121,0.2475622,0.0004482567,0.2482611,0.2585996,6.876935,7.034618,7.03,NaN,0,8.280900000000001,-24,-20
254574,118711507,0.2455961,0.0006020367,0.2463029,0.2585996,6.868919,7.020064,7.49,NaN,0,8.268649999999999,-23,-21
254984,118817908,0.2501649,0.000639379,0.2483207,0.2585996,6.861143,7.005383,7.55,NaN,0,8.256394999999999,-22,-22
255430,118925629,0.2482219,0.0004108846,0.2487944,0.2585996,6.853802,6.992193,7.49,NaN,0,8.245654,-21,-21
255875,119035293,0.2521506,0.0003226697,0.2487972,0.2585996,6.847205,6.980454,7.17,NaN,0,8.236706999999999,-20,-21
256320,119141858,0.2601028,0.0003832877,0.2523465,0.2585996,6.841095,6.968457,7.3,NaN,0,8.226884,-18,-18
256761,119251057,0.2604094,0.0005037785,0.2573895,0.2585996,6.835738,6.957276,6.97,NaN,0,8.218152999999999,-17,-18
257205,119357795,0.2581352,0.0006018877,0.2584837,0.2585996,6.831192,6.946512,7.2,NaN,0,8.209707999999999,-15,-19
257614,119466069,0.2558765,0.0005901456,0.2581191,0.2585996,6.827493,6.934222,7.06,NaN,0,8.199921,-14,-15
258063,119571306,0.2643367,0.0007861555,0.2608112,0.2585996,6.8247,6.923546,7.48,NaN,0,8.191402999999999,-12,-15
258475,119679528,0.2741362,0.001186967,0.2651796,0.2585996,6.822824,6.914782,7.27,NaN,0,8.184920999999999,-10,-16
258917,119787344,0.2793157,0.001638502,0.274481,0.2585996,6.821856,6.904756,6.88,NaN,0,8.177030999999999,-8,-16
259361,119894924,0.2715007,0.001549423,0.2771881,0.2585996,6.821808,6.892019,6.64,NaN,0,8.166544,-6,-13
259802,120002262,0.2884634,0.001775056,0.2812709,0.2585996,6.822721,6.878497,6.76,NaN,0,8.155037,-4,-13
260220,120107911,0.2825129,0.001568049,0.2864024,0.2585996,6.824655,6.864574,6.78,NaN,0,8.143075,-1,-10
260659,120214916,0.2798085,0.001304269,0.2816267,0.2585996,6.827659,6.852424,6.54,NaN,0,8.132930999999999,1,-6
261107,120320853,0.2718503,0.0007478595,0.2774156,0.2585996,6.831748,6.840971,6.4,NaN,0,8.123614999999999,3,-2
261548,120430613,0.2774848,0.0005437434,0.2761248,0.2585996,6.836921,6.829784,6.54,NaN,0,8.114174,6,2
261962,120535541,0.2678986,0.0004358888,0.2749756,0.2585996,6.843167,6.822319,6.42,NaN,0,8.108371999999999,9,4
262372,120643463,0.2745585,0.0005914867,0.2733146,0.2585996,6.850428,6.815456,6.51,NaN,0,8.103301999999999,11,9
262818,120748537,0.2836378,0.0009167194,0.2764279,0.2585996,6.858625,6.810774,6.36,NaN,0,8.100285,13,11
263259,120855950,0.2919216,0.001293898,0.2865453,0.2585996,6.867689,6.804786,6.37,NaN,0,8.095867999999999,16,10
263704,120962420,0.2991749,0.001802325,0.2958972,0.2585996,6.877563,6.799014,6.28,NaN,0,8.091469,18,11
264147,121069867,0.294631,0.001906425,0.2973833,0.2585996,6.888219,6.792488,6.49,NaN,0,8.086558999999999,21,10
264597,121176102,0.2894274,0.001794577,0.2965821,0.2585996,6.899617,6.790065,6.65,NaN,0,8.085289,23,17
265036,121281919,0.281911,0.001373082,0.288833,0.2585996,6.911663,6.794669,6.43,NaN,0,8.091137,24,18
265445,121387927,0.2749322,0.001144648,0.2822608,0.2585996,6.923845,6.803595,6.18,NaN,0,8.101238,25,22
265892,121495949,0.2559546,0.001128554,0.2693444,0.2585996,6.936602,6.814165,6.26,NaN,0,8.112784,25,26
