LineNo,TimeUS,Instance,RPM,RawRPM,Volt,Curr,Temp,CTot,MotTemp,Err
2215,57078716,1,0,0,16.02,0.04,25,0,0,0
2623,57181646,1,0,0,16.02,0.04,25,0,0,0
3079,57297613,1,0,0,16.02,0.04,25,0,0,0
3499,57405160,1,0,0,16.02,0.04,25,0,0,0
3912,57508308,1,0,0,16.02,0.04,25,0,0,0
4370,57621576,1,0,0,16.02,0.04,25,0,0,0
5195,57834346,1,0,0,16.02,0.04,25,0,0,0
5608,57938532,1,0,0,16.02,0.04,25,0,0,0
6057,58049261,1,0,0,16.02,0.04,25,0,0,0
6467,58154117,1,0,0,16.02,0.04,25,0,0,0
6882,58257908,1,0,0,16.02,0.04,25,0,0,0
7339,58373146,1,0,0,16.02,0.04,25,0,0,0
7744,58472823,1,0,0,16.02,0.04,25,0,0,0
8160,58578382,1,0,0,16.02,0.04,25,0,0,0
8612,58692359,1,0,0,16.02,0.04,25,0,0,0
9027,58796131,1,0,0,16.02,0.04,25,0,0,0
9481,58911864,1,0,0,16.02,0.04,25,0,0,0
9900,59018836,1,0,0,16.02,0.04,25,0,0,0
10313,59120200,1,0,0,16.02,0.04,25,0,0,0
11056,59341845,1,0,0,16.02,0.04,25,0,0,0
11468,59445540,1,0,0,16.01,0.04,25,0,0,0
11878,59547639,1,0,0,16.01,0.04,25,0,0,0
12333,59666548,1,0,0,16.02,0.04,25,0,0,0
12746,59772082,1,0,0,16.02,0.04,25,0,0,0
13156,59876374,1,0,0,16.02,0.04,25,0,0,0
13574,59980827,1,0,0,16.02,0.04,25,0,0,0
13988,60086664,1,0,0,16.02,0.04,25,0,0,0
14400,60192869,1,0,0,16.01,0.04,25,0,0,0
14854,60308313,1,0,0,16.02,0.04,25,0,0,0
15270,60412908,1,0,0,16.02,0.04,25,0,0,0
15679,60514388,1,0,0,16.01,0.04,25,0,0,0
16138,60626916,1,0,0,16.02,0.04,25,0,0,0
16551,60731371,1,0,0,16.02,0.04,25,0,0,0
17003,60843709,1,0,0,16.02,0.04,25,0,0,0
17418,60947923,1,0,0,16.02,0.04,25,0,0,0
18288,61169298,1,0,0,16.02,0.04,25,0,0,0
18702,61277842,1,0,0,16.02,0.04,25,0,0,0
19116,61380505,1,0,0,16.02,0.04,25,0,0,0
19528,61485397,1,0,0,16.02,0.04,25,0,0,0
20010,61602946,1,0,0,16.02,0.04,25,0,0,0
20428,61706946,1,0,0,16.02,0.04,25,0,0,0
20844,61816259,1,0,0,16.02,0.04,25,0,0,0
21258,61917708,1,0,0,16.02,0.04,25,0,0,0
21671,62025021,1,0,0,16.02,0.04,25,0,0,0
22096,62137412,1,0,0,16.02,0.04,25,0,0,0
22542,62250908,1,0,0,16.02,0.04,25,0,0,0
22952,62352672,1,0,0,16.02,0.04,25,0,0,0
23368,62460081,1,0,0,16.01,0.04,25,0,0,0
23785,62565674,1,0,0,16.01,0.04,25,0,0,0
24233,62676928,1,0,0,16.02,0.04,25,0,0,0
24654,62783240,1,0,0,16.01,0.04,25,0,0,0
25105,62896992,1,0,0,16.02,0.04,25,0,0,0
25516,63000143,1,0,0,16.02,0.04,25,0,0,0
25901,63102026,1,0,0,16.01,0.04,25,0,0,0
26350,63215703,1,0,0,16.01,0.04,25,0,0,0
26763,63317925,1,0,0,16.01,0.04,25,0,0,0
27212,63430978,1,0,0,16.01,0.04,25,0,0,0
27668,63544633,1,0,0,16.01,0.04,25,0,0,0
28083,63653978,1,0,0,16.01,0.04,25,0,0,0
28905,63863624,1,0,0,16.01,0.04,25,0,0,0
29356,63977702,1,0,0,16.01,0.04,25,0,0,0
29774,64082343,1,0,0,16.01,0.04,25,0,0,0
30150,64183304,1,0,0,16.02,0.04,25,0,0,0
30604,64295504,1,0,0,16.02,0.04,25,0,0,0
31435,64506694,1,0,0,16.02,0.04,25,0,0,0
31876,64615888,1,0,0,16.02,0.04,25,0,0,0
32329,64727165,1,0,0,16.02,0.04,25,0,0,0
32716,64833119,1,0,0,16.02,0.04,25,0,0,0
33129,64935506,1,0,0,16.02,0.04,25,0,0,0
33619,65054824,1,0,0,16.02,0.04,25,0,0,0
34030,65156280,1,0,0,16.02,0.04,25,0,0,0
34445,65265911,1,0,0,16.02,0.04,25,0,0,0
34860,65369804,1,0,0,16.02,0.04,25,0,0,0
35274,65476806,1,0,0,16.01,0.04,25,0,0,0
35727,65593139,1,0,0,16.02,0.04,25,0,0,0
36137,65695971,1,0,0,16.02,0.04,25,0,0,0
36550,65801841,1,0,0,16.02,0.04,25,0,0,0
37013,65917840,1,0,0,16.01,0.04,25,0,0,0
37443,66026912,1,0,0,16.02,0.04,25,0,0,0
37895,66128932,1,0,0,16.02,0.04,25,0,0,0
38353,66239405,1,0,0,16.02,0.04,25,0,0,0
39295,66451523,1,0,0,16.02,0.04,25,0,0,0
39752,66555945,1,0,0,16.01,0.04,25,0,0,0
40248,66672067,1,0,0,16.02,0.04,25,0,0,0
40700,66775369,1,0,0,16.02,0.04,25,0,0,0
41154,66882264,1,0,0,16.02,0.03,25,0,0,0
41609,66988991,1,0,0,16.01,0.04,25,0,0,0
42106,67101255,1,0,0,16.01,0.03,25,0,0,0
42553,67205506,1,0,0,16.01,0.04,25,0,0,0
43053,67318135,1,0,0,16.02,0.04,25,0,0,0
43506,67425873,1,0,0,16.01,0.04,25,0,0,0
43960,67529048,1,0,0,16.02,0.04,25,0,0,0
44448,67636857,1,0,0,16.01,0.04,25,0,0,0
44944,67749899,1,0,0,16.01,0.04,25,0,0,0
45361,67851026,1,0,0,16.02,0.04,25,0,0,0
45862,67963892,1,20,242,16.01,0.03,25,0,0,0
46315,68072225,1,255,400,16.01,0.06,25,0,0,0
46767,68178892,1,433,828,16,0.12,25,0,0,0
47188,68281547,1,833,1157,16,0.14,25,0,0,0
47680,68395872,1,1158,1242,16,0.11,25,0,0,0
48180,68507876,1,1244,1271,16,0.11,25,0,0,0
48628,68611247,1,1271,1285,16,0.11,25,0,0,0
49125,68724841,1,1286,1300,16.01,0.11,25,0,0,0
49573,68828391,1,1300,1300,16,0.09999999,25,0,0,0
50299,69036975,1,1300,1300,16,0.09999999,25,0,0,0
50758,69145093,1,1300,1300,16.01,0.09999999,25,0,0,0
51253,69260599,1,1300,1300,16,0.09999999,25,0,0,0
51703,69363248,1,1300,1300,16,0.09999999,25,0,0,0
52155,69470545,1,1300,1300,16.01,0.09999999,25,0,0,0
52609,69573372,1,1300,1300,16.01,0.11,25,0,0,0
53110,69689918,1,1298,1285,16,0.11,25,0,0,0
53556,69793622,1,1285,1300,16,0.09999999,26,0,0,0
54052,69907250,1,1300,1300,16,0.09999999,25,0,0,0
54510,70015344,1,1300,1300,16.01,0.09999999,26,0,0,0
54961,70117418,1,1300,1300,16,0.09999999,25,0,0,0
55415,70225889,1,1300,1300,16,0.09999999,26,0,0,0
55869,70328524,1,1300,1300,16,0.11,26,0,0,0
56363,70441953,1,1300,1300,16,0.09999999,25,0,0,0
56861,70555382,1,1300,1300,16,0.11,26,0,0,0
57309,70658140,1,1300,1300,16,0.11,26,0,0,0
57808,70771846,1,1300,1300,16,0.09999999,26,0,0,0
58217,70869274,1,1300,1300,16,0.09999999,26,0,0,0
58714,70983271,1,1300,1300,16,0.09999999,26,0,0,0
59167,71087650,1,1300,1300,16,0.11,26,0,0,0
59657,71201372,1,1300,1300,16,0.11,26,0,0,0
60116,71308636,1,1300,1300,16,0.11,25,0,0,0
60573,71416255,1,1300,1300,16,0.09999999,26,0,0,0
61026,71519636,1,1300,1300,16,0.09999999,26,0,0,0
61478,71624323,1,1299,1285,16,0.11,26,0,0,0
61974,71737365,1,1286,1300,16,0.09999999,26,0,0,0
62429,71846067,1,1300,1300,16,0.09999999,26,0,0,0
62888,71948305,1,1300,1300,16,0.11,26,0,0,0
63388,72063936,1,1300,1300,15.99,0.11,26,0,0,0
63840,72165788,1,1300,1300,16,0.11,26,0,0,0
64292,72272367,1,1299,1285,16.01,0.11,26,0,0,0
64747,72377224,1,1285,1285,16,0.11,26,0,0,0
65242,72490094,1,1285,1285,16,0.11,26,0,0,0
65697,72599412,1,1285,1285,16,0.11,26,0,0,0
66149,72701835,1,1285,1300,16,0.11,26,0,0,0
66645,72817507,1,1298,1285,16,0.11,26,0,0,0
67102,72923439,1,1285,1300,16,0.09999999,26,0,0,0
67598,73036944,1,1300,1300,16,0.09999999,26,0,0,0
68054,73141573,1,1300,1300,16,0.09999999,26,0,0,0
68962,73355590,1,1300,1300,16,0.09999999,26,0,0,0
69417,73460376,1,1300,1300,16,0.09999999,26,0,0,0
69875,73566879,1,1300,1300,15.99,0.09999999,26,0,0,0
70330,73677046,1,1300,1300,16,0.09999999,26,0,0,0
70781,73782349,1,1300,1300,16,0.09999999,26,0,0,0
71282,73894657,1,1300,1300,16,0.09999999,26,0,0,0
71737,74000430,1,1300,1300,16,0.09999999,26,0,0,0
72238,74113694,1,1300,1300,16,0.09999999,26,0,0,0
72688,74220295,1,1300,1300,16,0.09999999,26,0,0,0
73186,74333388,1,1300,1300,15.99,0.09999999,26,0,0,0
73639,74438844,1,1300,1300,16,0.09999999,26,0,0,0
74095,74544803,1,1300,1300,16,0.09999999,26,0,0,0
74547,74649858,1,1300,1300,15.99,0.09999999,26,0,0,0
75003,74756340,1,1300,1300,16,0.09999999,26,0,0,0
75457,74866117,1,1300,1300,16,0.11,26,0,0,0
75911,74967095,1,1300,1300,16,0.09999999,26,0,0,0
76409,75084256,1,1300,1300,16,0.09999999,26,0,0,0
76861,75192387,1,1300,1300,16,0.09999999,26,0,0,0
77312,75294357,1,1300,1300,16,0.09999999,26,0,0,0
78218,75503966,1,1300,1300,16,0.09999999,26,0,0,0
78714,75621527,1,1300,1300,16,0.11,26,0,0,0
79164,75723966,1,1312,1485,15.97,0.2,26,0,0,0
79618,75831080,1,1509,2057,15.86,0.6899999999999999,26,0,0,0
80108,75939832,1,2081,2442,15.94,0.5600000000000001,26,0,0,0
80565,76048402,1,2443,2457,15.98,0.5,26,0,0,0
81022,76152656,1,2455,2428,15.94,0.48,26,0,0,0
81474,76260553,1,2435,2528,15.95,0.8100000000000001,26,0,0,0
82385,76474967,1,2545,3385,15.8,1.81,26,0,0,0
82887,76597110,1,3432,3928,15.66,2.86,26,0,0,0
83337,76700526,1,3932,4000,15.28,3.94,26,0,0,0
83782,76805621,1,4041,4971,15.46,3.54,26,1,0,0
84242,76912649,1,5025,5685,15.36,3.72,26,1,0,0
84657,77015843,1,5692,6157,15.38,3.93,26,1,0,0
85611,77246368,1,6123,5414,15.56,2.07,26,1,0,0
86065,77350631,1,5371,4942,15.51,1.54,26,1,0,0
86475,77450085,1,4926,4600,15.43,1.51,26,1,0,0
86968,77567528,1,4594,4542,15.51,1.64,26,1,0,0
87871,77783950,1,4528,4257,15.38,2.72,26,1,0,0
88324,77891749,1,4271,4500,15.46,2.57,26,1,0,0
88775,78000377,1,4487,4314,15.29,2,26,1,0,0
89228,78106045,1,4309,4028,15.33,2.62,26,1,0,0
89681,78215354,1,4013,3628,15.35,2.47,27,2,0,0
90177,78330541,1,3675,4157,15.42,2.87,27,2,0,0
90618,78429935,1,4161,4342,15.41,2.9,26,2,0,0
91118,78547585,1,4366,4700,15.43,2.12,26,2,0,0
91569,78656880,1,4701,4742,15.45,2.16,27,2,0,0
92021,78760985,1,4748,4914,15.47,1.95,27,2,0,0
92474,78871654,1,4899,4757,15.41,2.38,27,2,0,0
92927,78983835,1,4755,4742,15.45,2.12,27,2,0,0
93383,79091911,1,4759,4942,15.45,2.16,27,2,0,0
93830,79200084,1,4948,5000,15.43,2.12,27,2,0,0
94287,79308827,1,4993,4900,15.44,2.01,27,2,0,0
94740,79417609,1,4894,4828,15.33,2.02,27,2,0,0
95196,79524539,1,4826,4800,15.35,2.2,27,2,0,0
95649,79634392,1,4805,4885,15.28,2.31,27,2,0,0
96103,79740599,1,4896,5157,15.22,2.4,27,3,0,0
96601,79861240,1,5153,5114,15.25,2.24,27,3,0,0
97054,79967523,1,5107,5028,15.29,2.1,27,3,0,0
97465,80068289,1,5027,5014,15.27,2.31,27,3,0,0
97964,80184517,1,5017,5057,15.29,2.29,27,3,0,0
98412,80290320,1,5053,5014,15.32,2.1,27,3,0,0
98866,80401052,1,5017,5057,15.27,2.68,27,3,0,0
99319,80507903,1,5060,5100,15.3,2.31,27,3,0,0
99773,80618378,1,5095,5028,15.29,2.07,27,3,0,0
100227,80724802,1,5030,5071,15.3,2.19,27,3,0,0
100680,80836614,1,5070,5057,15.31,2.43,27,3,0,0
101123,80940285,1,5058,5085,15.31,2.34,27,3,0,0
101570,81049372,1,5082,5042,15.31,2.15,27,3,0,0
102019,81157390,1,5037,4957,15.33,2.18,27,3,0,0
102465,81266300,1,4947,4714,15.38,1.86,27,4,0,0
102921,81379080,1,4695,4514,15.3,1.72,27,4,0,0
103325,81482562,1,4516,4585,15.38,1.98,27,4,0,0
103767,81593124,1,4592,4657,15.34,1.82,27,4,0,0
104623,81810688,1,4661,4728,15.23,1.73,27,4,0,0
104982,81900179,1,4727,4685,15.39,1.69,27,4,0,0
105433,82015321,1,4698,4828,15.29,2.34,27,4,0,0
105838,82114515,1,4828,4842,15.25,2.09,27,4,0,0
106284,82226797,1,4841,4814,15.35,2.15,27,4,0,0
106735,82333377,1,4824,5071,15.27,2.33,27,4,0,0
107181,82441233,1,5065,5000,15.23,2.42,27,4,0,0
107631,82550628,1,4998,4985,15.28,2.19,27,4,0,0
108118,82666421,1,4980,4928,15.33,1.93,27,4,0,0
108973,82877065,1,4928,5028,15.27,2.54,27,4,0,0
109458,82996351,1,5019,4942,15.33,2.12,27,5,0,0
109909,83106379,1,4949,5028,15.27,2.35,27,5,0,0
110309,83206021,1,5028,5028,15.3,2.06,27,5,0,0
110801,83320331,1,5040,5171,15.3,2.29,27,5,0,0
111694,83538609,1,5169,5128,15.33,2.27,27,5,0,0
112101,83641661,1,5120,5014,15.41,1.87,27,5,0,0
112553,83752866,1,5007,4914,15.23,2.04,28,5,0,0
113000,83862384,1,4906,4828,15.35,2.33,27,5,0,0
113443,83967257,1,4819,4728,15.33,1.99,27,5,0,0
113890,84078132,1,4736,4828,15.25,2.24,27,5,0,0
114303,84184615,1,4816,4671,15.33,1.72,27,5,0,0
114748,84293633,1,4657,4514,15.35,1.44,27,5,0,0
115192,84402864,1,4507,4414,15.37,1.96,27,5,0,0
115633,84504638,1,4409,4242,15.44,2.05,27,5,0,0
116048,84617037,1,4247,4357,15.33,3.07,27,5,0,0
116944,84839819,1,4364,4728,15.26,2.34,27,6,0,0
117432,84954550,1,4730,4757,15.25,2.26,27,6,0,0
117840,85058599,1,4767,4871,15.35,2.22,28,6,0,0
118282,85164552,1,4880,5000,15.33,2.11,27,6,0,0
119177,85390005,1,5000,5100,15.32,2.16,28,6,0,0
119625,85497644,1,5099,5085,15.35,2.09,28,6,0,0
120067,85608406,1,5084,5071,15.3,1.99,28,6,0,0
120516,85714277,1,5068,4971,15.26,1.72,28,6,0,0
120963,85828880,1,4953,4785,15.23,1.82,28,6,0,0
121416,85933994,1,4790,4857,15.36,1.78,28,6,0,0
121859,86048382,1,4834,4642,15.29,1.92,28,6,0,0
122267,86148198,1,4650,4814,15.32,2.21,28,6,0,0
122682,86257700,1,4805,4642,15.3,2.25,28,6,0,0
123136,86367617,1,4636,4528,15.29,1.81,28,7,0,0
123579,86476543,1,4533,4600,15.27,1.83,28,7,0,0
123985,86578434,1,4598,4500,15.32,1.82,28,7,0,0
124468,86696710,1,4504,4542,15.21,1.94,28,7,0,0
124924,86808612,1,4553,4657,15.24,1.71,28,7,0,0
125328,86906633,1,4656,4642,15.28,2.12,28,7,0,0
126261,87137751,1,4636,4514,15.29,1.76,28,7,0,0
126664,87239538,1,4515,4528,15.2,2,28,7,0,0
127109,87348886,1,4532,4571,15.26,1.98,28,7,0,0
128002,87566115,1,4571,4571,15.3,1.87,28,7,0,0
128444,87674258,1,4555,4385,15.29,1.54,28,7,0,0
128898,87781892,1,4380,4342,15.24,2.32,28,7,0,0
129345,87895322,1,4345,4385,15.27,2.31,28,7,0,0
129785,87997367,1,4406,4614,15.28,2.17,28,7,0,0
130186,88096553,1,4609,4428,15.35,1.46,28,7,0,0
130638,88212306,1,4399,4100,15.29,2,28,7,0,0
131085,88318623,1,4103,4185,14.97,3.31,28,8,0,0
131566,88430904,1,4213,4457,15.2,3.42,28,8,0,0
131972,88530436,1,4453,4171,15.35,1.92,28,8,0,0
132416,88642343,1,4134,3785,15.2,3.38,28,8,0,0
132871,88754565,1,3788,3828,15.03,2.84,28,8,0,0
133312,88863335,1,3826,3785,15.29,2.85,28,8,0,0
133722,88964393,1,3793,3971,15.14,3.56,28,8,0,0
134211,89079168,1,3973,4000,15.19,3.77,28,8,0,0
134653,89190101,1,3990,3928,15.16,3.07,28,8,0,0
135103,89298850,1,3904,3728,14.94,2.98,28,8,0,0
135502,89396505,1,3755,4057,15.17,2.93,28,8,0,0
135950,89504852,1,4054,4014,15.03,3.5,28,9,0,0
136395,89614559,1,4015,4042,14.94,2.87,28,9,0,0
136842,89724590,1,4062,4271,15.18,3.51,28,9,0,0
137248,89827367,1,4266,4157,15.1,3.15,28,9,0,0
137697,89934951,1,4168,4414,15.08,4.15,28,9,0,0
138588,90153547,1,4418,4557,15.24,1.68,28,9,0,0
139041,90268032,1,4555,4542,15.19,1.91,28,9,0,0
139493,90376541,1,4504,4142,15.21,1.42,28,9,0,0
139897,90479952,1,4152,4300,15.17,3.62,28,9,0,0
140346,90588033,1,4289,4142,15.07,3.4,29,9,0,0
140749,90689342,1,4149,4642,15.22,2.58,29,10,0,0
141195,90801315,1,4642,4685,15.28,1.82,29,10,0,0
141685,90918397,1,4684,4671,15.22,1.83,28,10,0,0
142138,91028682,1,4657,4557,15.22,1.8,29,10,0,0
142547,91128515,1,4551,4257,15.24,1.53,29,10,0,0
142994,91240263,1,4251,4128,15.19,2.85,29,10,0,0
143405,91341543,1,4136,4657,15.22,1.9,29,10,0,0
143886,91457562,1,4663,4785,15.22,1.92,29,10,0,0
144337,91566630,1,4783,4742,15.06,2.08,29,10,0,0
144785,91680283,1,4743,4814,15.22,2.25,29,10,0,0
145276,91797909,1,4805,4742,15.13,2,29,10,0,0
145636,91890404,1,4739,4642,15.22,2.02,29,10,0,0
146119,92006923,1,4642,4642,15.27,1.87,29,10,0,0
146568,92114747,1,4651,4771,15.26,1.93,29,10,0,0
147012,92226085,1,4754,4585,15.27,1.92,29,10,0,0
147422,92329361,1,4578,4442,15.27,1.9,29,10,0,0
147869,92439374,1,4431,4285,15.23,2.45,29,10,0,0
148323,92551548,1,4265,4071,15.17,2.79,29,11,0,0
148727,92654410,1,4080,4485,15.25,3.09,29,11,0,0
149223,92770908,1,4507,4728,15.19,2.33,29,11,0,0
150069,92983748,1,4723,4600,15.25,1.52,29,11,0,0
150512,93092024,1,4611,4771,15.18,2.12,29,11,0,0
151415,93309599,1,4771,4771,15.22,1.77,29,11,0,0
152789,93645120,1,4766,4628,15.22,2.41,29,11,0,0
153242,93756047,1,4674,5157,15.18,2.85,29,11,0,0
153644,93858246,1,5160,5342,15.21,2.28,29,11,0,0
154129,93968344,1,5331,5071,15.25,1.46,29,11,0,0
154580,94082396,1,5036,4671,15.19,1.23,29,11,0,0
155029,94195425,1,4649,4428,15.18,2.02,29,12,0,0
155478,94301803,1,4417,4314,15.22,1.68,29,12,0,0
156372,94523868,1,4299,3871,15.09,3.16,29,12,0,0
157269,94744534,1,3873,4228,14.94,4.01,29,12,0,0
157750,94858954,1,4239,4400,14.94,3.05,29,12,0,0
158191,94969361,1,4429,4671,15.14,2.31,29,12,0,0
158635,95079719,1,4680,4757,15.16,1.95,29,12,0,0
159045,95178461,1,4749,4600,15.16,1.87,29,12,0,0
159488,95286656,1,4600,4642,15.19,1.77,29,12,0,0
159975,95406971,1,4642,4642,15.28,1.44,29,12,0,0
160424,95514726,1,4597,4214,15.25,2.28,29,12,0,0
161280,95724885,1,4220,4528,15.14,1.94,29,13,0,0
161760,95842905,1,4533,4585,15.25,2.01,29,13,0,0
162168,95944078,1,4606,4785,15.23,2.33,29,13,0,0
162612,96054265,1,4790,4842,15.24,2.21,29,13,0,0
163059,96160249,1,4838,4785,15.24,2.18,29,13,0,0
163507,96275069,1,4802,5042,15.21,2,29,13,0,0
163993,96395076,1,5060,5157,15.17,1.74,29,13,0,0
164408,96499421,1,5147,5085,15.26,1.46,29,13,0,0
164848,96608514,1,5086,5114,15.27,1.53,29,13,0,0
165299,96717589,1,5098,4942,15.28,1.41,29,13,0,0
165700,96819295,1,4943,4985,15.18,1.82,29,13,0,0
166152,96930505,1,4984,4971,15.19,2.1,29,13,0,0
166639,97048882,1,4981,5142,15.19,2.02,29,13,0,0
167042,97144392,1,5140,5057,15.13,1.79,29,13,0,0
167491,97257631,1,5039,4814,15.14,2.01,29,13,0,0
167940,97366560,1,4814,4814,15.15,1.59,29,13,0,0
168346,97468721,1,4813,4742,15.2,1.81,29,14,0,0
168838,97590601,1,4692,4214,15.17,1.3,29,14,0,0
169286,97699322,1,4185,3914,15.14,2.11,29,14,0,0
169691,97796936,1,3916,4114,14.86,3.87,29,14,0,0
170174,97913614,1,4169,4742,15.19,3.25,29,14,0,0
170615,98020514,1,4753,5000,15.26,2.09,29,14,0,0
171064,98129314,1,5001,5071,15.26,1.95,29,14,0,0
171511,98240893,1,5071,5085,15.25,2.1,29,14,0,0
172002,98356393,1,5085,5085,15.24,2.05,29,14,0,0
172405,98459251,1,5085,5114,15.25,2.19,29,14,0,0
172857,98568612,1,5111,5057,15.21,2,29,14,0,0
173334,98678874,1,5061,5157,15.18,1.88,29,14,0,0
173792,98793642,1,5154,5128,15.13,2.12,29,14,0,0
174240,98898299,1,5139,5257,15.14,2.28,29,14,0,0
174684,99006704,1,5264,5371,15.07,2.19,29,14,0,0
175575,99223825,1,5371,5400,15.02,2.6,29,15,0,0
176027,99336058,1,5390,5257,15.08,2.56,29,15,0,0
176474,99448591,1,5263,5357,15.03,2.63,29,15,0,0
176922,99556661,1,5363,5442,15.08,2.62,29,15,0,0
177820,99775837,1,5442,5471,15.12,2.9,29,15,0,0
178259,99883077,1,5469,5400,15.11,2.34,29,15,0,0
178712,99995082,1,5374,5142,15.08,1.96,29,15,0,0
179193,100105629,1,5140,5114,15.16,2.1,29,15,0,0
179640,100215884,1,5084,4857,15.17,1.74,29,15,0,0
180090,100328369,1,4847,4771,15.14,1.79,29,15,0,0
180493,100429381,1,4771,4771,15.18,1.71,29,15,0,0
180947,100541596,1,4759,4642,15.13,1.85,29,15,0,0
181386,100648880,1,4644,4671,15.17,1.92,29,15,0,0
181835,100756818,1,4672,4700,15.18,1.85,29,16,0,0
182279,100865723,1,4698,4685,15.2,2.07,29,16,0,0
182729,100970591,1,4681,4614,15.16,2.08,29,16,0,0
183172,101080646,1,4614,4628,15.19,1.97,29,16,0,0
183626,101190265,1,4624,4542,15.19,1.93,29,16,0,0
184029,101292301,1,4542,4585,15.16,1.99,29,16,0,0
184516,101409176,1,4605,4857,15.15,2.04,29,16,0,0
185001,101527917,1,4863,4942,15.15,2.24,29,16,0,0
185399,101628130,1,4925,4800,15.16,1.73,29,16,0,0
185847,101735950,1,4789,4700,15.18,1.82,29,16,0,0
186260,101840501,1,4701,4742,15.16,2.1,29,16,0,0
186706,101948539,1,4742,4742,15.17,2,29,16,0,0
187155,102060802,1,4737,4685,15.14,1.94,29,16,0,0
188048,102282024,1,4684,4671,15.19,2.11,29,16,0,0
188490,102394839,1,4679,4771,15.16,2.24,29,16,0,0
188902,102491360,1,4777,4928,15.2,1.89,29,17,0,0
189382,102614401,1,4914,4771,15.2,1.79,29,17,0,0
189829,102720936,1,4762,4600,15.09,1.78,29,17,0,0
190238,102823095,1,4617,4800,15.19,2.07,29,17,0,0
190688,102936384,1,4781,4614,15.22,1.42,29,17,0,0
191092,103039279,1,4611,4585,15.21,1.77,29,17,0,0
191540,103144886,1,4586,4671,15.1,2.1,29,17,0,0
191993,103264331,1,4668,4642,15.24,1.7,29,17,0,0
192840,103468263,1,4643,4685,15.22,1.62,29,17,0,0
193288,103579054,1,4687,4728,15.23,1.66,29,17,0,0
193729,103687001,1,4729,4814,15.15,1.98,29,17,0,0
194177,103800554,1,4824,4942,15.13,2.05,29,17,0,0
194668,103918607,1,4945,4985,15.15,1.72,29,17,0,0
195076,104025913,1,4966,4842,15.17,1.89,29,17,0,0
195522,104133597,1,4844,4871,15.13,1.89,29,17,0,0
195921,104231312,1,4876,5000,15.11,2.06,29,17,0,0
196415,104351043,1,5014,5142,15.13,2.14,29,17,0,0
196818,104457990,1,5140,5128,15.02,2.44,29,18,0,0
197262,104564712,1,5112,4957,15.11,2.04,29,18,0,0
197746,104681271,1,4955,4928,15.17,2.13,29,18,0,0
199037,105002872,1,4925,4500,15.2,1.9,29,18,0,0
199484,105110267,1,4497,4471,15.19,1.89,29,18,0,0
199930,105221402,1,4463,4385,15.08,2.29,29,18,0,0
200336,105321683,1,4385,4442,15.14,2.07,29,18,0,0
200780,105432577,1,4460,4700,15.08,2.49,29,18,0,0
201230,105542048,1,4704,4985,15.07,2.34,29,18,0,0
201712,105658195,1,4977,4900,15.17,1.89,29,18,0,0
202116,105759292,1,4899,4871,15.11,2.02,29,18,0,0
202518,105862379,1,4871,4928,15.07,2.49,29,18,0,0
203005,105977093,1,4933,5000,15.11,2.2,29,18,0,0
203487,106090603,1,5006,5071,15.11,2.44,29,19,0,0
204790,106417963,1,5073,5128,15.08,2.04,29,19,0,0
205195,106515392,1,5135,5271,14.97,3.05,29,19,0,0
205644,106628176,1,5273,5314,15.05,2.53,29,19,0,0
206092,106736807,1,5324,5471,15,2.7,29,19,0,0
206498,106844625,1,5461,5371,15.01,2.57,29,19,0,0
206950,106955549,1,5371,5371,15.02,2.58,29,19,0,0
207394,107064208,1,5372,5385,14.99,2.74,29,19,0,0
207844,107170621,1,5386,5400,15.02,2.5,29,19,0,0
208288,107280330,1,5400,5400,14.97,2.79,29,19,0,0
208729,107387127,1,5401,5457,15.01,2.8,29,19,0,0
209182,107498919,1,5457,5514,15,2.59,29,20,0,0
209625,107610600,1,5513,5457,15.01,2.78,29,20,0,0
210120,107727241,1,5450,5385,15.06,2.47,29,20,0,0
210527,107832839,1,5384,5371,15,2.68,29,20,0,0
210975,107943047,1,5366,5271,15.11,2.31,29,20,0,0
211415,108051418,1,5270,5257,15.05,2.09,29,20,0,0
211865,108158694,1,5251,5171,15.08,2.57,29,20,0,0
212309,108267793,1,5172,5200,15.04,2.05,29,20,0,0
212757,108375092,1,5211,5457,15.04,3.49,29,20,0,0
213198,108485586,1,5445,5214,15.04,2.11,29,20,0,0
213646,108598815,1,5208,4771,15.08,1.84,29,20,0,0
214087,108699830,1,4763,4500,15.14,2.05,29,20,0,0
214496,108808718,1,4503,4728,15.11,1.96,29,20,0,0
214982,108922531,1,4745,4971,15.1,2.44,29,20,0,0
215423,109029649,1,4971,4985,15.12,2,29,21,0,0
215878,109144392,1,4989,5042,15.07,1.97,29,21,0,0
216318,109253605,1,5030,4885,15.15,1.91,29,21,0,0
216730,109355518,1,4876,4757,15.21,1.87,29,21,0,0
217206,109467373,1,4746,4614,15.14,1.84,29,21,0,0
217614,109569896,1,4617,4700,15.16,1.96,29,21,0,0
218063,109684076,1,4687,4557,15.11,2.15,29,21,0,0
218469,109791371,1,4561,4657,15.16,1.91,29,21,0,0
219356,110008802,1,4663,4800,15.11,1.96,29,21,0,0
219802,110115325,1,4801,4828,14.96,2.03,29,21,0,0
220210,110218510,1,4828,4828,15.1,2.1,29,21,0,0
220661,110328053,1,4827,4800,15.02,2.37,29,21,0,0
221105,110438822,1,4808,4914,14.98,2.69,29,21,0,0
221550,110544386,1,4915,4971,15.08,2.54,29,21,0,0
221994,110656232,1,4977,5100,14.92,2.4,29,21,0,0
222445,110767164,1,5111,5357,14.9,3.41,29,22,0,0
222883,110870288,1,5350,5228,14.96,2.46,29,22,0,0
223330,110985575,1,5237,5314,14.95,2.67,29,22,0,0
223734,111083821,1,5319,5385,14.97,2.65,29,22,0,0
224138,111186590,1,5383,5285,14.94,2.32,29,22,0,0
224632,111306914,1,5276,5185,15.06,2.11,29,22,0,0
224997,111405413,1,5182,5042,14.94,2.22,29,22,0,0
225485,111520311,1,5024,4771,15.13,1.94,29,22,0,0
225891,111624393,1,4745,4414,15.12,1.78,29,22,0,0
226342,111737387,1,4440,4714,15.07,2.36,29,22,0,0
226739,111837885,1,4709,4571,15.14,1.9,29,22,0,0
227187,111949236,1,4538,4057,15.16,2.66,29,22,0,0
227635,112058626,1,4049,3900,14.98,3.68,29,22,0,0
228085,112168383,1,3900,3914,14.99,3.36,29,22,0,0
228526,112278389,1,3935,4214,15.01,3.47,29,23,0,0
228975,112388250,1,4256,4685,15.04,4.05,29,23,0,0
229377,112488961,1,4707,5171,15.11,2.13,29,23,0,0
229832,112599371,1,5171,5171,14.99,2.23,29,23,0,0
230233,112703044,1,5169,5071,15,2.06,29,23,0,0
230711,112818879,1,5077,5214,15.09,2.66,29,23,0,0
231608,113043967,1,5203,4971,15.06,1.92,29,23,0,0
232014,113142550,1,4974,5142,15.08,1.85,29,23,0,0
232454,113250395,1,5137,5042,15.08,2.24,29,23,0,0
232945,113368286,1,5042,5042,14.97,2.43,29,23,0,0
233351,113474369,1,5045,5100,14.94,2.45,29,23,0,0
233803,113583870,1,5094,5042,15.01,2.21,29,24,0,0
234249,113698114,1,5038,5000,15,2.12,29,24,0,0
234646,113797307,1,5000,5028,15.04,2.5,29,24,0,0
235095,113905577,1,5029,5114,15.02,2.35,29,24,0,0
235539,114014856,1,5116,5157,15.01,2.78,29,24,0,0
235989,114123938,1,5164,5271,14.94,2.66,29,24,0,0
236392,114224839,1,5271,5300,14.89,2.76,29,24,0,0
236847,114343138,1,5312,5400,14.93,2.73,29,24,0,0
237247,114441558,1,5398,5357,15.03,2.87,29,24,0,0
237699,114552304,1,5355,5328,15.07,2.47,29,24,0,0
238180,114666824,1,5315,5157,15.04,2.18,29,24,0,0
238631,114778627,1,5150,5057,15.01,2.73,29,24,0,0
239104,114897936,1,5072,5171,15.03,2.75,29,24,0,0
239511,114999923,1,5188,5357,15,2.71,29,24,0,0
239960,115107898,1,5366,5471,15,2.44,29,25,0,0
240365,115213871,1,5468,5428,15.02,2.73,29,25,0,0
240820,115328213,1,5418,5314,15.04,2.63,29,25,0,0
241265,115434887,1,5316,5342,14.99,2.6,29,25,0,0
242155,115654422,1,5344,5400,15.02,2.98,29,25,0,0
242599,115760696,1,5396,5357,15.02,2.39,29,25,0,0
243006,115861330,1,5357,5385,15.01,2.6,29,25,0,0
243900,116081094,1,5384,5300,15.05,2.47,29,25,0,0
244347,116189077,1,5301,5357,15.02,2.3,29,25,0,0
244789,116300530,1,5338,5085,14.98,2.17,29,25,0,0
245240,116412938,1,5081,5042,15.03,2.16,29,25,0,0
245645,116507860,1,5045,5200,15.07,2.44,29,26,0,0
246123,116621022,1,5212,5385,14.97,2.85,29,26,0,0
246570,116728322,1,5385,5400,15.01,2.69,29,26,0,0
247014,116839043,1,5397,5328,15.01,2.83,29,26,0,0
247505,116956606,1,5316,5185,15.06,2.32,29,26,0,0
247905,117057396,1,5200,5428,15,2.75,29,26,0,0
248312,117157341,1,5425,5242,15.04,2.47,29,26,0,0
248796,117276510,1,5249,5328,15.04,2.94,29,26,0,0
249211,117384421,1,5335,5414,15.07,2.65,29,26,0,0
249651,117492954,1,5416,5457,15.07,2.87,29,26,0,0
250055,117596642,1,5457,5514,15.02,3.07,29,26,0,0
250536,117706276,1,5515,5557,14.97,2.77,29,26,0,0
250976,117814847,1,5554,5442,15.02,2.49,29,27,0,0
251431,117927963,1,5440,5400,15.04,2.76,29,27,0,0
251878,118038637,1,5394,5271,15.05,2.57,29,27,0,0
252322,118145160,1,5272,5357,14.94,2.99,29,27,0,0
252734,118254856,1,5362,5471,15.03,2.92,29,27,0,0
253186,118367919,1,5452,5200,15.09,2.23,29,27,0,0
253593,118474800,1,5201,5314,15.11,2.8,29,27,0,0
254046,118583945,1,5305,5142,15.03,2.18,29,27,0,0
254487,118693330,1,5144,5200,15.04,2.32,29,27,0,0
254974,118810847,1,5214,5371,15,2.6,29,27,0,0
255378,118910386,1,5369,5357,15,2.9,29,27,0,0
255827,119022831,1,5357,5371,15.05,2.53,29,27,0,0
256274,119131400,1,5400,5685,15.06,3.2,29,27,0,0
256716,119240541,1,5674,5571,15.02,2.99,29,28,0,0
257607,119461435,1,5564,5428,15.05,2.48,29,28,0,0
258018,119560971,1,5426,5400,15.01,3.06,29,28,0,0
258468,119675064,1,5386,5257,15.02,2.11,29,28,0,0
258921,119787578,1,5244,5128,14.98,2.14,29,28,0,0
259365,119895245,1,5128,5128,15,2.2,29,28,0,0
259763,119996817,1,5124,5042,14.95,2.24,29,28,0,0
260209,120101234,1,5031,4828,14.96,2.03,29,28,0,0
260698,120218186,1,4811,4642,15.01,2.27,29,28,0,0
261100,120316011,1,4640,4585,15,1.84,29,28,0,0
261552,120430901,1,4571,4442,15.02,2.24,29,28,0,0
261955,120530869,1,4449,4614,14.97,2.11,29,28,0,0
262411,120646380,1,4622,4742,15,2.05,29,28,0,0
262814,120746316,1,4744,4842,14.95,2.36,29,29,0,0
263255,120853221,1,4844,5014,14.97,2.56,29,29,0,0
263743,120965614,1,5024,5271,14.92,2.97,29,29,0,0
264189,121074789,1,5281,5542,14.89,3.18,29,29,0,0
264639,121187373,1,5543,5585,14.9,3.07,29,29,0,0
265084,121291841,1,5574,5471,15,2.36,29,29,0,0
265528,121401379,1,5459,5271,14.95,2.27,29,29,0,0
266873,121733808,1,5262,4985,15.02,1.97,29,29,0,0
267279,121837965,1,4979,4914,14.97,2.21,29,29,0,0
267728,121946664,1,4906,4785,15.05,2.14,29,29,0,0
268174,122059283,1,4781,4714,15.03,1.79,29,29,0,0
268621,122166815,1,4712,4685,15.02,1.93,29,30,0,0
269442,122379282,1,4686,4785,14.97,2.46,29,30,0,0
269892,122494434,1,4783,4742,14.96,2,29,30,0,0
270299,122602568,1,4736,4671,15.04,1.82,29,30,0,0
270748,122711051,1,4671,4685,15.05,1.92,29,30,0,0
271192,122821888,1,4680,4614,15.01,2.02,29,30,0,0
271600,122922407,1,4617,4685,15.04,2.08,29,30,0,0
272049,123035831,1,4693,4771,14.99,2.18,29,30,0,0
272497,123143833,1,4776,4828,14.96,2.34,29,30,0,0
272941,123254512,1,4826,4814,14.88,2.48,29,30,0,0
273350,123355626,1,4821,4971,15.07,2.05,29,30,0,0
273798,123469673,1,4962,4857,14.97,2.3,29,30,0,0
274248,123581116,1,4861,4914,14.99,2.03,29,30,0,0
274688,123690434,1,4915,4928,14.95,2.33,29,30,0,0
275100,123796634,1,4920,4871,14.97,2.08,29,31,0,0
275501,123892909,1,4871,4885,15,2.16,29,31,0,0
276427,124120395,1,4873,4700,15.01,2.36,29,31,0,0
276868,124225655,1,4691,4585,14.98,1.79,29,31,0,0
277316,124338628,1,4599,4700,15.02,2.11,29,31,0,0
277722,124439110,1,4700,4714,14.99,1.92,29,31,0,0
278655,124669576,1,4720,4814,15.06,2.09,29,31,0,0
279061,124763297,1,4812,4742,15.13,1.96,29,31,0,0
279541,124885609,1,4729,4628,14.95,2.07,29,31,0,0
279950,124984047,1,4632,4842,15.11,2.08,29,31,0,0
280395,125089550,1,4824,4614,15.16,1.63,29,31,0,0
280836,125197643,1,4615,4700,15.06,2.27,29,31,0,0
281330,125324898,1,4713,4814,15.14,1.83,29,31,0,0
281730,125421540,1,4798,4628,15,2.19,29,31,0,0
282180,125532380,1,4635,4714,15.05,2.16,29,31,0,0
282628,125644925,1,4691,4514,14.97,2.01,29,32,0,0
283034,125742026,1,4515,4600,15.04,1.75,29,32,0,0
283479,125856525,1,4604,4642,15,2.13,29,32,0,0
283931,125962065,1,4653,4757,14.99,2.22,29,32,0,0
284372,126070176,1,4743,4585,15.04,1.83,29,32,0,0
284774,126171990,1,4581,4442,15.06,2,29,32,0,0
285263,126289078,1,4431,4314,14.97,2.6,29,32,0,0
285705,126400345,1,4329,4485,14.93,3.34,29,32,0,0
286157,126509581,1,4498,4614,15.05,2.55,29,32,0,0
286605,126622086,1,4632,4785,15.07,1.83,29,32,0,0
287450,126832906,1,4778,4414,15.03,1.69,29,32,0,0
287931,126942123,1,4411,4385,15.08,2.05,29,32,0,0
288385,127057080,1,4372,4242,15.08,1.68,29,32,0,0
288786,127154883,1,4244,4471,14.88,3.3,29,32,0,0
289673,127373511,1,4474,4971,15,2.59,29,33,0,0
290166,127494536,1,4969,4957,14.93,2.28,29,33,0,0
290610,127602526,1,4978,5200,14.94,2.24,29,33,0,0
291020,127704852,1,5199,5171,15.01,2.18,29,33,0,0
291461,127812430,1,5169,5128,14.97,2.19,29,33,0,0
291912,127923836,1,5108,4842,15.04,1.87,29,33,0,0
292358,128033666,1,4828,4642,14.98,1.97,29,33,0,0
292807,128142036,1,4654,4814,15.06,2.29,29,33,0,0
293662,128357643,1,4796,4414,15.11,1.8,29,33,0,0
294112,128471438,1,4382,4042,14.91,2.75,29,33,0,0
294558,128577402,1,4049,4128,15.06,3.34,29,33,0,0
294962,128679030,1,4150,4457,15.07,3.57,29,33,0,0
295403,128788607,1,4456,4428,14.94,2.38,29,34,0,0
295852,128898313,1,4432,4471,15.03,2.14,29,34,0,0
296299,129008882,1,4458,4328,15.13,2.05,29,34,0,0
296706,129109747,1,4333,4457,15.07,2.12,29,34,0,0
297599,129327600,1,4457,4471,15.02,2.04,29,34,0,0
298081,129440519,1,4453,4214,15.09,2.01,29,34,0,0
298526,129546501,1,4217,4300,15.1,2.26,29,34,0,0
299418,129762322,1,4299,4185,15,2.81,29,34,0,0
299861,129874818,1,4182,4100,14.96,2.9,29,34,0,0
300286,129983501,1,4105,4200,14.96,3.68,29,34,0,0
300771,130100602,1,4201,4228,14.89,3.5,29,34,0,0
301172,130203648,1,4233,4571,15.02,3.28,29,35,0,0
301619,130312276,1,4580,4685,15.04,1.95,29,35,0,0
302102,130427834,1,4680,4614,15.05,1.83,29,35,0,0
302550,130536590,1,4616,4642,15.05,2.05,29,35,0,0
302951,130637051,1,4644,4685,15.11,1.6,29,35,0,0
303399,130743057,1,4684,4671,15.07,2.33,29,35,0,0
303883,130860087,1,4690,4871,15.07,1.78,29,35,0,0
304334,130969337,1,4860,4714,15.08,2.18,29,35,0,0
304737,131072812,1,4714,4714,15.11,2.24,29,35,0,0
305222,131192900,1,4711,4685,15.12,2.05,29,35,0,0
305667,131300119,1,4698,4828,15.03,2.71,29,35,0,0
306560,131519551,1,4816,4571,15.07,1.73,29,35,0,0
306967,131624028,1,4569,4528,14.92,2.25,29,35,0,0
307453,131739031,1,4556,4842,15.02,2.42,29,35,0,0
307855,131842425,1,4862,5057,14.99,2.55,29,36,0,0
308306,131952579,1,5059,5085,14.97,2.2,29,36,0,0
308783,132067788,1,5085,5085,14.94,2.42,29,36,0,0
309230,132181069,1,5080,5042,14.98,2.47,29,36,0,0
309637,132282419,1,5040,4914,14.98,2.29,29,36,0,0
310568,132508306,1,4915,4957,14.92,2.2,29,36,0,0
311012,132619280,1,4937,4785,14.94,2.02,29,36,0,0
311460,132727853,1,4783,4757,15.03,2.04,29,36,0,0
311870,132833025,1,4754,4700,15.03,2.04,29,36,0,0
312323,132944536,1,4698,4685,14.89,2.25,29,36,0,0
312768,133057902,1,4668,4500,14.99,1.96,29,36,0,0
313213,133163419,1,4498,4485,15.06,1.88,29,36,0,0
313619,133268534,1,4488,4571,15,2.09,29,36,0,0
314063,133376420,1,4566,4342,14.97,1.97,30,36,0,0
314509,133487544,1,4343,4428,14.96,2.25,30,36,0,0
314956,133601326,1,4430,4557,15.03,2.08,29,37,0,0
315401,133709076,1,4572,4757,15.04,2.05,29,37,0,0
315843,133815659,1,4750,4671,15.01,1.66,29,37,0,0
316254,133919861,1,4671,4671,15.01,1.84,29,37,0,0
316698,134029501,1,4673,4714,15.04,1.95,29,37,0,0
317146,134139089,1,4717,4771,15,1.88,29,37,0,0
317585,134245921,1,4775,4857,15.01,2.12,29,37,0,0
318035,134352293,1,4857,4871,15.02,2.12,29,37,0,0
318480,134463421,1,4872,4885,15.03,2.18,29,37,0,0
318921,134568213,1,4875,4685,15.05,2.07,29,37,0,0
319369,134680564,1,4699,4842,15.03,2.11,30,37,0,0
319818,134788433,1,4831,4728,15.07,2.1,29,37,0,0
320215,134887348,1,4727,4685,15.03,2.11,29,37,0,0
320706,135007854,1,4693,4785,15,2.36,29,37,0,0
321111,135107595,1,4783,4714,15.03,2.01,29,37,0,0
321600,135228338,1,4704,4600,14.96,1.95,29,37,0,0
322003,135324872,1,4599,4585,15.05,1.53,29,38,0,0
322455,135439947,1,4588,4628,15.04,2.22,29,38,0,0
322904,135547905,1,4625,4600,14.99,2.06,29,38,0,0
323305,135647584,1,4601,4685,15.03,1.83,29,38,0,0
323787,135759375,1,4680,4585,15.05,1.86,29,38,0,0
324238,135875632,1,4576,4485,15,2,29,38,0,0
324643,135976009,1,4487,4528,15.01,1.69,29,38,0,0
325093,136090312,1,4526,4500,15.04,2.83,29,38,0,0
325543,136202827,1,4507,4585,15.06,1.99,29,38,0,0
326399,136415362,1,4583,4528,15.1,1.85,29,38,0,0
326843,136519723,1,4525,4385,15.03,2.14,29,38,0,0
327329,136634081,1,4403,4585,15.05,2.42,29,38,0,0
327778,136745084,1,4603,4800,14.84,2.41,29,38,0,0
328181,136848940,1,4810,5057,14.99,2.2,29,38,0,0
328627,136956112,1,5055,5028,14.93,2.2,29,38,0,0
329068,137065827,1,5021,4942,15.02,1.87,29,39,0,0
329513,137172504,1,4925,4600,14.98,2.03,29,39,0,0
329924,137280396,1,4598,4542,15.07,1.46,29,39,0,0
330373,137393360,1,4529,4400,14.99,1.81,29,39,0,0
330823,137502250,1,4383,4214,14.94,2.72,29,39,0,0
331223,137606591,1,4212,4142,14.95,3.52,29,39,0,0
332115,137826371,1,4138,3771,14.99,2.96,29,39,0,0
332564,137935066,1,3770,3757,15,2.85,29,39,0,0
333050,138054805,1,3771,3914,14.82,3.47,29,39,0,0
333454,138152615,1,3916,4042,14.97,3.89,29,39,0,0
333901,138265935,1,4034,3914,14.91,3.01,29,39,0,0
334351,138374403,1,3947,4271,14.92,3.59,29,39,0,0
334797,138485543,1,4323,4857,14.9,3.67,29,40,0,0
335243,138596388,1,4853,4814,15,2.13,29,40,0,0
335686,138700848,1,4820,4885,14.99,2.14,29,40,0,0
336128,138808919,1,4876,4757,14.89,2.02,30,40,0,0
336581,138920712,1,4759,4785,15.01,1.97,29,40,0,0
336998,139031517,1,4770,4628,14.99,1.98,29,40,0,0
337399,139126577,1,4627,4614,15.04,1.83,30,40,0,0
337842,139238434,1,4610,4457,15.02,1.42,29,40,0,0
338295,139349357,1,4455,4442,15.03,1.77,29,40,0,0
338704,139455369,1,4438,4357,15.04,1.58,30,40,0,0
339196,139572604,1,4365,4457,14.86,2.95,30,40,0,0
339600,139675586,1,4461,4557,14.98,2.55,30,40,0,0
340486,139891602,1,4556,4500,14.89,2.1,30,40,0,0
340932,140001568,1,4508,4642,15.01,2.16,30,41,0,0
341417,140114647,1,4645,4685,15.04,2.09,30,41,0,0
341823,140218587,1,4686,4714,14.97,1.78,30,41,0,0
342269,140325539,1,4715,4742,14.93,1.89,30,41,0,0
342712,140430724,1,4735,4614,15.04,1.71,30,41,0,0
343205,140550900,1,4609,4571,15.02,1.75,30,41,0,0
343610,140652607,1,4573,4628,15.05,1.75,30,41,0,0
344056,140763875,1,4592,4128,14.92,1.74,30,41,0,0
344502,140874555,1,4132,4200,14.98,3.17,30,41,0,0
344952,140989396,1,4253,4728,14.98,2.47,30,41,0,0
345391,141090331,1,4734,4857,14.95,2.16,30,41,0,0
345870,141206517,1,4842,4685,14.95,1.72,30,41,0,0
346318,141319520,1,4681,4657,15.03,1.51,30,41,0,0
346726,141426408,1,4657,4657,15.07,1.89,29,41,0,0
347184,141539833,1,4665,4757,15.04,2.24,30,41,0,0
347628,141650134,1,4751,4671,14.94,1.65,30,41,0,0
348078,141761837,1,4674,4700,15.04,1.92,29,41,0,0
348926,141970619,1,4696,4142,15.05,2.04,30,42,0,0
349373,142084515,1,4147,4214,14.86,2.84,30,42,0,0
350260,142302413,1,4189,3671,14.94,2.21,29,42,0,0
350715,142418695,1,3714,4157,14.75,3.94,30,42,0,0
351160,142524250,1,4209,4657,14.88,3.52,30,42,0,0
351561,142621842,1,4664,4957,14.96,1.94,30,42,0,0
352013,142736255,1,4938,4685,15.09,1.83,30,42,0,0
352460,142848059,1,4680,4642,14.93,2.08,30,42,0,0
352911,142959662,1,4660,4814,15.07,2.21,30,42,0,0
353759,143171626,1,4800,4514,14.98,2.15,30,42,0,0
354202,143282602,1,4524,4628,15.05,2.1,30,42,0,0
355088,143498365,1,4635,4785,15,2.09,30,43,0,0
355461,143603516,1,4789,4828,14.87,2.37,30,43,0,0
355909,143710353,1,4823,4742,14.96,2.1,30,43,0,0
356314,143814886,1,4741,4728,15.01,1.97,30,43,0,0
356760,143921232,1,4726,4657,15.01,2.16,30,43,0,0
357242,144036086,1,4649,4485,14.96,1.77,30,43,0,0
357690,144143917,1,4488,4528,15,1.78,30,43,0,0
358133,144256033,1,4522,4471,14.96,2.25,30,43,0,0
358580,144363120,1,4486,4685,14.92,2.05,30,43,0,0
358983,144466878,1,4672,4428,15.04,1.5,30,43,0,0
359427,144577847,1,4415,4285,15.1,1.88,30,43,0,0
360323,144798997,1,4268,4014,15.01,3.22,30,43,0,0
360729,144898603,1,3995,3528,15.03,2.93,30,43,0,0
361205,145008910,1,3554,3800,14.99,2.75,30,44,0,0
361614,145112084,1,3799,3757,14.94,2.89,30,44,0,0
362055,145219323,1,3756,3728,14.94,3.02,30,44,0,0
362510,145329600,1,3722,3585,15.04,2.24,30,44,0,0
362956,145440856,1,3612,4014,14.87,3.05,30,44,0,0
363401,145548034,1,3995,3742,14.75,2.96,30,44,0,0
363842,145654834,1,3735,3642,14.86,3.03,30,44,0,0
364696,145867366,1,3645,4071,14.91,3.55,30,44,0,0
365145,145976230,1,4064,3757,14.76,3.29,30,44,0,0
365633,146097391,1,3823,4514,14.81,4.14,30,44,0,0
366033,146197389,1,4516,4685,14.93,3.03,30,45,0,0
366522,146313538,1,4691,4757,15,2.23,30,45,0,0
367368,146520809,1,4758,4814,14.91,2.15,30,45,0,0
368257,146737435,1,4815,4871,14.99,1.83,30,45,0,0
368703,146848822,1,4873,4900,14.88,2.5,30,45,0,0
369158,146958098,1,4902,4928,14.92,1.93,30,45,0,0
369602,147069871,1,4910,4742,15.01,1.86,30,45,0,0
370046,147173433,1,4744,4785,15.05,2.14,30,45,0,0
370445,147277501,1,4783,4742,15,1.94,30,45,0,0
370900,147388071,1,4734,4442,15.1,1.86,30,45,0,0
371344,147498366,1,4436,4328,15.13,1.78,30,45,0,0
371792,147610313,1,4298,3900,15.12,2.52,30,45,0,0
372238,147714907,1,3893,3728,14.89,3.4,30,45,0,0
372685,147824893,1,3743,3900,15,3.49,30,46,0,0
373133,147934893,1,3890,3671,14.97,2.64,30,46,0,0
373576,148042877,1,3646,3342,14.96,1.86,30,46,0,0
374024,148150335,1,3351,3557,14.95,2.38,30,46,0,0
374474,148265918,1,3601,4071,14.92,3.1,30,46,0,0
374922,148373997,1,4090,4371,14.89,3.73,30,46,0,0
375363,148482323,1,4431,5071,14.94,2.86,30,46,0,0
375813,148597373,1,5079,5185,14.77,3.13,30,46,0,0
376215,148693595,1,5187,5242,14.91,2.28,30,46,0,0
376664,148806699,1,5225,4871,15.04,1.54,30,46,0,0
377116,148919364,1,4824,4171,15.04,1.51,30,46,0,0
377522,149024953,1,4134,3771,14.86,2.6,30,46,0,0
377970,149129519,1,3760,3514,15.08,1.98,30,46,0,0
378419,149244887,1,3489,3228,14.95,2.03,30,47,0,0
378868,149353921,1,3254,3557,14.98,2.78,30,47,0,0
379271,149458725,1,3575,3800,14.8,3.35,30,47,0,0
379723,149570286,1,3797,3771,14.72,3.15,30,47,0,0
380125,149671257,1,3776,4142,14.72,4.01,30,47,0,0
381063,149899286,1,4137,4042,14.76,3.67,30,47,0,0
381507,150015081,1,4071,4314,14.67,3.66,30,47,0,0
381918,150109145,1,4339,4657,14.96,2.18,30,47,0,0
382318,150210595,1,4656,4642,14.92,2.35,30,47,0,0
382773,150322408,1,4642,4685,14.91,2.2,30,47,0,0
383252,150441225,1,4715,4971,14.91,2.57,30,47,0,0
383659,150539630,1,4979,5157,14.91,2.64,30,48,0,0
384106,150659645,1,5148,5100,14.88,2.41,30,48,0,0
384513,150753166,1,5101,5142,14.88,2.29,30,48,0,0
385441,150979093,1,5126,4900,14.97,1.98,30,48,0,0
385841,151077380,1,4895,4571,14.97,2.12,30,48,0,0
386292,151190595,1,4576,4628,14.88,2.43,30,48,0,0
386735,151300412,1,4637,4757,14.88,1.92,30,48,0,0
387588,151512210,1,4754,4657,14.93,1.93,30,48,0,0
388062,151626258,1,4635,4414,15.01,1.56,30,48,0,0
388515,151734519,1,4425,4528,14.98,2.13,30,48,0,0
388917,151834514,1,4536,4671,14.95,1.76,30,48,0,0
389369,151945638,1,4651,4485,14.97,1.77,30,48,0,0
389811,152053347,1,4507,4771,15,2.06,30,48,0,0
390258,152162278,1,4722,4300,14.91,2.52,30,48,0,0
390744,152280079,1,4296,4271,15.06,2.67,30,49,0,0
391148,152374717,1,4269,4157,14.81,3.23,30,49,0,0
391594,152484814,1,4124,3871,14.9,3.24,30,49,0,0
392047,152599586,1,3875,3900,14.77,3.08,30,49,0,0
392446,152695786,1,3899,3871,14.89,3.24,30,49,0,0
393301,152913160,1,3871,3885,14.8,3.38,30,49,0,0
393779,153025857,1,3922,4300,14.72,4.57,30,49,0,0
394227,153134279,1,4306,4442,14.91,2.6,30,49,0,0
395116,153350312,1,4446,4828,14.98,1.98,30,49,0,0
395565,153468411,1,4820,4728,14.97,1.93,30,49,0,0
396012,153577286,1,4702,4457,15.02,1.58,30,50,0,0
396457,153687869,1,4432,4185,14.83,2.53,30,50,0,0
396897,153794938,1,4160,3914,14.79,3.2,30,50,0,0
397346,153904329,1,3930,4142,14.77,2.68,30,50,0,0
397753,154009607,1,4131,3542,14.9,2.6,30,50,0,0
398233,154118888,1,3528,3271,15.02,1.67,30,50,0,0
398677,154228900,1,3287,3528,14.94,2.54,30,50,0,0
399168,154344350,1,3547,3814,14.85,2.94,30,50,0,0
399576,154452261,1,3818,3857,14.79,3.26,30,50,0,0
400021,154558058,1,3865,4042,14.77,3.47,30,50,0,0
400432,154664393,1,4050,4185,14.86,3.19,30,50,0,0
400882,154774082,1,4235,4757,14.76,3.64,30,50,0,0
401325,154886586,1,4782,5042,14.86,2.6,30,51,0,0
401761,154990227,1,5028,4885,15,1.88,30,51,0,0
402210,155098588,1,4866,4685,15.02,1.64,30,51,0,0
402602,155205564,1,4687,4728,15.01,2.07,30,51,0,0
403056,155316158,1,4729,4757,15.07,1.79,30,51,0,0
403948,155536461,1,4754,4642,15,1.88,30,51,0,0
404392,155646504,1,4659,4900,14.92,1.9,30,51,0,0
404844,155754399,1,4910,5042,14.89,2.21,30,51,0,0
405244,155855613,1,5042,5085,14.95,1.92,30,51,0,0
405691,155965624,1,5083,5028,14.92,1.97,30,51,0,0
406584,156184930,1,5031,5128,14.84,2.2,30,51,0,0
407029,156295371,1,5125,5100,14.92,2,30,51,0,0
407472,156406236,1,5111,5200,14.96,2.23,30,51,0,0
407879,156508340,1,5206,5585,14.89,2.71,30,52,0,0
408366,156626050,1,5570,5442,14.91,2.44,30,52,0,0
408771,156725595,1,5442,5457,14.89,2.65,30,52,0,0
409663,156944701,1,5459,5514,14.97,2.55,30,52,0,0
410559,157163387,1,5508,5357,14.98,2.43,30,52,0,0
411002,157271426,1,5358,5385,14.97,1.99,30,52,0,0
411450,157385315,1,5361,5100,14.99,1.69,30,52,0,0
411859,157488803,1,5100,5100,14.88,2.18,30,52,0,0
412307,157603647,1,5098,5085,14.98,1.86,30,52,0,0
412760,157712664,1,5080,5014,15.02,1.74,30,52,0,0
413167,157820332,1,5006,4914,14.92,1.73,30,52,0,0
413615,157929129,1,4917,4971,14.97,1.83,30,52,0,0
414057,158037429,1,4983,5114,14.9,2.64,30,52,0,0
414509,158147978,1,5152,5557,14.87,3.15,30,53,0,0
414916,158254096,1,5542,5400,14.88,2.29,30,53,0,0
415364,158363906,1,5405,5457,14.91,2.14,30,53,0,0
415767,158465122,1,5454,5271,14.89,2.24,30,53,0,0
416259,158584111,1,5275,5328,14.91,2.31,30,53,0,0
416701,158692621,1,5328,5328,14.86,2.12,30,53,0,0
417105,158793547,1,5328,5385,14.88,2.38,30,53,0,0
417591,158906356,1,5387,5428,14.94,2.08,30,53,0,0
418033,159014413,1,5417,5271,14.81,2.34,30,53,0,0
418481,159124156,1,5285,5428,14.91,2.53,30,53,0,0
418882,159226024,1,5426,5328,14.94,2.11,30,53,0,0
419369,159341253,1,5320,5214,14.91,2.04,30,53,0,0
419816,159454272,1,5207,5114,14.92,2.11,30,53,0,0
420264,159563531,1,5117,5157,14.81,2.35,30,53,0,0
420712,159677045,1,5167,5271,14.94,2.3,30,54,0,0
421164,159789370,1,5263,5200,15,1.68,30,54,0,0
421568,159888523,1,5171,4500,15.03,1.53,30,54,0,0
422050,160004032,1,4500,4542,14.98,1.77,30,54,0,0
422494,160115086,1,4550,4642,15.02,2.01,30,54,0,0
422899,160217890,1,4642,4642,14.93,2.11,30,54,0,0
423394,160339380,1,4636,4571,14.98,1.9,30,54,0,0
423793,160438896,1,4569,4442,15.03,2,30,54,0,0
424244,160543431,1,4444,4557,15.02,2.02,30,54,0,0
424646,160650306,1,4558,4642,14.97,1.83,30,54,0,0
425143,160768836,1,4642,4642,15,1.7,30,54,0,0
425546,160872160,1,4646,4685,14.87,1.94,30,54,0,0
425991,160981947,1,4664,4500,14.89,1.81,30,54,0,0
427325,161308405,1,4498,4414,14.79,2.28,30,54,0,0
427731,161410017,1,4410,4171,14.89,2.94,30,55,0,0
428217,161528078,1,4181,4300,14.92,3.41,30,55,0,0
428660,161636271,1,4308,4485,14.79,3.88,30,55,0,0
429071,161736977,1,4488,4542,14.89,2.52,30,55,0,0
429524,161854260,1,4558,4671,14.87,2.2,30,55,0,0
431305,162290413,1,4671,4685,14.86,2.01,30,55,0,0
431709,162393166,1,4707,4871,14.95,1.99,30,55,0,0
432158,162501618,1,4868,4842,14.95,1.67,30,55,0,0
432593,162601462,1,4844,4957,14.97,1.75,30,55,0,0
433045,162714045,1,4944,4700,15,1.96,30,55,0,0
433492,162826595,1,4692,4614,14.97,1.73,30,55,0,0
433937,162933871,1,4610,4571,14.92,1.92,30,55,0,0
434344,163039105,1,4576,4700,14.98,1.9,30,55,0,0
434792,163147935,1,4695,4585,14.95,1.79,30,56,0,0
435195,163251289,1,4582,4457,14.89,2.01,30,56,0,0
435644,163360612,1,4452,4200,14.98,1.91,30,56,0,0
436126,163475412,1,4194,4114,14.86,3.1,30,56,0,0
436533,163576559,1,4107,3828,14.77,3.05,30,56,0,0
437022,163696509,1,3827,3814,14.72,3.39,30,56,0,0
437427,163800327,1,3815,3914,14.85,2.72,30,56,0,0
437913,163917593,1,3942,4242,14.74,3.94,30,56,0,0
438316,164020401,1,4253,4771,14.97,2.71,30,56,0,0
438801,164131584,1,4776,4885,15.03,2.15,30,56,0,0
439206,164234200,1,4886,4985,14.95,2.37,30,56,0,0
439695,164350068,1,4997,5171,14.91,2.37,30,56,0,0
440101,164454412,1,5175,5242,14.92,2.43,30,57,0,0
440953,164668571,1,5239,5128,15.02,1.79,30,57,0,0
441457,164793544,1,5103,4957,14.99,1.89,30,57,0,0
441855,164889355,1,4956,4942,14.92,2.02,30,57,0,0
442303,165002009,1,4934,4842,15,2.14,30,57,0,0
442713,165104359,1,4842,4857,15,1.78,30,57,0,0
443203,165222315,1,4859,4900,15.03,1.78,30,57,0,0
443656,165334395,1,4874,4614,14.98,1.71,30,57,0,0
444094,165442842,1,4617,4657,15,1.93,30,57,0,0
444547,165554535,1,4667,4771,15.01,1.97,30,57,0,0
444989,165663852,1,4778,4871,14.97,1.84,30,57,0,0
445441,165776933,1,4868,4842,15,1.94,30,57,0,0
445848,165883351,1,4845,4885,14.98,1.78,30,57,0,0
446251,165986325,1,4889,5057,14.93,2.26,30,57,0,0
447151,166207662,1,5028,4542,15,1.77,30,57,0,0
447595,166314143,1,4543,4557,14.92,2.36,30,58,0,0
448038,166423586,1,4567,4671,15.04,1.99,30,58,0,0
448447,166525117,1,4671,4700,14.93,1.72,30,58,0,0
448926,166638388,1,4701,4757,15,1.72,30,58,0,0
449420,166756118,1,4730,4457,14.97,1.35,30,58,0,0
449830,166861427,1,4438,4257,15.01,1.76,30,58,0,0
450274,166966695,1,4252,4185,14.94,3.38,30,58,0,0
450723,167074279,1,4201,4514,14.96,2.65,30,58,0,0
451174,167184509,1,4538,4842,15.01,2,30,58,0,0
451617,167294335,1,4847,4928,15.01,1.94,30,58,0,0
452058,167402607,1,4922,4785,14.92,1.83,30,58,0,0
452505,167510830,1,4757,4428,14.98,1.87,30,58,0,0
452952,167627517,1,4423,4385,15.03,2.27,30,58,0,0
453404,167734913,1,4371,4242,14.99,2.43,30,58,0,0
453807,167837428,1,4241,4185,14.93,3.25,30,58,0,0
454256,167942938,1,4166,3700,14.74,3.26,30,58,0,0
454703,168060297,1,3704,3742,14.79,3.11,30,59,0,0
455152,168164344,1,3740,3728,14.94,2.3,30,59,0,0
455596,168279517,1,3745,3900,14.85,2.93,30,59,0,0
456052,168391601,1,3873,3600,14.87,2.48,30,59,0,0
456413,168483977,1,3606,4071,14.92,2.77,30,59,0,0
456902,168608419,1,4084,4257,14.9,3.08,30,59,0,0
457313,168708291,1,4264,4328,14.87,2.41,30,59,0,0
457757,168819071,1,4289,3942,14.91,2.45,30,59,0,0
458203,168926544,1,3970,4242,14.82,3.67,30,59,0,0
458649,169039082,1,4265,4557,14.87,3.06,30,59,0,0
459101,169147835,1,4570,4757,14.97,1.66,30,59,0,0
459545,169259620,1,4754,4714,14.93,1.85,30,59,0,0
459949,169359583,1,4712,4628,14.97,1.66,30,60,0,0
460427,169470568,1,4626,4571,14.99,2.03,30,60,0,0
461295,169693895,1,4568,4514,14.96,1.58,30,60,0,0
461774,169806716,1,4521,4585,15.01,1.94,30,60,0,0
462177,169904527,1,4583,4557,14.9,2.03,30,60,0,0
462619,170012715,1,4573,4857,14.91,2.16,30,60,0,0
463513,170235669,1,4850,4700,14.92,2.26,30,60,0,0
463963,170343061,1,4700,4714,14.93,1.93,30,60,0,0
464405,170452943,1,4715,4785,14.97,2.09,30,60,0,0
464899,170571256,1,4785,4785,15,1.91,30,60,0,0
465298,170670242,1,4781,4614,14.91,1.68,30,60,0,0
466191,170890373,1,4616,4728,15.01,1.67,30,60,0,0
466634,170997498,1,4727,4714,14.95,2.08,30,60,0,0
467094,171110423,1,4712,4685,14.96,1.9,30,60,0,0
467535,171219506,1,4694,4828,14.92,1.93,30,61,0,0
468462,171443522,1,4831,4928,14.91,2.36,30,61,0,0
468865,171542336,1,4928,4928,14.91,2.1,30,61,0,0
469314,171652850,1,4929,4957,14.89,2.03,30,61,0,0
469803,171769016,1,4953,4914,14.91,2.21,30,61,0,0
470204,171870321,1,4909,4785,14.9,1.95,30,61,0,0
470692,171989802,1,4783,4771,14.84,1.92,30,61,0,0
471095,172087374,1,4779,4900,14.89,2.28,30,61,0,0
471502,172193771,1,4898,4800,14.94,1.66,30,61,0,0
471950,172304462,1,4803,4842,15.01,1.83,30,61,0,0
472394,172414143,1,4824,4657,14.96,2.14,30,61,0,0
472841,172519863,1,4656,4600,14.87,1.9,30,61,0,0
473326,172638285,1,4576,4342,14.95,2.26,30,61,0,0
473732,172737326,1,4350,4542,14.96,2.13,30,61,0,0
474177,172847564,1,4536,4400,14.96,1.65,30,61,0,0
474669,172965400,1,4414,4571,14.96,1.78,30,62,0,0
475072,173067791,1,4580,4714,14.96,2.23,30,62,0,0
475522,173177416,1,4718,4785,14.9,2.32,30,62,0,0
475964,173287408,1,4790,4871,14.94,1.64,30,62,0,0
476370,173389878,1,4866,4785,14.95,2.08,30,62,0,0
476815,173498361,1,4789,4914,14.92,2,30,62,0,0
477220,173600860,1,4914,4957,14.94,2,30,62,0,0
477715,173720052,1,4936,4700,14.97,1.86,30,62,0,0
478158,173828994,1,4724,5000,14.96,2.28,30,62,0,0
478603,173937319,1,5015,5171,14.88,2.64,30,62,0,0
479009,174039911,1,5174,5242,14.92,2.37,30,62,0,0
479459,174150953,1,5250,5371,14.93,2.35,30,62,0,0
479909,174265565,1,5356,5200,14.9,2.11,30,62,0,0
480793,174482110,1,5204,5414,14.93,2.51,30,62,0,0
481276,174601592,1,5404,5271,14.88,2.25,30,62,0,0
481684,174705531,1,5274,5300,14.94,2.31,30,63,0,0
482167,174814800,1,5296,5257,14.93,2.1,30,63,0,0
482618,174930534,1,5237,5085,14.93,2.13,30,63,0,0
483021,175029073,1,5083,5000,14.9,2.15,30,63,0,0
483468,175134583,1,5000,5042,14.95,2.19,30,63,0,0
484402,175362921,1,5039,4985,14.94,2.2,30,63,0,0
485293,175584003,1,4977,4842,15.01,1.79,30,63,0,0
485738,175695363,1,4840,4828,15,1.83,30,63,0,0
486183,175804678,1,4837,4942,14.94,2.27,30,63,0,0
486594,175907386,1,4945,5028,15.04,2.07,30,63,0,0
487080,176026426,1,5023,4971,14.81,2.35,30,63,0,0
487483,176124400,1,4973,5085,14.98,2.27,30,63,0,0
487926,176234838,1,5087,5185,14.96,2.22,30,64,0,0
488380,176348906,1,5176,5085,14.95,2.31,30,64,0,0
488780,176448005,1,5084,5014,14.98,2.01,30,64,0,0
489225,176554792,1,5013,4971,14.88,2.28,30,64,0,0
489671,176664270,1,4971,4971,14.92,1.98,30,64,0,0
490161,176781850,1,4971,4985,14.98,1.97,30,64,0,0
491011,176990279,1,4986,5114,14.93,2.41,30,64,0,0
491461,177102569,1,5114,5128,14.96,1.97,30,64,0,0
491910,177216075,1,5120,5042,14.98,1.93,30,64,0,0
492358,177326235,1,5020,4814,14.88,1.86,30,64,0,0
493249,177545625,1,4816,4871,14.97,1.98,30,64,0,0
493686,177648092,1,4868,4828,14.88,2.27,30,64,0,0
494135,177755958,1,4822,4685,14.87,2.11,30,64,0,0
494582,177868547,1,4691,4757,14.87,2.51,30,64,0,0
495031,177976961,1,4752,4685,14.93,1.85,30,65,0,0
495441,178081913,1,4670,4357,14.83,1.91,30,65,0,0
496342,178305869,1,4364,4514,14.95,1.79,30,65,0,0
496747,178411085,1,4498,4314,15.04,1.88,30,65,0,0
497195,178520093,1,4314,4328,14.89,2.8,30,65,0,0
497635,178625816,1,4331,4485,14.82,2.25,30,65,0,0
498090,178739307,1,4494,4628,14.98,2.05,30,65,0,0
498543,178855022,1,4629,4642,14.97,1.86,30,65,0,0
498991,178964308,1,4601,4028,14.8,2.87,30,65,0,0
499885,179182879,1,4025,3985,14.75,3.9,30,65,0,0
500330,179292211,1,4021,4400,14.86,3.59,30,65,0,0
500730,179393890,1,4415,4671,14.94,2.32,30,65,0,0
501185,179508541,1,4672,4700,14.98,1.72,30,66,0,0
501589,179611610,1,4700,4700,15,1.81,30,66,0,0
502037,179720724,1,4698,4614,14.97,1.76,30,66,0,0
502482,179830533,1,4620,4742,14.95,2.26,30,66,0,0
502976,179952598,1,4737,4700,15.04,1.87,30,66,0,0
503382,180055080,1,4702,4728,14.99,1.88,30,66,0,0
503831,180163527,1,4721,4657,15,1.54,30,66,0,0
504271,180272642,1,4654,4628,14.99,1.95,30,66,0,0
504717,180383948,1,4631,4657,14.94,2.21,30,66,0,0
505120,180484209,1,4659,4785,14.94,1.97,30,66,0,0
505571,180594314,1,4783,4700,14.98,1.57,30,66,0,0
506500,180827304,1,4701,4728,15.02,2.04,30,66,0,0
506948,180933642,1,4723,4671,14.98,1.77,30,66,0,0
507391,181042066,1,4691,4914,14.88,2.11,30,66,0,0
507872,181154316,1,4907,4857,15.02,2.22,30,66,0,0
508280,181255948,1,4871,5000,14.85,2.33,30,67,0,0
508736,181368828,1,4995,4957,14.97,2.13,30,67,0,0
509180,181474368,1,4974,5157,14.93,2.3,30,67,0,0
509628,181584821,1,5150,5085,14.95,1.98,30,67,0,0
510029,181688407,1,5087,5128,14.98,2.34,30,67,0,0
510478,181796842,1,5122,5071,14.94,1.9,30,67,0,0
510929,181910597,1,5060,4942,15,2.18,30,67,0,0
511369,182017567,1,4936,4885,15,1.87,30,67,0,0
511816,182124929,1,4894,5014,14.96,2.29,30,67,0,0
512218,182227534,1,5000,4842,15.05,1.81,30,67,0,0
512667,182334571,1,4833,4671,15.06,1.58,30,67,0,0
513070,182432556,1,4666,4500,15.07,2.17,30,67,0,0
513519,182544140,1,4495,4400,15.14,2.04,30,67,0,0
513925,182648115,1,4400,4442,15.14,2.48,30,67,0,0
514415,182764651,1,4407,4057,15.09,1.97,30,67,0,0
514859,182876044,1,4008,3485,15.12,2.12,30,67,0,0
516602,183307861,1,3468,2142,15.37,0.21,30,68,0,0
517053,183422598,1,2135,2042,15.35,0.33,30,68,0,0
517461,183522422,1,2044,2185,15.38,0.29,30,68,0,0
517910,183632856,1,2184,2157,15.39,0.38,30,68,0,0
518393,183745096,1,2157,2171,15.39,0.25,30,68,0,0
518841,183858836,1,2166,2100,15.39,0.23,30,68,0,0
519291,183967517,1,2104,2157,15.38,0.31,30,68,0,0
519692,184067720,1,2157,2171,15.38,0.28,30,68,0,0
520140,184174823,1,2169,2114,15.39,0.19,30,68,0,0
520632,184293412,1,2124,2228,15.39,0.49,30,68,0,0
521035,184394525,1,2229,2385,15.41,0.57,30,68,0,0
521526,184508644,1,2388,2428,15.4,0.45,30,68,0,0
521931,184607383,1,2431,2557,15.4,0.5600000000000001,30,68,0,0
522378,184715903,1,2543,2271,15.46,0.15,30,68,0,0
522827,184826712,1,2235,1714,15.46,0,30,68,0,0
523321,184940527,1,1684,1342,15.45,0.02,30,68,0,0
523722,185039859,1,1338,1271,15.44,0.07000000000000001,30,68,0,0
524173,185148095,1,1270,1257,15.45,0.08,30,68,0,0
524618,185256634,1,1257,1257,15.45,0.08,30,68,0,0
525065,185361545,1,1256,1242,15.45,0.09,30,68,0,0
525554,185478362,1,1242,1242,15.45,0.08,30,68,0,0
526450,185696336,1,1242,1242,15.45,0.09,30,68,0,0
526895,185804514,1,1242,1242,15.45,0.09,30,68,0,0
527343,185911463,1,1243,1257,15.47,0.09,30,68,0,0
527791,186019645,1,1257,1257,15.47,0.09,30,68,0,0
528273,186132294,1,1257,1257,15.46,0.09,30,68,0,0
528717,186241644,1,1255,1242,15.47,0.09,30,68,0,0
529197,186352937,1,1243,1257,15.47,0.09,30,68,0,0
529600,186453635,1,1257,1257,15.48,0.09,30,68,0,0
530052,186560084,1,1257,1257,15.48,0.09,29,68,0,0
530499,186672893,1,1257,1257,15.47,0.09,30,68,0,0
530950,186781362,1,1257,1257,15.48,0.09,30,68,0,0
531392,186889389,1,1257,1257,15.48,0.09,30,68,0,0
531845,187001843,1,1257,1257,15.48,0.09,29,68,0,0
532293,187108801,1,1257,1257,15.47,0.08,30,68,0,0
532693,187206907,1,1257,1257,15.48,0.09,29,68,0,0
533141,187313793,1,1257,1257,15.48,0.09,29,68,0,0
533589,187424988,1,1257,1257,15.48,0.08,29,68,0,0
534044,187535576,1,1257,1257,15.48,0.08,30,68,0,0
534525,187644961,1,1257,1257,15.48,0.08,30,68,0,0
534933,187743544,1,1257,1257,15.48,0.08,29,68,0,0
535418,187861342,1,1257,1257,15.49,0.08,30,68,0,0
535867,187967659,1,1257,1257,15.5,0.09,29,68,0,0
536305,188069671,1,1257,1257,15.5,0.08,29,68,0,0
536756,188178640,1,1257,1257,15.5,0.08,29,68,0,0
537199,188285572,1,1257,1257,15.5,0.09,29,68,0,0
537650,188397850,1,1257,1257,15.49,0.09,29,68,0,0
538059,188496842,1,1257,1257,15.5,0.09,29,68,0,0
538503,188604027,1,1257,1257,15.5,0.09,29,68,0,0
538956,188712134,1,1257,1257,15.5,0.09,29,68,0,0
539359,188812909,1,1257,1257,15.5,0.09,29,68,0,0
539845,188925092,1,1257,1257,15.51,0.09,29,68,0,0
540297,189033874,1,1257,1257,15.51,0.09,29,68,0,0
540786,189147086,1,1257,1257,15.5,0.09,29,68,0,0
541191,189249400,1,1257,1257,15.51,0.09,29,68,0,0
541636,189353970,1,1257,1257,15.51,0.09,29,68,0,0
542119,189467625,1,1257,1257,15.51,0.09,29,68,0,0
542572,189576618,1,1257,1257,15.51,0.09,29,68,0,0
543022,189686706,1,1256,1242,15.51,0.09,29,68,0,0
543470,189799562,1,1243,1257,15.51,0.09,29,68,0,0
543875,189896342,1,1257,1257,15.51,0.09,29,68,0,0
544365,190015665,1,1257,1257,15.51,0.09,29,68,0,0
545214,190223595,1,1257,1257,15.51,0.09,29,68,0,0
545704,190338409,1,1257,1257,15.51,0.09,29,68,0,0
546148,190446583,1,1257,1257,15.51,0.09,29,68,0,0
546596,190558331,1,1257,1257,15.51,0.09,29,68,0,0
547043,190669927,1,1257,1257,15.52,0.09,29,68,0,0
547496,190780721,1,1257,1257,15.51,0.09,29,68,0,0
547942,190888609,1,1257,1257,15.52,0.09,29,68,0,0
548426,190999878,1,1257,1257,15.52,0.09,29,68,0,0
548833,191099499,1,1257,1257,15.52,0.09,29,68,0,0
549280,191210567,1,1257,1257,15.52,0.09,29,68,0,0
549726,191318377,1,1257,1257,15.52,0.09,29,68,0,0
550170,191423577,1,1257,1257,15.52,0.09,29,68,0,0
550662,191539387,1,1257,1257,15.52,0.09,29,68,0,0
551068,191641524,1,1257,1257,15.52,0.09,29,68,0,0
551516,191747554,1,1257,1257,15.52,0.09,29,68,0,0
551966,191858352,1,1257,1257,15.53,0.09,29,68,0,0
552411,191962046,1,1257,1257,15.52,0.09,29,68,0,0
552860,192071329,1,1257,1257,15.52,0.09,29,68,0,0
553348,192185370,1,1257,1257,15.53,0.09,29,68,0,0
553780,192286070,1,1257,1257,15.53,0.09,29,68,0,0
554228,192393533,1,1257,1257,15.54,0.09,29,68,0,0
554677,192503394,1,1257,1257,15.53,0.09,29,68,0,0
555127,192612045,1,1257,1257,15.53,0.09,29,68,0,0
555578,192722281,1,1257,1257,15.54,0.09,29,68,0,0
555985,192827074,1,1257,1257,15.53,0.09,29,68,0,0
556436,192932929,1,1257,1271,15.54,0.09,29,68,0,0
556885,193042998,1,1270,1257,15.54,0.09,29,68,0,0
557371,193153891,1,1257,1257,15.54,0.09,29,68,0,0
557816,193265866,1,1257,1257,15.54,0.09,29,68,0,0
558219,193362837,1,1257,1257,15.53,0.09,29,68,0,0
558706,193477503,1,1257,1257,15.54,0.09,29,68,0,0
559115,193576367,1,1257,1257,15.54,0.09,29,68,0,0
559599,193692588,1,1257,1257,15.54,0.09,29,68,0,0
560050,193804909,1,1257,1257,15.54,0.09,29,68,0,0
560454,193898723,1,1257,1257,15.54,0.09,29,68,0,0
560901,194006159,1,1257,1257,15.55,0.09,29,68,0,0
561390,194120567,1,1257,1271,15.55,0.09,29,68,0,0
561869,194237462,1,1271,1271,15.54,0.09,29,68,0,0
562314,194341607,1,1271,1271,15.54,0.08,29,68,0,0
563210,194559236,1,1271,1271,15.54,0.09,29,68,0,0
563655,194668072,1,1271,1271,15.55,0.09,29,68,0,0
564098,194778156,1,1200,557,15.57,0.01,29,68,0,0
564549,194880947,1,544,214,15.56,0.01,29,68,0,0
565004,194990600,1,205,0,15.56,0.02,29,68,0,0
565907,195204391,1,0,0,15.57,0.03,29,68,0,0
566401,195321901,1,0,0,15.57,0.02,28,68,0,0
566810,195421875,1,0,0,15.56,0.02,29,68,0,0
567308,195538513,1,0,0,15.57,0.02,29,68,0,0
567757,195646803,1,0,0,15.57,0.02,28,68,0,0
568209,195750725,1,0,0,15.57,0.03,29,68,0,0
568660,195857967,1,0,0,15.57,0.03,28,68,0,0
569126,195970939,1,0,0,15.57,0.02,28,68,0,0
569576,196077249,1,0,0,15.57,0.02,28,68,0,0
570074,196196920,1,0,0,15.57,0.02,28,68,0,0
570477,196292657,1,0,0,15.57,0.03,28,68,0,0
570971,196409107,1,0,0,15.58,0.02,28,68,0,0
571427,196517500,1,0,0,15.57,0.02,28,68,0,0
571880,196627983,1,0,0,15.58,0.02,28,68,0,0
572332,196733108,1,0,0,15.58,0.02,28,68,0,0
572786,196842910,1,0,0,15.58,0.02,28,68,0,0
573283,196959283,1,0,0,15.58,0.02,28,68,0,0
573736,197069343,1,0,0,15.58,0.02,28,68,0,0
574189,197176347,1,0,0,15.58,0.03,28,68,0,0
574634,197279284,1,0,0,15.58,0.03,28,68,0,0
575085,197385070,1,0,0,15.58,0.03,28,68,0,0
575532,197489650,1,0,0,15.58,0.03,28,68,0,0
576024,197609098,1,0,0,15.58,0.03,28,68,0,0
576478,197717052,1,0,0,15.57,0.03,28,68,0,0
576974,197835947,1,0,0,15.59,0.03,28,68,0,0
577427,197939353,1,0,0,15.58,0.03,28,68,0,0
577879,198047123,1,0,0,15.58,0.03,28,68,0,0
578329,198151819,1,0,0,15.58,0.03,28,68,0,0
