LineNo,TimeUS,Instance,RPM,RawRPM,Volt,Curr,Temp,CTot,MotTemp,Err
1502,56899910,3,0,0,15.92,0.04,28,0,0,0
1920,57004293,3,0,0,15.92,0.04,28,0,0,0
2338,57110341,3,0,0,15.91,0.04,28,0,0,0
2787,57224375,3,0,0,15.91,0.04,28,0,0,0
3202,57328268,3,0,0,15.92,0.04,28,0,0,0
3622,57435339,3,0,0,15.91,0.04,28,0,0,0
4083,57550320,3,0,0,15.91,0.04,28,0,0,0
4497,57652661,3,0,0,15.92,0.04,28,0,0,0
4908,57758570,3,0,0,15.91,0.04,28,0,0,0
5323,57864843,3,0,0,15.91,0.04,28,0,0,0
5736,57969265,3,0,0,15.92,0.04,28,0,0,0
6184,58080019,3,0,0,15.91,0.04,28,0,0,0
6637,58194540,3,0,0,15.91,0.04,28,0,0,0
7049,58301504,3,0,0,15.91,0.04,28,0,0,0
7462,58403084,3,0,0,15.91,0.04,28,0,0,0
7907,58517839,3,0,0,15.91,0.04,28,0,0,0
8325,58620525,3,0,0,15.91,0.04,28,0,0,0
8732,58723351,3,0,0,15.91,0.04,28,0,0,0
9192,58840403,3,0,0,15.91,0.04,28,0,0,0
9606,58944391,3,0,0,15.91,0.04,28,0,0,0
10024,59049044,3,0,0,15.91,0.04,28,0,0,0
10472,59162019,3,0,0,15.91,0.04,28,0,0,0
10765,59268713,3,0,0,15.92,0.04,28,0,0,0
11179,59372034,3,0,0,15.91,0.04,28,0,0,0
11592,59475549,3,0,0,15.91,0.04,28,0,0,0
12045,59590926,3,0,0,15.91,0.04,28,0,0,0
12456,59696853,3,0,0,15.92,0.04,27,0,0,0
12864,59802403,3,0,0,15.91,0.04,28,0,0,0
13322,59917428,3,0,0,15.91,0.04,28,0,0,0
13741,60023884,3,0,0,15.91,0.04,28,0,0,0
14155,60127916,3,0,0,15.91,0.04,28,0,0,0
14566,60233400,3,0,0,15.91,0.04,28,0,0,0
14981,60338659,3,0,0,15.91,0.04,28,0,0,0
15397,60443010,3,0,0,15.91,0.04,28,0,0,0
15848,60554957,3,0,0,15.92,0.04,28,0,0,0
16261,60657378,3,0,0,15.91,0.04,28,0,0,0
16714,60772876,3,0,0,15.92,0.04,28,0,0,0
17123,60873810,3,0,0,15.91,0.04,28,0,0,0
17543,60984232,3,0,0,15.92,0.04,28,0,0,0
17997,61097924,3,0,0,15.92,0.04,28,0,0,0
18408,61202683,3,0,0,15.91,0.04,28,0,0,0
18825,61306954,3,0,0,15.91,0.04,28,0,0,0
19238,61413232,3,0,0,15.92,0.04,28,0,0,0
19693,61527336,3,0,0,15.91,0.04,28,0,0,0
20135,61636528,3,0,0,15.91,0.04,28,0,0,0
20551,61738268,3,0,0,15.91,0.05,28,0,0,0
20966,61846828,3,0,0,15.91,0.04,28,0,0,0
21424,61958823,3,0,0,15.91,0.04,28,0,0,0
21838,62066273,3,0,0,15.91,0.04,28,0,0,0
22223,62169427,3,0,0,15.92,0.04,28,0,0,0
22668,62281121,3,0,0,15.91,0.04,28,0,0,0
23116,62394295,3,0,0,15.91,0.04,28,0,0,0
23494,62491660,3,0,0,15.91,0.04,28,0,0,0
23988,62615324,3,0,0,15.92,0.04,28,0,0,0
24402,62718339,3,0,0,15.92,0.04,28,0,0,0
24814,62825872,3,0,0,15.91,0.04,28,0,0,0
25228,62928345,3,0,0,15.92,0.04,28,0,0,0
25651,63041256,3,0,0,15.91,0.04,28,0,0,0
26064,63143389,3,0,0,15.92,0.04,28,0,0,0
26512,63256824,3,0,0,15.92,0.04,28,0,0,0
26925,63358830,3,0,0,15.92,0.04,28,0,0,0
27375,63472889,3,0,0,15.92,0.04,28,0,0,0
27796,63578527,3,0,0,15.91,0.04,28,0,0,0
28208,63685411,3,0,0,15.91,0.04,28,0,0,0
28618,63791178,3,0,0,15.91,0.04,28,0,0,0
29070,63903544,3,0,0,15.91,0.04,28,0,0,0
29484,64011034,3,0,0,15.91,0.04,28,0,0,0
29897,64113547,3,0,0,15.92,0.04,28,0,0,0
30317,64223860,3,0,0,15.91,0.04,28,0,0,0
30730,64325586,3,0,0,15.91,0.04,28,0,0,0
31145,64434384,3,0,0,15.91,0.04,28,0,0,0
31601,64547892,3,0,0,15.91,0.04,28,0,0,0
32043,64656379,3,0,0,15.91,0.04,28,0,0,0
32457,64758646,3,0,0,15.91,0.04,28,0,0,0
32843,64864029,3,0,0,15.91,0.04,28,0,0,0
33298,64975628,3,0,0,15.92,0.04,28,0,0,0
33740,65083950,3,0,0,15.92,0.04,28,0,0,0
34195,65203429,3,0,0,15.91,0.04,28,0,0,0
34607,65308070,3,0,0,15.91,0.04,28,0,0,0
34982,65405510,3,0,0,15.92,0.04,28,0,0,0
35437,65517870,3,0,0,15.91,0.04,28,0,0,0
35849,65624355,3,0,0,15.92,0.04,28,0,0,0
36299,65737527,3,0,0,15.91,0.04,28,0,0,0
36713,65844356,3,0,0,15.91,0.04,28,0,0,0
37135,65948582,3,0,0,15.91,0.04,28,0,0,0
37577,66058304,3,0,0,15.91,0.04,28,0,0,0
38074,66170584,3,0,0,15.91,0.04,28,0,0,0
38488,66269580,3,0,0,15.91,0.04,28,0,0,0
39017,66384880,3,0,0,15.91,0.04,28,0,0,0
39475,66491536,3,0,0,15.91,0.04,28,0,0,0
39931,66598802,3,0,0,15.91,0.04,28,0,0,0
40387,66702913,3,0,0,15.91,0.04,28,0,0,0
40840,66809586,3,0,0,15.92,0.04,28,0,0,0
41339,66922398,3,0,0,15.91,0.04,28,0,0,0
41792,67030393,3,0,0,15.92,0.04,28,0,0,0
42244,67132389,3,0,0,15.91,0.04,28,0,0,0
42736,67246285,3,0,0,15.92,0.04,28,0,0,0
43187,67348596,3,0,0,15.91,0.04,28,0,0,0
44138,67569344,3,0,0,15.91,0.04,28,0,0,0
44626,67678035,3,0,0,15.92,0.04,28,0,0,0
45081,67784890,3,0,0,15.91,0.04,28,0,0,0
45541,67893553,3,0,0,15.92,0.04,28,0,0,0
46450,68103607,3,4,528,15.9,0.09,28,0,0,0
46869,68209585,3,536,971,15.88,0.15,28,0,0,0
47366,68322536,3,978,1185,15.89,0.12,28,0,0,0
47862,68436350,3,1189,1242,15.89,0.11,28,0,0,0
48315,68539029,3,1243,1271,15.89,0.11,28,0,0,0
48806,68652409,3,1273,1300,15.9,0.11,28,0,0,0
49260,68755538,3,1300,1300,15.9,0.09999999,28,0,0,0
49712,68861350,3,1300,1300,15.9,0.09999999,28,0,0,0
50030,68972332,3,1300,1300,15.9,0.09999999,28,0,0,0
50483,69077541,3,1300,1300,15.91,0.09999999,28,0,0,0
50944,69188410,3,1298,1285,15.89,0.09999999,28,0,0,0
51393,69291301,3,1285,1300,15.9,0.09999999,28,0,0,0
51880,69402948,3,1300,1300,15.91,0.09999999,28,0,0,0
52337,69511433,3,1300,1300,15.9,0.09999999,28,0,0,0
52790,69617202,3,1300,1300,15.9,0.11,28,0,0,0
53247,69721503,3,1300,1300,15.9,0.09999999,28,0,0,0
53736,69834414,3,1300,1300,15.9,0.11,28,0,0,0
54191,69938710,3,1299,1285,15.9,0.09999999,28,0,0,0
55140,70159318,3,1285,1300,15.89,0.09999999,28,0,0,0
55550,70256543,3,1300,1300,15.89,0.09999999,28,0,0,0
56047,70369412,3,1300,1300,15.9,0.09999999,28,0,0,0
56542,70483011,3,1300,1300,15.9,0.09999999,28,0,0,0
56995,70585554,3,1300,1300,15.89,0.09999999,28,0,0,0
57487,70697890,3,1300,1300,15.89,0.09999999,28,0,0,0
57942,70806330,3,1300,1300,15.89,0.09999999,28,0,0,0
58399,70910385,3,1300,1300,15.9,0.09999999,28,0,0,0
59351,71128915,3,1300,1300,15.9,0.09999999,28,0,0,0
59800,71234663,3,1300,1300,15.89,0.09999999,28,0,0,0
60256,71338104,3,1300,1300,15.89,0.09999999,28,0,0,0
60713,71447344,3,1300,1300,15.9,0.09999999,28,0,0,0
61210,71560374,3,1300,1300,15.89,0.09999999,28,0,0,0
61661,71665723,3,1300,1300,15.89,0.09999999,28,0,0,0
62113,71767942,3,1300,1300,15.89,0.09999999,28,0,0,0
62569,71876557,3,1300,1300,15.89,0.09999999,28,0,0,0
63068,71989314,3,1300,1300,15.89,0.09999999,28,0,0,0
63524,72094028,3,1300,1300,15.9,0.09999999,28,0,0,0
64016,72208987,3,1300,1300,15.89,0.09999999,28,0,0,0
64471,72313085,3,1300,1300,15.9,0.09999999,28,0,0,0
65422,72531331,3,1300,1300,15.9,0.09999999,28,0,0,0
65876,72640883,3,1300,1300,15.9,0.09999999,28,0,0,0
66329,72741942,3,1300,1300,15.89,0.09999999,28,0,0,0
66826,72859329,3,1300,1300,15.89,0.09999999,28,0,0,0
67239,72954575,3,1300,1300,15.89,0.09999999,28,0,0,0
67733,73066562,3,1300,1300,15.9,0.09999999,28,0,0,0
68194,73178579,3,1300,1300,15.89,0.09999999,28,0,0,0
68642,73280568,3,1300,1300,15.89,0.09999999,28,0,0,0
69101,73388391,3,1300,1300,15.89,0.09999999,28,0,0,0
69603,73503539,3,1300,1300,15.89,0.09999999,28,0,0,0
70058,73612382,3,1300,1300,15.89,0.09999999,28,0,0,0
70513,73717945,3,1300,1300,15.89,0.09999999,28,0,0,0
70965,73823114,3,1300,1314,15.9,0.09999999,28,0,0,0
71466,73936056,3,1312,1300,15.9,0.09999999,28,0,0,0
71920,74041364,3,1300,1300,15.89,0.09999999,28,0,0,0
72373,74144825,3,1300,1300,15.89,0.09999999,28,0,0,0
72868,74261128,3,1300,1300,15.89,0.09999999,28,0,0,0
73321,74363274,3,1300,1300,15.89,0.09999999,28,0,0,0
73778,74473392,3,1300,1300,15.89,0.09999999,28,0,0,0
74273,74589550,3,1300,1300,15.89,0.09999999,28,0,0,0
74685,74684597,3,1300,1300,15.89,0.09999999,28,0,0,0
75134,74790928,3,1300,1300,15.89,0.09999999,28,0,0,0
75591,74896318,3,1300,1300,15.89,0.09999999,28,0,0,0
76086,75009355,3,1300,1300,15.89,0.09999999,28,0,0,0
76545,75116088,3,1300,1300,15.9,0.09999999,28,0,0,0
76995,75223346,3,1300,1300,15.91,0.09999999,28,0,0,0
77448,75326006,3,1300,1300,15.89,0.09999999,28,0,0,0
77945,75442401,3,1300,1300,15.9,0.09999999,28,0,0,0
78397,75545419,3,1300,1300,15.9,0.09999999,28,0,0,0
78849,75651361,3,1300,1314,15.89,0.12,28,0,0,0
79346,75764432,3,1335,1557,15.85,0.25,28,0,0,0
79796,75867209,3,1638,2471,15.8,0.74,28,0,0,0
80248,75970093,3,2477,2614,15.81,0.47,28,0,0,0
80708,76080832,3,2619,2700,15.93,0.43,28,0,0,0
81204,76196817,3,2698,2685,15.82,0.45,28,0,0,0
81656,76300395,3,2706,2928,15.7,0.85,28,0,0,0
82108,76407965,3,2948,3371,15.78,1.18,28,0,0,0
82567,76517088,3,3410,3928,15.63,1.65,29,0,0,0
83471,76731521,3,3967,5085,15.33,2.75,28,0,0,0
83917,76837083,3,5111,5614,15.25,3.37,28,1,0,0
84421,76954417,3,5654,6057,15.18,3.86,29,1,0,0
84836,77059129,3,6057,6057,15.33,3.11,28,1,0,0
85290,77163526,3,6034,5614,15.47,2.17,28,1,0,0
85746,77278098,3,5591,5271,15.35,1.99,28,1,0,0
86204,77382302,3,5253,5042,15.23,2.24,28,1,0,0
87103,77603568,3,5033,4857,15.33,1.56,29,1,0,0
87553,77710947,3,4847,4728,15.38,1.73,29,1,0,0
88002,77816868,3,4724,4642,15.31,1.81,29,1,0,0
88458,77923066,3,4642,4642,15.35,1.72,29,1,0,0
88910,78032917,3,4639,4457,15.26,1.51,28,1,0,0
89407,78147659,3,4454,4428,15.13,2.7,28,1,0,0
89859,78257526,3,4440,4571,15.12,2.72,29,1,0,0
90314,78362324,3,4585,4942,15.19,2.6,29,1,0,0
90801,78474409,3,4951,5085,15.33,2.43,29,2,0,0
91252,78579462,3,5087,5142,15.29,2.51,29,2,0,0
91704,78687084,3,5142,5157,15.32,2.45,29,2,0,0
92198,78807147,3,5169,5300,15.3,2.41,29,2,0,0
93064,79017799,3,5306,5471,15.27,2.77,29,2,0,0
93518,79124270,3,5473,5514,15.3,2.8,29,2,0,0
93970,79233884,3,5507,5428,15.35,2.6,29,2,0,0
94423,79339078,3,5425,5371,15.19,2.8,29,2,0,0
94875,79448508,3,5372,5414,15.22,2.69,29,2,0,0
95378,79565950,3,5412,5400,15.21,2.76,29,2,0,0
95831,79675929,3,5427,5728,15.08,3.13,29,2,0,0
96285,79783595,3,5721,5642,15.04,3.1,29,3,0,0
96740,79891662,3,5650,5771,15.14,3.04,29,3,0,0
97195,80005088,3,5772,5785,15.04,3.09,29,3,0,0
97647,80109417,3,5778,5714,15.08,3.04,29,3,0,0
98096,80217640,3,5710,5671,15.13,3.03,29,3,0,0
98552,80321824,3,5664,5542,15.16,2.74,29,3,0,0
99004,80432964,3,5553,5714,15.17,3.31,29,3,0,0
99502,80548954,3,5696,5514,15.21,2.79,29,3,0,0
99911,80649161,3,5519,5628,15.11,2.67,29,3,0,0
100409,80766642,3,5621,5557,15.2,3.06,29,3,0,0
100893,80887117,3,5564,5600,15.16,2.51,29,3,0,0
101297,80981858,3,5590,5514,15.15,2.79,29,4,0,0
101745,81095901,3,5504,5428,15.18,2.68,29,4,0,0
102197,81202547,3,5420,5357,15.19,2.63,29,4,0,0
102640,81313162,3,5366,5428,15.19,2.53,29,4,0,0
103010,81407903,3,5425,5271,15.19,2.49,29,4,0,0
103459,81514794,3,5271,5271,15.25,2.22,29,4,0,0
103902,81628035,3,5271,5271,15.16,2.5,29,4,0,0
104352,81741218,3,5269,5257,15.11,2.36,29,4,0,0
104759,81846525,3,5266,5328,15.23,2.46,29,4,0,0
105167,81941608,3,5319,5200,15.22,2.33,29,4,0,0
105571,82046045,3,5201,5228,15.14,2.63,29,4,0,0
106024,82157593,3,5240,5414,15.21,2.59,29,4,0,0
106466,82265936,3,5412,5400,15.18,2.62,29,4,0,0
106917,82374905,3,5406,5471,15.2,2.92,29,5,0,0
107364,82481941,3,5463,5385,15.13,2.91,29,5,0,0
107771,82582427,3,5387,5500,15.07,2.86,29,5,0,0
108252,82697287,3,5497,5442,15.14,2.55,29,5,0,0
109151,82919028,3,5444,5571,15.23,2.69,29,5,0,0
109591,83029412,3,5571,5571,15.13,3.18,29,5,0,0
110040,83137841,3,5574,5671,15.17,2.94,29,5,0,0
110484,83248282,3,5656,5542,15.16,2.91,29,5,0,0
110892,83345653,3,5543,5642,15.26,2.87,29,5,0,0
111822,83572560,3,5632,5428,15.17,2.57,29,5,0,0
112276,83688311,3,5419,5342,15.19,2.45,29,6,0,0
112681,83790128,3,5339,5314,15.14,2.5,29,6,0,0
113616,84012827,3,5308,5142,15.2,2.35,29,6,0,0
114028,84120160,3,5148,5185,15.11,2.37,29,6,0,0
114920,84336333,3,5185,5185,15.22,2.34,29,6,0,0
115314,84431420,3,5176,4857,15.29,1.89,29,6,0,0
115769,84544283,3,4854,4828,15.25,1.7,29,6,0,0
116176,84651130,3,4830,4928,15.1,2.46,30,6,0,0
117110,84879415,3,4936,5185,15.14,2.51,29,6,0,0
117524,84983020,3,5188,5257,15.15,2.61,30,6,0,0
118005,85097542,3,5265,5371,15.14,2.55,29,6,0,0
118858,85313878,3,5375,5571,15.13,2.98,29,7,0,0
119306,85424040,3,5570,5557,15.2,2.86,29,7,0,0
119791,85537416,3,5547,5457,15.22,2.57,29,7,0,0
120644,85747653,3,5457,5514,15.2,2.67,29,7,0,0
121098,85860502,3,5502,5271,15.11,2.65,29,7,0,0
121949,86073388,3,5267,5142,15.12,2.03,29,7,0,0
122404,86188846,3,5134,5042,15.19,2.11,29,7,0,0
122817,86294722,3,5039,5000,15.19,2.29,29,7,0,0
123260,86403102,3,5001,5028,15.15,2.09,29,7,0,0
123707,86509854,3,5031,5100,15.16,2.26,29,7,0,0
124154,86623433,3,5095,5028,15.08,2.43,29,8,0,0
124606,86733923,3,5041,5171,15.13,2.22,29,8,0,0
125052,86842430,3,5171,5171,15.08,2.32,29,8,0,0
125463,86941946,3,5173,5228,15.1,2.24,29,8,0,0
125909,87056592,3,5228,5228,15.19,2.25,29,8,0,0
126395,87172639,3,5215,5085,15.07,2.34,29,8,0,0
126798,87272317,3,5086,5128,15.1,2.33,30,8,0,0
127246,87386891,3,5144,5285,15.1,2.64,29,8,0,0
127729,87496635,3,5279,5200,15.11,2.24,29,8,0,0
128582,87707516,3,5184,4871,15.17,1.73,30,8,0,0
129025,87815556,3,4872,4885,15.14,2.2,29,8,0,0
129435,87915907,3,4890,5128,15.1,2.64,29,8,0,0
129916,88029533,3,5120,5028,15.13,2.03,29,8,0,0
130366,88138573,3,5028,5042,15.1,1.92,29,9,0,0
130773,88243859,3,5036,4928,15.02,2.38,29,9,0,0
131221,88349339,3,4930,5085,15.04,2.57,30,9,0,0
131703,88464626,3,5078,5014,15.06,2.42,30,9,0,0
132151,88572614,3,5020,5085,15.14,1.82,29,9,0,0
132555,88675908,3,5061,4757,15.2,2.3,30,9,0,0
133450,88894941,3,4768,5071,14.99,2.38,30,9,0,0
134343,89111288,3,5071,5128,15.09,2.42,29,9,0,0
134787,89220634,3,5125,5085,15.04,2.65,30,9,0,0
135637,89430635,3,5085,5100,14.82,3.25,30,9,0,0
136084,89536134,3,5101,5142,14.94,3.03,29,10,0,0
136529,89645826,3,5141,5100,14.91,2.8,30,10,0,0
136978,89756139,3,5105,5185,15.13,2.7,30,10,0,0
137384,89858103,3,5186,5257,15.1,2.28,30,10,0,0
137831,89966091,3,5256,5242,14.99,2.7,30,10,0,0
138272,90076517,3,5247,5357,15.14,2.24,30,10,0,0
138721,90189114,3,5351,5242,15.14,2.47,30,10,0,0
139179,90299599,3,5252,5385,15.13,2.38,30,10,0,0
139580,90400716,3,5375,5171,14.98,2.5,30,10,0,0
140080,90520604,3,5178,5257,15.01,2.24,30,10,0,0
140484,90623349,3,5258,5271,15.01,2.38,30,10,0,0
140932,90731927,3,5275,5385,15.09,2.84,30,10,0,0
141377,90842807,3,5383,5271,15.1,2.11,30,10,0,0
141826,90950053,3,5274,5357,15.1,2.77,30,10,0,0
142279,91061413,3,5354,5314,15.15,2.5,30,11,0,0
142730,91170558,3,5315,5342,14.97,2.54,30,11,0,0
143136,91273402,3,5340,5300,14.98,2.73,30,11,0,0
143588,91384112,3,5303,5385,15.06,2.56,30,11,0,0
144073,91501382,3,5382,5357,15.03,2.49,30,11,0,0
144478,91604827,3,5358,5442,15.01,2.92,30,11,0,0
144967,91721943,3,5447,5514,15.07,2.86,30,11,0,0
145411,91831277,3,5509,5471,15.1,2.67,30,11,0,0
145818,91931349,3,5470,5428,15.04,2.57,30,11,0,0
146257,92039321,3,5432,5485,15.08,2.52,30,11,0,0
147152,92259013,3,5479,5371,15.14,2.48,30,11,0,0
147561,92360947,3,5368,5214,15.17,2.3,30,12,0,0
148008,92470351,3,5214,5228,15.09,2.29,30,12,0,0
148462,92583535,3,5233,5357,15.14,2.4,30,12,0,0
148909,92695642,3,5360,5400,15.07,2.97,30,12,0,0
149798,92909922,3,5401,5442,15.16,2.55,30,12,0,0
150205,93016939,3,5440,5357,15.12,2.59,30,12,0,0
150695,93132880,3,5371,5528,15.1,2.88,30,12,0,0
151100,93232091,3,5527,5471,15.04,2.75,30,12,0,0
151550,93341531,3,5477,5600,15.01,2.93,30,12,0,0
151996,93454337,3,5600,5600,15.06,2.93,30,12,0,0
152924,93677426,3,5599,5585,15.02,3.4,30,12,0,0
153375,93791910,3,5622,5942,15,3.82,30,13,0,0
153853,93904065,3,5925,5771,15.07,3.01,30,13,0,0
154263,94004366,3,5763,5414,15.07,2.33,30,13,0,0
155612,94335749,3,5408,4971,15.05,2.36,30,13,0,0
156096,94458696,3,4984,5128,15.06,2.57,30,13,0,0
156950,94671906,3,5128,5171,14.69,2.9,30,13,0,0
158324,95004022,3,5175,5328,15.06,2.42,30,14,0,0
158773,95112844,3,5336,5428,15.01,2.86,30,14,0,0
159173,95211841,3,5433,5571,14.99,2.96,30,14,0,0
159668,95330314,3,5573,5600,15.06,2.82,30,14,0,0
160112,95440498,3,5577,5342,15.11,2.11,30,14,0,0
160561,95547889,3,5335,5271,15.03,2.36,30,14,0,0
160963,95650909,3,5272,5357,15.06,2.35,30,14,0,0
161411,95756506,3,5358,5485,15.08,2.54,30,14,0,0
161854,95866284,3,5484,5471,15.08,2.66,30,14,0,0
162303,95975366,3,5477,5571,15.09,2.61,30,14,0,0
162748,96085823,3,5564,5485,15.13,2.59,30,14,0,0
163646,96308847,3,5490,5642,15.07,3.07,30,15,0,0
164085,96416311,3,5643,5685,15.08,2.88,30,15,0,0
164547,96532022,3,5692,5800,15.08,3.15,30,15,0,0
164988,96640844,3,5795,5714,15.13,3.38,30,15,0,0
165439,96749583,3,5713,5700,15.05,3.08,30,15,0,0
165887,96863409,3,5706,5771,15.05,2.65,30,15,0,0
166292,96962537,3,5766,5685,15.05,3.27,30,15,0,0
166779,97080888,3,5684,5671,15.01,3.2,30,15,0,0
167226,97185589,3,5671,5671,15.09,2.77,30,15,0,0
167631,97288807,3,5666,5571,15.07,2.68,30,15,0,0
168081,97401905,3,5572,5700,15.08,2.85,30,15,0,0
168532,97510916,3,5697,5671,15.17,2.83,30,16,0,0
168978,97622126,3,5649,5357,15.1,2.63,30,16,0,0
169426,97731251,3,5378,5657,14.88,2.87,30,16,0,0
169872,97842595,3,5645,5528,14.92,3.49,30,16,0,0
170312,97945489,3,5553,6085,15.08,3.63,30,16,0,0
170799,98062980,3,6057,5771,15.12,2.83,30,16,0,0
171248,98170661,3,5763,5685,15.11,2.88,30,16,0,0
171695,98281878,3,5679,5628,15.09,2.9,30,16,0,0
172140,98388366,3,5640,5814,15.09,3,30,16,0,0
172589,98500653,3,5787,5514,15.08,2.97,30,16,0,0
173035,98611438,3,5533,5742,15.08,3.05,30,16,0,0
173477,98712462,3,5748,5871,15.07,3.43,30,17,0,0
173928,98824707,3,5861,5771,15.03,3.19,30,17,0,0
174374,98928925,3,5771,5800,14.94,2.98,30,17,0,0
174863,99048402,3,5803,5842,14.98,3.47,30,17,0,0
175309,99162856,3,5853,5928,14.94,3.44,30,17,0,0
175753,99266406,3,5925,5900,14.93,3.31,30,17,0,0
176202,99379072,3,5894,5828,14.97,3.53,30,17,0,0
177097,99607095,3,5832,5928,15,3.4,30,17,0,0
177546,99712902,3,5925,5900,15.03,3.67,30,17,0,0
177941,99810099,3,5902,5957,14.95,3.45,30,18,0,0
178435,99929104,3,5945,5814,14.99,3.06,30,18,0,0
178872,100032356,3,5808,5714,14.98,2.82,30,18,0,0
179321,100138566,3,5701,5371,15.02,2.62,30,18,0,0
179767,100250426,3,5357,5171,15.1,2.13,30,18,0,0
180180,100353898,3,5172,5285,15.05,2.49,30,18,0,0
180584,100457952,3,5283,5185,15.07,2.17,30,18,0,0
181066,100568418,3,5182,5057,15.01,1.97,30,18,0,0
181516,100681628,3,5067,5371,15.02,3.01,30,18,0,0
181961,100791621,3,5367,5271,15.05,2.35,30,18,0,0
182453,100909624,3,5268,5242,15.05,2.46,30,18,0,0
182851,101006466,3,5242,5271,15.08,2.54,30,18,0,0
183303,101117280,3,5267,5214,14.97,2.61,30,19,0,0
183711,101220422,3,5216,5385,15.08,2.46,30,19,0,0
184192,101329524,3,5385,5428,15.01,2.88,30,19,0,0
184641,101443544,3,5427,5400,14.99,2.66,30,19,0,0
185532,101661110,3,5400,5428,15.01,2.56,30,19,0,0
185984,101771836,3,5411,5257,15.03,2.36,30,19,0,0
186432,101884806,3,5260,5300,14.93,2.43,30,19,0,0
186838,101983800,3,5297,5228,15.08,2.51,30,19,0,0
187284,102095145,3,5232,5328,15.02,2.64,30,19,0,0
187731,102206383,3,5324,5285,15.07,2.51,30,19,0,0
188136,102304866,3,5285,5300,15.02,2.44,30,19,0,0
188582,102415985,3,5302,5385,15.09,2.72,30,19,0,0
189075,102535885,3,5387,5414,15.05,2.55,30,20,0,0
189472,102635015,3,5410,5285,15.07,2.48,30,20,0,0
189966,102754625,3,5288,5328,15.04,2.91,30,20,0,0
190371,102856528,3,5340,5500,14.98,3.03,30,20,0,0
191226,103071413,3,5503,5642,15.05,2.65,30,20,0,0
191673,103177408,3,5635,5385,15.02,2.61,30,20,0,0
192083,103284546,3,5385,5442,15.07,2.35,30,20,0,0
192564,103400350,3,5445,5471,15.07,2.76,30,20,0,0
193016,103510614,3,5481,5600,15.01,2.64,30,20,0,0
193416,103611531,3,5596,5428,15,2.59,30,20,0,0
193908,103728579,3,5441,5571,14.98,2.8,30,20,0,0
194311,103832622,3,5568,5528,15.03,2.82,30,21,0,0
194760,103939323,3,5527,5514,15.07,2.88,30,21,0,0
195167,104046635,3,5514,5542,15,2.7,30,21,0,0
195658,104164363,3,5556,5785,15.01,3.05,30,21,0,0
196102,104275325,3,5781,5728,14.98,3.21,30,21,0,0
196505,104375847,3,5730,5885,14.95,3.43,30,21,0,0
196951,104489936,3,5880,5785,14.96,3.59,30,21,0,0
197396,104600253,3,5785,5814,15.04,3,30,21,0,0
197884,104714667,3,5795,5614,15.06,2.65,30,21,0,0
198323,104822515,3,5614,5614,14.94,2.61,30,21,0,0
199620,105140717,3,5612,5414,15.05,2.44,30,22,0,0
200065,105253919,3,5408,5342,15.05,2.25,30,22,0,0
200519,105363845,3,5352,5485,14.97,2.71,30,22,0,0
200963,105474227,3,5500,5657,14.97,2.94,30,22,0,0
201412,105587416,3,5664,5728,14.91,3.25,30,22,0,0
201851,105690610,3,5728,5728,14.92,3.07,30,22,0,0
202256,105797929,3,5729,5757,14.98,3.08,30,22,0,0
202701,105904973,3,5755,5728,14.99,3.1,30,22,0,0
203143,106013065,3,5746,5928,14.97,3.54,30,22,0,0
203629,106124131,3,5934,6000,14.98,3.22,30,22,0,0
204476,106333064,3,5998,5928,14.99,3.15,30,23,0,0
204881,106438511,3,5929,6000,14.96,3.18,30,23,0,0
205378,106556526,3,6014,6171,14.8,3.66,30,23,0,0
205782,106659373,3,6170,6142,14.91,3.8,30,23,0,0
206230,106769639,3,6136,6042,14.91,3.61,30,23,0,0
206636,106876006,3,6049,6214,14.91,3.67,30,23,0,0
207088,106985865,3,6211,6085,14.88,3.55,30,23,0,0
207532,107095799,3,6085,6142,14.91,3.67,30,23,0,0
208470,107320145,3,6134,5957,14.88,3.57,30,24,0,0
208913,107429086,3,5962,6042,14.86,3.45,30,24,0,0
209364,107540438,3,6039,6014,14.85,3.78,30,24,0,0
209810,107652300,3,6037,6285,14.86,4.18,30,24,0,0
210254,107757862,3,6280,6200,14.86,3.75,30,24,0,0
210661,107865030,3,6198,6157,14.88,3.73,30,24,0,0
211149,107986832,3,6135,5957,14.88,3.35,30,24,0,0
211550,108082066,3,5961,6157,14.94,3.08,30,24,0,0
212037,108202373,3,6121,5771,14.86,3.12,30,24,0,0
212481,108311283,3,5764,5700,14.92,2.77,30,25,0,0
212925,108421598,3,5670,5428,14.85,2.84,30,25,0,0
213374,108527363,3,5449,5714,14.92,3.08,30,25,0,0
213814,108637270,3,5707,5642,14.92,3.13,30,25,0,0
214268,108751887,3,5650,5714,14.98,3.06,30,25,0,0
214706,108857623,3,5725,5828,14.94,3.21,30,25,0,0
215156,108964715,3,5821,5757,15.01,2.8,30,25,0,0
215557,109067845,3,5751,5500,14.94,2.64,30,25,0,0
216008,109178431,3,5517,5671,14.98,3.07,30,25,0,0
216412,109283748,3,5668,5614,15.02,2.42,30,25,0,0
216896,109391898,3,5605,5471,15.06,2.39,30,25,0,0
217341,109506901,3,5459,5342,15.02,2.73,30,26,0,0
217788,109618163,3,5354,5528,14.96,2.88,30,26,0,0
218195,109720311,3,5515,5414,14.97,2.75,30,26,0,0
218600,109823121,3,5419,5500,15,2.6,30,26,0,0
219090,109943156,3,5494,5428,14.98,2.72,30,26,0,0
219485,110042617,3,5427,5400,15,2.61,30,26,0,0
219978,110162070,3,5410,5485,14.98,2.91,30,26,0,0
220346,110253914,3,5484,5442,14.91,2.52,30,26,0,0
221236,110470811,3,5445,5700,14.83,3.47,30,26,0,0
221721,110589321,3,5716,5857,14.89,3.21,30,26,0,0
222128,110694413,3,5854,5785,14.92,3.34,30,26,0,0
223017,110906402,3,5795,6200,14.83,4.14,30,27,0,0
223414,111008335,3,6199,6185,14.79,4.21,30,27,0,0
224269,111223426,3,6182,5871,14.86,3.25,30,27,0,0
224763,111344297,3,5863,5785,14.91,2.95,30,27,0,0
225166,111447053,3,5780,5742,14.88,3.05,30,27,0,0
225617,111557824,3,5735,5685,14.92,2.67,30,27,0,0
226022,111661095,3,5665,5285,15.04,2,30,27,0,0
226470,111772846,3,5273,5171,15,2.38,30,27,0,0
227318,111983837,3,5174,5414,14.89,2.55,30,28,0,0
227768,112095166,3,5414,5428,14.8,3.15,30,28,0,0
228655,112312339,3,5449,5928,14.77,3.84,30,28,0,0
229104,112423026,3,5932,5971,14.85,3.27,30,28,0,0
229553,112536864,3,5949,5728,15.02,2.91,30,28,0,0
229960,112636606,3,5722,5671,14.92,3.14,30,28,0,0
230407,112746559,3,5671,5714,14.92,2.89,30,28,0,0
230839,112851965,3,5710,5585,15.03,2.79,30,28,0,0
231333,112974957,3,5576,5514,15,2.96,30,28,0,0
231698,113069094,3,5514,5528,14.88,2.81,30,29,0,0
232627,113294605,3,5533,5642,14.83,2.9,30,29,0,0
233075,113406416,3,5650,5742,14.91,3.2,30,29,0,0
233482,113510437,3,5741,5728,14.91,3.14,30,29,0,0
233933,113623578,3,5720,5642,14.88,3.24,30,29,0,0
234778,113833041,3,5641,5542,14.82,2.85,30,29,0,0
235267,113950030,3,5550,5671,14.84,2.95,30,29,0,0
235667,114048504,3,5665,5571,14.85,2.95,30,29,0,0
236117,114158367,3,5581,5771,14.87,3.32,30,30,0,0
236526,114263828,3,5768,5728,14.88,3.31,30,30,0,0
236937,114365103,3,5729,5842,14.88,3.66,30,30,0,0
237381,114480524,3,5843,5914,14.9,3.06,30,30,0,0
237863,114594509,3,5891,5685,14.95,2.81,30,30,0,0
239194,114918432,3,5685,5771,14.86,3.18,30,30,0,0
239645,115034179,3,5770,5757,14.84,3.3,30,30,0,0
240094,115142625,3,5758,5771,14.95,3.29,30,30,0,0
240500,115248515,3,5775,5885,14.92,3.19,30,30,0,0
240954,115359552,3,5878,5814,14.9,3.41,30,31,0,0
241396,115467604,3,5807,5728,14.89,3.26,30,31,0,0
241846,115574516,3,5732,5842,14.82,3.29,30,31,0,0
242289,115685063,3,5842,5842,14.89,3.26,30,31,0,0
243181,115903806,3,5839,5771,14.86,3.18,30,31,0,0
244075,116123897,3,5775,5871,14.83,3.35,30,31,0,0
244478,116224694,3,5872,5914,14.92,3.22,30,31,0,0
244924,116331341,3,5908,5800,14.94,2.96,30,31,0,0
245374,116444547,3,5802,5871,14.94,3.05,30,32,0,0
245861,116555311,3,5864,5785,14.85,3.23,30,32,0,0
246260,116654643,3,5782,5742,14.76,3.11,30,32,0,0
246752,116770391,3,5738,5700,14.83,2.92,30,32,0,0
247198,116881527,3,5703,5742,14.89,2.93,30,32,0,0
247595,116979812,3,5738,5571,14.86,3.02,30,32,0,0
248039,117087941,3,5576,5685,14.89,3.04,30,32,0,0
248486,117200546,3,5680,5571,15,2.91,30,32,0,0
250238,117638395,3,5568,5371,14.91,2.55,30,33,0,0
250718,117747699,3,5372,5442,14.92,3.02,30,33,0,0
251614,117969638,3,5448,5657,14.85,3.06,30,33,0,0
252060,118080660,3,5651,5571,14.95,2.66,30,33,0,0
252507,118193149,3,5550,5414,14.96,2.91,30,33,0,0
252917,118296353,3,5414,5428,14.95,2.73,30,33,0,0
253324,118404059,3,5430,5457,14.98,2.57,30,33,0,0
253776,118517078,3,5439,5257,14.94,2.61,30,33,0,0
254181,118618521,3,5258,5357,14.92,2.76,30,33,0,0
254626,118723910,3,5358,5457,14.94,2.87,30,33,0,0
255112,118842844,3,5457,5457,14.91,3.02,30,33,0,0
255561,118951869,3,5471,5614,14.99,2.95,30,34,0,0
255965,119053521,3,5612,5571,14.97,3.22,30,34,0,0
256413,119162430,3,5573,5757,14.97,3.06,30,34,0,0
256854,119272216,3,5754,5728,14.86,3.12,30,34,0,0
257301,119380415,3,5715,5528,14.85,3.15,30,34,0,0
257745,119491063,3,5552,5814,14.95,3.18,30,34,0,0
258199,119604822,3,5798,5614,14.94,2.76,30,34,0,0
258606,119705320,3,5600,5428,14.9,2.33,30,34,0,0
259053,119819361,3,5427,5414,14.85,2.94,30,34,0,0
259499,119926544,3,5407,5271,14.85,2.51,30,34,0,0
259904,120028559,3,5273,5414,14.87,2.82,30,34,0,0
260392,120141790,3,5410,5357,14.79,2.53,30,35,0,0
260833,120253622,3,5335,5157,14.87,2.04,30,35,0,0
261283,120358592,3,5171,5314,14.9,2.39,30,35,0,0
261685,120461462,3,5311,5257,14.85,2.61,30,35,0,0
262139,120571915,3,5267,5414,14.84,2.78,30,35,0,0
262546,120677953,3,5413,5400,14.88,2.74,30,35,0,0
262999,120788604,3,5405,5457,14.84,2.89,30,35,0,0
263438,120895834,3,5461,5571,14.76,3.16,30,35,0,0
264368,121119879,3,5590,5885,14.84,3.45,30,35,0,0
264775,121218079,3,5898,6100,14.79,3.58,30,35,0,0
265219,121326880,3,6092,5957,14.82,3.56,30,35,0,0
265663,121437792,3,5953,5914,14.9,3.18,30,36,0,0
266115,121549338,3,5897,5642,14.88,2.85,30,36,0,0
266553,121658522,3,5610,5342,14.86,2.37,30,36,0,0
266960,121760262,3,5344,5428,14.86,2.73,30,36,0,0
267408,121871403,3,5427,5414,14.91,2.73,30,36,0,0
267902,121993962,3,5426,5528,14.88,2.62,30,36,0,0
268759,122213230,3,5515,5342,14.89,2.5,30,36,0,0
269165,122315414,3,5334,5257,14.85,2.42,30,36,0,0
269569,122418325,3,5261,5342,14.84,2.6,30,36,0,0
270023,122531383,3,5339,5300,14.88,2.36,30,36,0,0
270430,122638281,3,5298,5242,14.89,2.29,30,36,0,0
270879,122747595,3,5239,5214,14.92,2.34,30,37,0,0
271327,122860530,3,5208,5157,14.92,2.33,30,37,0,0
271734,122961314,3,5156,5142,14.89,2.36,30,37,0,0
272180,123070928,3,5141,5128,14.88,2.39,30,37,0,0
272628,123179650,3,5133,5185,14.93,2.57,30,37,0,0
273074,123290564,3,5200,5357,14.84,2.62,30,37,0,0
273481,123395952,3,5363,5528,14.85,2.82,30,37,0,0
273928,123503653,3,5520,5385,14.84,2.56,30,37,0,0
274375,123617307,3,5381,5342,14.82,2.57,30,37,0,0
274822,123725427,3,5337,5285,14.79,2.4,30,37,0,0
275184,123820509,3,5285,5314,14.89,2.54,30,37,0,0
276110,124042042,3,5298,4942,14.86,1.89,30,37,0,0
276596,124157341,3,4930,4814,14.85,1.88,30,38,0,0
276996,124259276,3,4818,4871,14.91,1.89,30,38,0,0
277450,124372305,3,4868,4842,14.87,1.8,30,38,0,0
277858,124473580,3,4841,4785,14.86,1.7,30,38,0,0
278345,124591267,3,4785,4785,14.97,1.96,30,38,0,0
278744,124689998,3,4786,4885,14.97,2.17,30,38,0,0
279224,124804831,3,4890,4985,14.98,2.2,30,38,0,0
279634,124909261,3,4991,5114,14.97,2.04,30,38,0,0
280078,125017799,3,5114,5114,15.03,2.23,30,38,0,0
280523,125122808,3,5114,5114,15.02,2.25,30,38,0,0
280970,125236086,3,5116,5285,14.99,2.44,30,38,0,0
281420,125345823,3,5284,5257,14.99,2.19,30,38,0,0
281869,125456805,3,5253,5200,14.97,1.97,30,38,0,0
282318,125566028,3,5188,5028,14.93,2.07,30,38,0,0
282718,125665634,3,5027,5000,14.89,1.75,30,38,0,0
283167,125777616,3,4997,4742,14.95,1.37,30,38,0,0
283614,125887786,3,4740,4714,14.91,1.62,30,38,0,0
284061,125995325,3,4714,4771,14.91,1.76,30,39,0,0
284506,126104843,3,4781,4914,14.87,2.02,30,39,0,0
284948,126214664,3,4912,4885,14.97,1.77,30,39,0,0
285395,126321886,3,4879,4828,14.92,1.74,30,39,0,0
285839,126431621,3,4832,4900,14.9,1.84,30,39,0,0
286294,126542884,3,4901,4914,14.95,1.85,30,39,0,0
286739,126653618,3,4916,4942,14.96,2.05,30,39,0,0
287183,126762377,3,4939,4914,14.98,1.82,30,39,0,0
287584,126863858,3,4914,4971,15,1.62,30,39,0,0
288070,126976629,3,4969,4914,14.9,1.81,30,39,0,0
288523,127089134,3,4900,4771,14.87,1.78,30,39,0,0
289008,127208711,3,4785,4957,14.87,1.92,30,39,0,0
289407,127306612,3,4954,4928,14.86,1.74,30,39,0,0
289855,127418413,3,4928,4928,14.83,2.27,30,39,0,0
290304,127526538,3,4944,5157,14.78,2.79,30,39,0,0
290748,127633128,3,5161,5342,14.77,3,30,39,0,0
291202,127746576,3,5361,5557,14.84,2.89,30,40,0,0
291646,127856370,3,5542,5400,14.9,2.62,30,40,0,0
292500,128067578,3,5393,5114,14.94,2.17,30,40,0,0
292991,128189063,3,5091,4957,14.93,1.92,30,40,0,0
293393,128288398,3,4943,4800,14.97,1.54,30,40,0,0
293844,128403417,3,4791,4728,15,1.57,30,40,0,0
294250,128502562,3,4733,4814,14.95,2.05,30,40,0,0
294654,128604524,3,4818,5028,14.9,1.98,30,40,0,0
295585,128829977,3,5028,5028,14.97,1.93,30,40,0,0
296036,128938503,3,5036,5128,14.87,2.01,30,40,0,0
296440,129042643,3,5110,4871,14.95,2.08,30,40,0,0
296888,129150797,3,4871,4871,14.92,1.74,30,40,0,0
297293,129252652,3,4870,4828,14.89,1.74,30,40,0,0
297738,129359076,3,4826,4771,14.91,1.56,30,40,0,0
298220,129471861,3,4769,4728,14.83,1.38,30,40,0,0
298708,129588717,3,4721,4642,14.94,1.51,30,41,0,0
299151,129697363,3,4658,4871,14.97,1.6,30,41,0,0
299599,129809335,3,4877,4942,14.86,2.39,30,41,0,0
300046,129919900,3,4946,4985,14.66,2.4,30,41,0,0
300495,130032532,3,4982,4957,14.9,1.91,30,41,0,0
300905,130136716,3,4950,4900,14.93,2.04,29,41,0,0
301307,130234857,3,4902,5042,14.91,2.21,30,41,0,0
302234,130460610,3,5044,5114,15,2.03,30,41,0,0
302679,130570069,3,5120,5185,14.92,2.2,30,41,0,0
303127,130682061,3,5195,5285,14.87,2.76,30,41,0,0
303566,130782061,3,5286,5371,14.92,2.44,29,41,0,0
304014,130891944,3,5369,5342,14.85,2.37,30,41,0,0
304464,131006826,3,5336,5271,14.98,2.53,30,41,0,0
304947,131122525,3,5266,5214,14.92,2.63,29,42,0,0
305795,131333214,3,5214,5228,14.94,2.64,30,42,0,0
306688,131552293,3,5235,5385,14.91,2.69,30,42,0,0
307133,131663115,3,5374,5228,14.95,2.55,29,42,0,0
308437,131984589,3,5229,5600,14.85,3.07,30,42,0,0
308917,132102901,3,5598,5585,14.83,3.03,30,42,0,0
309364,132215699,3,5590,5671,14.84,3.04,30,42,0,0
309815,132326942,3,5657,5528,14.89,2.9,30,42,0,0
310254,132431945,3,5528,5542,14.83,2.64,30,43,0,0
310705,132541665,3,5545,5600,14.8,2.77,30,43,0,0
311149,132652373,3,5582,5400,14.89,2.45,30,43,0,0
311597,132761368,3,5391,5271,14.9,2.34,30,43,0,0
312455,132977518,3,5270,5242,14.91,2.41,30,43,0,0
312902,133088425,3,5238,5185,14.95,2.07,30,43,0,0
313343,133196272,3,5179,5071,14.9,2.4,30,43,0,0
313753,133300409,3,5072,5157,14.92,2.27,30,43,0,0
314239,133419604,3,5158,5185,14.87,2.38,30,43,0,0
314695,133531656,3,5185,5185,14.95,2.37,29,43,0,0
315091,133632882,3,5184,5171,14.93,2.2,29,43,0,0
315539,133741551,3,5171,5171,14.91,2.46,29,43,0,0
315977,133846788,3,5174,5314,14.82,2.82,30,43,0,0
316390,133951959,3,5316,5457,14.89,2.89,30,44,0,0
316881,134070831,3,5454,5428,14.92,2.78,29,44,0,0
317282,134171500,3,5426,5357,14.89,2.6,30,44,0,0
317723,134278713,3,5361,5457,14.88,2.65,29,44,0,0
318216,134400302,3,5451,5400,14.83,2.57,29,44,0,0
319104,134612372,3,5401,5428,14.89,2.88,30,44,0,0
319508,134710613,3,5428,5442,14.85,2.72,29,44,0,0
319951,134820350,3,5441,5428,14.91,2.71,30,44,0,0
320400,134928946,3,5428,5485,14.91,2.76,30,44,0,0
320844,135038946,3,5481,5428,14.88,2.67,29,44,0,0
321297,135152310,3,5438,5542,14.89,2.83,30,44,0,0
321739,135260424,3,5538,5485,14.94,2.42,29,45,0,0
322186,135366534,3,5479,5400,14.94,2.61,30,45,0,0
322595,135471533,3,5398,5314,14.91,2.57,30,45,0,0
323043,135580025,3,5311,5257,14.86,2.6,30,45,0,0
323487,135690099,3,5255,5228,14.94,2.37,29,45,0,0
323969,135805873,3,5228,5228,14.92,2.23,30,45,0,0
324377,135907228,3,5221,5142,14.8,2.4,29,45,0,0
324780,136010463,3,5144,5314,14.86,2.46,30,45,0,0
325275,136130866,3,5297,5100,14.86,2.43,30,45,0,0
325681,136233722,3,5110,5357,14.87,2.92,29,45,0,0
326132,136345660,3,5357,5357,14.87,2.62,30,45,0,0
326537,136446578,3,5358,5428,14.92,2.83,30,45,0,0
327025,136561286,3,5425,5400,14.92,2.37,29,45,0,0
327914,136784138,3,5410,5557,14.85,2.96,30,46,0,0
328761,136987267,3,5556,5500,14.86,2.89,30,46,0,0
329246,137107276,3,5510,5614,14.86,2.75,29,46,0,0
329646,137208069,3,5605,5442,14.9,2.8,29,46,0,0
330507,137424351,3,5434,5114,14.92,1.6,30,46,0,0
330957,137534279,3,5104,4985,14.86,2.05,29,46,0,0
331405,137647693,3,4977,4871,14.86,1.97,29,46,0,0
332294,137867281,3,4872,4914,14.59,2.94,30,46,0,0
332740,137978010,3,4934,5114,14.82,3.23,30,47,0,0
333184,138090324,3,5110,5085,14.88,3.16,30,47,0,0
333590,138187617,3,5087,5242,14.76,3.27,30,47,0,0
334031,138300603,3,5242,5257,14.55,3.25,29,47,0,0
334483,138411508,3,5289,5500,14.76,3.22,30,47,0,0
334929,138516637,3,5500,5528,14.79,3.06,30,47,0,0
335366,138620715,3,5522,5442,14.88,2.82,30,47,0,0
335820,138731425,3,5437,5371,14.87,2.71,29,47,0,0
336262,138840585,3,5374,5442,14.89,2.7,29,47,0,0
336712,138957411,3,5431,5314,14.89,2.36,29,47,0,0
337130,139062606,3,5311,5285,14.91,2.73,29,47,0,0
337575,139168541,3,5284,5271,14.86,2.39,30,47,0,0
338020,139286596,3,5279,5357,14.96,2.66,29,48,0,0
338428,139385409,3,5355,5271,14.9,2.25,29,48,0,0
338876,139498568,3,5251,5085,14.86,2.32,30,48,0,0
339328,139613121,3,5085,5085,14.88,2.49,29,48,0,0
339770,139717351,3,5096,5200,14.88,2.56,30,48,0,0
340168,139817936,3,5206,5385,14.86,2.72,30,48,0,0
340662,139934352,3,5375,5285,14.89,2.37,30,48,0,0
341098,140040088,3,5283,5257,14.85,2.61,30,48,0,0
341552,140153056,3,5274,5457,14.84,2.79,30,48,0,0
341995,140262911,3,5451,5400,14.9,2.59,30,48,0,0
342435,140361843,3,5394,5285,14.91,2.37,30,48,0,0
342846,140466099,3,5285,5342,14.89,2.31,29,48,0,0
343338,140586288,3,5334,5257,14.89,2.38,30,48,0,0
343785,140700091,3,5246,5171,14.94,2.29,30,49,0,0
344630,140907852,3,5173,5285,14.81,2.57,29,49,0,0
345118,141027378,3,5295,5414,14.86,2.69,29,49,0,0
345522,141126020,3,5415,5471,14.87,2.7,30,49,0,0
346001,141239431,3,5468,5428,14.89,2.45,29,49,0,0
346457,141354259,3,5424,5385,14.82,2.75,30,49,0,0
346864,141460390,3,5375,5242,14.9,2.49,29,49,0,0
347318,141570081,3,5250,5385,14.89,2.91,29,49,0,0
347761,141681100,3,5385,5385,14.88,2.55,29,49,0,0
348167,141786278,3,5385,5385,14.95,2.57,30,49,0,0
348616,141894946,3,5384,5342,14.94,2.44,30,49,0,0
349103,142017301,3,5304,4900,14.95,1.65,30,49,0,0
349507,142115020,3,4899,4857,14.91,2.11,30,50,0,0
350399,142336601,3,4866,5114,14.71,2.66,30,50,0,0
350850,142451400,3,5118,5171,14.59,3.36,30,50,0,0
351299,142554565,3,5197,5571,14.78,3.18,30,50,0,0
351746,142666643,3,5576,5628,14.85,2.76,30,50,0,0
352148,142767725,3,5626,5585,14.91,2.98,30,50,0,0
352598,142880162,3,5583,5557,14.86,2.72,29,50,0,0
353453,143096900,3,5552,5414,14.86,2.76,30,50,0,0
353896,143207859,3,5417,5485,14.88,2.79,30,50,0,0
354341,143314607,3,5488,5528,14.89,2.65,30,50,0,0
354782,143423232,3,5527,5514,14.91,2.86,30,51,0,0
355189,143528894,3,5520,5600,14.84,2.84,30,51,0,0
355600,143634647,3,5599,5571,14.84,2.91,29,51,0,0
356091,143752024,3,5572,5600,14.86,2.91,30,51,0,0
356498,143856253,3,5598,5585,14.82,2.9,30,51,0,0
356942,143963039,3,5584,5557,14.88,2.82,30,51,0,0
357380,144067599,3,5554,5457,14.88,2.4,29,51,0,0
358271,144287724,3,5457,5457,14.78,3.04,30,51,0,0
358720,144398361,3,5466,5571,14.88,2.85,30,51,0,0
359121,144498575,3,5567,5428,14.88,2.61,30,51,0,0
359568,144611943,3,5422,5328,14.88,2.6,30,51,0,0
360016,144722319,3,5318,5200,14.68,2.91,30,52,0,0
360465,144831131,3,5192,5114,14.78,2.78,30,52,0,0
360868,144929329,3,5119,5457,14.89,3.04,30,52,0,0
361347,145042427,3,5444,5171,14.67,2.84,30,52,0,0
361797,145153803,3,5181,5285,14.77,3.52,29,52,0,0
362241,145263557,3,5289,5400,14.97,3.26,30,52,0,0
363095,145472910,3,5398,5285,14.88,2.89,29,52,0,0
363584,145594894,3,5287,5314,14.82,3.44,30,52,0,0
364025,145697072,3,5327,5457,14.73,3.63,30,52,0,0
364473,145810441,3,5450,5385,14.9,2.77,30,52,0,0
364879,145908955,3,5386,5414,14.87,3.07,30,53,0,0
365321,146017313,3,5423,5600,14.41,4.13,30,53,0,0
365772,146129319,3,5605,5671,14.73,3.46,30,53,0,0
366215,146239843,3,5680,5771,14.81,3.07,30,53,0,0
366661,146343400,3,5761,5628,14.91,2.99,30,53,0,0
367058,146443528,3,5630,5757,14.76,2.88,30,53,0,0
367506,146551086,3,5744,5428,14.7,2.88,30,53,0,0
367951,146663090,3,5458,5900,14.83,3.62,30,53,0,0
368441,146779348,3,5888,5771,14.81,2.82,30,53,0,0
368843,146880656,3,5774,5842,14.76,3.21,30,53,0,0
369292,146993964,3,5841,5785,14.8,3.18,30,54,0,0
369737,147101222,3,5782,5757,14.88,2.88,30,54,0,0
370180,147210716,3,5741,5542,14.88,2.93,30,54,0,0
370629,147324018,3,5562,5700,14.88,2.84,30,54,0,0
371031,147423141,3,5694,5342,14.98,2.2,30,54,0,0
371478,147528618,3,5342,5342,14.94,2.51,30,54,0,0
372416,147760629,3,5331,5128,14.69,2.85,30,54,0,0
372816,147861885,3,5127,5114,14.91,3.17,30,54,0,0
373266,147967375,3,5126,5428,14.94,2.66,30,54,0,0
373751,148084569,3,5415,5242,15.08,2.08,30,54,0,0
374198,148199597,3,5227,5100,14.92,2.38,30,54,0,0
375049,148408832,3,5101,5300,14.86,3.18,30,55,0,0
375497,148521142,3,5331,5571,14.82,2.69,30,55,0,0
375942,148631813,3,5586,5714,14.75,3.83,30,55,0,0
376394,148738795,3,5735,6028,14.8,3.92,30,55,0,0
376798,148844548,3,6012,5671,14.98,2.33,30,55,0,0
377250,148954536,3,5652,5400,14.88,2.51,30,55,0,0
377653,149057631,3,5390,5157,14.91,2.04,30,55,0,0
378101,149167068,3,5155,5128,14.83,2.2,30,55,0,0
378549,149279438,3,5102,4771,14.86,1.64,30,55,0,0
378996,149387934,3,4765,4685,14.92,2.15,30,55,0,0
379406,149497649,3,4701,4857,14.66,2.69,30,55,0,0
379807,149598352,3,4859,5057,14.62,3.18,30,56,0,0
380294,149713383,3,5055,5042,14.86,3.11,30,56,0,0
380742,149824117,3,5063,5285,14.63,3.35,30,56,0,0
381191,149931597,3,5285,5300,14.75,2.72,30,56,0,0
382052,150144614,3,5305,5471,14.79,2.77,30,56,0,0
382452,150248355,3,5470,5414,14.82,2.65,30,56,0,0
382904,150358627,3,5415,5514,14.86,3.08,30,56,0,0
383386,150476313,3,5516,5542,14.82,2.75,30,56,0,0
383793,150578433,3,5545,5600,14.75,3.27,30,56,0,0
384196,150680815,3,5609,5814,14.8,3.24,30,56,0,0
385124,150902096,3,5813,5785,14.74,3.42,30,57,0,0
385524,151003436,3,5785,5785,14.85,3.1,30,57,0,0
385972,151113921,3,5763,5342,14.85,2.24,30,57,0,0
386417,151225617,3,5348,5414,14.73,2.89,30,57,0,0
386869,151335678,3,5424,5528,14.74,3.09,30,57,0,0
387271,151438828,3,5529,5571,14.8,3.2,30,57,0,0
387760,151556069,3,5575,5628,14.8,2.88,30,57,0,0
388198,151657636,3,5623,5542,14.85,2.55,30,57,0,0
388651,151768525,3,5533,5442,14.85,2.43,30,57,0,0
389052,151869091,3,5432,5314,14.82,2.71,30,57,0,0
389504,151979790,3,5315,5428,14.78,2.64,30,58,0,0
390420,152198531,3,5418,5185,14.89,2.41,30,58,0,0
390834,152300956,3,5185,5214,14.95,2.23,30,58,0,0
391278,152411019,3,5213,5185,14.67,2.92,30,58,0,0
391728,152519426,3,5183,5171,14.82,2.71,30,58,0,0
392132,152622315,3,5179,5371,14.85,3.29,30,58,0,0
392581,152730662,3,5372,5414,14.86,3.55,30,58,0,0
393434,152943508,3,5413,5357,14.46,3.5,30,58,0,0
393916,153059327,3,5366,5500,14.82,2.87,30,58,0,0
394361,153164930,3,5491,5300,14.88,2.52,30,58,0,0
394847,153283649,3,5311,5500,14.8,3.31,30,59,0,0
395296,153396634,3,5510,5600,14.82,3.19,30,59,0,0
395698,153499424,3,5597,5457,14.86,2.5,30,59,0,0
396591,153718417,3,5452,5314,14.86,2.35,30,59,0,0
397032,153826413,3,5308,5185,14.8,2.55,30,59,0,0
397480,153934820,3,5187,5228,14.68,2.82,30,59,0,0
397887,154040591,3,5225,5057,14.91,2.22,30,59,0,0
398367,154149909,3,5059,5171,14.91,2.41,30,59,0,0
398861,154270142,3,5168,5128,14.63,2.91,30,59,0,0
399309,154378368,3,5147,5328,14.7,3.22,30,59,0,0
399714,154483086,3,5324,5085,14.5,3.84,30,59,0,0
400161,154595403,3,5122,5514,14.73,3.84,30,60,0,0
400570,154696402,3,5523,5714,14.42,3.87,30,60,0,0
401016,154807403,3,5717,5757,14.79,3.49,30,60,0,0
401463,154916692,3,5773,5957,14.8,3.49,30,60,0,0
401903,155023602,3,5938,5685,14.86,3.11,30,60,0,0
402351,155133086,3,5689,5728,14.82,3.29,30,60,0,0
402745,155239292,3,5714,5528,14.91,2.62,30,60,0,0
403194,155348374,3,5522,5400,14.88,2.29,30,60,0,0
403636,155459278,3,5398,5371,14.88,2.54,30,60,0,0
404130,155576948,3,5369,5357,14.82,2.56,30,60,0,0
404532,155677350,3,5353,5271,14.88,2.56,30,60,0,0
405025,155801401,3,5302,5642,14.83,3.35,30,61,0,0
405426,155897797,3,5648,5728,14.82,2.97,30,61,0,0
405870,156009325,3,5715,5600,14.86,3.17,30,61,0,0
406273,156107357,3,5600,5628,14.73,3.41,30,61,0,0
406720,156219276,3,5633,5957,14.79,3.68,30,61,0,0
407167,156326393,3,5955,5857,14.85,3.1,30,61,0,0
407611,156438433,3,5861,5914,14.79,3.37,30,61,0,0
408502,156657503,3,5912,5871,14.69,3.48,30,61,0,0
408954,156766926,3,5870,5857,14.76,3.7,30,61,0,0
409398,156877282,3,5856,5842,14.8,3.53,30,62,0,0
409848,156986905,3,5854,5971,14.75,3.48,30,62,0,0
410245,157085393,3,5971,5971,14.83,3.64,30,62,0,0
410734,157206317,3,5967,5928,14.91,3.3,30,62,0,0
411181,157312890,3,5914,5728,14.91,2.85,30,62,0,0
411584,157420099,3,5740,5871,14.85,2.87,30,62,0,0
412032,157533640,3,5845,5571,14.91,3.08,30,62,0,0
412892,157750388,3,5566,5500,14.84,2.86,30,62,0,0
413301,157854944,3,5505,5571,14.79,2.84,30,62,0,0
413790,157971934,3,5579,5714,14.77,3.01,30,63,0,0
414188,158073869,3,5708,5657,14.8,3.54,30,63,0,0
414645,158187628,3,5710,6000,14.81,3.71,30,63,0,0
415048,158290197,3,6001,6014,14.82,3.6,30,63,0,0
415495,158400862,3,6002,5871,14.82,3.22,30,63,0,0
415942,158508140,3,5860,5714,14.74,3.33,30,63,0,0
416382,158618923,3,5732,5914,14.7,3.68,30,63,0,0
416836,158728370,3,5902,5800,14.72,3.41,30,63,0,0
417272,158832051,3,5802,5857,14.81,3.28,30,63,0,0
417727,158941285,3,5849,5771,14.8,3.06,30,63,0,0
418168,159049604,3,5771,5785,14.7,3.4,30,64,0,0
418613,159160562,3,5785,5785,14.79,3.34,30,64,0,0
419501,159376934,3,5774,5542,14.72,2.98,30,64,0,0
419947,159487085,3,5547,5657,14.76,3.17,30,64,0,0
420391,159602056,3,5655,5614,14.76,3.77,30,64,0,0
420846,159711918,3,5620,5714,14.8,2.9,30,64,0,0
421731,159924362,3,5709,5357,14.9,2.47,30,64,0,0
422178,160038405,3,5349,5200,14.82,2.65,30,64,0,0
422628,160149878,3,5210,5428,14.83,3.06,30,64,0,0
423034,160252123,3,5429,5528,14.75,2.68,30,65,0,0
423483,160360363,3,5524,5371,14.9,2.42,30,65,0,0
423927,160470562,3,5363,5171,14.84,2.46,30,65,0,0
424372,160577362,3,5177,5400,14.89,2.79,30,65,0,0
424826,160692889,3,5407,5500,14.82,2.9,30,65,0,0
425275,160808399,3,5492,5442,14.85,2.89,30,65,0,0
425681,160906716,3,5440,5414,14.87,2.46,30,65,0,0
426126,161017653,3,5412,5400,14.88,2.64,30,65,0,0
426573,161124916,3,5401,5414,14.84,2.68,30,65,0,0
427012,161230434,3,5417,5500,14.78,2.82,30,65,0,0
427462,161340540,3,5498,5457,14.86,2.61,30,65,0,0
427906,161453420,3,5448,5328,14.83,2.65,30,65,0,0
428351,161558534,3,5327,5314,14.77,2.47,30,66,0,0
428799,161669634,3,5315,5328,14.8,2.87,30,66,0,0
429258,161780661,3,5344,5500,14.87,2.83,30,66,0,0
429661,161885591,3,5497,5471,14.82,2.59,30,66,0,0
430107,161995817,3,5454,5314,14.88,2.61,30,66,0,0
430554,162103351,3,5318,5371,14.83,2.43,30,66,0,0
430998,162213905,3,5366,5314,14.92,2.55,30,66,0,0
431443,162321946,3,5321,5400,14.85,2.96,30,66,0,0
431846,162423813,3,5401,5428,14.92,2.69,30,66,0,0
432296,162532702,3,5428,5457,14.8,2.81,30,66,0,0
432775,162646876,3,5455,5442,14.79,2.72,30,66,0,0
433230,162757925,3,5447,5500,14.86,2.58,30,66,0,0
433631,162858415,3,5497,5357,14.82,2.73,30,66,0,0
434526,163080597,3,5359,5414,14.81,2.6,30,67,0,0
434978,163196841,3,5401,5314,14.85,2.28,30,67,0,0
435378,163292090,3,5293,5028,14.89,1.68,30,67,0,0
435782,163395652,3,5027,5000,14.83,2.27,30,67,0,0
436265,163506639,3,5000,5000,14.85,2.72,30,67,0,0
436709,163619506,3,4997,4957,14.76,2.61,30,67,0,0
437160,163728414,3,4959,5114,14.68,3.46,30,67,0,0
437607,163843551,3,5138,5457,14.76,3.23,30,67,0,0
438052,163949013,3,5465,5657,14.72,3.66,30,67,0,0
438501,164061844,3,5660,5742,14.91,3.15,30,67,0,0
438986,164174681,3,5722,5542,14.79,2.55,30,67,0,0
439389,164275350,3,5544,5600,14.76,3.18,30,68,0,0
439834,164380118,3,5610,5871,14.8,3.7,30,68,0,0
440284,164497516,3,5871,5871,14.78,3.48,30,68,0,0
440689,164603630,3,5878,5942,14.86,3.17,30,68,0,0
441137,164710077,3,5923,5657,14.82,2.81,30,68,0,0
441546,164814362,3,5660,5814,14.84,3.59,30,68,0,0
442035,164929941,3,5804,5671,14.85,2.76,30,68,0,0
442441,165039033,3,5671,5671,14.86,2.76,30,68,0,0
442928,165149586,3,5675,5728,14.86,3.09,30,68,0,0
443337,165261027,3,5714,5600,14.93,2.9,30,68,0,0
443790,165365593,3,5600,5600,14.94,2.53,30,69,0,0
444227,165478601,3,5595,5542,14.93,2.76,30,69,0,0
444674,165588626,3,5542,5542,14.84,3.03,30,69,0,0
445125,165702815,3,5549,5628,14.84,3.12,30,69,0,0
445575,165817605,3,5620,5571,14.89,2.68,30,69,0,0
445982,165921870,3,5585,5785,14.73,3.57,30,69,0,0
446379,166018954,3,5783,5728,14.85,2.99,30,69,0,0
446875,166142022,3,5722,5685,14.82,3.13,30,69,0,0
447279,166241557,3,5686,5700,14.85,2.91,30,69,0,0
447729,166351904,3,5690,5600,14.89,2.72,30,69,0,0
448173,166461809,3,5600,5600,14.83,2.74,30,69,0,0
448618,166567704,3,5598,5585,14.83,2.77,30,69,0,0
449103,166683819,3,5585,5585,14.79,3.04,30,70,0,0
449549,166789625,3,5582,5528,14.89,2.69,30,70,0,0
449961,166894116,3,5522,5457,14.82,2.96,30,70,0,0
450451,167012239,3,5446,5342,14.76,2.92,30,70,0,0
450855,167110658,3,5350,5514,14.8,2.51,30,70,0,0
451746,167327819,3,5513,5371,14.9,2.43,30,70,0,0
452231,167447948,3,5363,5285,14.89,2.79,30,70,0,0
452637,167546868,3,5285,5285,14.8,2.29,30,70,0,0
453089,167661514,3,5278,5214,14.89,2.21,30,70,0,0
453536,167767943,3,5203,5071,14.73,2.07,30,70,0,0
453938,167870640,3,5068,4885,14.83,1.91,30,70,0,0
454387,167979289,3,4881,4685,14.77,2.44,30,70,0,0
454837,168091560,3,4687,4714,14.83,2.96,30,71,0,0
455285,168197283,3,4716,4757,14.75,1.95,30,71,0,0
455733,168312589,3,4735,4514,14.59,2.63,30,71,0,0
456139,168416615,3,4530,4857,14.63,3.46,30,71,0,0
456589,168526641,3,4858,4885,14.7,2.15,30,71,0,0
456995,168629132,3,4888,5028,14.77,2.24,30,71,0,0
457446,168738879,3,5025,4871,14.7,2.01,30,71,0,0
457892,168851042,3,4886,5071,14.61,2.62,30,71,0,0
458340,168960362,3,5076,5142,14.69,2.44,30,71,0,0
458784,169070103,3,5154,5442,14.8,2.9,30,71,0,0
459235,169179275,3,5437,5342,14.82,2.4,30,71,0,0
460609,169512336,3,5339,5171,14.89,2.32,30,72,0,0
461025,169623063,3,5160,5057,14.9,1.94,30,72,0,0
461433,169724593,3,5057,5114,14.86,2.05,30,72,0,0
461911,169838292,3,5110,5071,14.86,2.04,30,72,0,0
462318,169937379,3,5077,5214,14.89,2.46,30,72,0,0
462804,170057255,3,5216,5242,14.85,2.36,30,72,0,0
463651,170266183,3,5242,5257,14.83,2.09,30,72,0,0
464144,170385875,3,5250,5185,14.85,2.36,30,72,0,0
464589,170493849,3,5182,5142,14.91,2.14,30,72,0,0
465036,170602954,3,5148,5228,14.86,2.63,30,72,0,0
465481,170711805,3,5228,5228,14.88,2.57,30,72,0,0
465922,170820616,3,5222,5142,14.86,2.16,30,72,0,0
466375,170931547,3,5144,5171,14.8,2.41,30,72,0,0
466819,171040525,3,5175,5228,14.81,2.5,30,72,0,0
467228,171142629,3,5227,5171,14.8,2.23,30,73,0,0
467713,171264942,3,5192,5342,14.77,2.71,30,73,0,0
468157,171374112,3,5371,5571,14.75,3,30,73,0,0
468596,171475183,3,5561,5428,14.82,2.77,30,73,0,0
470377,171913890,3,5425,5328,14.8,2.42,30,73,0,0
470782,172010842,3,5325,5228,14.81,2.42,30,73,0,0
471273,172134335,3,5236,5300,14.79,2.49,30,73,0,0
471678,172240820,3,5290,5228,14.89,2.35,30,73,0,0
472082,172338953,3,5231,5300,14.89,2.14,30,73,0,0
472526,172446877,3,5294,5014,14.89,2.11,30,73,0,0
473458,172671588,3,5012,4971,14.86,2.01,30,74,0,0
473908,172779619,3,4980,5085,14.76,2.44,30,74,0,0
474350,172891543,3,5089,5142,14.77,2.04,30,74,0,0
474758,172994616,3,5142,5200,14.81,2.56,30,74,0,0
475203,173101437,3,5197,5100,14.81,2.08,30,74,0,0
475648,173214098,3,5100,5157,14.82,2.28,30,74,0,0
476092,173321289,3,5156,5142,14.77,2.49,30,74,0,0
476495,173424122,3,5143,5200,14.82,2.38,30,74,0,0
476943,173532417,3,5203,5342,14.81,2.57,30,74,0,0
477351,173636598,3,5340,5242,14.79,2.77,30,74,0,0
477844,173753960,3,5250,5371,14.84,2.51,30,74,0,0
478286,173863858,3,5368,5342,14.83,2.59,30,74,0,0
478731,173971078,3,5343,5371,14.79,2.86,30,75,0,0
479140,174077038,3,5373,5428,14.83,2.89,30,75,0,0
479593,174186381,3,5426,5400,14.82,3.11,30,75,0,0
480040,174301394,3,5417,5600,14.88,3.18,30,75,0,0
480473,174405720,3,5600,5628,14.87,2.89,30,75,0,0
480964,174526363,3,5640,5771,14.79,3.56,30,75,0,0
481364,174624325,3,5771,5785,14.79,3.16,30,75,0,0
481819,174735863,3,5782,5728,14.81,2.99,30,75,0,0
482708,174951354,3,5725,5428,14.86,2.51,30,75,0,0
483197,175071582,3,5426,5414,14.83,2.63,30,75,0,0
483644,175177264,3,5414,5414,14.77,2.75,30,76,0,0
484090,175288411,3,5416,5442,14.83,2.6,30,76,0,0
484567,175398989,3,5431,5314,14.85,2.21,30,76,0,0
484976,175502334,3,5306,5171,14.85,2.6,30,76,0,0
485428,175617301,3,5164,5071,14.85,2.32,30,76,0,0
485878,175726642,3,5073,5242,14.85,2.44,30,76,0,0
486323,175836748,3,5248,5328,14.88,2.61,30,76,0,0
486777,175948520,3,5322,5257,14.85,2.47,30,76,0,0
487219,176059013,3,5258,5285,14.85,2.56,30,76,0,0
487668,176168231,3,5286,5314,14.83,2.68,30,76,0,0
488111,176277875,3,5314,5314,14.83,2.78,30,76,0,0
488520,176380800,3,5321,5414,14.91,2.67,30,76,0,0
488962,176490328,3,5407,5342,14.85,2.44,30,76,0,0
489365,176587658,3,5341,5328,14.8,2.75,30,77,0,0
489854,176707091,3,5335,5442,14.89,2.97,30,77,0,0
490298,176817665,3,5439,5400,14.83,2.61,30,77,0,0
490749,176925848,3,5400,5400,14.86,2.24,30,77,0,0
491194,177034993,3,5383,5214,14.78,2.73,30,77,0,0
491644,177144556,3,5231,5414,14.86,2.57,30,77,0,0
492496,177357817,3,5409,5285,14.82,2.57,30,77,0,0
492937,177468681,3,5284,5228,14.84,2.28,30,77,0,0
493389,177576090,3,5222,5085,14.79,2.2,30,77,0,0
493868,177689058,3,5078,5014,14.83,2.12,30,77,0,0
494313,177799362,3,5023,5157,14.81,2.23,30,77,0,0
494720,177899397,3,5146,4928,14.83,1.89,30,77,0,0
495167,178010613,3,4927,4914,14.83,2.1,30,77,0,0
495623,178124613,3,4914,4928,14.88,1.86,30,78,0,0
496028,178228051,3,4925,4885,14.82,1.88,30,78,0,0
496479,178340054,3,4880,4828,14.88,1.99,30,78,0,0
496926,178451912,3,4835,4914,14.91,2.29,30,78,0,0
497374,178565796,3,4909,4871,14.83,2.02,30,78,0,0
497817,178669320,3,4876,4957,14.72,2.38,30,78,0,0
498266,178786544,3,4957,4957,14.78,1.87,30,78,0,0
498677,178889107,3,4946,4857,14.89,1.76,30,78,0,0
499122,178997336,3,4860,5014,14.86,2.32,30,78,0,0
500014,179220473,3,5013,5000,14.72,2.42,30,78,0,0
500462,179329020,3,5011,5157,14.74,2.68,30,78,0,0
500865,179432638,3,5157,5157,14.86,2.4,30,78,0,0
501720,179647842,3,5154,5028,14.85,2.03,30,78,0,0
502213,179766258,3,5026,5014,14.85,2.17,30,79,0,0
502655,179873076,3,5011,4985,14.81,2.13,30,79,0,0
503063,179975587,3,4986,5114,14.88,2.14,30,79,0,0
503513,180090838,3,5105,5028,14.85,2.09,30,79,0,0
504806,180409562,3,5027,4971,14.85,2.05,30,79,0,0
505251,180516704,3,4972,5142,14.85,2.26,30,79,0,0
505737,180639211,3,5133,5042,14.88,2.02,30,79,0,0
506185,180746864,3,5052,5200,14.85,2.23,30,79,0,0
506588,180849269,3,5196,5000,14.91,2.22,30,79,0,0
507117,180971524,3,5020,5242,14.84,2.65,30,79,0,0
507523,181074588,3,5238,5157,14.83,2.2,30,79,0,0
508008,181189632,3,5169,5314,14.86,2.39,30,79,0,0
508415,181287280,3,5311,5271,14.85,2.42,30,79,0,0
508869,181400711,3,5266,5200,14.89,2.55,30,80,0,0
509311,181506165,3,5199,5185,14.83,2.38,30,80,0,0
509718,181611874,3,5189,5285,14.86,2.35,30,80,0,0
510163,181718894,3,5277,5128,14.85,2.21,30,80,0,0
510608,181829299,3,5131,5200,14.83,2.38,30,80,0,0
511018,181931383,3,5200,5242,14.76,2.03,30,80,0,0
511505,182048890,3,5235,5171,14.89,2.25,30,80,0,0
511950,182156051,3,5147,4842,14.95,1.7,30,80,0,0
512352,182257815,3,4846,4942,14.94,1.97,30,80,0,0
512802,182364928,3,4934,4785,14.91,1.83,30,80,0,0
513249,182478256,3,4780,4742,14.88,1.77,30,80,0,0
513659,182584110,3,4726,4600,14.95,1.47,30,80,0,0
514104,182689660,3,4587,4457,15.07,1.38,30,80,0,0
514551,182799812,3,4429,4185,15.1,1.07,30,80,0,0
514995,182906898,3,4165,3714,15.21,0.89,30,80,0,0
515445,183020886,3,3639,2657,15.31,0.17,30,80,0,0
516333,183238401,3,2644,2142,15.27,0.31,30,80,0,0
516784,183349244,3,2141,2128,15.26,0.23,30,80,0,0
517192,183453198,3,2129,2157,15.27,0.3,30,80,0,0
517645,183562600,3,2155,2128,15.28,0.24,30,80,0,0
518092,183674229,3,2131,2171,15.28,0.26,30,80,0,0
518535,183779816,3,2168,2114,15.3,0.2,30,80,0,0
518983,183892374,3,2111,2085,15.28,0.25,30,80,0,0
519425,183999966,3,2088,2128,15.31,0.27,30,80,0,0
519874,184108548,3,2126,2100,15.28,0.31,30,80,0,0
520322,184217435,3,2097,2057,15.29,0.21,30,80,0,0
520769,184322944,3,2070,2285,15.29,0.39,30,80,0,0
521219,184434908,3,2294,2400,15.29,0.36,30,80,0,0
521666,184538814,3,2403,2457,15.28,0.42,29,80,0,0
522110,184648313,3,2461,2528,15.32,0.36,30,80,0,0
522562,184756641,3,2495,1985,15.38,0.03,30,81,0,0
523010,184866933,3,1960,1557,15.36,0,29,81,0,0
523456,184971349,3,1538,1300,15.36,0.05,29,81,0,0
523901,185079259,3,1297,1257,15.35,0.09,29,81,0,0
524350,185194166,3,1257,1257,15.36,0.09,29,81,0,0
524791,185300183,3,1257,1257,15.36,0.09999999,29,81,0,0
525236,185403628,3,1257,1257,15.36,0.09999999,29,81,0,0
525729,185521317,3,1257,1257,15.36,0.09999999,29,81,0,0
526134,185624909,3,1257,1257,15.36,0.09999999,29,81,0,0
526578,185729523,3,1257,1257,15.37,0.09,29,81,0,0
527027,185840386,3,1256,1242,15.37,0.09999999,29,81,0,0
527466,185940355,3,1242,1257,15.37,0.09,29,81,0,0
528405,186165325,3,1257,1257,15.38,0.09,29,81,0,0
528848,186272601,3,1257,1257,15.38,0.09,29,81,0,0
529330,186386525,3,1257,1257,15.38,0.09,29,81,0,0
529737,186485808,3,1257,1257,15.38,0.09999999,29,81,0,0
530185,186594637,3,1257,1257,15.38,0.09999999,29,81,0,0
530633,186704315,3,1257,1257,15.38,0.09999999,29,81,0,0
531078,186813138,3,1257,1257,15.39,0.09999999,29,81,0,0
531526,186921096,3,1257,1257,15.39,0.09999999,29,81,0,0
531935,187022396,3,1257,1257,15.39,0.09999999,29,81,0,0
532427,187139101,3,1257,1257,15.39,0.09999999,29,81,0,0
532871,187247338,3,1257,1257,15.39,0.09999999,29,81,0,0
533327,187356935,3,1257,1257,15.39,0.09999999,29,81,0,0
533771,187466294,3,1257,1257,15.39,0.09999999,29,81,0,0
534182,187565372,3,1257,1257,15.39,0.09999999,29,81,0,0
534666,187676871,3,1257,1257,15.4,0.09999999,29,81,0,0
535118,187785958,3,1257,1257,15.39,0.09999999,29,81,0,0
535556,187892096,3,1257,1257,15.41,0.09999999,29,81,0,0
536488,188109561,3,1257,1257,15.41,0.09999999,29,81,0,0
536893,188211862,3,1257,1257,15.4,0.09999999,29,81,0,0
537337,188316335,3,1257,1257,15.4,0.09,29,81,0,0
537788,188428075,3,1257,1257,15.41,0.09,29,81,0,0
538242,188537053,3,1257,1257,15.41,0.09999999,29,81,0,0
538690,188646356,3,1257,1257,15.41,0.09,29,81,0,0
539140,188754154,3,1257,1257,15.41,0.09999999,29,81,0,0
539542,188853849,3,1257,1257,15.41,0.09999999,29,81,0,0
540029,188966623,3,1257,1257,15.41,0.09999999,29,81,0,0
540475,189073637,3,1257,1257,15.41,0.09,29,81,0,0
540919,189183027,3,1257,1257,15.41,0.09,29,81,0,0
541369,189290660,3,1257,1257,15.41,0.09999999,29,81,0,0
541842,189404268,3,1257,1257,15.42,0.09999999,29,81,0,0
542296,189509123,3,1257,1257,15.42,0.09999999,29,81,0,0
542699,189613934,3,1257,1257,15.42,0.09999999,29,81,0,0
543153,189722613,3,1257,1257,15.42,0.09,29,81,0,0
543557,189824747,3,1257,1257,15.42,0.09999999,29,81,0,0
544051,189942909,3,1257,1257,15.42,0.09999999,29,81,0,0
544946,190160906,3,1257,1257,15.42,0.09,29,81,0,0
546327,190492558,3,1257,1257,15.43,0.09999999,29,81,0,0
546775,190598895,3,1257,1257,15.42,0.09999999,29,81,0,0
547181,190703097,3,1257,1257,15.43,0.09,29,81,0,0
547628,190812067,3,1257,1257,15.42,0.09999999,29,81,0,0
548076,190919582,3,1257,1257,15.42,0.09999999,29,81,0,0
548561,191030413,3,1257,1257,15.44,0.09999999,29,81,0,0
548968,191129848,3,1257,1257,15.44,0.09999999,29,81,0,0
549414,191240748,3,1257,1257,15.44,0.09999999,29,81,0,0
549909,191359543,3,1257,1257,15.44,0.09999999,29,81,0,0
550355,191465536,3,1257,1257,15.43,0.09999999,29,81,0,0
550804,191572368,3,1257,1257,15.44,0.09999999,29,81,0,0
551250,191681871,3,1257,1257,15.44,0.09999999,29,81,0,0
551704,191795316,3,1257,1257,15.44,0.09999999,29,81,0,0
552105,191888926,3,1257,1257,15.43,0.09999999,29,81,0,0
552595,192006592,3,1257,1257,15.44,0.09999999,29,81,0,0
552998,192102621,3,1257,1257,15.44,0.09999999,29,81,0,0
553474,192212366,3,1257,1257,15.44,0.09999999,29,81,0,0
553919,192316867,3,1257,1257,15.44,0.09,29,81,0,0
554366,192428021,3,1257,1257,15.45,0.09999999,29,81,0,0
555261,192643431,3,1257,1257,15.45,0.09999999,29,81,0,0
555713,192754968,3,1257,1257,15.44,0.09999999,29,81,0,0
556121,192857649,3,1257,1257,15.44,0.09999999,29,81,0,0
556616,192981358,3,1257,1257,15.44,0.09,29,81,0,0
557019,193073525,3,1257,1257,15.44,0.09,29,81,0,0
558390,193404561,3,1257,1257,15.45,0.09,29,81,0,0
558840,193515509,3,1257,1257,15.45,0.09,29,81,0,0
559279,193618114,3,1257,1257,15.45,0.09,29,81,0,0
559733,193730912,3,1257,1257,15.45,0.09,29,81,0,0
560135,193827623,3,1257,1257,15.45,0.09,29,81,0,0
560628,193940850,3,1257,1271,15.45,0.09,29,81,0,0
561073,194049276,3,1271,1271,15.46,0.09,29,81,0,0
561518,194153082,3,1271,1271,15.45,0.09,29,81,0,0
562000,194269073,3,1271,1271,15.45,0.09,29,81,0,0
562891,194481723,3,1270,1257,15.45,0.09,29,81,0,0
563338,194592664,3,1257,1257,15.45,0.09,29,81,0,0
563793,194702374,3,1257,1271,15.46,0.09,29,81,0,0
564232,194809521,3,1232,400,15.47,0,29,81,0,0
564732,194923895,3,384,157,15.47,0.02,29,81,0,0
565188,195033367,3,145,0,15.48,0.02,29,81,0,0
565637,195138048,3,0,0,15.47,0.03,29,81,0,0
566087,195247621,3,0,0,15.47,0.03,29,81,0,0
566540,195353882,3,0,0,15.47,0.03,29,81,0,0
566995,195463748,3,0,0,15.48,0.03,29,81,0,0
567448,195570921,3,0,0,15.48,0.03,29,81,0,0
567897,195678091,3,0,0,15.48,0.03,29,81,0,0
568392,195796424,3,0,0,15.48,0.03,29,81,0,0
568844,195899306,3,0,0,15.48,0.03,29,81,0,0
569262,196002662,3,0,0,15.48,0.03,29,81,0,0
569714,196108820,3,0,0,15.48,0.03,29,81,0,0
570208,196228528,3,0,0,15.48,0.03,29,81,0,0
570659,196335395,3,0,0,15.48,0.03,29,81,0,0
571110,196441856,3,0,0,15.48,0.03,29,81,0,0
571605,196559187,3,0,0,15.48,0.03,29,81,0,0
572058,196670543,3,0,0,15.48,0.03,29,81,0,0
572964,196884804,3,0,0,15.49,0.03,29,81,0,0
573416,196994894,3,0,0,15.49,0.03,28,81,0,0
573870,197100821,3,0,0,15.48,0.03,29,81,0,0
574320,197207350,3,0,0,15.49,0.03,29,81,0,0
575259,197427437,3,0,0,15.49,0.03,28,81,0,0
575709,197531398,3,0,0,15.49,0.03,29,81,0,0
576158,197640294,3,0,0,15.49,0.03,29,81,0,0
576612,197748502,3,0,0,15.49,0.03,29,81,0,0
577108,197866857,3,0,0,15.49,0.03,28,81,0,0
577561,197971557,3,0,0,15.5,0.03,28,81,0,0
578013,198078910,3,0,0,15.5,0.03,28,81,0,0
578510,198197079,3,0,0,15.5,0.03,28,81,0,0
