LineNo,TimeUS,Instance,RPM,RawRPM,Volt,Curr,Temp,CTot,MotTemp,Err
1629,5.693e+07,5,0,0,16.05,0.03,23,0,0,0
2087,5.7046e+07,5,0,0,16.05,0.03,23,0,0,0
2504,5.7151e+07,5,0,0,16.05,0.03,23,0,0,0
2916,5.7255e+07,5,0,0,16.05,0.02,23,0,0,0
3374,5.7371e+07,5,0,0,16.05,0.02,23,0,0,0
3749,5.7467e+07,5,0,0,16.05,0.02,23,0,0,0
4208,5.7581e+07,5,0,0,16.05,0.02,23,0,0,0
4660,5.7693e+07,5,0,0,16.05,0.03,23,0,0,0
5032,5.7793e+07,5,0,0,16.05,0.03,23,0,0,0
5486,5.7908e+07,5,0,0,16.05,0.03,23,0,0,0
5932,5.8018e+07,5,0,0,16.05,0.03,23,0,0,0
6341,5.8121e+07,5,0,0,16.05,0.03,23,0,0,0
6759,5.8227e+07,5,0,0,16.05,0.03,23,0,0,0
7170,5.8332e+07,5,0,0,16.05,0.02,23,0,0,0
7617,5.8443e+07,5,0,0,16.05,0.02,23,0,0,0
8032,5.8548e+07,5,0,0,16.05,0.02,23,0,0,0
8486,5.8661e+07,5,0,0,16.05,0.02,23,0,0,0
8899,5.8767e+07,5,0,0,16.05,0.02,23,0,0,0
9315,5.8871e+07,5,0,0,16.05,0.02,23,0,0,0
9732,5.8976e+07,5,0,0,16.05,0.02,23,0,0,0
10191,5.9089e+07,5,0,0,16.04,0.02,23,0,0,0
10600,5.9196e+07,5,0,0,16.05,0.02,23,0,0,0
10931,5.9308e+07,5,0,0,16.05,0.02,23,0,0,0
11308,5.9405e+07,5,0,0,16.05,0.02,23,0,0,0
12171,5.9622e+07,5,0,0,16.05,0.02,23,0,0,0
12623,5.9737e+07,5,0,0,16.05,0.02,23,0,0,0
13032,5.9843e+07,5,0,0,16.05,0.02,23,0,0,0
13445,5.9948e+07,5,0,0,16.05,0.02,23,0,0,0
13866,6.0057e+07,5,0,0,16.05,0.02,23,0,0,0
14276,6.0159e+07,5,0,0,16.05,0.02,23,0,0,0
14688,6.0267e+07,5,0,0,16.05,0.02,23,0,0,0
15146,6.038e+07,5,0,0,16.05,0.03,23,0,0,0
15556,6.0484e+07,5,0,0,16.05,0.03,23,0,0,0
16009,6.0596e+07,5,0,0,16.05,0.03,23,0,0,0
16425,6.0701e+07,5,0,0,16.05,0.03,23,0,0,0
16835,6.0802e+07,5,0,0,16.05,0.03,23,0,0,0
17291,6.0917e+07,5,0,0,16.05,0.02,23,0,0,0
17708,6.1025e+07,5,0,0,16.05,0.02,23,0,0,0
18120,6.1129e+07,5,0,0,16.05,0.02,23,0,0,0
18531,6.1233e+07,5,0,0,16.05,0.02,23,0,0,0
18993,6.1348e+07,5,0,0,16.05,0.02,23,0,0,0
19404,6.1455e+07,5,0,0,16.05,0.03,23,0,0,0
19820,6.1558e+07,5,0,0,16.05,0.02,23,0,0,0
20266,6.1667e+07,5,0,0,16.05,0.03,23,0,0,0
20719,6.1779e+07,5,0,0,16.05,0.02,23,0,0,0
21095,6.1877e+07,5,0,0,16.05,0.02,23,0,0,0
21546,6.1993e+07,5,0,0,16.05,0.02,23,0,0,0
21961,6.2097e+07,5,0,0,16.05,0.02,23,0,0,0
22375,6.2206e+07,5,0,0,16.05,0.02,23,0,0,0
22828,6.2322e+07,5,0,0,16.05,0.02,23,0,0,0
23243,6.243e+07,5,0,0,16.05,0.02,23,0,0,0
23662,6.2535e+07,5,0,0,16.05,0.02,23,0,0,0
24109,6.2646e+07,5,0,0,16.05,0.02,23,0,0,0
24528,6.2752e+07,5,0,0,16.05,0.02,23,0,0,0
24936,6.2856e+07,5,0,0,16.05,0.03,23,0,0,0
25390,6.2969e+07,5,0,0,16.05,0.03,23,0,0,0
25774,6.3072e+07,5,0,0,16.05,0.03,23,0,0,0
26186,6.3174e+07,5,0,0,16.05,0.03,23,0,0,0
26636,6.3287e+07,5,0,0,16.05,0.03,23,0,0,0
27089,6.3401e+07,5,0,0,16.05,0.03,23,0,0,0
27506,6.3504e+07,5,0,0,16.05,0.03,23,0,0,0
27920,6.3612e+07,5,0,0,16.05,0.03,23,0,0,0
28338,6.3716e+07,5,0,0,16.05,0.03,23,0,0,0
28783,6.3832e+07,5,0,0,16.05,0.03,23,0,0,0
29197,6.3934e+07,5,0,0,16.05,0.03,23,0,0,0
29611,6.404e+07,5,0,0,16.05,0.03,23,0,0,0
30064,6.4154e+07,5,0,0,16.05,0.03,23,0,0,0
30441,6.4254e+07,5,0,0,16.05,0.03,23,0,0,0
30893,6.4366e+07,5,0,0,16.05,0.03,23,0,0,0
31309,6.4476e+07,5,0,0,16.05,0.03,23,0,0,0
32166,6.4687e+07,5,0,0,16.05,0.03,23,0,0,0
32592,6.4804e+07,5,0,0,16.05,0.03,23,0,0,0
33006,6.4905e+07,5,0,0,16.05,0.03,24,0,0,0
33451,6.5012e+07,5,0,0,16.05,0.03,24,0,0,0
33902,6.5125e+07,5,0,0,16.05,0.03,23,0,0,0
34278,6.5225e+07,5,0,0,16.05,0.03,24,0,0,0
34730,6.5338e+07,5,0,0,16.05,0.03,24,0,0,0
35146,6.5446e+07,5,0,0,16.05,0.03,23,0,0,0
35560,6.5549e+07,5,0,0,16.05,0.02,24,0,0,0
36016,6.5665e+07,5,0,0,16.05,0.02,24,0,0,0
36429,6.5768e+07,5,0,0,16.05,0.03,24,0,0,0
36849,6.5878e+07,5,0,0,16.05,0.03,24,0,0,0
37308,6.599e+07,5,0,0,16.04,0.03,24,0,0,0
37760,6.6098e+07,5,0,0,16.05,0.03,24,0,0,0
38171,6.6196e+07,5,0,0,16.05,0.03,23,0,0,0
38671,6.631e+07,5,0,0,16.05,0.03,24,0,0,0
39158,6.6418e+07,5,0,0,16.05,0.03,24,0,0,0
39614,6.6523e+07,5,0,0,16.05,0.03,24,0,0,0
40070,6.6631e+07,5,0,0,16.05,0.03,24,0,0,0
40567,6.6744e+07,5,0,0,16.04,0.03,24,0,0,0
41019,6.6852e+07,5,0,0,16.05,0.03,24,0,0,0
41474,6.6956e+07,5,0,0,16.04,0.03,24,0,0,0
41972,6.7072e+07,5,0,0,16.05,0.03,24,0,0,0
42382,6.7167e+07,5,0,0,16.05,0.03,24,0,0,0
43366,6.7395e+07,5,0,0,16.05,0.02,24,0,0,0
43820,6.7498e+07,5,0,0,16.05,0.03,24,0,0,0
44307,6.7606e+07,5,0,0,16.05,0.02,24,0,0,0
44761,6.7709e+07,5,0,0,16.05,0.02,24,0,0,0
45218,6.782e+07,5,0,0,16.05,0.02,24,0,0,0
45676,6.7924e+07,5,0,0,16.05,0.02,24,0,0,0
46132,6.8032e+07,5,3,314,16.04,0.04,24,0,0,0
46632,6.8144e+07,5,345,657,16.02,0.1,24,0,0,0
47052,6.8251e+07,5,670,1042,16.01,0.15,24,0,0,0
47505,6.8354e+07,5,1045,1214,16.03,0.11,24,0,0,0
48001,6.8467e+07,5,1216,1257,16.02,0.11,24,0,0,0
48498,6.858e+07,5,1259,1285,16.04,0.1,24,0,0,0
48946,6.8683e+07,5,1285,1285,16.03,0.1,24,0,0,0
49445,6.8796e+07,5,1285,1285,16.02,0.1,24,0,0,0
49895,6.8902e+07,5,1286,1300,16.03,0.1,24,0,0,0
50162,6.9004e+07,5,1299,1285,16.03,0.1,24,0,0,0
50620,6.9111e+07,5,1285,1285,16.03,0.1,24,0,0,0
51075,6.9219e+07,5,1285,1300,16.03,0.1,24,0,0,0
51569,6.9334e+07,5,1300,1300,16.03,0.1,24,0,0,0
52473,6.9543e+07,5,1300,1300,16.04,0.1,24,0,0,0
52927,6.965e+07,5,1299,1285,16.03,0.1,24,0,0,0
53421,6.9762e+07,5,1285,1285,16.04,0.1,24,0,0,0
54369,6.9979e+07,5,1285,1300,16.04,0.1,24,0,0,0
54822,7.0087e+07,5,1300,1300,16.04,0.1,24,0,0,0
55276,7.0195e+07,5,1300,1300,16.04,0.1,24,0,0,0
55728,7.0298e+07,5,1300,1300,16.02,0.1,24,0,0,0
56225,7.0411e+07,5,1300,1300,16.02,0.1,24,0,0,0
56681,7.0515e+07,5,1300,1300,16.04,0.1,24,0,0,0
57173,7.0627e+07,5,1300,1300,16.02,0.1,24,0,0,0
57626,7.0728e+07,5,1300,1300,16.04,0.09,24,0,0,0
58082,7.0837e+07,5,1300,1300,16.02,0.1,24,0,0,0
58540,7.0941e+07,5,1299,1285,16.03,0.1,24,0,0,0
59034,7.1057e+07,5,1286,1300,16.02,0.1,24,0,0,0
59486,7.1159e+07,5,1300,1300,16.03,0.1,24,0,0,0
59935,7.1264e+07,5,1299,1285,16.03,0.1,24,0,0,0
60434,7.138e+07,5,1286,1300,16.04,0.1,24,0,0,0
60848,7.1478e+07,5,1300,1300,16.03,0.1,24,0,0,0
61346,7.159e+07,5,1300,1300,16.03,0.1,24,0,0,0
62251,7.1806e+07,5,1300,1300,16.04,0.1,24,0,0,0
62749,7.1918e+07,5,1298,1285,16.04,0.1,24,0,0,0
63203,7.202e+07,5,1285,1300,16.03,0.1,24,0,0,0
63702,7.2135e+07,5,1300,1300,16.03,0.1,24,0,0,0
65104,7.246e+07,5,1299,1285,16.02,0.09,24,0,0,0
65556,7.2563e+07,5,1285,1300,16.02,0.09,24,0,0,0
66015,7.2671e+07,5,1300,1300,16.03,0.1,24,0,0,0
66514,7.2784e+07,5,1300,1300,16.03,0.1,24,0,0,0
66967,7.289e+07,5,1300,1300,16.03,0.1,24,0,0,0
67457,7.3001e+07,5,1300,1300,16.03,0.1,24,0,0,0
67916,7.3109e+07,5,1300,1300,16.03,0.1,24,0,0,0
68329,7.321e+07,5,1300,1300,16.03,0.1,24,0,0,0
68828,7.3324e+07,5,1300,1300,16.02,0.1,24,0,0,0
69282,7.343e+07,5,1300,1300,16.02,0.1,24,0,0,0
69737,7.3534e+07,5,1300,1300,16.02,0.1,24,0,0,0
70192,7.3643e+07,5,1300,1300,16.03,0.1,24,0,0,0
70648,7.3749e+07,5,1300,1300,16.02,0.1,24,0,0,0
71101,7.3854e+07,5,1300,1300,16.03,0.1,24,0,0,0
71601,7.3966e+07,5,1300,1300,16.02,0.1,24,0,0,0
72054,7.4072e+07,5,1300,1300,16.03,0.1,24,0,0,0
72553,7.4186e+07,5,1300,1300,16.02,0.1,24,0,0,0
73002,7.4292e+07,5,1300,1300,16.03,0.1,24,0,0,0
73459,7.4397e+07,5,1300,1300,16.02,0.1,24,0,0,0
73912,7.4504e+07,5,1300,1300,16.03,0.1,24,0,0,0
74364,7.461e+07,5,1300,1300,16.02,0.1,24,0,0,0
74820,7.4715e+07,5,1300,1300,16.02,0.1,24,0,0,0
75272,7.4824e+07,5,1300,1300,16.02,0.1,24,0,0,0
75775,7.4937e+07,5,1300,1300,16.03,0.1,24,0,0,0
76227,7.504e+07,5,1300,1300,16.03,0.1,24,0,0,0
76683,7.5146e+07,5,1300,1300,16.03,0.1,24,0,0,0
78084,7.5474e+07,5,1300,1300,16.02,0.1,24,0,0,0
78581,7.5586e+07,5,1300,1300,16.02,0.1,24,0,0,0
78988,7.5683e+07,5,1301,1371,16,0.16,24,0,0,0
79440,7.579e+07,5,1377,1857,15.85,0.8,24,0,0,0
79931,7.5898e+07,5,1882,2542,15.92,0.76,24,0,0,0
80386,7.6007e+07,5,2548,2685,15.95,0.51,24,0,0,0
80887,7.6121e+07,5,2685,2685,15.94,0.55,24,0,0,0
81339,7.6229e+07,5,2682,2642,15.95,0.45,24,0,0,0
81791,7.6332e+07,5,2659,3042,15.77,1.13,24,0,0,0
82251,7.6444e+07,5,3082,3500,15.82,1.28,24,0,0,0
82706,7.6551e+07,5,3533,4014,15.66,2.04,24,0,0,0
83154,7.6659e+07,5,4061,4700,15.36,3.81,24,0,0,0
83652,7.6776e+07,5,4756,5314,15.41,3.75,24,0,0,0
84102,7.6881e+07,5,5335,5628,15.3,4.08,24,1,0,0
84562,7.6994e+07,5,5675,5942,15.28,4.53,24,1,0,0
85015,7.71e+07,5,5940,5928,15.44,3.01,24,1,0,0
85429,7.7204e+07,5,5918,5714,15.5,2.97,24,1,0,0
85880,7.731e+07,5,5714,5714,15.48,3.44,24,1,0,0
86335,7.7418e+07,5,5722,5828,15.5,4.14,24,1,0,0
87237,7.7637e+07,5,5851,6285,15.39,4.18,24,1,0,0
87688,7.7742e+07,5,6286,6314,15.47,4.33,25,1,0,0
88141,7.7851e+07,5,6305,6142,15.33,4.76,24,2,0,0
89090,7.8074e+07,5,6151,6357,15.38,5.14,24,2,0,0
89543,7.818e+07,5,6358,6428,15.19,5.99,25,2,0,0
89998,7.8289e+07,5,6428,6442,15.29,4.64,24,2,0,0
90484,7.8399e+07,5,6413,6042,15.38,3.97,25,2,0,0
90939,7.8506e+07,5,6040,6000,15.4,3.72,25,2,0,0
91390,7.8614e+07,5,5997,5942,15.38,3.82,25,2,0,0
91887,7.873e+07,5,5933,5814,15.36,3.78,25,3,0,0
92339,7.8839e+07,5,5812,5800,15.36,3.42,25,3,0,0
93203,7.905e+07,5,5801,5857,15.39,3.69,25,3,0,0
93700,7.9165e+07,5,5842,5700,15.42,3.01,25,3,0,0
94608,7.9381e+07,5,5714,6100,15.35,3.88,25,3,0,0
95059,7.9491e+07,5,6094,6014,15.32,4.22,25,3,0,0
95966,7.9707e+07,5,6024,6300,15.21,4.58,25,4,0,0
96420,7.9819e+07,5,6306,6414,15.2,4.89,25,4,0,0
96919,7.9935e+07,5,6435,6657,15.14,5.28,25,4,0,0
97329,8.0038e+07,5,6647,6471,15.25,4.88,25,4,0,0
98274,8.0259e+07,5,6463,6300,15.31,4.57,25,4,0,0
98733,8.0365e+07,5,6303,6342,15.31,4.37,25,5,0,0
99185,8.0476e+07,5,6347,6400,15.23,4.31,25,5,0,0
99604,8.058e+07,5,6378,6057,15.23,4.47,25,5,0,0
1.0009e+05,8.0694e+07,5,6072,6228,15.23,4.48,25,5,0,0
1.0054e+05,8.0806e+07,5,6230,6257,15.27,3.84,25,5,0,0
1.0098e+05,8.0908e+07,5,6255,6228,15.23,4.64,25,5,0,0
1.0143e+05,8.1015e+07,5,6225,6185,15.28,4.62,25,5,0,0
1.0188e+05,8.1127e+07,5,6187,6228,15.33,4.07,25,5,0,0
1.0233e+05,8.1236e+07,5,6217,6114,15.26,4.08,25,6,0,0
1.0274e+05,8.1336e+07,5,6118,6200,15.3,4.47,25,6,0,0
1.0314e+05,8.144e+07,5,6200,6228,15.31,4.13,25,6,0,0
1.0359e+05,8.1549e+07,5,6229,6314,15.27,4.17,25,6,0,0
1.0404e+05,8.1663e+07,5,6312,6285,15.2,4.38,25,6,0,0
1.0444e+05,8.1764e+07,5,6286,6314,15.26,4.09,26,6,0,0
1.0485e+05,8.1869e+07,5,6296,5914,15.31,3.82,26,6,0,0
1.053e+05,8.1982e+07,5,5925,6028,15.32,3.97,25,6,0,0
1.0571e+05,8.2081e+07,5,6036,6214,15.3,4.15,26,7,0,0
1.066e+05,8.2302e+07,5,6211,6100,15.28,4.26,26,7,0,0
1.0704e+05,8.2407e+07,5,6106,6171,15.3,3.99,25,7,0,0
1.0745e+05,8.2508e+07,5,6169,6071,15.24,4.28,26,7,0,0
1.0793e+05,8.2624e+07,5,6074,6157,15.27,4.07,26,7,0,0
1.0838e+05,8.2733e+07,5,6148,5957,15.35,3.85,26,7,0,0
1.0883e+05,8.2845e+07,5,5963,6128,15.21,3.99,26,7,0,0
1.0928e+05,8.2952e+07,5,6127,6100,15.26,3.83,26,8,0,0
1.0972e+05,8.3064e+07,5,6105,6171,15.24,4.35,26,8,0,0
1.1018e+05,8.3173e+07,5,6162,6014,15.33,3.59,26,8,0,0
1.1062e+05,8.328e+07,5,6019,6100,15.3,3.67,26,8,0,0
1.1102e+05,8.3383e+07,5,6096,5871,15.26,3.58,26,8,0,0
1.1151e+05,8.3497e+07,5,5872,5914,15.3,3.53,26,8,0,0
1.1196e+05,8.3609e+07,5,5901,5785,15.4,3.09,26,8,0,0
1.1237e+05,8.3709e+07,5,5785,5785,15.34,3.53,26,8,0,0
1.1282e+05,8.3821e+07,5,5789,5857,15.36,3.65,26,8,0,0
1.1326e+05,8.3927e+07,5,5856,5800,15.35,3.34,26,8,0,0
1.1371e+05,8.4036e+07,5,5803,5885,15.32,3.78,26,9,0,0
1.1416e+05,8.4152e+07,5,5892,5971,15.33,3.74,26,9,0,0
1.1456e+05,8.4252e+07,5,5970,5957,15.32,3.84,26,9,0,0
1.1506e+05,8.4368e+07,5,5953,5900,15.32,3.83,26,9,0,0
1.155e+05,8.4473e+07,5,5894,5800,15.36,3.08,26,9,0,0
1.1591e+05,8.4583e+07,5,5806,5871,15.25,4.18,26,9,0,0
1.1636e+05,8.4694e+07,5,5868,5828,15.34,3.65,26,9,0,0
1.1676e+05,8.4797e+07,5,5829,5971,15.34,4,26,9,0,0
1.1725e+05,8.4914e+07,5,5960,5857,15.35,3.25,26,10,0,0
1.1766e+05,8.5016e+07,5,5857,5871,15.33,3.73,26,10,0,0
1.1815e+05,8.5132e+07,5,5871,5871,15.23,3.77,26,10,0,0
1.1855e+05,8.5237e+07,5,5873,6000,15.31,3.86,26,10,0,0
1.19e+05,8.5345e+07,5,5998,5900,15.32,3.65,26,10,0,0
1.1944e+05,8.5455e+07,5,5900,5914,15.32,3.41,26,10,0,0
1.1993e+05,8.5569e+07,5,5918,6071,15.35,3.77,26,10,0,0
1.2038e+05,8.5682e+07,5,6070,6057,15.22,4.07,26,10,0,0
1.2083e+05,8.5791e+07,5,6021,5685,15.32,3.19,26,10,0,0
1.2124e+05,8.5892e+07,5,5691,5914,15.21,4.05,26,11,0,0
1.2168e+05,8.6003e+07,5,5916,6000,15.22,3.98,26,11,0,0
1.2213e+05,8.6117e+07,5,6008,6114,15.3,4.15,26,11,0,0
1.2254e+05,8.6223e+07,5,6113,6100,15.3,3.6,26,11,0,0
1.2295e+05,8.6326e+07,5,6100,6100,15.29,3.81,26,11,0,0
1.2344e+05,8.6445e+07,5,6098,6085,15.27,3.55,26,11,0,0
1.2389e+05,8.6551e+07,5,6079,5971,15.27,4.13,26,11,0,0
1.2429e+05,8.6654e+07,5,5981,6185,15.19,4.33,26,11,0,0
1.2475e+05,8.6765e+07,5,6182,6128,15.22,3.94,26,12,0,0
1.2519e+05,8.6876e+07,5,6132,6185,15.21,4.69,26,12,0,0
1.2564e+05,8.6993e+07,5,6163,6042,15.22,3.76,26,12,0,0
1.2605e+05,8.7089e+07,5,6042,6057,15.24,3.63,26,12,0,0
1.2649e+05,8.7198e+07,5,6059,6128,15.17,4,26,12,0,0
1.2694e+05,8.7304e+07,5,6125,5928,15.24,3.64,26,12,0,0
1.2787e+05,8.753e+07,5,5927,5900,15.25,3.6,26,12,0,0
1.2827e+05,8.763e+07,5,5903,6014,15.23,3.47,26,12,0,0
1.2872e+05,8.7739e+07,5,6000,5714,15.25,3.27,26,13,0,0
1.2917e+05,8.7846e+07,5,5718,5828,15.29,3.43,27,13,0,0
1.2962e+05,8.7958e+07,5,5835,6042,15.22,3.9,27,13,0,0
1.3006e+05,8.8063e+07,5,6031,5800,15.29,3.4,27,13,0,0
1.3051e+05,8.8172e+07,5,5786,5614,15.27,2.93,26,13,0,0
1.3096e+05,8.8285e+07,5,5632,5842,15.16,4.22,27,13,0,0
1.3141e+05,8.8391e+07,5,5849,6014,15.02,4.76,27,13,0,0
1.3184e+05,8.8498e+07,5,6027,6142,15.31,3.39,27,13,0,0
1.3274e+05,8.8717e+07,5,6126,5771,15.18,4.26,27,13,0,0
1.3314e+05,8.882e+07,5,5772,5857,15.13,4.34,27,14,0,0
1.3363e+05,8.8936e+07,5,5863,5928,15.19,4.46,26,14,0,0
1.3404e+05,8.9037e+07,5,5927,5885,15.12,4.26,27,14,0,0
1.3453e+05,8.9152e+07,5,5875,5771,15.17,4.61,27,14,0,0
1.3493e+05,8.9252e+07,5,5771,5814,15.06,5.41,27,14,0,0
1.3538e+05,8.9361e+07,5,5825,5971,15.06,5.34,27,14,0,0
1.3582e+05,8.9473e+07,5,5984,6128,14.97,5.52,27,14,0,0
1.3627e+05,8.9577e+07,5,6119,6042,15.17,4.28,27,15,0,0
1.3712e+05,8.9794e+07,5,6036,5928,15.16,4.07,27,15,0,0
1.38e+05,9.0006e+07,5,5935,6100,15.22,3.85,27,15,0,0
1.3846e+05,9.0118e+07,5,6080,5785,15.26,3.23,27,15,0,0
1.3886e+05,9.0223e+07,5,5785,5800,15.13,3.53,27,15,0,0
1.3932e+05,9.033e+07,5,5795,5685,15.26,2.53,27,16,0,0
1.3976e+05,9.0447e+07,5,5712,5971,15.1,4.57,27,16,0,0
1.4021e+05,9.0551e+07,5,5954,5714,15.06,3.95,27,16,0,0
1.4107e+05,9.0763e+07,5,5716,6028,15.13,4.21,27,16,0,0
1.4155e+05,9.0887e+07,5,6017,5928,15.21,3.91,27,16,0,0
1.42e+05,9.0993e+07,5,5934,6114,15.2,4.15,27,16,0,0
1.4242e+05,9.1092e+07,5,6103,5928,15.26,3.89,27,16,0,0
1.429e+05,9.1216e+07,5,5943,6071,15.18,4.23,27,16,0,0
1.4327e+05,9.1311e+07,5,6078,6228,15.19,4.69,27,16,0,0
1.4375e+05,9.1426e+07,5,6230,6285,15.14,4.35,27,17,0,0
1.4421e+05,9.1534e+07,5,6284,6271,15.17,4.09,27,17,0,0
1.4465e+05,9.1649e+07,5,6275,6328,15.1,4.61,27,17,0,0
1.4509e+05,9.175e+07,5,6322,6214,15.13,4.04,27,17,0,0
1.4599e+05,9.1974e+07,5,6198,5871,15.22,3.69,27,17,0,0
1.4639e+05,9.2072e+07,5,5873,6014,15.15,4.15,27,17,0,0
1.4688e+05,9.2192e+07,5,6000,5885,15.22,3.29,27,18,0,0
1.4729e+05,9.2297e+07,5,5879,5828,15.26,2.96,27,18,0,0
1.4769e+05,9.2395e+07,5,5828,5828,15.17,3.84,27,18,0,0
1.4819e+05,9.2519e+07,5,5819,5742,15.18,3.57,27,18,0,0
1.4904e+05,9.2729e+07,5,5743,5985,15.23,3.69,27,18,0,0
1.4948e+05,9.2837e+07,5,5981,5900,15.2,3.32,27,18,0,0
1.4993e+05,9.2949e+07,5,5890,5757,15.22,3.69,27,18,0,0
1.5033e+05,9.3051e+07,5,5759,5914,15.26,3.67,27,18,0,0
1.5082e+05,9.3167e+07,5,5925,6071,15.15,3.94,27,19,0,0
1.5128e+05,9.3279e+07,5,6071,6071,15.19,3.7,27,19,0,0
1.5173e+05,9.3388e+07,5,6081,6185,15.23,4.19,27,19,0,0
1.5213e+05,9.349e+07,5,6183,6128,15.25,3.29,27,19,0,0
1.526e+05,9.3601e+07,5,6108,5714,15.28,2.83,27,19,0,0
1.5306e+05,9.3714e+07,5,5706,5600,15.13,2.89,27,19,0,0
1.5351e+05,9.3827e+07,5,5606,5671,15.21,3.38,27,19,0,0
1.5399e+05,9.3937e+07,5,5687,5871,15.18,3.77,27,19,0,0
1.544e+05,9.4042e+07,5,5885,6071,15.13,4.41,27,19,0,0
1.5485e+05,9.415e+07,5,6072,6142,15.09,4.31,27,20,0,0
1.5529e+05,9.426e+07,5,6142,6185,15.19,4.34,27,20,0,0
1.5574e+05,9.4368e+07,5,6185,6200,15,4.45,27,20,0,0
1.5624e+05,9.4493e+07,5,6218,6400,14.95,5.38,27,20,0,0
1.5668e+05,9.4606e+07,5,6392,6342,15.05,5.25,27,20,0,0
1.5714e+05,9.4714e+07,5,6343,6357,15,6.04,28,20,0,0
1.5761e+05,9.4827e+07,5,6357,6357,14.83,5.2,27,20,0,0
1.5802e+05,9.4925e+07,5,6356,6300,15.14,4.62,27,21,0,0
1.5846e+05,9.5037e+07,5,6308,6414,15.1,4.61,27,21,0,0
1.5936e+05,9.5254e+07,5,6411,6357,15.09,4.71,27,21,0,0
1.5981e+05,9.5361e+07,5,6351,6271,15.18,4.39,27,21,0,0
1.6025e+05,9.5472e+07,5,6264,6114,15.19,3.6,28,21,0,0
1.607e+05,9.5587e+07,5,6098,5971,15.17,4.32,27,21,0,0
1.6115e+05,9.5693e+07,5,5980,6071,15.22,3.75,27,21,0,0
1.6163e+05,9.5807e+07,5,6052,5957,15.22,3.72,27,22,0,0
1.6204e+05,9.5908e+07,5,5957,5957,15.09,4.44,27,22,0,0
1.6244e+05,9.6011e+07,5,5957,5957,15.25,3.33,27,22,0,0
1.6293e+05,9.6127e+07,5,5943,5814,15.22,3.17,27,22,0,0
1.6338e+05,9.6241e+07,5,5821,5900,15.19,3.85,27,22,0,0
1.6383e+05,9.6351e+07,5,5902,5928,15.22,3.69,27,22,0,0
1.6427e+05,9.6461e+07,5,5927,5914,15.19,3.4,28,22,0,0
1.6517e+05,9.6682e+07,5,5916,5985,15.16,3.92,27,22,0,0
1.6561e+05,9.6797e+07,5,5979,5928,15.19,4.09,28,23,0,0
1.6602e+05,9.6894e+07,5,5928,5928,15.19,4.02,28,23,0,0
1.665e+05,9.7015e+07,5,5978,6242,15.11,4.44,28,23,0,0
1.6695e+05,9.7123e+07,5,6239,6214,15.23,4.62,28,23,0,0
1.6736e+05,9.7222e+07,5,6206,6128,15.11,3.67,28,23,0,0
1.6781e+05,9.733e+07,5,6116,5957,15.19,3.92,28,23,0,0
1.6826e+05,9.7445e+07,5,5958,5971,15.16,4.06,28,23,0,0
1.6866e+05,9.7544e+07,5,5971,6000,15.35,3.17,28,23,0,0
1.6911e+05,9.7655e+07,5,5988,5700,15.17,3.78,28,24,0,0
1.6956e+05,9.7764e+07,5,5699,5671,15.06,5.72,28,24,0,0
1.7004e+05,9.7883e+07,5,5671,5671,15.11,3.63,28,24,0,0
1.7049e+05,9.7986e+07,5,5681,5914,15.15,3.9,28,24,0,0
1.7093e+05,9.8099e+07,5,5914,5914,15.19,3.68,28,24,0,0
1.7138e+05,9.8208e+07,5,5907,5714,15.16,3.57,28,24,0,0
1.7187e+05,9.8326e+07,5,5718,5771,15.25,3.56,28,24,0,0
1.7272e+05,9.8533e+07,5,5773,5842,15.22,3.64,28,25,0,0
1.7316e+05,9.8638e+07,5,5841,5814,15.2,3.67,28,25,0,0
1.7361e+05,9.8751e+07,5,5819,5942,15.17,3.9,28,25,0,0
1.7406e+05,9.8857e+07,5,5944,6071,15.15,4.23,28,25,0,0
1.745e+05,9.8965e+07,5,6069,5971,15.08,4.14,28,25,0,0
1.7499e+05,9.9082e+07,5,5988,6257,15.05,4.59,28,25,0,0
1.754e+05,9.9184e+07,5,6257,6257,15.03,5.09,28,25,0,0
1.7588e+05,9.9303e+07,5,6267,6414,15.11,4.83,28,25,0,0
1.7633e+05,9.9415e+07,5,6410,6357,15.03,4.49,28,25,0,0
1.7678e+05,9.9525e+07,5,6357,6357,15.07,4.4,28,26,0,0
1.7719e+05,9.9628e+07,5,6355,6214,15.08,4.04,28,26,0,0
1.7812e+05,9.9852e+07,5,6207,6028,15.13,3.39,28,26,0,0
1.7857e+05,9.9961e+07,5,6022,5971,15.06,3.87,28,26,0,0
1.7901e+05,1.0006e+08,5,5973,6028,15.08,4.02,28,26,0,0
1.7951e+05,1.0018e+08,5,6030,6057,15.08,4.05,28,26,0,0
1.799e+05,1.0028e+08,5,6046,5885,15.12,4.12,28,26,0,0
1.8036e+05,1.004e+08,5,5904,6100,15.14,4.27,28,27,0,0
1.8076e+05,1.005e+08,5,6108,6300,15.21,4.57,28,27,0,0
1.8125e+05,1.0061e+08,5,6263,5885,15.16,3.8,28,27,0,0
1.817e+05,1.0072e+08,5,5918,6257,15.16,4.62,28,27,0,0
1.8214e+05,1.0083e+08,5,6239,6057,15.18,3.22,28,27,0,0
1.8259e+05,1.0094e+08,5,6047,5914,15.11,3.44,28,27,0,0
1.8304e+05,1.0105e+08,5,5904,5814,15.05,3.6,28,27,0,0
1.8344e+05,1.0115e+08,5,5812,5785,15.23,3.25,28,27,0,0
1.839e+05,1.0126e+08,5,5780,5671,15.19,3.42,28,28,0,0
1.8438e+05,1.0137e+08,5,5688,5942,15.17,4.16,28,28,0,0
1.8482e+05,1.0148e+08,5,5931,5771,15.11,3.73,28,28,0,0
1.8567e+05,1.0169e+08,5,5773,5857,15.08,3.55,28,28,0,0
1.8608e+05,1.018e+08,5,5858,5928,15.14,3.99,28,28,0,0
1.8657e+05,1.0192e+08,5,5923,5871,15.07,3.98,28,28,0,0
1.8702e+05,1.0203e+08,5,5864,5800,15.02,3.57,28,28,0,0
1.8742e+05,1.0213e+08,5,5804,5985,15.13,3.47,28,28,0,0
1.8787e+05,1.0224e+08,5,5984,5971,15.03,3.62,28,29,0,0
1.8832e+05,1.0235e+08,5,5965,5871,15.21,3.89,28,29,0,0
1.8877e+05,1.0246e+08,5,5893,6114,15.04,4.35,28,29,0,0
1.8921e+05,1.0257e+08,5,6101,5971,15.14,3.67,28,29,0,0
1.8966e+05,1.0268e+08,5,5967,5900,15.16,3.62,28,29,0,0
1.9011e+05,1.0279e+08,5,5905,5985,15.22,4.29,28,29,0,0
1.9051e+05,1.0289e+08,5,5987,6071,15.13,4.41,28,29,0,0
1.9096e+05,1.03e+08,5,6069,6028,15.15,3.51,28,29,0,0
1.9141e+05,1.0311e+08,5,6012,5814,15.11,3.3,28,29,0,0
1.9182e+05,1.0322e+08,5,5819,5914,15.19,3.5,28,30,0,0
1.9227e+05,1.0332e+08,5,5911,5885,15.21,3.78,28,30,0,0
1.9271e+05,1.0343e+08,5,5883,5857,15.22,3.81,28,30,0,0
1.9316e+05,1.0354e+08,5,5867,5971,15.22,4.1,28,30,0,0
1.936e+05,1.0365e+08,5,5972,6014,15.14,4.29,28,30,0,0
1.9405e+05,1.0376e+08,5,6018,6157,15.18,4.19,28,30,0,0
1.9449e+05,1.0387e+08,5,6141,5985,15.09,4.02,28,30,0,0
1.9494e+05,1.0398e+08,5,5985,5985,15.2,3.57,28,30,0,0
1.9535e+05,1.0409e+08,5,5987,6028,15.09,3.66,28,30,0,0
1.958e+05,1.042e+08,5,6027,6014,15.11,4.19,28,31,0,0
1.9624e+05,1.0431e+08,5,6011,5985,15.01,3.87,28,31,0,0
1.9668e+05,1.0442e+08,5,5978,5885,15.03,2.87,28,31,0,0
1.9709e+05,1.0452e+08,5,5888,6085,15.11,4.29,28,31,0,0
1.9753e+05,1.0463e+08,5,6089,6342,15.15,3.89,28,31,0,0
1.9802e+05,1.0475e+08,5,6319,6014,15.18,3.68,28,31,0,0
1.9846e+05,1.0485e+08,5,6017,6071,15.06,3.94,28,31,0,0
1.9891e+05,1.0496e+08,5,6068,6014,15.13,3.87,28,31,0,0
1.9936e+05,1.0508e+08,5,6017,6057,15.2,3.63,28,32,0,0
1.998e+05,1.0518e+08,5,6058,6071,15.1,3.77,28,32,0,0
2.0025e+05,1.053e+08,5,6072,6085,15.15,3.97,28,32,0,0
2.0066e+05,1.054e+08,5,6084,6071,15.02,4.44,28,32,0,0
2.011e+05,1.0551e+08,5,6089,6328,15.04,4.5,28,32,0,0
2.0203e+05,1.0574e+08,5,6320,6200,15.12,4.1,28,32,0,0
2.0239e+05,1.0583e+08,5,6199,6171,15.07,3.81,28,32,0,0
2.0291e+05,1.0595e+08,5,6178,6228,14.98,4.28,28,33,0,0
2.0328e+05,1.0604e+08,5,6229,6314,15.02,4.31,28,33,0,0
2.0376e+05,1.0615e+08,5,6310,6257,15,4.41,28,33,0,0
2.0417e+05,1.0626e+08,5,6254,6185,15.11,4.03,28,33,0,0
2.0461e+05,1.0636e+08,5,6187,6300,15.12,4.27,28,33,0,0
2.0506e+05,1.0648e+08,5,6295,6185,14.98,4.55,28,33,0,0
2.0551e+05,1.0659e+08,5,6206,6428,14.98,4.53,28,33,0,0
2.0596e+05,1.067e+08,5,6426,6414,15.01,4.38,28,33,0,0
2.0636e+05,1.0681e+08,5,6402,6285,15.02,4.12,28,34,0,0
2.0681e+05,1.0692e+08,5,6280,6228,15.01,4.58,28,34,0,0
2.0726e+05,1.0703e+08,5,6231,6257,15.05,4.23,28,34,0,0
2.0771e+05,1.0714e+08,5,6271,6385,14.95,4.64,28,34,0,0
2.0815e+05,1.0725e+08,5,6374,6271,15.05,4.42,28,34,0,0
2.086e+05,1.0735e+08,5,6279,6385,14.96,4.47,28,34,0,0
2.0905e+05,1.0747e+08,5,6388,6428,14.97,3.8,28,34,0,0
2.0998e+05,1.077e+08,5,6429,6485,15,4.76,28,35,0,0
2.1039e+05,1.078e+08,5,6478,6414,15,4.75,28,35,0,0
2.1084e+05,1.0791e+08,5,6409,6357,15.07,4.33,28,35,0,0
2.1123e+05,1.0801e+08,5,6355,6300,14.96,4.36,28,35,0,0
2.1172e+05,1.0812e+08,5,6294,6185,15.07,3.65,28,35,0,0
2.1217e+05,1.0824e+08,5,6182,6157,15.01,4.17,28,35,0,0
2.1262e+05,1.0834e+08,5,6155,6114,15,4.83,28,36,0,0
2.1306e+05,1.0845e+08,5,6139,6457,14.94,4.59,28,36,0,0
2.1351e+05,1.0856e+08,5,6446,6314,15.07,4.05,28,36,0,0
2.1395e+05,1.0867e+08,5,6295,5942,15.06,3.72,28,36,0,0
2.144e+05,1.0878e+08,5,5959,6142,15.13,4.18,28,36,0,0
2.1484e+05,1.0889e+08,5,6130,6014,15.05,4.26,28,36,0,0
2.1528e+05,1.09e+08,5,6012,5985,15.07,3.48,28,36,0,0
2.1569e+05,1.091e+08,5,5973,5742,15.14,3.39,28,36,0,0
2.1655e+05,1.0931e+08,5,5742,5800,15.14,3.47,28,37,0,0
2.1702e+05,1.0942e+08,5,5791,5628,15.13,3.03,28,37,0,0
2.1748e+05,1.0954e+08,5,5632,5700,15.08,3.58,28,37,0,0
2.1788e+05,1.0964e+08,5,5710,5928,15.05,3.7,28,37,0,0
2.1833e+05,1.0975e+08,5,5922,5842,15.04,3.84,28,37,0,0
2.1878e+05,1.0987e+08,5,5875,6228,15.09,4.45,28,37,0,0
2.1966e+05,1.1008e+08,5,6220,6042,15.07,4.04,28,37,0,0
2.2007e+05,1.1019e+08,5,6050,6214,15.02,4.59,29,37,0,0
2.2052e+05,1.103e+08,5,6197,5985,14.99,4,28,38,0,0
2.2097e+05,1.1041e+08,5,6026,6442,15.01,5.05,28,38,0,0
2.2226e+05,1.1072e+08,5,6440,6214,14.97,4.8,28,38,0,0
2.2274e+05,1.1084e+08,5,6227,6357,14.85,4.61,28,38,0,0
2.2319e+05,1.1095e+08,5,6360,6400,14.89,5.06,29,38,0,0
2.2359e+05,1.1105e+08,5,6400,6414,14.97,5.14,28,39,0,0
2.24e+05,1.1115e+08,5,6415,6471,15.01,4.55,28,39,0,0
2.2445e+05,1.1126e+08,5,6475,6542,15.03,4.46,29,39,0,0
2.2491e+05,1.1139e+08,5,6492,6214,15.02,4.47,28,39,0,0
2.2535e+05,1.1149e+08,5,6214,6214,15.04,4.04,29,39,0,0
2.2575e+05,1.1159e+08,5,6198,5914,15.07,3.06,28,39,0,0
2.2616e+05,1.117e+08,5,5924,6057,15.07,3.97,28,39,0,0
2.266e+05,1.1181e+08,5,6057,6071,15.06,3.95,29,40,0,0
2.2704e+05,1.1192e+08,5,6069,6057,15.16,3.65,29,40,0,0
2.2745e+05,1.1202e+08,5,6052,5885,14.87,3.98,29,40,0,0
2.279e+05,1.1213e+08,5,5885,5885,15,4.18,28,40,0,0
2.2834e+05,1.1224e+08,5,5887,6000,14.77,5.91,29,40,0,0
2.2879e+05,1.1234e+08,5,6004,6214,14.91,4.68,29,40,0,0
2.2924e+05,1.1246e+08,5,6212,6185,15.1,4.47,29,40,0,0
2.2969e+05,1.1257e+08,5,6174,6071,15.09,3.8,28,40,0,0
2.3009e+05,1.1267e+08,5,6072,6100,15,3.98,29,41,0,0
2.3054e+05,1.1278e+08,5,6102,6171,15.06,4.39,29,41,0,0
2.3102e+05,1.1289e+08,5,6162,6057,15.09,4.06,28,41,0,0
2.3142e+05,1.13e+08,5,6058,6128,15.05,3.95,29,41,0,0
2.3188e+05,1.1311e+08,5,6139,6257,15.01,4.41,29,41,0,0
2.3232e+05,1.1322e+08,5,6243,6057,15,4.21,28,41,0,0
2.3276e+05,1.1333e+08,5,6063,6228,15,4.11,29,41,0,0
2.3317e+05,1.1343e+08,5,6231,6328,15,4.98,29,41,0,0
2.3362e+05,1.1354e+08,5,6328,6357,14.96,4.62,29,42,0,0
2.3407e+05,1.1366e+08,5,6346,6185,14.98,4.55,29,42,0,0
2.3452e+05,1.1376e+08,5,6187,6314,14.86,4.74,29,42,0,0
2.3496e+05,1.1388e+08,5,6312,6300,14.93,4.8,29,42,0,0
2.3541e+05,1.1398e+08,5,6301,6328,14.99,4.4,29,42,0,0
2.3586e+05,1.1409e+08,5,6330,6357,14.99,4.57,29,42,0,0
2.3625e+05,1.1419e+08,5,6360,6485,14.95,4.53,29,42,0,0
2.3666e+05,1.143e+08,5,6480,6400,14.89,4.74,29,43,0,0
2.3756e+05,1.1452e+08,5,6398,6371,15.03,4.53,29,43,0,0
2.38e+05,1.1463e+08,5,6361,6157,15.03,4.34,29,43,0,0
2.3845e+05,1.1474e+08,5,6156,6100,14.98,3.94,29,43,0,0
2.3889e+05,1.1485e+08,5,6099,6085,15.04,4.24,29,43,0,0
2.3938e+05,1.1496e+08,5,6086,6114,15.02,4.07,29,43,0,0
2.4023e+05,1.1517e+08,5,6111,6000,15.05,3.89,29,44,0,0
2.4068e+05,1.1529e+08,5,6005,6057,15.02,4.16,29,44,0,0
2.4109e+05,1.1539e+08,5,6058,6114,15.01,4.16,29,44,0,0
2.4153e+05,1.155e+08,5,6114,6128,14.97,4.16,29,44,0,0
2.4198e+05,1.1561e+08,5,6127,6114,14.95,4.23,29,44,0,0
2.4243e+05,1.1572e+08,5,6116,6271,14.97,4.19,29,44,0,0
2.4287e+05,1.1583e+08,5,6263,6057,15.02,4.26,29,44,0,0
2.4336e+05,1.1594e+08,5,6065,6157,14.97,4.21,29,45,0,0
2.4377e+05,1.1605e+08,5,6155,6142,15.08,4.03,29,45,0,0
2.4421e+05,1.1616e+08,5,6159,6400,15.03,4.66,29,45,0,0
2.4462e+05,1.1626e+08,5,6397,6285,15.03,4.15,29,45,0,0
2.4511e+05,1.1637e+08,5,6281,6242,15.01,4.56,29,45,0,0
2.4551e+05,1.1648e+08,5,6239,6114,14.94,4.45,29,45,0,0
2.46e+05,1.1659e+08,5,6126,6271,14.91,4.49,29,45,0,0
2.4733e+05,1.1691e+08,5,6276,6428,15.05,4.4,29,46,0,0
2.4777e+05,1.1702e+08,5,6416,6257,14.99,4.17,29,46,0,0
2.4822e+05,1.1713e+08,5,6246,6142,14.97,4.18,29,46,0,0
2.4862e+05,1.1723e+08,5,6139,6014,15.02,3.97,29,46,0,0
2.4911e+05,1.1735e+08,5,6023,6114,15.05,3.72,29,46,0,0
2.4997e+05,1.1757e+08,5,6112,6085,15.02,4.29,29,46,0,0
2.5037e+05,1.1767e+08,5,6086,6157,14.98,4.2,29,47,0,0
2.5089e+05,1.1779e+08,5,6157,6157,15,4.34,29,47,0,0
2.513e+05,1.1789e+08,5,6151,6057,15.01,4.34,29,47,0,0
2.5219e+05,1.1811e+08,5,6056,6042,14.98,4.26,29,47,0,0
2.5264e+05,1.1823e+08,5,6064,6228,15.11,4.6,29,47,0,0
2.5305e+05,1.1833e+08,5,6215,6085,15.07,3.99,29,47,0,0
2.5346e+05,1.1844e+08,5,6087,6257,14.98,4.62,29,48,0,0
2.5395e+05,1.1856e+08,5,6253,6228,15,4.44,29,48,0,0
2.5431e+05,1.1865e+08,5,6228,6242,15.01,4.35,29,48,0,0
2.548e+05,1.1877e+08,5,6234,6100,15.04,4.11,29,48,0,0
2.552e+05,1.1887e+08,5,6100,6114,15.08,4.08,29,48,0,0
2.5565e+05,1.1898e+08,5,6113,6057,15.1,4.16,29,48,0,0
2.561e+05,1.1909e+08,5,6057,6085,15.02,4.28,29,48,0,0
2.5654e+05,1.192e+08,5,6084,6057,15.07,3.95,29,48,0,0
2.5703e+05,1.1932e+08,5,6063,6114,15.04,4.37,29,49,0,0
2.5747e+05,1.1943e+08,5,6107,6042,15,4.46,29,49,0,0
2.5788e+05,1.1953e+08,5,6048,6114,14.97,4.32,29,49,0,0
2.5834e+05,1.1964e+08,5,6110,6057,14.92,4.17,29,49,0,0
2.5878e+05,1.1975e+08,5,6061,6100,14.95,4.27,29,49,0,0
2.5918e+05,1.1985e+08,5,6108,6300,14.88,5.21,29,49,0,0
2.5963e+05,1.1996e+08,5,6305,6371,14.97,4.72,29,49,0,0
2.6007e+05,1.2007e+08,5,6377,6514,14.89,5.67,29,49,0,0
2.6053e+05,1.2018e+08,5,6524,6628,14.94,5.7,29,50,0,0
2.6096e+05,1.2028e+08,5,6630,6657,14.79,5.57,29,50,0,0
2.6141e+05,1.204e+08,5,6653,6628,14.93,5.11,29,50,0,0
2.6182e+05,1.205e+08,5,6621,6500,14.86,5.18,29,50,0,0
2.6227e+05,1.2061e+08,5,6484,6357,14.96,4.87,29,50,0,0
2.6272e+05,1.2073e+08,5,6363,6442,15.01,4.5,29,50,0,0
2.6312e+05,1.2082e+08,5,6429,6157,14.86,4.41,29,51,0,0
2.636e+05,1.2093e+08,5,6157,6171,14.88,4.71,29,51,0,0
2.6405e+05,1.2104e+08,5,6178,6271,14.88,4.57,29,51,0,0
2.6446e+05,1.2114e+08,5,6268,6128,14.94,4.7,29,51,0,0
2.6495e+05,1.2126e+08,5,6142,6300,14.88,4.3,29,51,0,0
2.6535e+05,1.2136e+08,5,6297,6114,14.86,4.18,29,51,0,0
2.658e+05,1.2147e+08,5,6121,6228,14.91,3.91,29,51,0,0
2.6625e+05,1.2158e+08,5,6224,5942,14.98,3.86,29,51,0,0
2.6669e+05,1.2169e+08,5,5947,6057,14.94,3.63,29,52,0,0
2.6714e+05,1.2181e+08,5,6045,5928,15,4.27,29,52,0,0
2.6759e+05,1.2191e+08,5,5929,5942,14.98,4.17,29,52,0,0
2.6799e+05,1.2202e+08,5,5951,6328,14.92,4.38,29,52,0,0
2.6844e+05,1.2213e+08,5,6322,6128,14.98,4.44,29,52,0,0
2.6885e+05,1.2223e+08,5,6133,6328,14.92,4.69,29,52,0,0
2.693e+05,1.2235e+08,5,6332,6428,14.85,4.71,30,52,0,0
2.6975e+05,1.2246e+08,5,6408,6200,14.97,4.25,29,53,0,0
2.7016e+05,1.2257e+08,5,6200,6200,15,4.1,29,53,0,0
2.7061e+05,1.2268e+08,5,6194,6142,15.02,3.93,29,53,0,0
2.7102e+05,1.2278e+08,5,6139,6014,14.96,4.02,29,53,0,0
2.7146e+05,1.2289e+08,5,6016,6057,14.97,4.08,29,53,0,0
2.7187e+05,1.2299e+08,5,6057,6057,14.97,3.7,29,53,0,0
2.7236e+05,1.2311e+08,5,6058,6071,15,3.74,29,53,0,0
2.7276e+05,1.2321e+08,5,6067,6028,15,3.95,29,53,0,0
2.7322e+05,1.2332e+08,5,6034,6114,14.85,4.22,29,54,0,0
2.7362e+05,1.2343e+08,5,6113,6085,14.95,4.41,29,54,0,0
2.7411e+05,1.2355e+08,5,6083,6071,14.92,4.08,29,54,0,0
2.7451e+05,1.2365e+08,5,6069,6042,15.01,4.08,29,54,0,0
2.7496e+05,1.2376e+08,5,6048,6128,15.02,3.87,29,54,0,0
2.7537e+05,1.2386e+08,5,6122,6000,14.97,4.1,29,54,0,0
2.7585e+05,1.2397e+08,5,5997,5971,14.95,4.39,29,54,0,0
2.7629e+05,1.2408e+08,5,5987,6157,14.93,4.26,29,54,0,0
2.7673e+05,1.2419e+08,5,6160,6200,14.95,4.44,30,54,0,0
2.7713e+05,1.2429e+08,5,6195,6028,15.01,3.81,29,55,0,0
2.7759e+05,1.2441e+08,5,6028,6028,15.05,3.46,29,55,0,0
2.7803e+05,1.2451e+08,5,6024,5857,15.04,3.46,29,55,0,0
2.7848e+05,1.2462e+08,5,5846,5671,15.03,2.93,29,55,0,0
2.7893e+05,1.2473e+08,5,5669,5628,15.06,3.18,29,55,0,0
2.7936e+05,1.2484e+08,5,5625,5542,15.09,2.76,29,55,0,0
2.7982e+05,1.2495e+08,5,5531,5428,15.1,2.65,29,55,0,0
2.8021e+05,1.2505e+08,5,5418,5085,15.17,2.24,29,55,0,0
2.807e+05,1.2516e+08,5,5068,4842,15.13,2.18,29,55,0,0
2.8115e+05,1.2528e+08,5,4872,5185,15.09,2.81,29,55,0,0
2.816e+05,1.2539e+08,5,5175,5042,15.05,2.71,29,55,0,0
2.8201e+05,1.2549e+08,5,5047,5157,15.07,2.35,29,56,0,0
2.8246e+05,1.256e+08,5,5171,5385,15.01,2.98,29,56,0,0
2.829e+05,1.2571e+08,5,5397,5557,15.01,3.11,29,56,0,0
2.833e+05,1.2581e+08,5,5559,5757,15.01,3.69,29,56,0,0
2.8375e+05,1.2592e+08,5,5758,5800,14.99,3.67,29,56,0,0
2.8424e+05,1.2604e+08,5,5806,5900,14.93,3.62,29,56,0,0
2.8509e+05,1.2625e+08,5,5890,5642,15.01,3.11,29,56,0,0
2.8554e+05,1.2635e+08,5,5639,5571,15.02,3.64,29,56,0,0
2.8598e+05,1.2646e+08,5,5574,5700,15.04,3.43,29,56,0,0
2.8643e+05,1.2657e+08,5,5695,5571,15,2.91,29,57,0,0
2.8688e+05,1.2669e+08,5,5570,5557,15.04,3.17,29,57,0,0
2.8777e+05,1.2691e+08,5,5555,5485,15.11,3.17,29,57,0,0
2.8825e+05,1.2702e+08,5,5493,5585,15.08,3.07,29,57,0,0
2.8866e+05,1.2712e+08,5,5583,5571,15,3.16,29,57,0,0
2.891e+05,1.2723e+08,5,5573,5700,14.95,3.91,29,57,0,0
2.8959e+05,1.2735e+08,5,5709,5800,14.93,3.66,29,57,0,0
2.8999e+05,1.2745e+08,5,5801,5828,14.91,3.85,29,57,0,0
2.9044e+05,1.2756e+08,5,5830,6000,14.83,4.57,29,57,0,0
2.9093e+05,1.2768e+08,5,6000,6000,14.9,4.16,29,58,0,0
2.9134e+05,1.2778e+08,5,5999,5942,14.95,3.73,29,58,0,0
2.9178e+05,1.2789e+08,5,5939,5914,15.03,3.35,29,58,0,0
2.9219e+05,1.2799e+08,5,5914,5942,15.04,3.65,29,58,0,0
2.9267e+05,1.2811e+08,5,5932,5842,14.97,3.64,29,58,0,0
2.9312e+05,1.2822e+08,5,5823,5657,15.01,3.24,29,58,0,0
2.9352e+05,1.2832e+08,5,5637,5500,15.06,2.63,29,58,0,0
2.9393e+05,1.2843e+08,5,5494,5228,15.08,2.46,29,58,0,0
2.9438e+05,1.2854e+08,5,5232,5414,15.01,4.02,29,58,0,0
2.9483e+05,1.2865e+08,5,5420,5471,15.02,3.69,29,59,0,0
2.9528e+05,1.2875e+08,5,5469,5414,15.04,2.6,29,59,0,0
2.9572e+05,1.2886e+08,5,5418,5471,15.04,3.2,29,59,0,0
2.9617e+05,1.2897e+08,5,5471,5471,15.04,2.79,29,59,0,0
2.9657e+05,1.2908e+08,5,5480,5671,15.11,3.47,29,59,0,0
2.9702e+05,1.2919e+08,5,5659,5557,14.95,3.44,29,59,0,0
2.9742e+05,1.2929e+08,5,5558,5685,14.99,3.51,29,59,0,0
2.9794e+05,1.2941e+08,5,5679,5571,15.08,3.35,29,59,0,0
2.9884e+05,1.2962e+08,5,5566,5442,14.99,3.01,29,59,0,0
2.9928e+05,1.2973e+08,5,5442,5442,15.01,3.01,29,60,0,0
2.9973e+05,1.2984e+08,5,5456,5657,14.91,3.53,29,60,0,0
3.0018e+05,1.2995e+08,5,5660,5714,14.96,4.96,29,60,0,0
3.0059e+05,1.3006e+08,5,5690,5371,14.76,3.83,29,60,0,0
3.0104e+05,1.3017e+08,5,5374,5414,15.02,3.48,29,60,0,0
3.0148e+05,1.3028e+08,5,5403,5300,15.04,3.21,29,60,0,0
3.0188e+05,1.3038e+08,5,5301,5371,15.11,2.86,29,60,0,0
3.0236e+05,1.3049e+08,5,5374,5442,14.98,3.03,29,60,0,0
3.0281e+05,1.306e+08,5,5438,5371,15.03,2.99,29,60,0,0
3.0326e+05,1.3071e+08,5,5373,5400,15.01,3.07,29,61,0,0
3.0374e+05,1.3083e+08,5,5401,5414,14.97,3.4,29,61,0,0
3.0419e+05,1.3094e+08,5,5409,5342,15.08,2.67,29,61,0,0
3.046e+05,1.3104e+08,5,5333,5128,15.1,2.61,29,61,0,0
3.0508e+05,1.3116e+08,5,5150,5457,15.12,3.4,29,61,0,0
3.0548e+05,1.3126e+08,5,5454,5314,15.04,2.61,29,61,0,0
3.0593e+05,1.3136e+08,5,5316,5371,14.89,2.92,29,61,0,0
3.0638e+05,1.3148e+08,5,5370,5357,15.02,3.12,29,61,0,0
3.0683e+05,1.3159e+08,5,5352,5285,15.04,3.05,29,61,0,0
3.0727e+05,1.317e+08,5,5289,5400,15.01,3.52,29,61,0,0
3.0772e+05,1.3181e+08,5,5443,5842,14.89,4.39,29,61,0,0
3.0812e+05,1.3191e+08,5,5842,5871,15,3.62,29,62,0,0
3.086e+05,1.3202e+08,5,5869,5800,14.88,3.74,29,62,0,0
3.091e+05,1.3215e+08,5,5812,5957,14.9,4.31,29,62,0,0
3.0955e+05,1.3226e+08,5,5969,6100,15,3.92,29,62,0,0
3.0995e+05,1.3236e+08,5,6091,5900,14.98,3.92,29,62,0,0
3.1044e+05,1.3247e+08,5,5925,6185,14.89,4.45,29,62,0,0
3.1089e+05,1.3258e+08,5,6187,6214,14.95,4.47,29,62,0,0
3.1129e+05,1.3268e+08,5,6207,6071,14.92,4.22,29,62,0,0
3.1178e+05,1.3281e+08,5,6067,6028,14.99,4.13,29,63,0,0
3.1219e+05,1.3291e+08,5,6030,6057,14.92,3.98,29,63,0,0
3.126e+05,1.3301e+08,5,6058,6142,14.93,3.69,29,63,0,0
3.1308e+05,1.3313e+08,5,6124,5942,15.04,3.74,29,63,0,0
3.1348e+05,1.3323e+08,5,5945,6028,15.01,4.03,29,63,0,0
3.1394e+05,1.3334e+08,5,6029,6071,15.04,3.71,29,63,0,0
3.1438e+05,1.3345e+08,5,6066,5957,15.02,3.81,29,63,0,0
3.1483e+05,1.3356e+08,5,5951,5885,15.03,3.74,29,63,0,0
3.1527e+05,1.3367e+08,5,5889,5942,14.98,3.86,29,63,0,0
3.1572e+05,1.3379e+08,5,5935,5900,14.91,3.58,29,64,0,0
3.1616e+05,1.3389e+08,5,5905,5942,15,3.91,29,64,0,0
3.1657e+05,1.3399e+08,5,5958,6114,14.98,4.31,29,64,0,0
3.1702e+05,1.341e+08,5,6107,6014,14.92,4.31,29,64,0,0
3.1745e+05,1.3421e+08,5,6026,6285,14.97,4.2,29,64,0,0
3.179e+05,1.3432e+08,5,6253,5942,14.98,3.76,29,64,0,0
3.1835e+05,1.3443e+08,5,5951,6057,15,3.83,29,64,0,0
3.1923e+05,1.3465e+08,5,6057,6071,14.95,3.73,29,65,0,0
3.1969e+05,1.3475e+08,5,6063,5985,14.98,3.67,29,65,0,0
3.2057e+05,1.3497e+08,5,5985,6000,15.04,3.75,29,65,0,0
3.2102e+05,1.3509e+08,5,5992,5885,14.98,3.6,29,65,0,0
3.2143e+05,1.3518e+08,5,5885,5885,15.04,3.3,29,65,0,0
3.2187e+05,1.3529e+08,5,5883,5771,15.04,3.4,29,65,0,0
3.2233e+05,1.3541e+08,5,5763,5700,15,3.67,29,65,0,0
3.2277e+05,1.3551e+08,5,5715,5871,15.02,3.59,29,65,0,0
3.2317e+05,1.3561e+08,5,5880,6057,15.02,4.15,29,66,0,0
3.2406e+05,1.3583e+08,5,6055,5928,15.01,3.87,29,66,0,0
3.2451e+05,1.3594e+08,5,5917,5800,14.98,3.81,29,66,0,0
3.2496e+05,1.3606e+08,5,5809,5914,15.05,3.51,29,66,0,0
3.2541e+05,1.3617e+08,5,5900,5742,15,3.51,29,66,0,0
3.2581e+05,1.3627e+08,5,5761,5971,15.04,3.5,29,66,0,0
3.2626e+05,1.3638e+08,5,5958,5842,15.05,3.33,29,66,0,0
3.2719e+05,1.366e+08,5,5839,5771,14.97,3.74,29,67,0,0
3.276e+05,1.367e+08,5,5782,5942,14.95,3.97,29,67,0,0
3.28e+05,1.3681e+08,5,5945,6185,14.99,4.63,29,67,0,0
3.2844e+05,1.3691e+08,5,6183,6100,14.95,3.65,29,67,0,0
3.2893e+05,1.3703e+08,5,6088,5985,14.92,3.81,29,67,0,0
3.2937e+05,1.3714e+08,5,5970,5785,15,2.83,29,67,0,0
3.2978e+05,1.3725e+08,5,5800,6000,15.05,3.9,29,67,0,0
3.3023e+05,1.3736e+08,5,5998,5971,15.04,3.78,29,67,0,0
3.3064e+05,1.3746e+08,5,5966,5885,14.94,4.35,29,67,0,0
3.3109e+05,1.3757e+08,5,5895,6057,14.96,4.19,29,67,0,0
3.3198e+05,1.3779e+08,5,6051,5871,14.86,4.5,29,68,0,0
3.3243e+05,1.379e+08,5,5878,6042,14.91,5.46,29,68,0,0
3.3287e+05,1.3801e+08,5,6044,6085,14.94,4.61,29,68,0,0
3.3327e+05,1.3811e+08,5,6081,5885,14.87,4.1,29,68,0,0
3.3372e+05,1.3822e+08,5,5891,6071,14.88,4.98,29,68,0,0
3.3416e+05,1.3833e+08,5,6069,6042,14.58,5.2,30,68,0,0
3.3461e+05,1.3844e+08,5,6051,6200,14.88,5.59,29,69,0,0
3.355e+05,1.3866e+08,5,6197,6142,15.01,4.4,29,69,0,0
3.3595e+05,1.3877e+08,5,6142,6142,14.99,3.68,29,69,0,0
3.364e+05,1.3888e+08,5,6133,5957,14.95,3.99,29,69,0,0
3.3682e+05,1.3899e+08,5,5959,6000,14.95,4.18,29,69,0,0
3.3726e+05,1.391e+08,5,5993,5914,15,3.53,29,69,0,0
3.377e+05,1.3921e+08,5,5916,5942,15,3.73,29,70,0,0
3.3811e+05,1.3931e+08,5,5941,5928,14.91,3.89,29,70,0,0
3.3856e+05,1.3942e+08,5,5925,5885,15.05,3.5,29,70,0,0
3.3901e+05,1.3953e+08,5,5883,5800,14.92,3.88,29,70,0,0
3.3942e+05,1.3963e+08,5,5801,5885,14.98,3.49,29,70,0,0
3.399e+05,1.3975e+08,5,5884,5871,15,3.55,29,70,0,0
3.4035e+05,1.3986e+08,5,5867,5785,15.05,3.29,29,70,0,0
3.4079e+05,1.3997e+08,5,5783,5757,14.97,3.32,29,70,0,0
3.4124e+05,1.4007e+08,5,5763,5885,14.91,3.61,29,70,0,0
3.4168e+05,1.4019e+08,5,5893,5971,14.94,3.75,29,71,0,0
3.4213e+05,1.4029e+08,5,5971,5971,14.98,3.47,29,71,0,0
3.4302e+05,1.4051e+08,5,5964,5771,15.01,3.35,29,71,0,0
3.4348e+05,1.4062e+08,5,5775,5828,14.95,3.88,29,71,0,0
3.4432e+05,1.4083e+08,5,5831,5957,14.85,4.25,29,71,0,0
3.4482e+05,1.4095e+08,5,5950,5885,14.9,3.84,29,71,0,0
3.4526e+05,1.4106e+08,5,5892,5985,14.92,3.73,29,71,0,0
3.457e+05,1.4117e+08,5,5976,5871,14.97,3.61,29,71,0,0
3.4614e+05,1.4127e+08,5,5871,5871,15.06,3.54,29,72,0,0
3.466e+05,1.4139e+08,5,5871,5871,15.03,3.5,29,72,0,0
3.4705e+05,1.415e+08,5,5858,5728,14.96,3.38,29,72,0,0
3.4745e+05,1.416e+08,5,5731,5814,14.92,3.95,29,72,0,0
3.479e+05,1.4171e+08,5,5814,5828,15.01,3.38,29,72,0,0
3.4835e+05,1.4183e+08,5,5822,5742,15.02,3.25,29,72,0,0
3.488e+05,1.4194e+08,5,5734,5657,15.04,2.76,29,72,0,0
3.4924e+05,1.4205e+08,5,5639,5385,14.91,3.2,29,72,0,0
3.4969e+05,1.4216e+08,5,5394,5485,14.89,3.84,29,72,0,0
3.5013e+05,1.4227e+08,5,5483,5471,14.91,4.15,29,73,0,0
3.5058e+05,1.4238e+08,5,5490,5700,14.86,4.27,29,73,0,0
3.5099e+05,1.4248e+08,5,5703,5914,14.94,4.25,29,73,0,0
3.5143e+05,1.4259e+08,5,5921,6071,15,3.71,29,73,0,0
3.5188e+05,1.427e+08,5,6046,5714,14.97,3.14,29,73,0,0
3.5233e+05,1.4281e+08,5,5712,5700,14.91,3.4,29,73,0,0
3.5278e+05,1.4292e+08,5,5695,5642,15.02,3.22,29,73,0,0
3.5363e+05,1.4314e+08,5,5638,5571,14.85,3.19,29,73,0,0
3.5403e+05,1.4324e+08,5,5571,5585,15.1,2.96,29,74,0,0
3.5448e+05,1.4335e+08,5,5585,5628,14.95,3.56,29,74,0,0
3.5492e+05,1.4345e+08,5,5627,5614,15.01,3.36,29,74,0,0
3.5532e+05,1.4356e+08,5,5638,5842,15.01,3.5,29,74,0,0
3.5578e+05,1.4368e+08,5,5829,5685,14.89,3.76,29,74,0,0
3.5623e+05,1.4379e+08,5,5758,6142,14.91,3.79,29,74,0,0
3.5711e+05,1.44e+08,5,6132,5914,14.98,3.43,29,74,0,0
3.5756e+05,1.4411e+08,5,5927,6042,15.02,3.55,29,74,0,0
3.5795e+05,1.4421e+08,5,6034,5857,14.94,3.41,29,75,0,0
3.5844e+05,1.4433e+08,5,5864,5957,14.98,3.47,29,75,0,0
3.5885e+05,1.4443e+08,5,5958,5971,15,3.39,29,75,0,0
3.5929e+05,1.4454e+08,5,5964,5657,15.1,3.08,29,75,0,0
3.5974e+05,1.4466e+08,5,5660,5685,15.07,2.94,29,75,0,0
3.6015e+05,1.4475e+08,5,5685,5685,14.98,4.36,29,75,0,0
3.6104e+05,1.4497e+08,5,5678,5400,14.92,4.53,30,75,0,0
3.6152e+05,1.4509e+08,5,5409,5514,14.85,4.89,30,75,0,0
3.6193e+05,1.4518e+08,5,5515,5614,14.88,3.82,29,76,0,0
3.6237e+05,1.453e+08,5,5612,5528,14.97,3.92,29,76,0,0
3.6282e+05,1.4541e+08,5,5508,5328,14.92,3.95,29,76,0,0
3.6327e+05,1.4552e+08,5,5368,5742,14.89,3.94,29,76,0,0
3.6371e+05,1.4562e+08,5,5749,5842,14.73,4.56,30,76,0,0
3.6416e+05,1.4573e+08,5,5841,5828,14.91,4.58,29,76,0,0
3.6456e+05,1.4584e+08,5,5825,5685,14.98,3.8,29,76,0,0
3.6505e+05,1.4596e+08,5,5674,5557,14.77,4.2,29,76,0,0
3.6546e+05,1.4606e+08,5,5617,6128,14.63,6.05,30,76,0,0
3.659e+05,1.4616e+08,5,6107,5900,14.85,3.75,29,77,0,0
3.6634e+05,1.4627e+08,5,5901,5942,15,3.69,29,77,0,0
3.6679e+05,1.4638e+08,5,5945,5985,14.94,3.61,29,77,0,0
3.6719e+05,1.4648e+08,5,5986,6057,15.01,3.59,29,77,0,0
3.6812e+05,1.4671e+08,5,6057,6057,14.86,3.89,30,77,0,0
3.6857e+05,1.4681e+08,5,6044,5871,14.91,3.41,30,77,0,0
3.6942e+05,1.4703e+08,5,5870,5842,14.95,3.5,30,78,0,0
3.699e+05,1.4714e+08,5,5831,5700,14.94,3.3,30,78,0,0
3.7076e+05,1.4736e+08,5,5691,5528,15.02,2.59,29,78,0,0
3.7116e+05,1.4746e+08,5,5526,5485,15.09,2.43,30,78,0,0
3.7166e+05,1.4758e+08,5,5467,5285,14.91,2.69,29,78,0,0
3.721e+05,1.4768e+08,5,5300,5457,15,4.46,29,78,0,0
3.7254e+05,1.4779e+08,5,5443,5314,14.75,4.02,29,78,0,0
3.7295e+05,1.4789e+08,5,5312,5228,15.01,2.74,30,78,0,0
3.7344e+05,1.4801e+08,5,5219,5100,15.13,2.34,29,79,0,0
3.7388e+05,1.4812e+08,5,5106,5200,15.02,2.32,29,79,0,0
3.7434e+05,1.4823e+08,5,5220,5428,14.68,4.59,30,79,0,0
3.7474e+05,1.4833e+08,5,5429,5528,14.87,4.41,30,79,0,0
3.7518e+05,1.4844e+08,5,5532,5628,14.87,3.64,30,79,0,0
3.7563e+05,1.4855e+08,5,5632,5742,14.91,3.5,30,79,0,0
3.7608e+05,1.4866e+08,5,5765,6071,14.8,5.23,30,79,0,0
3.7653e+05,1.4877e+08,5,6075,6142,15.02,3,29,79,0,0
3.7693e+05,1.4888e+08,5,6114,5614,15.06,1.95,29,79,0,0
3.7738e+05,1.4899e+08,5,5597,5485,14.97,3.09,29,80,0,0
3.7783e+05,1.491e+08,5,5477,5371,14.89,3.08,29,80,0,0
3.7824e+05,1.492e+08,5,5375,5428,15.1,3.32,29,80,0,0
3.7869e+05,1.4931e+08,5,5440,5628,14.94,3.74,30,80,0,0
3.7913e+05,1.4942e+08,5,5656,6028,14.95,4.3,29,80,0,0
3.7954e+05,1.4953e+08,5,6017,5871,14.82,4.81,29,80,0,0
3.7999e+05,1.4964e+08,5,5875,5914,14.86,5.21,30,80,0,0
3.8043e+05,1.4975e+08,5,5928,6228,14.79,4.85,29,80,0,0
3.8088e+05,1.4985e+08,5,6231,6300,14.79,5.41,29,80,0,0
3.8138e+05,1.4997e+08,5,6290,6157,14.77,5.42,30,81,0,0
3.8173e+05,1.5007e+08,5,6152,6057,14.86,4.59,29,81,0,0
3.8219e+05,1.5018e+08,5,6055,6028,14.92,4.02,29,81,0,0
3.8264e+05,1.5029e+08,5,6032,6071,14.89,3.66,29,81,0,0
3.8308e+05,1.504e+08,5,6073,6128,14.97,3.87,29,81,0,0
3.8352e+05,1.5051e+08,5,6118,6028,14.91,4.2,29,81,0,0
3.8438e+05,1.5072e+08,5,6031,6100,14.86,4.04,29,82,0,0
3.8482e+05,1.5083e+08,5,6098,6057,14.94,4.11,30,82,0,0
3.8526e+05,1.5093e+08,5,6055,5971,14.85,4.1,29,82,0,0
3.8571e+05,1.5105e+08,5,5961,5871,14.86,3.64,30,82,0,0
3.8615e+05,1.5116e+08,5,5872,5885,14.93,3.62,30,82,0,0
3.8656e+05,1.5126e+08,5,5886,5957,14.89,4.15,29,82,0,0
3.8701e+05,1.5137e+08,5,5976,6242,14.85,4.09,30,82,0,0
3.874e+05,1.5147e+08,5,6242,6257,14.88,5.27,30,82,0,0
3.8789e+05,1.5159e+08,5,6258,6342,14.95,4.04,30,83,0,0
3.8834e+05,1.5169e+08,5,6330,6185,14.97,3.62,29,83,0,0
3.8879e+05,1.518e+08,5,6171,6014,14.96,3.74,29,83,0,0
3.8924e+05,1.5191e+08,5,6014,6014,14.9,4.04,30,83,0,0
3.8968e+05,1.5202e+08,5,6015,6028,14.97,3.82,29,83,0,0
3.9008e+05,1.5212e+08,5,6017,5757,14.94,3.11,30,83,0,0
3.9056e+05,1.5223e+08,5,5759,5871,14.94,3.61,29,83,0,0
3.9102e+05,1.5234e+08,5,5863,5757,14.57,5.13,29,83,0,0
3.9142e+05,1.5244e+08,5,5754,5600,14.95,3.97,29,83,0,0
3.9187e+05,1.5255e+08,5,5600,5600,14.88,4.59,30,84,0,0
3.9232e+05,1.5266e+08,5,5602,5628,14.86,4.16,30,84,0,0
3.9276e+05,1.5277e+08,5,5650,5985,14.94,4.66,29,84,0,0
3.9316e+05,1.5288e+08,5,5989,6085,14.75,5.4,30,84,0,0
3.9365e+05,1.5299e+08,5,6089,6128,14.82,5.31,29,84,0,0
3.941e+05,1.531e+08,5,6121,6057,14.89,3.75,29,84,0,0
3.945e+05,1.532e+08,5,6057,6100,14.86,4.16,30,84,0,0
3.9499e+05,1.5332e+08,5,6101,6114,14.82,4.44,29,85,0,0
3.9543e+05,1.5343e+08,5,6119,6242,15.01,4.08,30,85,0,0
3.9588e+05,1.5354e+08,5,6221,6028,15.05,3.24,30,85,0,0
3.9628e+05,1.5364e+08,5,6023,5785,14.87,3.72,30,85,0,0
3.9678e+05,1.5376e+08,5,5787,5814,14.89,4.09,30,85,0,0
3.9722e+05,1.5387e+08,5,5815,5828,14.89,4.28,29,85,0,0
3.9767e+05,1.5399e+08,5,5825,5814,14.89,4.24,29,85,0,0
3.9807e+05,1.5408e+08,5,5804,5571,15,3.38,29,85,0,0
3.9855e+05,1.5419e+08,5,5568,5528,15,3.4,29,86,0,0
3.99e+05,1.543e+08,5,5547,5942,14.92,4.97,29,86,0,0
3.9944e+05,1.5442e+08,5,5937,5885,14.81,5.33,29,86,0,0
3.9989e+05,1.5453e+08,5,5902,6057,14.76,5.73,29,86,0,0
4.003e+05,1.5463e+08,5,6071,6228,14.77,5.16,29,86,0,0
4.0075e+05,1.5474e+08,5,6250,6442,14.8,5.13,30,86,0,0
4.0115e+05,1.5484e+08,5,6436,6314,14.91,4.37,29,86,0,0
4.0159e+05,1.5495e+08,5,6310,6285,14.91,4.11,29,86,0,0
4.0204e+05,1.5505e+08,5,6273,6000,14.84,4.36,29,87,0,0
4.0248e+05,1.5517e+08,5,5997,5971,14.95,4.03,30,87,0,0
4.0292e+05,1.5528e+08,5,5973,6000,15.08,3.36,29,87,0,0
4.0337e+05,1.5539e+08,5,5973,5700,15.02,3.84,29,87,0,0
4.0381e+05,1.555e+08,5,5712,5985,14.99,3.99,29,87,0,0
4.0425e+05,1.5561e+08,5,5975,5900,15.02,4.37,30,87,0,0
4.0467e+05,1.5571e+08,5,5901,6014,14.98,4.21,30,87,0,0
4.0511e+05,1.5582e+08,5,6018,6271,14.94,4.67,29,87,0,0
4.06e+05,1.5605e+08,5,6268,6185,14.95,4.58,30,88,0,0
4.0645e+05,1.5615e+08,5,6201,6342,14.91,4.43,30,88,0,0
4.0689e+05,1.5626e+08,5,6338,6300,14.91,4.47,30,88,0,0
4.0734e+05,1.5637e+08,5,6300,6300,14.82,4.99,30,88,0,0
4.0774e+05,1.5648e+08,5,6303,6385,14.95,4.46,30,88,0,0
4.0819e+05,1.5658e+08,5,6384,6328,14.86,4.37,30,88,0,0
4.0864e+05,1.5669e+08,5,6306,6014,14.91,4.45,30,89,0,0
4.0908e+05,1.568e+08,5,6023,6228,14.88,4.54,30,89,0,0
4.0953e+05,1.5691e+08,5,6212,6085,14.92,4.27,30,89,0,0
4.0997e+05,1.5702e+08,5,6083,6042,14.92,4.07,30,89,0,0
4.1042e+05,1.5713e+08,5,6059,6228,14.97,4.55,30,89,0,0
4.1086e+05,1.5724e+08,5,6226,6200,14.95,4.01,30,89,0,0
4.1131e+05,1.5735e+08,5,6179,5914,15.02,3.67,30,89,0,0
4.1217e+05,1.5757e+08,5,5921,6142,14.88,4.39,30,90,0,0
4.1302e+05,1.5779e+08,5,6142,6157,14.98,4.04,30,90,0,0
4.1343e+05,1.5789e+08,5,6157,6200,14.89,3.89,29,90,0,0
4.1392e+05,1.5801e+08,5,6176,5957,14.86,4.13,30,90,0,0
4.1432e+05,1.5811e+08,5,5981,6300,14.84,5.08,30,90,0,0
4.1473e+05,1.5821e+08,5,6297,6214,14.92,4.49,30,90,0,0
4.1523e+05,1.5833e+08,5,6221,6300,14.91,4.49,30,90,0,0
4.1563e+05,1.5843e+08,5,6296,6085,14.89,3.21,30,91,0,0
4.1608e+05,1.5854e+08,5,6077,5900,14.83,4.16,30,91,0,0
4.1652e+05,1.5865e+08,5,5904,6185,14.87,4.67,30,91,0,0
4.1697e+05,1.5876e+08,5,6203,6385,14.88,4.92,30,91,0,0
4.1745e+05,1.5888e+08,5,6381,6342,14.92,4.25,30,91,0,0
4.1786e+05,1.5897e+08,5,6338,6114,14.88,4.44,30,91,0,0
4.183e+05,1.5908e+08,5,6119,6471,14.85,4.83,30,91,0,0
4.1919e+05,1.593e+08,5,6465,6200,14.89,4.08,30,92,0,0
4.1963e+05,1.5941e+08,5,6196,6142,14.8,4.43,30,92,0,0
4.2008e+05,1.5952e+08,5,6142,6157,14.82,4.35,30,92,0,0
4.2052e+05,1.5963e+08,5,6161,6271,14.85,5.3,30,92,0,0
4.2098e+05,1.5974e+08,5,6271,6342,14.96,3.98,30,92,0,0
4.2143e+05,1.5986e+08,5,6279,5671,15.03,2.87,30,92,0,0
4.2192e+05,1.5997e+08,5,5658,5485,15.01,2.86,30,92,0,0
4.2277e+05,1.6018e+08,5,5489,5685,14.85,3.93,30,93,0,0
4.2322e+05,1.6029e+08,5,5694,5828,15,3.39,29,93,0,0
4.2366e+05,1.604e+08,5,5818,5685,14.94,3.33,30,93,0,0
4.2411e+05,1.6051e+08,5,5694,5785,15.01,3.63,30,93,0,0
4.2451e+05,1.6061e+08,5,5786,5885,14.96,3.66,30,93,0,0
4.2496e+05,1.6072e+08,5,5886,5914,14.93,3.77,30,93,0,0
4.2537e+05,1.6083e+08,5,5916,6000,14.95,3.76,30,93,0,0
4.2582e+05,1.6094e+08,5,5992,5842,14.97,3.07,30,93,0,0
4.2626e+05,1.6105e+08,5,5838,5785,14.83,3.4,30,93,0,0
4.2671e+05,1.6116e+08,5,5787,5971,14.92,3.67,30,94,0,0
4.2764e+05,1.6138e+08,5,5968,5914,14.91,3.65,30,94,0,0
4.2809e+05,1.6149e+08,5,5903,5800,14.91,4.38,29,94,0,0
4.2853e+05,1.616e+08,5,5787,5685,14.76,4.64,29,94,0,0
4.2898e+05,1.6171e+08,5,5693,5785,14.92,3.41,30,94,0,0
4.2939e+05,1.6182e+08,5,5788,5814,14.94,3.33,29,94,0,0
4.298e+05,1.6192e+08,5,5812,5685,14.97,2.9,30,94,0,0
4.3024e+05,1.6203e+08,5,5685,5685,15.01,3.64,30,94,0,0
4.3073e+05,1.6215e+08,5,5680,5642,14.97,3,30,95,0,0
4.3113e+05,1.6225e+08,5,5645,5714,14.94,3.19,30,95,0,0
4.3158e+05,1.6235e+08,5,5708,5642,14.98,3.48,29,95,0,0
4.3198e+05,1.6246e+08,5,5643,5742,14.88,3.48,30,95,0,0
4.3247e+05,1.6258e+08,5,5730,5628,15,3.37,30,95,0,0
4.3291e+05,1.6268e+08,5,5635,5728,15,3.34,30,95,0,0
4.3336e+05,1.6279e+08,5,5735,5942,14.95,4.09,29,95,0,0
4.3425e+05,1.6302e+08,5,5947,6042,14.89,4.16,30,95,0,0
4.3466e+05,1.6312e+08,5,6041,5971,14.89,3.83,30,96,0,0
4.3507e+05,1.6322e+08,5,5972,6042,14.95,3.88,30,96,0,0
4.3555e+05,1.6333e+08,5,6035,5971,14.98,3.89,30,96,0,0
4.3599e+05,1.6344e+08,5,5992,6200,14.89,6.08,29,96,0,0
4.3644e+05,1.6355e+08,5,6182,6057,14.85,4.39,30,96,0,0
4.3688e+05,1.6367e+08,5,6043,5885,14.66,5.84,30,96,0,0
4.3729e+05,1.6376e+08,5,5890,6142,14.71,4.2,30,96,0,0
4.3778e+05,1.6389e+08,5,6142,6142,14.79,5.83,30,97,0,0
4.3819e+05,1.6399e+08,5,6138,6057,14.88,3.97,30,97,0,0
4.3867e+05,1.641e+08,5,6055,6042,15,4.06,30,97,0,0
4.3907e+05,1.642e+08,5,6035,5914,14.92,3.56,29,97,0,0
4.3956e+05,1.6432e+08,5,5922,6014,14.83,4.46,30,97,0,0
4.3996e+05,1.6442e+08,5,6013,6000,14.87,4.1,30,97,0,0
4.4042e+05,1.6454e+08,5,5990,5914,14.91,3.62,30,97,0,0
4.4082e+05,1.6464e+08,5,5914,5914,14.98,3.42,30,97,0,0
4.4127e+05,1.6475e+08,5,5909,5857,14.95,3.58,30,97,0,0
4.4217e+05,1.6496e+08,5,5854,5771,15.02,3.22,30,98,0,0
4.4258e+05,1.6507e+08,5,5768,5700,14.95,3.57,30,98,0,0
4.4307e+05,1.6519e+08,5,5714,5900,14.98,3.81,29,98,0,0
4.4347e+05,1.6529e+08,5,5887,5700,15.02,3.14,30,98,0,0
4.4436e+05,1.6551e+08,5,5701,5757,14.94,3.52,30,98,0,0
4.448e+05,1.6562e+08,5,5766,5942,14.98,3.9,30,98,0,0
4.4526e+05,1.6573e+08,5,5936,5857,14.9,3.77,29,98,0,0
4.4566e+05,1.6584e+08,5,5857,5857,14.92,4.04,30,99,0,0
4.4612e+05,1.6595e+08,5,5878,6157,14.89,4.57,30,99,0,0
4.4656e+05,1.6606e+08,5,6150,6085,14.86,4.27,30,99,0,0
4.4741e+05,1.6627e+08,5,6081,5957,14.89,3.67,30,99,0,0
4.4786e+05,1.6638e+08,5,5963,6057,15,3.63,30,99,0,0
4.4831e+05,1.6649e+08,5,6055,6014,14.92,3.59,29,99,0,0
4.4879e+05,1.6661e+08,5,5997,5785,14.97,3.51,30,99,0,0
4.4924e+05,1.6671e+08,5,5794,5942,15.01,3.69,30,100,0,0
4.4965e+05,1.6682e+08,5,5938,5714,15,3.26,30,100,0,0
4.5009e+05,1.6693e+08,5,5711,5571,14.81,4.59,30,100,0,0
4.5054e+05,1.6703e+08,5,5579,5885,14.91,4.13,30,100,0,0
4.5143e+05,1.6725e+08,5,5883,5828,14.91,3.59,30,100,0,0
4.5193e+05,1.6737e+08,5,5813,5657,14.94,2.74,30,100,0,0
4.5237e+05,1.6748e+08,5,5649,5571,14.96,3.25,30,100,0,0
4.5282e+05,1.6759e+08,5,5571,5571,14.98,3.72,30,100,0,0
4.5323e+05,1.6769e+08,5,5589,5814,14.98,3.7,30,101,0,0
4.5368e+05,1.6781e+08,5,5808,5742,14.91,4.01,30,101,0,0
4.5412e+05,1.6791e+08,5,5744,5785,14.8,4.68,30,101,0,0
4.5457e+05,1.6802e+08,5,5784,5771,14.85,4.22,30,101,0,0
4.5498e+05,1.6812e+08,5,5771,5785,14.8,4,30,101,0,0
4.5542e+05,1.6823e+08,5,5788,5857,14.84,3.94,30,101,0,0
4.5587e+05,1.6834e+08,5,5851,5771,14.86,4.76,30,101,0,0
4.5673e+05,1.6856e+08,5,5775,5914,14.92,4.66,30,102,0,0
4.5718e+05,1.6867e+08,5,5901,5771,14.98,3.1,30,102,0,0
4.5763e+05,1.6879e+08,5,5778,5828,14.91,3.06,30,102,0,0
4.5803e+05,1.6888e+08,5,5828,5885,14.67,5.41,30,102,0,0
4.5848e+05,1.69e+08,5,5883,5857,14.81,4.33,30,102,0,0
4.5897e+05,1.6911e+08,5,5864,5942,14.92,3.94,30,102,0,0
4.5938e+05,1.6922e+08,5,5937,5685,14.94,3.3,30,102,0,0
4.5986e+05,1.6934e+08,5,5689,5714,14.94,3.17,30,102,0,0
4.6026e+05,1.6943e+08,5,5709,5457,14.95,3.05,30,102,0,0
4.6074e+05,1.6955e+08,5,5464,5542,15,2.95,30,102,0,0
4.6116e+05,1.6966e+08,5,5532,5471,14.98,2.73,30,103,0,0
4.6204e+05,1.6987e+08,5,5469,5357,14.91,2.75,30,103,0,0
4.625e+05,1.6998e+08,5,5359,5385,14.97,2.61,30,103,0,0
4.6294e+05,1.7009e+08,5,5375,5285,14.9,2.94,30,103,0,0
4.6338e+05,1.702e+08,5,5294,5385,14.94,2.79,30,103,0,0
4.6383e+05,1.7031e+08,5,5385,5385,14.93,2.95,30,103,0,0
4.6472e+05,1.7053e+08,5,5382,5300,14.99,2.87,30,103,0,0
4.6565e+05,1.7075e+08,5,5304,5400,14.97,2.84,30,103,0,0
4.6605e+05,1.7086e+08,5,5403,5442,15,3.52,30,104,0,0
4.665e+05,1.7096e+08,5,5445,5528,14.98,3.22,30,104,0,0
4.6691e+05,1.7107e+08,5,5529,5571,14.97,3.33,30,104,0,0
4.6736e+05,1.7118e+08,5,5571,5614,14.9,3.38,30,104,0,0
4.678e+05,1.7129e+08,5,5614,5642,14.9,3.51,30,104,0,0
4.6873e+05,1.7151e+08,5,5645,5800,14.8,4.03,30,104,0,0
4.6962e+05,1.7173e+08,5,5795,5671,14.82,3.82,30,104,0,0
4.7006e+05,1.7184e+08,5,5677,5742,14.97,3.52,30,104,0,0
4.7051e+05,1.7194e+08,5,5740,5714,14.92,3.33,30,105,0,0
4.7095e+05,1.7205e+08,5,5715,5728,14.91,3.69,30,105,0,0
4.7181e+05,1.7227e+08,5,5729,5771,14.88,3.56,30,105,0,0
4.7226e+05,1.7238e+08,5,5765,5714,14.92,3.09,30,105,0,0
4.727e+05,1.7249e+08,5,5719,5771,14.96,3.48,30,105,0,0
4.7318e+05,1.726e+08,5,5753,5642,14.99,3.07,30,105,0,0
4.7359e+05,1.7271e+08,5,5645,5685,14.9,3.96,30,105,0,0
4.7404e+05,1.7281e+08,5,5689,5757,14.92,3.49,30,105,0,0
4.7449e+05,1.7292e+08,5,5763,5857,14.91,3.75,30,106,0,0
4.7493e+05,1.7304e+08,5,5859,5885,14.91,3.76,30,106,0,0
4.7538e+05,1.7315e+08,5,5886,5900,14.9,3.46,30,106,0,0
4.7623e+05,1.7335e+08,5,5898,5842,14.95,3.5,30,106,0,0
4.7668e+05,1.7347e+08,5,5827,5685,14.78,3.68,30,106,0,0
4.7713e+05,1.7358e+08,5,5713,6028,14.86,3.79,30,106,0,0
4.7753e+05,1.7368e+08,5,6020,5914,14.91,3.44,30,106,0,0
4.7798e+05,1.7379e+08,5,5912,5814,14.79,3.6,30,106,0,0
4.7842e+05,1.739e+08,5,5814,5842,14.97,3.82,30,107,0,0
4.7888e+05,1.7401e+08,5,5841,5828,14.96,3.44,30,107,0,0
4.7932e+05,1.7412e+08,5,5814,5685,14.95,3.25,30,107,0,0
4.7973e+05,1.7423e+08,5,5685,5728,14.91,3.1,29,107,0,0
4.8066e+05,1.7445e+08,5,5723,5628,14.91,3.28,30,107,0,0
4.811e+05,1.7456e+08,5,5647,5914,14.9,3.85,29,107,0,0
4.8155e+05,1.7467e+08,5,5912,5885,14.95,3.54,30,107,0,0
4.8196e+05,1.7477e+08,5,5883,5800,14.98,3.45,30,107,0,0
4.8244e+05,1.7488e+08,5,5804,5871,14.92,3.63,30,108,0,0
4.8289e+05,1.75e+08,5,5867,5828,14.91,3.54,30,108,0,0
4.8334e+05,1.751e+08,5,5829,5871,14.95,4.18,30,108,0,0
4.8378e+05,1.7521e+08,5,5873,6071,14.81,4.13,30,108,0,0
4.8423e+05,1.7532e+08,5,6071,6100,14.87,4.33,30,108,0,0
4.8471e+05,1.7543e+08,5,6094,6014,14.98,3.72,29,108,0,0
4.8516e+05,1.7554e+08,5,6030,6257,14.93,4.66,29,108,0,0
4.8556e+05,1.7565e+08,5,6239,5842,14.94,3.68,30,108,0,0
4.8601e+05,1.7576e+08,5,5843,5942,14.95,3.71,29,109,0,0
4.865e+05,1.7589e+08,5,5922,5814,14.99,3.61,30,109,0,0
4.8696e+05,1.7599e+08,5,5814,5814,14.95,3.53,30,109,0,0
4.8735e+05,1.7609e+08,5,5809,5742,14.85,3.58,30,109,0,0
4.8825e+05,1.7631e+08,5,5741,5728,14.94,3.4,29,109,0,0
4.8864e+05,1.7642e+08,5,5725,5671,14.87,3.44,29,109,0,0
4.8909e+05,1.7652e+08,5,5665,5571,14.91,3.22,30,109,0,0
4.8954e+05,1.7663e+08,5,5565,5485,14.86,3.7,30,109,0,0
4.8998e+05,1.7674e+08,5,5495,5771,14.88,3.67,30,109,0,0
4.9043e+05,1.7685e+08,5,5767,5714,14.97,3.7,29,110,0,0
4.9092e+05,1.7697e+08,5,5709,5671,14.86,3.52,29,110,0,0
4.9132e+05,1.7707e+08,5,5692,5885,14.93,3.84,30,110,0,0
4.9178e+05,1.7718e+08,5,5861,5714,14.94,3.29,29,110,0,0
4.9218e+05,1.7728e+08,5,5713,5657,14.93,3.08,30,110,0,0
4.9307e+05,1.775e+08,5,5656,5642,14.89,3.4,29,110,0,0
4.9355e+05,1.7762e+08,5,5647,5714,14.9,3.48,29,110,0,0
4.94e+05,1.7772e+08,5,5715,5728,14.94,3.41,29,110,0,0
4.949e+05,1.7795e+08,5,5730,5785,14.98,3.25,29,111,0,0
4.953e+05,1.7805e+08,5,5784,5771,14.98,3.01,30,111,0,0
4.9575e+05,1.7816e+08,5,5765,5700,14.89,3.87,30,111,0,0
4.9616e+05,1.7826e+08,5,5700,5700,14.89,3.15,30,111,0,0
4.9661e+05,1.7838e+08,5,5705,5771,14.95,3.59,30,111,0,0
4.9701e+05,1.7848e+08,5,5771,5771,14.93,3.43,29,111,0,0
4.975e+05,1.7859e+08,5,5777,5857,14.93,3.88,30,111,0,0
4.9795e+05,1.7871e+08,5,5869,6000,14.9,3.85,30,111,0,0
4.9836e+05,1.7881e+08,5,5994,5914,14.96,3.5,30,111,0,0
4.9881e+05,1.7892e+08,5,5897,5557,14.86,3.54,30,112,0,0
4.9925e+05,1.7903e+08,5,5569,5871,14.74,4.48,29,112,0,0
4.997e+05,1.7914e+08,5,5877,5957,14.71,5.68,30,112,0,0
5.0015e+05,1.7925e+08,5,5962,6042,14.66,5.43,30,112,0,0
5.006e+05,1.7936e+08,5,6037,5914,14.91,3.54,29,112,0,0
5.01e+05,1.7947e+08,5,5908,5785,14.95,3.82,30,112,0,0
5.015e+05,1.7959e+08,5,5789,5842,14.91,3.87,30,112,0,0
5.019e+05,1.7969e+08,5,5833,5757,14.95,3.65,30,113,0,0
5.0234e+05,1.798e+08,5,5757,5757,14.91,3.92,30,113,0,0
5.0279e+05,1.7991e+08,5,5758,5785,14.97,3.44,30,113,0,0
5.032e+05,1.8001e+08,5,5768,5557,14.89,3.15,30,113,0,0
5.0409e+05,1.8023e+08,5,5556,5542,14.91,3.4,30,113,0,0
5.0453e+05,1.8034e+08,5,5544,5614,14.88,3.14,30,113,0,0
5.0498e+05,1.8045e+08,5,5621,5700,14.91,3.29,30,113,0,0
5.0544e+05,1.8056e+08,5,5703,5742,15,3.58,30,113,0,0
5.0588e+05,1.8067e+08,5,5726,5485,14.98,3.18,30,113,0,0
5.0632e+05,1.8078e+08,5,5488,5557,14.88,3.41,30,114,0,0
5.0677e+05,1.8089e+08,5,5559,5628,14.97,3.12,30,114,0,0
5.0726e+05,1.8101e+08,5,5628,5628,14.97,3.55,30,114,0,0
5.077e+05,1.8112e+08,5,5622,5571,14.97,3.16,30,114,0,0
5.0815e+05,1.8122e+08,5,5571,5585,14.96,3.22,30,114,0,0
5.086e+05,1.8133e+08,5,5586,5600,14.96,3.16,30,114,0,0
5.09e+05,1.8143e+08,5,5602,5728,14.82,3.68,30,114,0,0
5.0945e+05,1.8154e+08,5,5727,5671,14.92,3.77,30,114,0,0
5.099e+05,1.8165e+08,5,5661,5557,15.01,3.26,30,114,0,0
5.1034e+05,1.8176e+08,5,5561,5614,14.88,3.76,30,114,0,0
5.1075e+05,1.8186e+08,5,5617,5757,14.92,3.59,30,115,0,0
5.112e+05,1.8197e+08,5,5753,5700,15.02,3.44,30,115,0,0
5.1209e+05,1.8219e+08,5,5704,5785,15,3.47,29,115,0,0
5.1254e+05,1.823e+08,5,5767,5585,15.12,3.28,30,115,0,0
5.1294e+05,1.824e+08,5,5582,5414,14.92,3.26,30,115,0,0
5.1339e+05,1.8251e+08,5,5413,5400,15.11,2.84,30,115,0,0
5.138e+05,1.8261e+08,5,5398,5357,15.06,2.79,29,115,0,0
5.1424e+05,1.8272e+08,5,5354,5242,15.06,2.48,30,115,0,0
5.1469e+05,1.8283e+08,5,5225,4828,15.21,1.94,29,115,0,0
5.1518e+05,1.8295e+08,5,4753,3971,15.44,0.91,30,115,0,0
5.1558e+05,1.8305e+08,5,3914,3128,15.42,0.2,30,115,0,0
5.1603e+05,1.8316e+08,5,3117,2900,15.38,0.38,30,115,0,0
5.1647e+05,1.8327e+08,5,2898,2857,15.38,0.41,30,115,0,0
5.1692e+05,1.8339e+08,5,2847,2771,15.39,0.45,30,115,0,0
5.1733e+05,1.8349e+08,5,2766,2671,15.37,0.43,30,116,0,0
5.1782e+05,1.8361e+08,5,2679,2757,15.38,0.48,30,116,0,0
5.1826e+05,1.8371e+08,5,2755,2742,15.36,0.48,30,116,0,0
5.1866e+05,1.8382e+08,5,2742,2771,15.38,0.45,30,116,0,0
5.1916e+05,1.8394e+08,5,2774,2814,15.39,0.43,30,116,0,0
5.2045e+05,1.8425e+08,5,2813,2728,15.41,0.3,29,116,0,0
5.2135e+05,1.8447e+08,5,2718,2271,15.38,0.32,29,116,0,0
5.218e+05,1.8457e+08,5,2268,2228,15.38,0.4,30,116,0,0
5.2224e+05,1.8468e+08,5,2224,2171,15.41,0.33,30,116,0,0
5.2269e+05,1.8479e+08,5,2126,1757,15.48,0.01,29,116,0,0
5.2314e+05,1.849e+08,5,1736,1428,15.47,0,29,116,0,0
5.2358e+05,1.8501e+08,5,1420,1285,15.47,0.05,29,116,0,0
5.2404e+05,1.8512e+08,5,1283,1257,15.47,0.07,29,116,0,0
5.2448e+05,1.8523e+08,5,1257,1257,15.46,0.07,29,116,0,0
5.2493e+05,1.8533e+08,5,1257,1257,15.47,0.07,29,116,0,0
5.2537e+05,1.8544e+08,5,1256,1242,15.47,0.07,29,116,0,0
5.2586e+05,1.8555e+08,5,1242,1257,15.47,0.07,29,116,0,0
5.2627e+05,1.8566e+08,5,1257,1257,15.47,0.07,29,116,0,0
5.2672e+05,1.8576e+08,5,1257,1257,15.47,0.07,29,116,0,0
5.2716e+05,1.8587e+08,5,1256,1242,15.48,0.07,29,116,0,0
5.2765e+05,1.8598e+08,5,1243,1257,15.47,0.07,29,116,0,0
5.281e+05,1.8609e+08,5,1257,1257,15.48,0.07,29,116,0,0
5.2854e+05,1.862e+08,5,1256,1242,15.48,0.07,29,116,0,0
5.2899e+05,1.863e+08,5,1242,1257,15.48,0.07,29,116,0,0
5.2947e+05,1.8642e+08,5,1257,1257,15.48,0.07,29,116,0,0
5.2992e+05,1.8653e+08,5,1257,1257,15.48,0.07,29,116,0,0
5.3033e+05,1.8663e+08,5,1257,1257,15.49,0.07,29,116,0,0
5.3078e+05,1.8674e+08,5,1257,1257,15.48,0.07,29,116,0,0
5.3122e+05,1.8684e+08,5,1257,1257,15.49,0.07,29,116,0,0
5.3167e+05,1.8695e+08,5,1257,1257,15.5,0.07,29,116,0,0
5.3212e+05,1.8706e+08,5,1257,1257,15.5,0.07,29,116,0,0
5.3256e+05,1.8717e+08,5,1257,1257,15.5,0.08,29,116,0,0
5.3301e+05,1.8728e+08,5,1257,1257,15.5,0.07,29,116,0,0
5.3346e+05,1.8739e+08,5,1257,1257,15.5,0.07,29,116,0,0
5.3391e+05,1.875e+08,5,1257,1257,15.51,0.07,29,116,0,0
5.3435e+05,1.876e+08,5,1257,1257,15.51,0.07,29,116,0,0
5.3484e+05,1.8772e+08,5,1257,1257,15.51,0.07,29,116,0,0
5.3524e+05,1.8782e+08,5,1257,1257,15.51,0.07,29,116,0,0
5.3573e+05,1.8794e+08,5,1257,1257,15.51,0.07,29,116,0,0
5.3662e+05,1.8814e+08,5,1257,1257,15.5,0.07,29,116,0,0
5.3706e+05,1.8826e+08,5,1257,1257,15.51,0.07,29,116,0,0
5.3747e+05,1.8835e+08,5,1257,1257,15.51,0.07,29,116,0,0
5.3792e+05,1.8847e+08,5,1257,1257,15.51,0.08,29,116,0,0
5.3838e+05,1.8857e+08,5,1257,1257,15.51,0.08,29,116,0,0
5.3882e+05,1.8868e+08,5,1257,1257,15.51,0.08,29,116,0,0
5.3927e+05,1.8879e+08,5,1257,1257,15.52,0.07,29,116,0,0
5.3971e+05,1.8889e+08,5,1255,1242,15.52,0.07,29,116,0,0
5.4012e+05,1.8899e+08,5,1242,1257,15.52,0.07,29,116,0,0
5.406e+05,1.8911e+08,5,1257,1257,15.52,0.07,29,116,0,0
