LineNo,TimeUS,Instance,RPM,RawRPM,Volt,Curr,Temp,CTot,MotTemp,Err
1710,56949882,0,0,0,15.87,0.03,33,0,0,0
2130,57055538,0,0,0,15.86,0.03,33,0,0,0
2546,57160844,0,0,0,15.86,0.03,33,0,0,0
2998,57276835,0,0,0,15.87,0.03,33,0,0,0
3415,57384374,0,0,0,15.88,0.03,33,0,0,0
3830,57488837,0,0,0,15.87,0.03,33,0,0,0
4289,57601274,0,0,0,15.86,0.03,33,0,0,0
5113,57813158,0,0,0,15.87,0.03,33,0,0,0
5527,57918649,0,0,0,15.87,0.03,33,0,0,0
5973,58028815,0,0,0,15.86,0.03,33,0,0,0
6385,58133649,0,0,0,15.86,0.03,33,0,0,0
6841,58247892,0,0,0,15.87,0.03,33,0,0,0
7251,58352637,0,0,0,15.87,0.03,33,0,0,0
7698,58463242,0,0,0,15.87,0.03,33,0,0,0
8113,58568370,0,0,0,15.86,0.03,33,0,0,0
8527,58671904,0,0,0,15.86,0.03,33,0,0,0
8986,58785978,0,0,0,15.87,0.03,33,0,0,0
9400,58890684,0,0,0,15.87,0.03,33,0,0,0
9818,58997259,0,0,0,15.87,0.03,33,0,0,0
10272,59110361,0,0,0,15.87,0.03,33,0,0,0
10973,59318813,0,0,0,15.87,0.03,33,0,0,0
11390,59425011,0,0,0,15.87,0.03,33,0,0,0
12252,59646551,0,0,0,15.87,0.03,33,0,0,0
12665,59751061,0,0,0,15.87,0.03,33,0,0,0
13115,59865920,0,0,0,15.87,0.03,33,0,0,0
13530,59970263,0,0,0,15.86,0.03,33,0,0,0
13907,60066991,0,0,0,15.86,0.04,33,0,0,0
14771,60286893,0,0,0,15.87,0.03,33,0,0,0
15638,60504303,0,0,0,15.87,0.03,33,0,0,0
16050,60606301,0,0,0,15.86,0.03,33,0,0,0
16506,60721106,0,0,0,15.87,0.03,33,0,0,0
16918,60822647,0,0,0,15.87,0.02,33,0,0,0
17336,60927798,0,0,0,15.86,0.03,33,0,0,0
17754,61035088,0,0,0,15.87,0.03,33,0,0,0
18206,61149557,0,0,0,15.87,0.03,33,0,0,0
18618,61253543,0,0,0,15.88,0.03,33,0,0,0
19034,61358437,0,0,0,15.86,0.03,33,0,0,0
19487,61474864,0,0,0,15.86,0.03,33,0,0,0
19904,61577889,0,0,0,15.86,0.03,33,0,0,0
20347,61687623,0,0,0,15.87,0.03,33,0,0,0
20762,61795966,0,0,0,15.86,0.03,33,0,0,0
21176,61897924,0,0,0,15.86,0.03,33,0,0,0
21629,62014426,0,0,0,15.86,0.03,33,0,0,0
22014,62117351,0,0,0,15.86,0.03,33,0,0,0
22460,62229951,0,0,0,15.87,0.03,33,0,0,0
22869,62332833,0,0,0,15.87,0.03,33,0,0,0
23285,62440280,0,0,0,15.86,0.03,33,0,0,0
23703,62544929,0,0,0,15.87,0.03,33,0,0,0
24152,62656530,0,0,0,15.88,0.04,33,0,0,0
24570,62762365,0,0,0,15.86,0.03,33,0,0,0
25020,62877240,0,0,0,15.88,0.03,33,0,0,0
25433,62979286,0,0,0,15.87,0.03,33,0,0,0
25860,63092342,0,0,0,15.86,0.03,33,0,0,0
26268,63195550,0,0,0,15.87,0.04,33,0,0,0
26721,63307567,0,0,0,15.86,0.03,33,0,0,0
27131,63410665,0,0,0,15.87,0.04,33,0,0,0
27587,63524423,0,0,0,15.87,0.03,33,0,0,0
28002,63632651,0,0,0,15.87,0.04,33,0,0,0
28419,63737314,0,0,0,15.87,0.03,33,0,0,0
28824,63842846,0,0,0,15.87,0.04,33,0,0,0
29279,63954704,0,0,0,15.86,0.03,33,0,0,0
29693,64061324,0,0,0,15.87,0.03,33,0,0,0
30522,64274747,0,0,0,15.87,0.03,33,0,0,0
30977,64393121,0,0,0,15.86,0.03,33,0,0,0
31352,64486576,0,0,0,15.87,0.03,33,0,0,0
31835,64605615,0,0,0,15.87,0.03,33,0,0,0
32248,64706608,0,0,0,15.87,0.03,33,0,0,0
32634,64812868,0,0,0,15.86,0.03,33,0,0,0
33087,64924846,0,0,0,15.86,0.03,33,0,0,0
33533,65033818,0,0,0,15.87,0.03,33,0,0,0
33944,65136059,0,0,0,15.86,0.04,33,0,0,0
34360,65245431,0,0,0,15.87,0.03,33,0,0,0
34816,65358545,0,0,0,15.87,0.03,33,0,0,0
35187,65456395,0,0,0,15.87,0.03,33,0,0,0
35647,65568629,0,0,0,15.87,0.03,33,0,0,0
36506,65789622,0,0,0,15.87,0.03,33,0,0,0
36932,65898206,0,0,0,15.87,0.03,33,0,0,0
37354,66005904,0,0,0,15.87,0.03,33,0,0,0
37806,66109214,0,0,0,15.86,0.03,33,0,0,0
38261,66216398,0,0,0,15.86,0.03,33,0,0,0
38716,66320544,0,0,0,15.87,0.03,33,0,0,0
39247,66439062,0,0,0,15.86,0.03,33,0,0,0
39706,66546101,0,0,0,15.87,0.03,33,0,0,0
40159,66652927,0,0,0,15.86,0.03,33,0,0,0
41109,66871719,0,0,0,15.87,0.03,33,0,0,0
41567,66976109,0,0,0,15.87,0.03,33,0,0,0
42017,67081110,0,0,0,15.87,0.03,33,0,0,0
42508,67195083,0,0,0,15.87,0.03,33,0,0,0
42958,67298383,0,0,0,15.87,0.03,33,0,0,0
43412,67405416,0,0,0,15.86,0.03,33,0,0,0
43866,67508374,0,0,0,15.87,0.03,33,0,0,0
44353,67616847,0,0,0,15.86,0.03,33,0,0,0
44855,67730567,0,0,0,15.87,0.03,33,0,0,0
45315,67840647,0,0,0,15.86,0.03,33,0,0,0
45773,67944460,0,0,0,15.86,0.02,33,0,0,0
46226,68052312,0,9,142,15.86,0.06,33,0,0,0
46723,68164317,0,192,742,15.83,0.11,33,0,0,0
47143,68270611,0,773,1114,15.85,0.15,33,0,0,0
47595,68373853,0,1115,1228,15.85,0.11,33,0,0,0
48090,68487663,0,1230,1271,15.85,0.11,33,0,0,0
48545,68589554,0,1271,1285,15.85,0.09999999,33,0,0,0
49036,68704917,0,1285,1285,15.85,0.09999999,33,0,0,0
49484,68806663,0,1285,1285,15.85,0.09999999,33,0,0,0
49984,68921924,0,1285,1285,15.85,0.09999999,33,0,0,0
50254,69026225,0,1285,1285,15.86,0.09999999,33,0,0,0
50713,69134319,0,1286,1300,15.85,0.09999999,34,0,0,0
51164,69240606,0,1300,1300,15.85,0.09999999,33,0,0,0
51614,69343062,0,1300,1300,15.85,0.09999999,34,0,0,0
52065,69449627,0,1300,1300,15.85,0.09999999,33,0,0,0
52562,69563025,0,1300,1300,15.85,0.09999999,34,0,0,0
53017,69669885,0,1300,1300,15.85,0.09999999,34,0,0,0
53467,69772513,0,1300,1300,15.85,0.09999999,33,0,0,0
54417,69994843,0,1300,1300,15.85,0.09999999,34,0,0,0
54867,70097521,0,1300,1300,15.85,0.09999999,34,0,0,0
55325,70204902,0,1299,1285,15.86,0.09999999,33,0,0,0
56273,70421116,0,1285,1300,15.86,0.09999999,34,0,0,0
56770,70535311,0,1300,1300,15.85,0.09999999,34,0,0,0
57218,70637505,0,1300,1300,15.84,0.09999999,34,0,0,0
57716,70749409,0,1299,1285,15.85,0.09999999,34,0,0,0
58171,70857801,0,1286,1300,15.85,0.09999999,34,0,0,0
58629,70961438,0,1298,1285,15.85,0.09999999,34,0,0,0
59574,71179419,0,1285,1285,15.86,0.09999999,34,0,0,0
60027,71287345,0,1286,1300,15.85,0.09999999,34,0,0,0
60481,71395652,0,1300,1300,15.85,0.09999999,34,0,0,0
60981,71509373,0,1300,1300,15.85,0.09999999,34,0,0,0
61430,71611907,0,1298,1285,15.85,0.09999999,34,0,0,0
61884,71717377,0,1285,1285,15.85,0.09999999,34,0,0,0
62340,71825086,0,1285,1285,15.84,0.09999999,34,0,0,0
62841,71937945,0,1286,1300,15.85,0.09999999,34,0,0,0
63295,72042584,0,1300,1300,15.85,0.09999999,34,0,0,0
63747,72145035,0,1299,1285,15.85,0.09999999,34,0,0,0
64246,72261610,0,1286,1300,15.85,0.09999999,34,0,0,0
64698,72364287,0,1300,1300,15.85,0.09999999,34,0,0,0
65153,72469605,0,1299,1285,15.85,0.09999999,34,0,0,0
65652,72588897,0,1285,1285,15.85,0.09999999,34,0,0,0
66104,72691513,0,1285,1285,15.85,0.09999999,34,0,0,0
66553,72794790,0,1285,1285,15.85,0.09999999,34,0,0,0
67057,72910857,0,1285,1285,15.85,0.09999999,34,0,0,0
67505,73013405,0,1285,1285,15.84,0.09999999,34,0,0,0
67961,73118862,0,1285,1285,15.85,0.09999999,34,0,0,0
68418,73230677,0,1285,1285,15.85,0.09999999,34,0,0,0
68917,73344338,0,1285,1285,15.85,0.09999999,34,0,0,0
69371,73450095,0,1285,1285,15.85,0.09999999,34,0,0,0
69830,73557591,0,1285,1285,15.85,0.09999999,34,0,0,0
70241,73656550,0,1285,1285,15.85,0.09999999,34,0,0,0
70737,73768705,0,1285,1285,15.85,0.09999999,34,0,0,0
71191,73874986,0,1285,1285,15.85,0.09999999,34,0,0,0
71689,73990083,0,1286,1300,15.85,0.09999999,34,0,0,0
72143,74092149,0,1300,1300,15.85,0.09999999,34,0,0,0
72595,74199282,0,1299,1285,15.85,0.09999999,34,0,0,0
73092,74312039,0,1285,1285,15.84,0.09999999,34,0,0,0
73545,74418367,0,1285,1285,15.85,0.09999999,34,0,0,0
74006,74524663,0,1285,1285,15.85,0.09999999,34,0,0,0
74457,74630439,0,1285,1285,15.85,0.09999999,34,0,0,0
74913,74736414,0,1285,1285,15.85,0.09999999,34,0,0,0
75365,74844717,0,1286,1300,15.84,0.09999999,34,0,0,0
75865,74957600,0,1298,1285,15.85,0.09999999,34,0,0,0
76316,75060309,0,1286,1300,15.85,0.09999999,34,0,0,0
76773,75166834,0,1300,1300,15.84,0.09999999,34,0,0,0
77223,75274333,0,1300,1300,15.85,0.09999999,34,0,0,0
77722,75388498,0,1298,1285,15.85,0.09999999,34,0,0,0
78173,75493861,0,1285,1285,15.85,0.09999999,34,0,0,0
78628,75599615,0,1285,1285,15.85,0.09999999,34,0,0,0
79078,75703233,0,1287,1428,15.83,0.19,34,0,0,0
79529,75810263,0,1436,1957,15.72,0.55,34,0,0,0
80019,75918830,0,1981,2314,15.79,0.55,34,0,0,0
80475,76028160,0,2317,2400,15.81,0.49,34,0,0,0
80933,76131861,0,2400,2414,15.8,0.48,34,0,0,0
81429,76249575,0,2414,2414,15.72,0.6,34,0,0,0
81882,76352636,0,2437,2742,15.8,1.27,34,0,0,0
82340,76464629,0,2780,3200,15.64,1.48,34,0,0,0
82795,76572141,0,3247,3900,15.36,2.72,34,0,0,0
83243,76680648,0,3915,4057,15.24,4.5,34,0,0,0
84192,76901851,0,4116,5385,15.23,3.76,34,1,0,0
84608,77004533,0,5412,5771,15.16,3.93,34,1,0,0
85062,77110601,0,5779,5971,15.3,3.59,34,1,0,0
85518,77224623,0,5954,5771,15.38,3.19,34,1,0,0
85970,77330482,0,5785,6000,15.25,4.15,34,1,0,0
86430,77439944,0,6023,6242,15.26,4.68,34,1,0,0
87331,77658020,0,6257,6585,15.24,5.02,34,1,0,0
87781,77762585,0,6579,6471,15.27,5.34,34,2,0,0
88235,77872058,0,6456,6257,15.32,4.95,34,2,0,0
88686,77975435,0,6260,6557,15.24,5.11,34,2,0,0
89139,78084831,0,6557,6557,15.14,5.6,34,2,0,0
89636,78205563,0,6571,6700,15,6.68,34,2,0,0
90088,78309417,0,6701,6728,15.22,5.16,34,2,0,0
90573,78419612,0,6695,6271,15.22,5.54,34,3,0,0
91029,78526064,0,6282,6442,15.18,4.68,34,3,0,0
91479,78635722,0,6431,6300,15.14,4.55,34,3,0,0
91976,78750093,0,6295,6242,15.23,4.24,34,3,0,0
92385,78849835,0,6240,6157,15.23,4.35,34,3,0,0
92879,78966393,0,6159,6185,15.22,4.5,34,3,0,0
93293,79070148,0,6176,6057,15.19,4.05,34,3,0,0
93791,79187345,0,6094,6442,15.19,4.45,34,3,0,0
94198,79286584,0,6432,6228,15.27,4.2,34,4,0,0
94647,79394218,0,6232,6300,15.21,4.48,34,4,0,0
95148,79511587,0,6301,6328,15.16,4.99,35,4,0,0
95601,79621810,0,6375,6857,15.1,5.49,35,4,0,0
96058,79730108,0,6851,6800,15.04,5.95,35,4,0,0
96511,79839820,0,6803,6857,15.05,6.01,35,4,0,0
96964,79945923,0,6861,6928,15,6.04,35,5,0,0
97375,80047562,0,6925,6757,15.03,5.44,35,5,0,0
97873,80163933,0,6755,6714,14.96,5.58,35,5,0,0
98320,80269348,0,6715,6757,15.13,5.24,35,5,0,0
98821,80389725,0,6747,6657,15.13,5.12,35,5,0,0
99230,80486515,0,6651,6542,15.07,5.01,35,5,0,0
99724,80605602,0,6555,6685,15.09,4.86,35,6,0,0
100585,80816045,0,6680,6485,15.07,4.9,35,6,0,0
101073,80928628,0,6478,6414,15.16,4.78,35,6,0,0
101521,81038828,0,6420,6485,15.18,4.77,35,6,0,0
101925,81136616,0,6486,6557,15.07,5.01,35,6,0,0
102372,81246640,0,6558,6585,15.15,5.06,35,6,0,0
102828,81358275,0,6576,6471,15.06,5.29,35,7,0,0
103232,81461360,0,6472,6557,15.14,4.67,35,7,0,0
103678,81570124,0,6549,6442,15.15,4.92,35,7,0,0
104125,81684296,0,6443,6457,15.06,4.82,35,7,0,0
104529,81786367,0,6463,6542,15.09,5.21,35,7,0,0
104937,81888917,0,6542,6542,15.2,4.37,35,7,0,0
105388,82004540,0,6521,6314,15.09,4.51,35,7,0,0
105792,82104093,0,6328,6457,15.16,4.53,35,8,0,0
106688,82322534,0,6453,6385,15.16,4.33,35,8,0,0
107133,82430543,0,6374,6271,15.14,4.65,35,8,0,0
107541,82528949,0,6271,6314,15.08,4.57,35,8,0,0
108025,82644860,0,6317,6371,15.16,4.8,35,8,0,0
108473,82754827,0,6371,6371,15.11,4.49,35,8,0,0
108924,82866508,0,6358,6228,15.12,4.6,35,9,0,0
109370,82974275,0,6230,6285,15.06,4.6,35,9,0,0
109816,83086085,0,6294,6385,15.08,4.55,35,9,0,0
110260,83195404,0,6373,6257,15.08,4.32,35,9,0,0
110708,83300150,0,6245,6071,15.16,4.05,35,9,0,0
111112,83403634,0,6072,6171,15.14,4.03,35,9,0,0
111604,83519049,0,6166,6114,15.14,4.07,35,9,0,0
112007,83620894,0,6115,6157,15.1,4.39,35,10,0,0
112464,83732379,0,6153,6085,15.11,3.83,35,10,0,0
112911,83841664,0,6082,6057,15.18,3.93,35,10,0,0
113800,84057287,0,6058,6100,15.1,4.05,36,10,0,0
114212,84163340,0,6102,6142,15.13,4.11,36,10,0,0
114654,84273590,0,6142,6142,15.19,4.57,35,10,0,0
115147,84393397,0,6149,6200,15.12,4.5,36,10,0,0
115588,84494288,0,6201,6228,15.25,4.06,35,10,0,0
116003,84606360,0,6210,6042,15.18,5.29,36,11,0,0
116452,84715531,0,6047,6100,15.13,4.38,36,11,0,0
116855,84818382,0,6097,6042,15.07,4.46,36,11,0,0
117343,84933827,0,6054,6185,15.08,4.05,36,11,0,0
117751,85037426,0,6181,5957,15.1,3.86,36,11,0,0
118236,85153411,0,5960,6000,15.17,4.01,36,11,0,0
118640,85257437,0,6005,6142,15.07,3.96,36,11,0,0
119089,85366635,0,6138,5900,15.14,3.92,36,11,0,0
119536,85476357,0,5902,6042,15.14,4.04,36,12,0,0
119981,85586373,0,6045,6185,15.08,3.99,36,12,0,0
120427,85692962,0,6178,5971,15.12,4.29,36,12,0,0
120917,85811517,0,5987,6228,15.08,4.74,36,12,0,0
121326,85912925,0,6231,6300,15.08,4.62,36,12,0,0
121769,86023355,0,6305,6385,15.11,4.72,36,12,0,0
122177,86127259,0,6381,6242,15.08,4.24,36,12,0,0
122637,86246579,0,6248,6314,15.07,4.51,36,13,0,0
123045,86347346,0,6313,6300,15.03,4.94,36,13,0,0
123488,86455793,0,6308,6471,15.07,4.7,36,13,0,0
123934,86561703,0,6469,6400,15.09,4.94,36,13,0,0
124382,86674886,0,6408,6585,15.06,5.25,36,13,0,0
124839,86786426,0,6589,6657,15.02,5.17,36,13,0,0
125283,86896056,0,6640,6471,15,4.91,36,13,0,0
125689,87002971,0,6482,6600,15.1,4.97,36,14,0,0
126136,87109421,0,6599,6585,15.05,4.99,36,14,0,0
126578,87218410,0,6565,6371,14.95,5.44,36,14,0,0
127026,87325353,0,6377,6557,14.92,5.22,36,14,0,0
127432,87428915,0,6557,6571,15.08,4.78,36,14,0,0
127960,87550435,0,6567,6528,15.16,4.61,36,14,0,0
128361,87650821,0,6515,6271,15,4.74,36,14,0,0
128812,87760908,0,6288,6514,15.01,4.55,36,15,0,0
129255,87867621,0,6507,6414,15.05,4.77,36,15,0,0
129708,87979804,0,6416,6442,15.09,4.88,36,15,0,0
130593,88201657,0,6443,6471,15.14,4.76,36,15,0,0
131002,88295260,0,6465,6342,15.17,5.56,36,15,0,0
131521,88416972,0,6361,6542,14.85,6.23,37,16,0,0
131933,88517499,0,6549,6657,15.11,5.32,36,16,0,0
132374,88627143,0,6629,6371,14.92,5.19,36,16,0,0
132783,88728358,0,6362,6185,15,6.13,36,16,0,0
133228,88840608,0,6203,6471,14.98,5.91,36,16,0,0
133677,88953565,0,6443,6214,15.04,4.39,36,16,0,0
134165,89069263,0,6236,6485,14.98,6.77,36,17,0,0
134571,89163083,0,6482,6328,15.04,5.31,37,17,0,0
135017,89273160,0,6330,6357,14.64,6.22,36,17,0,0
135458,89385116,0,6374,6514,14.7,7.36,37,17,0,0
135866,89482340,0,6510,6257,14.76,6.71,36,17,0,0
136350,89604613,0,6264,6328,14.93,6.26,37,18,0,0
136797,89713896,0,6326,6314,14.63,7.01,37,18,0,0
138495,90130942,0,6314,6428,15.09,4.59,37,18,0,0
138948,90245119,0,6421,6357,14.97,4.84,37,19,0,0
139402,90351853,0,6369,6514,15.11,4.77,37,19,0,0
139851,90469094,0,6489,6214,15.02,5.57,37,19,0,0
140256,90566354,0,6223,6442,14.97,6.52,37,19,0,0
140703,90678591,0,6442,6442,14.97,5.04,37,19,0,0
141596,90897077,0,6443,6671,15.01,4.81,37,20,0,0
142090,91016068,0,6649,6428,15.01,4.82,37,20,0,0
142502,91117707,0,6434,6500,15.04,5.12,37,20,0,0
142947,91229905,0,6505,6557,15,5.75,37,20,0,0
143360,91331410,0,6544,6428,15.01,4.76,37,20,0,0
143796,91436498,0,6429,6485,14.97,4.55,37,20,0,0
144292,91556016,0,6492,6585,14.98,4.87,37,20,0,0
145185,91774295,0,6583,6557,14.94,4.94,37,21,0,0
146036,91984511,0,6552,6357,15.06,4.47,37,21,0,0
146479,92092132,0,6347,6142,15.09,3.7,37,21,0,0
146920,92203090,0,6149,6271,15,4.67,37,21,0,0
147333,92307926,0,6271,6271,14.97,4.29,37,21,0,0
147777,92416366,0,6267,6114,15.02,4.14,37,22,0,0
148233,92529915,0,6116,6157,15,5.03,37,22,0,0
148682,92643598,0,6163,6228,14.99,4.84,37,22,0,0
149129,92749704,0,6234,6328,14.98,4.58,37,22,0,0
149571,92857391,0,6326,6300,14.98,4.64,37,22,0,0
150022,92970376,0,6297,6271,15.08,4.18,37,22,0,0
150422,93071584,0,6269,6185,15.05,4.54,37,22,0,0
150868,93178133,0,6187,6285,15.05,4.59,37,22,0,0
151321,93288590,0,6285,6300,15.03,4.51,37,23,0,0
152218,93509920,0,6303,6442,15.07,5.13,37,23,0,0
152696,93624350,0,6436,6357,15.01,4.53,37,23,0,0
153147,93735086,0,6337,6057,15.03,3.39,37,23,0,0
153551,93837383,0,6054,5900,14.98,3.85,37,23,0,0
154036,93948113,0,5915,6242,15.01,4.79,38,23,0,0
154491,94062035,0,6260,6457,15.01,5.23,38,23,0,0
154939,94174060,0,6458,6485,14.97,5.73,38,24,0,0
155387,94281462,0,6496,6642,14.98,5.5,38,24,0,0
155837,94388947,0,6649,6885,14.82,5.49,38,24,0,0
156283,94503369,0,6870,6571,14.83,5.93,38,24,0,0
156729,94616115,0,6570,6542,14.86,6.08,37,24,0,0
157180,94724201,0,6542,6542,14.77,6.72,37,25,0,0
157660,94838107,0,6557,6700,14.81,6.51,37,25,0,0
158106,94946401,0,6707,6785,14.94,5.08,38,25,0,0
158552,95056616,0,6757,6342,14.91,4.73,38,25,0,0
159401,95265026,0,6343,6500,15,4.91,38,25,0,0
159896,95382058,0,6494,6414,15.01,4.56,38,26,0,0
161191,95702591,0,6411,6200,14.97,4.67,38,26,0,0
161674,95817533,0,6201,6214,15.04,4.33,38,26,0,0
162082,95918402,0,6210,5957,14.97,3.77,38,26,0,0
162529,96031328,0,5953,5857,14.98,3.62,38,26,0,0
163017,96148329,0,5851,5800,15.04,4.01,38,26,0,0
163462,96264641,0,5801,5814,15.05,3.88,38,27,0,0
163870,96362153,0,5818,5914,15.02,3.6,38,27,0,0
164317,96475055,0,5912,5728,15.06,3.51,38,27,0,0
164768,96584932,0,5731,5814,15.06,3.63,38,27,0,0
165254,96707076,0,5818,5871,15.07,3.64,38,27,0,0
165655,96808687,0,5872,5885,14.94,3.57,38,27,0,0
166107,96919954,0,5878,5828,14.95,4.07,38,27,0,0
166550,97027940,0,5853,6057,14.99,4.03,38,27,0,0
167000,97132593,0,6063,6157,15.02,4.06,38,28,0,0
167446,97246412,0,6161,6200,14.98,4.42,38,28,0,0
168301,97458385,0,6211,6500,15.07,4.36,38,28,0,0
168750,97566323,0,6473,6114,15.16,3.54,38,28,0,0
169195,97677345,0,6099,5928,15.02,4.84,38,28,0,0
169644,97785952,0,5913,5742,14.72,6.32,38,28,0,0
170084,97892374,0,5778,6342,14.96,4.85,38,29,0,0
170532,97998394,0,6338,6057,15.08,3.5,38,29,0,0
171019,98119511,0,6039,5842,15.07,3.25,38,29,0,0
171913,98336353,0,5833,5585,15.03,3.07,38,29,0,0
172315,98438338,0,5586,5642,14.91,3.45,38,29,0,0
172812,98557800,0,5653,5771,15.01,3.57,38,29,0,0
173245,98658330,0,5771,5785,15.02,3.59,38,29,0,0
173701,98771001,0,5795,5900,15.01,3.88,38,29,0,0
174147,98877583,0,5907,6100,14.97,3.98,38,29,0,0
174591,98986191,0,6111,6357,14.89,4.73,38,30,0,0
175080,99103654,0,6367,6471,14.94,4.95,38,30,0,0
175526,99213069,0,6449,6228,14.92,4.35,38,30,0,0
175977,99325891,0,6228,6228,14.89,4.48,38,30,0,0
176380,99427322,0,6247,6514,14.83,4.61,38,30,0,0
177282,99648320,0,6507,6185,14.93,4.75,38,30,0,0
177729,99754348,0,6181,6014,14.96,3.53,38,31,0,0
178213,99872418,0,6010,5971,14.93,3.94,38,31,0,0
178621,99971150,0,5976,6271,14.95,4.34,38,31,0,0
179103,100085499,0,6267,6200,14.92,4.32,38,31,0,0
179553,100190616,0,6204,6300,14.95,4.91,38,31,0,0
179998,100304317,0,6294,6214,14.98,4.44,38,31,0,0
180410,100407270,0,6214,6242,15.01,4.56,38,31,0,0
180858,100520612,0,6222,6042,15.01,4.25,38,32,0,0
181297,100627060,0,6059,6300,14.95,4.74,38,32,0,0
181746,100735353,0,6296,6214,14.97,4.34,38,32,0,0
182190,100845101,0,6217,6300,14.99,4.37,38,32,0,0
182638,100950409,0,6296,6157,14.98,4.58,38,32,0,0
183083,101060577,0,6166,6371,14.95,4.71,38,32,0,0
183535,101170359,0,6370,6357,14.92,4.55,38,32,0,0
183984,101282390,0,6348,6257,15.03,4.21,38,33,0,0
184469,101394951,0,6244,6114,15.02,4.33,38,33,0,0
184915,101506387,0,6123,6214,14.95,4.69,38,33,0,0
185761,101713896,0,6214,6257,14.98,4.57,38,33,0,0
186171,101819546,0,6256,6228,15,4.26,38,33,0,0
186661,101937648,0,6219,6128,15,4.28,38,33,0,0
187066,102040045,0,6129,6171,14.88,4.73,38,33,0,0
187512,102146579,0,6168,6114,14.98,4.47,38,34,0,0
187959,102257573,0,6115,6157,14.94,4.35,38,34,0,0
188367,102358439,0,6154,6000,14.88,4.08,38,34,0,0
188857,102481537,0,6002,6028,15.02,4.45,38,34,0,0
189305,102588848,0,6054,6314,15.03,4.42,38,34,0,0
189746,102698115,0,6313,6300,15.01,4.43,38,34,0,0
190193,102809382,0,6287,6114,14.99,3.94,38,34,0,0
190599,102907665,0,6110,6057,15.01,4.78,38,35,0,0
191047,103021662,0,6076,6271,15.03,4.6,38,35,0,0
191454,103123545,0,6269,6214,14.89,4.28,38,35,0,0
191904,103236042,0,6205,6085,15.03,4.05,38,35,0,0
192311,103335656,0,6084,6057,15,3.96,38,35,0,0
192795,103454340,0,6066,6171,15.01,4.39,38,35,0,0
193244,103563877,0,6176,6228,15.01,4.1,38,35,0,0
193690,103673847,0,6224,6185,14.98,3.93,38,35,0,0
194132,103782977,0,6182,6157,14.98,4.06,38,36,0,0
194540,103885613,0,6157,6157,14.98,4.33,38,36,0,0
195028,104009637,0,6151,6100,15.01,4.01,38,36,0,0
195439,104110826,0,6102,6128,14.94,4.19,38,36,0,0
196773,104447541,0,6133,6242,14.89,4.6,38,36,0,0
197625,104652057,0,6241,6200,14.96,4.02,38,37,0,0
198066,104763413,0,6201,6328,14.96,4.48,38,37,0,0
198551,104878888,0,6329,6342,14.97,4.68,38,37,0,0
198995,104991374,0,6334,6271,14.96,4.73,38,37,0,0
199401,105086569,0,6269,6185,14.92,4.43,38,37,0,0
199840,105197127,0,6189,6414,14.91,4.83,38,37,0,0
200291,105311045,0,6402,6314,14.98,4.41,38,37,0,0
200735,105421882,0,6297,6157,14.86,4.21,38,38,0,0
201188,105530564,0,6177,6385,14.85,4.59,38,38,0,0
202071,105747895,0,6382,6314,14.88,4.83,38,38,0,0
202473,105851840,0,6319,6457,14.87,4.67,38,38,0,0
202959,105963035,0,6429,6242,14.86,4.71,38,38,0,0
203363,106065602,0,6251,6514,14.91,4.74,38,38,0,0
203850,106178644,0,6504,6414,14.87,4.39,38,39,0,0
204249,106280581,0,6422,6500,14.82,4.67,38,39,0,0
204704,106391245,0,6485,6300,14.86,4.58,38,39,0,0
205146,106502093,0,6289,6185,14.79,4.55,38,39,0,0
205594,106615607,0,6195,6314,14.81,4.83,38,39,0,0
206003,106716923,0,6309,6228,14.87,4.2,38,39,0,0
206406,106821402,0,6239,6442,14.79,5.18,38,39,0,0
206861,106931625,0,6442,6457,14.87,4.51,38,39,0,0
207304,107042611,0,6455,6428,14.76,4.71,38,40,0,0
207753,107149321,0,6431,6514,14.87,4.9,38,40,0,0
208199,107258814,0,6512,6385,14.78,4.49,38,40,0,0
208690,107375392,0,6400,6557,14.8,4.98,38,40,0,0
209137,107488558,0,6554,6528,14.82,5.1,39,40,0,0
209540,107587941,0,6527,6500,14.77,5.01,38,40,0,0
210027,107706529,0,6494,6371,14.83,5.06,38,41,0,0
210433,107811433,0,6370,6357,14.88,4.15,38,41,0,0
210882,107921895,0,6356,6342,14.8,4.71,38,41,0,0
211322,108030371,0,6344,6400,14.83,4.98,38,41,0,0
211816,108148649,0,6400,6400,14.88,4.47,38,41,0,0
212216,108246592,0,6400,6428,14.88,5.01,38,41,0,0
212705,108362582,0,6415,6242,14.85,3.61,38,41,0,0
213149,108474566,0,6240,6228,14.88,4.65,38,42,0,0
213595,108581372,0,6254,6628,14.89,4.72,38,42,0,0
214038,108689556,0,6626,6600,14.92,5.06,38,42,0,0
214495,108808643,0,6591,6500,14.98,4.62,38,42,0,0
214889,108901357,0,6486,6228,14.98,4.11,38,42,0,0
215329,109009261,0,6224,6085,14.89,4.14,38,42,0,0
215789,109123592,0,6079,6000,14.95,4.12,39,42,0,0
216228,109232333,0,6010,6157,14.83,4.34,39,42,0,0
216641,109335341,0,6146,5928,14.93,3.86,39,43,0,0
217117,109446342,0,5937,6114,14.99,3.96,38,43,0,0
217569,109559623,0,6120,6185,14.94,4.32,38,43,0,0
217974,109664034,0,6193,6300,14.92,5.08,39,43,0,0
218422,109773662,0,6295,6242,14.93,4.48,39,43,0,0
218869,109886387,0,6248,6328,14.95,4.38,39,43,0,0
219270,109986417,0,6327,6271,14.98,4.38,38,43,0,0
220165,110208951,0,6278,6428,14.83,4.68,39,44,0,0
220616,110317322,0,6419,6328,14.79,4.87,38,44,0,0
221505,110534089,0,6337,6600,14.84,4.66,38,44,0,0
221949,110645002,0,6585,6442,14.84,4.62,38,44,0,0
222355,110745114,0,6441,6400,14.89,4.1,39,44,0,0
222838,110859372,0,6420,6628,14.7,5.75,39,44,0,0
223241,110959586,0,6627,6600,14.79,4.96,38,45,0,0
223689,111072962,0,6592,6514,14.85,4.63,39,45,0,0
224099,111175038,0,6515,6542,14.85,5.1,38,45,0,0
224542,111285361,0,6547,6600,14.86,5.03,38,45,0,0
224952,111394977,0,6601,6614,14.88,5.08,38,45,0,0
225395,111499562,0,6616,6657,14.9,5.41,38,45,0,0
225845,111614126,0,6659,6714,14.99,4.74,38,46,0,0
226253,111717028,0,6660,6185,14.86,3.76,38,46,0,0
226694,111827038,0,6191,6257,14.86,4.49,39,46,0,0
227098,111929890,0,6270,6514,14.94,5.29,39,46,0,0
227546,112038401,0,6509,6357,14.62,5.9,39,46,0,0
227996,112147569,0,6350,6228,15.04,5.8,38,46,0,0
228436,112257216,0,6213,5942,14.31,7,39,46,0,0
228883,112364648,0,5968,6457,14.81,6.16,39,47,0,0
229332,112478112,0,6436,6228,14.85,4.84,38,47,0,0
229740,112579642,0,6223,6142,14.91,4.07,38,47,0,0
230188,112692364,0,6150,6242,14.87,4.61,39,47,0,0
230666,112808634,0,6229,6057,14.85,3.64,38,47,0,0
231112,112914833,0,6060,6100,14.91,4.39,39,47,0,0
231516,113020942,0,6103,6171,14.82,4.89,39,47,0,0
231969,113131868,0,6162,6085,14.91,4.6,39,48,0,0
232409,113240811,0,6104,6300,14.83,5.09,39,48,0,0
232856,113347510,0,6306,6400,14.79,5.53,39,48,0,0
233262,113453947,0,6400,6414,14.79,5.11,39,48,0,0
233710,113561657,0,6417,6471,14.86,4.7,39,48,0,0
234160,113676707,0,6471,6471,14.81,4.78,39,48,0,0
234604,113785753,0,6454,6271,14.86,4.26,39,49,0,0
235050,113895336,0,6282,6400,14.76,4.94,39,49,0,0
235494,114004289,0,6393,6328,14.81,4.73,39,49,0,0
236347,114214294,0,6329,6371,14.83,4.65,39,49,0,0
236758,114318399,0,6370,6357,14.8,4.53,39,49,0,0
237202,114431076,0,6349,6271,14.8,4.22,39,49,0,0
237609,114531710,0,6268,6114,14.86,3.98,39,49,0,0
238090,114645565,0,6112,6085,14.91,4.15,39,50,0,0
238542,114757585,0,6095,6242,14.83,4.3,39,50,0,0
238983,114868851,0,6236,6157,14.83,4.06,39,50,0,0
239472,114986645,0,6145,6042,14.82,4.15,39,50,0,0
239874,115085802,0,6046,6100,14.83,4.13,39,50,0,0
240320,115199595,0,6097,6057,14.83,4.02,39,50,0,0
240775,115317815,0,6061,6085,14.83,3.91,39,50,0,0
241178,115413428,0,6087,6142,14.83,4.17,39,50,0,0
241624,115518320,0,6142,6171,14.86,4.08,39,51,0,0
242069,115632401,0,6166,6128,14.85,4.26,39,51,0,0
242516,115737905,0,6126,6042,14.85,4.52,39,51,0,0
242961,115850625,0,6058,6257,14.8,4.45,39,51,0,0
243813,116059358,0,6257,6300,14.82,4.66,39,51,0,0
244300,116177793,0,6302,6328,14.85,4.36,39,51,0,0
244705,116277420,0,6327,6314,14.85,4.74,39,52,0,0
245195,116402066,0,6323,6385,14.83,4.12,39,52,0,0
245600,116496831,0,6382,6257,14.84,4.59,39,52,0,0
246078,116610943,0,6269,6485,14.76,4.7,39,52,0,0
246525,116718634,0,6454,6228,14.84,4.11,39,52,0,0
246968,116828852,0,6219,6157,14.8,3.8,39,52,0,0
247378,116923582,0,6155,6071,14.83,4.18,39,52,0,0
247863,117045549,0,6064,5971,14.89,3.62,39,52,0,0
248270,117145922,0,5979,6071,14.83,3.78,39,53,0,0
248707,117255499,0,6068,5885,14.89,3.52,39,53,0,0
249196,117373934,0,5880,5828,14.95,3.26,39,53,0,0
249606,117482116,0,5803,5585,14.87,3.32,39,53,0,0
250016,117585026,0,5579,5485,14.89,2.83,39,53,0,0
250490,117695544,0,5495,5600,14.91,3.32,39,53,0,0
250931,117804427,0,5604,5700,14.85,3.85,39,53,0,0
251381,117915625,0,5715,5857,14.82,3.64,39,53,0,0
251786,118017319,0,5857,5900,14.91,3.66,39,53,0,0
252277,118134915,0,5883,5685,14.91,3.42,39,53,0,0
252686,118241838,0,5683,5671,14.9,3.24,39,54,0,0
253141,118357667,0,5684,5828,14.92,3.8,39,54,0,0
253547,118463804,0,5819,5728,14.91,3.14,39,54,0,0
254398,118672536,0,5728,5771,14.95,3.68,39,54,0,0
254887,118788342,0,5769,5742,14.92,3.3,39,54,0,0
255288,118889307,0,5741,5728,14.94,3.4,39,54,0,0
255735,119000812,0,5719,5614,14.92,3.09,39,54,0,0
256185,119110396,0,5602,5457,14.84,2.79,39,54,0,0
256626,119218555,0,5469,5642,14.89,3.23,39,55,0,0
257514,119437630,0,5644,5700,14.86,3.59,39,55,0,0
257926,119540388,0,5701,5728,14.91,3.28,39,55,0,0
258378,119653622,0,5738,5857,14.78,4.36,39,55,0,0
258823,119760608,0,5873,6200,14.85,4.66,39,55,0,0
259271,119873383,0,6215,6385,14.82,4.71,39,55,0,0
259718,119986833,0,6374,6271,14.76,5.68,39,55,0,0
260164,120090410,0,6325,6714,14.71,5.84,39,56,0,0
260605,120194356,0,6718,6800,14.75,5.75,39,56,0,0
261052,120304580,0,6784,6614,14.72,6.17,39,56,0,0
261455,120407296,0,6618,6700,14.79,5.63,39,56,0,0
261910,120520555,0,6706,6771,14.8,5.82,39,56,0,0
262315,120623316,0,6761,6642,14.83,5.09,39,56,0,0
262769,120736293,0,6627,6471,14.69,4.98,39,57,0,0
263210,120843598,0,6472,6485,14.72,5.08,39,57,0,0
263694,120955908,0,6483,6471,14.7,4.7,39,57,0,0
264096,121054283,0,6465,6357,14.76,4.55,39,57,0,0
264550,121164592,0,6368,6542,14.78,4.47,39,57,0,0
265441,121379303,0,6541,6428,14.83,4.89,39,57,0,0
265888,121493551,0,6431,6471,14.8,4.8,39,58,0,0
266336,121604824,0,6437,6142,14.8,4.25,39,58,0,0
266784,121713882,0,6158,6314,14.73,4.75,39,58,0,0
267186,121817340,0,6319,6428,14.81,4.86,39,58,0,0
267639,121926814,0,6430,6471,14.79,5.28,39,58,0,0
268085,122038595,0,6475,6571,14.85,4.92,39,58,0,0
268532,122145923,0,6568,6471,14.83,4.92,39,58,0,0
268943,122255559,0,6473,6557,14.82,5.14,39,59,0,0
269397,122369587,0,6556,6542,14.78,5.17,39,59,0,0
270257,122591102,0,6548,6642,14.8,4.89,39,59,0,0
270658,122690591,0,6642,6685,14.79,4.94,39,59,0,0
271102,122801301,0,6676,6485,14.87,4.86,39,59,0,0
271554,122911639,0,6492,6571,14.73,4.95,39,59,0,0
271959,123014372,0,6568,6514,14.83,4.8,39,60,0,0
272407,123122642,0,6511,6357,14.76,4.68,39,60,0,0
272852,123233871,0,6360,6414,14.82,4.98,39,60,0,0
273305,123345307,0,6405,6285,14.8,4.84,39,60,0,0
273709,123448281,0,6296,6442,14.77,4.8,39,60,0,0
274160,123558595,0,6442,6457,14.83,5.14,39,60,0,0
274602,123668394,0,6461,6514,14.81,4.61,39,61,0,0
275412,123872429,0,6514,6514,14.83,4.76,39,61,0,0
276338,124095806,0,6514,6514,14.77,5.07,39,61,0,0
276776,124202041,0,6513,6471,14.68,5.33,39,61,0,0
277227,124313605,0,6471,6471,14.79,4.81,39,61,0,0
277633,124418941,0,6466,6242,14.86,4.53,39,62,0,0
278122,124531543,0,6243,6285,14.86,4.17,39,62,0,0
278569,124643622,0,6270,6114,14.82,4.3,39,62,0,0
279016,124752912,0,6102,5985,14.83,4.17,39,62,0,0
279455,124860144,0,5985,5985,14.91,3.91,39,62,0,0
279865,124961122,0,5979,5857,14.93,3.63,39,62,0,0
280306,125068804,0,5854,5742,14.98,3.3,39,62,0,0
280795,125185595,0,5736,5657,14.95,3.15,39,62,0,0
281197,125287596,0,5657,5671,14.95,3.55,39,63,0,0
281644,125399432,0,5674,5757,14.92,4.11,39,63,0,0
282097,125508359,0,5777,6071,14.75,4.45,39,63,0,0
282545,125622219,0,6081,6185,14.82,4.8,39,63,0,0
282992,125730823,0,6197,6328,14.9,4.63,39,63,0,0
283394,125832791,0,6331,6414,14.83,4.85,39,63,0,0
283843,125940186,0,6413,6400,14.73,5.09,39,63,0,0
284286,126047508,0,6403,6500,14.8,5.47,39,64,0,0
286069,126484028,0,6496,6285,14.91,4.85,39,64,0,0
286519,126597389,0,6273,6142,14.9,4.57,39,64,0,0
287886,126931503,0,6144,6285,14.82,4.94,39,65,0,0
288295,127031539,0,6283,6271,14.88,4.89,39,65,0,0
288744,127143831,0,6273,6300,14.9,4.31,39,65,0,0
289628,127363386,0,6300,6328,14.79,4.6,39,65,0,0
290077,127473201,0,6328,6342,14.76,5.03,39,65,0,0
290527,127580113,0,6344,6400,14.75,5.05,39,66,0,0
290975,127694922,0,6392,6314,14.72,4.97,39,66,0,0
291416,127802058,0,6319,6385,14.72,4.89,39,66,0,0
291864,127911564,0,6387,6414,14.86,4.47,39,66,0,0
292717,128120572,0,6408,6171,14.8,4.65,39,66,0,0
293164,128233543,0,6175,6242,14.82,4.58,39,66,0,0
293569,128335143,0,6243,6271,14.88,4.5,39,66,0,0
293976,128439648,0,6271,6314,14.6,4.43,39,67,0,0
294468,128556349,0,6275,5914,14.85,4.82,39,67,0,0
294873,128658368,0,5908,5800,14.89,4.5,39,67,0,0
295364,128776423,0,5828,6071,14.83,4.44,39,67,0,0
295763,128877059,0,6074,6142,14.88,4.5,39,67,0,0
296214,128982106,0,6144,6257,14.88,4.6,39,67,0,0
296660,129099047,0,6254,6228,14.89,4.56,39,67,0,0
297110,129211725,0,6224,6185,14.79,4.77,39,68,0,0
297510,129307029,0,6187,6314,14.88,4.92,39,68,0,0
297987,129417870,0,6318,6400,14.82,5.06,39,68,0,0
298480,129535857,0,6392,6314,14.84,4.56,39,68,0,0
298921,129643125,0,6330,6571,14.84,5.06,39,68,0,0
299373,129752416,0,6567,6528,14.87,4.97,39,68,0,0
299772,129853641,0,6524,6371,14.86,5.62,39,69,0,0
300222,129962406,0,6364,6100,14.72,6.41,39,69,0,0
300677,130079369,0,6113,6314,14.54,5.99,40,69,0,0
301524,130290718,0,6311,6114,14.84,4.68,39,69,0,0
302006,130406590,0,6122,6242,14.8,3.95,39,69,0,0
302457,130515617,0,6227,6085,14.85,4.31,39,69,0,0
302902,130626045,0,6088,6128,14.87,4.54,39,70,0,0
303354,130732899,0,6139,6257,14.86,4.49,39,70,0,0
303790,130838303,0,6240,6014,14.87,4.08,39,70,0,0
304238,130946082,0,6017,6142,14.74,4.11,39,70,0,0
304692,131062403,0,6123,5942,14.86,3.81,39,70,0,0
305180,131178601,0,5939,5914,14.87,3.88,40,70,0,0
305578,131278438,0,5916,5942,14.82,4.09,40,70,0,0
306023,131385567,0,5960,6228,14.78,5.01,40,70,0,0
306471,131498392,0,6241,6385,14.86,4.8,40,71,0,0
306877,131603932,0,6382,6228,14.86,4.54,39,71,0,0
307364,131717284,0,6230,6271,14.88,4.06,39,71,0,0
307765,131821545,0,6258,6100,14.8,3.66,40,71,0,0
308217,131931896,0,6101,6142,14.71,4.58,40,71,0,0
308695,132044854,0,6151,6357,14.83,4.79,40,71,0,0
309147,132157409,0,6353,6300,14.8,4.92,40,71,0,0
309592,132272005,0,6311,6457,14.75,5.1,40,72,0,0
310076,132386586,0,6463,6500,14.8,4.88,40,72,0,0
310485,132484384,0,6494,6371,14.79,4.62,39,72,0,0
311377,132704267,0,6374,6485,14.75,4.75,40,72,0,0
311825,132822429,0,6466,6300,14.84,4.8,40,72,0,0
312276,132934714,0,6307,6357,14.75,4.88,40,72,0,0
312685,133034908,0,6362,6500,14.73,4.98,40,73,0,0
313171,133151523,0,6477,6271,14.8,4.71,40,73,0,0
313574,133257890,0,6266,6228,14.81,4.36,40,73,0,0
314467,133475607,0,6234,6357,14.78,4.78,40,73,0,0
315356,133698593,0,6355,6300,14.8,4.45,40,73,0,0
315723,133789908,0,6299,6257,14.75,5,40,74,0,0
316209,133908804,0,6273,6414,14.79,4.48,40,74,0,0
316653,134019551,0,6423,6500,14.77,4.86,40,74,0,0
317057,134117393,0,6495,6400,14.77,4.62,39,74,0,0
317499,134223098,0,6399,6385,14.82,4.25,40,74,0,0
318389,134442521,0,6383,6171,14.81,4.98,39,75,0,0
318876,134557593,0,6189,6342,14.74,4.88,40,75,0,0
319280,134660106,0,6333,6228,14.73,4.64,39,75,0,0
320619,134983084,0,6229,6342,14.79,4.65,40,75,0,0
321066,135097337,0,6346,6400,14.82,4.56,39,75,0,0
321511,135207901,0,6388,6242,14.85,4.51,40,75,0,0
321958,135314526,0,6253,6400,14.89,4.78,40,76,0,0
322410,135430351,0,6401,6414,14.86,4.69,40,76,0,0
322815,135527588,0,6408,6314,14.79,4.86,40,76,0,0
323216,135626565,0,6315,6400,14.83,4.62,40,76,0,0
323742,135749291,0,6389,6271,14.88,4.62,40,76,0,0
324149,135854526,0,6271,6271,14.82,5,40,76,0,0
324598,135964975,0,6282,6400,14.83,4.62,40,76,0,0
325003,136069254,0,6400,6400,14.82,5.25,40,77,0,0
325456,136177846,0,6399,6385,14.77,4.63,39,77,0,0
325902,136291647,0,6386,6400,14.82,4.93,40,77,0,0
326310,136395456,0,6396,6214,14.86,4.39,40,77,0,0
326754,136499957,0,6214,6257,14.74,4.77,40,77,0,0
327235,136612108,0,6265,6385,14.82,4.55,40,77,0,0
328088,136827503,0,6382,6114,14.79,4.14,40,78,0,0
328533,136935530,0,6120,6414,14.78,4.93,40,78,0,0
328975,137044013,0,6414,6457,14.8,4.54,40,78,0,0
329419,137151601,0,6460,6614,14.8,5.06,40,78,0,0
329875,137269254,0,6593,6385,14.83,4.93,40,78,0,0
330324,137377910,0,6404,6600,14.79,4.95,40,78,0,0
330730,137481340,0,6585,6385,14.74,5.39,40,78,0,0
331176,137596506,0,6378,6314,14.71,5.49,40,79,0,0
331621,137701631,0,6323,6457,14.77,5.88,40,79,0,0
332066,137815272,0,6441,6285,14.64,5.77,40,79,0,0
332471,137913903,0,6285,6285,14.61,7.01,39,79,0,0
332956,138033508,0,6298,6442,14.75,5.97,40,79,0,0
333360,138132288,0,6439,6300,14.77,6.15,40,80,0,0
333808,138245548,0,6294,6157,14.4,6.24,40,80,0,0
334256,138353602,0,6161,6257,14.63,7.53,40,80,0,0
334703,138464636,0,6257,6257,14.64,5.72,40,80,0,0
335593,138679633,0,6257,6271,14.81,4.37,40,80,0,0
336039,138785844,0,6280,6414,14.79,4.7,40,80,0,0
336488,138899958,0,6406,6300,14.76,4.8,40,81,0,0
336905,139009570,0,6304,6357,14.86,4.63,40,81,0,0
337350,139115635,0,6354,6328,14.73,4.8,40,81,0,0
337797,139227664,0,6321,6228,14.8,4.44,40,81,0,0
338199,139328586,0,6245,6557,14.8,4.86,40,81,0,0
338658,139445330,0,6545,6428,14.89,4.32,40,81,0,0
339107,139551359,0,6419,6300,14.68,4.78,40,81,0,0
339511,139655021,0,6300,6314,14.87,4.39,40,82,0,0
339997,139769846,0,6309,6271,14.72,4.9,40,82,0,0
340441,139881356,0,6273,6300,14.84,4.46,40,82,0,0
340886,139991786,0,6297,6271,14.8,4.44,40,82,0,0
341328,140093520,0,6273,6328,14.77,4.77,40,82,0,0
341734,140198646,0,6324,6257,14.78,4.64,40,82,0,0
342180,140305032,0,6260,6457,14.8,4.53,40,82,0,0
342667,140419532,0,6441,6285,14.79,4.64,40,83,0,0
343118,140528240,0,6290,6385,14.85,4.66,40,83,0,0
343565,140642094,0,6383,6357,14.86,4.42,40,83,0,0
343967,140742301,0,6358,6457,14.69,5.47,40,83,0,0
344412,140854523,0,6455,6414,14.59,5.51,40,83,0,0
344861,140961253,0,6415,6457,14.76,5.31,40,83,0,0
345302,141068845,0,6461,6571,14.7,4.66,40,84,0,0
345796,141188420,0,6562,6471,14.78,5.12,40,84,0,0
346232,141293084,0,6471,6485,14.82,4.72,40,84,0,0
346681,141412618,0,6476,6400,14.83,4.36,40,84,0,0
347092,141512627,0,6391,6214,14.82,4.35,40,84,0,0
347542,141624059,0,6217,6271,14.81,4.6,40,84,0,0
347992,141735053,0,6264,6171,14.83,4.54,40,84,0,0
348442,141848548,0,6194,6442,14.8,5.04,40,85,0,0
348884,141959108,0,6442,6442,14.89,4.46,40,85,0,0
349328,142075096,0,6420,6214,14.69,4.75,40,85,0,0
349778,142182592,0,6189,6042,14.91,5.53,40,85,0,0
350177,142279058,0,6042,6100,14.69,5.87,40,85,0,0
350627,142390113,0,6105,6214,14.69,4.95,40,85,0,0
351074,142502900,0,6206,6142,14.68,5.39,40,85,0,0
351517,142610387,0,6145,6214,14.66,4.71,40,86,0,0
351965,142723373,0,6218,6257,14.88,4.86,40,86,0,0
352373,142824976,0,6256,6242,14.75,4.41,40,86,0,0
352818,142937042,0,6238,6200,14.82,3.91,40,86,0,0
353225,143044665,0,6194,6142,14.76,4.12,40,86,0,0
354113,143261809,0,6143,6214,14.85,4.06,40,86,0,0
355002,143475571,0,6213,6185,14.74,4.39,40,87,0,0
355411,143586651,0,6202,6371,14.82,4.38,40,87,0,0
355823,143688024,0,6377,6514,14.75,4.88,40,87,0,0
357197,144025940,0,6514,6514,14.72,5.27,40,87,0,0
357601,144123461,0,6510,6442,14.86,4.48,40,88,0,0
358043,144234140,0,6445,6500,14.8,4.61,40,88,0,0
358490,144342648,0,6493,6357,14.69,4.89,40,88,0,0
358893,144446316,0,6359,6471,14.88,4.81,40,88,0,0
360235,144774552,0,6463,6157,14.77,6.47,41,88,0,0
361160,144998340,0,6159,6228,14.61,5.29,40,89,0,0
361569,145101724,0,6175,5671,14.75,6.15,40,89,0,0
362010,145209215,0,5691,5914,14.65,6.98,40,89,0,0
362465,145319568,0,5949,6300,14.75,5.75,40,89,0,0
362867,145420977,0,6286,6114,14.89,4.01,40,89,0,0
363312,145526841,0,6110,5914,14.87,6.14,40,90,0,0
363797,145644360,0,5917,6014,14.55,6.88,41,90,0,0
364242,145751374,0,6001,5885,14.61,7.06,40,90,0,0
364651,145857404,0,5880,5828,14.86,5.42,40,90,0,0
365100,145965418,0,5856,6157,14.72,6.73,41,90,0,0
365500,146066747,0,6158,6242,14.71,6.19,40,91,0,0
365994,146185308,0,6289,6785,14.72,5.67,40,91,0,0
366428,146289516,0,6775,6585,14.75,4.85,40,91,0,0
366837,146390371,0,6586,6685,14.79,4.67,40,91,0,0
367279,146499831,0,6680,6585,14.77,4.74,40,91,0,0
368168,146715955,0,6584,6542,14.77,5.07,40,91,0,0
368611,146825066,0,6544,6642,14.68,4.79,40,92,0,0
369065,146936572,0,6642,6671,14.76,5.1,40,92,0,0
369509,147048748,0,6650,6457,14.81,4.89,40,92,0,0
369948,147149416,0,6457,6485,14.82,4.22,40,92,0,0
370400,147267849,0,6472,6285,14.8,4.26,41,92,0,0
370805,147365973,0,6284,6257,14.85,4.33,40,92,0,0
371251,147477423,0,6250,6014,14.92,3.37,40,92,0,0
371702,147588250,0,6012,5914,14.85,4,41,93,0,0
372144,147695036,0,5914,5914,14.44,6.46,40,93,0,0
372591,147804353,0,5907,5742,14.61,6.45,41,93,0,0
373040,147913545,0,5759,6185,14.92,5.94,40,93,0,0
373483,148021924,0,6189,6385,14.67,4.83,41,93,0,0
373979,148140077,0,6377,6300,14.89,4.2,40,93,0,0
374384,148244890,0,6249,5571,14.75,3.88,41,94,0,0
374832,148352883,0,5582,5742,14.57,6.47,41,94,0,0
375273,148462050,0,5757,6085,14.75,4.49,41,94,0,0
376170,148683558,0,6094,6371,14.63,5.23,41,94,0,0
376619,148796385,0,6388,6528,14.82,5.05,41,94,0,0
377026,148897698,0,6519,6314,14.77,4.84,41,94,0,0
377433,149004275,0,6316,6457,14.76,5.63,41,94,0,0
377924,149119856,0,6454,6428,14.92,5.39,41,95,0,0
378779,149333433,0,6424,6314,14.85,4.12,41,95,0,0
379182,149436668,0,6309,6228,14.67,6.29,41,95,0,0
379634,149549605,0,6235,6342,14.75,6.14,41,95,0,0
380036,149650669,0,6344,6485,14.7,6.02,41,96,0,0
380525,149766489,0,6460,6128,14.53,6.58,41,96,0,0
380973,149877901,0,6146,6414,14.7,6.15,41,96,0,0
381418,149986850,0,6419,6485,14.72,6.53,40,96,0,0
381827,150088610,0,6485,6514,14.75,5.29,41,96,0,0
382273,150200123,0,6521,6600,14.67,5.08,41,96,0,0
382681,150301644,0,6598,6471,14.67,4.82,41,97,0,0
383128,150413633,0,6469,6428,14.7,4.76,41,97,0,0
383614,150528640,0,6414,6271,14.68,4.61,41,97,0,0
384424,150732637,0,6272,6471,14.73,4.85,41,97,0,0
384904,150846064,0,6468,6414,14.74,4.67,41,97,0,0
385352,150954795,0,6417,6471,14.72,5.44,41,97,0,0
385796,151067072,0,6485,6642,14.77,4.97,41,98,0,0
386199,151166550,0,6633,6471,14.65,4.61,41,98,0,0
386649,151277581,0,6478,6585,14.57,5.6,41,98,0,0
387099,151394583,0,6611,6800,14.57,5.94,41,98,0,0
387499,151491355,0,6794,6671,14.69,5.33,41,98,0,0
387983,151608461,0,6664,6600,14.73,5.5,41,98,0,0
388429,151711829,0,6591,6471,14.77,4.56,41,98,0,0
388875,151822922,0,6496,6757,14.74,5.02,41,99,0,0
389280,151920791,0,6745,6514,14.76,5.07,41,99,0,0
389766,152039051,0,6520,6585,14.77,4.28,41,99,0,0
390171,152139578,0,6582,6528,14.72,4.87,41,99,0,0
390653,152251587,0,6511,6285,14.77,5.17,41,99,0,0
391062,152352437,0,6279,5871,14.61,5.28,41,99,0,0
391506,152462552,0,5907,6414,14.77,5.94,41,100,0,0
391955,152571931,0,6392,6100,14.89,5.97,41,100,0,0
392404,152684089,0,6088,5957,14.85,5.84,41,100,0,0
392850,152794387,0,5962,6028,14.89,5.71,41,100,0,0
393254,152895808,0,6030,6057,14.24,6.43,41,100,0,0
393696,153002220,0,6049,5942,14.55,6.88,41,100,0,0
394144,153111606,0,5964,6400,14.67,5.24,41,101,0,0
394620,153229510,0,6394,6300,14.69,4.6,41,101,0,0
395074,153339021,0,6310,6400,14.57,5.56,41,101,0,0
395523,153456720,0,6395,6342,14.79,4.67,41,101,0,0
395926,153551216,0,6340,6271,14.81,4.27,41,101,0,0
396371,153665648,0,6273,6457,14.66,4.9,41,101,0,0
396818,153776329,0,6451,6342,14.46,5.42,41,102,0,0
397257,153883700,0,6339,6228,14.75,5.43,41,102,0,0
397707,153998811,0,6257,6485,14.54,6.82,41,102,0,0
398188,154108398,0,6469,6257,14.81,5.22,41,102,0,0
398632,154219015,0,6273,6400,14.92,4.34,41,102,0,0
399079,154323834,0,6389,6271,14.61,5.31,41,102,0,0
399487,154430794,0,6244,5928,14.41,6.06,41,103,0,0
399976,154547864,0,5924,5885,14.85,6.24,41,103,0,0
400341,154641032,0,5899,6442,14.46,6.95,41,103,0,0
400793,154753009,0,6441,6400,14.63,5.97,41,103,0,0
401639,154963973,0,6403,6585,14.67,5.23,41,103,0,0
402121,155077535,0,6564,6371,14.75,4.4,41,104,0,0
402526,155184427,0,6374,6528,14.83,4.5,41,104,0,0
402961,155292558,0,6509,6200,14.82,3.98,41,104,0,0
403858,155515637,0,6192,5842,14.88,3.88,41,104,0,0
404300,155623264,0,5839,5800,14.79,3.54,41,104,0,0
404798,155743409,0,5801,5814,14.77,3.99,41,104,0,0
405198,155844818,0,5826,6142,14.75,4.53,41,104,0,0
405646,155954990,0,6125,5971,14.75,4.42,41,105,0,0
406493,156163578,0,5977,6314,14.66,5.03,41,105,0,0
406939,156273834,0,6316,6500,14.69,5.16,41,105,0,0
407386,156381582,0,6494,6242,14.73,3.72,41,105,0,0
407790,156487088,0,6234,5814,14.7,3.62,41,105,0,0
408273,156603589,0,5833,6128,14.73,4.2,41,105,0,0
408724,156715785,0,6119,6042,14.72,3.75,41,105,0,0
409170,156824511,0,6035,5971,14.76,3.92,41,106,0,0
409574,156923648,0,5971,5971,14.76,3.87,41,106,0,0
410018,157034248,0,5963,5857,14.82,3.5,41,106,0,0
410466,157141871,0,5855,5714,14.82,3.24,41,106,0,0
410953,157260530,0,5714,5714,14.77,3.61,41,106,0,0
411401,157370374,0,5734,5942,14.84,4.23,41,106,0,0
412216,157581384,0,5942,6000,14.8,4.18,41,106,0,0
412664,157691588,0,6004,6071,14.83,4.11,41,107,0,0
413070,157796863,0,6072,6100,14.77,4.18,41,107,0,0
413521,157907590,0,6100,6157,14.73,4.65,41,107,0,0
413963,158016363,0,6163,6228,14.75,4.16,41,107,0,0
414415,158127574,0,6209,6000,14.74,3.69,41,107,0,0
414820,158231366,0,5993,5857,14.7,4.03,41,107,0,0
415271,158342431,0,5863,5957,14.75,3.87,41,107,0,0
415721,158455524,0,5980,6228,14.68,4.35,41,107,0,0
416169,158563722,0,6234,6300,14.7,4.66,41,108,0,0
416611,158671999,0,6290,6157,14.74,4.65,41,108,0,0
417063,158781511,0,6147,6057,14.75,4.34,41,108,0,0
417546,158896188,0,6068,6185,14.69,4.5,41,108,0,0
417985,159001876,0,6188,6228,14.69,4.3,41,108,0,0
418392,159102657,0,6226,6214,14.73,4.51,41,108,0,0
419280,159320520,0,6215,6300,14.66,4.65,41,109,0,0
419727,159434277,0,6302,6342,14.7,4.73,41,109,0,0
420171,159540601,0,6338,6257,14.7,4.71,41,109,0,0
420621,159655831,0,6263,6357,14.69,4.45,41,109,0,0
421074,159763616,0,6345,6185,14.82,4.2,41,109,0,0
421523,159877505,0,6195,6314,14.83,4.61,41,109,0,0
422008,159989972,0,6311,6285,14.86,4.19,41,109,0,0
422405,160090040,0,6278,6157,14.75,4.41,41,109,0,0
422857,160206250,0,6173,6371,14.65,4.9,41,110,0,0
423308,160314591,0,6362,6285,14.77,4.48,41,110,0,0
423751,160424611,0,6284,6271,14.85,4.48,41,110,0,0
424199,160533719,0,6266,6228,14.73,4.3,41,110,0,0
424601,160635391,0,6231,6271,14.76,4.34,41,110,0,0
425053,160744250,0,6277,6371,14.77,4.73,41,110,0,0
425460,160850335,0,6371,6385,14.72,4.74,41,110,0,0
425908,160959511,0,6386,6400,14.74,4.75,41,111,0,0
426354,161069558,0,6396,6357,14.76,5.23,41,111,0,0
426835,161181945,0,6362,6428,14.69,4.9,41,111,0,0
427280,161298220,0,6444,6571,14.71,5.27,41,111,0,0
427692,161398338,0,6574,6614,14.78,4.81,41,111,0,0
428131,161506430,0,6602,6400,14.77,5.35,41,111,0,0
429026,161726059,0,6392,6214,14.76,4.54,41,112,0,0
429435,161830096,0,6206,6128,14.8,4.21,41,112,0,0
429885,161942647,0,6129,6142,14.82,3.8,41,112,0,0
430328,162049091,0,6135,6071,14.8,3.9,41,112,0,0
430775,162156531,0,6074,6128,14.8,4.61,41,112,0,0
431219,162267388,0,6130,6157,14.72,4.24,41,112,0,0
431624,162370142,0,6155,6057,14.77,4.06,41,112,0,0
432067,162480922,0,6072,6357,14.79,4.61,41,112,0,0
432548,162591143,0,6347,6185,14.82,4.23,41,113,0,0
432999,162703526,0,6197,6371,14.84,4.56,41,113,0,0
433447,162816422,0,6361,6300,14.78,4.39,41,113,0,0
433848,162911716,0,6300,6300,14.71,4.77,41,113,0,0
434299,163028591,0,6300,6300,14.73,4.6,41,113,0,0
434702,163126922,0,6302,6485,14.75,4.87,41,113,0,0
435150,163240699,0,6477,6400,14.8,5.22,41,114,0,0
435598,163348911,0,6393,6314,14.84,4.82,41,114,0,0
436034,163452569,0,6297,5971,14.25,6.2,41,114,0,0
436485,163564971,0,5982,6142,14.77,5.36,41,114,0,0
436932,163676253,0,6128,5942,14.3,6.35,41,114,0,0
437380,163785530,0,5944,5985,14.76,7.2,40,114,0,0
437824,163896940,0,5984,5971,14.73,6.12,41,114,0,0
438756,164121066,0,5979,6171,14.8,4.06,41,115,0,0
439161,164223718,0,6156,6014,14.82,3.51,41,115,0,0
439606,164329388,0,6014,6014,14.77,4.08,41,115,0,0
440463,164547090,0,6020,6214,14.79,4.23,41,115,0,0
440908,164658462,0,6187,5928,14.8,3.83,41,116,0,0
441358,164766413,0,5934,6000,14.74,4.38,41,116,0,0
441806,164878348,0,6001,6014,14.82,3.67,41,116,0,0
442254,164991371,0,6008,5928,14.79,4.02,41,116,0,0
442664,165093791,0,5925,5900,14.79,4.25,41,116,0,0
443157,165211596,0,5898,5885,14.81,3.97,41,116,0,0
443560,165313144,0,5887,5914,14.77,3.97,41,116,0,0
444454,165531086,0,5912,5842,14.81,3.92,41,116,0,0
444900,165642507,0,5841,5828,14.82,3.74,41,117,0,0
446165,165963422,0,5830,6114,14.79,3.93,41,117,0,0
446653,166084598,0,6112,6100,14.73,4.49,41,117,0,0
447057,166184411,0,6104,6357,14.75,5,41,117,0,0
447505,166293516,0,6356,6342,14.72,4.8,41,117,0,0
447990,166410984,0,6333,6242,14.82,3.95,41,118,0,0
448401,166514514,0,6255,6385,14.76,4.57,41,118,0,0
448835,166617937,0,6380,6185,14.79,3.89,41,118,0,0
449330,166735559,0,6188,6242,14.78,4.61,41,118,0,0
449740,166840627,0,6239,6185,14.72,4.84,41,118,0,0
450185,166946349,0,6186,6242,14.61,4.98,41,118,0,0
450634,167053854,0,6230,6000,14.71,4.79,41,118,0,0
451083,167163428,0,5991,5871,14.8,3.98,41,118,0,0
451526,167274625,0,5878,5985,14.78,4.27,41,119,0,0
452013,167392334,0,6018,6328,14.72,4.65,41,119,0,0
452416,167489594,0,6328,6328,14.82,4.77,41,119,0,0
452861,167599579,0,6326,6257,14.71,4.9,41,119,0,0
453318,167712976,0,6267,6385,14.82,4.96,41,119,0,0
453721,167816624,0,6389,6585,14.74,5.35,41,119,0,0
454211,167932528,0,6550,6185,14.54,6.32,41,119,0,0
454613,168032413,0,6186,6257,14.57,6.81,41,120,0,0
455510,168253808,0,6265,6500,14.58,5.38,41,120,0,0
455964,168368419,0,6479,6328,14.54,6.76,41,120,0,0
456368,168469437,0,6325,6285,14.59,5.11,41,120,0,0
456821,168584423,0,6296,6400,14.76,5.42,41,120,0,0
457267,168694349,0,6407,6471,14.81,4.84,41,121,0,0
457670,168797062,0,6469,6442,14.77,5.06,41,121,0,0
458116,168903702,0,6405,5971,14.21,6.57,41,121,0,0
458563,169017289,0,5991,6257,14.67,6.12,41,121,0,0
459056,169137564,0,6254,6214,14.8,4.63,41,121,0,0
459497,169246829,0,6215,6228,14.8,4.1,41,121,0,0
460382,169460356,0,6228,6228,14.75,4.44,41,122,0,0
460789,169562069,0,6227,6214,14.76,4.48,41,122,0,0
461205,169672075,0,6213,6142,14.81,4.3,41,122,0,0
461650,169778797,0,6138,6042,14.82,3.84,41,122,0,0
462087,169883944,0,6040,5985,14.76,4.09,41,122,0,0
462541,169997619,0,5985,6042,14.75,4.07,41,122,0,0
462981,170103335,0,6039,5985,14.77,4.29,41,123,0,0
463421,170212661,0,5986,6042,14.75,4.15,41,123,0,0
463874,170323520,0,6044,6185,14.75,4.34,41,123,0,0
464766,170540614,0,6184,6100,14.79,4.19,41,123,0,0
465208,170648393,0,6099,6071,14.81,4.31,41,123,0,0
465699,170766177,0,6073,6100,14.82,4.12,41,123,0,0
466099,170867510,0,6100,6128,14.82,4.14,41,123,0,0
466595,170985871,0,6128,6128,14.8,4.55,41,123,0,0
466999,171089254,0,6126,6100,14.72,4.65,41,124,0,0
467482,171206822,0,6104,6157,14.75,4.52,41,124,0,0
467889,171307314,0,6161,6400,14.69,4.96,41,124,0,0
468369,171423323,0,6394,6342,14.61,5.12,41,124,0,0
468816,171532102,0,6336,6257,14.73,4.69,41,124,0,0
469261,171639610,0,6266,6385,14.72,4.61,41,124,0,0
469710,171748300,0,6394,6528,14.76,4.57,41,125,0,0
470155,171859282,0,6510,6328,14.74,4.53,41,125,0,0
470999,172064563,0,6324,6028,14.73,4.24,41,125,0,0
471460,172182439,0,6053,6285,14.77,4.53,41,125,0,0
471905,172293843,0,6279,6228,14.72,4.39,41,125,0,0
472305,172391826,0,6228,6257,14.77,4.54,41,125,0,0
472748,172499107,0,6256,6242,14.75,4.43,41,126,0,0
473235,172616583,0,6245,6285,14.79,4.39,41,126,0,0
473687,172727579,0,6277,6200,14.73,4.92,41,126,0,0
474132,172837577,0,6205,6257,14.73,4.72,41,126,0,0
474580,172945381,0,6250,6157,14.82,4.32,41,126,0,0
474983,173048046,0,6161,6271,14.72,4.67,41,126,0,0
475477,173166612,0,6269,6257,14.73,4.6,41,126,0,0
475875,173266125,0,6255,6142,14.77,4.6,41,126,0,0
476325,173376538,0,6140,6128,14.79,4.38,41,127,0,0
476726,173478400,0,6126,6085,14.75,4.43,41,127,0,0
477176,173586652,0,6085,6100,14.77,4.22,41,127,0,0
477624,173699942,0,6106,6171,14.66,4.87,41,127,0,0
478069,173808611,0,6174,6228,14.73,4.08,41,127,0,0
478964,174029564,0,6217,6000,14.75,3.99,41,127,0,0
479370,174131343,0,5995,5914,14.74,3.81,41,127,0,0
479820,174245517,0,5915,5928,14.8,3.98,41,128,0,0
480267,174353950,0,5925,5857,14.79,3.61,41,128,0,0
480704,174461413,0,5850,5714,14.72,3.78,41,128,0,0
481192,174577525,0,5741,6142,14.69,4.39,41,128,0,0
481638,174688597,0,6144,6171,14.69,4.17,41,128,0,0
482080,174792697,0,6168,6128,14.76,4.25,41,128,0,0
482529,174902585,0,6125,6100,14.67,4.29,41,128,0,0
482935,175007056,0,6099,6071,14.76,4.52,41,128,0,0
483426,175123370,0,6080,6185,14.65,4.23,41,129,0,0
483870,175232550,0,6190,6285,14.71,4.34,41,129,0,0
484316,175340827,0,6282,6128,14.76,4.35,41,129,0,0
484794,175457749,0,6133,6185,14.76,4.26,41,129,0,0
485241,175567876,0,6163,5957,14.8,3.8,41,129,0,0
485652,175672949,0,5964,6042,14.72,4.55,41,129,0,0
486138,175794836,0,6045,6085,14.79,3.76,41,129,0,0
486549,175896590,0,6069,5928,14.76,3.94,41,129,0,0
486996,176003132,0,5929,6028,14.72,3.96,41,130,0,0
487438,176114288,0,6012,5814,14.77,3.72,41,130,0,0
487881,176224257,0,5819,5885,14.81,3.83,41,130,0,0
488291,176328016,0,5887,5914,14.72,4.01,41,130,0,0
488735,176438141,0,5894,5685,14.83,3.73,41,130,0,0
489179,176543870,0,5702,5885,14.76,3.85,41,130,0,0
489584,176643413,0,5884,5857,14.75,4.04,41,130,0,0
490071,176760855,0,5867,6014,14.73,3.87,41,130,0,0
490516,176872074,0,5998,5785,14.73,3.84,41,130,0,0
490967,176978021,0,5785,5785,14.71,3.62,41,131,0,0
491416,177092052,0,5792,5857,14.75,4.23,41,131,0,0
491821,177194655,0,5860,6057,14.76,3.83,41,131,0,0
492268,177304413,0,6062,6128,14.75,4.27,41,131,0,0
493160,177525332,0,6126,6085,14.77,3.96,41,131,0,0
493596,177627077,0,6085,6085,14.76,4,41,131,0,0
494045,177735415,0,6081,6000,14.72,4.46,41,131,0,0
494941,177955654,0,6003,6114,14.73,4.26,41,132,0,0
495395,178071920,0,6112,6100,14.75,4.65,41,132,0,0
495799,178170885,0,6098,6014,14.77,4.12,41,132,0,0
496248,178284540,0,6011,5971,14.73,4.28,41,132,0,0
496654,178389539,0,5978,6157,14.75,4.9,41,132,0,0
497102,178499061,0,6159,6271,14.76,4.76,41,132,0,0
497586,178615343,0,6263,6171,14.73,4.34,41,133,0,0
497994,178716416,0,6170,6142,14.79,4.22,41,133,0,0
498448,178834692,0,6141,6128,14.75,4.3,41,133,0,0
498897,178943289,0,6139,6314,14.71,5.32,41,133,0,0
499346,179052964,0,6303,6157,14.44,5.67,41,133,0,0
499797,179161528,0,6145,6028,14.47,7.04,41,133,0,0
500241,179271389,0,6026,6000,14.61,6.47,41,133,0,0
500688,179382500,0,6038,6471,14.74,4.9,41,134,0,0
501095,179487579,0,6468,6414,14.79,4.09,41,134,0,0
501543,179601381,0,6387,6128,14.76,4.16,41,134,0,0
501991,179710419,0,6121,6057,14.81,4.04,41,134,0,0
502436,179819586,0,6057,6057,14.73,4.02,41,134,0,0
502886,179927356,0,6058,6085,14.81,3.86,41,134,0,0
503290,180033643,0,6074,5971,14.8,4,41,134,0,0
503741,180142924,0,5964,5900,14.8,3.87,41,135,0,0
504181,180251656,0,5905,5957,14.8,3.95,41,135,0,0
504627,180358525,0,5968,6114,14.7,4.24,41,135,0,0
505030,180462381,0,6112,6014,14.78,4.16,41,135,0,0
505480,180572373,0,6016,6171,14.83,4.21,41,135,0,0
505967,180693534,0,6157,6014,14.85,3.98,41,135,0,0
506414,180805323,0,6012,6000,14.83,3.44,41,135,0,0
506861,180911956,0,5994,5942,14.79,3.89,41,135,0,0
507303,181020917,0,5940,5900,14.75,3.7,41,136,0,0
507750,181126061,0,5900,5900,14.77,3.79,41,136,0,0
508193,181230884,0,5899,5885,14.78,3.58,41,136,0,0
508646,181341366,0,5882,5828,14.83,3.6,41,136,0,0
509094,181453056,0,5824,5771,14.74,3.34,41,136,0,0
509539,181562034,0,5765,5700,14.77,3.57,41,136,0,0
509946,181665653,0,5693,5571,14.79,3.11,41,136,0,0
510394,181772917,0,5580,5771,14.81,3.41,41,136,0,0
510835,181880856,0,5766,5685,14.8,3.36,41,136,0,0
511288,181993835,0,5693,5771,14.83,3.52,41,136,0,0
511728,182102391,0,5762,5685,14.75,2.85,41,137,0,0
512584,182310527,0,5679,5400,14.9,2.63,41,137,0,0
513025,182421995,0,5392,5300,14.78,3.44,41,137,0,0
513477,182532368,0,5314,5442,14.95,2.68,41,137,0,0
513883,182636632,0,5407,5100,14.92,2.59,41,137,0,0
514329,182742427,0,5094,4985,15.01,2.15,41,137,0,0
514773,182854531,0,4923,4385,15.07,2.57,41,137,0,0
516111,183185118,0,4336,2742,15.22,0.32,41,137,0,0
516512,183286970,0,2740,2685,15.2,0.47,41,137,0,0
516964,183398946,0,2686,2742,15.19,0.45,41,137,0,0
517371,183500717,0,2741,2685,15.22,0.45,41,137,0,0
517864,183622806,0,2683,2671,15.22,0.44,41,137,0,0
518348,183734550,0,2668,2628,15.22,0.53,41,137,0,0
518751,183837807,0,2634,2757,15.19,0.48,41,137,0,0
519201,183946343,0,2754,2700,15.23,0.34,41,137,0,0
519647,184057409,0,2700,2700,15.24,0.42,41,137,0,0
520095,184164577,0,2700,2714,15.23,0.43,41,137,0,0
520539,184270785,0,2709,2614,15.23,0.34,40,137,0,0
521439,184486872,0,2604,2385,15.23,0.41,40,137,0,0
521885,184596892,0,2373,2271,15.25,0.47,41,137,0,0
522333,184705250,0,2278,2357,15.33,0.28,40,137,0,0
522782,184816320,0,2292,1757,15.29,0,40,137,0,0
523228,184920434,0,1724,1385,15.29,0.01,40,137,0,0
523673,185028585,0,1376,1285,15.29,0.07000000000000001,40,137,0,0
524124,185137330,0,1282,1257,15.29,0.09,40,137,0,0
524524,185236328,0,1257,1257,15.29,0.09,40,137,0,0
525016,185350886,0,1255,1242,15.29,0.09,40,137,0,0
525463,185458634,0,1242,1242,15.29,0.09,40,137,0,0
525956,185573147,0,1242,1242,15.29,0.09,40,137,0,0
526361,185675391,0,1242,1242,15.3,0.09,40,137,0,0
526812,185783526,0,1242,1242,15.29,0.09,40,137,0,0
527254,185891422,0,1242,1242,15.3,0.09,40,137,0,0
527700,185999428,0,1242,1242,15.3,0.09,40,137,0,0
528184,186108347,0,1242,1257,15.3,0.09,40,137,0,0
528628,186217404,0,1256,1242,15.3,0.09,40,137,0,0
529558,186438405,0,1242,1242,15.31,0.09,40,137,0,0
529969,186536334,0,1242,1257,15.31,0.09,40,137,0,0
530416,186649360,0,1257,1257,15.31,0.09,40,137,0,0
530865,186757821,0,1257,1257,15.31,0.09,40,137,0,0
531758,186973709,0,1256,1242,15.32,0.09999999,40,137,0,0
532204,187084911,0,1243,1257,15.31,0.09,40,137,0,0
532648,187196549,0,1255,1242,15.32,0.09,40,137,0,0
533096,187303644,0,1243,1257,15.32,0.09,40,137,0,0
533506,187402979,0,1257,1257,15.32,0.09,40,137,0,0
533953,187514903,0,1256,1242,15.32,0.09,40,137,0,0
534439,187623241,0,1242,1257,15.32,0.09,40,137,0,0
534890,187731951,0,1256,1242,15.32,0.09,40,137,0,0
535329,187840340,0,1242,1242,15.33,0.09,40,137,0,0
535778,187947137,0,1243,1257,15.33,0.09,40,137,0,0
536213,188047792,0,1257,1257,15.33,0.09,39,137,0,0
536711,188168614,0,1257,1257,15.33,0.09,40,137,0,0
537110,188265828,0,1257,1257,15.33,0.09,40,137,0,0
537564,188374914,0,1257,1257,15.33,0.09,40,137,0,0
537970,188476877,0,1257,1257,15.33,0.09,39,137,0,0
538461,188592629,0,1257,1257,15.33,0.09,39,137,0,0
538867,188692105,0,1257,1257,15.34,0.09,39,137,0,0
539756,188904554,0,1257,1257,15.35,0.09,39,138,0,0
540204,189012904,0,1257,1257,15.35,0.09,39,138,0,0
540693,189127792,0,1255,1242,15.34,0.09,39,138,0,0
541098,189230024,0,1242,1257,15.35,0.09,39,138,0,0
541587,189343879,0,1255,1242,15.34,0.09,39,138,0,0
542026,189446946,0,1242,1257,15.35,0.09,39,138,0,0
542483,189555362,0,1257,1257,15.35,0.09,39,138,0,0
542931,189666670,0,1257,1257,15.35,0.09,39,138,0,0
543384,189774860,0,1255,1242,15.35,0.09,39,138,0,0
543829,189885594,0,1243,1257,15.36,0.09,39,138,0,0
544726,190104308,0,1257,1257,15.35,0.09,39,138,0,0
545169,190213919,0,1257,1257,15.36,0.09,39,138,0,0
545615,190318164,0,1257,1257,15.35,0.09,39,138,0,0
546103,190436229,0,1257,1257,15.36,0.09,39,138,0,0
546554,190544314,0,1257,1257,15.36,0.09,39,138,0,0
546998,190659999,0,1257,1257,15.36,0.09,39,138,0,0
547455,190764299,0,1257,1257,15.36,0.09,39,138,0,0
547897,190874510,0,1257,1257,15.36,0.09,39,138,0,0
548305,190974318,0,1257,1257,15.36,0.09,39,138,0,0
548747,191077864,0,1257,1257,15.36,0.09,39,138,0,0
549197,191187562,0,1256,1242,15.36,0.09,39,138,0,0
550084,191402567,0,1242,1257,15.37,0.09,39,138,0,0
550573,191518894,0,1257,1257,15.37,0.09999999,39,138,0,0
550979,191620884,0,1256,1242,15.37,0.09999999,39,138,0,0
551471,191737089,0,1243,1257,15.37,0.09,39,138,0,0
551880,191836053,0,1256,1242,15.37,0.09,39,138,0,0
552771,192051506,0,1242,1257,15.37,0.09,39,138,0,0
553257,192164598,0,1257,1257,15.38,0.09,39,138,0,0
553691,192265415,0,1257,1257,15.38,0.09,39,138,0,0
554139,192372586,0,1257,1257,15.38,0.09,39,138,0,0
554632,192493088,0,1257,1257,15.38,0.09999999,39,138,0,0
555078,192601970,0,1257,1257,15.38,0.09,39,138,0,0
555485,192702543,0,1257,1257,15.38,0.09999999,39,138,0,0
555892,192806803,0,1257,1257,15.38,0.09,39,138,0,0
556387,192923100,0,1257,1257,15.38,0.09,39,138,0,0
556792,193022942,0,1257,1257,15.38,0.09,38,138,0,0
557278,193133371,0,1257,1257,15.38,0.09,39,138,0,0
557727,193244914,0,1257,1257,15.38,0.09,38,138,0,0
558174,193352421,0,1257,1257,15.38,0.09,38,138,0,0
558617,193456810,0,1257,1257,15.39,0.09,38,138,0,0
559068,193565877,0,1257,1257,15.38,0.09,38,138,0,0
559510,193672081,0,1257,1257,15.39,0.09,38,138,0,0
559962,193783072,0,1258,1271,15.39,0.09,38,138,0,0
560409,193887999,0,1271,1271,15.38,0.09,38,138,0,0
560855,193996127,0,1270,1257,15.39,0.09,38,138,0,0
561301,194100596,0,1257,1271,15.39,0.09999999,38,138,0,0
561748,194211617,0,1271,1271,15.39,0.09,38,138,0,0
562228,194320298,0,1270,1257,15.39,0.09,38,138,0,0
562672,194428312,0,1257,1257,15.39,0.09999999,38,138,0,0
563118,194532414,0,1257,1257,15.39,0.09,38,138,0,0
563569,194646018,0,1257,1257,15.39,0.09,38,138,0,0
564054,194763973,0,1212,757,15.41,0.02,38,138,0,0
564504,194871526,0,725,285,15.41,0.01,38,138,0,0
564962,194976907,0,256,0,15.41,0.02,38,138,0,0
565862,195190515,0,0,0,15.41,0.03,38,138,0,0
566310,195301583,0,0,0,15.41,0.03,38,138,0,0
566765,195411408,0,0,0,15.41,0.03,38,138,0,0
567218,195517841,0,0,0,15.42,0.03,38,138,0,0
567668,195626096,0,0,0,15.42,0.03,38,138,0,0
568120,195731258,0,0,0,15.42,0.03,38,138,0,0
568571,195838296,0,0,0,15.42,0.03,38,138,0,0
569037,195950933,0,0,0,15.41,0.03,38,138,0,0
569487,196055519,0,0,0,15.42,0.03,38,138,0,0
569982,196172537,0,0,0,15.42,0.02,38,138,0,0
570432,196282562,0,0,0,15.42,0.02,38,138,0,0
570882,196386722,0,0,0,15.42,0.02,38,138,0,0
571334,196495789,0,0,0,15.42,0.02,38,138,0,0
571787,196607252,0,0,0,15.42,0.02,38,138,0,0
572287,196723521,0,0,0,15.42,0.02,38,138,0,0
572693,196822888,0,0,0,15.42,0.02,38,138,0,0
573194,196938364,0,0,0,15.42,0.02,38,138,0,0
573647,197047898,0,0,0,15.42,0.02,38,138,0,0
574098,197152364,0,0,0,15.42,0.02,38,138,0,0
574994,197364588,0,0,0,15.42,0.03,38,138,0,0
575487,197478873,0,0,0,15.42,0.03,38,138,0,0
576386,197692719,0,0,0,15.43,0.03,38,138,0,0
576885,197815399,0,0,0,15.44,0.03,38,138,0,0
577338,197919531,0,0,0,15.43,0.03,38,138,0,0
577789,198025937,0,0,0,15.43,0.03,38,138,0,0
578242,198130602,0,0,0,15.44,0.03,38,138,0,0
578730,198248920,0,0,0,15.43,0.03,38,138,0,0
