LineNo,TimeUS,Instance,RPM,RawRPM,Volt,Curr,Temp,CTot,MotTemp,Err
1629,56930331,5,0,0,16.05,0.03,23,0,0,0
2087,57045808,5,0,0,16.05,0.03,23,0,0,0
2504,57151029,5,0,0,16.05,0.03,23,0,0,0
2916,57254796,5,0,0,16.05,0.02,23,0,0,0
3374,57371344,5,0,0,16.05,0.02,23,0,0,0
3749,57467379,5,0,0,16.05,0.02,23,0,0,0
4208,57580653,5,0,0,16.05,0.02,23,0,0,0
4660,57692931,5,0,0,16.05,0.03,23,0,0,0
5032,57792963,5,0,0,16.05,0.03,23,0,0,0
5486,57908259,5,0,0,16.05,0.03,23,0,0,0
5932,58018132,5,0,0,16.05,0.03,23,0,0,0
6341,58121047,5,0,0,16.05,0.03,23,0,0,0
6759,58227274,5,0,0,16.05,0.03,23,0,0,0
7170,58332248,5,0,0,16.05,0.02,23,0,0,0
7617,58443134,5,0,0,16.05,0.02,23,0,0,0
8032,58548032,5,0,0,16.05,0.02,23,0,0,0
8486,58661388,5,0,0,16.05,0.02,23,0,0,0
8899,58766557,5,0,0,16.05,0.02,23,0,0,0
9315,58870925,5,0,0,16.05,0.02,23,0,0,0
9732,58975655,5,0,0,16.05,0.02,23,0,0,0
10191,59089437,5,0,0,16.04,0.02,23,0,0,0
10600,59196500,5,0,0,16.05,0.02,23,0,0,0
10931,59308058,5,0,0,16.05,0.02,23,0,0,0
11308,59405120,5,0,0,16.05,0.02,23,0,0,0
12171,59622329,5,0,0,16.05,0.02,23,0,0,0
12623,59737306,5,0,0,16.05,0.02,23,0,0,0
13032,59843118,5,0,0,16.05,0.02,23,0,0,0
13445,59948402,5,0,0,16.05,0.02,23,0,0,0
13866,60056552,5,0,0,16.05,0.02,23,0,0,0
14276,60158724,5,0,0,16.05,0.02,23,0,0,0
14688,60266900,5,0,0,16.05,0.02,23,0,0,0
15146,60379860,5,0,0,16.05,0.03,23,0,0,0
15556,60483888,5,0,0,16.05,0.03,23,0,0,0
16009,60595797,5,0,0,16.05,0.03,23,0,0,0
16425,60700924,5,0,0,16.05,0.03,23,0,0,0
16835,60802423,5,0,0,16.05,0.03,23,0,0,0
17291,60917278,5,0,0,16.05,0.02,23,0,0,0
17708,61024570,5,0,0,16.05,0.02,23,0,0,0
18120,61129039,5,0,0,16.05,0.02,23,0,0,0
18531,61232552,5,0,0,16.05,0.02,23,0,0,0
18993,61348196,5,0,0,16.05,0.02,23,0,0,0
19404,61454534,5,0,0,16.05,0.03,23,0,0,0
19820,61557904,5,0,0,16.05,0.02,23,0,0,0
20266,61667100,5,0,0,16.05,0.03,23,0,0,0
20719,61779218,5,0,0,16.05,0.02,23,0,0,0
21095,61877295,5,0,0,16.05,0.02,23,0,0,0
21546,61992663,5,0,0,16.05,0.02,23,0,0,0
21961,62097411,5,0,0,16.05,0.02,23,0,0,0
22375,62206099,5,0,0,16.05,0.02,23,0,0,0
22828,62322103,5,0,0,16.05,0.02,23,0,0,0
23243,62430085,5,0,0,16.05,0.02,23,0,0,0
23662,62535385,5,0,0,16.05,0.02,23,0,0,0
24109,62646301,5,0,0,16.05,0.02,23,0,0,0
24528,62751917,5,0,0,16.05,0.02,23,0,0,0
24936,62856096,5,0,0,16.05,0.03,23,0,0,0
25390,62969088,5,0,0,16.05,0.03,23,0,0,0
25774,63071594,5,0,0,16.05,0.03,23,0,0,0
26186,63174011,5,0,0,16.05,0.03,23,0,0,0
26636,63286885,5,0,0,16.05,0.03,23,0,0,0
27089,63400652,5,0,0,16.05,0.03,23,0,0,0
27506,63503807,5,0,0,16.05,0.03,23,0,0,0
27920,63611656,5,0,0,16.05,0.03,23,0,0,0
28338,63716352,5,0,0,16.05,0.03,23,0,0,0
28783,63831862,5,0,0,16.05,0.03,23,0,0,0
29197,63934305,5,0,0,16.05,0.03,23,0,0,0
29611,64040388,5,0,0,16.05,0.03,23,0,0,0
30064,64154314,5,0,0,16.05,0.03,23,0,0,0
30441,64254426,5,0,0,16.05,0.03,23,0,0,0
30893,64366352,5,0,0,16.05,0.03,23,0,0,0
31309,64476023,5,0,0,16.05,0.03,23,0,0,0
32166,64686912,5,0,0,16.05,0.03,23,0,0,0
32592,64803529,5,0,0,16.05,0.03,23,0,0,0
33006,64905255,5,0,0,16.05,0.03,24,0,0,0
33451,65012305,5,0,0,16.05,0.03,24,0,0,0
33902,65125102,5,0,0,16.05,0.03,23,0,0,0
34278,65224850,5,0,0,16.05,0.03,24,0,0,0
34730,65337813,5,0,0,16.05,0.03,24,0,0,0
35146,65445913,5,0,0,16.05,0.03,23,0,0,0
35560,65548703,5,0,0,16.05,0.02,24,0,0,0
36016,65665034,5,0,0,16.05,0.02,24,0,0,0
36429,65767930,5,0,0,16.05,0.03,24,0,0,0
36849,65877880,5,0,0,16.05,0.03,24,0,0,0
37308,65989599,5,0,0,16.04,0.03,24,0,0,0
37760,66098326,5,0,0,16.05,0.03,24,0,0,0
38171,66196097,5,0,0,16.05,0.03,23,0,0,0
38671,66309501,5,0,0,16.05,0.03,24,0,0,0
39158,66418371,5,0,0,16.05,0.03,24,0,0,0
39614,66523132,5,0,0,16.05,0.03,24,0,0,0
40070,66631343,5,0,0,16.05,0.03,24,0,0,0
40567,66743540,5,0,0,16.04,0.03,24,0,0,0
41019,66852095,5,0,0,16.05,0.03,24,0,0,0
41474,66955568,5,0,0,16.04,0.03,24,0,0,0
41972,67071844,5,0,0,16.05,0.03,24,0,0,0
42382,67166632,5,0,0,16.05,0.03,24,0,0,0
43366,67395282,5,0,0,16.05,0.02,24,0,0,0
43820,67497799,5,0,0,16.05,0.03,24,0,0,0
44307,67606094,5,0,0,16.05,0.02,24,0,0,0
44761,67709298,5,0,0,16.05,0.02,24,0,0,0
45218,67820159,5,0,0,16.05,0.02,24,0,0,0
45676,67924228,5,0,0,16.05,0.02,24,0,0,0
46132,68031838,5,3,314,16.04,0.04,24,0,0,0
46632,68144347,5,345,657,16.02,0.09999999,24,0,0,0
47052,68250623,5,670,1042,16.01,0.15,24,0,0,0
47505,68353862,5,1045,1214,16.03,0.11,24,0,0,0
48001,68466626,5,1216,1257,16.02,0.11,24,0,0,0
48498,68580083,5,1259,1285,16.04,0.09999999,24,0,0,0
48946,68683327,5,1285,1285,16.03,0.09999999,24,0,0,0
49445,68795637,5,1285,1285,16.02,0.09999999,24,0,0,0
49895,68902438,5,1286,1300,16.03,0.09999999,24,0,0,0
50162,69004001,5,1299,1285,16.03,0.09999999,24,0,0,0
50620,69111378,5,1285,1285,16.03,0.09999999,24,0,0,0
51075,69219411,5,1285,1300,16.03,0.09999999,24,0,0,0
51569,69333512,5,1300,1300,16.03,0.09999999,24,0,0,0
52473,69542920,5,1300,1300,16.04,0.09999999,24,0,0,0
52927,69649643,5,1299,1285,16.03,0.09999999,24,0,0,0
53421,69762314,5,1285,1285,16.04,0.09999999,24,0,0,0
54369,69979084,5,1285,1300,16.04,0.09999999,24,0,0,0
54822,70087271,5,1300,1300,16.04,0.09999999,24,0,0,0
55276,70195397,5,1300,1300,16.04,0.09999999,24,0,0,0
55728,70297654,5,1300,1300,16.02,0.09999999,24,0,0,0
56225,70411026,5,1300,1300,16.02,0.09999999,24,0,0,0
56681,70514542,5,1300,1300,16.04,0.09999999,24,0,0,0
57173,70626892,5,1300,1300,16.02,0.09999999,24,0,0,0
57626,70728372,5,1300,1300,16.04,0.09,24,0,0,0
58082,70836607,5,1300,1300,16.02,0.09999999,24,0,0,0
58540,70941208,5,1299,1285,16.03,0.09999999,24,0,0,0
59034,71057274,5,1286,1300,16.02,0.09999999,24,0,0,0
59486,71159121,5,1300,1300,16.03,0.09999999,24,0,0,0
59935,71264334,5,1299,1285,16.03,0.09999999,24,0,0,0
60434,71379665,5,1286,1300,16.04,0.09999999,24,0,0,0
60848,71477874,5,1300,1300,16.03,0.09999999,24,0,0,0
61346,71589943,5,1300,1300,16.03,0.09999999,24,0,0,0
62251,71805541,5,1300,1300,16.04,0.09999999,24,0,0,0
62749,71918058,5,1298,1285,16.04,0.09999999,24,0,0,0
63203,72020349,5,1285,1300,16.03,0.09999999,24,0,0,0
63702,72135311,5,1300,1300,16.03,0.09999999,24,0,0,0
65104,72459620,5,1299,1285,16.02,0.09,24,0,0,0
65556,72562645,5,1285,1300,16.02,0.09,24,0,0,0
66015,72671034,5,1300,1300,16.03,0.09999999,24,0,0,0
66514,72783522,5,1300,1300,16.03,0.09999999,24,0,0,0
66967,72889581,5,1300,1300,16.03,0.09999999,24,0,0,0
67457,73001158,5,1300,1300,16.03,0.09999999,24,0,0,0
67916,73108505,5,1300,1300,16.03,0.09999999,24,0,0,0
68329,73210020,5,1300,1300,16.03,0.09999999,24,0,0,0
68828,73323665,5,1300,1300,16.02,0.09999999,24,0,0,0
69282,73429930,5,1300,1300,16.02,0.09999999,24,0,0,0
69737,73533633,5,1300,1300,16.02,0.09999999,24,0,0,0
70192,73643378,5,1300,1300,16.03,0.09999999,24,0,0,0
70648,73749204,5,1300,1300,16.02,0.09999999,24,0,0,0
71101,73853960,5,1300,1300,16.03,0.09999999,24,0,0,0
71601,73966376,5,1300,1300,16.02,0.09999999,24,0,0,0
72054,74072043,5,1300,1300,16.03,0.09999999,24,0,0,0
72553,74185665,5,1300,1300,16.02,0.09999999,24,0,0,0
73002,74292299,5,1300,1300,16.03,0.09999999,24,0,0,0
73459,74396939,5,1300,1300,16.02,0.09999999,24,0,0,0
73912,74503502,5,1300,1300,16.03,0.09999999,24,0,0,0
74364,74609721,5,1300,1300,16.02,0.09999999,24,0,0,0
74820,74714612,5,1300,1300,16.02,0.09999999,24,0,0,0
75272,74823715,5,1300,1300,16.02,0.09999999,24,0,0,0
75775,74936633,5,1300,1300,16.03,0.09999999,24,0,0,0
76227,75039953,5,1300,1300,16.03,0.09999999,24,0,0,0
76683,75146036,5,1300,1300,16.03,0.09999999,24,0,0,0
78084,75473920,5,1300,1300,16.02,0.09999999,24,0,0,0
78581,75586497,5,1300,1300,16.02,0.09999999,24,0,0,0
78988,75683052,5,1301,1371,16,0.16,24,0,0,0
79440,75789992,5,1377,1857,15.85,0.8,24,0,0,0
79931,75897507,5,1882,2542,15.92,0.76,24,0,0,0
80386,76006909,5,2548,2685,15.95,0.51,24,0,0,0
80887,76121349,5,2685,2685,15.94,0.55,24,0,0,0
81339,76228613,5,2682,2642,15.95,0.45,24,0,0,0
81791,76331711,5,2659,3042,15.77,1.13,24,0,0,0
82251,76444063,5,3082,3500,15.82,1.28,24,0,0,0
82706,76550603,5,3533,4014,15.66,2.04,24,0,0,0
83154,76659073,5,4061,4700,15.36,3.81,24,0,0,0
83652,76776427,5,4756,5314,15.41,3.75,24,0,0,0
84102,76880915,5,5335,5628,15.3,4.08,24,1,0,0
84562,76993893,5,5675,5942,15.28,4.53,24,1,0,0
85015,77100319,5,5940,5928,15.44,3.01,24,1,0,0
85429,77204306,5,5918,5714,15.5,2.97,24,1,0,0
85880,77309516,5,5714,5714,15.48,3.44,24,1,0,0
86335,77418421,5,5722,5828,15.5,4.14,24,1,0,0
87237,77637217,5,5851,6285,15.39,4.18,24,1,0,0
87688,77741930,5,6286,6314,15.47,4.33,25,1,0,0
88141,77851320,5,6305,6142,15.33,4.76,24,2,0,0
89090,78074123,5,6151,6357,15.38,5.14,24,2,0,0
89543,78180144,5,6358,6428,15.19,5.99,25,2,0,0
89998,78288855,5,6428,6442,15.29,4.64,24,2,0,0
90484,78398950,5,6413,6042,15.38,3.97,25,2,0,0
90939,78505874,5,6040,6000,15.4,3.72,25,2,0,0
91390,78614099,5,5997,5942,15.38,3.82,25,2,0,0
91887,78730046,5,5933,5814,15.36,3.78,25,3,0,0
92339,78839047,5,5812,5800,15.36,3.42,25,3,0,0
93203,79050486,5,5801,5857,15.39,3.69,25,3,0,0
93700,79164845,5,5842,5700,15.42,3.01,25,3,0,0
94608,79381307,5,5714,6100,15.35,3.88,25,3,0,0
95059,79490593,5,6094,6014,15.32,4.22,25,3,0,0
95966,79707082,5,6024,6300,15.21,4.58,25,4,0,0
96420,79818894,5,6306,6414,15.2,4.89,25,4,0,0
96919,79935156,5,6435,6657,15.14,5.28,25,4,0,0
97329,80037593,5,6647,6471,15.25,4.88,25,4,0,0
98274,80259102,5,6463,6300,15.31,4.57,25,4,0,0
98733,80364613,5,6303,6342,15.31,4.37,25,5,0,0
99185,80476076,5,6347,6400,15.23,4.31,25,5,0,0
99604,80580320,5,6378,6057,15.23,4.47,25,5,0,0
100094,80694037,5,6072,6228,15.23,4.48,25,5,0,0
100540,80806255,5,6230,6257,15.27,3.84,25,5,0,0
100983,80907613,5,6255,6228,15.23,4.64,25,5,0,0
101428,81015337,5,6225,6185,15.28,4.62,25,5,0,0
101880,81126701,5,6187,6228,15.33,4.07,25,5,0,0
102327,81235909,5,6217,6114,15.26,4.08,25,6,0,0
102735,81336062,5,6118,6200,15.3,4.47,25,6,0,0
103141,81440266,5,6200,6228,15.31,4.13,25,6,0,0
103588,81548873,5,6229,6314,15.27,4.17,25,6,0,0
104036,81662592,5,6312,6285,15.2,4.38,25,6,0,0
104439,81763601,5,6286,6314,15.26,4.09,26,6,0,0
104846,81868582,5,6296,5914,15.31,3.82,26,6,0,0
105300,81981925,5,5925,6028,15.32,3.97,25,6,0,0
105706,82081129,5,6036,6214,15.3,4.15,26,7,0,0
106597,82301796,5,6211,6100,15.28,4.26,26,7,0,0
107040,82407067,5,6106,6171,15.3,3.99,25,7,0,0
107452,82507796,5,6169,6071,15.24,4.28,26,7,0,0
107934,82623927,5,6074,6157,15.27,4.07,26,7,0,0
108384,82733368,5,6148,5957,15.35,3.85,26,7,0,0
108832,82845419,5,5963,6128,15.21,3.99,26,7,0,0
109279,82952362,5,6127,6100,15.26,3.83,26,8,0,0
109725,83064347,5,6105,6171,15.24,4.35,26,8,0,0
110176,83173430,5,6162,6014,15.33,3.59,26,8,0,0
110617,83279932,5,6019,6100,15.3,3.67,26,8,0,0
111022,83383419,5,6096,5871,15.26,3.58,26,8,0,0
111508,83496536,5,5872,5914,15.3,3.53,26,8,0,0
111959,83608640,5,5901,5785,15.4,3.09,26,8,0,0
112367,83709099,5,5785,5785,15.34,3.53,26,8,0,0
112817,83821138,5,5789,5857,15.36,3.65,26,8,0,0
113261,83926519,5,5856,5800,15.35,3.34,26,8,0,0
113707,84036056,5,5803,5885,15.32,3.78,26,9,0,0
114163,84151941,5,5892,5971,15.33,3.74,26,9,0,0
114561,84251888,5,5970,5957,15.32,3.84,26,9,0,0
115055,84367605,5,5953,5900,15.32,3.83,26,9,0,0
115495,84473430,5,5894,5800,15.36,3.08,26,9,0,0
115907,84582595,5,5806,5871,15.25,4.18,26,9,0,0
116359,84694415,5,5868,5828,15.34,3.65,26,9,0,0
116761,84797414,5,5829,5971,15.34,4,26,9,0,0
117253,84913604,5,5960,5857,15.35,3.25,26,10,0,0
117655,85015894,5,5857,5871,15.33,3.73,26,10,0,0
118147,85131879,5,5871,5871,15.23,3.77,26,10,0,0
118546,85236827,5,5873,6000,15.31,3.86,26,10,0,0
118995,85344887,5,5998,5900,15.32,3.65,26,10,0,0
119442,85454856,5,5900,5914,15.32,3.41,26,10,0,0
119931,85568935,5,5918,6071,15.35,3.77,26,10,0,0
120382,85682258,5,6070,6057,15.22,4.07,26,10,0,0
120827,85790895,5,6021,5685,15.32,3.19,26,10,0,0
121236,85891913,5,5691,5914,15.21,4.05,26,11,0,0
121679,86002599,5,5916,6000,15.22,3.98,26,11,0,0
122132,86116519,5,6008,6114,15.3,4.15,26,11,0,0
122545,86223336,5,6113,6100,15.3,3.6,26,11,0,0
122951,86326392,5,6100,6100,15.29,3.81,26,11,0,0
123442,86445325,5,6098,6085,15.27,3.55,26,11,0,0
123889,86551348,5,6079,5971,15.27,4.13,26,11,0,0
124292,86654407,5,5981,6185,15.19,4.33,26,11,0,0
124746,86764709,5,6182,6128,15.22,3.94,26,12,0,0
125193,86875929,5,6132,6185,15.21,4.69,26,12,0,0
125644,86992653,5,6163,6042,15.22,3.76,26,12,0,0
126047,87088606,5,6042,6057,15.24,3.63,26,12,0,0
126488,87197575,5,6059,6128,15.17,4,26,12,0,0
126937,87303838,5,6125,5928,15.24,3.64,26,12,0,0
127871,87529635,5,5927,5900,15.25,3.6,26,12,0,0
128270,87630379,5,5903,6014,15.23,3.47,26,12,0,0
128720,87739431,5,6000,5714,15.25,3.27,26,13,0,0
129166,87846403,5,5718,5828,15.29,3.43,27,13,0,0
129619,87957637,5,5835,6042,15.22,3.9,27,13,0,0
130059,88063266,5,6031,5800,15.29,3.4,27,13,0,0
130509,88171886,5,5786,5614,15.27,2.93,26,13,0,0
130957,88284875,5,5632,5842,15.16,4.22,27,13,0,0
131406,88390725,5,5849,6014,15.02,4.76,27,13,0,0
131844,88497549,5,6027,6142,15.31,3.39,27,13,0,0
132737,88717428,5,6126,5771,15.18,4.26,27,13,0,0
133139,88820246,5,5772,5857,15.13,4.34,27,14,0,0
133632,88936397,5,5863,5928,15.19,4.46,26,14,0,0
134035,89036550,5,5927,5885,15.12,4.26,27,14,0,0
134526,89151840,5,5875,5771,15.17,4.61,27,14,0,0
134927,89251931,5,5771,5814,15.06,5.41,27,14,0,0
135375,89361434,5,5825,5971,15.06,5.34,27,14,0,0
135821,89472600,5,5984,6128,14.97,5.52,27,14,0,0
136267,89577407,5,6119,6042,15.17,4.28,27,15,0,0
137121,89794387,5,6036,5928,15.16,4.07,27,15,0,0
138004,90006341,5,5935,6100,15.22,3.85,27,15,0,0
138456,90117931,5,6080,5785,15.26,3.23,27,15,0,0
138863,90222528,5,5785,5800,15.13,3.53,27,15,0,0
139315,90329940,5,5795,5685,15.26,2.53,27,16,0,0
139763,90446630,5,5712,5971,15.1,4.57,27,16,0,0
140214,90551323,5,5954,5714,15.06,3.95,27,16,0,0
141069,90763051,5,5716,6028,15.13,4.21,27,16,0,0
141551,90886918,5,6017,5928,15.21,3.91,27,16,0,0
142003,90992958,5,5934,6114,15.2,4.15,27,16,0,0
142416,91092348,5,6103,5928,15.26,3.89,27,16,0,0
142902,91215971,5,5943,6071,15.18,4.23,27,16,0,0
143271,91311159,5,6078,6228,15.19,4.69,27,16,0,0
143750,91426068,5,6230,6285,15.14,4.35,27,17,0,0
144206,91534303,5,6284,6271,15.17,4.09,27,17,0,0
144651,91648945,5,6275,6328,15.1,4.61,27,17,0,0
145092,91750420,5,6322,6214,15.13,4.04,27,17,0,0
145989,91973930,5,6198,5871,15.22,3.69,27,17,0,0
146389,92071609,5,5873,6014,15.15,4.15,27,17,0,0
146877,92191858,5,6000,5885,15.22,3.29,27,18,0,0
147288,92297295,5,5879,5828,15.26,2.96,27,18,0,0
147691,92394865,5,5828,5828,15.17,3.84,27,18,0,0
148187,92519288,5,5819,5742,15.18,3.57,27,18,0,0
149039,92729499,5,5743,5985,15.23,3.69,27,18,0,0
149482,92836934,5,5981,5900,15.2,3.32,27,18,0,0
149932,92948866,5,5890,5757,15.22,3.69,27,18,0,0
150333,93050565,5,5759,5914,15.26,3.67,27,18,0,0
150824,93166662,5,5925,6071,15.15,3.94,27,19,0,0
151276,93278874,5,6071,6071,15.19,3.7,27,19,0,0
151728,93387811,5,6081,6185,15.23,4.19,27,19,0,0
152129,93490312,5,6183,6128,15.25,3.29,27,19,0,0
152604,93600915,5,6108,5714,15.28,2.83,27,19,0,0
153058,93713931,5,5706,5600,15.13,2.89,27,19,0,0
153506,93826792,5,5606,5671,15.21,3.38,27,19,0,0
153990,93937305,5,5687,5871,15.18,3.77,27,19,0,0
154398,94041613,5,5885,6071,15.13,4.41,27,19,0,0
154847,94150386,5,6072,6142,15.09,4.31,27,20,0,0
155294,94260247,5,6142,6185,15.19,4.34,27,20,0,0
155743,94367834,5,6185,6200,15,4.45,27,20,0,0
156238,94492848,5,6218,6400,14.95,5.38,27,20,0,0
156684,94605595,5,6392,6342,15.05,5.25,27,20,0,0
157135,94714389,5,6343,6357,15,6.04,28,20,0,0
157614,94827024,5,6357,6357,14.83,5.2,27,20,0,0
158017,94924865,5,6356,6300,15.14,4.62,27,21,0,0
158463,95036537,5,6308,6414,15.1,4.61,27,21,0,0
159356,95253854,5,6411,6357,15.09,4.71,27,21,0,0
159807,95361252,5,6351,6271,15.18,4.39,27,21,0,0
160251,95471795,5,6264,6114,15.19,3.6,28,21,0,0
160702,95587158,5,6098,5971,15.17,4.32,27,21,0,0
161146,95692537,5,5980,6071,15.22,3.75,27,21,0,0
161629,95806716,5,6052,5957,15.22,3.72,27,22,0,0
162037,95907519,5,5957,5957,15.09,4.44,27,22,0,0
162440,96010647,5,5957,5957,15.25,3.33,27,22,0,0
162931,96127289,5,5943,5814,15.22,3.17,27,22,0,0
163379,96240950,5,5821,5900,15.19,3.85,27,22,0,0
163828,96350524,5,5902,5928,15.22,3.69,27,22,0,0
164272,96461055,5,5927,5914,15.19,3.4,28,22,0,0
165166,96681679,5,5916,5985,15.16,3.92,27,22,0,0
165613,96797066,5,5979,5928,15.19,4.09,28,23,0,0
166021,96894071,5,5928,5928,15.19,4.02,28,23,0,0
166502,97015375,5,5978,6242,15.11,4.44,28,23,0,0
166954,97122961,5,6239,6214,15.23,4.62,28,23,0,0
167356,97221666,5,6206,6128,15.11,3.67,28,23,0,0
167810,97330349,5,6116,5957,15.19,3.92,28,23,0,0
168256,97444830,5,5958,5971,15.16,4.06,28,23,0,0
168664,97543544,5,5971,6000,15.35,3.17,28,23,0,0
169109,97654544,5,5988,5700,15.17,3.78,28,24,0,0
169557,97763539,5,5699,5671,15.06,5.72,28,24,0,0
170039,97882614,5,5671,5671,15.11,3.63,28,24,0,0
170493,97986403,5,5681,5914,15.15,3.9,28,24,0,0
170930,98099379,5,5914,5914,15.19,3.68,28,24,0,0
171377,98208166,5,5907,5714,15.16,3.57,28,24,0,0
171868,98325840,5,5718,5771,15.25,3.56,28,24,0,0
172721,98533078,5,5773,5842,15.22,3.64,28,25,0,0
173155,98637584,5,5841,5814,15.2,3.67,28,25,0,0
173612,98751112,5,5819,5942,15.17,3.9,28,25,0,0
174057,98857348,5,5944,6071,15.15,4.23,28,25,0,0
174505,98964575,5,6069,5971,15.08,4.14,28,25,0,0
174991,99082260,5,5988,6257,15.05,4.59,28,25,0,0
175399,99184109,5,6257,6257,15.03,5.09,28,25,0,0
175885,99302632,5,6267,6414,15.11,4.83,28,25,0,0
176332,99414828,5,6410,6357,15.03,4.49,28,25,0,0
176783,99525368,5,6357,6357,15.07,4.4,28,26,0,0
177189,99627561,5,6355,6214,15.08,4.04,28,26,0,0
178119,99852320,5,6207,6028,15.13,3.39,28,26,0,0
178571,99960564,5,6022,5971,15.06,3.87,28,26,0,0
179009,100064290,5,5973,6028,15.08,4.02,28,26,0,0
179506,100180091,5,6030,6057,15.08,4.05,28,26,0,0
179905,100283152,5,6046,5885,15.12,4.12,28,26,0,0
180363,100396871,5,5904,6100,15.14,4.27,28,27,0,0
180764,100499530,5,6108,6300,15.21,4.57,28,27,0,0
181248,100614543,5,6263,5885,15.16,3.8,28,27,0,0
181701,100724499,5,5918,6257,15.16,4.62,28,27,0,0
182145,100834416,5,6239,6057,15.18,3.22,28,27,0,0
182593,100940425,5,6047,5914,15.11,3.44,28,27,0,0
183038,101050501,5,5904,5814,15.05,3.6,28,27,0,0
183438,101148561,5,5812,5785,15.23,3.25,28,27,0,0
183895,101261115,5,5780,5671,15.19,3.42,28,28,0,0
184379,101373507,5,5688,5942,15.17,4.16,28,28,0,0
184824,101484549,5,5931,5771,15.11,3.73,28,28,0,0
185672,101693429,5,5773,5857,15.08,3.55,28,28,0,0
186080,101799296,5,5858,5928,15.14,3.99,28,28,0,0
186572,101916515,5,5923,5871,15.07,3.98,28,28,0,0
187021,102029885,5,5864,5800,15.02,3.57,28,28,0,0
187423,102126105,5,5804,5985,15.13,3.47,28,28,0,0
187869,102237156,5,5984,5971,15.03,3.62,28,29,0,0
188322,102348096,5,5965,5871,15.21,3.89,28,29,0,0
188768,102460550,5,5893,6114,15.04,4.35,28,29,0,0
189214,102567321,5,6101,5971,15.14,3.67,28,29,0,0
189657,102677721,5,5967,5900,15.16,3.62,28,29,0,0
190107,102786420,5,5905,5985,15.22,4.29,28,29,0,0
190510,102887342,5,5987,6071,15.13,4.41,28,29,0,0
190958,103001054,5,6069,6028,15.15,3.51,28,29,0,0
191409,103113390,5,6012,5814,15.11,3.3,28,29,0,0
191815,103215078,5,5819,5914,15.19,3.5,28,30,0,0
192266,103324967,5,5911,5885,15.21,3.78,28,30,0,0
192706,103433949,5,5883,5857,15.22,3.81,28,30,0,0
193155,103541911,5,5867,5971,15.22,4.1,28,30,0,0
193599,103652291,5,5972,6014,15.14,4.29,28,30,0,0
194047,103759647,5,6018,6157,15.18,4.19,28,30,0,0
194493,103874949,5,6141,5985,15.09,4.02,28,30,0,0
194943,103981982,5,5985,5985,15.2,3.57,28,30,0,0
195350,104088221,5,5987,6028,15.09,3.66,28,30,0,0
195797,104196918,5,6027,6014,15.11,4.19,28,31,0,0
196241,104307261,5,6011,5985,15.01,3.87,28,31,0,0
196684,104419394,5,5978,5885,15.03,2.87,28,31,0,0
197091,104521526,5,5888,6085,15.11,4.29,28,31,0,0
197534,104631387,5,6089,6342,15.15,3.89,28,31,0,0
198021,104746113,5,6319,6014,15.18,3.68,28,31,0,0
198462,104854227,5,6017,6071,15.06,3.94,28,31,0,0
198907,104962404,5,6068,6014,15.13,3.87,28,31,0,0
199355,105075859,5,6017,6057,15.2,3.63,28,32,0,0
199801,105183911,5,6058,6071,15.1,3.77,28,32,0,0
200247,105295343,5,6072,6085,15.15,3.97,28,32,0,0
200655,105395103,5,6084,6071,15.02,4.44,28,32,0,0
201097,105506320,5,6089,6328,15.04,4.5,28,32,0,0
202029,105735944,5,6320,6200,15.12,4.1,28,32,0,0
202390,105828530,5,6199,6171,15.07,3.81,28,32,0,0
202911,105949576,5,6178,6228,14.98,4.28,28,33,0,0
203277,106044053,5,6229,6314,15.02,4.31,28,33,0,0
203765,106154898,5,6310,6257,15,4.41,28,33,0,0
204166,106257334,5,6254,6185,15.11,4.03,28,33,0,0
204610,106364437,5,6187,6300,15.12,4.27,28,33,0,0
205063,106479413,5,6295,6185,14.98,4.55,28,33,0,0
205511,106592637,5,6206,6428,14.98,4.53,28,33,0,0
205955,106704087,5,6426,6414,15.01,4.38,28,33,0,0
206361,106810424,5,6402,6285,15.02,4.12,28,34,0,0
206813,106918335,5,6280,6228,15.01,4.58,28,34,0,0
207259,107032902,5,6231,6257,15.05,4.23,28,34,0,0
207708,107139525,5,6271,6385,14.95,4.64,28,34,0,0
208153,107248349,5,6374,6271,15.05,4.42,28,34,0,0
208599,107354364,5,6279,6385,14.96,4.47,28,34,0,0
209051,107467246,5,6388,6428,14.97,3.8,28,34,0,0
209982,107696382,5,6429,6485,15,4.76,28,35,0,0
210388,107800934,5,6478,6414,15,4.75,28,35,0,0
210837,107910839,5,6409,6357,15.07,4.33,28,35,0,0
211233,108009748,5,6355,6300,14.96,4.36,28,35,0,0
211724,108124874,5,6294,6185,15.07,3.65,28,35,0,0
212171,108236056,5,6182,6157,15.01,4.17,28,35,0,0
212616,108342157,5,6155,6114,15,4.83,28,36,0,0
213060,108453533,5,6139,6457,14.94,4.59,28,36,0,0
213506,108560401,5,6446,6314,15.07,4.05,28,36,0,0
213949,108669255,5,6295,5942,15.06,3.72,28,36,0,0
214403,108783680,5,5959,6142,15.13,4.18,28,36,0,0
214843,108890662,5,6130,6014,15.05,4.26,28,36,0,0
215284,108998954,5,6012,5985,15.07,3.48,28,36,0,0
215694,109101826,5,5973,5742,15.14,3.39,28,36,0,0
216548,109314822,5,5742,5800,15.14,3.47,28,37,0,0
217024,109424830,5,5791,5628,15.13,3.03,28,37,0,0
217476,109538819,5,5632,5700,15.08,3.58,28,37,0,0
217881,109642051,5,5710,5928,15.05,3.7,28,37,0,0
218329,109751900,5,5922,5842,15.04,3.84,28,37,0,0
218776,109865909,5,5875,6228,15.09,4.45,28,37,0,0
219663,110083883,5,6220,6042,15.07,4.04,28,37,0,0
220071,110187586,5,6050,6214,15.02,4.59,29,37,0,0
220521,110296307,5,6197,5985,14.99,4,28,38,0,0
220968,110407270,5,6026,6442,15.01,5.05,28,38,0,0
222262,110724532,5,6440,6214,14.97,4.8,28,38,0,0
222744,110838796,5,6227,6357,14.85,4.61,28,38,0,0
223192,110948874,5,6360,6400,14.89,5.06,29,38,0,0
223592,111049538,5,6400,6414,14.97,5.14,28,39,0,0
224003,111154091,5,6415,6471,15.01,4.55,28,39,0,0
224449,111264938,5,6475,6542,15.03,4.46,29,39,0,0
224906,111385119,5,6492,6214,15.02,4.47,28,39,0,0
225346,111488670,5,6214,6214,15.04,4.04,29,39,0,0
225753,111588903,5,6198,5914,15.07,3.06,28,39,0,0
226159,111695824,5,5924,6057,15.07,3.97,28,39,0,0
226600,111806350,5,6057,6071,15.06,3.95,29,40,0,0
227045,111916281,5,6069,6057,15.16,3.65,29,40,0,0
227452,112016892,5,6052,5885,14.87,3.98,29,40,0,0
227902,112126602,5,5885,5885,15,4.18,28,40,0,0
228342,112235654,5,5887,6000,14.77,5.91,29,40,0,0
228789,112343502,5,6004,6214,14.91,4.68,29,40,0,0
229235,112455085,5,6212,6185,15.1,4.47,29,40,0,0
229689,112568893,5,6174,6071,15.09,3.8,28,40,0,0
230094,112670907,5,6072,6100,15,3.98,29,41,0,0
230541,112781866,5,6102,6171,15.06,4.39,29,41,0,0
231018,112893800,5,6162,6057,15.09,4.06,28,41,0,0
231422,113000075,5,6058,6128,15.05,3.95,29,41,0,0
231876,113111008,5,6139,6257,15.01,4.41,29,41,0,0
232315,113219273,5,6243,6057,15,4.21,28,41,0,0
232761,113325725,5,6063,6228,15,4.11,29,41,0,0
233168,113432605,5,6231,6328,15,4.98,29,41,0,0
233616,113541048,5,6328,6357,14.96,4.62,29,42,0,0
234067,113655349,5,6346,6185,14.98,4.55,29,42,0,0
234516,113763909,5,6187,6314,14.86,4.74,29,42,0,0
234961,113875788,5,6312,6300,14.93,4.8,29,42,0,0
235408,113981916,5,6301,6328,14.99,4.4,29,42,0,0
235855,114093929,5,6330,6357,14.99,4.57,29,42,0,0
236251,114189534,5,6360,6485,14.95,4.53,29,42,0,0
236664,114297580,5,6480,6400,14.89,4.74,29,43,0,0
237563,114522272,5,6398,6371,15.03,4.53,29,43,0,0
237997,114625085,5,6361,6157,15.03,4.34,29,43,0,0
238452,114736348,5,6156,6100,14.98,3.94,29,43,0,0
238893,114847922,5,6099,6085,15.04,4.24,29,43,0,0
239380,114962043,5,6086,6114,15.02,4.07,29,43,0,0
240232,115174794,5,6111,6000,15.05,3.89,29,44,0,0
240683,115290279,5,6005,6057,15.02,4.16,29,44,0,0
241094,115391500,5,6058,6114,15.01,4.16,29,44,0,0
241534,115497891,5,6114,6128,14.97,4.16,29,44,0,0
241979,115608001,5,6127,6114,14.95,4.23,29,44,0,0
242427,115716316,5,6116,6271,14.97,4.19,29,44,0,0
242874,115828308,5,6263,6057,15.02,4.26,29,44,0,0
243364,115944418,5,6065,6157,14.97,4.21,29,45,0,0
243768,116049287,5,6155,6142,15.08,4.03,29,45,0,0
244213,116155520,5,6159,6400,15.03,4.66,29,45,0,0
244616,116256556,5,6397,6285,15.03,4.15,29,45,0,0
245107,116373119,5,6281,6242,15.01,4.56,29,45,0,0
245513,116475654,5,6239,6114,14.94,4.45,29,45,0,0
245998,116587336,5,6126,6271,14.91,4.49,29,45,0,0
247333,116913640,5,6276,6428,15.05,4.4,29,46,0,0
247774,117022782,5,6416,6257,14.99,4.17,29,46,0,0
248224,117131925,5,6246,6142,14.97,4.18,29,46,0,0
248623,117232537,5,6139,6014,15.02,3.97,29,46,0,0
249110,117351047,5,6023,6114,15.05,3.72,29,46,0,0
249969,117567292,5,6112,6085,15.02,4.29,29,46,0,0
250372,117669553,5,6086,6157,14.98,4.2,29,47,0,0
250892,117791352,5,6157,6157,15,4.34,29,47,0,0
251295,117890056,5,6151,6057,15.01,4.34,29,47,0,0
252194,118110598,5,6056,6042,14.98,4.26,29,47,0,0
252641,118231376,5,6064,6228,15.11,4.6,29,47,0,0
253052,118332355,5,6215,6085,15.07,3.99,29,47,0,0
253458,118439463,5,6087,6257,14.98,4.62,29,48,0,0
253954,118562960,5,6253,6228,15,4.44,29,48,0,0
254309,118651538,5,6228,6242,15.01,4.35,29,48,0,0
254802,118766280,5,6234,6100,15.04,4.11,29,48,0,0
255199,118869119,5,6100,6114,15.08,4.08,29,48,0,0
255650,118977655,5,6113,6057,15.1,4.16,29,48,0,0
256096,119089569,5,6057,6085,15.02,4.28,29,48,0,0
256543,119195698,5,6084,6057,15.07,3.95,29,48,0,0
257029,119317967,5,6063,6114,15.04,4.37,29,49,0,0
257469,119427266,5,6107,6042,15,4.46,29,49,0,0
257878,119527576,5,6048,6114,14.97,4.32,29,49,0,0
258336,119641540,5,6110,6057,14.92,4.17,29,49,0,0
258778,119750065,5,6061,6100,14.95,4.27,29,49,0,0
259182,119852934,5,6108,6300,14.88,5.21,29,49,0,0
259630,119962320,5,6305,6371,14.97,4.72,29,49,0,0
260070,120067285,5,6377,6514,14.89,5.67,29,49,0,0
260526,120180499,5,6524,6628,14.94,5.7,29,50,0,0
260963,120284297,5,6630,6657,14.79,5.57,29,50,0,0
261410,120396632,5,6653,6628,14.93,5.11,29,50,0,0
261816,120496949,5,6621,6500,14.86,5.18,29,50,0,0
262270,120612591,5,6484,6357,14.96,4.87,29,50,0,0
262724,120725937,5,6363,6442,15.01,4.5,29,50,0,0
263121,120822869,5,6429,6157,14.86,4.41,29,51,0,0
263602,120931947,5,6157,6171,14.88,4.71,29,51,0,0
264048,121041844,5,6178,6271,14.88,4.57,29,51,0,0
264460,121144278,5,6268,6128,14.94,4.7,29,51,0,0
264947,121261641,5,6142,6300,14.88,4.3,29,51,0,0
265350,121358639,5,6297,6114,14.86,4.18,29,51,0,0
265797,121472629,5,6121,6228,14.91,3.91,29,51,0,0
266247,121581603,5,6224,5942,14.98,3.86,29,51,0,0
266688,121690393,5,5947,6057,14.94,3.63,29,52,0,0
267141,121806798,5,6045,5928,15,4.27,29,52,0,0
267586,121913582,5,5929,5942,14.98,4.17,29,52,0,0
267992,122017837,5,5951,6328,14.92,4.38,29,52,0,0
268439,122125119,5,6322,6128,14.98,4.44,29,52,0,0
268850,122233971,5,6133,6328,14.92,4.69,29,52,0,0
269300,122346819,5,6332,6428,14.85,4.71,30,52,0,0
269753,122462692,5,6408,6200,14.97,4.25,29,53,0,0
270162,122565703,5,6200,6200,15,4.1,29,53,0,0
270609,122679956,5,6194,6142,15.02,3.93,29,53,0,0
271015,122779293,5,6139,6014,14.96,4.02,29,53,0,0
271461,122891534,5,6016,6057,14.97,4.08,29,53,0,0
271872,122992034,5,6057,6057,14.97,3.7,29,53,0,0
272362,123112658,5,6058,6071,15,3.74,29,53,0,0
272758,123213623,5,6067,6028,15,3.95,29,53,0,0
273215,123324620,5,6034,6114,14.85,4.22,29,54,0,0
273615,123426815,5,6113,6085,14.95,4.41,29,54,0,0
274113,123547908,5,6083,6071,14.92,4.08,29,54,0,0
274513,123647857,5,6069,6042,15.01,4.08,29,54,0,0
274962,123756543,5,6048,6128,15.02,3.87,29,54,0,0
275367,123862235,5,6122,6000,14.97,4.1,29,54,0,0
275850,123974534,5,5997,5971,14.95,4.39,29,54,0,0
276293,124084887,5,5987,6157,14.93,4.26,29,54,0,0
276731,124191654,5,6160,6200,14.95,4.44,30,54,0,0
277131,124290337,5,6195,6028,15.01,3.81,29,55,0,0
277588,124408073,5,6028,6028,15.05,3.46,29,55,0,0
278026,124508530,5,6024,5857,15.04,3.46,29,55,0,0
278480,124622440,5,5846,5671,15.03,2.93,29,55,0,0
278927,124732462,5,5669,5628,15.06,3.18,29,55,0,0
279363,124836548,5,5625,5542,15.09,2.76,29,55,0,0
279818,124951006,5,5531,5428,15.1,2.65,29,55,0,0
280212,125048417,5,5418,5085,15.17,2.24,29,55,0,0
280705,125164813,5,5068,4842,15.13,2.18,29,55,0,0
281152,125277436,5,4872,5185,15.09,2.81,29,55,0,0
281604,125387808,5,5175,5042,15.05,2.71,29,55,0,0
282007,125488381,5,5047,5157,15.07,2.35,29,56,0,0
282455,125601421,5,5171,5385,15.01,2.98,29,56,0,0
282903,125710640,5,5397,5557,15.01,3.11,29,56,0,0
283305,125812403,5,5559,5757,15.01,3.69,29,56,0,0
283753,125920084,5,5758,5800,14.99,3.67,29,56,0,0
284240,126037436,5,5806,5900,14.93,3.62,29,56,0,0
285089,126247924,5,5890,5642,15.01,3.11,29,56,0,0
285536,126354564,5,5639,5571,15.02,3.64,29,56,0,0
285979,126462889,5,5574,5700,15.04,3.43,29,56,0,0
286433,126573667,5,5695,5571,15,2.91,29,57,0,0
286877,126685020,5,5570,5557,15.04,3.17,29,57,0,0
287768,126905315,5,5555,5485,15.11,3.17,29,57,0,0
288247,127019210,5,5493,5585,15.08,3.07,29,57,0,0
288658,127122290,5,5583,5571,15,3.16,29,57,0,0
289099,127230416,5,5573,5700,14.95,3.91,29,57,0,0
289586,127348908,5,5709,5800,14.93,3.66,29,57,0,0
289992,127450340,5,5801,5828,14.91,3.85,29,57,0,0
290438,127556645,5,5830,6000,14.83,4.57,29,57,0,0
290930,127684857,5,6000,6000,14.9,4.16,29,58,0,0
291337,127777296,5,5999,5942,14.95,3.73,29,58,0,0
291778,127888405,5,5939,5914,15.03,3.35,29,58,0,0
292186,127989997,5,5914,5942,15.04,3.65,29,58,0,0
292672,128109980,5,5932,5842,14.97,3.64,29,58,0,0
293119,128223365,5,5823,5657,15.01,3.24,29,58,0,0
293524,128324876,5,5637,5500,15.06,2.63,29,58,0,0
293934,128425071,5,5494,5228,15.08,2.46,29,58,0,0
294381,128535516,5,5232,5414,15.01,4.02,29,58,0,0
294831,128646939,5,5420,5471,15.02,3.69,29,59,0,0
295275,128753437,5,5469,5414,15.04,2.6,29,59,0,0
295715,128863834,5,5418,5471,15.04,3.2,29,59,0,0
296168,128971902,5,5471,5471,15.04,2.79,29,59,0,0
296571,129075364,5,5480,5671,15.11,3.47,29,59,0,0
297024,129190379,5,5659,5557,14.95,3.44,29,59,0,0
297421,129286073,5,5558,5685,14.99,3.51,29,59,0,0
297941,129407540,5,5679,5571,15.08,3.35,29,59,0,0
298835,129622028,5,5566,5442,14.99,3.01,29,59,0,0
299284,129731664,5,5442,5442,15.01,3.01,29,60,0,0
299727,129843266,5,5456,5657,14.91,3.53,29,60,0,0
300177,129952289,5,5660,5714,14.96,4.96,29,60,0,0
300588,130058613,5,5690,5371,14.76,3.83,29,60,0,0
301036,130169059,5,5374,5414,15.02,3.48,29,60,0,0
301479,130279952,5,5403,5300,15.04,3.21,29,60,0,0
301885,130379344,5,5301,5371,15.11,2.86,29,60,0,0
302365,130492513,5,5374,5442,14.98,3.03,29,60,0,0
302810,130602955,5,5438,5371,15.03,2.99,29,60,0,0
303261,130713121,5,5373,5400,15.01,3.07,29,61,0,0
303742,130825630,5,5401,5414,14.97,3.4,29,61,0,0
304193,130935582,5,5409,5342,15.08,2.67,29,61,0,0
304599,131041344,5,5333,5128,15.1,2.61,29,61,0,0
305085,131156804,5,5150,5457,15.12,3.4,29,61,0,0
305484,131257026,5,5454,5314,15.04,2.61,29,61,0,0
305929,131364606,5,5316,5371,14.89,2.92,29,61,0,0
306377,131477322,5,5370,5357,15.02,3.12,29,61,0,0
306826,131586338,5,5352,5285,15.04,3.05,29,61,0,0
307270,131696874,5,5289,5400,15.01,3.52,29,61,0,0
307720,131811062,5,5443,5842,14.89,4.39,29,61,0,0
308121,131909933,5,5842,5871,15,3.62,29,62,0,0
308599,132022323,5,5869,5800,14.88,3.74,29,62,0,0
309102,132146505,5,5812,5957,14.9,4.31,29,62,0,0
309546,132257914,5,5969,6100,15,3.92,29,62,0,0
309953,132359154,5,6091,5900,14.98,3.92,29,62,0,0
310439,132474857,5,5925,6185,14.89,4.45,29,62,0,0
310888,132583806,5,6187,6214,14.95,4.47,29,62,0,0
311287,132684325,5,6207,6071,14.92,4.22,29,62,0,0
311780,132808618,5,6067,6028,14.99,4.13,29,63,0,0
312187,132909626,5,6030,6057,14.92,3.98,29,63,0,0
312595,133014602,5,6058,6142,14.93,3.69,29,63,0,0
313084,133130021,5,6124,5942,15.04,3.74,29,63,0,0
313484,133229591,5,5945,6028,15.01,4.03,29,63,0,0
313936,133343075,5,6029,6071,15.04,3.71,29,63,0,0
314378,133450305,5,6066,5957,15.02,3.81,29,63,0,0
314829,133563673,5,5951,5885,15.03,3.74,29,63,0,0
315273,133674943,5,5889,5942,14.98,3.86,29,63,0,0
315724,133789922,5,5935,5900,14.91,3.58,29,64,0,0
316162,133894437,5,5905,5942,15,3.91,29,64,0,0
316574,133993954,5,5958,6114,14.98,4.31,29,64,0,0
317015,134102847,5,6107,6014,14.92,4.31,29,64,0,0
317454,134209592,5,6026,6285,14.97,4.2,29,64,0,0
317905,134320831,5,6253,5942,14.98,3.76,29,64,0,0
318350,134430311,5,5951,6057,15,3.83,29,64,0,0
319232,134646979,5,6057,6071,14.95,3.73,29,65,0,0
319686,134752548,5,6063,5985,14.98,3.67,29,65,0,0
320572,134972600,5,5985,6000,15.04,3.75,29,65,0,0
321021,135086893,5,5992,5885,14.98,3.6,29,65,0,0
321430,135184269,5,5885,5885,15.04,3.3,29,65,0,0
321873,135291079,5,5883,5771,15.04,3.4,29,65,0,0
322327,135406890,5,5763,5700,15,3.67,29,65,0,0
322770,135513903,5,5715,5871,15.02,3.59,29,65,0,0
323174,135614976,5,5880,6057,15.02,4.15,29,66,0,0
324057,135831610,5,6055,5928,15.01,3.87,29,66,0,0
324509,135944063,5,5917,5800,14.98,3.81,29,66,0,0
324958,136058309,5,5809,5914,15.05,3.51,29,66,0,0
325406,136165392,5,5900,5742,15,3.51,29,66,0,0
325813,136271287,5,5761,5971,15.04,3.5,29,66,0,0
326264,136384946,5,5958,5842,15.05,3.33,29,66,0,0
327187,136600067,5,5839,5771,14.97,3.74,29,67,0,0
327596,136703517,5,5782,5942,14.95,3.97,29,67,0,0
327998,136807319,5,5945,6185,14.99,4.63,29,67,0,0
328443,136914577,5,6183,6100,14.95,3.65,29,67,0,0
328929,137033632,5,6088,5985,14.92,3.81,29,67,0,0
329374,137141403,5,5970,5785,15,2.83,29,67,0,0
329782,137246419,5,5800,6000,15.05,3.9,29,67,0,0
330233,137356796,5,5998,5971,15.04,3.78,29,67,0,0
330639,137460396,5,5966,5885,14.94,4.35,29,67,0,0
331091,137572960,5,5895,6057,14.96,4.19,29,67,0,0
331976,137793650,5,6051,5871,14.86,4.5,29,68,0,0
332426,137904114,5,5878,6042,14.91,5.46,29,68,0,0
332867,138012859,5,6044,6085,14.94,4.61,29,68,0,0
333271,138111396,5,6081,5885,14.87,4.1,29,68,0,0
333718,138224806,5,5891,6071,14.88,4.98,29,68,0,0
334165,138332075,5,6069,6042,14.58,5.2,30,68,0,0
334614,138443905,5,6051,6200,14.88,5.59,29,69,0,0
335503,138658651,5,6197,6142,15.01,4.4,29,69,0,0
335948,138765469,5,6142,6142,14.99,3.68,29,69,0,0
336398,138878832,5,6133,5957,14.95,3.99,29,69,0,0
336816,138989074,5,5959,6000,14.95,4.18,29,69,0,0
337261,139095622,5,5993,5914,15,3.53,29,69,0,0
337704,139206349,5,5916,5942,15,3.73,29,70,0,0
338110,139307364,5,5941,5928,14.91,3.89,29,70,0,0
338565,139423341,5,5925,5885,15.05,3.5,29,70,0,0
339011,139528559,5,5883,5800,14.92,3.88,29,70,0,0
339418,139634068,5,5801,5885,14.98,3.49,29,70,0,0
339904,139748714,5,5884,5871,15,3.55,29,70,0,0
340348,139860384,5,5867,5785,15.05,3.29,29,70,0,0
340794,139967087,5,5783,5757,14.97,3.32,29,70,0,0
341235,140074268,5,5763,5885,14.91,3.61,29,70,0,0
341685,140187933,5,5893,5971,14.94,3.75,29,71,0,0
342129,140293915,5,5971,5971,14.98,3.47,29,71,0,0
343024,140508008,5,5964,5771,15.01,3.35,29,71,0,0
343476,140621598,5,5775,5828,14.95,3.88,29,71,0,0
344319,140833834,5,5831,5957,14.85,4.25,29,71,0,0
344816,140950910,5,5950,5885,14.9,3.84,29,71,0,0
345256,141058516,5,5892,5985,14.92,3.73,29,71,0,0
345705,141168314,5,5976,5871,14.97,3.61,29,71,0,0
346142,141273514,5,5871,5871,15.06,3.54,29,72,0,0
346598,141385893,5,5871,5871,15.03,3.5,29,72,0,0
347047,141502012,5,5858,5728,14.96,3.38,29,72,0,0
347451,141602985,5,5731,5814,14.92,3.95,29,72,0,0
347902,141714845,5,5814,5828,15.01,3.38,29,72,0,0
348353,141828618,5,5822,5742,15.02,3.25,29,72,0,0
348798,141937403,5,5734,5657,15.04,2.76,29,72,0,0
349241,142048849,5,5639,5385,14.91,3.2,29,72,0,0
349690,142156827,5,5394,5485,14.89,3.84,29,72,0,0
350132,142268029,5,5483,5471,14.91,4.15,29,73,0,0
350582,142378956,5,5490,5700,14.86,4.27,29,73,0,0
350987,142480898,5,5703,5914,14.94,4.25,29,73,0,0
351433,142586354,5,5921,6071,15,3.71,29,73,0,0
351879,142697334,5,6046,5714,14.97,3.14,29,73,0,0
352326,142814608,5,5712,5700,14.91,3.4,29,73,0,0
352776,142921462,5,5695,5642,15.02,3.22,29,73,0,0
353628,143140359,5,5638,5571,14.85,3.19,29,73,0,0
354030,143238553,5,5571,5585,15.1,2.96,29,74,0,0
354477,143345560,5,5585,5628,14.95,3.56,29,74,0,0
354916,143453638,5,5627,5614,15.01,3.36,29,74,0,0
355325,143564877,5,5638,5842,15.01,3.5,29,74,0,0
355778,143677986,5,5829,5685,14.89,3.76,29,74,0,0
356231,143792317,5,5758,6142,14.91,3.79,29,74,0,0
357114,144001788,5,6132,5914,14.98,3.43,29,74,0,0
357556,144112894,5,5927,6042,15.02,3.55,29,74,0,0
357954,144212881,5,6034,5857,14.94,3.41,29,75,0,0
358445,144332048,5,5864,5957,14.98,3.47,29,75,0,0
358851,144434805,5,5958,5971,15,3.39,29,75,0,0
359293,144542666,5,5964,5657,15.1,3.08,29,75,0,0
359745,144657611,5,5660,5685,15.07,2.94,29,75,0,0
360152,144751581,5,5685,5685,14.98,4.36,29,75,0,0
361043,144971544,5,5678,5400,14.92,4.53,30,75,0,0
361524,145091422,5,5409,5514,14.85,4.89,30,75,0,0
361928,145185000,5,5515,5614,14.88,3.82,29,76,0,0
362369,145296297,5,5612,5528,14.97,3.92,29,76,0,0
362822,145410420,5,5508,5328,14.92,3.95,29,76,0,0
363267,145516103,5,5368,5742,14.89,3.94,29,76,0,0
363711,145622882,5,5749,5842,14.73,4.56,30,76,0,0
364156,145729047,5,5841,5828,14.91,4.58,29,76,0,0
364562,145836208,5,5825,5685,14.98,3.8,29,76,0,0
365054,145955583,5,5674,5557,14.77,4.2,29,76,0,0
365455,146056359,5,5617,6128,14.63,6.05,30,76,0,0
365903,146164893,5,6107,5900,14.85,3.75,29,77,0,0
366339,146268385,5,5901,5942,15,3.69,29,77,0,0
366792,146379827,5,5945,5985,14.94,3.61,29,77,0,0
367190,146479259,5,5986,6057,15.01,3.59,29,77,0,0
368123,146705114,5,6057,6057,14.86,3.89,30,77,0,0
368566,146814660,5,6044,5871,14.91,3.41,30,77,0,0
369423,147026501,5,5870,5842,14.95,3.5,30,78,0,0
369903,147139071,5,5831,5700,14.94,3.3,30,78,0,0
370759,147355803,5,5691,5528,15.02,2.59,29,78,0,0
371159,147456859,5,5526,5485,15.09,2.43,30,78,0,0
371658,147576363,5,5467,5285,14.91,2.69,29,78,0,0
372098,147684373,5,5300,5457,15,4.46,29,78,0,0
372545,147793980,5,5443,5314,14.75,4.02,29,78,0,0
372950,147892057,5,5312,5228,15.01,2.74,30,78,0,0
373438,148011970,5,5219,5100,15.13,2.34,29,79,0,0
373885,148118366,5,5106,5200,15.02,2.32,29,79,0,0
374335,148233990,5,5220,5428,14.68,4.59,30,79,0,0
374739,148332095,5,5429,5528,14.87,4.41,30,79,0,0
375180,148441110,5,5532,5628,14.87,3.64,30,79,0,0
375631,148552433,5,5632,5742,14.91,3.5,30,79,0,0
376076,148662925,5,5765,6071,14.8,5.23,30,79,0,0
376530,148773082,5,6075,6142,15.02,3,29,79,0,0
376933,148877748,5,6114,5614,15.06,1.95,29,79,0,0
377384,148993983,5,5597,5485,14.97,3.09,29,80,0,0
377831,149098881,5,5477,5371,14.89,3.08,29,80,0,0
378237,149203351,5,5375,5428,15.1,3.32,29,80,0,0
378686,149312387,5,5440,5628,14.94,3.74,30,80,0,0
379130,149424030,5,5656,6028,14.95,4.3,29,80,0,0
379541,149528640,5,6017,5871,14.82,4.81,29,80,0,0
379987,149640211,5,5875,5914,14.86,5.21,30,80,0,0
380429,149745573,5,5928,6228,14.79,4.85,29,80,0,0
380877,149854748,5,6231,6300,14.79,5.41,29,80,0,0
381376,149974615,5,6290,6157,14.77,5.42,30,81,0,0
381734,150068267,5,6152,6057,14.86,4.59,29,81,0,0
382188,150177341,5,6055,6028,14.92,4.02,29,81,0,0
382636,150291037,5,6032,6071,14.89,3.66,29,81,0,0
383083,150403090,5,6073,6128,14.97,3.87,29,81,0,0
383524,150508101,5,6118,6028,14.91,4.2,29,81,0,0
384379,150722619,5,6031,6100,14.86,4.04,29,82,0,0
384815,150825651,5,6098,6057,14.94,4.11,30,82,0,0
385263,150933865,5,6055,5971,14.85,4.1,29,82,0,0
385707,151046646,5,5961,5871,14.86,3.64,30,82,0,0
386154,151156084,5,5872,5885,14.93,3.62,30,82,0,0
386560,151257036,5,5886,5957,14.89,4.15,29,82,0,0
387008,151367067,5,5976,6242,14.85,4.09,30,82,0,0
387405,151469878,5,6242,6257,14.88,5.27,30,82,0,0
387894,151587926,5,6258,6342,14.95,4.04,30,83,0,0
388340,151691872,5,6330,6185,14.97,3.62,29,83,0,0
388789,151801327,5,6171,6014,14.96,3.74,29,83,0,0
389235,151910389,5,6014,6014,14.9,4.04,30,83,0,0
389677,152017900,5,6015,6028,14.97,3.82,29,83,0,0
390082,152118518,5,6017,5757,14.94,3.11,30,83,0,0
390558,152229139,5,5759,5871,14.94,3.61,29,83,0,0
391016,152343114,5,5863,5757,14.57,5.13,29,83,0,0
391416,152442392,5,5754,5600,14.95,3.97,29,83,0,0
391866,152550824,5,5600,5600,14.88,4.59,30,84,0,0
392315,152664410,5,5602,5628,14.86,4.16,30,84,0,0
392765,152771575,5,5650,5985,14.94,4.66,29,84,0,0
393165,152875166,5,5989,6085,14.75,5.4,30,84,0,0
393651,152992060,5,6089,6128,14.82,5.31,29,84,0,0
394099,153100611,5,6121,6057,14.89,3.75,29,84,0,0
394502,153203561,5,6057,6100,14.86,4.16,30,84,0,0
394986,153315942,5,6101,6114,14.82,4.44,29,85,0,0
395431,153429083,5,6119,6242,15.01,4.08,30,85,0,0
395881,153540900,5,6221,6028,15.05,3.24,30,85,0,0
396284,153644072,5,6023,5785,14.87,3.72,30,85,0,0
396776,153761302,5,5787,5814,14.89,4.09,30,85,0,0
397215,153868655,5,5815,5828,14.89,4.28,29,85,0,0
397668,153986214,5,5825,5814,14.89,4.24,29,85,0,0
398069,154082249,5,5804,5571,15,3.38,29,85,0,0
398554,154193650,5,5568,5528,15,3.4,29,86,0,0
398995,154301100,5,5547,5942,14.92,4.97,29,86,0,0
399442,154416425,5,5937,5885,14.81,5.33,29,86,0,0
399890,154525725,5,5902,6057,14.76,5.73,29,86,0,0
400296,154630346,5,6071,6228,14.77,5.16,29,86,0,0
400748,154739384,5,6250,6442,14.8,5.13,30,86,0,0
401150,154838421,5,6436,6314,14.91,4.37,29,86,0,0
401594,154953946,5,6310,6285,14.91,4.11,29,86,0,0
402038,155053969,5,6273,6000,14.84,4.36,29,87,0,0
402482,155169626,5,5997,5971,14.95,4.03,30,87,0,0
402919,155280800,5,5973,6000,15.08,3.36,29,87,0,0
403368,155392918,5,5973,5700,15.02,3.84,29,87,0,0
403810,155503501,5,5712,5985,14.99,3.99,29,87,0,0
404254,155612847,5,5975,5900,15.02,4.37,30,87,0,0
404666,155711523,5,5901,6014,14.98,4.21,30,87,0,0
405112,155822553,5,6018,6271,14.94,4.67,29,87,0,0
406002,156045423,5,6268,6185,14.95,4.58,30,88,0,0
406448,156153861,5,6201,6342,14.91,4.43,30,88,0,0
406894,156263695,5,6338,6300,14.91,4.47,30,88,0,0
407339,156370499,5,6300,6300,14.82,4.99,30,88,0,0
407745,156476106,5,6303,6385,14.95,4.46,30,88,0,0
408190,156581624,5,6384,6328,14.86,4.37,30,88,0,0
408635,156694075,5,6306,6014,14.91,4.45,30,89,0,0
409078,156802117,5,6023,6228,14.88,4.54,30,89,0,0
409529,156913512,5,6212,6085,14.92,4.27,30,89,0,0
409970,157021658,5,6083,6042,14.92,4.07,30,89,0,0
410421,157132068,5,6059,6228,14.97,4.55,30,89,0,0
410864,157239939,5,6226,6200,14.95,4.01,30,89,0,0
411312,157345854,5,6179,5914,15.02,3.67,30,89,0,0
412169,157567204,5,5921,6142,14.88,4.39,30,90,0,0
413025,157786427,5,6142,6157,14.98,4.04,30,90,0,0
413432,157887944,5,6157,6200,14.89,3.89,29,90,0,0
413918,158006062,5,6176,5957,14.86,4.13,30,90,0,0
414325,158107367,5,5981,6300,14.84,5.08,30,90,0,0
414731,158210722,5,6297,6214,14.92,4.49,30,90,0,0
415226,158331599,5,6221,6300,14.91,4.49,30,90,0,0
415628,158434720,5,6296,6085,14.89,3.21,30,91,0,0
416076,158543312,5,6077,5900,14.83,4.16,30,91,0,0
416516,158650617,5,5904,6185,14.87,4.67,30,91,0,0
416970,158759570,5,6203,6385,14.88,4.92,30,91,0,0
417453,158875544,5,6381,6342,14.92,4.25,30,91,0,0
417858,158973053,5,6338,6114,14.88,4.44,30,91,0,0
418299,159081396,5,6119,6471,14.85,4.83,30,91,0,0
419187,159299646,5,6465,6200,14.89,4.08,30,92,0,0
419630,159410364,5,6196,6142,14.8,4.43,30,92,0,0
420078,159519960,5,6142,6157,14.82,4.35,30,92,0,0
420525,159633140,5,6161,6271,14.85,5.3,30,92,0,0
420984,159742440,5,6271,6342,14.96,3.98,30,92,0,0
421434,159856338,5,6279,5671,15.03,2.87,30,92,0,0
421917,159969092,5,5658,5485,15.01,2.86,30,92,0,0
422770,160183302,5,5489,5685,14.85,3.93,30,93,0,0
423216,160293057,5,5694,5828,15,3.39,29,93,0,0
423661,160403565,5,5818,5685,14.94,3.33,30,93,0,0
424110,160512511,5,5694,5785,15.01,3.63,30,93,0,0
424512,160614907,5,5786,5885,14.96,3.66,30,93,0,0
424964,160723708,5,5886,5914,14.93,3.77,30,93,0,0
425369,160829628,5,5916,6000,14.95,3.76,30,93,0,0
425819,160938704,5,5992,5842,14.97,3.07,30,93,0,0
426264,161048786,5,5838,5785,14.83,3.4,30,93,0,0
426711,161157278,5,5787,5971,14.92,3.67,30,94,0,0
427645,161383833,5,5968,5914,14.91,3.65,30,94,0,0
428089,161494413,5,5903,5800,14.91,4.38,29,94,0,0
428533,161603928,5,5787,5685,14.76,4.64,29,94,0,0
428984,161710900,5,5693,5785,14.92,3.41,30,94,0,0
429390,161815572,5,5788,5814,14.94,3.33,29,94,0,0
429799,161917053,5,5812,5685,14.97,2.9,30,94,0,0
430242,162026601,5,5685,5685,15.01,3.64,30,94,0,0
430730,162146388,5,5680,5642,14.97,3,30,95,0,0
431133,162245703,5,5645,5714,14.94,3.19,30,95,0,0
431579,162352932,5,5708,5642,14.98,3.48,29,95,0,0
431981,162455319,5,5643,5742,14.88,3.48,30,95,0,0
432474,162576335,5,5730,5628,15,3.37,30,95,0,0
432912,162681426,5,5635,5728,15,3.34,30,95,0,0
433361,162789641,5,5735,5942,14.95,4.09,29,95,0,0
434251,163015914,5,5947,6042,14.89,4.16,30,95,0,0
434657,163116588,5,6041,5971,14.89,3.83,30,96,0,0
435067,163216714,5,5972,6042,14.95,3.88,30,96,0,0
435553,163334890,5,6035,5971,14.98,3.89,30,96,0,0
435992,163441125,5,5992,6200,14.89,6.08,29,96,0,0
436440,163554432,5,6182,6057,14.85,4.39,30,96,0,0
436884,163665168,5,6043,5885,14.66,5.84,30,96,0,0
437288,163762718,5,5890,6142,14.71,4.2,30,96,0,0
437779,163886121,5,6142,6142,14.79,5.83,30,97,0,0
438188,163987903,5,6138,6057,14.88,3.97,30,97,0,0
438667,164100565,5,6055,6042,15,4.06,30,97,0,0
439072,164203360,5,6035,5914,14.92,3.56,29,97,0,0
439561,164318871,5,5922,6014,14.83,4.46,30,97,0,0
439965,164421238,5,6013,6000,14.87,4.1,30,97,0,0
440418,164536397,5,5990,5914,14.91,3.62,30,97,0,0
440817,164636640,5,5914,5914,14.98,3.42,30,97,0,0
441269,164745086,5,5909,5857,14.95,3.58,30,97,0,0
442166,164962858,5,5854,5771,15.02,3.22,30,98,0,0
442575,165073105,5,5768,5700,14.95,3.57,30,98,0,0
443067,165187334,5,5714,5900,14.98,3.81,29,98,0,0
443471,165291723,5,5887,5700,15.02,3.14,30,98,0,0
444361,165510058,5,5701,5757,14.94,3.52,30,98,0,0
444805,165621042,5,5766,5942,14.98,3.9,30,98,0,0
445260,165734851,5,5936,5857,14.9,3.77,29,98,0,0
445665,165841175,5,5857,5857,14.92,4.04,30,99,0,0
446116,165953124,5,5878,6157,14.89,4.57,30,99,0,0
446560,166064023,5,6150,6085,14.86,4.27,30,99,0,0
447412,166272386,5,6081,5957,14.89,3.67,30,99,0,0
447865,166383568,5,5963,6057,15,3.63,30,99,0,0
448307,166493546,5,6055,6014,14.92,3.59,29,99,0,0
448786,166607546,5,5997,5785,14.97,3.51,30,99,0,0
449237,166714356,5,5794,5942,15.01,3.69,30,100,0,0
449647,166819533,5,5938,5714,15,3.26,30,100,0,0
450092,166925896,5,5711,5571,14.81,4.59,30,100,0,0
450541,167033575,5,5579,5885,14.91,4.13,30,100,0,0
451433,167253050,5,5883,5828,14.91,3.59,30,100,0,0
451928,167370281,5,5813,5657,14.94,2.74,30,100,0,0
452369,167478898,5,5649,5571,14.96,3.25,30,100,0,0
452816,167589557,5,5571,5571,14.98,3.72,30,100,0,0
453229,167692920,5,5589,5814,14.98,3.7,30,101,0,0
453676,167805822,5,5808,5742,14.91,4.01,30,101,0,0
454121,167912533,5,5744,5785,14.8,4.68,30,101,0,0
454568,168022131,5,5784,5771,14.85,4.22,30,101,0,0
454976,168123113,5,5771,5785,14.8,4,30,101,0,0
455420,168232806,5,5788,5857,14.84,3.94,30,101,0,0
455872,168344370,5,5851,5771,14.86,4.76,30,101,0,0
456730,168559588,5,5775,5914,14.92,4.66,30,102,0,0
457180,168672958,5,5901,5771,14.98,3.1,30,102,0,0
457628,168785552,5,5778,5828,14.91,3.06,30,102,0,0
458030,168881785,5,5828,5885,14.67,5.41,30,102,0,0
458477,168995865,5,5883,5857,14.81,4.33,30,102,0,0
458966,169111245,5,5864,5942,14.92,3.94,30,102,0,0
459375,169217571,5,5937,5685,14.94,3.3,30,102,0,0
459860,169338830,5,5689,5714,14.94,3.17,30,102,0,0
460264,169434818,5,5709,5457,14.95,3.05,30,102,0,0
460744,169551548,5,5464,5542,15,2.95,30,102,0,0
461160,169661861,5,5532,5471,14.98,2.73,30,103,0,0
462045,169868832,5,5469,5357,14.91,2.75,30,103,0,0
462497,169982642,5,5359,5385,14.97,2.61,30,103,0,0
462939,170092104,5,5375,5285,14.9,2.94,30,103,0,0
463379,170201792,5,5294,5385,14.94,2.79,30,103,0,0
463830,170311087,5,5385,5385,14.93,2.95,30,103,0,0
464724,170528655,5,5382,5300,14.99,2.87,30,103,0,0
465653,170754955,5,5304,5400,14.97,2.84,30,103,0,0
466053,170857119,5,5403,5442,15,3.52,30,104,0,0
466503,170963790,5,5445,5528,14.98,3.22,30,104,0,0
466909,171068167,5,5529,5571,14.97,3.33,30,104,0,0
467362,171177551,5,5571,5614,14.9,3.38,30,104,0,0
467800,171286300,5,5614,5642,14.9,3.51,30,104,0,0
468727,171511233,5,5645,5800,14.8,4.03,30,104,0,0
469621,171726705,5,5795,5671,14.82,3.82,30,104,0,0
470065,171838955,5,5677,5742,14.97,3.52,30,104,0,0
470511,171944855,5,5740,5714,14.92,3.33,30,105,0,0
470954,172054049,5,5715,5728,14.91,3.69,30,105,0,0
471812,172272654,5,5729,5771,14.88,3.56,30,105,0,0
472260,172381069,5,5765,5714,14.92,3.09,30,105,0,0
472701,172488851,5,5719,5771,14.96,3.48,30,105,0,0
473183,172603927,5,5753,5642,14.99,3.07,30,105,0,0
473594,172706565,5,5645,5685,14.9,3.96,30,105,0,0
474036,172814076,5,5689,5757,14.92,3.49,30,105,0,0
474487,172924883,5,5763,5857,14.91,3.75,30,106,0,0
474934,173038044,5,5859,5885,14.91,3.76,30,106,0,0
475384,173145115,5,5886,5900,14.9,3.46,30,106,0,0
476230,173354564,5,5898,5842,14.95,3.5,30,106,0,0
476677,173467886,5,5827,5685,14.78,3.68,30,106,0,0
477129,173575790,5,5713,6028,14.86,3.79,30,106,0,0
477530,173678518,5,6020,5914,14.91,3.44,30,106,0,0
477978,173786905,5,5912,5814,14.79,3.6,30,106,0,0
478421,173895386,5,5814,5842,14.97,3.82,30,107,0,0
478875,174008627,5,5841,5828,14.96,3.44,30,107,0,0
479325,174120643,5,5814,5685,14.95,3.25,30,107,0,0
479731,174225643,5,5685,5728,14.91,3.1,29,107,0,0
480659,174451097,5,5723,5628,14.91,3.28,30,107,0,0
481103,174557274,5,5647,5914,14.9,3.85,29,107,0,0
481549,174667713,5,5912,5885,14.95,3.54,30,107,0,0
481957,174767243,5,5883,5800,14.98,3.45,30,107,0,0
482440,174880831,5,5804,5871,14.92,3.63,30,108,0,0
482890,174997389,5,5867,5828,14.91,3.54,30,108,0,0
483337,175103337,5,5829,5871,14.95,4.18,30,108,0,0
483781,175211965,5,5873,6071,14.81,4.13,30,108,0,0
484230,175318858,5,6071,6100,14.87,4.33,30,108,0,0
484708,175431890,5,6094,6014,14.98,3.72,29,108,0,0
485158,175543985,5,6030,6257,14.93,4.66,29,108,0,0
485563,175648886,5,6239,5842,14.94,3.68,30,108,0,0
486012,175758125,5,5843,5942,14.95,3.71,29,109,0,0
486504,175886106,5,5922,5814,14.99,3.61,30,109,0,0
486957,175991268,5,5814,5814,14.95,3.53,30,109,0,0
487352,176091912,5,5809,5742,14.85,3.58,30,109,0,0
488246,176314287,5,5741,5728,14.94,3.4,29,109,0,0
488645,176417836,5,5725,5671,14.87,3.44,29,109,0,0
489093,176522402,5,5665,5571,14.91,3.22,30,109,0,0
489542,176631844,5,5565,5485,14.86,3.7,30,109,0,0
489985,176738975,5,5495,5771,14.88,3.67,30,109,0,0
490430,176850408,5,5767,5714,14.97,3.7,29,110,0,0
490922,176967864,5,5709,5671,14.86,3.52,29,110,0,0
491324,177068850,5,5692,5885,14.93,3.84,30,110,0,0
491776,177182982,5,5861,5714,14.94,3.29,29,110,0,0
492179,177283625,5,5713,5657,14.93,3.08,30,110,0,0
493070,177504257,5,5656,5642,14.89,3.4,29,110,0,0
493551,177617261,5,5647,5714,14.9,3.48,29,110,0,0
493997,177722591,5,5715,5728,14.94,3.41,29,110,0,0
494896,177945044,5,5730,5785,14.98,3.25,29,111,0,0
495304,178050576,5,5784,5771,14.98,3.01,30,111,0,0
495754,178160847,5,5765,5700,14.89,3.87,30,111,0,0
496159,178260636,5,5700,5700,14.89,3.15,30,111,0,0
496610,178375349,5,5705,5771,14.95,3.59,30,111,0,0
497013,178477914,5,5771,5771,14.93,3.43,29,111,0,0
497497,178594426,5,5777,5857,14.93,3.88,30,111,0,0
497948,178706305,5,5869,6000,14.9,3.85,30,111,0,0
498359,178813863,5,5994,5914,14.96,3.5,30,111,0,0
498808,178923030,5,5897,5557,14.86,3.54,30,112,0,0
499253,179031403,5,5569,5871,14.74,4.48,29,112,0,0
499704,179140949,5,5877,5957,14.71,5.68,30,112,0,0
500148,179250354,5,5962,6042,14.66,5.43,30,112,0,0
500596,179359634,5,6037,5914,14.91,3.54,29,112,0,0
501002,179466379,5,5908,5785,14.95,3.82,30,112,0,0
501498,179590607,5,5789,5842,14.91,3.87,30,112,0,0
501898,179689104,5,5833,5757,14.95,3.65,30,113,0,0
502343,179798573,5,5757,5757,14.91,3.92,30,113,0,0
502792,179906395,5,5758,5785,14.97,3.44,30,113,0,0
503196,180012144,5,5768,5557,14.89,3.15,30,113,0,0
504088,180230963,5,5556,5542,14.91,3.4,30,113,0,0
504534,180336416,5,5544,5614,14.88,3.14,30,113,0,0
504985,180452466,5,5621,5700,14.91,3.29,30,113,0,0
505435,180562637,5,5703,5742,15,3.58,30,113,0,0
505878,180672423,5,5726,5485,14.98,3.18,30,113,0,0
506323,180777836,5,5488,5557,14.88,3.41,30,114,0,0
506772,180890963,5,5559,5628,14.97,3.12,30,114,0,0
507257,181010535,5,5628,5628,14.97,3.55,30,114,0,0
507705,181115800,5,5622,5571,14.97,3.16,30,114,0,0
508148,181220593,5,5571,5585,14.96,3.22,30,114,0,0
508601,181330583,5,5586,5600,14.96,3.16,30,114,0,0
509004,181432652,5,5602,5728,14.82,3.68,30,114,0,0
509450,181537275,5,5727,5671,14.92,3.77,30,114,0,0
509900,181654960,5,5661,5557,15.01,3.26,30,114,0,0
510345,181760156,5,5561,5614,14.88,3.76,30,114,0,0
510746,181860351,5,5617,5757,14.92,3.59,30,115,0,0
511200,181972590,5,5753,5700,15.02,3.44,30,115,0,0
512090,182193714,5,5704,5785,15,3.47,29,115,0,0
512539,182300421,5,5767,5585,15.12,3.28,30,115,0,0
512945,182397623,5,5582,5414,14.92,3.26,30,115,0,0
513389,182509767,5,5413,5400,15.11,2.84,30,115,0,0
513797,182614845,5,5398,5357,15.06,2.79,29,115,0,0
514242,182720945,5,5354,5242,15.06,2.48,30,115,0,0
514687,182831944,5,5225,4828,15.21,1.94,29,115,0,0
515177,182948877,5,4753,3971,15.44,0.91,30,115,0,0
515584,183054846,5,3914,3128,15.42,0.2,30,115,0,0
516026,183161945,5,3117,2900,15.38,0.38,30,115,0,0
516467,183269420,5,2898,2857,15.38,0.41,30,115,0,0
516922,183387248,5,2847,2771,15.39,0.45,30,115,0,0
517329,183486245,5,2766,2671,15.37,0.43,30,116,0,0
517819,183611915,5,2679,2757,15.38,0.48,30,116,0,0
518261,183711899,5,2755,2742,15.36,0.48,30,116,0,0
518662,183817131,5,2742,2771,15.38,0.45,30,116,0,0
519156,183935799,5,2774,2814,15.39,0.43,30,116,0,0
520453,184249341,5,2813,2728,15.41,0.3,29,116,0,0
521350,184466905,5,2718,2271,15.38,0.32,29,116,0,0
521797,184572526,5,2268,2228,15.38,0.4,30,116,0,0
522244,184681870,5,2224,2171,15.41,0.33,30,116,0,0
522692,184793651,5,2126,1757,15.48,0.01,29,116,0,0
523138,184900798,5,1736,1428,15.47,0,29,116,0,0
523579,185005677,5,1420,1285,15.47,0.05,29,116,0,0
524035,185116846,5,1283,1257,15.47,0.07000000000000001,29,116,0,0
524479,185225553,5,1257,1257,15.46,0.07000000000000001,29,116,0,0
524927,185330415,5,1257,1257,15.47,0.07000000000000001,29,116,0,0
525370,185437915,5,1256,1242,15.47,0.07000000000000001,29,116,0,0
525863,185552328,5,1242,1257,15.47,0.07000000000000001,29,116,0,0
526268,185655542,5,1257,1257,15.47,0.07000000000000001,29,116,0,0
526717,185762900,5,1257,1257,15.47,0.07000000000000001,29,116,0,0
527161,185871233,5,1256,1242,15.48,0.07000000000000001,29,116,0,0
527646,185980894,5,1243,1257,15.47,0.07000000000000001,29,116,0,0
528095,186088605,5,1257,1257,15.48,0.07000000000000001,29,116,0,0
528539,186197039,5,1256,1242,15.48,0.07000000000000001,29,116,0,0
528988,186304223,5,1242,1257,15.48,0.07000000000000001,29,116,0,0
529469,186418158,5,1257,1257,15.48,0.07000000000000001,29,116,0,0
529924,186527245,5,1257,1257,15.48,0.07000000000000001,29,116,0,0
530327,186627611,5,1257,1257,15.49,0.07000000000000001,29,116,0,0
530776,186737598,5,1257,1257,15.48,0.07000000000000001,29,116,0,0
531217,186844282,5,1257,1257,15.49,0.07000000000000001,29,116,0,0
531666,186951399,5,1257,1257,15.5,0.07000000000000001,29,116,0,0
532118,187063911,5,1257,1257,15.5,0.07000000000000001,29,116,0,0
532565,187169802,5,1257,1257,15.5,0.08,29,116,0,0
533013,187280270,5,1257,1257,15.5,0.07000000000000001,29,116,0,0
533464,187391536,5,1257,1257,15.5,0.07000000000000001,29,116,0,0
533908,187497905,5,1257,1257,15.51,0.07000000000000001,29,116,0,0
534353,187602289,5,1257,1257,15.51,0.07000000000000001,29,116,0,0
534845,187722379,5,1257,1257,15.51,0.07000000000000001,29,116,0,0
535240,187815679,5,1257,1257,15.51,0.07000000000000001,29,116,0,0
535732,187937637,5,1257,1257,15.51,0.07000000000000001,29,116,0,0
536622,188144852,5,1257,1257,15.5,0.07000000000000001,29,116,0,0
537065,188255393,5,1257,1257,15.51,0.07000000000000001,29,116,0,0
537469,188351876,5,1257,1257,15.51,0.07000000000000001,29,116,0,0
537923,188466016,5,1257,1257,15.51,0.08,29,116,0,0
538376,188570904,5,1257,1257,15.51,0.08,29,116,0,0
538822,188681649,5,1257,1257,15.51,0.08,29,116,0,0
539270,188792711,5,1257,1257,15.52,0.07000000000000001,29,116,0,0
539708,188892330,5,1255,1242,15.52,0.07000000000000001,29,116,0,0
540117,188992210,5,1242,1257,15.52,0.07000000000000001,29,116,0,0
540604,189106821,5,1257,1257,15.52,0.07000000000000001,29,116,0,0
541053,189219397,5,1257,1257,15.52,0.08,29,116,0,0
541498,189323420,5,1257,1257,15.51,0.07000000000000001,29,116,0,0
541981,189436553,5,1257,1257,15.52,0.07000000000000001,29,116,0,0
542390,189535111,5,1257,1257,15.52,0.08,29,116,0,0
542837,189646410,5,1257,1257,15.52,0.08,29,116,0,0
543289,189754318,5,1257,1257,15.53,0.07000000000000001,29,116,0,0
543736,189865109,5,1257,1257,15.52,0.08,29,116,0,0
544188,189973939,5,1257,1257,15.52,0.08,29,116,0,0
544637,190084575,5,1257,1257,15.52,0.08,29,116,0,0
545080,190193477,5,1257,1257,15.53,0.08,29,116,0,0
545570,190307825,5,1257,1257,15.52,0.08,29,116,0,0
546014,190416221,5,1257,1257,15.52,0.07000000000000001,29,116,0,0
546465,190524375,5,1257,1257,15.53,0.08,28,116,0,0
546909,190631860,5,1257,1257,15.52,0.08,28,116,0,0
547365,190743612,5,1257,1257,15.53,0.07000000000000001,28,116,0,0
547811,190852408,5,1257,1257,15.54,0.07000000000000001,28,116,0,0
548258,190960797,5,1257,1257,15.53,0.07000000000000001,28,116,0,0
548702,191063331,5,1257,1257,15.54,0.07000000000000001,29,116,0,0
549155,191173621,5,1257,1257,15.54,0.07000000000000001,28,116,0,0
549596,191282577,5,1257,1257,15.53,0.07000000000000001,28,116,0,0
550045,191390357,5,1257,1257,15.54,0.07000000000000001,29,116,0,0
550489,191495603,5,1257,1257,15.54,0.08,28,116,0,0
550937,191609799,5,1257,1257,15.55,0.07000000000000001,28,116,0,0
551423,191725072,5,1257,1257,15.54,0.07000000000000001,28,116,0,0
551794,191815582,5,1257,1257,15.55,0.07000000000000001,28,116,0,0
552726,192041238,5,1257,1257,15.54,0.08,28,116,0,0
553212,192153660,5,1257,1257,15.54,0.08,28,116,0,0
554050,192352569,5,1257,1257,15.55,0.08,28,116,0,0
554502,192461541,5,1257,1257,15.55,0.07000000000000001,28,116,0,0
554949,192569279,5,1257,1257,15.56,0.07000000000000001,28,116,0,0
555396,192681862,5,1257,1257,15.55,0.08,28,116,0,0
555846,192796607,5,1257,1257,15.55,0.08,28,116,0,0
556298,192902507,5,1257,1257,15.55,0.08,28,116,0,0
556703,193002556,5,1257,1257,15.55,0.08,28,116,0,0
557189,193113135,5,1257,1257,15.55,0.08,28,116,0,0
557631,193222510,5,1257,1257,15.55,0.08,28,116,0,0
558080,193331438,5,1257,1257,15.55,0.08,28,116,0,0
558521,193436842,5,1257,1257,15.55,0.08,28,116,0,0
558975,193545815,5,1257,1257,15.55,0.08,28,116,0,0
559417,193651312,5,1257,1257,15.55,0.08,28,116,0,0
559869,193762422,5,1257,1257,15.55,0.08,28,116,0,0
560314,193867585,5,1257,1271,15.56,0.08,28,116,0,0
560763,193972038,5,1271,1271,15.56,0.08,28,116,0,0
561256,194090153,5,1271,1271,15.55,0.08,28,116,0,0
561703,194201926,5,1271,1271,15.56,0.08,28,116,0,0
562139,194299827,5,1270,1257,15.57,0.08,28,116,0,0
562627,194417546,5,1257,1257,15.56,0.08,28,116,0,0
563073,194522264,5,1257,1257,15.57,0.08,28,116,0,0
563479,194626040,5,1257,1257,15.56,0.08,28,116,0,0
563926,194732899,5,1251,957,15.59,0.03,28,116,0,0
564415,194850319,5,916,314,15.58,0,28,116,0,0
564870,194954037,5,300,0,15.58,0,28,116,0,0
565322,195064935,5,0,0,15.58,0.01,28,116,0,0
565815,195179536,5,0,0,15.58,0.01,28,116,0,0
566221,195281130,5,0,0,15.58,0.01,28,116,0,0
566676,195390924,5,0,0,15.58,0.01,28,116,0,0
567129,195495102,5,0,0,15.59,0.01,28,116,0,0
567579,195605909,5,0,0,15.58,0.01,28,116,0,0
568031,195710513,5,0,0,15.58,0.01,28,116,0,0
568482,195817945,5,0,0,15.59,0.01,28,116,0,0
568948,195930410,5,0,0,15.6,0.01,28,116,0,0
569442,196044564,5,0,0,15.6,0.01,28,116,0,0
569893,196151911,5,0,0,15.59,0.01,28,116,0,0
570343,196261056,5,0,0,15.59,0.01,28,116,0,0
571288,196484921,5,0,0,15.59,0.01,28,116,0,0
571739,196595067,5,0,0,15.58,0.01,28,116,0,0
572193,196702504,5,0,0,15.59,0.01,28,116,0,0
572647,196812104,5,0,0,15.6,0.01,28,116,0,0
573101,196917808,5,0,0,15.6,0.01,28,116,0,0
573551,197026439,5,0,0,15.6,0.01,28,116,0,0
574049,197141720,5,0,0,15.6,0.01,28,116,0,0
574949,197354530,5,0,0,15.6,0.01,28,116,0,0
575397,197457602,5,0,0,15.6,0.01,28,116,0,0
575894,197576833,5,0,0,15.6,0,27,116,0,0
576341,197682257,5,0,0,15.61,0,28,116,0,0
576795,197794531,5,0,0,15.6,0.01,28,116,0,0
577246,197897657,5,0,0,15.6,0.01,28,116,0,0
577699,198005795,5,0,0,15.6,0.01,27,116,0,0
578153,198110553,5,0,0,15.6,0.01,28,116,0,0
578644,198228539,5,0,0,15.6,0.01,27,116,0,0
