LineNo,TimeUS,Instance,RPM,RawRPM,Volt,Curr,Temp,CTot,MotTemp,Err
1502,5.69e+07,3,0,0,15.92,0.04,28,0,0,0
1920,5.7004e+07,3,0,0,15.92,0.04,28,0,0,0
2338,5.711e+07,3,0,0,15.91,0.04,28,0,0,0
2787,5.7224e+07,3,0,0,15.91,0.04,28,0,0,0
3202,5.7328e+07,3,0,0,15.92,0.04,28,0,0,0
3622,5.7435e+07,3,0,0,15.91,0.04,28,0,0,0
4083,5.755e+07,3,0,0,15.91,0.04,28,0,0,0
4497,5.7653e+07,3,0,0,15.92,0.04,28,0,0,0
4908,5.7759e+07,3,0,0,15.91,0.04,28,0,0,0
5323,5.7865e+07,3,0,0,15.91,0.04,28,0,0,0
5736,5.7969e+07,3,0,0,15.92,0.04,28,0,0,0
6184,5.808e+07,3,0,0,15.91,0.04,28,0,0,0
6637,5.8195e+07,3,0,0,15.91,0.04,28,0,0,0
7049,5.8302e+07,3,0,0,15.91,0.04,28,0,0,0
7462,5.8403e+07,3,0,0,15.91,0.04,28,0,0,0
7907,5.8518e+07,3,0,0,15.91,0.04,28,0,0,0
8325,5.8621e+07,3,0,0,15.91,0.04,28,0,0,0
8732,5.8723e+07,3,0,0,15.91,0.04,28,0,0,0
9192,5.884e+07,3,0,0,15.91,0.04,28,0,0,0
9606,5.8944e+07,3,0,0,15.91,0.04,28,0,0,0
10024,5.9049e+07,3,0,0,15.91,0.04,28,0,0,0
10472,5.9162e+07,3,0,0,15.91,0.04,28,0,0,0
10765,5.9269e+07,3,0,0,15.92,0.04,28,0,0,0
11179,5.9372e+07,3,0,0,15.91,0.04,28,0,0,0
11592,5.9476e+07,3,0,0,15.91,0.04,28,0,0,0
12045,5.9591e+07,3,0,0,15.91,0.04,28,0,0,0
12456,5.9697e+07,3,0,0,15.92,0.04,27,0,0,0
12864,5.9802e+07,3,0,0,15.91,0.04,28,0,0,0
13322,5.9917e+07,3,0,0,15.91,0.04,28,0,0,0
13741,6.0024e+07,3,0,0,15.91,0.04,28,0,0,0
14155,6.0128e+07,3,0,0,15.91,0.04,28,0,0,0
14566,6.0233e+07,3,0,0,15.91,0.04,28,0,0,0
14981,6.0339e+07,3,0,0,15.91,0.04,28,0,0,0
15397,6.0443e+07,3,0,0,15.91,0.04,28,0,0,0
15848,6.0555e+07,3,0,0,15.92,0.04,28,0,0,0
16261,6.0657e+07,3,0,0,15.91,0.04,28,0,0,0
16714,6.0773e+07,3,0,0,15.92,0.04,28,0,0,0
17123,6.0874e+07,3,0,0,15.91,0.04,28,0,0,0
17543,6.0984e+07,3,0,0,15.92,0.04,28,0,0,0
17997,6.1098e+07,3,0,0,15.92,0.04,28,0,0,0
18408,6.1203e+07,3,0,0,15.91,0.04,28,0,0,0
18825,6.1307e+07,3,0,0,15.91,0.04,28,0,0,0
19238,6.1413e+07,3,0,0,15.92,0.04,28,0,0,0
19693,6.1527e+07,3,0,0,15.91,0.04,28,0,0,0
20135,6.1637e+07,3,0,0,15.91,0.04,28,0,0,0
20551,6.1738e+07,3,0,0,15.91,0.05,28,0,0,0
20966,6.1847e+07,3,0,0,15.91,0.04,28,0,0,0
21424,6.1959e+07,3,0,0,15.91,0.04,28,0,0,0
21838,6.2066e+07,3,0,0,15.91,0.04,28,0,0,0
22223,6.2169e+07,3,0,0,15.92,0.04,28,0,0,0
22668,6.2281e+07,3,0,0,15.91,0.04,28,0,0,0
23116,6.2394e+07,3,0,0,15.91,0.04,28,0,0,0
23494,6.2492e+07,3,0,0,15.91,0.04,28,0,0,0
23988,6.2615e+07,3,0,0,15.92,0.04,28,0,0,0
24402,6.2718e+07,3,0,0,15.92,0.04,28,0,0,0
24814,6.2826e+07,3,0,0,15.91,0.04,28,0,0,0
25228,6.2928e+07,3,0,0,15.92,0.04,28,0,0,0
25651,6.3041e+07,3,0,0,15.91,0.04,28,0,0,0
26064,6.3143e+07,3,0,0,15.92,0.04,28,0,0,0
26512,6.3257e+07,3,0,0,15.92,0.04,28,0,0,0
26925,6.3359e+07,3,0,0,15.92,0.04,28,0,0,0
27375,6.3473e+07,3,0,0,15.92,0.04,28,0,0,0
27796,6.3579e+07,3,0,0,15.91,0.04,28,0,0,0
28208,6.3685e+07,3,0,0,15.91,0.04,28,0,0,0
28618,6.3791e+07,3,0,0,15.91,0.04,28,0,0,0
29070,6.3904e+07,3,0,0,15.91,0.04,28,0,0,0
29484,6.4011e+07,3,0,0,15.91,0.04,28,0,0,0
29897,6.4114e+07,3,0,0,15.92,0.04,28,0,0,0
30317,6.4224e+07,3,0,0,15.91,0.04,28,0,0,0
30730,6.4326e+07,3,0,0,15.91,0.04,28,0,0,0
31145,6.4434e+07,3,0,0,15.91,0.04,28,0,0,0
31601,6.4548e+07,3,0,0,15.91,0.04,28,0,0,0
32043,6.4656e+07,3,0,0,15.91,0.04,28,0,0,0
32457,6.4759e+07,3,0,0,15.91,0.04,28,0,0,0
32843,6.4864e+07,3,0,0,15.91,0.04,28,0,0,0
33298,6.4976e+07,3,0,0,15.92,0.04,28,0,0,0
33740,6.5084e+07,3,0,0,15.92,0.04,28,0,0,0
34195,6.5203e+07,3,0,0,15.91,0.04,28,0,0,0
34607,6.5308e+07,3,0,0,15.91,0.04,28,0,0,0
34982,6.5406e+07,3,0,0,15.92,0.04,28,0,0,0
35437,6.5518e+07,3,0,0,15.91,0.04,28,0,0,0
35849,6.5624e+07,3,0,0,15.92,0.04,28,0,0,0
36299,6.5738e+07,3,0,0,15.91,0.04,28,0,0,0
36713,6.5844e+07,3,0,0,15.91,0.04,28,0,0,0
37135,6.5949e+07,3,0,0,15.91,0.04,28,0,0,0
37577,6.6058e+07,3,0,0,15.91,0.04,28,0,0,0
38074,6.6171e+07,3,0,0,15.91,0.04,28,0,0,0
38488,6.627e+07,3,0,0,15.91,0.04,28,0,0,0
39017,6.6385e+07,3,0,0,15.91,0.04,28,0,0,0
39475,6.6492e+07,3,0,0,15.91,0.04,28,0,0,0
39931,6.6599e+07,3,0,0,15.91,0.04,28,0,0,0
40387,6.6703e+07,3,0,0,15.91,0.04,28,0,0,0
40840,6.681e+07,3,0,0,15.92,0.04,28,0,0,0
41339,6.6922e+07,3,0,0,15.91,0.04,28,0,0,0
41792,6.703e+07,3,0,0,15.92,0.04,28,0,0,0
42244,6.7132e+07,3,0,0,15.91,0.04,28,0,0,0
42736,6.7246e+07,3,0,0,15.92,0.04,28,0,0,0
43187,6.7349e+07,3,0,0,15.91,0.04,28,0,0,0
44138,6.7569e+07,3,0,0,15.91,0.04,28,0,0,0
44626,6.7678e+07,3,0,0,15.92,0.04,28,0,0,0
45081,6.7785e+07,3,0,0,15.91,0.04,28,0,0,0
45541,6.7894e+07,3,0,0,15.92,0.04,28,0,0,0
46450,6.8104e+07,3,4,528,15.9,0.09,28,0,0,0
46869,6.821e+07,3,536,971,15.88,0.15,28,0,0,0
47366,6.8323e+07,3,978,1185,15.89,0.12,28,0,0,0
47862,6.8436e+07,3,1189,1242,15.89,0.11,28,0,0,0
48315,6.8539e+07,3,1243,1271,15.89,0.11,28,0,0,0
48806,6.8652e+07,3,1273,1300,15.9,0.11,28,0,0,0
49260,6.8756e+07,3,1300,1300,15.9,0.1,28,0,0,0
49712,6.8861e+07,3,1300,1300,15.9,0.1,28,0,0,0
50030,6.8972e+07,3,1300,1300,15.9,0.1,28,0,0,0
50483,6.9078e+07,3,1300,1300,15.91,0.1,28,0,0,0
50944,6.9188e+07,3,1298,1285,15.89,0.1,28,0,0,0
51393,6.9291e+07,3,1285,1300,15.9,0.1,28,0,0,0
51880,6.9403e+07,3,1300,1300,15.91,0.1,28,0,0,0
52337,6.9511e+07,3,1300,1300,15.9,0.1,28,0,0,0
52790,6.9617e+07,3,1300,1300,15.9,0.11,28,0,0,0
53247,6.9722e+07,3,1300,1300,15.9,0.1,28,0,0,0
53736,6.9834e+07,3,1300,1300,15.9,0.11,28,0,0,0
54191,6.9939e+07,3,1299,1285,15.9,0.1,28,0,0,0
55140,7.0159e+07,3,1285,1300,15.89,0.1,28,0,0,0
55550,7.0257e+07,3,1300,1300,15.89,0.1,28,0,0,0
56047,7.0369e+07,3,1300,1300,15.9,0.1,28,0,0,0
56542,7.0483e+07,3,1300,1300,15.9,0.1,28,0,0,0
56995,7.0586e+07,3,1300,1300,15.89,0.1,28,0,0,0
57487,7.0698e+07,3,1300,1300,15.89,0.1,28,0,0,0
57942,7.0806e+07,3,1300,1300,15.89,0.1,28,0,0,0
58399,7.091e+07,3,1300,1300,15.9,0.1,28,0,0,0
59351,7.1129e+07,3,1300,1300,15.9,0.1,28,0,0,0
59800,7.1235e+07,3,1300,1300,15.89,0.1,28,0,0,0
60256,7.1338e+07,3,1300,1300,15.89,0.1,28,0,0,0
60713,7.1447e+07,3,1300,1300,15.9,0.1,28,0,0,0
61210,7.156e+07,3,1300,1300,15.89,0.1,28,0,0,0
61661,7.1666e+07,3,1300,1300,15.89,0.1,28,0,0,0
62113,7.1768e+07,3,1300,1300,15.89,0.1,28,0,0,0
62569,7.1877e+07,3,1300,1300,15.89,0.1,28,0,0,0
63068,7.1989e+07,3,1300,1300,15.89,0.1,28,0,0,0
63524,7.2094e+07,3,1300,1300,15.9,0.1,28,0,0,0
64016,7.2209e+07,3,1300,1300,15.89,0.1,28,0,0,0
64471,7.2313e+07,3,1300,1300,15.9,0.1,28,0,0,0
65422,7.2531e+07,3,1300,1300,15.9,0.1,28,0,0,0
65876,7.2641e+07,3,1300,1300,15.9,0.1,28,0,0,0
66329,7.2742e+07,3,1300,1300,15.89,0.1,28,0,0,0
66826,7.2859e+07,3,1300,1300,15.89,0.1,28,0,0,0
67239,7.2955e+07,3,1300,1300,15.89,0.1,28,0,0,0
67733,7.3067e+07,3,1300,1300,15.9,0.1,28,0,0,0
68194,7.3179e+07,3,1300,1300,15.89,0.1,28,0,0,0
68642,7.3281e+07,3,1300,1300,15.89,0.1,28,0,0,0
69101,7.3388e+07,3,1300,1300,15.89,0.1,28,0,0,0
69603,7.3504e+07,3,1300,1300,15.89,0.1,28,0,0,0
70058,7.3612e+07,3,1300,1300,15.89,0.1,28,0,0,0
70513,7.3718e+07,3,1300,1300,15.89,0.1,28,0,0,0
70965,7.3823e+07,3,1300,1314,15.9,0.1,28,0,0,0
71466,7.3936e+07,3,1312,1300,15.9,0.1,28,0,0,0
71920,7.4041e+07,3,1300,1300,15.89,0.1,28,0,0,0
72373,7.4145e+07,3,1300,1300,15.89,0.1,28,0,0,0
72868,7.4261e+07,3,1300,1300,15.89,0.1,28,0,0,0
73321,7.4363e+07,3,1300,1300,15.89,0.1,28,0,0,0
73778,7.4473e+07,3,1300,1300,15.89,0.1,28,0,0,0
74273,7.459e+07,3,1300,1300,15.89,0.1,28,0,0,0
74685,7.4685e+07,3,1300,1300,15.89,0.1,28,0,0,0
75134,7.4791e+07,3,1300,1300,15.89,0.1,28,0,0,0
75591,7.4896e+07,3,1300,1300,15.89,0.1,28,0,0,0
76086,7.5009e+07,3,1300,1300,15.89,0.1,28,0,0,0
76545,7.5116e+07,3,1300,1300,15.9,0.1,28,0,0,0
76995,7.5223e+07,3,1300,1300,15.91,0.1,28,0,0,0
77448,7.5326e+07,3,1300,1300,15.89,0.1,28,0,0,0
77945,7.5442e+07,3,1300,1300,15.9,0.1,28,0,0,0
78397,7.5545e+07,3,1300,1300,15.9,0.1,28,0,0,0
78849,7.5651e+07,3,1300,1314,15.89,0.12,28,0,0,0
79346,7.5764e+07,3,1335,1557,15.85,0.25,28,0,0,0
79796,7.5867e+07,3,1638,2471,15.8,0.74,28,0,0,0
80248,7.597e+07,3,2477,2614,15.81,0.47,28,0,0,0
80708,7.6081e+07,3,2619,2700,15.93,0.43,28,0,0,0
81204,7.6197e+07,3,2698,2685,15.82,0.45,28,0,0,0
81656,7.63e+07,3,2706,2928,15.7,0.85,28,0,0,0
82108,7.6408e+07,3,2948,3371,15.78,1.18,28,0,0,0
82567,7.6517e+07,3,3410,3928,15.63,1.65,29,0,0,0
83471,7.6732e+07,3,3967,5085,15.33,2.75,28,0,0,0
83917,7.6837e+07,3,5111,5614,15.25,3.37,28,1,0,0
84421,7.6954e+07,3,5654,6057,15.18,3.86,29,1,0,0
84836,7.7059e+07,3,6057,6057,15.33,3.11,28,1,0,0
85290,7.7164e+07,3,6034,5614,15.47,2.17,28,1,0,0
85746,7.7278e+07,3,5591,5271,15.35,1.99,28,1,0,0
86204,7.7382e+07,3,5253,5042,15.23,2.24,28,1,0,0
87103,7.7604e+07,3,5033,4857,15.33,1.56,29,1,0,0
87553,7.7711e+07,3,4847,4728,15.38,1.73,29,1,0,0
88002,7.7817e+07,3,4724,4642,15.31,1.81,29,1,0,0
88458,7.7923e+07,3,4642,4642,15.35,1.72,29,1,0,0
88910,7.8033e+07,3,4639,4457,15.26,1.51,28,1,0,0
89407,7.8148e+07,3,4454,4428,15.13,2.7,28,1,0,0
89859,7.8258e+07,3,4440,4571,15.12,2.72,29,1,0,0
90314,7.8362e+07,3,4585,4942,15.19,2.6,29,1,0,0
90801,7.8474e+07,3,4951,5085,15.33,2.43,29,2,0,0
91252,7.8579e+07,3,5087,5142,15.29,2.51,29,2,0,0
91704,7.8687e+07,3,5142,5157,15.32,2.45,29,2,0,0
92198,7.8807e+07,3,5169,5300,15.3,2.41,29,2,0,0
93064,7.9018e+07,3,5306,5471,15.27,2.77,29,2,0,0
93518,7.9124e+07,3,5473,5514,15.3,2.8,29,2,0,0
93970,7.9234e+07,3,5507,5428,15.35,2.6,29,2,0,0
94423,7.9339e+07,3,5425,5371,15.19,2.8,29,2,0,0
94875,7.9449e+07,3,5372,5414,15.22,2.69,29,2,0,0
95378,7.9566e+07,3,5412,5400,15.21,2.76,29,2,0,0
95831,7.9676e+07,3,5427,5728,15.08,3.13,29,2,0,0
96285,7.9784e+07,3,5721,5642,15.04,3.1,29,3,0,0
96740,7.9892e+07,3,5650,5771,15.14,3.04,29,3,0,0
97195,8.0005e+07,3,5772,5785,15.04,3.09,29,3,0,0
97647,8.0109e+07,3,5778,5714,15.08,3.04,29,3,0,0
98096,8.0218e+07,3,5710,5671,15.13,3.03,29,3,0,0
98552,8.0322e+07,3,5664,5542,15.16,2.74,29,3,0,0
99004,8.0433e+07,3,5553,5714,15.17,3.31,29,3,0,0
99502,8.0549e+07,3,5696,5514,15.21,2.79,29,3,0,0
99911,8.0649e+07,3,5519,5628,15.11,2.67,29,3,0,0
1.0041e+05,8.0767e+07,3,5621,5557,15.2,3.06,29,3,0,0
1.0089e+05,8.0887e+07,3,5564,5600,15.16,2.51,29,3,0,0
1.013e+05,8.0982e+07,3,5590,5514,15.15,2.79,29,4,0,0
1.0174e+05,8.1096e+07,3,5504,5428,15.18,2.68,29,4,0,0
1.022e+05,8.1203e+07,3,5420,5357,15.19,2.63,29,4,0,0
1.0264e+05,8.1313e+07,3,5366,5428,15.19,2.53,29,4,0,0
1.0301e+05,8.1408e+07,3,5425,5271,15.19,2.49,29,4,0,0
1.0346e+05,8.1515e+07,3,5271,5271,15.25,2.22,29,4,0,0
1.039e+05,8.1628e+07,3,5271,5271,15.16,2.5,29,4,0,0
1.0435e+05,8.1741e+07,3,5269,5257,15.11,2.36,29,4,0,0
1.0476e+05,8.1847e+07,3,5266,5328,15.23,2.46,29,4,0,0
1.0517e+05,8.1942e+07,3,5319,5200,15.22,2.33,29,4,0,0
1.0557e+05,8.2046e+07,3,5201,5228,15.14,2.63,29,4,0,0
1.0602e+05,8.2158e+07,3,5240,5414,15.21,2.59,29,4,0,0
1.0647e+05,8.2266e+07,3,5412,5400,15.18,2.62,29,4,0,0
1.0692e+05,8.2375e+07,3,5406,5471,15.2,2.92,29,5,0,0
1.0736e+05,8.2482e+07,3,5463,5385,15.13,2.91,29,5,0,0
1.0777e+05,8.2582e+07,3,5387,5500,15.07,2.86,29,5,0,0
1.0825e+05,8.2697e+07,3,5497,5442,15.14,2.55,29,5,0,0
1.0915e+05,8.2919e+07,3,5444,5571,15.23,2.69,29,5,0,0
1.0959e+05,8.3029e+07,3,5571,5571,15.13,3.18,29,5,0,0
1.1004e+05,8.3138e+07,3,5574,5671,15.17,2.94,29,5,0,0
1.1048e+05,8.3248e+07,3,5656,5542,15.16,2.91,29,5,0,0
1.1089e+05,8.3346e+07,3,5543,5642,15.26,2.87,29,5,0,0
1.1182e+05,8.3573e+07,3,5632,5428,15.17,2.57,29,5,0,0
1.1228e+05,8.3688e+07,3,5419,5342,15.19,2.45,29,6,0,0
1.1268e+05,8.379e+07,3,5339,5314,15.14,2.5,29,6,0,0
1.1362e+05,8.4013e+07,3,5308,5142,15.2,2.35,29,6,0,0
1.1403e+05,8.412e+07,3,5148,5185,15.11,2.37,29,6,0,0
1.1492e+05,8.4336e+07,3,5185,5185,15.22,2.34,29,6,0,0
1.1531e+05,8.4431e+07,3,5176,4857,15.29,1.89,29,6,0,0
1.1577e+05,8.4544e+07,3,4854,4828,15.25,1.7,29,6,0,0
1.1618e+05,8.4651e+07,3,4830,4928,15.1,2.46,30,6,0,0
1.1711e+05,8.4879e+07,3,4936,5185,15.14,2.51,29,6,0,0
1.1752e+05,8.4983e+07,3,5188,5257,15.15,2.61,30,6,0,0
1.18e+05,8.5098e+07,3,5265,5371,15.14,2.55,29,6,0,0
1.1886e+05,8.5314e+07,3,5375,5571,15.13,2.98,29,7,0,0
1.1931e+05,8.5424e+07,3,5570,5557,15.2,2.86,29,7,0,0
1.1979e+05,8.5537e+07,3,5547,5457,15.22,2.57,29,7,0,0
1.2064e+05,8.5748e+07,3,5457,5514,15.2,2.67,29,7,0,0
1.211e+05,8.5861e+07,3,5502,5271,15.11,2.65,29,7,0,0
1.2195e+05,8.6073e+07,3,5267,5142,15.12,2.03,29,7,0,0
1.224e+05,8.6189e+07,3,5134,5042,15.19,2.11,29,7,0,0
1.2282e+05,8.6295e+07,3,5039,5000,15.19,2.29,29,7,0,0
1.2326e+05,8.6403e+07,3,5001,5028,15.15,2.09,29,7,0,0
1.2371e+05,8.651e+07,3,5031,5100,15.16,2.26,29,7,0,0
1.2415e+05,8.6623e+07,3,5095,5028,15.08,2.43,29,8,0,0
1.2461e+05,8.6734e+07,3,5041,5171,15.13,2.22,29,8,0,0
1.2505e+05,8.6842e+07,3,5171,5171,15.08,2.32,29,8,0,0
1.2546e+05,8.6942e+07,3,5173,5228,15.1,2.24,29,8,0,0
1.2591e+05,8.7057e+07,3,5228,5228,15.19,2.25,29,8,0,0
1.264e+05,8.7173e+07,3,5215,5085,15.07,2.34,29,8,0,0
1.268e+05,8.7272e+07,3,5086,5128,15.1,2.33,30,8,0,0
1.2725e+05,8.7387e+07,3,5144,5285,15.1,2.64,29,8,0,0
1.2773e+05,8.7497e+07,3,5279,5200,15.11,2.24,29,8,0,0
1.2858e+05,8.7708e+07,3,5184,4871,15.17,1.73,30,8,0,0
1.2902e+05,8.7816e+07,3,4872,4885,15.14,2.2,29,8,0,0
1.2944e+05,8.7916e+07,3,4890,5128,15.1,2.64,29,8,0,0
1.2992e+05,8.803e+07,3,5120,5028,15.13,2.03,29,8,0,0
1.3037e+05,8.8139e+07,3,5028,5042,15.1,1.92,29,9,0,0
1.3077e+05,8.8244e+07,3,5036,4928,15.02,2.38,29,9,0,0
1.3122e+05,8.8349e+07,3,4930,5085,15.04,2.57,30,9,0,0
1.317e+05,8.8465e+07,3,5078,5014,15.06,2.42,30,9,0,0
1.3215e+05,8.8573e+07,3,5020,5085,15.14,1.82,29,9,0,0
1.3256e+05,8.8676e+07,3,5061,4757,15.2,2.3,30,9,0,0
1.3345e+05,8.8895e+07,3,4768,5071,14.99,2.38,30,9,0,0
1.3434e+05,8.9111e+07,3,5071,5128,15.09,2.42,29,9,0,0
1.3479e+05,8.9221e+07,3,5125,5085,15.04,2.65,30,9,0,0
1.3564e+05,8.9431e+07,3,5085,5100,14.82,3.25,30,9,0,0
1.3608e+05,8.9536e+07,3,5101,5142,14.94,3.03,29,10,0,0
1.3653e+05,8.9646e+07,3,5141,5100,14.91,2.8,30,10,0,0
1.3698e+05,8.9756e+07,3,5105,5185,15.13,2.7,30,10,0,0
1.3738e+05,8.9858e+07,3,5186,5257,15.1,2.28,30,10,0,0
1.3783e+05,8.9966e+07,3,5256,5242,14.99,2.7,30,10,0,0
1.3827e+05,9.0077e+07,3,5247,5357,15.14,2.24,30,10,0,0
1.3872e+05,9.0189e+07,3,5351,5242,15.14,2.47,30,10,0,0
1.3918e+05,9.03e+07,3,5252,5385,15.13,2.38,30,10,0,0
1.3958e+05,9.0401e+07,3,5375,5171,14.98,2.5,30,10,0,0
1.4008e+05,9.0521e+07,3,5178,5257,15.01,2.24,30,10,0,0
1.4048e+05,9.0623e+07,3,5258,5271,15.01,2.38,30,10,0,0
1.4093e+05,9.0732e+07,3,5275,5385,15.09,2.84,30,10,0,0
1.4138e+05,9.0843e+07,3,5383,5271,15.1,2.11,30,10,0,0
1.4183e+05,9.095e+07,3,5274,5357,15.1,2.77,30,10,0,0
1.4228e+05,9.1061e+07,3,5354,5314,15.15,2.5,30,11,0,0
1.4273e+05,9.1171e+07,3,5315,5342,14.97,2.54,30,11,0,0
1.4314e+05,9.1273e+07,3,5340,5300,14.98,2.73,30,11,0,0
1.4359e+05,9.1384e+07,3,5303,5385,15.06,2.56,30,11,0,0
1.4407e+05,9.1501e+07,3,5382,5357,15.03,2.49,30,11,0,0
1.4448e+05,9.1605e+07,3,5358,5442,15.01,2.92,30,11,0,0
1.4497e+05,9.1722e+07,3,5447,5514,15.07,2.86,30,11,0,0
1.4541e+05,9.1831e+07,3,5509,5471,15.1,2.67,30,11,0,0
1.4582e+05,9.1931e+07,3,5470,5428,15.04,2.57,30,11,0,0
1.4626e+05,9.2039e+07,3,5432,5485,15.08,2.52,30,11,0,0
1.4715e+05,9.2259e+07,3,5479,5371,15.14,2.48,30,11,0,0
1.4756e+05,9.2361e+07,3,5368,5214,15.17,2.3,30,12,0,0
1.4801e+05,9.247e+07,3,5214,5228,15.09,2.29,30,12,0,0
1.4846e+05,9.2584e+07,3,5233,5357,15.14,2.4,30,12,0,0
1.4891e+05,9.2696e+07,3,5360,5400,15.07,2.97,30,12,0,0
1.498e+05,9.291e+07,3,5401,5442,15.16,2.55,30,12,0,0
1.502e+05,9.3017e+07,3,5440,5357,15.12,2.59,30,12,0,0
1.507e+05,9.3133e+07,3,5371,5528,15.1,2.88,30,12,0,0
1.511e+05,9.3232e+07,3,5527,5471,15.04,2.75,30,12,0,0
1.5155e+05,9.3342e+07,3,5477,5600,15.01,2.93,30,12,0,0
1.52e+05,9.3454e+07,3,5600,5600,15.06,2.93,30,12,0,0
1.5292e+05,9.3677e+07,3,5599,5585,15.02,3.4,30,12,0,0
1.5338e+05,9.3792e+07,3,5622,5942,15,3.82,30,13,0,0
1.5385e+05,9.3904e+07,3,5925,5771,15.07,3.01,30,13,0,0
1.5426e+05,9.4004e+07,3,5763,5414,15.07,2.33,30,13,0,0
1.5561e+05,9.4336e+07,3,5408,4971,15.05,2.36,30,13,0,0
1.561e+05,9.4459e+07,3,4984,5128,15.06,2.57,30,13,0,0
1.5695e+05,9.4672e+07,3,5128,5171,14.69,2.9,30,13,0,0
1.5832e+05,9.5004e+07,3,5175,5328,15.06,2.42,30,14,0,0
1.5877e+05,9.5113e+07,3,5336,5428,15.01,2.86,30,14,0,0
1.5917e+05,9.5212e+07,3,5433,5571,14.99,2.96,30,14,0,0
1.5967e+05,9.533e+07,3,5573,5600,15.06,2.82,30,14,0,0
1.6011e+05,9.544e+07,3,5577,5342,15.11,2.11,30,14,0,0
1.6056e+05,9.5548e+07,3,5335,5271,15.03,2.36,30,14,0,0
1.6096e+05,9.5651e+07,3,5272,5357,15.06,2.35,30,14,0,0
1.6141e+05,9.5757e+07,3,5358,5485,15.08,2.54,30,14,0,0
1.6185e+05,9.5866e+07,3,5484,5471,15.08,2.66,30,14,0,0
1.623e+05,9.5975e+07,3,5477,5571,15.09,2.61,30,14,0,0
1.6275e+05,9.6086e+07,3,5564,5485,15.13,2.59,30,14,0,0
1.6365e+05,9.6309e+07,3,5490,5642,15.07,3.07,30,15,0,0
1.6408e+05,9.6416e+07,3,5643,5685,15.08,2.88,30,15,0,0
1.6455e+05,9.6532e+07,3,5692,5800,15.08,3.15,30,15,0,0
1.6499e+05,9.6641e+07,3,5795,5714,15.13,3.38,30,15,0,0
1.6544e+05,9.675e+07,3,5713,5700,15.05,3.08,30,15,0,0
1.6589e+05,9.6863e+07,3,5706,5771,15.05,2.65,30,15,0,0
1.6629e+05,9.6963e+07,3,5766,5685,15.05,3.27,30,15,0,0
1.6678e+05,9.7081e+07,3,5684,5671,15.01,3.2,30,15,0,0
1.6723e+05,9.7186e+07,3,5671,5671,15.09,2.77,30,15,0,0
1.6763e+05,9.7289e+07,3,5666,5571,15.07,2.68,30,15,0,0
1.6808e+05,9.7402e+07,3,5572,5700,15.08,2.85,30,15,0,0
1.6853e+05,9.7511e+07,3,5697,5671,15.17,2.83,30,16,0,0
1.6898e+05,9.7622e+07,3,5649,5357,15.1,2.63,30,16,0,0
1.6943e+05,9.7731e+07,3,5378,5657,14.88,2.87,30,16,0,0
1.6987e+05,9.7843e+07,3,5645,5528,14.92,3.49,30,16,0,0
1.7031e+05,9.7945e+07,3,5553,6085,15.08,3.63,30,16,0,0
1.708e+05,9.8063e+07,3,6057,5771,15.12,2.83,30,16,0,0
1.7125e+05,9.8171e+07,3,5763,5685,15.11,2.88,30,16,0,0
1.717e+05,9.8282e+07,3,5679,5628,15.09,2.9,30,16,0,0
1.7214e+05,9.8388e+07,3,5640,5814,15.09,3,30,16,0,0
1.7259e+05,9.8501e+07,3,5787,5514,15.08,2.97,30,16,0,0
1.7304e+05,9.8611e+07,3,5533,5742,15.08,3.05,30,16,0,0
1.7348e+05,9.8712e+07,3,5748,5871,15.07,3.43,30,17,0,0
1.7393e+05,9.8825e+07,3,5861,5771,15.03,3.19,30,17,0,0
1.7437e+05,9.8929e+07,3,5771,5800,14.94,2.98,30,17,0,0
1.7486e+05,9.9048e+07,3,5803,5842,14.98,3.47,30,17,0,0
1.7531e+05,9.9163e+07,3,5853,5928,14.94,3.44,30,17,0,0
1.7575e+05,9.9266e+07,3,5925,5900,14.93,3.31,30,17,0,0
1.762e+05,9.9379e+07,3,5894,5828,14.97,3.53,30,17,0,0
1.771e+05,9.9607e+07,3,5832,5928,15,3.4,30,17,0,0
1.7755e+05,9.9713e+07,3,5925,5900,15.03,3.67,30,17,0,0
1.7794e+05,9.981e+07,3,5902,5957,14.95,3.45,30,18,0,0
1.7844e+05,9.9929e+07,3,5945,5814,14.99,3.06,30,18,0,0
1.7887e+05,1.0003e+08,3,5808,5714,14.98,2.82,30,18,0,0
1.7932e+05,1.0014e+08,3,5701,5371,15.02,2.62,30,18,0,0
1.7977e+05,1.0025e+08,3,5357,5171,15.1,2.13,30,18,0,0
1.8018e+05,1.0035e+08,3,5172,5285,15.05,2.49,30,18,0,0
1.8058e+05,1.0046e+08,3,5283,5185,15.07,2.17,30,18,0,0
1.8107e+05,1.0057e+08,3,5182,5057,15.01,1.97,30,18,0,0
1.8152e+05,1.0068e+08,3,5067,5371,15.02,3.01,30,18,0,0
1.8196e+05,1.0079e+08,3,5367,5271,15.05,2.35,30,18,0,0
1.8245e+05,1.0091e+08,3,5268,5242,15.05,2.46,30,18,0,0
1.8285e+05,1.0101e+08,3,5242,5271,15.08,2.54,30,18,0,0
1.833e+05,1.0112e+08,3,5267,5214,14.97,2.61,30,19,0,0
1.8371e+05,1.0122e+08,3,5216,5385,15.08,2.46,30,19,0,0
1.8419e+05,1.0133e+08,3,5385,5428,15.01,2.88,30,19,0,0
1.8464e+05,1.0144e+08,3,5427,5400,14.99,2.66,30,19,0,0
1.8553e+05,1.0166e+08,3,5400,5428,15.01,2.56,30,19,0,0
1.8598e+05,1.0177e+08,3,5411,5257,15.03,2.36,30,19,0,0
1.8643e+05,1.0188e+08,3,5260,5300,14.93,2.43,30,19,0,0
1.8684e+05,1.0198e+08,3,5297,5228,15.08,2.51,30,19,0,0
1.8728e+05,1.021e+08,3,5232,5328,15.02,2.64,30,19,0,0
1.8773e+05,1.0221e+08,3,5324,5285,15.07,2.51,30,19,0,0
1.8814e+05,1.023e+08,3,5285,5300,15.02,2.44,30,19,0,0
1.8858e+05,1.0242e+08,3,5302,5385,15.09,2.72,30,19,0,0
1.8908e+05,1.0254e+08,3,5387,5414,15.05,2.55,30,20,0,0
1.8947e+05,1.0264e+08,3,5410,5285,15.07,2.48,30,20,0,0
1.8997e+05,1.0275e+08,3,5288,5328,15.04,2.91,30,20,0,0
1.9037e+05,1.0286e+08,3,5340,5500,14.98,3.03,30,20,0,0
1.9123e+05,1.0307e+08,3,5503,5642,15.05,2.65,30,20,0,0
1.9167e+05,1.0318e+08,3,5635,5385,15.02,2.61,30,20,0,0
1.9208e+05,1.0328e+08,3,5385,5442,15.07,2.35,30,20,0,0
1.9256e+05,1.034e+08,3,5445,5471,15.07,2.76,30,20,0,0
1.9302e+05,1.0351e+08,3,5481,5600,15.01,2.64,30,20,0,0
1.9342e+05,1.0361e+08,3,5596,5428,15,2.59,30,20,0,0
1.9391e+05,1.0373e+08,3,5441,5571,14.98,2.8,30,20,0,0
1.9431e+05,1.0383e+08,3,5568,5528,15.03,2.82,30,21,0,0
1.9476e+05,1.0394e+08,3,5527,5514,15.07,2.88,30,21,0,0
1.9517e+05,1.0405e+08,3,5514,5542,15,2.7,30,21,0,0
1.9566e+05,1.0416e+08,3,5556,5785,15.01,3.05,30,21,0,0
1.961e+05,1.0428e+08,3,5781,5728,14.98,3.21,30,21,0,0
1.965e+05,1.0438e+08,3,5730,5885,14.95,3.43,30,21,0,0
1.9695e+05,1.0449e+08,3,5880,5785,14.96,3.59,30,21,0,0
1.974e+05,1.046e+08,3,5785,5814,15.04,3,30,21,0,0
1.9788e+05,1.0471e+08,3,5795,5614,15.06,2.65,30,21,0,0
1.9832e+05,1.0482e+08,3,5614,5614,14.94,2.61,30,21,0,0
1.9962e+05,1.0514e+08,3,5612,5414,15.05,2.44,30,22,0,0
2.0006e+05,1.0525e+08,3,5408,5342,15.05,2.25,30,22,0,0
2.0052e+05,1.0536e+08,3,5352,5485,14.97,2.71,30,22,0,0
2.0096e+05,1.0547e+08,3,5500,5657,14.97,2.94,30,22,0,0
2.0141e+05,1.0559e+08,3,5664,5728,14.91,3.25,30,22,0,0
2.0185e+05,1.0569e+08,3,5728,5728,14.92,3.07,30,22,0,0
2.0226e+05,1.058e+08,3,5729,5757,14.98,3.08,30,22,0,0
2.027e+05,1.059e+08,3,5755,5728,14.99,3.1,30,22,0,0
2.0314e+05,1.0601e+08,3,5746,5928,14.97,3.54,30,22,0,0
2.0363e+05,1.0612e+08,3,5934,6000,14.98,3.22,30,22,0,0
2.0448e+05,1.0633e+08,3,5998,5928,14.99,3.15,30,23,0,0
2.0488e+05,1.0644e+08,3,5929,6000,14.96,3.18,30,23,0,0
2.0538e+05,1.0656e+08,3,6014,6171,14.8,3.66,30,23,0,0
2.0578e+05,1.0666e+08,3,6170,6142,14.91,3.8,30,23,0,0
2.0623e+05,1.0677e+08,3,6136,6042,14.91,3.61,30,23,0,0
2.0664e+05,1.0688e+08,3,6049,6214,14.91,3.67,30,23,0,0
2.0709e+05,1.0699e+08,3,6211,6085,14.88,3.55,30,23,0,0
2.0753e+05,1.071e+08,3,6085,6142,14.91,3.67,30,23,0,0
2.0847e+05,1.0732e+08,3,6134,5957,14.88,3.57,30,24,0,0
2.0891e+05,1.0743e+08,3,5962,6042,14.86,3.45,30,24,0,0
2.0936e+05,1.0754e+08,3,6039,6014,14.85,3.78,30,24,0,0
2.0981e+05,1.0765e+08,3,6037,6285,14.86,4.18,30,24,0,0
2.1025e+05,1.0776e+08,3,6280,6200,14.86,3.75,30,24,0,0
2.1066e+05,1.0787e+08,3,6198,6157,14.88,3.73,30,24,0,0
2.1115e+05,1.0799e+08,3,6135,5957,14.88,3.35,30,24,0,0
2.1155e+05,1.0808e+08,3,5961,6157,14.94,3.08,30,24,0,0
2.1204e+05,1.082e+08,3,6121,5771,14.86,3.12,30,24,0,0
2.1248e+05,1.0831e+08,3,5764,5700,14.92,2.77,30,25,0,0
2.1292e+05,1.0842e+08,3,5670,5428,14.85,2.84,30,25,0,0
2.1337e+05,1.0853e+08,3,5449,5714,14.92,3.08,30,25,0,0
2.1381e+05,1.0864e+08,3,5707,5642,14.92,3.13,30,25,0,0
2.1427e+05,1.0875e+08,3,5650,5714,14.98,3.06,30,25,0,0
2.1471e+05,1.0886e+08,3,5725,5828,14.94,3.21,30,25,0,0
2.1516e+05,1.0896e+08,3,5821,5757,15.01,2.8,30,25,0,0
2.1556e+05,1.0907e+08,3,5751,5500,14.94,2.64,30,25,0,0
2.1601e+05,1.0918e+08,3,5517,5671,14.98,3.07,30,25,0,0
2.1641e+05,1.0928e+08,3,5668,5614,15.02,2.42,30,25,0,0
2.169e+05,1.0939e+08,3,5605,5471,15.06,2.39,30,25,0,0
2.1734e+05,1.0951e+08,3,5459,5342,15.02,2.73,30,26,0,0
2.1779e+05,1.0962e+08,3,5354,5528,14.96,2.88,30,26,0,0
2.182e+05,1.0972e+08,3,5515,5414,14.97,2.75,30,26,0,0
2.186e+05,1.0982e+08,3,5419,5500,15,2.6,30,26,0,0
2.1909e+05,1.0994e+08,3,5494,5428,14.98,2.72,30,26,0,0
2.1948e+05,1.1004e+08,3,5427,5400,15,2.61,30,26,0,0
2.1998e+05,1.1016e+08,3,5410,5485,14.98,2.91,30,26,0,0
2.2035e+05,1.1025e+08,3,5484,5442,14.91,2.52,30,26,0,0
2.2124e+05,1.1047e+08,3,5445,5700,14.83,3.47,30,26,0,0
2.2172e+05,1.1059e+08,3,5716,5857,14.89,3.21,30,26,0,0
2.2213e+05,1.1069e+08,3,5854,5785,14.92,3.34,30,26,0,0
2.2302e+05,1.1091e+08,3,5795,6200,14.83,4.14,30,27,0,0
2.2341e+05,1.1101e+08,3,6199,6185,14.79,4.21,30,27,0,0
2.2427e+05,1.1122e+08,3,6182,5871,14.86,3.25,30,27,0,0
2.2476e+05,1.1134e+08,3,5863,5785,14.91,2.95,30,27,0,0
2.2517e+05,1.1145e+08,3,5780,5742,14.88,3.05,30,27,0,0
2.2562e+05,1.1156e+08,3,5735,5685,14.92,2.67,30,27,0,0
2.2602e+05,1.1166e+08,3,5665,5285,15.04,2,30,27,0,0
2.2647e+05,1.1177e+08,3,5273,5171,15,2.38,30,27,0,0
2.2732e+05,1.1198e+08,3,5174,5414,14.89,2.55,30,28,0,0
2.2777e+05,1.121e+08,3,5414,5428,14.8,3.15,30,28,0,0
2.2866e+05,1.1231e+08,3,5449,5928,14.77,3.84,30,28,0,0
2.291e+05,1.1242e+08,3,5932,5971,14.85,3.27,30,28,0,0
2.2955e+05,1.1254e+08,3,5949,5728,15.02,2.91,30,28,0,0
2.2996e+05,1.1264e+08,3,5722,5671,14.92,3.14,30,28,0,0
2.3041e+05,1.1275e+08,3,5671,5714,14.92,2.89,30,28,0,0
2.3084e+05,1.1285e+08,3,5710,5585,15.03,2.79,30,28,0,0
2.3133e+05,1.1297e+08,3,5576,5514,15,2.96,30,28,0,0
2.317e+05,1.1307e+08,3,5514,5528,14.88,2.81,30,29,0,0
2.3263e+05,1.1329e+08,3,5533,5642,14.83,2.9,30,29,0,0
2.3308e+05,1.1341e+08,3,5650,5742,14.91,3.2,30,29,0,0
2.3348e+05,1.1351e+08,3,5741,5728,14.91,3.14,30,29,0,0
2.3393e+05,1.1362e+08,3,5720,5642,14.88,3.24,30,29,0,0
2.3478e+05,1.1383e+08,3,5641,5542,14.82,2.85,30,29,0,0
2.3527e+05,1.1395e+08,3,5550,5671,14.84,2.95,30,29,0,0
2.3567e+05,1.1405e+08,3,5665,5571,14.85,2.95,30,29,0,0
2.3612e+05,1.1416e+08,3,5581,5771,14.87,3.32,30,30,0,0
2.3653e+05,1.1426e+08,3,5768,5728,14.88,3.31,30,30,0,0
2.3694e+05,1.1437e+08,3,5729,5842,14.88,3.66,30,30,0,0
2.3738e+05,1.1448e+08,3,5843,5914,14.9,3.06,30,30,0,0
2.3786e+05,1.1459e+08,3,5891,5685,14.95,2.81,30,30,0,0
2.3919e+05,1.1492e+08,3,5685,5771,14.86,3.18,30,30,0,0
2.3964e+05,1.1503e+08,3,5770,5757,14.84,3.3,30,30,0,0
2.4009e+05,1.1514e+08,3,5758,5771,14.95,3.29,30,30,0,0
2.405e+05,1.1525e+08,3,5775,5885,14.92,3.19,30,30,0,0
2.4095e+05,1.1536e+08,3,5878,5814,14.9,3.41,30,31,0,0
2.414e+05,1.1547e+08,3,5807,5728,14.89,3.26,30,31,0,0
2.4185e+05,1.1557e+08,3,5732,5842,14.82,3.29,30,31,0,0
2.4229e+05,1.1569e+08,3,5842,5842,14.89,3.26,30,31,0,0
2.4318e+05,1.159e+08,3,5839,5771,14.86,3.18,30,31,0,0
2.4408e+05,1.1612e+08,3,5775,5871,14.83,3.35,30,31,0,0
2.4448e+05,1.1622e+08,3,5872,5914,14.92,3.22,30,31,0,0
2.4492e+05,1.1633e+08,3,5908,5800,14.94,2.96,30,31,0,0
2.4537e+05,1.1644e+08,3,5802,5871,14.94,3.05,30,32,0,0
2.4586e+05,1.1656e+08,3,5864,5785,14.85,3.23,30,32,0,0
2.4626e+05,1.1665e+08,3,5782,5742,14.76,3.11,30,32,0,0
2.4675e+05,1.1677e+08,3,5738,5700,14.83,2.92,30,32,0,0
2.472e+05,1.1688e+08,3,5703,5742,14.89,2.93,30,32,0,0
2.476e+05,1.1698e+08,3,5738,5571,14.86,3.02,30,32,0,0
2.4804e+05,1.1709e+08,3,5576,5685,14.89,3.04,30,32,0,0
2.4849e+05,1.172e+08,3,5680,5571,15,2.91,30,32,0,0
2.5024e+05,1.1764e+08,3,5568,5371,14.91,2.55,30,33,0,0
2.5072e+05,1.1775e+08,3,5372,5442,14.92,3.02,30,33,0,0
2.5161e+05,1.1797e+08,3,5448,5657,14.85,3.06,30,33,0,0
2.5206e+05,1.1808e+08,3,5651,5571,14.95,2.66,30,33,0,0
2.5251e+05,1.1819e+08,3,5550,5414,14.96,2.91,30,33,0,0
2.5292e+05,1.183e+08,3,5414,5428,14.95,2.73,30,33,0,0
2.5332e+05,1.184e+08,3,5430,5457,14.98,2.57,30,33,0,0
2.5378e+05,1.1852e+08,3,5439,5257,14.94,2.61,30,33,0,0
2.5418e+05,1.1862e+08,3,5258,5357,14.92,2.76,30,33,0,0
2.5463e+05,1.1872e+08,3,5358,5457,14.94,2.87,30,33,0,0
2.5511e+05,1.1884e+08,3,5457,5457,14.91,3.02,30,33,0,0
2.5556e+05,1.1895e+08,3,5471,5614,14.99,2.95,30,34,0,0
2.5596e+05,1.1905e+08,3,5612,5571,14.97,3.22,30,34,0,0
2.5641e+05,1.1916e+08,3,5573,5757,14.97,3.06,30,34,0,0
2.5685e+05,1.1927e+08,3,5754,5728,14.86,3.12,30,34,0,0
2.573e+05,1.1938e+08,3,5715,5528,14.85,3.15,30,34,0,0
2.5774e+05,1.1949e+08,3,5552,5814,14.95,3.18,30,34,0,0
2.582e+05,1.196e+08,3,5798,5614,14.94,2.76,30,34,0,0
2.5861e+05,1.1971e+08,3,5600,5428,14.9,2.33,30,34,0,0
2.5905e+05,1.1982e+08,3,5427,5414,14.85,2.94,30,34,0,0
2.595e+05,1.1993e+08,3,5407,5271,14.85,2.51,30,34,0,0
2.599e+05,1.2003e+08,3,5273,5414,14.87,2.82,30,34,0,0
2.6039e+05,1.2014e+08,3,5410,5357,14.79,2.53,30,35,0,0
2.6083e+05,1.2025e+08,3,5335,5157,14.87,2.04,30,35,0,0
2.6128e+05,1.2036e+08,3,5171,5314,14.9,2.39,30,35,0,0
2.6168e+05,1.2046e+08,3,5311,5257,14.85,2.61,30,35,0,0
2.6214e+05,1.2057e+08,3,5267,5414,14.84,2.78,30,35,0,0
2.6255e+05,1.2068e+08,3,5413,5400,14.88,2.74,30,35,0,0
2.63e+05,1.2079e+08,3,5405,5457,14.84,2.89,30,35,0,0
2.6344e+05,1.209e+08,3,5461,5571,14.76,3.16,30,35,0,0
2.6437e+05,1.2112e+08,3,5590,5885,14.84,3.45,30,35,0,0
2.6478e+05,1.2122e+08,3,5898,6100,14.79,3.58,30,35,0,0
2.6522e+05,1.2133e+08,3,6092,5957,14.82,3.56,30,35,0,0
2.6566e+05,1.2144e+08,3,5953,5914,14.9,3.18,30,36,0,0
2.6612e+05,1.2155e+08,3,5897,5642,14.88,2.85,30,36,0,0
2.6655e+05,1.2166e+08,3,5610,5342,14.86,2.37,30,36,0,0
2.6696e+05,1.2176e+08,3,5344,5428,14.86,2.73,30,36,0,0
2.6741e+05,1.2187e+08,3,5427,5414,14.91,2.73,30,36,0,0
2.679e+05,1.2199e+08,3,5426,5528,14.88,2.62,30,36,0,0
2.6876e+05,1.2221e+08,3,5515,5342,14.89,2.5,30,36,0,0
2.6916e+05,1.2232e+08,3,5334,5257,14.85,2.42,30,36,0,0
2.6957e+05,1.2242e+08,3,5261,5342,14.84,2.6,30,36,0,0
2.7002e+05,1.2253e+08,3,5339,5300,14.88,2.36,30,36,0,0
2.7043e+05,1.2264e+08,3,5298,5242,14.89,2.29,30,36,0,0
2.7088e+05,1.2275e+08,3,5239,5214,14.92,2.34,30,37,0,0
2.7133e+05,1.2286e+08,3,5208,5157,14.92,2.33,30,37,0,0
2.7173e+05,1.2296e+08,3,5156,5142,14.89,2.36,30,37,0,0
2.7218e+05,1.2307e+08,3,5141,5128,14.88,2.39,30,37,0,0
2.7263e+05,1.2318e+08,3,5133,5185,14.93,2.57,30,37,0,0
2.7307e+05,1.2329e+08,3,5200,5357,14.84,2.62,30,37,0,0
2.7348e+05,1.234e+08,3,5363,5528,14.85,2.82,30,37,0,0
2.7393e+05,1.235e+08,3,5520,5385,14.84,2.56,30,37,0,0
2.7438e+05,1.2362e+08,3,5381,5342,14.82,2.57,30,37,0,0
2.7482e+05,1.2373e+08,3,5337,5285,14.79,2.4,30,37,0,0
2.7518e+05,1.2382e+08,3,5285,5314,14.89,2.54,30,37,0,0
2.7611e+05,1.2404e+08,3,5298,4942,14.86,1.89,30,37,0,0
2.766e+05,1.2416e+08,3,4930,4814,14.85,1.88,30,38,0,0
2.77e+05,1.2426e+08,3,4818,4871,14.91,1.89,30,38,0,0
2.7745e+05,1.2437e+08,3,4868,4842,14.87,1.8,30,38,0,0
2.7786e+05,1.2447e+08,3,4841,4785,14.86,1.7,30,38,0,0
2.7834e+05,1.2459e+08,3,4785,4785,14.97,1.96,30,38,0,0
2.7874e+05,1.2469e+08,3,4786,4885,14.97,2.17,30,38,0,0
2.7922e+05,1.248e+08,3,4890,4985,14.98,2.2,30,38,0,0
2.7963e+05,1.2491e+08,3,4991,5114,14.97,2.04,30,38,0,0
2.8008e+05,1.2502e+08,3,5114,5114,15.03,2.23,30,38,0,0
2.8052e+05,1.2512e+08,3,5114,5114,15.02,2.25,30,38,0,0
2.8097e+05,1.2524e+08,3,5116,5285,14.99,2.44,30,38,0,0
2.8142e+05,1.2535e+08,3,5284,5257,14.99,2.19,30,38,0,0
2.8187e+05,1.2546e+08,3,5253,5200,14.97,1.97,30,38,0,0
2.8232e+05,1.2557e+08,3,5188,5028,14.93,2.07,30,38,0,0
2.8272e+05,1.2567e+08,3,5027,5000,14.89,1.75,30,38,0,0
2.8317e+05,1.2578e+08,3,4997,4742,14.95,1.37,30,38,0,0
2.8361e+05,1.2589e+08,3,4740,4714,14.91,1.62,30,38,0,0
2.8406e+05,1.26e+08,3,4714,4771,14.91,1.76,30,39,0,0
2.8451e+05,1.261e+08,3,4781,4914,14.87,2.02,30,39,0,0
2.8495e+05,1.2621e+08,3,4912,4885,14.97,1.77,30,39,0,0
2.854e+05,1.2632e+08,3,4879,4828,14.92,1.74,30,39,0,0
2.8584e+05,1.2643e+08,3,4832,4900,14.9,1.84,30,39,0,0
2.8629e+05,1.2654e+08,3,4901,4914,14.95,1.85,30,39,0,0
2.8674e+05,1.2665e+08,3,4916,4942,14.96,2.05,30,39,0,0
2.8718e+05,1.2676e+08,3,4939,4914,14.98,1.82,30,39,0,0
2.8758e+05,1.2686e+08,3,4914,4971,15,1.62,30,39,0,0
2.8807e+05,1.2698e+08,3,4969,4914,14.9,1.81,30,39,0,0
2.8852e+05,1.2709e+08,3,4900,4771,14.87,1.78,30,39,0,0
2.8901e+05,1.2721e+08,3,4785,4957,14.87,1.92,30,39,0,0
2.8941e+05,1.2731e+08,3,4954,4928,14.86,1.74,30,39,0,0
2.8986e+05,1.2742e+08,3,4928,4928,14.83,2.27,30,39,0,0
2.903e+05,1.2753e+08,3,4944,5157,14.78,2.79,30,39,0,0
2.9075e+05,1.2763e+08,3,5161,5342,14.77,3,30,39,0,0
2.912e+05,1.2775e+08,3,5361,5557,14.84,2.89,30,40,0,0
2.9165e+05,1.2786e+08,3,5542,5400,14.9,2.62,30,40,0,0
2.925e+05,1.2807e+08,3,5393,5114,14.94,2.17,30,40,0,0
2.9299e+05,1.2819e+08,3,5091,4957,14.93,1.92,30,40,0,0
2.9339e+05,1.2829e+08,3,4943,4800,14.97,1.54,30,40,0,0
2.9384e+05,1.284e+08,3,4791,4728,15,1.57,30,40,0,0
2.9425e+05,1.285e+08,3,4733,4814,14.95,2.05,30,40,0,0
2.9465e+05,1.286e+08,3,4818,5028,14.9,1.98,30,40,0,0
2.9558e+05,1.2883e+08,3,5028,5028,14.97,1.93,30,40,0,0
2.9604e+05,1.2894e+08,3,5036,5128,14.87,2.01,30,40,0,0
2.9644e+05,1.2904e+08,3,5110,4871,14.95,2.08,30,40,0,0
2.9689e+05,1.2915e+08,3,4871,4871,14.92,1.74,30,40,0,0
2.9729e+05,1.2925e+08,3,4870,4828,14.89,1.74,30,40,0,0
2.9774e+05,1.2936e+08,3,4826,4771,14.91,1.56,30,40,0,0
2.9822e+05,1.2947e+08,3,4769,4728,14.83,1.38,30,40,0,0
2.9871e+05,1.2959e+08,3,4721,4642,14.94,1.51,30,41,0,0
2.9915e+05,1.297e+08,3,4658,4871,14.97,1.6,30,41,0,0
2.996e+05,1.2981e+08,3,4877,4942,14.86,2.39,30,41,0,0
3.0005e+05,1.2992e+08,3,4946,4985,14.66,2.4,30,41,0,0
3.005e+05,1.3003e+08,3,4982,4957,14.9,1.91,30,41,0,0
3.009e+05,1.3014e+08,3,4950,4900,14.93,2.04,29,41,0,0
3.0131e+05,1.3023e+08,3,4902,5042,14.91,2.21,30,41,0,0
3.0223e+05,1.3046e+08,3,5044,5114,15,2.03,30,41,0,0
3.0268e+05,1.3057e+08,3,5120,5185,14.92,2.2,30,41,0,0
3.0313e+05,1.3068e+08,3,5195,5285,14.87,2.76,30,41,0,0
3.0357e+05,1.3078e+08,3,5286,5371,14.92,2.44,29,41,0,0
3.0401e+05,1.3089e+08,3,5369,5342,14.85,2.37,30,41,0,0
3.0446e+05,1.3101e+08,3,5336,5271,14.98,2.53,30,41,0,0
3.0495e+05,1.3112e+08,3,5266,5214,14.92,2.63,29,42,0,0
3.058e+05,1.3133e+08,3,5214,5228,14.94,2.64,30,42,0,0
3.0669e+05,1.3155e+08,3,5235,5385,14.91,2.69,30,42,0,0
3.0713e+05,1.3166e+08,3,5374,5228,14.95,2.55,29,42,0,0
3.0844e+05,1.3198e+08,3,5229,5600,14.85,3.07,30,42,0,0
3.0892e+05,1.321e+08,3,5598,5585,14.83,3.03,30,42,0,0
3.0936e+05,1.3222e+08,3,5590,5671,14.84,3.04,30,42,0,0
3.0982e+05,1.3233e+08,3,5657,5528,14.89,2.9,30,42,0,0
3.1025e+05,1.3243e+08,3,5528,5542,14.83,2.64,30,43,0,0
3.107e+05,1.3254e+08,3,5545,5600,14.8,2.77,30,43,0,0
3.1115e+05,1.3265e+08,3,5582,5400,14.89,2.45,30,43,0,0
3.116e+05,1.3276e+08,3,5391,5271,14.9,2.34,30,43,0,0
3.1246e+05,1.3298e+08,3,5270,5242,14.91,2.41,30,43,0,0
3.129e+05,1.3309e+08,3,5238,5185,14.95,2.07,30,43,0,0
3.1334e+05,1.332e+08,3,5179,5071,14.9,2.4,30,43,0,0
3.1375e+05,1.333e+08,3,5072,5157,14.92,2.27,30,43,0,0
3.1424e+05,1.3342e+08,3,5158,5185,14.87,2.38,30,43,0,0
3.147e+05,1.3353e+08,3,5185,5185,14.95,2.37,29,43,0,0
3.1509e+05,1.3363e+08,3,5184,5171,14.93,2.2,29,43,0,0
3.1554e+05,1.3374e+08,3,5171,5171,14.91,2.46,29,43,0,0
3.1598e+05,1.3385e+08,3,5174,5314,14.82,2.82,30,43,0,0
3.1639e+05,1.3395e+08,3,5316,5457,14.89,2.89,30,44,0,0
3.1688e+05,1.3407e+08,3,5454,5428,14.92,2.78,29,44,0,0
3.1728e+05,1.3417e+08,3,5426,5357,14.89,2.6,30,44,0,0
3.1772e+05,1.3428e+08,3,5361,5457,14.88,2.65,29,44,0,0
3.1822e+05,1.344e+08,3,5451,5400,14.83,2.57,29,44,0,0
3.191e+05,1.3461e+08,3,5401,5428,14.89,2.88,30,44,0,0
3.1951e+05,1.3471e+08,3,5428,5442,14.85,2.72,29,44,0,0
3.1995e+05,1.3482e+08,3,5441,5428,14.91,2.71,30,44,0,0
3.204e+05,1.3493e+08,3,5428,5485,14.91,2.76,30,44,0,0
3.2084e+05,1.3504e+08,3,5481,5428,14.88,2.67,29,44,0,0
3.213e+05,1.3515e+08,3,5438,5542,14.89,2.83,30,44,0,0
3.2174e+05,1.3526e+08,3,5538,5485,14.94,2.42,29,45,0,0
3.2219e+05,1.3537e+08,3,5479,5400,14.94,2.61,30,45,0,0
3.226e+05,1.3547e+08,3,5398,5314,14.91,2.57,30,45,0,0
3.2304e+05,1.3558e+08,3,5311,5257,14.86,2.6,30,45,0,0
3.2349e+05,1.3569e+08,3,5255,5228,14.94,2.37,29,45,0,0
3.2397e+05,1.3581e+08,3,5228,5228,14.92,2.23,30,45,0,0
3.2438e+05,1.3591e+08,3,5221,5142,14.8,2.4,29,45,0,0
3.2478e+05,1.3601e+08,3,5144,5314,14.86,2.46,30,45,0,0
3.2528e+05,1.3613e+08,3,5297,5100,14.86,2.43,30,45,0,0
3.2568e+05,1.3623e+08,3,5110,5357,14.87,2.92,29,45,0,0
3.2613e+05,1.3635e+08,3,5357,5357,14.87,2.62,30,45,0,0
3.2654e+05,1.3645e+08,3,5358,5428,14.92,2.83,30,45,0,0
3.2702e+05,1.3656e+08,3,5425,5400,14.92,2.37,29,45,0,0
3.2791e+05,1.3678e+08,3,5410,5557,14.85,2.96,30,46,0,0
3.2876e+05,1.3699e+08,3,5556,5500,14.86,2.89,30,46,0,0
3.2925e+05,1.3711e+08,3,5510,5614,14.86,2.75,29,46,0,0
3.2965e+05,1.3721e+08,3,5605,5442,14.9,2.8,29,46,0,0
3.3051e+05,1.3742e+08,3,5434,5114,14.92,1.6,30,46,0,0
3.3096e+05,1.3753e+08,3,5104,4985,14.86,2.05,29,46,0,0
3.314e+05,1.3765e+08,3,4977,4871,14.86,1.97,29,46,0,0
3.3229e+05,1.3787e+08,3,4872,4914,14.59,2.94,30,46,0,0
3.3274e+05,1.3798e+08,3,4934,5114,14.82,3.23,30,47,0,0
3.3318e+05,1.3809e+08,3,5110,5085,14.88,3.16,30,47,0,0
3.3359e+05,1.3819e+08,3,5087,5242,14.76,3.27,30,47,0,0
3.3403e+05,1.383e+08,3,5242,5257,14.55,3.25,29,47,0,0
3.3448e+05,1.3841e+08,3,5289,5500,14.76,3.22,30,47,0,0
3.3493e+05,1.3852e+08,3,5500,5528,14.79,3.06,30,47,0,0
3.3537e+05,1.3862e+08,3,5522,5442,14.88,2.82,30,47,0,0
3.3582e+05,1.3873e+08,3,5437,5371,14.87,2.71,29,47,0,0
3.3626e+05,1.3884e+08,3,5374,5442,14.89,2.7,29,47,0,0
3.3671e+05,1.3896e+08,3,5431,5314,14.89,2.36,29,47,0,0
3.3713e+05,1.3906e+08,3,5311,5285,14.91,2.73,29,47,0,0
3.3758e+05,1.3917e+08,3,5284,5271,14.86,2.39,30,47,0,0
3.3802e+05,1.3929e+08,3,5279,5357,14.96,2.66,29,48,0,0
3.3843e+05,1.3939e+08,3,5355,5271,14.9,2.25,29,48,0,0
3.3888e+05,1.395e+08,3,5251,5085,14.86,2.32,30,48,0,0
3.3933e+05,1.3961e+08,3,5085,5085,14.88,2.49,29,48,0,0
3.3977e+05,1.3972e+08,3,5096,5200,14.88,2.56,30,48,0,0
3.4017e+05,1.3982e+08,3,5206,5385,14.86,2.72,30,48,0,0
3.4066e+05,1.3993e+08,3,5375,5285,14.89,2.37,30,48,0,0
3.411e+05,1.4004e+08,3,5283,5257,14.85,2.61,30,48,0,0
3.4155e+05,1.4015e+08,3,5274,5457,14.84,2.79,30,48,0,0
3.42e+05,1.4026e+08,3,5451,5400,14.9,2.59,30,48,0,0
3.4244e+05,1.4036e+08,3,5394,5285,14.91,2.37,30,48,0,0
3.4285e+05,1.4047e+08,3,5285,5342,14.89,2.31,29,48,0,0
3.4334e+05,1.4059e+08,3,5334,5257,14.89,2.38,30,48,0,0
3.4378e+05,1.407e+08,3,5246,5171,14.94,2.29,30,49,0,0
3.4463e+05,1.4091e+08,3,5173,5285,14.81,2.57,29,49,0,0
3.4512e+05,1.4103e+08,3,5295,5414,14.86,2.69,29,49,0,0
3.4552e+05,1.4113e+08,3,5415,5471,14.87,2.7,30,49,0,0
3.46e+05,1.4124e+08,3,5468,5428,14.89,2.45,29,49,0,0
3.4646e+05,1.4135e+08,3,5424,5385,14.82,2.75,30,49,0,0
3.4686e+05,1.4146e+08,3,5375,5242,14.9,2.49,29,49,0,0
3.4732e+05,1.4157e+08,3,5250,5385,14.89,2.91,29,49,0,0
3.4776e+05,1.4168e+08,3,5385,5385,14.88,2.55,29,49,0,0
3.4817e+05,1.4179e+08,3,5385,5385,14.95,2.57,30,49,0,0
3.4862e+05,1.4189e+08,3,5384,5342,14.94,2.44,30,49,0,0
3.491e+05,1.4202e+08,3,5304,4900,14.95,1.65,30,49,0,0
3.4951e+05,1.4212e+08,3,4899,4857,14.91,2.11,30,50,0,0
3.504e+05,1.4234e+08,3,4866,5114,14.71,2.66,30,50,0,0
3.5085e+05,1.4245e+08,3,5118,5171,14.59,3.36,30,50,0,0
3.513e+05,1.4255e+08,3,5197,5571,14.78,3.18,30,50,0,0
3.5175e+05,1.4267e+08,3,5576,5628,14.85,2.76,30,50,0,0
3.5215e+05,1.4277e+08,3,5626,5585,14.91,2.98,30,50,0,0
3.526e+05,1.4288e+08,3,5583,5557,14.86,2.72,29,50,0,0
3.5345e+05,1.431e+08,3,5552,5414,14.86,2.76,30,50,0,0
3.539e+05,1.4321e+08,3,5417,5485,14.88,2.79,30,50,0,0
3.5434e+05,1.4331e+08,3,5488,5528,14.89,2.65,30,50,0,0
3.5478e+05,1.4342e+08,3,5527,5514,14.91,2.86,30,51,0,0
3.5519e+05,1.4353e+08,3,5520,5600,14.84,2.84,30,51,0,0
3.556e+05,1.4363e+08,3,5599,5571,14.84,2.91,29,51,0,0
3.5609e+05,1.4375e+08,3,5572,5600,14.86,2.91,30,51,0,0
3.565e+05,1.4386e+08,3,5598,5585,14.82,2.9,30,51,0,0
3.5694e+05,1.4396e+08,3,5584,5557,14.88,2.82,30,51,0,0
3.5738e+05,1.4407e+08,3,5554,5457,14.88,2.4,29,51,0,0
3.5827e+05,1.4429e+08,3,5457,5457,14.78,3.04,30,51,0,0
3.5872e+05,1.444e+08,3,5466,5571,14.88,2.85,30,51,0,0
3.5912e+05,1.445e+08,3,5567,5428,14.88,2.61,30,51,0,0
3.5957e+05,1.4461e+08,3,5422,5328,14.88,2.6,30,51,0,0
3.6002e+05,1.4472e+08,3,5318,5200,14.68,2.91,30,52,0,0
3.6046e+05,1.4483e+08,3,5192,5114,14.78,2.78,30,52,0,0
3.6087e+05,1.4493e+08,3,5119,5457,14.89,3.04,30,52,0,0
3.6135e+05,1.4504e+08,3,5444,5171,14.67,2.84,30,52,0,0
3.618e+05,1.4515e+08,3,5181,5285,14.77,3.52,29,52,0,0
3.6224e+05,1.4526e+08,3,5289,5400,14.97,3.26,30,52,0,0
3.631e+05,1.4547e+08,3,5398,5285,14.88,2.89,29,52,0,0
3.6358e+05,1.4559e+08,3,5287,5314,14.82,3.44,30,52,0,0
3.6402e+05,1.457e+08,3,5327,5457,14.73,3.63,30,52,0,0
3.6447e+05,1.4581e+08,3,5450,5385,14.9,2.77,30,52,0,0
3.6488e+05,1.4591e+08,3,5386,5414,14.87,3.07,30,53,0,0
3.6532e+05,1.4602e+08,3,5423,5600,14.41,4.13,30,53,0,0
3.6577e+05,1.4613e+08,3,5605,5671,14.73,3.46,30,53,0,0
3.6622e+05,1.4624e+08,3,5680,5771,14.81,3.07,30,53,0,0
3.6666e+05,1.4634e+08,3,5761,5628,14.91,2.99,30,53,0,0
3.6706e+05,1.4644e+08,3,5630,5757,14.76,2.88,30,53,0,0
3.6751e+05,1.4655e+08,3,5744,5428,14.7,2.88,30,53,0,0
3.6795e+05,1.4666e+08,3,5458,5900,14.83,3.62,30,53,0,0
3.6844e+05,1.4678e+08,3,5888,5771,14.81,2.82,30,53,0,0
3.6884e+05,1.4688e+08,3,5774,5842,14.76,3.21,30,53,0,0
3.6929e+05,1.4699e+08,3,5841,5785,14.8,3.18,30,54,0,0
3.6974e+05,1.471e+08,3,5782,5757,14.88,2.88,30,54,0,0
3.7018e+05,1.4721e+08,3,5741,5542,14.88,2.93,30,54,0,0
3.7063e+05,1.4732e+08,3,5562,5700,14.88,2.84,30,54,0,0
3.7103e+05,1.4742e+08,3,5694,5342,14.98,2.2,30,54,0,0
3.7148e+05,1.4753e+08,3,5342,5342,14.94,2.51,30,54,0,0
3.7242e+05,1.4776e+08,3,5331,5128,14.69,2.85,30,54,0,0
3.7282e+05,1.4786e+08,3,5127,5114,14.91,3.17,30,54,0,0
3.7327e+05,1.4797e+08,3,5126,5428,14.94,2.66,30,54,0,0
3.7375e+05,1.4808e+08,3,5415,5242,15.08,2.08,30,54,0,0
3.742e+05,1.482e+08,3,5227,5100,14.92,2.38,30,54,0,0
3.7505e+05,1.4841e+08,3,5101,5300,14.86,3.18,30,55,0,0
3.755e+05,1.4852e+08,3,5331,5571,14.82,2.69,30,55,0,0
3.7594e+05,1.4863e+08,3,5586,5714,14.75,3.83,30,55,0,0
3.7639e+05,1.4874e+08,3,5735,6028,14.8,3.92,30,55,0,0
3.768e+05,1.4884e+08,3,6012,5671,14.98,2.33,30,55,0,0
3.7725e+05,1.4895e+08,3,5652,5400,14.88,2.51,30,55,0,0
3.7765e+05,1.4906e+08,3,5390,5157,14.91,2.04,30,55,0,0
3.781e+05,1.4917e+08,3,5155,5128,14.83,2.2,30,55,0,0
3.7855e+05,1.4928e+08,3,5102,4771,14.86,1.64,30,55,0,0
3.79e+05,1.4939e+08,3,4765,4685,14.92,2.15,30,55,0,0
3.7941e+05,1.495e+08,3,4701,4857,14.66,2.69,30,55,0,0
3.7981e+05,1.496e+08,3,4859,5057,14.62,3.18,30,56,0,0
3.8029e+05,1.4971e+08,3,5055,5042,14.86,3.11,30,56,0,0
3.8074e+05,1.4982e+08,3,5063,5285,14.63,3.35,30,56,0,0
3.8119e+05,1.4993e+08,3,5285,5300,14.75,2.72,30,56,0,0
3.8205e+05,1.5014e+08,3,5305,5471,14.79,2.77,30,56,0,0
3.8245e+05,1.5025e+08,3,5470,5414,14.82,2.65,30,56,0,0
3.829e+05,1.5036e+08,3,5415,5514,14.86,3.08,30,56,0,0
3.8339e+05,1.5048e+08,3,5516,5542,14.82,2.75,30,56,0,0
3.8379e+05,1.5058e+08,3,5545,5600,14.75,3.27,30,56,0,0
3.842e+05,1.5068e+08,3,5609,5814,14.8,3.24,30,56,0,0
3.8512e+05,1.509e+08,3,5813,5785,14.74,3.42,30,57,0,0
3.8552e+05,1.51e+08,3,5785,5785,14.85,3.1,30,57,0,0
3.8597e+05,1.5111e+08,3,5763,5342,14.85,2.24,30,57,0,0
3.8642e+05,1.5123e+08,3,5348,5414,14.73,2.89,30,57,0,0
3.8687e+05,1.5134e+08,3,5424,5528,14.74,3.09,30,57,0,0
3.8727e+05,1.5144e+08,3,5529,5571,14.8,3.2,30,57,0,0
3.8776e+05,1.5156e+08,3,5575,5628,14.8,2.88,30,57,0,0
3.882e+05,1.5166e+08,3,5623,5542,14.85,2.55,30,57,0,0
3.8865e+05,1.5177e+08,3,5533,5442,14.85,2.43,30,57,0,0
3.8905e+05,1.5187e+08,3,5432,5314,14.82,2.71,30,57,0,0
3.895e+05,1.5198e+08,3,5315,5428,14.78,2.64,30,58,0,0
3.9042e+05,1.522e+08,3,5418,5185,14.89,2.41,30,58,0,0
3.9083e+05,1.523e+08,3,5185,5214,14.95,2.23,30,58,0,0
3.9128e+05,1.5241e+08,3,5213,5185,14.67,2.92,30,58,0,0
3.9173e+05,1.5252e+08,3,5183,5171,14.82,2.71,30,58,0,0
3.9213e+05,1.5262e+08,3,5179,5371,14.85,3.29,30,58,0,0
3.9258e+05,1.5273e+08,3,5372,5414,14.86,3.55,30,58,0,0
3.9343e+05,1.5294e+08,3,5413,5357,14.46,3.5,30,58,0,0
3.9392e+05,1.5306e+08,3,5366,5500,14.82,2.87,30,58,0,0
3.9436e+05,1.5316e+08,3,5491,5300,14.88,2.52,30,58,0,0
3.9485e+05,1.5328e+08,3,5311,5500,14.8,3.31,30,59,0,0
3.953e+05,1.534e+08,3,5510,5600,14.82,3.19,30,59,0,0
3.957e+05,1.535e+08,3,5597,5457,14.86,2.5,30,59,0,0
3.9659e+05,1.5372e+08,3,5452,5314,14.86,2.35,30,59,0,0
3.9703e+05,1.5383e+08,3,5308,5185,14.8,2.55,30,59,0,0
3.9748e+05,1.5393e+08,3,5187,5228,14.68,2.82,30,59,0,0
3.9789e+05,1.5404e+08,3,5225,5057,14.91,2.22,30,59,0,0
3.9837e+05,1.5415e+08,3,5059,5171,14.91,2.41,30,59,0,0
3.9886e+05,1.5427e+08,3,5168,5128,14.63,2.91,30,59,0,0
3.9931e+05,1.5438e+08,3,5147,5328,14.7,3.22,30,59,0,0
3.9971e+05,1.5448e+08,3,5324,5085,14.5,3.84,30,59,0,0
4.0016e+05,1.546e+08,3,5122,5514,14.73,3.84,30,60,0,0
4.0057e+05,1.547e+08,3,5523,5714,14.42,3.87,30,60,0,0
4.0102e+05,1.5481e+08,3,5717,5757,14.79,3.49,30,60,0,0
4.0146e+05,1.5492e+08,3,5773,5957,14.8,3.49,30,60,0,0
4.019e+05,1.5502e+08,3,5938,5685,14.86,3.11,30,60,0,0
4.0235e+05,1.5513e+08,3,5689,5728,14.82,3.29,30,60,0,0
4.0274e+05,1.5524e+08,3,5714,5528,14.91,2.62,30,60,0,0
4.0319e+05,1.5535e+08,3,5522,5400,14.88,2.29,30,60,0,0
4.0364e+05,1.5546e+08,3,5398,5371,14.88,2.54,30,60,0,0
4.0413e+05,1.5558e+08,3,5369,5357,14.82,2.56,30,60,0,0
4.0453e+05,1.5568e+08,3,5353,5271,14.88,2.56,30,60,0,0
4.0502e+05,1.558e+08,3,5302,5642,14.83,3.35,30,61,0,0
4.0543e+05,1.559e+08,3,5648,5728,14.82,2.97,30,61,0,0
4.0587e+05,1.5601e+08,3,5715,5600,14.86,3.17,30,61,0,0
4.0627e+05,1.5611e+08,3,5600,5628,14.73,3.41,30,61,0,0
4.0672e+05,1.5622e+08,3,5633,5957,14.79,3.68,30,61,0,0
4.0717e+05,1.5633e+08,3,5955,5857,14.85,3.1,30,61,0,0
4.0761e+05,1.5644e+08,3,5861,5914,14.79,3.37,30,61,0,0
4.085e+05,1.5666e+08,3,5912,5871,14.69,3.48,30,61,0,0
4.0895e+05,1.5677e+08,3,5870,5857,14.76,3.7,30,61,0,0
4.094e+05,1.5688e+08,3,5856,5842,14.8,3.53,30,62,0,0
4.0985e+05,1.5699e+08,3,5854,5971,14.75,3.48,30,62,0,0
4.1024e+05,1.5709e+08,3,5971,5971,14.83,3.64,30,62,0,0
4.1073e+05,1.5721e+08,3,5967,5928,14.91,3.3,30,62,0,0
4.1118e+05,1.5731e+08,3,5914,5728,14.91,2.85,30,62,0,0
4.1158e+05,1.5742e+08,3,5740,5871,14.85,2.87,30,62,0,0
4.1203e+05,1.5753e+08,3,5845,5571,14.91,3.08,30,62,0,0
4.1289e+05,1.5775e+08,3,5566,5500,14.84,2.86,30,62,0,0
4.133e+05,1.5785e+08,3,5505,5571,14.79,2.84,30,62,0,0
4.1379e+05,1.5797e+08,3,5579,5714,14.77,3.01,30,63,0,0
4.1419e+05,1.5807e+08,3,5708,5657,14.8,3.54,30,63,0,0
4.1464e+05,1.5819e+08,3,5710,6000,14.81,3.71,30,63,0,0
4.1505e+05,1.5829e+08,3,6001,6014,14.82,3.6,30,63,0,0
4.155e+05,1.584e+08,3,6002,5871,14.82,3.22,30,63,0,0
4.1594e+05,1.5851e+08,3,5860,5714,14.74,3.33,30,63,0,0
4.1638e+05,1.5862e+08,3,5732,5914,14.7,3.68,30,63,0,0
4.1684e+05,1.5873e+08,3,5902,5800,14.72,3.41,30,63,0,0
4.1727e+05,1.5883e+08,3,5802,5857,14.81,3.28,30,63,0,0
4.1773e+05,1.5894e+08,3,5849,5771,14.8,3.06,30,63,0,0
4.1817e+05,1.5905e+08,3,5771,5785,14.7,3.4,30,64,0,0
4.1861e+05,1.5916e+08,3,5785,5785,14.79,3.34,30,64,0,0
4.195e+05,1.5938e+08,3,5774,5542,14.72,2.98,30,64,0,0
4.1995e+05,1.5949e+08,3,5547,5657,14.76,3.17,30,64,0,0
4.2039e+05,1.596e+08,3,5655,5614,14.76,3.77,30,64,0,0
4.2085e+05,1.5971e+08,3,5620,5714,14.8,2.9,30,64,0,0
4.2173e+05,1.5992e+08,3,5709,5357,14.9,2.47,30,64,0,0
4.2218e+05,1.6004e+08,3,5349,5200,14.82,2.65,30,64,0,0
4.2263e+05,1.6015e+08,3,5210,5428,14.83,3.06,30,64,0,0
4.2303e+05,1.6025e+08,3,5429,5528,14.75,2.68,30,65,0,0
4.2348e+05,1.6036e+08,3,5524,5371,14.9,2.42,30,65,0,0
4.2393e+05,1.6047e+08,3,5363,5171,14.84,2.46,30,65,0,0
4.2437e+05,1.6058e+08,3,5177,5400,14.89,2.79,30,65,0,0
4.2483e+05,1.6069e+08,3,5407,5500,14.82,2.9,30,65,0,0
4.2528e+05,1.6081e+08,3,5492,5442,14.85,2.89,30,65,0,0
4.2568e+05,1.6091e+08,3,5440,5414,14.87,2.46,30,65,0,0
4.2613e+05,1.6102e+08,3,5412,5400,14.88,2.64,30,65,0,0
4.2657e+05,1.6112e+08,3,5401,5414,14.84,2.68,30,65,0,0
4.2701e+05,1.6123e+08,3,5417,5500,14.78,2.82,30,65,0,0
4.2746e+05,1.6134e+08,3,5498,5457,14.86,2.61,30,65,0,0
4.2791e+05,1.6145e+08,3,5448,5328,14.83,2.65,30,65,0,0
4.2835e+05,1.6156e+08,3,5327,5314,14.77,2.47,30,66,0,0
4.288e+05,1.6167e+08,3,5315,5328,14.8,2.87,30,66,0,0
4.2926e+05,1.6178e+08,3,5344,5500,14.87,2.83,30,66,0,0
4.2966e+05,1.6189e+08,3,5497,5471,14.82,2.59,30,66,0,0
4.3011e+05,1.62e+08,3,5454,5314,14.88,2.61,30,66,0,0
4.3055e+05,1.621e+08,3,5318,5371,14.83,2.43,30,66,0,0
4.31e+05,1.6221e+08,3,5366,5314,14.92,2.55,30,66,0,0
4.3144e+05,1.6232e+08,3,5321,5400,14.85,2.96,30,66,0,0
4.3185e+05,1.6242e+08,3,5401,5428,14.92,2.69,30,66,0,0
4.323e+05,1.6253e+08,3,5428,5457,14.8,2.81,30,66,0,0
4.3278e+05,1.6265e+08,3,5455,5442,14.79,2.72,30,66,0,0
4.3323e+05,1.6276e+08,3,5447,5500,14.86,2.58,30,66,0,0
4.3363e+05,1.6286e+08,3,5497,5357,14.82,2.73,30,66,0,0
4.3453e+05,1.6308e+08,3,5359,5414,14.81,2.6,30,67,0,0
4.3498e+05,1.632e+08,3,5401,5314,14.85,2.28,30,67,0,0
4.3538e+05,1.6329e+08,3,5293,5028,14.89,1.68,30,67,0,0
4.3578e+05,1.634e+08,3,5027,5000,14.83,2.27,30,67,0,0
4.3626e+05,1.6351e+08,3,5000,5000,14.85,2.72,30,67,0,0
4.3671e+05,1.6362e+08,3,4997,4957,14.76,2.61,30,67,0,0
4.3716e+05,1.6373e+08,3,4959,5114,14.68,3.46,30,67,0,0
4.3761e+05,1.6384e+08,3,5138,5457,14.76,3.23,30,67,0,0
4.3805e+05,1.6395e+08,3,5465,5657,14.72,3.66,30,67,0,0
4.385e+05,1.6406e+08,3,5660,5742,14.91,3.15,30,67,0,0
4.3899e+05,1.6417e+08,3,5722,5542,14.79,2.55,30,67,0,0
4.3939e+05,1.6428e+08,3,5544,5600,14.76,3.18,30,68,0,0
4.3983e+05,1.6438e+08,3,5610,5871,14.8,3.7,30,68,0,0
4.4028e+05,1.645e+08,3,5871,5871,14.78,3.48,30,68,0,0
4.4069e+05,1.646e+08,3,5878,5942,14.86,3.17,30,68,0,0
4.4114e+05,1.6471e+08,3,5923,5657,14.82,2.81,30,68,0,0
4.4155e+05,1.6481e+08,3,5660,5814,14.84,3.59,30,68,0,0
4.4204e+05,1.6493e+08,3,5804,5671,14.85,2.76,30,68,0,0
4.4244e+05,1.6504e+08,3,5671,5671,14.86,2.76,30,68,0,0
4.4293e+05,1.6515e+08,3,5675,5728,14.86,3.09,30,68,0,0
4.4334e+05,1.6526e+08,3,5714,5600,14.93,2.9,30,68,0,0
4.4379e+05,1.6537e+08,3,5600,5600,14.94,2.53,30,69,0,0
4.4423e+05,1.6548e+08,3,5595,5542,14.93,2.76,30,69,0,0
4.4467e+05,1.6559e+08,3,5542,5542,14.84,3.03,30,69,0,0
4.4512e+05,1.657e+08,3,5549,5628,14.84,3.12,30,69,0,0
4.4558e+05,1.6582e+08,3,5620,5571,14.89,2.68,30,69,0,0
4.4598e+05,1.6592e+08,3,5585,5785,14.73,3.57,30,69,0,0
4.4638e+05,1.6602e+08,3,5783,5728,14.85,2.99,30,69,0,0
4.4688e+05,1.6614e+08,3,5722,5685,14.82,3.13,30,69,0,0
4.4728e+05,1.6624e+08,3,5686,5700,14.85,2.91,30,69,0,0
4.4773e+05,1.6635e+08,3,5690,5600,14.89,2.72,30,69,0,0
4.4817e+05,1.6646e+08,3,5600,5600,14.83,2.74,30,69,0,0
4.4862e+05,1.6657e+08,3,5598,5585,14.83,2.77,30,69,0,0
4.491e+05,1.6668e+08,3,5585,5585,14.79,3.04,30,70,0,0
4.4955e+05,1.6679e+08,3,5582,5528,14.89,2.69,30,70,0,0
4.4996e+05,1.6689e+08,3,5522,5457,14.82,2.96,30,70,0,0
4.5045e+05,1.6701e+08,3,5446,5342,14.76,2.92,30,70,0,0
4.5086e+05,1.6711e+08,3,5350,5514,14.8,2.51,30,70,0,0
4.5175e+05,1.6733e+08,3,5513,5371,14.9,2.43,30,70,0,0
4.5223e+05,1.6745e+08,3,5363,5285,14.89,2.79,30,70,0,0
4.5264e+05,1.6755e+08,3,5285,5285,14.8,2.29,30,70,0,0
4.5309e+05,1.6766e+08,3,5278,5214,14.89,2.21,30,70,0,0
4.5354e+05,1.6777e+08,3,5203,5071,14.73,2.07,30,70,0,0
4.5394e+05,1.6787e+08,3,5068,4885,14.83,1.91,30,70,0,0
4.5439e+05,1.6798e+08,3,4881,4685,14.77,2.44,30,70,0,0
4.5484e+05,1.6809e+08,3,4687,4714,14.83,2.96,30,71,0,0
4.5528e+05,1.682e+08,3,4716,4757,14.75,1.95,30,71,0,0
4.5573e+05,1.6831e+08,3,4735,4514,14.59,2.63,30,71,0,0
4.5614e+05,1.6842e+08,3,4530,4857,14.63,3.46,30,71,0,0
4.5659e+05,1.6853e+08,3,4858,4885,14.7,2.15,30,71,0,0
4.57e+05,1.6863e+08,3,4888,5028,14.77,2.24,30,71,0,0
4.5745e+05,1.6874e+08,3,5025,4871,14.7,2.01,30,71,0,0
4.5789e+05,1.6885e+08,3,4886,5071,14.61,2.62,30,71,0,0
4.5834e+05,1.6896e+08,3,5076,5142,14.69,2.44,30,71,0,0
4.5878e+05,1.6907e+08,3,5154,5442,14.8,2.9,30,71,0,0
4.5924e+05,1.6918e+08,3,5437,5342,14.82,2.4,30,71,0,0
4.6061e+05,1.6951e+08,3,5339,5171,14.89,2.32,30,72,0,0
4.6102e+05,1.6962e+08,3,5160,5057,14.9,1.94,30,72,0,0
4.6143e+05,1.6972e+08,3,5057,5114,14.86,2.05,30,72,0,0
4.6191e+05,1.6984e+08,3,5110,5071,14.86,2.04,30,72,0,0
4.6232e+05,1.6994e+08,3,5077,5214,14.89,2.46,30,72,0,0
4.628e+05,1.7006e+08,3,5216,5242,14.85,2.36,30,72,0,0
4.6365e+05,1.7027e+08,3,5242,5257,14.83,2.09,30,72,0,0
4.6414e+05,1.7039e+08,3,5250,5185,14.85,2.36,30,72,0,0
4.6459e+05,1.7049e+08,3,5182,5142,14.91,2.14,30,72,0,0
4.6504e+05,1.706e+08,3,5148,5228,14.86,2.63,30,72,0,0
4.6548e+05,1.7071e+08,3,5228,5228,14.88,2.57,30,72,0,0
4.6592e+05,1.7082e+08,3,5222,5142,14.86,2.16,30,72,0,0
4.6638e+05,1.7093e+08,3,5144,5171,14.8,2.41,30,72,0,0
4.6682e+05,1.7104e+08,3,5175,5228,14.81,2.5,30,72,0,0
4.6723e+05,1.7114e+08,3,5227,5171,14.8,2.23,30,73,0,0
4.6771e+05,1.7126e+08,3,5192,5342,14.77,2.71,30,73,0,0
4.6816e+05,1.7137e+08,3,5371,5571,14.75,3,30,73,0,0
4.686e+05,1.7148e+08,3,5561,5428,14.82,2.77,30,73,0,0
4.7038e+05,1.7191e+08,3,5425,5328,14.8,2.42,30,73,0,0
4.7078e+05,1.7201e+08,3,5325,5228,14.81,2.42,30,73,0,0
4.7127e+05,1.7213e+08,3,5236,5300,14.79,2.49,30,73,0,0
4.7168e+05,1.7224e+08,3,5290,5228,14.89,2.35,30,73,0,0
4.7208e+05,1.7234e+08,3,5231,5300,14.89,2.14,30,73,0,0
4.7253e+05,1.7245e+08,3,5294,5014,14.89,2.11,30,73,0,0
4.7346e+05,1.7267e+08,3,5012,4971,14.86,2.01,30,74,0,0
4.7391e+05,1.7278e+08,3,4980,5085,14.76,2.44,30,74,0,0
4.7435e+05,1.7289e+08,3,5089,5142,14.77,2.04,30,74,0,0
4.7476e+05,1.7299e+08,3,5142,5200,14.81,2.56,30,74,0,0
4.752e+05,1.731e+08,3,5197,5100,14.81,2.08,30,74,0,0
4.7565e+05,1.7321e+08,3,5100,5157,14.82,2.28,30,74,0,0
4.7609e+05,1.7332e+08,3,5156,5142,14.77,2.49,30,74,0,0
4.765e+05,1.7342e+08,3,5143,5200,14.82,2.38,30,74,0,0
4.7694e+05,1.7353e+08,3,5203,5342,14.81,2.57,30,74,0,0
4.7735e+05,1.7364e+08,3,5340,5242,14.79,2.77,30,74,0,0
4.7784e+05,1.7375e+08,3,5250,5371,14.84,2.51,30,74,0,0
4.7829e+05,1.7386e+08,3,5368,5342,14.83,2.59,30,74,0,0
4.7873e+05,1.7397e+08,3,5343,5371,14.79,2.86,30,75,0,0
4.7914e+05,1.7408e+08,3,5373,5428,14.83,2.89,30,75,0,0
4.7959e+05,1.7419e+08,3,5426,5400,14.82,3.11,30,75,0,0
4.8004e+05,1.743e+08,3,5417,5600,14.88,3.18,30,75,0,0
4.8047e+05,1.7441e+08,3,5600,5628,14.87,2.89,30,75,0,0
4.8096e+05,1.7453e+08,3,5640,5771,14.79,3.56,30,75,0,0
4.8136e+05,1.7462e+08,3,5771,5785,14.79,3.16,30,75,0,0
4.8182e+05,1.7474e+08,3,5782,5728,14.81,2.99,30,75,0,0
4.8271e+05,1.7495e+08,3,5725,5428,14.86,2.51,30,75,0,0
4.832e+05,1.7507e+08,3,5426,5414,14.83,2.63,30,75,0,0
4.8364e+05,1.7518e+08,3,5414,5414,14.77,2.75,30,76,0,0
4.8409e+05,1.7529e+08,3,5416,5442,14.83,2.6,30,76,0,0
4.8457e+05,1.754e+08,3,5431,5314,14.85,2.21,30,76,0,0
4.8498e+05,1.755e+08,3,5306,5171,14.85,2.6,30,76,0,0
4.8543e+05,1.7562e+08,3,5164,5071,14.85,2.32,30,76,0,0
4.8588e+05,1.7573e+08,3,5073,5242,14.85,2.44,30,76,0,0
4.8632e+05,1.7584e+08,3,5248,5328,14.88,2.61,30,76,0,0
4.8678e+05,1.7595e+08,3,5322,5257,14.85,2.47,30,76,0,0
4.8722e+05,1.7606e+08,3,5258,5285,14.85,2.56,30,76,0,0
4.8767e+05,1.7617e+08,3,5286,5314,14.83,2.68,30,76,0,0
4.8811e+05,1.7628e+08,3,5314,5314,14.83,2.78,30,76,0,0
4.8852e+05,1.7638e+08,3,5321,5414,14.91,2.67,30,76,0,0
4.8896e+05,1.7649e+08,3,5407,5342,14.85,2.44,30,76,0,0
4.8936e+05,1.7659e+08,3,5341,5328,14.8,2.75,30,77,0,0
4.8985e+05,1.7671e+08,3,5335,5442,14.89,2.97,30,77,0,0
4.903e+05,1.7682e+08,3,5439,5400,14.83,2.61,30,77,0,0
4.9075e+05,1.7693e+08,3,5400,5400,14.86,2.24,30,77,0,0
4.9119e+05,1.7703e+08,3,5383,5214,14.78,2.73,30,77,0,0
4.9164e+05,1.7714e+08,3,5231,5414,14.86,2.57,30,77,0,0
4.925e+05,1.7736e+08,3,5409,5285,14.82,2.57,30,77,0,0
4.9294e+05,1.7747e+08,3,5284,5228,14.84,2.28,30,77,0,0
4.9339e+05,1.7758e+08,3,5222,5085,14.79,2.2,30,77,0,0
4.9387e+05,1.7769e+08,3,5078,5014,14.83,2.12,30,77,0,0
4.9431e+05,1.778e+08,3,5023,5157,14.81,2.23,30,77,0,0
4.9472e+05,1.779e+08,3,5146,4928,14.83,1.89,30,77,0,0
4.9517e+05,1.7801e+08,3,4927,4914,14.83,2.1,30,77,0,0
4.9562e+05,1.7812e+08,3,4914,4928,14.88,1.86,30,78,0,0
4.9603e+05,1.7823e+08,3,4925,4885,14.82,1.88,30,78,0,0
4.9648e+05,1.7834e+08,3,4880,4828,14.88,1.99,30,78,0,0
4.9693e+05,1.7845e+08,3,4835,4914,14.91,2.29,30,78,0,0
4.9737e+05,1.7857e+08,3,4909,4871,14.83,2.02,30,78,0,0
4.9782e+05,1.7867e+08,3,4876,4957,14.72,2.38,30,78,0,0
4.9827e+05,1.7879e+08,3,4957,4957,14.78,1.87,30,78,0,0
4.9868e+05,1.7889e+08,3,4946,4857,14.89,1.76,30,78,0,0
4.9912e+05,1.79e+08,3,4860,5014,14.86,2.32,30,78,0,0
5.0001e+05,1.7922e+08,3,5013,5000,14.72,2.42,30,78,0,0
5.0046e+05,1.7933e+08,3,5011,5157,14.74,2.68,30,78,0,0
5.0086e+05,1.7943e+08,3,5157,5157,14.86,2.4,30,78,0,0
5.0172e+05,1.7965e+08,3,5154,5028,14.85,2.03,30,78,0,0
5.0221e+05,1.7977e+08,3,5026,5014,14.85,2.17,30,79,0,0
5.0266e+05,1.7987e+08,3,5011,4985,14.81,2.13,30,79,0,0
5.0306e+05,1.7998e+08,3,4986,5114,14.88,2.14,30,79,0,0
5.0351e+05,1.8009e+08,3,5105,5028,14.85,2.09,30,79,0,0
5.0481e+05,1.8041e+08,3,5027,4971,14.85,2.05,30,79,0,0
5.0525e+05,1.8052e+08,3,4972,5142,14.85,2.26,30,79,0,0
5.0574e+05,1.8064e+08,3,5133,5042,14.88,2.02,30,79,0,0
5.0618e+05,1.8075e+08,3,5052,5200,14.85,2.23,30,79,0,0
5.0659e+05,1.8085e+08,3,5196,5000,14.91,2.22,30,79,0,0
5.0712e+05,1.8097e+08,3,5020,5242,14.84,2.65,30,79,0,0
5.0752e+05,1.8107e+08,3,5238,5157,14.83,2.2,30,79,0,0
5.0801e+05,1.8119e+08,3,5169,5314,14.86,2.39,30,79,0,0
5.0842e+05,1.8129e+08,3,5311,5271,14.85,2.42,30,79,0,0
5.0887e+05,1.814e+08,3,5266,5200,14.89,2.55,30,80,0,0
5.0931e+05,1.8151e+08,3,5199,5185,14.83,2.38,30,80,0,0
5.0972e+05,1.8161e+08,3,5189,5285,14.86,2.35,30,80,0,0
5.1016e+05,1.8172e+08,3,5277,5128,14.85,2.21,30,80,0,0
5.1061e+05,1.8183e+08,3,5131,5200,14.83,2.38,30,80,0,0
5.1102e+05,1.8193e+08,3,5200,5242,14.76,2.03,30,80,0,0
5.115e+05,1.8205e+08,3,5235,5171,14.89,2.25,30,80,0,0
5.1195e+05,1.8216e+08,3,5147,4842,14.95,1.7,30,80,0,0
5.1235e+05,1.8226e+08,3,4846,4942,14.94,1.97,30,80,0,0
5.128e+05,1.8236e+08,3,4934,4785,14.91,1.83,30,80,0,0
5.1325e+05,1.8248e+08,3,4780,4742,14.88,1.77,30,80,0,0
5.1366e+05,1.8258e+08,3,4726,4600,14.95,1.47,30,80,0,0
5.141e+05,1.8269e+08,3,4587,4457,15.07,1.38,30,80,0,0
5.1455e+05,1.828e+08,3,4429,4185,15.1,1.07,30,80,0,0
5.15e+05,1.8291e+08,3,4165,3714,15.21,0.89,30,80,0,0
5.1544e+05,1.8302e+08,3,3639,2657,15.31,0.17,30,80,0,0
5.1633e+05,1.8324e+08,3,2644,2142,15.27,0.31,30,80,0,0
5.1678e+05,1.8335e+08,3,2141,2128,15.26,0.23,30,80,0,0
5.1719e+05,1.8345e+08,3,2129,2157,15.27,0.3,30,80,0,0
5.1764e+05,1.8356e+08,3,2155,2128,15.28,0.24,30,80,0,0
5.1809e+05,1.8367e+08,3,2131,2171,15.28,0.26,30,80,0,0
5.1854e+05,1.8378e+08,3,2168,2114,15.3,0.2,30,80,0,0
5.1898e+05,1.8389e+08,3,2111,2085,15.28,0.25,30,80,0,0
5.1942e+05,1.84e+08,3,2088,2128,15.31,0.27,30,80,0,0
5.1987e+05,1.8411e+08,3,2126,2100,15.28,0.31,30,80,0,0
5.2032e+05,1.8422e+08,3,2097,2057,15.29,0.21,30,80,0,0
5.2077e+05,1.8432e+08,3,2070,2285,15.29,0.39,30,80,0,0
5.2122e+05,1.8443e+08,3,2294,2400,15.29,0.36,30,80,0,0
5.2167e+05,1.8454e+08,3,2403,2457,15.28,0.42,29,80,0,0
5.2211e+05,1.8465e+08,3,2461,2528,15.32,0.36,30,80,0,0
5.2256e+05,1.8476e+08,3,2495,1985,15.38,0.03,30,81,0,0
5.2301e+05,1.8487e+08,3,1960,1557,15.36,0,29,81,0,0
5.2346e+05,1.8497e+08,3,1538,1300,15.36,0.05,29,81,0,0
5.239e+05,1.8508e+08,3,1297,1257,15.35,0.09,29,81,0,0
5.2435e+05,1.8519e+08,3,1257,1257,15.36,0.09,29,81,0,0
5.2479e+05,1.853e+08,3,1257,1257,15.36,0.1,29,81,0,0
5.2524e+05,1.854e+08,3,1257,1257,15.36,0.1,29,81,0,0
5.2573e+05,1.8552e+08,3,1257,1257,15.36,0.1,29,81,0,0
5.2613e+05,1.8562e+08,3,1257,1257,15.36,0.1,29,81,0,0
5.2658e+05,1.8573e+08,3,1257,1257,15.37,0.09,29,81,0,0
5.2703e+05,1.8584e+08,3,1256,1242,15.37,0.1,29,81,0,0
5.2747e+05,1.8594e+08,3,1242,1257,15.37,0.09,29,81,0,0
5.284e+05,1.8617e+08,3,1257,1257,15.38,0.09,29,81,0,0
5.2885e+05,1.8627e+08,3,1257,1257,15.38,0.09,29,81,0,0
5.2933e+05,1.8639e+08,3,1257,1257,15.38,0.09,29,81,0,0
5.2974e+05,1.8649e+08,3,1257,1257,15.38,0.1,29,81,0,0
5.3018e+05,1.8659e+08,3,1257,1257,15.38,0.1,29,81,0,0
5.3063e+05,1.867e+08,3,1257,1257,15.38,0.1,29,81,0,0
5.3108e+05,1.8681e+08,3,1257,1257,15.39,0.1,29,81,0,0
5.3153e+05,1.8692e+08,3,1257,1257,15.39,0.1,29,81,0,0
5.3194e+05,1.8702e+08,3,1257,1257,15.39,0.1,29,81,0,0
5.3243e+05,1.8714e+08,3,1257,1257,15.39,0.1,29,81,0,0
5.3287e+05,1.8725e+08,3,1257,1257,15.39,0.1,29,81,0,0
5.3333e+05,1.8736e+08,3,1257,1257,15.39,0.1,29,81,0,0
5.3377e+05,1.8747e+08,3,1257,1257,15.39,0.1,29,81,0,0
5.3418e+05,1.8757e+08,3,1257,1257,15.39,0.1,29,81,0,0
5.3467e+05,1.8768e+08,3,1257,1257,15.4,0.1,29,81,0,0
5.3512e+05,1.8779e+08,3,1257,1257,15.39,0.1,29,81,0,0
5.3556e+05,1.8789e+08,3,1257,1257,15.41,0.1,29,81,0,0
5.3649e+05,1.8811e+08,3,1257,1257,15.41,0.1,29,81,0,0
5.3689e+05,1.8821e+08,3,1257,1257,15.4,0.1,29,81,0,0
5.3734e+05,1.8832e+08,3,1257,1257,15.4,0.09,29,81,0,0
5.3779e+05,1.8843e+08,3,1257,1257,15.41,0.09,29,81,0,0
5.3824e+05,1.8854e+08,3,1257,1257,15.41,0.1,29,81,0,0
5.3869e+05,1.8865e+08,3,1257,1257,15.41,0.09,29,81,0,0
5.3914e+05,1.8875e+08,3,1257,1257,15.41,0.1,29,81,0,0
5.3954e+05,1.8885e+08,3,1257,1257,15.41,0.1,29,81,0,0
5.4003e+05,1.8897e+08,3,1257,1257,15.41,0.1,29,81,0,0
5.4048e+05,1.8907e+08,3,1257,1257,15.41,0.09,29,81,0,0
5.4092e+05,1.8918e+08,3,1257,1257,15.41,0.09,29,81,0,0
5.4137e+05,1.8929e+08,3,1257,1257,15.41,0.1,29,81,0,0
5.4184e+05,1.894e+08,3,1257,1257,15.42,0.1,29,81,0,0
5.423e+05,1.8951e+08,3,1257,1257,15.42,0.1,29,81,0,0
5.427e+05,1.8961e+08,3,1257,1257,15.42,0.1,29,81,0,0
5.4315e+05,1.8972e+08,3,1257,1257,15.42,0.09,29,81,0,0
5.4356e+05,1.8982e+08,3,1257,1257,15.42,0.1,29,81,0,0
5.4405e+05,1.8994e+08,3,1257,1257,15.42,0.1,29,81,0,0
5.4495e+05,1.9016e+08,3,1257,1257,15.42,0.09,29,81,0,0
5.4633e+05,1.9049e+08,3,1257,1257,15.43,0.1,29,81,0,0
5.4678e+05,1.906e+08,3,1257,1257,15.42,0.1,29,81,0,0
5.4718e+05,1.907e+08,3,1257,1257,15.43,0.09,29,81,0,0
5.4763e+05,1.9081e+08,3,1257,1257,15.42,0.1,29,81,0,0
5.4808e+05,1.9092e+08,3,1257,1257,15.42,0.1,29,81,0,0
5.4856e+05,1.9103e+08,3,1257,1257,15.44,0.1,29,81,0,0
5.4897e+05,1.9113e+08,3,1257,1257,15.44,0.1,29,81,0,0
5.4941e+05,1.9124e+08,3,1257,1257,15.44,0.1,29,81,0,0
5.4991e+05,1.9136e+08,3,1257,1257,15.44,0.1,29,81,0,0
5.5036e+05,1.9147e+08,3,1257,1257,15.43,0.1,29,81,0,0
