LineNo,TimeUS,Instance,RPM,RawRPM,Volt,Curr,Temp,CTot,MotTemp,Err
1710,5.695e+07,0,0,0,15.87,0.03,33,0,0,0
2130,5.7056e+07,0,0,0,15.86,0.03,33,0,0,0
2546,5.7161e+07,0,0,0,15.86,0.03,33,0,0,0
2998,5.7277e+07,0,0,0,15.87,0.03,33,0,0,0
3415,5.7384e+07,0,0,0,15.88,0.03,33,0,0,0
3830,5.7489e+07,0,0,0,15.87,0.03,33,0,0,0
4289,5.7601e+07,0,0,0,15.86,0.03,33,0,0,0
5113,5.7813e+07,0,0,0,15.87,0.03,33,0,0,0
5527,5.7919e+07,0,0,0,15.87,0.03,33,0,0,0
5973,5.8029e+07,0,0,0,15.86,0.03,33,0,0,0
6385,5.8134e+07,0,0,0,15.86,0.03,33,0,0,0
6841,5.8248e+07,0,0,0,15.87,0.03,33,0,0,0
7251,5.8353e+07,0,0,0,15.87,0.03,33,0,0,0
7698,5.8463e+07,0,0,0,15.87,0.03,33,0,0,0
8113,5.8568e+07,0,0,0,15.86,0.03,33,0,0,0
8527,5.8672e+07,0,0,0,15.86,0.03,33,0,0,0
8986,5.8786e+07,0,0,0,15.87,0.03,33,0,0,0
9400,5.8891e+07,0,0,0,15.87,0.03,33,0,0,0
9818,5.8997e+07,0,0,0,15.87,0.03,33,0,0,0
10272,5.911e+07,0,0,0,15.87,0.03,33,0,0,0
10973,5.9319e+07,0,0,0,15.87,0.03,33,0,0,0
11390,5.9425e+07,0,0,0,15.87,0.03,33,0,0,0
12252,5.9647e+07,0,0,0,15.87,0.03,33,0,0,0
12665,5.9751e+07,0,0,0,15.87,0.03,33,0,0,0
13115,5.9866e+07,0,0,0,15.87,0.03,33,0,0,0
13530,5.997e+07,0,0,0,15.86,0.03,33,0,0,0
13907,6.0067e+07,0,0,0,15.86,0.04,33,0,0,0
14771,6.0287e+07,0,0,0,15.87,0.03,33,0,0,0
15638,6.0504e+07,0,0,0,15.87,0.03,33,0,0,0
16050,6.0606e+07,0,0,0,15.86,0.03,33,0,0,0
16506,6.0721e+07,0,0,0,15.87,0.03,33,0,0,0
16918,6.0823e+07,0,0,0,15.87,0.02,33,0,0,0
17336,6.0928e+07,0,0,0,15.86,0.03,33,0,0,0
17754,6.1035e+07,0,0,0,15.87,0.03,33,0,0,0
18206,6.115e+07,0,0,0,15.87,0.03,33,0,0,0
18618,6.1254e+07,0,0,0,15.88,0.03,33,0,0,0
19034,6.1358e+07,0,0,0,15.86,0.03,33,0,0,0
19487,6.1475e+07,0,0,0,15.86,0.03,33,0,0,0
19904,6.1578e+07,0,0,0,15.86,0.03,33,0,0,0
20347,6.1688e+07,0,0,0,15.87,0.03,33,0,0,0
20762,6.1796e+07,0,0,0,15.86,0.03,33,0,0,0
21176,6.1898e+07,0,0,0,15.86,0.03,33,0,0,0
21629,6.2014e+07,0,0,0,15.86,0.03,33,0,0,0
22014,6.2117e+07,0,0,0,15.86,0.03,33,0,0,0
22460,6.223e+07,0,0,0,15.87,0.03,33,0,0,0
22869,6.2333e+07,0,0,0,15.87,0.03,33,0,0,0
23285,6.244e+07,0,0,0,15.86,0.03,33,0,0,0
23703,6.2545e+07,0,0,0,15.87,0.03,33,0,0,0
24152,6.2657e+07,0,0,0,15.88,0.04,33,0,0,0
24570,6.2762e+07,0,0,0,15.86,0.03,33,0,0,0
25020,6.2877e+07,0,0,0,15.88,0.03,33,0,0,0
25433,6.2979e+07,0,0,0,15.87,0.03,33,0,0,0
25860,6.3092e+07,0,0,0,15.86,0.03,33,0,0,0
26268,6.3196e+07,0,0,0,15.87,0.04,33,0,0,0
26721,6.3308e+07,0,0,0,15.86,0.03,33,0,0,0
27131,6.3411e+07,0,0,0,15.87,0.04,33,0,0,0
27587,6.3524e+07,0,0,0,15.87,0.03,33,0,0,0
28002,6.3633e+07,0,0,0,15.87,0.04,33,0,0,0
28419,6.3737e+07,0,0,0,15.87,0.03,33,0,0,0
28824,6.3843e+07,0,0,0,15.87,0.04,33,0,0,0
29279,6.3955e+07,0,0,0,15.86,0.03,33,0,0,0
29693,6.4061e+07,0,0,0,15.87,0.03,33,0,0,0
30522,6.4275e+07,0,0,0,15.87,0.03,33,0,0,0
30977,6.4393e+07,0,0,0,15.86,0.03,33,0,0,0
31352,6.4487e+07,0,0,0,15.87,0.03,33,0,0,0
31835,6.4606e+07,0,0,0,15.87,0.03,33,0,0,0
32248,6.4707e+07,0,0,0,15.87,0.03,33,0,0,0
32634,6.4813e+07,0,0,0,15.86,0.03,33,0,0,0
33087,6.4925e+07,0,0,0,15.86,0.03,33,0,0,0
33533,6.5034e+07,0,0,0,15.87,0.03,33,0,0,0
33944,6.5136e+07,0,0,0,15.86,0.04,33,0,0,0
34360,6.5245e+07,0,0,0,15.87,0.03,33,0,0,0
34816,6.5359e+07,0,0,0,15.87,0.03,33,0,0,0
35187,6.5456e+07,0,0,0,15.87,0.03,33,0,0,0
35647,6.5569e+07,0,0,0,15.87,0.03,33,0,0,0
36506,6.579e+07,0,0,0,15.87,0.03,33,0,0,0
36932,6.5898e+07,0,0,0,15.87,0.03,33,0,0,0
37354,6.6006e+07,0,0,0,15.87,0.03,33,0,0,0
37806,6.6109e+07,0,0,0,15.86,0.03,33,0,0,0
38261,6.6216e+07,0,0,0,15.86,0.03,33,0,0,0
38716,6.6321e+07,0,0,0,15.87,0.03,33,0,0,0
39247,6.6439e+07,0,0,0,15.86,0.03,33,0,0,0
39706,6.6546e+07,0,0,0,15.87,0.03,33,0,0,0
40159,6.6653e+07,0,0,0,15.86,0.03,33,0,0,0
41109,6.6872e+07,0,0,0,15.87,0.03,33,0,0,0
41567,6.6976e+07,0,0,0,15.87,0.03,33,0,0,0
42017,6.7081e+07,0,0,0,15.87,0.03,33,0,0,0
42508,6.7195e+07,0,0,0,15.87,0.03,33,0,0,0
42958,6.7298e+07,0,0,0,15.87,0.03,33,0,0,0
43412,6.7405e+07,0,0,0,15.86,0.03,33,0,0,0
43866,6.7508e+07,0,0,0,15.87,0.03,33,0,0,0
44353,6.7617e+07,0,0,0,15.86,0.03,33,0,0,0
44855,6.7731e+07,0,0,0,15.87,0.03,33,0,0,0
45315,6.7841e+07,0,0,0,15.86,0.03,33,0,0,0
45773,6.7944e+07,0,0,0,15.86,0.02,33,0,0,0
46226,6.8052e+07,0,9,142,15.86,0.06,33,0,0,0
46723,6.8164e+07,0,192,742,15.83,0.11,33,0,0,0
47143,6.8271e+07,0,773,1114,15.85,0.15,33,0,0,0
47595,6.8374e+07,0,1115,1228,15.85,0.11,33,0,0,0
48090,6.8488e+07,0,1230,1271,15.85,0.11,33,0,0,0
48545,6.859e+07,0,1271,1285,15.85,0.1,33,0,0,0
49036,6.8705e+07,0,1285,1285,15.85,0.1,33,0,0,0
49484,6.8807e+07,0,1285,1285,15.85,0.1,33,0,0,0
49984,6.8922e+07,0,1285,1285,15.85,0.1,33,0,0,0
50254,6.9026e+07,0,1285,1285,15.86,0.1,33,0,0,0
50713,6.9134e+07,0,1286,1300,15.85,0.1,34,0,0,0
51164,6.9241e+07,0,1300,1300,15.85,0.1,33,0,0,0
51614,6.9343e+07,0,1300,1300,15.85,0.1,34,0,0,0
52065,6.945e+07,0,1300,1300,15.85,0.1,33,0,0,0
52562,6.9563e+07,0,1300,1300,15.85,0.1,34,0,0,0
53017,6.967e+07,0,1300,1300,15.85,0.1,34,0,0,0
53467,6.9773e+07,0,1300,1300,15.85,0.1,33,0,0,0
54417,6.9995e+07,0,1300,1300,15.85,0.1,34,0,0,0
54867,7.0098e+07,0,1300,1300,15.85,0.1,34,0,0,0
55325,7.0205e+07,0,1299,1285,15.86,0.1,33,0,0,0
56273,7.0421e+07,0,1285,1300,15.86,0.1,34,0,0,0
56770,7.0535e+07,0,1300,1300,15.85,0.1,34,0,0,0
57218,7.0638e+07,0,1300,1300,15.84,0.1,34,0,0,0
57716,7.0749e+07,0,1299,1285,15.85,0.1,34,0,0,0
58171,7.0858e+07,0,1286,1300,15.85,0.1,34,0,0,0
58629,7.0961e+07,0,1298,1285,15.85,0.1,34,0,0,0
59574,7.1179e+07,0,1285,1285,15.86,0.1,34,0,0,0
60027,7.1287e+07,0,1286,1300,15.85,0.1,34,0,0,0
60481,7.1396e+07,0,1300,1300,15.85,0.1,34,0,0,0
60981,7.1509e+07,0,1300,1300,15.85,0.1,34,0,0,0
61430,7.1612e+07,0,1298,1285,15.85,0.1,34,0,0,0
61884,7.1717e+07,0,1285,1285,15.85,0.1,34,0,0,0
62340,7.1825e+07,0,1285,1285,15.84,0.1,34,0,0,0
62841,7.1938e+07,0,1286,1300,15.85,0.1,34,0,0,0
63295,7.2043e+07,0,1300,1300,15.85,0.1,34,0,0,0
63747,7.2145e+07,0,1299,1285,15.85,0.1,34,0,0,0
64246,7.2262e+07,0,1286,1300,15.85,0.1,34,0,0,0
64698,7.2364e+07,0,1300,1300,15.85,0.1,34,0,0,0
65153,7.247e+07,0,1299,1285,15.85,0.1,34,0,0,0
65652,7.2589e+07,0,1285,1285,15.85,0.1,34,0,0,0
66104,7.2692e+07,0,1285,1285,15.85,0.1,34,0,0,0
66553,7.2795e+07,0,1285,1285,15.85,0.1,34,0,0,0
67057,7.2911e+07,0,1285,1285,15.85,0.1,34,0,0,0
67505,7.3013e+07,0,1285,1285,15.84,0.1,34,0,0,0
67961,7.3119e+07,0,1285,1285,15.85,0.1,34,0,0,0
68418,7.3231e+07,0,1285,1285,15.85,0.1,34,0,0,0
68917,7.3344e+07,0,1285,1285,15.85,0.1,34,0,0,0
69371,7.345e+07,0,1285,1285,15.85,0.1,34,0,0,0
69830,7.3558e+07,0,1285,1285,15.85,0.1,34,0,0,0
70241,7.3657e+07,0,1285,1285,15.85,0.1,34,0,0,0
70737,7.3769e+07,0,1285,1285,15.85,0.1,34,0,0,0
71191,7.3875e+07,0,1285,1285,15.85,0.1,34,0,0,0
71689,7.399e+07,0,1286,1300,15.85,0.1,34,0,0,0
72143,7.4092e+07,0,1300,1300,15.85,0.1,34,0,0,0
72595,7.4199e+07,0,1299,1285,15.85,0.1,34,0,0,0
73092,7.4312e+07,0,1285,1285,15.84,0.1,34,0,0,0
73545,7.4418e+07,0,1285,1285,15.85,0.1,34,0,0,0
74006,7.4525e+07,0,1285,1285,15.85,0.1,34,0,0,0
74457,7.463e+07,0,1285,1285,15.85,0.1,34,0,0,0
74913,7.4736e+07,0,1285,1285,15.85,0.1,34,0,0,0
75365,7.4845e+07,0,1286,1300,15.84,0.1,34,0,0,0
75865,7.4958e+07,0,1298,1285,15.85,0.1,34,0,0,0
76316,7.506e+07,0,1286,1300,15.85,0.1,34,0,0,0
76773,7.5167e+07,0,1300,1300,15.84,0.1,34,0,0,0
77223,7.5274e+07,0,1300,1300,15.85,0.1,34,0,0,0
77722,7.5388e+07,0,1298,1285,15.85,0.1,34,0,0,0
78173,7.5494e+07,0,1285,1285,15.85,0.1,34,0,0,0
78628,7.56e+07,0,1285,1285,15.85,0.1,34,0,0,0
79078,7.5703e+07,0,1287,1428,15.83,0.19,34,0,0,0
79529,7.581e+07,0,1436,1957,15.72,0.55,34,0,0,0
80019,7.5919e+07,0,1981,2314,15.79,0.55,34,0,0,0
80475,7.6028e+07,0,2317,2400,15.81,0.49,34,0,0,0
80933,7.6132e+07,0,2400,2414,15.8,0.48,34,0,0,0
81429,7.625e+07,0,2414,2414,15.72,0.6,34,0,0,0
81882,7.6353e+07,0,2437,2742,15.8,1.27,34,0,0,0
82340,7.6465e+07,0,2780,3200,15.64,1.48,34,0,0,0
82795,7.6572e+07,0,3247,3900,15.36,2.72,34,0,0,0
83243,7.6681e+07,0,3915,4057,15.24,4.5,34,0,0,0
84192,7.6902e+07,0,4116,5385,15.23,3.76,34,1,0,0
84608,7.7005e+07,0,5412,5771,15.16,3.93,34,1,0,0
85062,7.7111e+07,0,5779,5971,15.3,3.59,34,1,0,0
85518,7.7225e+07,0,5954,5771,15.38,3.19,34,1,0,0
85970,7.733e+07,0,5785,6000,15.25,4.15,34,1,0,0
86430,7.744e+07,0,6023,6242,15.26,4.68,34,1,0,0
87331,7.7658e+07,0,6257,6585,15.24,5.02,34,1,0,0
87781,7.7763e+07,0,6579,6471,15.27,5.34,34,2,0,0
88235,7.7872e+07,0,6456,6257,15.32,4.95,34,2,0,0
88686,7.7975e+07,0,6260,6557,15.24,5.11,34,2,0,0
89139,7.8085e+07,0,6557,6557,15.14,5.6,34,2,0,0
89636,7.8206e+07,0,6571,6700,15,6.68,34,2,0,0
90088,7.8309e+07,0,6701,6728,15.22,5.16,34,2,0,0
90573,7.842e+07,0,6695,6271,15.22,5.54,34,3,0,0
91029,7.8526e+07,0,6282,6442,15.18,4.68,34,3,0,0
91479,7.8636e+07,0,6431,6300,15.14,4.55,34,3,0,0
91976,7.875e+07,0,6295,6242,15.23,4.24,34,3,0,0
92385,7.885e+07,0,6240,6157,15.23,4.35,34,3,0,0
92879,7.8966e+07,0,6159,6185,15.22,4.5,34,3,0,0
93293,7.907e+07,0,6176,6057,15.19,4.05,34,3,0,0
93791,7.9187e+07,0,6094,6442,15.19,4.45,34,3,0,0
94198,7.9287e+07,0,6432,6228,15.27,4.2,34,4,0,0
94647,7.9394e+07,0,6232,6300,15.21,4.48,34,4,0,0
95148,7.9512e+07,0,6301,6328,15.16,4.99,35,4,0,0
95601,7.9622e+07,0,6375,6857,15.1,5.49,35,4,0,0
96058,7.973e+07,0,6851,6800,15.04,5.95,35,4,0,0
96511,7.984e+07,0,6803,6857,15.05,6.01,35,4,0,0
96964,7.9946e+07,0,6861,6928,15,6.04,35,5,0,0
97375,8.0048e+07,0,6925,6757,15.03,5.44,35,5,0,0
97873,8.0164e+07,0,6755,6714,14.96,5.58,35,5,0,0
98320,8.0269e+07,0,6715,6757,15.13,5.24,35,5,0,0
98821,8.039e+07,0,6747,6657,15.13,5.12,35,5,0,0
99230,8.0487e+07,0,6651,6542,15.07,5.01,35,5,0,0
99724,8.0606e+07,0,6555,6685,15.09,4.86,35,6,0,0
1.0058e+05,8.0816e+07,0,6680,6485,15.07,4.9,35,6,0,0
1.0107e+05,8.0929e+07,0,6478,6414,15.16,4.78,35,6,0,0
1.0152e+05,8.1039e+07,0,6420,6485,15.18,4.77,35,6,0,0
1.0192e+05,8.1137e+07,0,6486,6557,15.07,5.01,35,6,0,0
1.0237e+05,8.1247e+07,0,6558,6585,15.15,5.06,35,6,0,0
1.0283e+05,8.1358e+07,0,6576,6471,15.06,5.29,35,7,0,0
1.0323e+05,8.1461e+07,0,6472,6557,15.14,4.67,35,7,0,0
1.0368e+05,8.157e+07,0,6549,6442,15.15,4.92,35,7,0,0
1.0412e+05,8.1684e+07,0,6443,6457,15.06,4.82,35,7,0,0
1.0453e+05,8.1786e+07,0,6463,6542,15.09,5.21,35,7,0,0
1.0494e+05,8.1889e+07,0,6542,6542,15.2,4.37,35,7,0,0
1.0539e+05,8.2005e+07,0,6521,6314,15.09,4.51,35,7,0,0
1.0579e+05,8.2104e+07,0,6328,6457,15.16,4.53,35,8,0,0
1.0669e+05,8.2323e+07,0,6453,6385,15.16,4.33,35,8,0,0
1.0713e+05,8.2431e+07,0,6374,6271,15.14,4.65,35,8,0,0
1.0754e+05,8.2529e+07,0,6271,6314,15.08,4.57,35,8,0,0
1.0802e+05,8.2645e+07,0,6317,6371,15.16,4.8,35,8,0,0
1.0847e+05,8.2755e+07,0,6371,6371,15.11,4.49,35,8,0,0
1.0892e+05,8.2867e+07,0,6358,6228,15.12,4.6,35,9,0,0
1.0937e+05,8.2974e+07,0,6230,6285,15.06,4.6,35,9,0,0
1.0982e+05,8.3086e+07,0,6294,6385,15.08,4.55,35,9,0,0
1.1026e+05,8.3195e+07,0,6373,6257,15.08,4.32,35,9,0,0
1.1071e+05,8.33e+07,0,6245,6071,15.16,4.05,35,9,0,0
1.1111e+05,8.3404e+07,0,6072,6171,15.14,4.03,35,9,0,0
1.116e+05,8.3519e+07,0,6166,6114,15.14,4.07,35,9,0,0
1.1201e+05,8.3621e+07,0,6115,6157,15.1,4.39,35,10,0,0
1.1246e+05,8.3732e+07,0,6153,6085,15.11,3.83,35,10,0,0
1.1291e+05,8.3842e+07,0,6082,6057,15.18,3.93,35,10,0,0
1.138e+05,8.4057e+07,0,6058,6100,15.1,4.05,36,10,0,0
1.1421e+05,8.4163e+07,0,6102,6142,15.13,4.11,36,10,0,0
1.1465e+05,8.4274e+07,0,6142,6142,15.19,4.57,35,10,0,0
1.1515e+05,8.4393e+07,0,6149,6200,15.12,4.5,36,10,0,0
1.1559e+05,8.4494e+07,0,6201,6228,15.25,4.06,35,10,0,0
1.16e+05,8.4606e+07,0,6210,6042,15.18,5.29,36,11,0,0
1.1645e+05,8.4716e+07,0,6047,6100,15.13,4.38,36,11,0,0
1.1686e+05,8.4818e+07,0,6097,6042,15.07,4.46,36,11,0,0
1.1734e+05,8.4934e+07,0,6054,6185,15.08,4.05,36,11,0,0
1.1775e+05,8.5037e+07,0,6181,5957,15.1,3.86,36,11,0,0
1.1824e+05,8.5153e+07,0,5960,6000,15.17,4.01,36,11,0,0
1.1864e+05,8.5257e+07,0,6005,6142,15.07,3.96,36,11,0,0
1.1909e+05,8.5367e+07,0,6138,5900,15.14,3.92,36,11,0,0
1.1954e+05,8.5476e+07,0,5902,6042,15.14,4.04,36,12,0,0
1.1998e+05,8.5586e+07,0,6045,6185,15.08,3.99,36,12,0,0
1.2043e+05,8.5693e+07,0,6178,5971,15.12,4.29,36,12,0,0
1.2092e+05,8.5812e+07,0,5987,6228,15.08,4.74,36,12,0,0
1.2133e+05,8.5913e+07,0,6231,6300,15.08,4.62,36,12,0,0
1.2177e+05,8.6023e+07,0,6305,6385,15.11,4.72,36,12,0,0
1.2218e+05,8.6127e+07,0,6381,6242,15.08,4.24,36,12,0,0
1.2264e+05,8.6247e+07,0,6248,6314,15.07,4.51,36,13,0,0
1.2304e+05,8.6347e+07,0,6313,6300,15.03,4.94,36,13,0,0
1.2349e+05,8.6456e+07,0,6308,6471,15.07,4.7,36,13,0,0
1.2393e+05,8.6562e+07,0,6469,6400,15.09,4.94,36,13,0,0
1.2438e+05,8.6675e+07,0,6408,6585,15.06,5.25,36,13,0,0
1.2484e+05,8.6786e+07,0,6589,6657,15.02,5.17,36,13,0,0
1.2528e+05,8.6896e+07,0,6640,6471,15,4.91,36,13,0,0
1.2569e+05,8.7003e+07,0,6482,6600,15.1,4.97,36,14,0,0
1.2614e+05,8.7109e+07,0,6599,6585,15.05,4.99,36,14,0,0
1.2658e+05,8.7218e+07,0,6565,6371,14.95,5.44,36,14,0,0
1.2703e+05,8.7325e+07,0,6377,6557,14.92,5.22,36,14,0,0
1.2743e+05,8.7429e+07,0,6557,6571,15.08,4.78,36,14,0,0
1.2796e+05,8.755e+07,0,6567,6528,15.16,4.61,36,14,0,0
1.2836e+05,8.7651e+07,0,6515,6271,15,4.74,36,14,0,0
1.2881e+05,8.7761e+07,0,6288,6514,15.01,4.55,36,15,0,0
1.2926e+05,8.7868e+07,0,6507,6414,15.05,4.77,36,15,0,0
1.2971e+05,8.798e+07,0,6416,6442,15.09,4.88,36,15,0,0
1.3059e+05,8.8202e+07,0,6443,6471,15.14,4.76,36,15,0,0
1.31e+05,8.8295e+07,0,6465,6342,15.17,5.56,36,15,0,0
1.3152e+05,8.8417e+07,0,6361,6542,14.85,6.23,37,16,0,0
1.3193e+05,8.8517e+07,0,6549,6657,15.11,5.32,36,16,0,0
1.3237e+05,8.8627e+07,0,6629,6371,14.92,5.19,36,16,0,0
1.3278e+05,8.8728e+07,0,6362,6185,15,6.13,36,16,0,0
1.3323e+05,8.8841e+07,0,6203,6471,14.98,5.91,36,16,0,0
1.3368e+05,8.8954e+07,0,6443,6214,15.04,4.39,36,16,0,0
1.3416e+05,8.9069e+07,0,6236,6485,14.98,6.77,36,17,0,0
1.3457e+05,8.9163e+07,0,6482,6328,15.04,5.31,37,17,0,0
1.3502e+05,8.9273e+07,0,6330,6357,14.64,6.22,36,17,0,0
1.3546e+05,8.9385e+07,0,6374,6514,14.7,7.36,37,17,0,0
1.3587e+05,8.9482e+07,0,6510,6257,14.76,6.71,36,17,0,0
1.3635e+05,8.9605e+07,0,6264,6328,14.93,6.26,37,18,0,0
1.368e+05,8.9714e+07,0,6326,6314,14.63,7.01,37,18,0,0
1.385e+05,9.0131e+07,0,6314,6428,15.09,4.59,37,18,0,0
1.3895e+05,9.0245e+07,0,6421,6357,14.97,4.84,37,19,0,0
1.394e+05,9.0352e+07,0,6369,6514,15.11,4.77,37,19,0,0
1.3985e+05,9.0469e+07,0,6489,6214,15.02,5.57,37,19,0,0
1.4026e+05,9.0566e+07,0,6223,6442,14.97,6.52,37,19,0,0
1.407e+05,9.0679e+07,0,6442,6442,14.97,5.04,37,19,0,0
1.416e+05,9.0897e+07,0,6443,6671,15.01,4.81,37,20,0,0
1.4209e+05,9.1016e+07,0,6649,6428,15.01,4.82,37,20,0,0
1.425e+05,9.1118e+07,0,6434,6500,15.04,5.12,37,20,0,0
1.4295e+05,9.123e+07,0,6505,6557,15,5.75,37,20,0,0
1.4336e+05,9.1331e+07,0,6544,6428,15.01,4.76,37,20,0,0
1.438e+05,9.1436e+07,0,6429,6485,14.97,4.55,37,20,0,0
1.4429e+05,9.1556e+07,0,6492,6585,14.98,4.87,37,20,0,0
1.4518e+05,9.1774e+07,0,6583,6557,14.94,4.94,37,21,0,0
1.4604e+05,9.1985e+07,0,6552,6357,15.06,4.47,37,21,0,0
1.4648e+05,9.2092e+07,0,6347,6142,15.09,3.7,37,21,0,0
1.4692e+05,9.2203e+07,0,6149,6271,15,4.67,37,21,0,0
1.4733e+05,9.2308e+07,0,6271,6271,14.97,4.29,37,21,0,0
1.4778e+05,9.2416e+07,0,6267,6114,15.02,4.14,37,22,0,0
1.4823e+05,9.253e+07,0,6116,6157,15,5.03,37,22,0,0
1.4868e+05,9.2644e+07,0,6163,6228,14.99,4.84,37,22,0,0
1.4913e+05,9.275e+07,0,6234,6328,14.98,4.58,37,22,0,0
1.4957e+05,9.2857e+07,0,6326,6300,14.98,4.64,37,22,0,0
1.5002e+05,9.297e+07,0,6297,6271,15.08,4.18,37,22,0,0
1.5042e+05,9.3072e+07,0,6269,6185,15.05,4.54,37,22,0,0
1.5087e+05,9.3178e+07,0,6187,6285,15.05,4.59,37,22,0,0
1.5132e+05,9.3289e+07,0,6285,6300,15.03,4.51,37,23,0,0
1.5222e+05,9.351e+07,0,6303,6442,15.07,5.13,37,23,0,0
1.527e+05,9.3624e+07,0,6436,6357,15.01,4.53,37,23,0,0
1.5315e+05,9.3735e+07,0,6337,6057,15.03,3.39,37,23,0,0
1.5355e+05,9.3837e+07,0,6054,5900,14.98,3.85,37,23,0,0
1.5404e+05,9.3948e+07,0,5915,6242,15.01,4.79,38,23,0,0
1.5449e+05,9.4062e+07,0,6260,6457,15.01,5.23,38,23,0,0
1.5494e+05,9.4174e+07,0,6458,6485,14.97,5.73,38,24,0,0
1.5539e+05,9.4281e+07,0,6496,6642,14.98,5.5,38,24,0,0
1.5584e+05,9.4389e+07,0,6649,6885,14.82,5.49,38,24,0,0
1.5628e+05,9.4503e+07,0,6870,6571,14.83,5.93,38,24,0,0
1.5673e+05,9.4616e+07,0,6570,6542,14.86,6.08,37,24,0,0
1.5718e+05,9.4724e+07,0,6542,6542,14.77,6.72,37,25,0,0
1.5766e+05,9.4838e+07,0,6557,6700,14.81,6.51,37,25,0,0
1.5811e+05,9.4946e+07,0,6707,6785,14.94,5.08,38,25,0,0
1.5855e+05,9.5057e+07,0,6757,6342,14.91,4.73,38,25,0,0
1.594e+05,9.5265e+07,0,6343,6500,15,4.91,38,25,0,0
1.599e+05,9.5382e+07,0,6494,6414,15.01,4.56,38,26,0,0
1.6119e+05,9.5703e+07,0,6411,6200,14.97,4.67,38,26,0,0
1.6167e+05,9.5818e+07,0,6201,6214,15.04,4.33,38,26,0,0
1.6208e+05,9.5918e+07,0,6210,5957,14.97,3.77,38,26,0,0
1.6253e+05,9.6031e+07,0,5953,5857,14.98,3.62,38,26,0,0
1.6302e+05,9.6148e+07,0,5851,5800,15.04,4.01,38,26,0,0
1.6346e+05,9.6265e+07,0,5801,5814,15.05,3.88,38,27,0,0
1.6387e+05,9.6362e+07,0,5818,5914,15.02,3.6,38,27,0,0
1.6432e+05,9.6475e+07,0,5912,5728,15.06,3.51,38,27,0,0
1.6477e+05,9.6585e+07,0,5731,5814,15.06,3.63,38,27,0,0
1.6525e+05,9.6707e+07,0,5818,5871,15.07,3.64,38,27,0,0
1.6566e+05,9.6809e+07,0,5872,5885,14.94,3.57,38,27,0,0
1.6611e+05,9.692e+07,0,5878,5828,14.95,4.07,38,27,0,0
1.6655e+05,9.7028e+07,0,5853,6057,14.99,4.03,38,27,0,0
1.67e+05,9.7133e+07,0,6063,6157,15.02,4.06,38,28,0,0
1.6745e+05,9.7246e+07,0,6161,6200,14.98,4.42,38,28,0,0
1.683e+05,9.7458e+07,0,6211,6500,15.07,4.36,38,28,0,0
1.6875e+05,9.7566e+07,0,6473,6114,15.16,3.54,38,28,0,0
1.692e+05,9.7677e+07,0,6099,5928,15.02,4.84,38,28,0,0
1.6964e+05,9.7786e+07,0,5913,5742,14.72,6.32,38,28,0,0
1.7008e+05,9.7892e+07,0,5778,6342,14.96,4.85,38,29,0,0
1.7053e+05,9.7998e+07,0,6338,6057,15.08,3.5,38,29,0,0
1.7102e+05,9.812e+07,0,6039,5842,15.07,3.25,38,29,0,0
1.7191e+05,9.8336e+07,0,5833,5585,15.03,3.07,38,29,0,0
1.7232e+05,9.8438e+07,0,5586,5642,14.91,3.45,38,29,0,0
1.7281e+05,9.8558e+07,0,5653,5771,15.01,3.57,38,29,0,0
1.7324e+05,9.8658e+07,0,5771,5785,15.02,3.59,38,29,0,0
1.737e+05,9.8771e+07,0,5795,5900,15.01,3.88,38,29,0,0
1.7415e+05,9.8878e+07,0,5907,6100,14.97,3.98,38,29,0,0
1.7459e+05,9.8986e+07,0,6111,6357,14.89,4.73,38,30,0,0
1.7508e+05,9.9104e+07,0,6367,6471,14.94,4.95,38,30,0,0
1.7553e+05,9.9213e+07,0,6449,6228,14.92,4.35,38,30,0,0
1.7598e+05,9.9326e+07,0,6228,6228,14.89,4.48,38,30,0,0
1.7638e+05,9.9427e+07,0,6247,6514,14.83,4.61,38,30,0,0
1.7728e+05,9.9648e+07,0,6507,6185,14.93,4.75,38,30,0,0
1.7773e+05,9.9754e+07,0,6181,6014,14.96,3.53,38,31,0,0
1.7821e+05,9.9872e+07,0,6010,5971,14.93,3.94,38,31,0,0
1.7862e+05,9.9971e+07,0,5976,6271,14.95,4.34,38,31,0,0
1.791e+05,1.0009e+08,0,6267,6200,14.92,4.32,38,31,0,0
1.7955e+05,1.0019e+08,0,6204,6300,14.95,4.91,38,31,0,0
1.8e+05,1.003e+08,0,6294,6214,14.98,4.44,38,31,0,0
1.8041e+05,1.0041e+08,0,6214,6242,15.01,4.56,38,31,0,0
1.8086e+05,1.0052e+08,0,6222,6042,15.01,4.25,38,32,0,0
1.813e+05,1.0063e+08,0,6059,6300,14.95,4.74,38,32,0,0
1.8175e+05,1.0074e+08,0,6296,6214,14.97,4.34,38,32,0,0
1.8219e+05,1.0085e+08,0,6217,6300,14.99,4.37,38,32,0,0
1.8264e+05,1.0095e+08,0,6296,6157,14.98,4.58,38,32,0,0
1.8308e+05,1.0106e+08,0,6166,6371,14.95,4.71,38,32,0,0
1.8354e+05,1.0117e+08,0,6370,6357,14.92,4.55,38,32,0,0
1.8398e+05,1.0128e+08,0,6348,6257,15.03,4.21,38,33,0,0
1.8447e+05,1.0139e+08,0,6244,6114,15.02,4.33,38,33,0,0
1.8492e+05,1.0151e+08,0,6123,6214,14.95,4.69,38,33,0,0
1.8576e+05,1.0171e+08,0,6214,6257,14.98,4.57,38,33,0,0
1.8617e+05,1.0182e+08,0,6256,6228,15,4.26,38,33,0,0
1.8666e+05,1.0194e+08,0,6219,6128,15,4.28,38,33,0,0
1.8707e+05,1.0204e+08,0,6129,6171,14.88,4.73,38,33,0,0
1.8751e+05,1.0215e+08,0,6168,6114,14.98,4.47,38,34,0,0
1.8796e+05,1.0226e+08,0,6115,6157,14.94,4.35,38,34,0,0
1.8837e+05,1.0236e+08,0,6154,6000,14.88,4.08,38,34,0,0
1.8886e+05,1.0248e+08,0,6002,6028,15.02,4.45,38,34,0,0
1.893e+05,1.0259e+08,0,6054,6314,15.03,4.42,38,34,0,0
1.8975e+05,1.027e+08,0,6313,6300,15.01,4.43,38,34,0,0
1.9019e+05,1.0281e+08,0,6287,6114,14.99,3.94,38,34,0,0
1.906e+05,1.0291e+08,0,6110,6057,15.01,4.78,38,35,0,0
1.9105e+05,1.0302e+08,0,6076,6271,15.03,4.6,38,35,0,0
1.9145e+05,1.0312e+08,0,6269,6214,14.89,4.28,38,35,0,0
1.919e+05,1.0324e+08,0,6205,6085,15.03,4.05,38,35,0,0
1.9231e+05,1.0334e+08,0,6084,6057,15,3.96,38,35,0,0
1.928e+05,1.0345e+08,0,6066,6171,15.01,4.39,38,35,0,0
1.9324e+05,1.0356e+08,0,6176,6228,15.01,4.1,38,35,0,0
1.9369e+05,1.0367e+08,0,6224,6185,14.98,3.93,38,35,0,0
1.9413e+05,1.0378e+08,0,6182,6157,14.98,4.06,38,36,0,0
1.9454e+05,1.0389e+08,0,6157,6157,14.98,4.33,38,36,0,0
1.9503e+05,1.0401e+08,0,6151,6100,15.01,4.01,38,36,0,0
1.9544e+05,1.0411e+08,0,6102,6128,14.94,4.19,38,36,0,0
1.9677e+05,1.0445e+08,0,6133,6242,14.89,4.6,38,36,0,0
1.9762e+05,1.0465e+08,0,6241,6200,14.96,4.02,38,37,0,0
1.9807e+05,1.0476e+08,0,6201,6328,14.96,4.48,38,37,0,0
1.9855e+05,1.0488e+08,0,6329,6342,14.97,4.68,38,37,0,0
1.99e+05,1.0499e+08,0,6334,6271,14.96,4.73,38,37,0,0
1.994e+05,1.0509e+08,0,6269,6185,14.92,4.43,38,37,0,0
1.9984e+05,1.052e+08,0,6189,6414,14.91,4.83,38,37,0,0
2.0029e+05,1.0531e+08,0,6402,6314,14.98,4.41,38,37,0,0
2.0074e+05,1.0542e+08,0,6297,6157,14.86,4.21,38,38,0,0
2.0119e+05,1.0553e+08,0,6177,6385,14.85,4.59,38,38,0,0
2.0207e+05,1.0575e+08,0,6382,6314,14.88,4.83,38,38,0,0
2.0247e+05,1.0585e+08,0,6319,6457,14.87,4.67,38,38,0,0
2.0296e+05,1.0596e+08,0,6429,6242,14.86,4.71,38,38,0,0
2.0336e+05,1.0607e+08,0,6251,6514,14.91,4.74,38,38,0,0
2.0385e+05,1.0618e+08,0,6504,6414,14.87,4.39,38,39,0,0
2.0425e+05,1.0628e+08,0,6422,6500,14.82,4.67,38,39,0,0
2.047e+05,1.0639e+08,0,6485,6300,14.86,4.58,38,39,0,0
2.0515e+05,1.065e+08,0,6289,6185,14.79,4.55,38,39,0,0
2.0559e+05,1.0662e+08,0,6195,6314,14.81,4.83,38,39,0,0
2.06e+05,1.0672e+08,0,6309,6228,14.87,4.2,38,39,0,0
2.0641e+05,1.0682e+08,0,6239,6442,14.79,5.18,38,39,0,0
2.0686e+05,1.0693e+08,0,6442,6457,14.87,4.51,38,39,0,0
2.073e+05,1.0704e+08,0,6455,6428,14.76,4.71,38,40,0,0
2.0775e+05,1.0715e+08,0,6431,6514,14.87,4.9,38,40,0,0
2.082e+05,1.0726e+08,0,6512,6385,14.78,4.49,38,40,0,0
2.0869e+05,1.0738e+08,0,6400,6557,14.8,4.98,38,40,0,0
2.0914e+05,1.0749e+08,0,6554,6528,14.82,5.1,39,40,0,0
2.0954e+05,1.0759e+08,0,6527,6500,14.77,5.01,38,40,0,0
2.1003e+05,1.0771e+08,0,6494,6371,14.83,5.06,38,41,0,0
2.1043e+05,1.0781e+08,0,6370,6357,14.88,4.15,38,41,0,0
2.1088e+05,1.0792e+08,0,6356,6342,14.8,4.71,38,41,0,0
2.1132e+05,1.0803e+08,0,6344,6400,14.83,4.98,38,41,0,0
2.1182e+05,1.0815e+08,0,6400,6400,14.88,4.47,38,41,0,0
2.1222e+05,1.0825e+08,0,6400,6428,14.88,5.01,38,41,0,0
2.127e+05,1.0836e+08,0,6415,6242,14.85,3.61,38,41,0,0
2.1315e+05,1.0847e+08,0,6240,6228,14.88,4.65,38,42,0,0
2.136e+05,1.0858e+08,0,6254,6628,14.89,4.72,38,42,0,0
2.1404e+05,1.0869e+08,0,6626,6600,14.92,5.06,38,42,0,0
2.145e+05,1.0881e+08,0,6591,6500,14.98,4.62,38,42,0,0
2.1489e+05,1.089e+08,0,6486,6228,14.98,4.11,38,42,0,0
2.1533e+05,1.0901e+08,0,6224,6085,14.89,4.14,38,42,0,0
2.1579e+05,1.0912e+08,0,6079,6000,14.95,4.12,39,42,0,0
2.1623e+05,1.0923e+08,0,6010,6157,14.83,4.34,39,42,0,0
2.1664e+05,1.0934e+08,0,6146,5928,14.93,3.86,39,43,0,0
2.1712e+05,1.0945e+08,0,5937,6114,14.99,3.96,38,43,0,0
2.1757e+05,1.0956e+08,0,6120,6185,14.94,4.32,38,43,0,0
2.1797e+05,1.0966e+08,0,6193,6300,14.92,5.08,39,43,0,0
2.1842e+05,1.0977e+08,0,6295,6242,14.93,4.48,39,43,0,0
2.1887e+05,1.0989e+08,0,6248,6328,14.95,4.38,39,43,0,0
2.1927e+05,1.0999e+08,0,6327,6271,14.98,4.38,38,43,0,0
2.2016e+05,1.1021e+08,0,6278,6428,14.83,4.68,39,44,0,0
2.2062e+05,1.1032e+08,0,6419,6328,14.79,4.87,38,44,0,0
2.215e+05,1.1053e+08,0,6337,6600,14.84,4.66,38,44,0,0
2.2195e+05,1.1065e+08,0,6585,6442,14.84,4.62,38,44,0,0
2.2236e+05,1.1075e+08,0,6441,6400,14.89,4.1,39,44,0,0
2.2284e+05,1.1086e+08,0,6420,6628,14.7,5.75,39,44,0,0
2.2324e+05,1.1096e+08,0,6627,6600,14.79,4.96,38,45,0,0
2.2369e+05,1.1107e+08,0,6592,6514,14.85,4.63,39,45,0,0
2.241e+05,1.1118e+08,0,6515,6542,14.85,5.1,38,45,0,0
2.2454e+05,1.1129e+08,0,6547,6600,14.86,5.03,38,45,0,0
2.2495e+05,1.1139e+08,0,6601,6614,14.88,5.08,38,45,0,0
2.254e+05,1.115e+08,0,6616,6657,14.9,5.41,38,45,0,0
2.2584e+05,1.1161e+08,0,6659,6714,14.99,4.74,38,46,0,0
2.2625e+05,1.1172e+08,0,6660,6185,14.86,3.76,38,46,0,0
2.2669e+05,1.1183e+08,0,6191,6257,14.86,4.49,39,46,0,0
2.271e+05,1.1193e+08,0,6270,6514,14.94,5.29,39,46,0,0
2.2755e+05,1.1204e+08,0,6509,6357,14.62,5.9,39,46,0,0
2.28e+05,1.1215e+08,0,6350,6228,15.04,5.8,38,46,0,0
2.2844e+05,1.1226e+08,0,6213,5942,14.31,7,39,46,0,0
2.2888e+05,1.1236e+08,0,5968,6457,14.81,6.16,39,47,0,0
2.2933e+05,1.1248e+08,0,6436,6228,14.85,4.84,38,47,0,0
2.2974e+05,1.1258e+08,0,6223,6142,14.91,4.07,38,47,0,0
2.3019e+05,1.1269e+08,0,6150,6242,14.87,4.61,39,47,0,0
2.3067e+05,1.1281e+08,0,6229,6057,14.85,3.64,38,47,0,0
2.3111e+05,1.1291e+08,0,6060,6100,14.91,4.39,39,47,0,0
2.3152e+05,1.1302e+08,0,6103,6171,14.82,4.89,39,47,0,0
2.3197e+05,1.1313e+08,0,6162,6085,14.91,4.6,39,48,0,0
2.3241e+05,1.1324e+08,0,6104,6300,14.83,5.09,39,48,0,0
2.3286e+05,1.1335e+08,0,6306,6400,14.79,5.53,39,48,0,0
2.3326e+05,1.1345e+08,0,6400,6414,14.79,5.11,39,48,0,0
2.3371e+05,1.1356e+08,0,6417,6471,14.86,4.7,39,48,0,0
2.3416e+05,1.1368e+08,0,6471,6471,14.81,4.78,39,48,0,0
2.346e+05,1.1379e+08,0,6454,6271,14.86,4.26,39,49,0,0
2.3505e+05,1.139e+08,0,6282,6400,14.76,4.94,39,49,0,0
2.3549e+05,1.14e+08,0,6393,6328,14.81,4.73,39,49,0,0
2.3635e+05,1.1421e+08,0,6329,6371,14.83,4.65,39,49,0,0
2.3676e+05,1.1432e+08,0,6370,6357,14.8,4.53,39,49,0,0
2.372e+05,1.1443e+08,0,6349,6271,14.8,4.22,39,49,0,0
2.3761e+05,1.1453e+08,0,6268,6114,14.86,3.98,39,49,0,0
2.3809e+05,1.1465e+08,0,6112,6085,14.91,4.15,39,50,0,0
2.3854e+05,1.1476e+08,0,6095,6242,14.83,4.3,39,50,0,0
2.3898e+05,1.1487e+08,0,6236,6157,14.83,4.06,39,50,0,0
2.3947e+05,1.1499e+08,0,6145,6042,14.82,4.15,39,50,0,0
2.3987e+05,1.1509e+08,0,6046,6100,14.83,4.13,39,50,0,0
2.4032e+05,1.152e+08,0,6097,6057,14.83,4.02,39,50,0,0
2.4078e+05,1.1532e+08,0,6061,6085,14.83,3.91,39,50,0,0
2.4118e+05,1.1541e+08,0,6087,6142,14.83,4.17,39,50,0,0
2.4162e+05,1.1552e+08,0,6142,6171,14.86,4.08,39,51,0,0
2.4207e+05,1.1563e+08,0,6166,6128,14.85,4.26,39,51,0,0
2.4252e+05,1.1574e+08,0,6126,6042,14.85,4.52,39,51,0,0
2.4296e+05,1.1585e+08,0,6058,6257,14.8,4.45,39,51,0,0
2.4381e+05,1.1606e+08,0,6257,6300,14.82,4.66,39,51,0,0
2.443e+05,1.1618e+08,0,6302,6328,14.85,4.36,39,51,0,0
2.447e+05,1.1628e+08,0,6327,6314,14.85,4.74,39,52,0,0
2.452e+05,1.164e+08,0,6323,6385,14.83,4.12,39,52,0,0
2.456e+05,1.165e+08,0,6382,6257,14.84,4.59,39,52,0,0
2.4608e+05,1.1661e+08,0,6269,6485,14.76,4.7,39,52,0,0
2.4652e+05,1.1672e+08,0,6454,6228,14.84,4.11,39,52,0,0
2.4697e+05,1.1683e+08,0,6219,6157,14.8,3.8,39,52,0,0
2.4738e+05,1.1692e+08,0,6155,6071,14.83,4.18,39,52,0,0
2.4786e+05,1.1705e+08,0,6064,5971,14.89,3.62,39,52,0,0
2.4827e+05,1.1715e+08,0,5979,6071,14.83,3.78,39,53,0,0
2.4871e+05,1.1726e+08,0,6068,5885,14.89,3.52,39,53,0,0
2.492e+05,1.1737e+08,0,5880,5828,14.95,3.26,39,53,0,0
2.4961e+05,1.1748e+08,0,5803,5585,14.87,3.32,39,53,0,0
2.5002e+05,1.1759e+08,0,5579,5485,14.89,2.83,39,53,0,0
2.5049e+05,1.177e+08,0,5495,5600,14.91,3.32,39,53,0,0
2.5093e+05,1.178e+08,0,5604,5700,14.85,3.85,39,53,0,0
2.5138e+05,1.1792e+08,0,5715,5857,14.82,3.64,39,53,0,0
2.5179e+05,1.1802e+08,0,5857,5900,14.91,3.66,39,53,0,0
2.5228e+05,1.1813e+08,0,5883,5685,14.91,3.42,39,53,0,0
2.5269e+05,1.1824e+08,0,5683,5671,14.9,3.24,39,54,0,0
2.5314e+05,1.1836e+08,0,5684,5828,14.92,3.8,39,54,0,0
2.5355e+05,1.1846e+08,0,5819,5728,14.91,3.14,39,54,0,0
2.544e+05,1.1867e+08,0,5728,5771,14.95,3.68,39,54,0,0
2.5489e+05,1.1879e+08,0,5769,5742,14.92,3.3,39,54,0,0
2.5529e+05,1.1889e+08,0,5741,5728,14.94,3.4,39,54,0,0
2.5574e+05,1.19e+08,0,5719,5614,14.92,3.09,39,54,0,0
2.5618e+05,1.1911e+08,0,5602,5457,14.84,2.79,39,54,0,0
2.5663e+05,1.1922e+08,0,5469,5642,14.89,3.23,39,55,0,0
2.5751e+05,1.1944e+08,0,5644,5700,14.86,3.59,39,55,0,0
2.5793e+05,1.1954e+08,0,5701,5728,14.91,3.28,39,55,0,0
2.5838e+05,1.1965e+08,0,5738,5857,14.78,4.36,39,55,0,0
2.5882e+05,1.1976e+08,0,5873,6200,14.85,4.66,39,55,0,0
2.5927e+05,1.1987e+08,0,6215,6385,14.82,4.71,39,55,0,0
2.5972e+05,1.1999e+08,0,6374,6271,14.76,5.68,39,55,0,0
2.6016e+05,1.2009e+08,0,6325,6714,14.71,5.84,39,56,0,0
2.606e+05,1.2019e+08,0,6718,6800,14.75,5.75,39,56,0,0
2.6105e+05,1.203e+08,0,6784,6614,14.72,6.17,39,56,0,0
2.6146e+05,1.2041e+08,0,6618,6700,14.79,5.63,39,56,0,0
2.6191e+05,1.2052e+08,0,6706,6771,14.8,5.82,39,56,0,0
2.6232e+05,1.2062e+08,0,6761,6642,14.83,5.09,39,56,0,0
2.6277e+05,1.2074e+08,0,6627,6471,14.69,4.98,39,57,0,0
2.6321e+05,1.2084e+08,0,6472,6485,14.72,5.08,39,57,0,0
2.6369e+05,1.2096e+08,0,6483,6471,14.7,4.7,39,57,0,0
2.641e+05,1.2105e+08,0,6465,6357,14.76,4.55,39,57,0,0
2.6455e+05,1.2116e+08,0,6368,6542,14.78,4.47,39,57,0,0
2.6544e+05,1.2138e+08,0,6541,6428,14.83,4.89,39,57,0,0
2.6589e+05,1.2149e+08,0,6431,6471,14.8,4.8,39,58,0,0
2.6634e+05,1.216e+08,0,6437,6142,14.8,4.25,39,58,0,0
2.6678e+05,1.2171e+08,0,6158,6314,14.73,4.75,39,58,0,0
2.6719e+05,1.2182e+08,0,6319,6428,14.81,4.86,39,58,0,0
2.6764e+05,1.2193e+08,0,6430,6471,14.79,5.28,39,58,0,0
2.6808e+05,1.2204e+08,0,6475,6571,14.85,4.92,39,58,0,0
2.6853e+05,1.2215e+08,0,6568,6471,14.83,4.92,39,58,0,0
2.6894e+05,1.2226e+08,0,6473,6557,14.82,5.14,39,59,0,0
2.694e+05,1.2237e+08,0,6556,6542,14.78,5.17,39,59,0,0
2.7026e+05,1.2259e+08,0,6548,6642,14.8,4.89,39,59,0,0
2.7066e+05,1.2269e+08,0,6642,6685,14.79,4.94,39,59,0,0
2.711e+05,1.228e+08,0,6676,6485,14.87,4.86,39,59,0,0
2.7155e+05,1.2291e+08,0,6492,6571,14.73,4.95,39,59,0,0
2.7196e+05,1.2301e+08,0,6568,6514,14.83,4.8,39,60,0,0
2.7241e+05,1.2312e+08,0,6511,6357,14.76,4.68,39,60,0,0
2.7285e+05,1.2323e+08,0,6360,6414,14.82,4.98,39,60,0,0
2.733e+05,1.2335e+08,0,6405,6285,14.8,4.84,39,60,0,0
2.7371e+05,1.2345e+08,0,6296,6442,14.77,4.8,39,60,0,0
2.7416e+05,1.2356e+08,0,6442,6457,14.83,5.14,39,60,0,0
2.746e+05,1.2367e+08,0,6461,6514,14.81,4.61,39,61,0,0
2.7541e+05,1.2387e+08,0,6514,6514,14.83,4.76,39,61,0,0
2.7634e+05,1.241e+08,0,6514,6514,14.77,5.07,39,61,0,0
2.7678e+05,1.242e+08,0,6513,6471,14.68,5.33,39,61,0,0
2.7723e+05,1.2431e+08,0,6471,6471,14.79,4.81,39,61,0,0
2.7763e+05,1.2442e+08,0,6466,6242,14.86,4.53,39,62,0,0
2.7812e+05,1.2453e+08,0,6243,6285,14.86,4.17,39,62,0,0
2.7857e+05,1.2464e+08,0,6270,6114,14.82,4.3,39,62,0,0
2.7902e+05,1.2475e+08,0,6102,5985,14.83,4.17,39,62,0,0
2.7946e+05,1.2486e+08,0,5985,5985,14.91,3.91,39,62,0,0
2.7986e+05,1.2496e+08,0,5979,5857,14.93,3.63,39,62,0,0
2.8031e+05,1.2507e+08,0,5854,5742,14.98,3.3,39,62,0,0
2.808e+05,1.2519e+08,0,5736,5657,14.95,3.15,39,62,0,0
2.812e+05,1.2529e+08,0,5657,5671,14.95,3.55,39,63,0,0
2.8164e+05,1.254e+08,0,5674,5757,14.92,4.11,39,63,0,0
2.821e+05,1.2551e+08,0,5777,6071,14.75,4.45,39,63,0,0
2.8254e+05,1.2562e+08,0,6081,6185,14.82,4.8,39,63,0,0
2.8299e+05,1.2573e+08,0,6197,6328,14.9,4.63,39,63,0,0
2.8339e+05,1.2583e+08,0,6331,6414,14.83,4.85,39,63,0,0
2.8384e+05,1.2594e+08,0,6413,6400,14.73,5.09,39,63,0,0
2.8429e+05,1.2605e+08,0,6403,6500,14.8,5.47,39,64,0,0
2.8607e+05,1.2648e+08,0,6496,6285,14.91,4.85,39,64,0,0
2.8652e+05,1.266e+08,0,6273,6142,14.9,4.57,39,64,0,0
2.8789e+05,1.2693e+08,0,6144,6285,14.82,4.94,39,65,0,0
2.883e+05,1.2703e+08,0,6283,6271,14.88,4.89,39,65,0,0
2.8874e+05,1.2714e+08,0,6273,6300,14.9,4.31,39,65,0,0
2.8963e+05,1.2736e+08,0,6300,6328,14.79,4.6,39,65,0,0
2.9008e+05,1.2747e+08,0,6328,6342,14.76,5.03,39,65,0,0
2.9053e+05,1.2758e+08,0,6344,6400,14.75,5.05,39,66,0,0
2.9098e+05,1.2769e+08,0,6392,6314,14.72,4.97,39,66,0,0
2.9142e+05,1.278e+08,0,6319,6385,14.72,4.89,39,66,0,0
2.9186e+05,1.2791e+08,0,6387,6414,14.86,4.47,39,66,0,0
2.9272e+05,1.2812e+08,0,6408,6171,14.8,4.65,39,66,0,0
2.9316e+05,1.2823e+08,0,6175,6242,14.82,4.58,39,66,0,0
2.9357e+05,1.2834e+08,0,6243,6271,14.88,4.5,39,66,0,0
2.9398e+05,1.2844e+08,0,6271,6314,14.6,4.43,39,67,0,0
2.9447e+05,1.2856e+08,0,6275,5914,14.85,4.82,39,67,0,0
2.9487e+05,1.2866e+08,0,5908,5800,14.89,4.5,39,67,0,0
2.9536e+05,1.2878e+08,0,5828,6071,14.83,4.44,39,67,0,0
2.9576e+05,1.2888e+08,0,6074,6142,14.88,4.5,39,67,0,0
2.9621e+05,1.2898e+08,0,6144,6257,14.88,4.6,39,67,0,0
2.9666e+05,1.291e+08,0,6254,6228,14.89,4.56,39,67,0,0
2.9711e+05,1.2921e+08,0,6224,6185,14.79,4.77,39,68,0,0
2.9751e+05,1.2931e+08,0,6187,6314,14.88,4.92,39,68,0,0
2.9799e+05,1.2942e+08,0,6318,6400,14.82,5.06,39,68,0,0
2.9848e+05,1.2954e+08,0,6392,6314,14.84,4.56,39,68,0,0
2.9892e+05,1.2964e+08,0,6330,6571,14.84,5.06,39,68,0,0
2.9937e+05,1.2975e+08,0,6567,6528,14.87,4.97,39,68,0,0
2.9977e+05,1.2985e+08,0,6524,6371,14.86,5.62,39,69,0,0
3.0022e+05,1.2996e+08,0,6364,6100,14.72,6.41,39,69,0,0
3.0068e+05,1.3008e+08,0,6113,6314,14.54,5.99,40,69,0,0
3.0152e+05,1.3029e+08,0,6311,6114,14.84,4.68,39,69,0,0
3.0201e+05,1.3041e+08,0,6122,6242,14.8,3.95,39,69,0,0
3.0246e+05,1.3052e+08,0,6227,6085,14.85,4.31,39,69,0,0
3.029e+05,1.3063e+08,0,6088,6128,14.87,4.54,39,70,0,0
3.0335e+05,1.3073e+08,0,6139,6257,14.86,4.49,39,70,0,0
3.0379e+05,1.3084e+08,0,6240,6014,14.87,4.08,39,70,0,0
3.0424e+05,1.3095e+08,0,6017,6142,14.74,4.11,39,70,0,0
3.0469e+05,1.3106e+08,0,6123,5942,14.86,3.81,39,70,0,0
3.0518e+05,1.3118e+08,0,5939,5914,14.87,3.88,40,70,0,0
3.0558e+05,1.3128e+08,0,5916,5942,14.82,4.09,40,70,0,0
3.0602e+05,1.3139e+08,0,5960,6228,14.78,5.01,40,70,0,0
3.0647e+05,1.315e+08,0,6241,6385,14.86,4.8,40,71,0,0
3.0688e+05,1.316e+08,0,6382,6228,14.86,4.54,39,71,0,0
3.0736e+05,1.3172e+08,0,6230,6271,14.88,4.06,39,71,0,0
3.0776e+05,1.3182e+08,0,6258,6100,14.8,3.66,40,71,0,0
3.0822e+05,1.3193e+08,0,6101,6142,14.71,4.58,40,71,0,0
3.087e+05,1.3204e+08,0,6151,6357,14.83,4.79,40,71,0,0
3.0915e+05,1.3216e+08,0,6353,6300,14.8,4.92,40,71,0,0
3.0959e+05,1.3227e+08,0,6311,6457,14.75,5.1,40,72,0,0
3.1008e+05,1.3239e+08,0,6463,6500,14.8,4.88,40,72,0,0
3.1048e+05,1.3248e+08,0,6494,6371,14.79,4.62,39,72,0,0
3.1138e+05,1.327e+08,0,6374,6485,14.75,4.75,40,72,0,0
3.1182e+05,1.3282e+08,0,6466,6300,14.84,4.8,40,72,0,0
3.1228e+05,1.3293e+08,0,6307,6357,14.75,4.88,40,72,0,0
3.1268e+05,1.3303e+08,0,6362,6500,14.73,4.98,40,73,0,0
3.1317e+05,1.3315e+08,0,6477,6271,14.8,4.71,40,73,0,0
3.1357e+05,1.3326e+08,0,6266,6228,14.81,4.36,40,73,0,0
3.1447e+05,1.3348e+08,0,6234,6357,14.78,4.78,40,73,0,0
3.1536e+05,1.337e+08,0,6355,6300,14.8,4.45,40,73,0,0
3.1572e+05,1.3379e+08,0,6299,6257,14.75,5,40,74,0,0
3.1621e+05,1.3391e+08,0,6273,6414,14.79,4.48,40,74,0,0
3.1665e+05,1.3402e+08,0,6423,6500,14.77,4.86,40,74,0,0
3.1706e+05,1.3412e+08,0,6495,6400,14.77,4.62,39,74,0,0
3.175e+05,1.3422e+08,0,6399,6385,14.82,4.25,40,74,0,0
3.1839e+05,1.3444e+08,0,6383,6171,14.81,4.98,39,75,0,0
3.1888e+05,1.3456e+08,0,6189,6342,14.74,4.88,40,75,0,0
3.1928e+05,1.3466e+08,0,6333,6228,14.73,4.64,39,75,0,0
3.2062e+05,1.3498e+08,0,6229,6342,14.79,4.65,40,75,0,0
3.2107e+05,1.351e+08,0,6346,6400,14.82,4.56,39,75,0,0
3.2151e+05,1.3521e+08,0,6388,6242,14.85,4.51,40,75,0,0
3.2196e+05,1.3531e+08,0,6253,6400,14.89,4.78,40,76,0,0
3.2241e+05,1.3543e+08,0,6401,6414,14.86,4.69,40,76,0,0
3.2282e+05,1.3553e+08,0,6408,6314,14.79,4.86,40,76,0,0
3.2322e+05,1.3563e+08,0,6315,6400,14.83,4.62,40,76,0,0
3.2374e+05,1.3575e+08,0,6389,6271,14.88,4.62,40,76,0,0
3.2415e+05,1.3585e+08,0,6271,6271,14.82,5,40,76,0,0
3.246e+05,1.3596e+08,0,6282,6400,14.83,4.62,40,76,0,0
3.25e+05,1.3607e+08,0,6400,6400,14.82,5.25,40,77,0,0
3.2546e+05,1.3618e+08,0,6399,6385,14.77,4.63,39,77,0,0
3.259e+05,1.3629e+08,0,6386,6400,14.82,4.93,40,77,0,0
3.2631e+05,1.364e+08,0,6396,6214,14.86,4.39,40,77,0,0
3.2675e+05,1.365e+08,0,6214,6257,14.74,4.77,40,77,0,0
3.2724e+05,1.3661e+08,0,6265,6385,14.82,4.55,40,77,0,0
3.2809e+05,1.3683e+08,0,6382,6114,14.79,4.14,40,78,0,0
3.2853e+05,1.3694e+08,0,6120,6414,14.78,4.93,40,78,0,0
3.2898e+05,1.3704e+08,0,6414,6457,14.8,4.54,40,78,0,0
3.2942e+05,1.3715e+08,0,6460,6614,14.8,5.06,40,78,0,0
3.2988e+05,1.3727e+08,0,6593,6385,14.83,4.93,40,78,0,0
3.3032e+05,1.3738e+08,0,6404,6600,14.79,4.95,40,78,0,0
3.3073e+05,1.3748e+08,0,6585,6385,14.74,5.39,40,78,0,0
3.3118e+05,1.376e+08,0,6378,6314,14.71,5.49,40,79,0,0
3.3162e+05,1.377e+08,0,6323,6457,14.77,5.88,40,79,0,0
3.3207e+05,1.3782e+08,0,6441,6285,14.64,5.77,40,79,0,0
3.3247e+05,1.3791e+08,0,6285,6285,14.61,7.01,39,79,0,0
3.3296e+05,1.3803e+08,0,6298,6442,14.75,5.97,40,79,0,0
3.3336e+05,1.3813e+08,0,6439,6300,14.77,6.15,40,80,0,0
3.3381e+05,1.3825e+08,0,6294,6157,14.4,6.24,40,80,0,0
3.3426e+05,1.3835e+08,0,6161,6257,14.63,7.53,40,80,0,0
3.347e+05,1.3846e+08,0,6257,6257,14.64,5.72,40,80,0,0
3.3559e+05,1.3868e+08,0,6257,6271,14.81,4.37,40,80,0,0
3.3604e+05,1.3879e+08,0,6280,6414,14.79,4.7,40,80,0,0
3.3649e+05,1.389e+08,0,6406,6300,14.76,4.8,40,81,0,0
3.369e+05,1.3901e+08,0,6304,6357,14.86,4.63,40,81,0,0
3.3735e+05,1.3912e+08,0,6354,6328,14.73,4.8,40,81,0,0
3.378e+05,1.3923e+08,0,6321,6228,14.8,4.44,40,81,0,0
3.382e+05,1.3933e+08,0,6245,6557,14.8,4.86,40,81,0,0
3.3866e+05,1.3945e+08,0,6545,6428,14.89,4.32,40,81,0,0
3.3911e+05,1.3955e+08,0,6419,6300,14.68,4.78,40,81,0,0
3.3951e+05,1.3966e+08,0,6300,6314,14.87,4.39,40,82,0,0
3.4e+05,1.3977e+08,0,6309,6271,14.72,4.9,40,82,0,0
3.4044e+05,1.3988e+08,0,6273,6300,14.84,4.46,40,82,0,0
3.4089e+05,1.3999e+08,0,6297,6271,14.8,4.44,40,82,0,0
3.4133e+05,1.4009e+08,0,6273,6328,14.77,4.77,40,82,0,0
3.4173e+05,1.402e+08,0,6324,6257,14.78,4.64,40,82,0,0
3.4218e+05,1.4031e+08,0,6260,6457,14.8,4.53,40,82,0,0
3.4267e+05,1.4042e+08,0,6441,6285,14.79,4.64,40,83,0,0
3.4312e+05,1.4053e+08,0,6290,6385,14.85,4.66,40,83,0,0
3.4356e+05,1.4064e+08,0,6383,6357,14.86,4.42,40,83,0,0
3.4397e+05,1.4074e+08,0,6358,6457,14.69,5.47,40,83,0,0
3.4441e+05,1.4085e+08,0,6455,6414,14.59,5.51,40,83,0,0
3.4486e+05,1.4096e+08,0,6415,6457,14.76,5.31,40,83,0,0
3.453e+05,1.4107e+08,0,6461,6571,14.7,4.66,40,84,0,0
3.458e+05,1.4119e+08,0,6562,6471,14.78,5.12,40,84,0,0
3.4623e+05,1.4129e+08,0,6471,6485,14.82,4.72,40,84,0,0
3.4668e+05,1.4141e+08,0,6476,6400,14.83,4.36,40,84,0,0
3.4709e+05,1.4151e+08,0,6391,6214,14.82,4.35,40,84,0,0
3.4754e+05,1.4162e+08,0,6217,6271,14.81,4.6,40,84,0,0
3.4799e+05,1.4174e+08,0,6264,6171,14.83,4.54,40,84,0,0
3.4844e+05,1.4185e+08,0,6194,6442,14.8,5.04,40,85,0,0
3.4888e+05,1.4196e+08,0,6442,6442,14.89,4.46,40,85,0,0
3.4933e+05,1.4208e+08,0,6420,6214,14.69,4.75,40,85,0,0
3.4978e+05,1.4218e+08,0,6189,6042,14.91,5.53,40,85,0,0
3.5018e+05,1.4228e+08,0,6042,6100,14.69,5.87,40,85,0,0
3.5063e+05,1.4239e+08,0,6105,6214,14.69,4.95,40,85,0,0
3.5107e+05,1.425e+08,0,6206,6142,14.68,5.39,40,85,0,0
3.5152e+05,1.4261e+08,0,6145,6214,14.66,4.71,40,86,0,0
3.5196e+05,1.4272e+08,0,6218,6257,14.88,4.86,40,86,0,0
3.5237e+05,1.4282e+08,0,6256,6242,14.75,4.41,40,86,0,0
3.5282e+05,1.4294e+08,0,6238,6200,14.82,3.91,40,86,0,0
3.5322e+05,1.4304e+08,0,6194,6142,14.76,4.12,40,86,0,0
3.5411e+05,1.4326e+08,0,6143,6214,14.85,4.06,40,86,0,0
3.55e+05,1.4348e+08,0,6213,6185,14.74,4.39,40,87,0,0
3.5541e+05,1.4359e+08,0,6202,6371,14.82,4.38,40,87,0,0
3.5582e+05,1.4369e+08,0,6377,6514,14.75,4.88,40,87,0,0
3.572e+05,1.4403e+08,0,6514,6514,14.72,5.27,40,87,0,0
3.576e+05,1.4412e+08,0,6510,6442,14.86,4.48,40,88,0,0
3.5804e+05,1.4423e+08,0,6445,6500,14.8,4.61,40,88,0,0
3.5849e+05,1.4434e+08,0,6493,6357,14.69,4.89,40,88,0,0
3.5889e+05,1.4445e+08,0,6359,6471,14.88,4.81,40,88,0,0
3.6024e+05,1.4477e+08,0,6463,6157,14.77,6.47,41,88,0,0
3.6116e+05,1.45e+08,0,6159,6228,14.61,5.29,40,89,0,0
3.6157e+05,1.451e+08,0,6175,5671,14.75,6.15,40,89,0,0
3.6201e+05,1.4521e+08,0,5691,5914,14.65,6.98,40,89,0,0
3.6246e+05,1.4532e+08,0,5949,6300,14.75,5.75,40,89,0,0
3.6287e+05,1.4542e+08,0,6286,6114,14.89,4.01,40,89,0,0
3.6331e+05,1.4553e+08,0,6110,5914,14.87,6.14,40,90,0,0
3.638e+05,1.4564e+08,0,5917,6014,14.55,6.88,41,90,0,0
3.6424e+05,1.4575e+08,0,6001,5885,14.61,7.06,40,90,0,0
3.6465e+05,1.4586e+08,0,5880,5828,14.86,5.42,40,90,0,0
3.651e+05,1.4597e+08,0,5856,6157,14.72,6.73,41,90,0,0
3.655e+05,1.4607e+08,0,6158,6242,14.71,6.19,40,91,0,0
3.6599e+05,1.4619e+08,0,6289,6785,14.72,5.67,40,91,0,0
3.6643e+05,1.4629e+08,0,6775,6585,14.75,4.85,40,91,0,0
3.6684e+05,1.4639e+08,0,6586,6685,14.79,4.67,40,91,0,0
3.6728e+05,1.465e+08,0,6680,6585,14.77,4.74,40,91,0,0
3.6817e+05,1.4672e+08,0,6584,6542,14.77,5.07,40,91,0,0
3.6861e+05,1.4683e+08,0,6544,6642,14.68,4.79,40,92,0,0
3.6906e+05,1.4694e+08,0,6642,6671,14.76,5.1,40,92,0,0
3.6951e+05,1.4705e+08,0,6650,6457,14.81,4.89,40,92,0,0
3.6995e+05,1.4715e+08,0,6457,6485,14.82,4.22,40,92,0,0
3.704e+05,1.4727e+08,0,6472,6285,14.8,4.26,41,92,0,0
3.708e+05,1.4737e+08,0,6284,6257,14.85,4.33,40,92,0,0
3.7125e+05,1.4748e+08,0,6250,6014,14.92,3.37,40,92,0,0
3.717e+05,1.4759e+08,0,6012,5914,14.85,4,41,93,0,0
3.7214e+05,1.477e+08,0,5914,5914,14.44,6.46,40,93,0,0
3.7259e+05,1.478e+08,0,5907,5742,14.61,6.45,41,93,0,0
3.7304e+05,1.4791e+08,0,5759,6185,14.92,5.94,40,93,0,0
3.7348e+05,1.4802e+08,0,6189,6385,14.67,4.83,41,93,0,0
3.7398e+05,1.4814e+08,0,6377,6300,14.89,4.2,40,93,0,0
3.7438e+05,1.4824e+08,0,6249,5571,14.75,3.88,41,94,0,0
3.7483e+05,1.4835e+08,0,5582,5742,14.57,6.47,41,94,0,0
3.7527e+05,1.4846e+08,0,5757,6085,14.75,4.49,41,94,0,0
3.7617e+05,1.4868e+08,0,6094,6371,14.63,5.23,41,94,0,0
3.7662e+05,1.488e+08,0,6388,6528,14.82,5.05,41,94,0,0
3.7703e+05,1.489e+08,0,6519,6314,14.77,4.84,41,94,0,0
3.7743e+05,1.49e+08,0,6316,6457,14.76,5.63,41,94,0,0
3.7792e+05,1.4912e+08,0,6454,6428,14.92,5.39,41,95,0,0
3.7878e+05,1.4933e+08,0,6424,6314,14.85,4.12,41,95,0,0
3.7918e+05,1.4944e+08,0,6309,6228,14.67,6.29,41,95,0,0
3.7963e+05,1.4955e+08,0,6235,6342,14.75,6.14,41,95,0,0
3.8004e+05,1.4965e+08,0,6344,6485,14.7,6.02,41,96,0,0
3.8052e+05,1.4977e+08,0,6460,6128,14.53,6.58,41,96,0,0
3.8097e+05,1.4988e+08,0,6146,6414,14.7,6.15,41,96,0,0
3.8142e+05,1.4999e+08,0,6419,6485,14.72,6.53,40,96,0,0
3.8183e+05,1.5009e+08,0,6485,6514,14.75,5.29,41,96,0,0
3.8227e+05,1.502e+08,0,6521,6600,14.67,5.08,41,96,0,0
3.8268e+05,1.503e+08,0,6598,6471,14.67,4.82,41,97,0,0
3.8313e+05,1.5041e+08,0,6469,6428,14.7,4.76,41,97,0,0
3.8361e+05,1.5053e+08,0,6414,6271,14.68,4.61,41,97,0,0
3.8442e+05,1.5073e+08,0,6272,6471,14.73,4.85,41,97,0,0
3.849e+05,1.5085e+08,0,6468,6414,14.74,4.67,41,97,0,0
3.8535e+05,1.5095e+08,0,6417,6471,14.72,5.44,41,97,0,0
3.858e+05,1.5107e+08,0,6485,6642,14.77,4.97,41,98,0,0
3.862e+05,1.5117e+08,0,6633,6471,14.65,4.61,41,98,0,0
3.8665e+05,1.5128e+08,0,6478,6585,14.57,5.6,41,98,0,0
3.871e+05,1.5139e+08,0,6611,6800,14.57,5.94,41,98,0,0
3.875e+05,1.5149e+08,0,6794,6671,14.69,5.33,41,98,0,0
3.8798e+05,1.5161e+08,0,6664,6600,14.73,5.5,41,98,0,0
3.8843e+05,1.5171e+08,0,6591,6471,14.77,4.56,41,98,0,0
3.8888e+05,1.5182e+08,0,6496,6757,14.74,5.02,41,99,0,0
3.8928e+05,1.5192e+08,0,6745,6514,14.76,5.07,41,99,0,0
3.8977e+05,1.5204e+08,0,6520,6585,14.77,4.28,41,99,0,0
3.9017e+05,1.5214e+08,0,6582,6528,14.72,4.87,41,99,0,0
3.9065e+05,1.5225e+08,0,6511,6285,14.77,5.17,41,99,0,0
3.9106e+05,1.5235e+08,0,6279,5871,14.61,5.28,41,99,0,0
3.9151e+05,1.5246e+08,0,5907,6414,14.77,5.94,41,100,0,0
3.9196e+05,1.5257e+08,0,6392,6100,14.89,5.97,41,100,0,0
3.924e+05,1.5268e+08,0,6088,5957,14.85,5.84,41,100,0,0
3.9285e+05,1.5279e+08,0,5962,6028,14.89,5.71,41,100,0,0
3.9325e+05,1.529e+08,0,6030,6057,14.24,6.43,41,100,0,0
3.937e+05,1.53e+08,0,6049,5942,14.55,6.88,41,100,0,0
3.9414e+05,1.5311e+08,0,5964,6400,14.67,5.24,41,101,0,0
3.9462e+05,1.5323e+08,0,6394,6300,14.69,4.6,41,101,0,0
3.9507e+05,1.5334e+08,0,6310,6400,14.57,5.56,41,101,0,0
3.9552e+05,1.5346e+08,0,6395,6342,14.79,4.67,41,101,0,0
3.9593e+05,1.5355e+08,0,6340,6271,14.81,4.27,41,101,0,0
3.9637e+05,1.5367e+08,0,6273,6457,14.66,4.9,41,101,0,0
3.9682e+05,1.5378e+08,0,6451,6342,14.46,5.42,41,102,0,0
3.9726e+05,1.5388e+08,0,6339,6228,14.75,5.43,41,102,0,0
3.9771e+05,1.54e+08,0,6257,6485,14.54,6.82,41,102,0,0
3.9819e+05,1.5411e+08,0,6469,6257,14.81,5.22,41,102,0,0
3.9863e+05,1.5422e+08,0,6273,6400,14.92,4.34,41,102,0,0
3.9908e+05,1.5432e+08,0,6389,6271,14.61,5.31,41,102,0,0
3.9949e+05,1.5443e+08,0,6244,5928,14.41,6.06,41,103,0,0
3.9998e+05,1.5455e+08,0,5924,5885,14.85,6.24,41,103,0,0
4.0034e+05,1.5464e+08,0,5899,6442,14.46,6.95,41,103,0,0
4.0079e+05,1.5475e+08,0,6441,6400,14.63,5.97,41,103,0,0
4.0164e+05,1.5496e+08,0,6403,6585,14.67,5.23,41,103,0,0
4.0212e+05,1.5508e+08,0,6564,6371,14.75,4.4,41,104,0,0
4.0253e+05,1.5518e+08,0,6374,6528,14.83,4.5,41,104,0,0
4.0296e+05,1.5529e+08,0,6509,6200,14.82,3.98,41,104,0,0
4.0386e+05,1.5552e+08,0,6192,5842,14.88,3.88,41,104,0,0
4.043e+05,1.5562e+08,0,5839,5800,14.79,3.54,41,104,0,0
4.048e+05,1.5574e+08,0,5801,5814,14.77,3.99,41,104,0,0
4.052e+05,1.5584e+08,0,5826,6142,14.75,4.53,41,104,0,0
4.0565e+05,1.5595e+08,0,6125,5971,14.75,4.42,41,105,0,0
4.0649e+05,1.5616e+08,0,5977,6314,14.66,5.03,41,105,0,0
4.0694e+05,1.5627e+08,0,6316,6500,14.69,5.16,41,105,0,0
4.0739e+05,1.5638e+08,0,6494,6242,14.73,3.72,41,105,0,0
4.0779e+05,1.5649e+08,0,6234,5814,14.7,3.62,41,105,0,0
4.0827e+05,1.566e+08,0,5833,6128,14.73,4.2,41,105,0,0
4.0872e+05,1.5672e+08,0,6119,6042,14.72,3.75,41,105,0,0
4.0917e+05,1.5682e+08,0,6035,5971,14.76,3.92,41,106,0,0
4.0957e+05,1.5692e+08,0,5971,5971,14.76,3.87,41,106,0,0
4.1002e+05,1.5703e+08,0,5963,5857,14.82,3.5,41,106,0,0
4.1047e+05,1.5714e+08,0,5855,5714,14.82,3.24,41,106,0,0
4.1095e+05,1.5726e+08,0,5714,5714,14.77,3.61,41,106,0,0
4.114e+05,1.5737e+08,0,5734,5942,14.84,4.23,41,106,0,0
4.1222e+05,1.5758e+08,0,5942,6000,14.8,4.18,41,106,0,0
4.1266e+05,1.5769e+08,0,6004,6071,14.83,4.11,41,107,0,0
4.1307e+05,1.578e+08,0,6072,6100,14.77,4.18,41,107,0,0
4.1352e+05,1.5791e+08,0,6100,6157,14.73,4.65,41,107,0,0
4.1396e+05,1.5802e+08,0,6163,6228,14.75,4.16,41,107,0,0
4.1442e+05,1.5813e+08,0,6209,6000,14.74,3.69,41,107,0,0
4.1482e+05,1.5823e+08,0,5993,5857,14.7,4.03,41,107,0,0
4.1527e+05,1.5834e+08,0,5863,5957,14.75,3.87,41,107,0,0
4.1572e+05,1.5846e+08,0,5980,6228,14.68,4.35,41,107,0,0
4.1617e+05,1.5856e+08,0,6234,6300,14.7,4.66,41,108,0,0
4.1661e+05,1.5867e+08,0,6290,6157,14.74,4.65,41,108,0,0
4.1706e+05,1.5878e+08,0,6147,6057,14.75,4.34,41,108,0,0
4.1755e+05,1.589e+08,0,6068,6185,14.69,4.5,41,108,0,0
4.1798e+05,1.59e+08,0,6188,6228,14.69,4.3,41,108,0,0
4.1839e+05,1.591e+08,0,6226,6214,14.73,4.51,41,108,0,0
4.1928e+05,1.5932e+08,0,6215,6300,14.66,4.65,41,109,0,0
4.1973e+05,1.5943e+08,0,6302,6342,14.7,4.73,41,109,0,0
4.2017e+05,1.5954e+08,0,6338,6257,14.7,4.71,41,109,0,0
4.2062e+05,1.5966e+08,0,6263,6357,14.69,4.45,41,109,0,0
4.2107e+05,1.5976e+08,0,6345,6185,14.82,4.2,41,109,0,0
4.2152e+05,1.5988e+08,0,6195,6314,14.83,4.61,41,109,0,0
4.2201e+05,1.5999e+08,0,6311,6285,14.86,4.19,41,109,0,0
4.224e+05,1.6009e+08,0,6278,6157,14.75,4.41,41,109,0,0
4.2286e+05,1.6021e+08,0,6173,6371,14.65,4.9,41,110,0,0
4.2331e+05,1.6031e+08,0,6362,6285,14.77,4.48,41,110,0,0
4.2375e+05,1.6042e+08,0,6284,6271,14.85,4.48,41,110,0,0
4.242e+05,1.6053e+08,0,6266,6228,14.73,4.3,41,110,0,0
4.246e+05,1.6064e+08,0,6231,6271,14.76,4.34,41,110,0,0
4.2505e+05,1.6074e+08,0,6277,6371,14.77,4.73,41,110,0,0
4.2546e+05,1.6085e+08,0,6371,6385,14.72,4.74,41,110,0,0
4.2591e+05,1.6096e+08,0,6386,6400,14.74,4.75,41,111,0,0
4.2635e+05,1.6107e+08,0,6396,6357,14.76,5.23,41,111,0,0
4.2684e+05,1.6118e+08,0,6362,6428,14.69,4.9,41,111,0,0
4.2728e+05,1.613e+08,0,6444,6571,14.71,5.27,41,111,0,0
4.2769e+05,1.614e+08,0,6574,6614,14.78,4.81,41,111,0,0
4.2813e+05,1.6151e+08,0,6602,6400,14.77,5.35,41,111,0,0
4.2903e+05,1.6173e+08,0,6392,6214,14.76,4.54,41,112,0,0
4.2944e+05,1.6183e+08,0,6206,6128,14.8,4.21,41,112,0,0
4.2988e+05,1.6194e+08,0,6129,6142,14.82,3.8,41,112,0,0
4.3033e+05,1.6205e+08,0,6135,6071,14.8,3.9,41,112,0,0
4.3078e+05,1.6216e+08,0,6074,6128,14.8,4.61,41,112,0,0
4.3122e+05,1.6227e+08,0,6130,6157,14.72,4.24,41,112,0,0
4.3162e+05,1.6237e+08,0,6155,6057,14.77,4.06,41,112,0,0
4.3207e+05,1.6248e+08,0,6072,6357,14.79,4.61,41,112,0,0
4.3255e+05,1.6259e+08,0,6347,6185,14.82,4.23,41,113,0,0
4.33e+05,1.627e+08,0,6197,6371,14.84,4.56,41,113,0,0
4.3345e+05,1.6282e+08,0,6361,6300,14.78,4.39,41,113,0,0
4.3385e+05,1.6291e+08,0,6300,6300,14.71,4.77,41,113,0,0
4.343e+05,1.6303e+08,0,6300,6300,14.73,4.6,41,113,0,0
4.347e+05,1.6313e+08,0,6302,6485,14.75,4.87,41,113,0,0
4.3515e+05,1.6324e+08,0,6477,6400,14.8,5.22,41,114,0,0
4.356e+05,1.6335e+08,0,6393,6314,14.84,4.82,41,114,0,0
4.3603e+05,1.6345e+08,0,6297,5971,14.25,6.2,41,114,0,0
4.3648e+05,1.6356e+08,0,5982,6142,14.77,5.36,41,114,0,0
4.3693e+05,1.6368e+08,0,6128,5942,14.3,6.35,41,114,0,0
4.3738e+05,1.6379e+08,0,5944,5985,14.76,7.2,40,114,0,0
4.3782e+05,1.639e+08,0,5984,5971,14.73,6.12,41,114,0,0
4.3876e+05,1.6412e+08,0,5979,6171,14.8,4.06,41,115,0,0
4.3916e+05,1.6422e+08,0,6156,6014,14.82,3.51,41,115,0,0
4.3961e+05,1.6433e+08,0,6014,6014,14.77,4.08,41,115,0,0
4.4046e+05,1.6455e+08,0,6020,6214,14.79,4.23,41,115,0,0
4.4091e+05,1.6466e+08,0,6187,5928,14.8,3.83,41,116,0,0
4.4136e+05,1.6477e+08,0,5934,6000,14.74,4.38,41,116,0,0
4.4181e+05,1.6488e+08,0,6001,6014,14.82,3.67,41,116,0,0
4.4225e+05,1.6499e+08,0,6008,5928,14.79,4.02,41,116,0,0
4.4266e+05,1.6509e+08,0,5925,5900,14.79,4.25,41,116,0,0
4.4316e+05,1.6521e+08,0,5898,5885,14.81,3.97,41,116,0,0
4.4356e+05,1.6531e+08,0,5887,5914,14.77,3.97,41,116,0,0
4.4445e+05,1.6553e+08,0,5912,5842,14.81,3.92,41,116,0,0
4.449e+05,1.6564e+08,0,5841,5828,14.82,3.74,41,117,0,0
4.4616e+05,1.6596e+08,0,5830,6114,14.79,3.93,41,117,0,0
4.4665e+05,1.6608e+08,0,6112,6100,14.73,4.49,41,117,0,0
4.4706e+05,1.6618e+08,0,6104,6357,14.75,5,41,117,0,0
4.475e+05,1.6629e+08,0,6356,6342,14.72,4.8,41,117,0,0
4.4799e+05,1.6641e+08,0,6333,6242,14.82,3.95,41,118,0,0
4.484e+05,1.6651e+08,0,6255,6385,14.76,4.57,41,118,0,0
4.4884e+05,1.6662e+08,0,6380,6185,14.79,3.89,41,118,0,0
4.4933e+05,1.6674e+08,0,6188,6242,14.78,4.61,41,118,0,0
4.4974e+05,1.6684e+08,0,6239,6185,14.72,4.84,41,118,0,0
4.5018e+05,1.6695e+08,0,6186,6242,14.61,4.98,41,118,0,0
4.5063e+05,1.6705e+08,0,6230,6000,14.71,4.79,41,118,0,0
4.5108e+05,1.6716e+08,0,5991,5871,14.8,3.98,41,118,0,0
4.5153e+05,1.6727e+08,0,5878,5985,14.78,4.27,41,119,0,0
4.5201e+05,1.6739e+08,0,6018,6328,14.72,4.65,41,119,0,0
4.5242e+05,1.6749e+08,0,6328,6328,14.82,4.77,41,119,0,0
4.5286e+05,1.676e+08,0,6326,6257,14.71,4.9,41,119,0,0
4.5332e+05,1.6771e+08,0,6267,6385,14.82,4.96,41,119,0,0
4.5372e+05,1.6782e+08,0,6389,6585,14.74,5.35,41,119,0,0
4.5421e+05,1.6793e+08,0,6550,6185,14.54,6.32,41,119,0,0
4.5461e+05,1.6803e+08,0,6186,6257,14.57,6.81,41,120,0,0
4.5551e+05,1.6825e+08,0,6265,6500,14.58,5.38,41,120,0,0
4.5596e+05,1.6837e+08,0,6479,6328,14.54,6.76,41,120,0,0
4.5637e+05,1.6847e+08,0,6325,6285,14.59,5.11,41,120,0,0
4.5682e+05,1.6858e+08,0,6296,6400,14.76,5.42,41,120,0,0
4.5727e+05,1.6869e+08,0,6407,6471,14.81,4.84,41,121,0,0
4.5767e+05,1.688e+08,0,6469,6442,14.77,5.06,41,121,0,0
4.5812e+05,1.689e+08,0,6405,5971,14.21,6.57,41,121,0,0
4.5856e+05,1.6902e+08,0,5991,6257,14.67,6.12,41,121,0,0
4.5906e+05,1.6914e+08,0,6254,6214,14.8,4.63,41,121,0,0
4.595e+05,1.6925e+08,0,6215,6228,14.8,4.1,41,121,0,0
4.6038e+05,1.6946e+08,0,6228,6228,14.75,4.44,41,122,0,0
4.6079e+05,1.6956e+08,0,6227,6214,14.76,4.48,41,122,0,0
4.612e+05,1.6967e+08,0,6213,6142,14.81,4.3,41,122,0,0
4.6165e+05,1.6978e+08,0,6138,6042,14.82,3.84,41,122,0,0
4.6209e+05,1.6988e+08,0,6040,5985,14.76,4.09,41,122,0,0
4.6254e+05,1.7e+08,0,5985,6042,14.75,4.07,41,122,0,0
4.6298e+05,1.701e+08,0,6039,5985,14.77,4.29,41,123,0,0
4.6342e+05,1.7021e+08,0,5986,6042,14.75,4.15,41,123,0,0
4.6387e+05,1.7032e+08,0,6044,6185,14.75,4.34,41,123,0,0
4.6477e+05,1.7054e+08,0,6184,6100,14.79,4.19,41,123,0,0
4.6521e+05,1.7065e+08,0,6099,6071,14.81,4.31,41,123,0,0
4.657e+05,1.7077e+08,0,6073,6100,14.82,4.12,41,123,0,0
4.661e+05,1.7087e+08,0,6100,6128,14.82,4.14,41,123,0,0
4.666e+05,1.7099e+08,0,6128,6128,14.8,4.55,41,123,0,0
4.67e+05,1.7109e+08,0,6126,6100,14.72,4.65,41,124,0,0
4.6748e+05,1.7121e+08,0,6104,6157,14.75,4.52,41,124,0,0
4.6789e+05,1.7131e+08,0,6161,6400,14.69,4.96,41,124,0,0
4.6837e+05,1.7142e+08,0,6394,6342,14.61,5.12,41,124,0,0
4.6882e+05,1.7153e+08,0,6336,6257,14.73,4.69,41,124,0,0
4.6926e+05,1.7164e+08,0,6266,6385,14.72,4.61,41,124,0,0
4.6971e+05,1.7175e+08,0,6394,6528,14.76,4.57,41,125,0,0
4.7016e+05,1.7186e+08,0,6510,6328,14.74,4.53,41,125,0,0
4.71e+05,1.7206e+08,0,6324,6028,14.73,4.24,41,125,0,0
4.7146e+05,1.7218e+08,0,6053,6285,14.77,4.53,41,125,0,0
4.719e+05,1.7229e+08,0,6279,6228,14.72,4.39,41,125,0,0
4.723e+05,1.7239e+08,0,6228,6257,14.77,4.54,41,125,0,0
4.7275e+05,1.725e+08,0,6256,6242,14.75,4.43,41,126,0,0
4.7324e+05,1.7262e+08,0,6245,6285,14.79,4.39,41,126,0,0
4.7369e+05,1.7273e+08,0,6277,6200,14.73,4.92,41,126,0,0
4.7413e+05,1.7284e+08,0,6205,6257,14.73,4.72,41,126,0,0
4.7458e+05,1.7295e+08,0,6250,6157,14.82,4.32,41,126,0,0
4.7498e+05,1.7305e+08,0,6161,6271,14.72,4.67,41,126,0,0
4.7548e+05,1.7317e+08,0,6269,6257,14.73,4.6,41,126,0,0
4.7588e+05,1.7327e+08,0,6255,6142,14.77,4.6,41,126,0,0
4.7632e+05,1.7338e+08,0,6140,6128,14.79,4.38,41,127,0,0
4.7673e+05,1.7348e+08,0,6126,6085,14.75,4.43,41,127,0,0
4.7718e+05,1.7359e+08,0,6085,6100,14.77,4.22,41,127,0,0
4.7762e+05,1.737e+08,0,6106,6171,14.66,4.87,41,127,0,0
4.7807e+05,1.7381e+08,0,6174,6228,14.73,4.08,41,127,0,0
4.7896e+05,1.7403e+08,0,6217,6000,14.75,3.99,41,127,0,0
4.7937e+05,1.7413e+08,0,5995,5914,14.74,3.81,41,127,0,0
4.7982e+05,1.7425e+08,0,5915,5928,14.8,3.98,41,128,0,0
4.8027e+05,1.7435e+08,0,5925,5857,14.79,3.61,41,128,0,0
4.807e+05,1.7446e+08,0,5850,5714,14.72,3.78,41,128,0,0
4.8119e+05,1.7458e+08,0,5741,6142,14.69,4.39,41,128,0,0
4.8164e+05,1.7469e+08,0,6144,6171,14.69,4.17,41,128,0,0
4.8208e+05,1.7479e+08,0,6168,6128,14.76,4.25,41,128,0,0
4.8253e+05,1.749e+08,0,6125,6100,14.67,4.29,41,128,0,0
4.8294e+05,1.7501e+08,0,6099,6071,14.76,4.52,41,128,0,0
4.8343e+05,1.7512e+08,0,6080,6185,14.65,4.23,41,129,0,0
4.8387e+05,1.7523e+08,0,6190,6285,14.71,4.34,41,129,0,0
4.8432e+05,1.7534e+08,0,6282,6128,14.76,4.35,41,129,0,0
4.8479e+05,1.7546e+08,0,6133,6185,14.76,4.26,41,129,0,0
4.8524e+05,1.7557e+08,0,6163,5957,14.8,3.8,41,129,0,0
4.8565e+05,1.7567e+08,0,5964,6042,14.72,4.55,41,129,0,0
4.8614e+05,1.7579e+08,0,6045,6085,14.79,3.76,41,129,0,0
4.8655e+05,1.759e+08,0,6069,5928,14.76,3.94,41,129,0,0
4.87e+05,1.76e+08,0,5929,6028,14.72,3.96,41,130,0,0
4.8744e+05,1.7611e+08,0,6012,5814,14.77,3.72,41,130,0,0
4.8788e+05,1.7622e+08,0,5819,5885,14.81,3.83,41,130,0,0
4.8829e+05,1.7633e+08,0,5887,5914,14.72,4.01,41,130,0,0
4.8874e+05,1.7644e+08,0,5894,5685,14.83,3.73,41,130,0,0
4.8918e+05,1.7654e+08,0,5702,5885,14.76,3.85,41,130,0,0
4.8958e+05,1.7664e+08,0,5884,5857,14.75,4.04,41,130,0,0
4.9007e+05,1.7676e+08,0,5867,6014,14.73,3.87,41,130,0,0
4.9052e+05,1.7687e+08,0,5998,5785,14.73,3.84,41,130,0,0
4.9097e+05,1.7698e+08,0,5785,5785,14.71,3.62,41,131,0,0
4.9142e+05,1.7709e+08,0,5792,5857,14.75,4.23,41,131,0,0
4.9182e+05,1.7719e+08,0,5860,6057,14.76,3.83,41,131,0,0
4.9227e+05,1.773e+08,0,6062,6128,14.75,4.27,41,131,0,0
4.9316e+05,1.7753e+08,0,6126,6085,14.77,3.96,41,131,0,0
4.936e+05,1.7763e+08,0,6085,6085,14.76,4,41,131,0,0
4.9404e+05,1.7774e+08,0,6081,6000,14.72,4.46,41,131,0,0
4.9494e+05,1.7796e+08,0,6003,6114,14.73,4.26,41,132,0,0
4.954e+05,1.7807e+08,0,6112,6100,14.75,4.65,41,132,0,0
4.958e+05,1.7817e+08,0,6098,6014,14.77,4.12,41,132,0,0
4.9625e+05,1.7828e+08,0,6011,5971,14.73,4.28,41,132,0,0
4.9665e+05,1.7839e+08,0,5978,6157,14.75,4.9,41,132,0,0
4.971e+05,1.785e+08,0,6159,6271,14.76,4.76,41,132,0,0
4.9759e+05,1.7862e+08,0,6263,6171,14.73,4.34,41,133,0,0
4.9799e+05,1.7872e+08,0,6170,6142,14.79,4.22,41,133,0,0
4.9845e+05,1.7883e+08,0,6141,6128,14.75,4.3,41,133,0,0
4.989e+05,1.7894e+08,0,6139,6314,14.71,5.32,41,133,0,0
4.9935e+05,1.7905e+08,0,6303,6157,14.44,5.67,41,133,0,0
4.998e+05,1.7916e+08,0,6145,6028,14.47,7.04,41,133,0,0
5.0024e+05,1.7927e+08,0,6026,6000,14.61,6.47,41,133,0,0
5.0069e+05,1.7938e+08,0,6038,6471,14.74,4.9,41,134,0,0
5.011e+05,1.7949e+08,0,6468,6414,14.79,4.09,41,134,0,0
5.0154e+05,1.796e+08,0,6387,6128,14.76,4.16,41,134,0,0
5.0199e+05,1.7971e+08,0,6121,6057,14.81,4.04,41,134,0,0
5.0244e+05,1.7982e+08,0,6057,6057,14.73,4.02,41,134,0,0
5.0289e+05,1.7993e+08,0,6058,6085,14.81,3.86,41,134,0,0
5.0329e+05,1.8003e+08,0,6074,5971,14.8,4,41,134,0,0
5.0374e+05,1.8014e+08,0,5964,5900,14.8,3.87,41,135,0,0
5.0418e+05,1.8025e+08,0,5905,5957,14.8,3.95,41,135,0,0
5.0463e+05,1.8036e+08,0,5968,6114,14.7,4.24,41,135,0,0
5.0503e+05,1.8046e+08,0,6112,6014,14.78,4.16,41,135,0,0
5.0548e+05,1.8057e+08,0,6016,6171,14.83,4.21,41,135,0,0
5.0597e+05,1.8069e+08,0,6157,6014,14.85,3.98,41,135,0,0
5.0641e+05,1.8081e+08,0,6012,6000,14.83,3.44,41,135,0,0
5.0686e+05,1.8091e+08,0,5994,5942,14.79,3.89,41,135,0,0
5.073e+05,1.8102e+08,0,5940,5900,14.75,3.7,41,136,0,0
5.0775e+05,1.8113e+08,0,5900,5900,14.77,3.79,41,136,0,0
5.0819e+05,1.8123e+08,0,5899,5885,14.78,3.58,41,136,0,0
5.0865e+05,1.8134e+08,0,5882,5828,14.83,3.6,41,136,0,0
5.0909e+05,1.8145e+08,0,5824,5771,14.74,3.34,41,136,0,0
5.0954e+05,1.8156e+08,0,5765,5700,14.77,3.57,41,136,0,0
5.0995e+05,1.8167e+08,0,5693,5571,14.79,3.11,41,136,0,0
5.1039e+05,1.8177e+08,0,5580,5771,14.81,3.41,41,136,0,0
5.1084e+05,1.8188e+08,0,5766,5685,14.8,3.36,41,136,0,0
5.1129e+05,1.8199e+08,0,5693,5771,14.83,3.52,41,136,0,0
5.1173e+05,1.821e+08,0,5762,5685,14.75,2.85,41,137,0,0
5.1258e+05,1.8231e+08,0,5679,5400,14.9,2.63,41,137,0,0
5.1302e+05,1.8242e+08,0,5392,5300,14.78,3.44,41,137,0,0
5.1348e+05,1.8253e+08,0,5314,5442,14.95,2.68,41,137,0,0
5.1388e+05,1.8264e+08,0,5407,5100,14.92,2.59,41,137,0,0
5.1433e+05,1.8274e+08,0,5094,4985,15.01,2.15,41,137,0,0
5.1477e+05,1.8285e+08,0,4923,4385,15.07,2.57,41,137,0,0
5.1611e+05,1.8319e+08,0,4336,2742,15.22,0.32,41,137,0,0
5.1651e+05,1.8329e+08,0,2740,2685,15.2,0.47,41,137,0,0
5.1696e+05,1.834e+08,0,2686,2742,15.19,0.45,41,137,0,0
5.1737e+05,1.835e+08,0,2741,2685,15.22,0.45,41,137,0,0
5.1786e+05,1.8362e+08,0,2683,2671,15.22,0.44,41,137,0,0
5.1835e+05,1.8373e+08,0,2668,2628,15.22,0.53,41,137,0,0
5.1875e+05,1.8384e+08,0,2634,2757,15.19,0.48,41,137,0,0
5.192e+05,1.8395e+08,0,2754,2700,15.23,0.34,41,137,0,0
5.1965e+05,1.8406e+08,0,2700,2700,15.24,0.42,41,137,0,0
5.201e+05,1.8416e+08,0,2700,2714,15.23,0.43,41,137,0,0
5.2054e+05,1.8427e+08,0,2709,2614,15.23,0.34,40,137,0,0
5.2144e+05,1.8449e+08,0,2604,2385,15.23,0.41,40,137,0,0
5.2188e+05,1.846e+08,0,2373,2271,15.25,0.47,41,137,0,0
5.2233e+05,1.8471e+08,0,2278,2357,15.33,0.28,40,137,0,0
5.2278e+05,1.8482e+08,0,2292,1757,15.29,0,40,137,0,0
5.2323e+05,1.8492e+08,0,1724,1385,15.29,0.01,40,137,0,0
5.2367e+05,1.8503e+08,0,1376,1285,15.29,0.07,40,137,0,0
5.2412e+05,1.8514e+08,0,1282,1257,15.29,0.09,40,137,0,0
5.2452e+05,1.8524e+08,0,1257,1257,15.29,0.09,40,137,0,0
5.2502e+05,1.8535e+08,0,1255,1242,15.29,0.09,40,137,0,0
5.2546e+05,1.8546e+08,0,1242,1242,15.29,0.09,40,137,0,0
5.2596e+05,1.8557e+08,0,1242,1242,15.29,0.09,40,137,0,0
5.2636e+05,1.8568e+08,0,1242,1242,15.3,0.09,40,137,0,0
5.2681e+05,1.8578e+08,0,1242,1242,15.29,0.09,40,137,0,0
5.2725e+05,1.8589e+08,0,1242,1242,15.3,0.09,40,137,0,0
5.277e+05,1.86e+08,0,1242,1242,15.3,0.09,40,137,0,0
5.2818e+05,1.8611e+08,0,1242,1257,15.3,0.09,40,137,0,0
5.2863e+05,1.8622e+08,0,1256,1242,15.3,0.09,40,137,0,0
5.2956e+05,1.8644e+08,0,1242,1242,15.31,0.09,40,137,0,0
5.2997e+05,1.8654e+08,0,1242,1257,15.31,0.09,40,137,0,0
5.3042e+05,1.8665e+08,0,1257,1257,15.31,0.09,40,137,0,0
5.3086e+05,1.8676e+08,0,1257,1257,15.31,0.09,40,137,0,0
5.3176e+05,1.8697e+08,0,1256,1242,15.32,0.1,40,137,0,0
5.322e+05,1.8708e+08,0,1243,1257,15.31,0.09,40,137,0,0
5.3265e+05,1.872e+08,0,1255,1242,15.32,0.09,40,137,0,0
5.331e+05,1.873e+08,0,1243,1257,15.32,0.09,40,137,0,0
5.3351e+05,1.874e+08,0,1257,1257,15.32,0.09,40,137,0,0
5.3395e+05,1.8751e+08,0,1256,1242,15.32,0.09,40,137,0,0
5.3444e+05,1.8762e+08,0,1242,1257,15.32,0.09,40,137,0,0
5.3489e+05,1.8773e+08,0,1256,1242,15.32,0.09,40,137,0,0
5.3533e+05,1.8784e+08,0,1242,1242,15.33,0.09,40,137,0,0
5.3578e+05,1.8795e+08,0,1243,1257,15.33,0.09,40,137,0,0
5.3621e+05,1.8805e+08,0,1257,1257,15.33,0.09,39,137,0,0
5.3671e+05,1.8817e+08,0,1257,1257,15.33,0.09,40,137,0,0
5.3711e+05,1.8827e+08,0,1257,1257,15.33,0.09,40,137,0,0
5.3756e+05,1.8837e+08,0,1257,1257,15.33,0.09,40,137,0,0
5.3797e+05,1.8848e+08,0,1257,1257,15.33,0.09,39,137,0,0
5.3846e+05,1.8859e+08,0,1257,1257,15.33,0.09,39,137,0,0
5.3887e+05,1.8869e+08,0,1257,1257,15.34,0.09,39,137,0,0
5.3976e+05,1.889e+08,0,1257,1257,15.35,0.09,39,138,0,0
5.402e+05,1.8901e+08,0,1257,1257,15.35,0.09,39,138,0,0
5.4069e+05,1.8913e+08,0,1255,1242,15.34,0.09,39,138,0,0
5.411e+05,1.8923e+08,0,1242,1257,15.35,0.09,39,138,0,0
5.4159e+05,1.8934e+08,0,1255,1242,15.34,0.09,39,138,0,0
5.4203e+05,1.8945e+08,0,1242,1257,15.35,0.09,39,138,0,0
5.4248e+05,1.8956e+08,0,1257,1257,15.35,0.09,39,138,0,0
5.4293e+05,1.8967e+08,0,1257,1257,15.35,0.09,39,138,0,0
5.4338e+05,1.8977e+08,0,1255,1242,15.35,0.09,39,138,0,0
5.4383e+05,1.8989e+08,0,1243,1257,15.36,0.09,39,138,0,0
