LineNo,TimeUS,C,Roll,Pitch,Yaw,VN,VE,VD,dPD,PN,PE,PD,GX,GY,GZ,OH
1003,5.6703e+07,1,0.23,3.7,5.52,-0.35691,-0.027664,-0.08533,-0.019049,-1.1243,-0.30633,0.65462,0.02,0.19,0.06,93.58
1485,5.6895e+07,1,0.22,3.75,5.53,-0.37596,-0.030823,-0.54702,-0.43642,-1.1355,-0.30633,0.60438,0.02,0.18,0.05,93.58
1527,5.6905e+07,1,0.22,3.75,5.53,-0.37489,-0.031796,-0.54585,-0.43529,-1.1355,-0.30633,0.60034,0.02,0.18,0.06,93.58
1567,5.6915e+07,1,0.23,3.75,5.52,-0.37394,-0.030801,-0.54642,-0.43863,-1.1355,-0.30633,0.59619,0.02,0.18,0.06,93.58
1612,5.6925e+07,1,0.23,3.76,5.52,-0.37629,-0.030236,-0.54612,-0.4386,-1.1355,-0.30633,0.5907,0.02,0.18,0.06,93.58
1653,5.6936e+07,1,0.23,3.76,5.52,-0.37741,-0.030984,-0.54691,-0.44068,-1.1355,-0.30633,0.58582,0.02,0.18,0.06,93.58
1693,5.6946e+07,1,0.23,3.76,5.51,-0.37673,-0.031831,-0.54782,-0.44413,-1.1355,-0.30633,0.58148,0.02,0.18,0.06,93.58
1735,5.6956e+07,1,0.23,3.76,5.51,-0.37588,-0.030859,-0.5488,-0.44802,-1.1355,-0.30633,0.57698,0.02,0.18,0.06,93.58
1781,5.697e+07,1,0.23,3.76,5.5,-0.37475,-0.032024,-0.54762,-0.44662,-1.1355,-0.30633,0.57121,0.02,0.18,0.06,93.58
1821,5.698e+07,1,0.23,3.76,5.5,-0.37356,-0.03155,-0.54631,-0.44237,-1.1355,-0.31439,0.56761,0.02,0.18,0.06,93.58
1863,5.6991e+07,1,0.23,3.76,5.49,-0.37506,-0.03204,-0.54675,-0.43936,-1.1355,-0.31439,0.56213,0.02,0.18,0.06,93.58
1903,5.7001e+07,1,0.23,3.75,5.49,-0.37445,-0.032781,-0.54624,-0.43572,-1.1355,-0.31439,0.55843,0.02,0.18,0.06,93.58
1944,5.7011e+07,1,0.24,3.75,5.49,-0.37388,-0.033354,-0.54808,-0.43408,-1.1355,-0.31439,0.55458,0.02,0.18,0.06,93.58
1984,5.7021e+07,1,0.23,3.75,5.48,-0.37402,-0.033458,-0.54814,-0.43311,-1.1355,-0.31439,0.55011,0.02,0.18,0.06,93.58
2029,5.7032e+07,1,0.23,3.75,5.47,-0.37603,-0.033596,-0.54777,-0.43,-1.1355,-0.31439,0.54463,0.02,0.18,0.06,93.58
2070,5.7042e+07,1,0.23,3.75,5.46,-0.37583,-0.033776,-0.54878,-0.4293,-1.1355,-0.31439,0.54006,0.02,0.18,0.06,93.58
2113,5.7052e+07,1,0.22,3.75,5.45,-0.37545,-0.033818,-0.5492,-0.42898,-1.1355,-0.31439,0.53601,0.02,0.18,0.06,93.58
2158,5.7065e+07,1,0.22,3.75,5.45,-0.37788,-0.034741,-0.54992,-0.42898,-1.1355,-0.31439,0.53072,0.02,0.19,0.06,93.58
2198,5.7074e+07,1,0.22,3.75,5.44,-0.37729,-0.034345,-0.54979,-0.42937,-1.1355,-0.31439,0.52665,0.02,0.19,0.06,93.58
2239,5.7085e+07,1,0.22,3.75,5.44,-0.37788,-0.034567,-0.55042,-0.42927,-1.1355,-0.31439,0.52199,0.02,0.19,0.06,93.58
2279,5.7096e+07,1,0.22,3.75,5.44,-0.3801,-0.03515,-0.55096,-0.4298,-1.1355,-0.31439,0.5159,0.02,0.19,0.06,93.58
2321,5.7106e+07,1,0.22,3.75,5.44,-0.37989,-0.035244,-0.55028,-0.43044,-1.1355,-0.31439,0.51174,0.02,0.19,0.06,93.58
2362,5.7116e+07,1,0.22,3.74,5.43,-0.37945,-0.036086,-0.55078,-0.4324,-1.1355,-0.31439,0.50743,0.02,0.19,0.06,93.58
2402,5.7126e+07,1,0.22,3.74,5.43,-0.37862,-0.036163,-0.54962,-0.43355,-1.1355,-0.31439,0.50311,0.02,0.19,0.06,93.58
2447,5.7136e+07,1,0.22,3.74,5.43,-0.37847,-0.036172,-0.54997,-0.43642,-1.1355,-0.31439,0.49869,0.02,0.19,0.06,93.58
2487,5.7147e+07,1,0.22,3.74,5.43,-0.38016,-0.035193,-0.54875,-0.43681,-1.1355,-0.31439,0.4931,0.02,0.19,0.06,93.58
2529,5.7157e+07,1,0.22,3.74,5.42,-0.38031,-0.036435,-0.54828,-0.43895,-1.1355,-0.31439,0.48874,0.02,0.19,0.06,93.58
2570,5.7167e+07,1,0.22,3.74,5.42,-0.38044,-0.037288,-0.54769,-0.44139,-1.1355,-0.31439,0.48423,0.02,0.19,0.06,93.58
2606,5.7177e+07,1,0.22,3.73,5.42,-0.38005,-0.037202,-0.5469,-0.44393,-1.1355,-0.31439,0.47966,0.02,0.19,0.06,93.58
2648,5.7188e+07,1,0.22,3.73,5.41,-0.37856,-0.037277,-0.54435,-0.44229,-1.1466,-0.31439,0.47503,0.02,0.19,0.06,93.58
2688,5.7198e+07,1,0.22,3.73,5.41,-0.37725,-0.037612,-0.54327,-0.44239,-1.1466,-0.31439,0.47085,0.02,0.19,0.06,93.58
2730,5.7209e+07,1,0.22,3.74,5.41,-0.3769,-0.037297,-0.54223,-0.44123,-1.1466,-0.31439,0.46609,0.02,0.19,0.06,93.58
2770,5.722e+07,1,0.22,3.74,5.41,-0.3804,-0.036872,-0.54305,-0.4413,-1.1466,-0.31439,0.46014,0.02,0.19,0.06,93.58
2811,5.7231e+07,1,0.22,3.74,5.4,-0.38039,-0.036557,-0.54378,-0.44273,-1.1466,-0.31439,0.45582,0.02,0.19,0.06,93.58
2858,5.724e+07,1,0.22,3.74,5.4,-0.37986,-0.036611,-0.545,-0.4449,-1.1466,-0.31439,0.45143,0.02,0.19,0.06,93.58
2899,5.7251e+07,1,0.21,3.74,5.4,-0.37983,-0.036883,-0.54754,-0.44922,-1.1466,-0.31439,0.44649,0.02,0.19,0.06,93.58
2940,5.7261e+07,1,0.21,3.74,5.4,-0.37868,-0.037717,-0.54842,-0.45262,-1.1466,-0.31439,0.44199,0.02,0.19,0.06,93.58
2984,5.7275e+07,1,0.21,3.74,5.4,-0.37781,-0.037604,-0.5466,-0.45187,-1.1466,-0.31439,0.43629,0.02,0.19,0.06,93.58
3025,5.7285e+07,1,0.22,3.74,5.4,-0.37704,-0.037475,-0.54576,-0.45201,-1.1466,-0.31439,0.4317,0.02,0.19,0.06,93.58
3065,5.7295e+07,1,0.22,3.74,5.4,-0.37755,-0.038258,-0.54414,-0.44917,-1.1466,-0.31439,0.42624,0.02,0.19,0.06,93.58
3107,5.7306e+07,1,0.22,3.73,5.4,-0.37804,-0.038688,-0.54306,-0.4485,-1.1466,-0.31439,0.42212,0.02,0.19,0.06,93.58
3148,5.7316e+07,1,0.22,3.73,5.4,-0.37712,-0.039262,-0.54277,-0.45001,-1.1466,-0.31439,0.41795,0.02,0.19,0.06,93.58
3188,5.7326e+07,1,0.22,3.73,5.4,-0.3774,-0.038399,-0.54179,-0.44919,-1.1466,-0.31439,0.41314,0.02,0.19,0.06,93.58
3233,5.7336e+07,1,0.22,3.73,5.4,-0.379,-0.039086,-0.54227,-0.44877,-1.1466,-0.31439,0.40775,0.02,0.19,0.06,93.58
3274,5.7346e+07,1,0.22,3.73,5.4,-0.37846,-0.038791,-0.54277,-0.44932,-1.1466,-0.31439,0.40344,0.02,0.19,0.06,93.58
3316,5.7357e+07,1,0.22,3.73,5.4,-0.37779,-0.039516,-0.54265,-0.44871,-1.1466,-0.31439,0.39851,0.02,0.19,0.06,93.58
3357,5.7367e+07,1,0.22,3.73,5.41,-0.37706,-0.040292,-0.54293,-0.4496,-1.1466,-0.31439,0.39407,0.02,0.19,0.06,93.58
3398,5.7378e+07,1,0.22,3.73,5.41,-0.37707,-0.042336,-0.5426,-0.44919,-1.1466,-0.31439,0.39042,0.02,0.2,0.06,93.58
3438,5.7388e+07,1,0.22,3.73,5.4,-0.37716,-0.042735,-0.54047,-0.44255,-1.1577,-0.31439,0.38709,0.02,0.2,0.06,93.58
3479,5.7399e+07,1,0.22,3.73,5.4,-0.37638,-0.042947,-0.53933,-0.43554,-1.1577,-0.31439,0.38376,0.02,0.2,0.06,93.58
3520,5.7409e+07,1,0.21,3.73,5.4,-0.37793,-0.043184,-0.53823,-0.42509,-1.1577,-0.31439,0.3779,0.02,0.2,0.06,93.58
3562,5.7419e+07,1,0.22,3.73,5.4,-0.3765,-0.041803,-0.53613,-0.41786,-1.1577,-0.31439,0.37448,0.02,0.2,0.06,93.58
3602,5.7429e+07,1,0.22,3.73,5.4,-0.37574,-0.042276,-0.53418,-0.41065,-1.1577,-0.31439,0.371,0.02,0.2,0.06,93.58
3647,5.7439e+07,1,0.22,3.73,5.4,-0.37605,-0.042416,-0.53565,-0.40817,-1.1577,-0.31439,0.36739,0.02,0.2,0.06,93.58
3688,5.745e+07,1,0.21,3.73,5.41,-0.37796,-0.042863,-0.53563,-0.40247,-1.1577,-0.31439,0.3615,0.02,0.2,0.06,93.58
3729,5.7461e+07,1,0.21,3.73,5.41,-0.37887,-0.043062,-0.53547,-0.3991,-1.1577,-0.31439,0.35729,0.02,0.2,0.06,93.58
3770,5.7471e+07,1,0.21,3.73,5.41,-0.37975,-0.044957,-0.53375,-0.39449,-1.1577,-0.31439,0.35353,0.02,0.2,0.06,93.58
3810,5.7482e+07,1,0.2,3.74,5.41,-0.3808,-0.04487,-0.53468,-0.39131,-1.1577,-0.31439,0.35046,0.02,0.2,0.06,93.58
3851,5.7492e+07,1,0.21,3.73,5.41,-0.37989,-0.044881,-0.53286,-0.38324,-1.1577,-0.31439,0.34775,0.02,0.2,0.06,93.58
3892,5.7502e+07,1,0.21,3.73,5.41,-0.38146,-0.045272,-0.5333,-0.37719,-1.1577,-0.31439,0.34241,0.02,0.2,0.06,93.58
3933,5.7512e+07,1,0.21,3.73,5.41,-0.38069,-0.045459,-0.53385,-0.37085,-1.1577,-0.31439,0.33963,0.02,0.2,0.06,93.58
3973,5.7522e+07,1,0.21,3.73,5.41,-0.37971,-0.045745,-0.53315,-0.36416,-1.1577,-0.31439,0.33672,0.02,0.2,0.06,93.58
4014,5.7532e+07,1,0.21,3.73,5.41,-0.38002,-0.045649,-0.53313,-0.36178,-1.1577,-0.31439,0.33375,0.02,0.2,0.06,93.58
4063,5.7543e+07,1,0.21,3.73,5.41,-0.38098,-0.046624,-0.53095,-0.35465,-1.1577,-0.31439,0.33003,0.02,0.2,0.06,93.58
4104,5.7554e+07,1,0.21,3.73,5.42,-0.38269,-0.046672,-0.53319,-0.35141,-1.1577,-0.31439,0.32474,0.02,0.2,0.06,93.58
4145,5.7564e+07,1,0.21,3.73,5.42,-0.38325,-0.04668,-0.5318,-0.34672,-1.1577,-0.31439,0.32091,0.02,0.2,0.06,93.58
4187,5.7574e+07,1,0.21,3.73,5.42,-0.38361,-0.046301,-0.53182,-0.34326,-1.1577,-0.31439,0.31753,0.02,0.2,0.06,93.58
4229,5.7585e+07,1,0.21,3.73,5.42,-0.38474,-0.047223,-0.52929,-0.34373,-1.1577,-0.31439,0.31225,0.02,0.2,0.06,93.58
4269,5.7595e+07,1,0.22,3.73,5.42,-0.38483,-0.047851,-0.52825,-0.34892,-1.1577,-0.31439,0.30835,0.02,0.2,0.06,93.58
4310,5.7605e+07,1,0.22,3.74,5.42,-0.38361,-0.047043,-0.5281,-0.35247,-1.1577,-0.31439,0.30567,0.02,0.2,0.06,93.58
4350,5.7616e+07,1,0.21,3.73,5.42,-0.38374,-0.047627,-0.52792,-0.35434,-1.1577,-0.31439,0.30034,0.02,0.2,0.06,93.58
4391,5.7626e+07,1,0.22,3.73,5.41,-0.38363,-0.047016,-0.52655,-0.35414,-1.1577,-0.31439,0.29747,0.02,0.2,0.06,93.58
4433,5.7636e+07,1,0.22,3.73,5.42,-0.38335,-0.045996,-0.52719,-0.3527,-1.1577,-0.31439,0.29448,0.02,0.2,0.06,93.58
4477,5.7646e+07,1,0.22,3.73,5.42,-0.38518,-0.046808,-0.52733,-0.35586,-1.1577,-0.31439,0.28873,0.02,0.2,0.06,93.58
4518,5.7657e+07,1,0.22,3.73,5.42,-0.38492,-0.046883,-0.52645,-0.3576,-1.1577,-0.31439,0.28565,0.02,0.2,0.06,93.58
4558,5.7667e+07,1,0.22,3.73,5.42,-0.38415,-0.04656,-0.52597,-0.3585,-1.1577,-0.31439,0.28248,0.02,0.2,0.06,93.58
4599,5.7677e+07,1,0.22,3.73,5.42,-0.38414,-0.045855,-0.52663,-0.361,-1.1577,-0.31439,0.2792,0.02,0.2,0.06,93.58
4643,5.7689e+07,1,0.22,3.73,5.42,-0.38455,-0.046117,-0.52539,-0.36287,-1.1577,-0.31439,0.27427,0.02,0.2,0.06,93.58
4684,5.77e+07,1,0.22,3.73,5.42,-0.3862,-0.047024,-0.52603,-0.36436,-1.1577,-0.31439,0.269,0.02,0.2,0.06,93.58
4721,5.7711e+07,1,0.21,3.74,5.42,-0.38648,-0.046847,-0.5255,-0.36207,-1.1577,-0.31439,0.26664,0.02,0.2,0.06,93.58
4761,5.7722e+07,1,0.21,3.74,5.42,-0.38651,-0.046452,-0.52353,-0.35197,-1.1577,-0.31439,0.26404,0.02,0.2,0.06,93.58
4801,5.7732e+07,1,0.21,3.74,5.42,-0.38554,-0.046428,-0.52242,-0.34211,-1.1577,-0.31439,0.26141,0.02,0.2,0.06,93.58
4844,5.7742e+07,1,0.21,3.74,5.41,-0.38434,-0.046856,-0.52046,-0.33164,-1.1577,-0.31439,0.25904,0.02,0.2,0.06,93.58
4888,5.7752e+07,1,0.21,3.74,5.42,-0.38411,-0.047271,-0.51951,-0.32433,-1.1577,-0.31439,0.25664,0.02,0.2,0.06,93.58
4929,5.7762e+07,1,0.21,3.74,5.42,-0.38615,-0.047578,-0.52054,-0.31633,-1.1577,-0.31439,0.25144,0.02,0.2,0.06,93.58
4969,5.7773e+07,1,0.21,3.73,5.42,-0.38683,-0.047417,-0.52032,-0.30961,-1.1577,-0.31439,0.24831,0.02,0.2,0.06,93.58
5012,5.7784e+07,1,0.21,3.73,5.42,-0.38574,-0.046565,-0.52005,-0.30373,-1.18,-0.31439,0.24558,0.02,0.2,0.06,93.58
5050,5.7794e+07,1,0.21,3.73,5.42,-0.38577,-0.046682,-0.51913,-0.29666,-1.18,-0.31439,0.2437,0.02,0.2,0.06,93.58
5090,5.7804e+07,1,0.21,3.73,5.42,-0.38597,-0.046495,-0.51636,-0.28763,-1.18,-0.31439,0.24211,0.02,0.2,0.06,93.58
5131,5.7814e+07,1,0.21,3.73,5.42,-0.38483,-0.047202,-0.51562,-0.2798,-1.18,-0.31439,0.24039,0.02,0.2,0.06,93.58
5172,5.7825e+07,1,0.22,3.73,5.42,-0.38651,-0.047366,-0.5162,-0.26895,-1.18,-0.31439,0.23477,0.02,0.2,0.06,93.58
5213,5.7835e+07,1,0.22,3.72,5.42,-0.3858,-0.047959,-0.51722,-0.26322,-1.18,-0.31439,0.2329,0.02,0.2,0.06,93.58
5254,5.7845e+07,1,0.21,3.73,5.41,-0.38551,-0.047508,-0.51848,-0.26263,-1.18,-0.31439,0.23083,0.02,0.2,0.06,93.58
5299,5.7856e+07,1,0.22,3.72,5.41,-0.38623,-0.046758,-0.52008,-0.26227,-1.18,-0.31439,0.22516,0.02,0.2,0.06,93.58
5341,5.7866e+07,1,0.21,3.72,5.41,-0.3864,-0.046335,-0.51792,-0.25942,-1.18,-0.31439,0.22293,0.02,0.2,0.06,93.58
5381,5.7876e+07,1,0.21,3.73,5.41,-0.38598,-0.046696,-0.51671,-0.25905,-1.18,-0.31439,0.22063,0.02,0.2,0.06,93.58
5423,5.7886e+07,1,0.21,3.73,5.41,-0.38676,-0.044638,-0.51391,-0.25751,-1.18,-0.31439,0.21816,0.02,0.2,0.06,93.58
5463,5.7899e+07,1,0.21,3.73,5.41,-0.38611,-0.04479,-0.51141,-0.25538,-1.18,-0.31439,0.21552,0.02,0.2,0.06,93.58
5504,5.7909e+07,1,0.21,3.73,5.41,-0.38548,-0.044773,-0.50856,-0.25207,-1.18,-0.31439,0.21426,0.02,0.2,0.07,93.58
5545,5.792e+07,1,0.2,3.73,5.41,-0.38769,-0.044761,-0.50789,-0.2442,-1.18,-0.31439,0.20861,0.02,0.2,0.07,93.58
5585,5.793e+07,1,0.2,3.73,5.41,-0.38709,-0.044609,-0.50495,-0.24304,-1.18,-0.31439,0.20728,0.02,0.2,0.06,93.58
5626,5.794e+07,1,0.2,3.73,5.41,-0.38891,-0.045064,-0.50516,-0.24383,-1.18,-0.31439,0.20222,0.02,0.2,0.06,93.58
5667,5.795e+07,1,0.2,3.73,5.41,-0.38844,-0.045528,-0.50333,-0.24096,-1.18,-0.31439,0.20074,0.02,0.2,0.06,93.58
5712,5.796e+07,1,0.21,3.73,5.41,-0.38837,-0.045483,-0.50345,-0.23663,-1.18,-0.31439,0.199,0.02,0.2,0.07,93.58
5754,5.7971e+07,1,0.21,3.73,5.41,-0.38831,-0.04521,-0.50306,-0.23155,-1.18,-0.31439,0.19715,0.02,0.2,0.07,93.58
5794,5.798e+07,1,0.21,3.73,5.4,-0.38881,-0.045855,-0.50298,-0.23234,-1.18,-0.31439,0.1951,0.02,0.2,0.07,93.58
5837,5.7991e+07,1,0.21,3.73,5.4,-0.3896,-0.045026,-0.502,-0.23018,-1.1911,-0.32245,0.19292,0.02,0.2,0.07,93.58
5875,5.8004e+07,1,0.21,3.73,5.41,-0.38886,-0.045183,-0.49938,-0.22572,-1.1911,-0.32245,0.19009,0.02,0.2,0.07,93.58
5915,5.8014e+07,1,0.21,3.73,5.41,-0.38827,-0.043915,-0.4978,-0.22343,-1.1911,-0.32245,0.18903,0.02,0.2,0.07,93.58
5956,5.8025e+07,1,0.21,3.73,5.41,-0.38971,-0.044513,-0.49721,-0.21591,-1.1911,-0.32245,0.18412,0.02,0.2,0.07,93.58
5999,5.8035e+07,1,0.21,3.73,5.41,-0.38925,-0.043929,-0.49621,-0.21004,-1.1911,-0.32245,0.18288,0.02,0.2,0.07,93.58
6040,5.8045e+07,1,0.21,3.73,5.41,-0.3903,-0.04304,-0.49592,-0.21357,-1.1911,-0.32245,0.17744,0.02,0.2,0.07,93.58
6081,5.8055e+07,1,0.21,3.73,5.41,-0.39031,-0.042443,-0.49746,-0.22147,-1.1911,-0.32245,0.17615,0.02,0.2,0.07,93.58
6125,5.8065e+07,1,0.21,3.72,5.41,-0.38931,-0.042903,-0.49622,-0.22875,-1.1911,-0.32245,0.17469,0.02,0.2,0.07,93.58
6167,5.8076e+07,1,0.21,3.72,5.41,-0.39069,-0.043023,-0.49602,-0.23006,-1.1911,-0.32245,0.16966,0.02,0.2,0.07,93.58
6208,5.8086e+07,1,0.21,3.73,5.41,-0.39095,-0.043314,-0.49394,-0.23018,-1.1911,-0.32245,0.16757,0.02,0.2,0.07,93.58
6248,5.8096e+07,1,0.21,3.73,5.41,-0.39157,-0.043421,-0.49249,-0.23097,-1.1911,-0.32245,0.16581,0.02,0.2,0.07,93.58
6287,5.8106e+07,1,0.22,3.73,5.41,-0.39161,-0.044085,-0.4919,-0.23394,-1.1911,-0.32245,0.16391,0.02,0.2,0.07,93.58
6327,5.8119e+07,1,0.22,3.73,5.41,-0.39082,-0.04186,-0.49105,-0.23358,-1.1911,-0.32245,0.16147,0.02,0.2,0.07,93.58
6368,5.8129e+07,1,0.22,3.74,5.41,-0.3924,-0.042152,-0.4911,-0.23325,-1.1911,-0.32245,0.15656,0.02,0.2,0.07,93.58
6409,5.814e+07,1,0.22,3.73,5.41,-0.39089,-0.042962,-0.48896,-0.23046,-1.1911,-0.32245,0.1554,0.02,0.2,0.07,93.58
6450,5.815e+07,1,0.22,3.73,5.41,-0.3898,-0.043512,-0.48624,-0.22656,-1.1911,-0.32245,0.15364,0.02,0.2,0.07,93.58
6495,5.816e+07,1,0.22,3.73,5.42,-0.38912,-0.04383,-0.48489,-0.22349,-1.1911,-0.32245,0.15219,0.02,0.2,0.07,93.58
6537,5.817e+07,1,0.22,3.73,5.42,-0.38827,-0.044087,-0.48228,-0.22094,-1.2022,-0.33051,0.15061,0.02,0.2,0.07,93.58
6579,5.818e+07,1,0.22,3.73,5.42,-0.38814,-0.044571,-0.47989,-0.21514,-1.2022,-0.33051,0.14578,0.02,0.2,0.07,93.58
6620,5.8191e+07,1,0.22,3.73,5.42,-0.38665,-0.044866,-0.47898,-0.21376,-1.2022,-0.33051,0.14405,0.02,0.2,0.07,93.58
6661,5.8201e+07,1,0.22,3.73,5.43,-0.38624,-0.044183,-0.47998,-0.21295,-1.2022,-0.33051,0.14218,0.02,0.2,0.07,93.58
6699,5.8211e+07,1,0.23,3.73,5.42,-0.38582,-0.043903,-0.47953,-0.2102,-1.2022,-0.33051,0.14128,0.02,0.2,0.07,93.58
6739,5.8221e+07,1,0.23,3.73,5.42,-0.38549,-0.042718,-0.47926,-0.205,-1.2022,-0.33051,0.14061,0.02,0.2,0.07,93.58
6780,5.8231e+07,1,0.23,3.73,5.42,-0.38462,-0.041734,-0.47817,-0.20032,-1.2022,-0.33051,0.13983,0.02,0.2,0.07,93.58
6821,5.8242e+07,1,0.23,3.72,5.42,-0.38661,-0.04222,-0.47694,-0.19037,-1.2022,-0.33051,0.13507,0.02,0.2,0.07,93.58
6862,5.8252e+07,1,0.22,3.72,5.42,-0.38594,-0.042164,-0.47721,-0.18506,-1.2022,-0.33051,0.13405,0.02,0.2,0.07,93.58
6907,5.8262e+07,1,0.22,3.72,5.42,-0.38535,-0.041831,-0.47554,-0.17885,-1.2022,-0.33051,0.13292,0.02,0.2,0.07,93.58
6947,5.8272e+07,1,0.22,3.72,5.42,-0.38493,-0.04106,-0.4738,-0.17185,-1.2022,-0.33051,0.13104,0.02,0.2,0.07,93.58
6989,5.8282e+07,1,0.23,3.72,5.42,-0.38479,-0.04181,-0.47214,-0.16961,-1.2022,-0.33051,0.12959,0.02,0.2,0.07,93.58
7029,5.8292e+07,1,0.23,3.72,5.42,-0.38499,-0.041386,-0.47231,-0.17096,-1.2022,-0.33051,0.12792,0.02,0.2,0.07,93.58
7067,5.8306e+07,1,0.23,3.72,5.42,-0.38558,-0.040542,-0.47221,-0.16922,-1.2022,-0.33051,0.12666,0.02,0.21,0.07,93.58
7110,5.8316e+07,1,0.23,3.72,5.43,-0.38614,-0.040514,-0.4715,-0.16499,-1.2022,-0.33051,0.12656,0.02,0.21,0.07,93.58
7150,5.8326e+07,1,0.22,3.73,5.42,-0.3877,-0.040168,-0.47157,-0.15417,-1.2022,-0.33051,0.12134,0.02,0.21,0.07,93.58
7191,5.8336e+07,1,0.23,3.73,5.42,-0.38613,-0.04075,-0.47212,-0.14677,-1.2022,-0.33051,0.12109,0.02,0.21,0.07,93.58
7231,5.8347e+07,1,0.22,3.73,5.42,-0.3846,-0.040987,-0.47155,-0.15063,-1.2022,-0.33051,0.1206,0.02,0.21,0.07,93.58
7272,5.8357e+07,1,0.22,3.73,5.42,-0.38665,-0.04001,-0.47059,-0.14698,-1.2022,-0.33051,0.11591,0.02,0.21,0.07,93.58
7317,5.8367e+07,1,0.22,3.73,5.42,-0.38751,-0.038525,-0.4687,-0.14428,-1.2022,-0.33051,0.11524,0.02,0.21,0.07,93.58
7360,5.8377e+07,1,0.22,3.73,5.42,-0.38741,-0.038723,-0.46701,-0.13876,-1.2134,-0.33857,0.11441,0.02,0.21,0.07,93.58
7401,5.8387e+07,1,0.22,3.73,5.42,-0.39021,-0.038215,-0.4687,-0.14588,-1.2134,-0.33857,0.10974,0.02,0.21,0.07,93.58
7442,5.8397e+07,1,0.22,3.73,5.42,-0.39079,-0.037814,-0.46832,-0.15217,-1.2134,-0.33857,0.10828,0.02,0.2,0.07,93.58
7485,5.8407e+07,1,0.21,3.73,5.42,-0.39018,-0.039012,-0.46822,-0.16108,-1.2134,-0.33857,0.10709,0.02,0.2,0.07,93.58
7519,5.8418e+07,1,0.22,3.73,5.41,-0.38908,-0.039109,-0.46678,-0.16321,-1.2134,-0.33857,0.10707,0.02,0.21,0.07,93.58
7559,5.8428e+07,1,0.22,3.73,5.41,-0.3894,-0.039605,-0.46513,-0.16244,-1.2134,-0.33857,0.10725,0.02,0.21,0.07,93.58
7600,5.8438e+07,1,0.22,3.73,5.41,-0.39139,-0.039119,-0.4645,-0.15365,-1.2134,-0.33857,0.10262,0.02,0.21,0.07,93.58
7641,5.8449e+07,1,0.22,3.73,5.41,-0.39242,-0.038912,-0.46297,-0.14562,-1.2134,-0.33857,0.10256,0.02,0.21,0.07,93.58
7681,5.8459e+07,1,0.22,3.73,5.41,-0.39141,-0.039722,-0.462,-0.13378,-1.2134,-0.33857,0.10185,0.02,0.21,0.07,93.58
7727,5.8469e+07,1,0.22,3.73,5.41,-0.39086,-0.040479,-0.4612,-0.12643,-1.2134,-0.33857,0.1014,0.02,0.21,0.07,93.58
7768,5.8479e+07,1,0.22,3.74,5.41,-0.3915,-0.040613,-0.46059,-0.1211,-1.2134,-0.33857,0.10073,0.02,0.21,0.07,93.58
7808,5.8489e+07,1,0.22,3.74,5.41,-0.39172,-0.04085,-0.45891,-0.11886,-1.2134,-0.33857,0.099888,0.02,0.21,0.07,93.58
7849,5.85e+07,1,0.22,3.74,5.4,-0.39407,-0.041357,-0.45761,-0.11436,-1.2134,-0.33857,0.095319,0.02,0.21,0.07,93.58
7890,5.8511e+07,1,0.22,3.74,5.4,-0.39271,-0.040392,-0.45573,-0.11093,-1.2134,-0.33857,0.095305,0.02,0.21,0.07,93.58
7928,5.8521e+07,1,0.23,3.74,5.4,-0.39233,-0.040366,-0.45475,-0.10737,-1.2134,-0.33857,0.095097,0.02,0.21,0.07,93.58
7972,5.8531e+07,1,0.23,3.74,5.4,-0.39159,-0.039534,-0.45469,-0.10394,-1.2134,-0.33857,0.095043,0.02,0.21,0.07,93.58
8012,5.8542e+07,1,0.22,3.74,5.4,-0.39041,-0.039385,-0.45616,-0.10057,-1.2134,-0.33857,0.094821,0.02,0.21,0.07,93.58
8053,5.8551e+07,1,0.22,3.74,5.4,-0.3895,-0.038794,-0.45663,-0.094128,-1.2134,-0.33857,0.094352,0.02,0.21,0.07,93.58
8093,5.8562e+07,1,0.22,3.75,5.39,-0.38938,-0.038994,-0.45366,-0.087599,-1.2134,-0.33857,0.093634,0.02,0.21,0.07,93.58
8140,5.8572e+07,1,0.23,3.75,5.4,-0.39172,-0.03893,-0.45477,-0.084259,-1.2134,-0.33857,0.088688,0.02,0.21,0.07,93.58
8184,5.8582e+07,1,0.22,3.75,5.39,-0.39093,-0.037682,-0.4533,-0.084821,-1.2134,-0.33857,0.087834,0.02,0.21,0.07,93.58
8224,5.8593e+07,1,0.22,3.75,5.39,-0.3926,-0.03647,-0.45372,-0.098132,-1.2134,-0.33857,0.082861,0.02,0.21,0.07,93.58
8265,5.8604e+07,1,0.22,3.75,5.39,-0.39279,-0.035862,-0.45349,-0.11087,-1.2134,-0.33857,0.081887,0.02,0.21,0.07,93.58
8305,5.8614e+07,1,0.22,3.76,5.39,-0.39236,-0.036265,-0.4537,-0.12367,-1.2134,-0.33857,0.080788,0.02,0.21,0.07,93.58
8343,5.8624e+07,1,0.22,3.76,5.39,-0.39068,-0.03517,-0.45216,-0.13194,-1.2134,-0.33857,0.080596,0.02,0.21,0.07,93.58
8384,5.8634e+07,1,0.22,3.76,5.38,-0.39049,-0.036332,-0.45197,-0.13833,-1.2134,-0.33857,0.080668,0.02,0.21,0.07,93.58
8426,5.8644e+07,1,0.22,3.76,5.38,-0.38949,-0.036199,-0.44902,-0.13405,-1.2134,-0.33857,0.08049,0.02,0.21,0.07,93.58
8466,5.8655e+07,1,0.22,3.76,5.38,-0.3912,-0.035065,-0.44862,-0.12708,-1.2134,-0.33857,0.075554,0.02,0.21,0.07,93.58
8507,5.8666e+07,1,0.22,3.75,5.38,-0.39068,-0.034414,-0.4481,-0.12456,-1.2134,-0.33857,0.075177,0.02,0.21,0.07,93.58
8552,5.8675e+07,1,0.22,3.75,5.38,-0.39137,-0.034548,-0.44886,-0.12385,-1.2134,-0.33857,0.074658,0.02,0.21,0.07,93.58
8592,5.8685e+07,1,0.21,3.75,5.38,-0.39174,-0.035274,-0.44724,-0.12729,-1.2134,-0.33857,0.073908,0.02,0.21,0.07,93.58
8633,5.8696e+07,1,0.21,3.75,5.39,-0.39398,-0.035111,-0.44503,-0.12556,-1.2134,-0.33857,0.069451,0.02,0.21,0.07,93.58
8674,5.8706e+07,1,0.22,3.76,5.39,-0.39331,-0.033513,-0.44409,-0.12828,-1.2134,-0.33857,0.068155,0.02,0.21,0.07,93.58
8718,5.8721e+07,1,0.22,3.76,5.39,-0.39311,-0.034433,-0.44317,-0.14258,-1.2134,-0.33857,0.066899,0.02,0.21,0.07,93.58
8759,5.8732e+07,1,0.21,3.76,5.39,-0.39465,-0.034662,-0.44132,-0.1449,-1.2134,-0.33857,0.062472,0.02,0.21,0.07,93.58
8799,5.8742e+07,1,0.22,3.76,5.38,-0.39351,-0.035606,-0.43983,-0.14395,-1.2134,-0.33857,0.063264,0.02,0.21,0.07,93.58
8841,5.8752e+07,1,0.21,3.76,5.39,-0.39274,-0.034513,-0.43759,-0.13904,-1.2134,-0.33857,0.063376,0.02,0.21,0.07,93.58
8882,5.8762e+07,1,0.21,3.76,5.38,-0.39271,-0.034525,-0.4373,-0.14019,-1.2134,-0.33857,0.063691,0.02,0.21,0.07,93.58
8925,5.8772e+07,1,0.22,3.76,5.39,-0.39367,-0.034077,-0.43756,-0.13355,-1.2245,-0.33857,0.059343,0.02,0.21,0.07,93.58
8969,5.8782e+07,1,0.22,3.76,5.39,-0.39353,-0.032683,-0.43829,-0.12927,-1.2245,-0.33857,0.059458,0.02,0.21,0.07,93.58
9010,5.8792e+07,1,0.21,3.77,5.39,-0.39313,-0.031653,-0.43833,-0.12405,-1.2245,-0.33857,0.059321,0.02,0.21,0.07,93.58
9051,5.8802e+07,1,0.21,3.76,5.38,-0.39294,-0.031243,-0.43732,-0.12073,-1.2245,-0.33857,0.059012,0.02,0.21,0.07,93.58
9092,5.8816e+07,1,0.21,3.76,5.38,-0.3942,-0.031438,-0.43421,-0.11892,-1.2245,-0.33857,0.056751,0.02,0.21,0.07,93.58
9134,5.8826e+07,1,0.21,3.76,5.38,-0.39545,-0.033388,-0.43403,-0.1182,-1.2245,-0.33857,0.052425,0.02,0.21,0.07,93.58
9175,5.8837e+07,1,0.21,3.76,5.38,-0.39373,-0.033446,-0.43228,-0.11488,-1.2245,-0.33857,0.053086,0.02,0.21,0.07,93.58
9217,5.8847e+07,1,0.21,3.75,5.38,-0.39328,-0.03369,-0.43149,-0.11522,-1.2245,-0.33857,0.053112,0.02,0.21,0.07,93.58
9257,5.8857e+07,1,0.21,3.75,5.39,-0.39173,-0.031432,-0.43127,-0.11586,-1.2245,-0.33857,0.053299,0.02,0.21,0.07,93.58
9298,5.8867e+07,1,0.21,3.75,5.39,-0.39314,-0.03091,-0.43161,-0.11018,-1.2245,-0.33857,0.049001,0.02,0.21,0.07,93.58
9343,5.8877e+07,1,0.21,3.76,5.39,-0.39162,-0.031195,-0.43094,-0.10445,-1.2245,-0.33857,0.048974,0.02,0.21,0.07,93.58
9383,5.8887e+07,1,0.21,3.76,5.39,-0.39165,-0.030866,-0.43036,-0.10154,-1.2245,-0.33857,0.048732,0.02,0.21,0.07,93.58
9424,5.8897e+07,1,0.22,3.76,5.38,-0.39205,-0.031255,-0.42847,-0.098364,-1.2245,-0.33857,0.048327,0.02,0.21,0.07,93.58
9464,5.8907e+07,1,0.22,3.75,5.38,-0.39299,-0.031791,-0.42637,-0.098205,-1.2245,-0.33857,0.047727,0.02,0.21,0.07,93.58
9505,5.8917e+07,1,0.22,3.76,5.38,-0.39411,-0.031521,-0.42693,-0.097602,-1.2245,-0.33857,0.043486,0.02,0.21,0.07,93.58
9546,5.8928e+07,1,0.22,3.75,5.39,-0.39288,-0.03038,-0.42553,-0.093828,-1.2245,-0.33857,0.043944,0.02,0.21,0.07,93.58
9586,5.8938e+07,1,0.22,3.75,5.39,-0.39438,-0.029587,-0.42277,-0.098031,-1.2245,-0.33857,0.039694,0.02,0.21,0.07,93.58
9629,5.8948e+07,1,0.22,3.75,5.39,-0.39418,-0.029817,-0.42156,-0.10065,-1.2245,-0.33857,0.040466,0.02,0.21,0.07,93.58
9669,5.8959e+07,1,0.23,3.75,5.39,-0.39268,-0.029981,-0.42032,-0.09559,-1.2245,-0.33857,0.040977,0.02,0.21,0.07,93.58
9710,5.8969e+07,1,0.23,3.75,5.39,-0.39223,-0.028748,-0.42052,-0.096082,-1.2245,-0.33857,0.040805,0.02,0.21,0.07,93.58
9758,5.898e+07,1,0.23,3.75,5.4,0.018978,0.015962,-0.41786,-0.090902,-1.2356,-0.33854,0.040858,0.02,0.21,0.07,93.58
9798,5.8991e+07,1,0.23,3.75,5.4,0.020229,0.015694,-0.41679,-0.084463,-1.2309,-0.33802,0.040309,0.02,0.21,0.07,93.58
9839,5.9001e+07,1,0.22,3.75,5.4,0.019963,0.015664,-0.41631,-0.082494,-1.2263,-0.33751,0.039532,0.02,0.21,0.07,93.58
9880,5.9012e+07,1,0.23,3.75,5.4,0.018268,0.015695,-0.41667,-0.079819,-1.2262,-0.33735,0.03539,0.02,0.21,0.07,93.58
9921,5.9022e+07,1,0.23,3.75,5.4,0.016896,0.016384,-0.41557,-0.079954,-1.2219,-0.33686,0.034836,0.02,0.21,0.07,93.58
9964,5.9032e+07,1,0.22,3.75,5.4,0.016887,0.016103,-0.41471,-0.090046,-1.2178,-0.33637,0.035636,0.02,0.21,0.07,93.58
10004,5.9042e+07,1,0.23,3.75,5.4,0.015975,0.016131,-0.41291,-0.08949,-1.214,-0.33588,0.035726,0.02,0.21,0.07,93.58
10045,5.9053e+07,1,0.23,3.75,5.4,0.013847,0.017186,-0.41259,-0.084244,-1.2138,-0.33569,0.031198,0.02,0.21,0.07,93.58
10085,5.9063e+07,1,0.23,3.75,5.4,0.012661,0.016869,-0.4134,-0.083566,-1.2102,-0.3352,0.031465,0.02,0.21,0.07,93.58
10126,5.9073e+07,1,0.23,3.75,5.4,0.012331,0.01646,-0.41171,-0.076615,-1.2069,-0.33473,0.031551,0.02,0.21,0.07,93.58
10171,5.9083e+07,1,0.23,3.75,5.4,0.011839,0.016718,-0.41137,-0.072709,-1.2037,-0.33426,0.031451,0.02,0.21,0.07,93.58
10212,5.9093e+07,1,0.23,3.75,5.4,0.0098359,0.015455,-0.41108,-0.076298,-1.2007,-0.33381,0.031135,0.02,0.21,0.07,93.58
10252,5.9104e+07,1,0.23,3.76,5.4,0.0086884,0.016657,-0.41133,-0.078003,-1.1979,-0.33337,0.030198,0.02,0.21,0.07,93.58
10293,5.9114e+07,1,0.23,3.76,5.41,0.0062728,0.016029,-0.40954,-0.076059,-1.1978,-0.3332,0.026085,0.02,0.21,0.07,93.58
10334,5.9127e+07,1,0.23,3.76,5.41,0.0045229,0.016607,-0.40682,-0.079291,-1.1929,-0.33249,0.029195,0.02,0.21,0.07,93.58
10374,5.9137e+07,1,0.23,3.76,5.41,0.0029452,0.016536,-0.40525,-0.072473,-1.1929,-0.33233,0.025144,0.02,0.21,0.07,93.58
10415,5.9147e+07,1,0.23,3.76,5.41,0.0030756,0.016586,-0.40447,-0.07167,-1.1907,-0.33194,0.025877,0.02,0.21,0.07,93.58
10455,5.9158e+07,1,0.23,3.76,5.42,0.0018993,0.01619,-0.40446,-0.067312,-1.1886,-0.33155,0.025998,0.02,0.21,0.07,93.58
10496,5.9168e+07,1,0.23,3.76,5.42,0.00099456,0.018574,-0.40407,-0.065066,-1.1867,-0.33117,0.026199,0.02,0.21,0.07,93.58
10538,5.9179e+07,1,0.23,3.75,5.41,-0.0010185,0.018209,-0.40389,-0.058583,-1.185,-0.33078,0.025866,0.02,0.21,0.07,93.58
10583,5.9192e+07,1,0.23,3.76,5.42,-0.0027644,0.016425,-0.4004,-0.047952,-1.1834,-0.33081,0.027964,0.02,0.21,0.07,93.58
10624,5.9203e+07,1,0.23,3.77,5.42,-0.0039652,0.015196,-0.39828,-0.036848,-1.1819,-0.33089,0.030587,0.02,0.21,0.07,93.58
10667,5.9243e+07,1,0.23,3.77,5.42,-0.010499,0.012338,-0.39045,0.071636,-1.1784,-0.33115,0.037456,0.02,0.21,0.07,93.58
10708,5.9254e+07,1,0.23,3.77,5.42,-0.01293,0.011688,-0.38981,0.10682,-1.1775,-0.33129,0.040594,0.02,0.21,0.07,93.58
10748,5.9264e+07,1,0.23,3.78,5.42,-0.015491,0.011881,-0.38765,0.12556,-1.1766,-0.33145,0.043808,0.02,0.21,0.07,93.58
10789,5.9274e+07,1,0.23,3.78,5.42,-0.016721,0.011265,-0.38685,0.14966,-1.1768,-0.33134,0.039959,0.02,0.21,0.07,93.58
10829,5.9284e+07,1,0.23,3.79,5.43,-0.018451,0.010039,-0.38412,0.16801,-1.176,-0.33151,0.042923,0.02,0.21,0.07,93.58
10874,5.9294e+07,1,0.23,3.79,5.43,-0.020084,0.0092726,-0.38212,0.18738,-1.1754,-0.3317,0.04553,0.02,0.21,0.07,93.58
10914,5.9304e+07,1,0.23,3.79,5.43,-0.021915,0.0081021,-0.38146,0.19985,-1.1749,-0.3319,0.047872,0.02,0.22,0.07,93.58
10956,5.9314e+07,1,0.23,3.79,5.43,-0.023591,0.0081432,-0.37959,0.19968,-1.1745,-0.33211,0.049957,0.02,0.21,0.07,93.58
10998,5.9325e+07,1,0.23,3.79,5.43,-0.025933,0.0076646,-0.37807,0.20187,-1.1742,-0.33231,0.053447,0.02,0.22,0.07,93.58
11036,5.9335e+07,1,0.23,3.8,5.43,-0.027589,0.0076893,-0.37789,0.21268,-1.1744,-0.33223,0.049345,0.02,0.22,0.07,93.58
11077,5.9345e+07,1,0.23,3.8,5.43,-0.028928,0.0073802,-0.37749,0.21601,-1.1742,-0.33244,0.052546,0.02,0.22,0.07,93.58
11118,5.9355e+07,1,0.23,3.8,5.43,-0.030155,0.006812,-0.37588,0.22487,-1.1741,-0.33266,0.055423,0.02,0.22,0.07,93.58
11159,5.9365e+07,1,0.23,3.8,5.43,-0.031794,0.0057248,-0.3758,0.21606,-1.1744,-0.33259,0.051652,0.02,0.22,0.07,93.58
11200,5.9376e+07,1,0.23,3.81,5.43,-0.03394,0.0049249,-0.37455,0.20562,-1.1743,-0.33282,0.053953,0.02,0.21,0.07,93.58
11242,5.9386e+07,1,0.23,3.81,5.42,-0.035715,0.0051924,-0.37331,0.2007,-1.1743,-0.33305,0.056332,0.02,0.21,0.07,93.58
11285,5.9397e+07,1,0.23,3.81,5.42,-0.035989,0.0047594,-0.36987,0.20316,-1.1736,-0.33352,0.061596,0.02,0.21,0.07,93.58
11326,5.9406e+07,1,0.23,3.81,5.42,-0.036693,0.0042039,-0.36617,0.20092,-1.173,-0.33397,0.066469,0.02,0.21,0.07,93.58
11367,5.9417e+07,1,0.23,3.82,5.42,-0.03935,0.0036893,-0.36617,0.21242,-1.1734,-0.33393,0.06284,0.02,0.21,0.07,93.58
11408,5.9426e+07,1,0.23,3.82,5.42,-0.039638,0.0014371,-0.3623,0.22483,-1.1729,-0.33441,0.067406,0.02,0.21,0.07,93.58
11448,5.9436e+07,1,0.23,3.82,5.42,-0.041159,0.00051951,-0.35904,0.23774,-1.1725,-0.33488,0.071619,0.02,0.21,0.07,93.58
11486,5.9447e+07,1,0.23,3.82,5.43,-0.042193,-0.00065539,-0.35702,0.25711,-1.1722,-0.33536,0.076584,0.02,0.22,0.07,93.58
11531,5.946e+07,1,0.22,3.82,5.43,-0.043335,-0.001795,-0.35537,0.26807,-1.172,-0.33583,0.080883,0.02,0.21,0.07,93.58
11572,5.9469e+07,1,0.22,3.82,5.43,-0.04408,-0.0013539,-0.35311,0.28559,-1.1718,-0.3363,0.085442,0.02,0.22,0.07,93.58
11613,5.9479e+07,1,0.22,3.83,5.43,-0.044589,-0.0025266,-0.35263,0.29767,-1.1716,-0.33676,0.089681,0.02,0.22,0.07,93.58
11653,5.949e+07,1,0.22,3.83,5.43,-0.047787,-0.0036949,-0.35342,0.3144,-1.1721,-0.33679,0.085845,0.02,0.22,0.07,93.58
11698,5.95e+07,1,0.22,3.83,5.43,-0.049342,-0.0044714,-0.351,0.30952,-1.1721,-0.33727,0.089786,0.02,0.21,0.07,93.58
11738,5.951e+07,1,0.22,3.83,5.43,-0.049695,-0.0055899,-0.34917,0.30103,-1.1721,-0.33775,0.093434,0.02,0.21,0.07,93.58
11778,5.9521e+07,1,0.22,3.84,5.42,-0.051167,-0.0063225,-0.349,0.30008,-1.1726,-0.33781,0.089929,0.02,0.21,0.07,93.58
11821,5.953e+07,1,0.21,3.84,5.42,-0.052673,-0.0073523,-0.3488,0.29329,-1.1726,-0.33829,0.093246,0.02,0.21,0.07,93.58
11861,5.9544e+07,1,0.21,3.84,5.42,-0.052892,-0.0087347,-0.34669,0.28519,-1.1729,-0.33881,0.096168,0.02,0.21,0.08,93.58
11902,5.9553e+07,1,0.21,3.85,5.42,-0.054224,-0.008729,-0.3442,0.28776,-1.1731,-0.3393,0.099738,0.02,0.22,0.08,93.58
11945,5.9566e+07,1,0.21,3.85,5.43,-0.055453,-0.0089903,-0.34298,0.27812,-1.1735,-0.33981,0.10196,0.02,0.21,0.08,93.58
11986,5.9576e+07,1,0.21,3.85,5.43,-0.055912,-0.0089138,-0.34108,0.26757,-1.1737,-0.34027,0.10499,0.02,0.21,0.08,93.58
12028,5.9586e+07,1,0.21,3.85,5.43,-0.058626,-0.0081706,-0.34041,0.25723,-1.1743,-0.34035,0.10158,0.02,0.21,0.08,93.58
12072,5.9597e+07,1,0.21,3.86,5.43,-0.059412,-0.0082784,-0.3376,0.24359,-1.1744,-0.34073,0.10737,0.02,0.21,0.07,93.58
12112,5.9608e+07,1,0.21,3.86,5.43,-0.061615,-0.0081338,-0.33498,0.24848,-1.1745,-0.3411,0.1127,0.02,0.21,0.08,93.58
12154,5.9618e+07,1,0.21,3.86,5.43,-0.063296,-0.0075004,-0.33094,0.2468,-1.1747,-0.34144,0.11804,0.02,0.21,0.07,93.58
12195,5.9629e+07,1,0.21,3.86,5.43,-0.065063,-0.0063245,-0.33064,0.2576,-1.1754,-0.34152,0.11442,0.02,0.21,0.07,93.58
12235,5.964e+07,1,0.21,3.86,5.43,-0.065986,-0.0064585,-0.32594,0.26671,-1.1756,-0.34184,0.1194,0.02,0.21,0.07,93.58
12273,5.965e+07,1,0.21,3.87,5.42,-0.067474,-0.0048123,-0.32073,0.27866,-1.176,-0.34215,0.12523,0.02,0.21,0.07,93.58
12316,5.9662e+07,1,0.21,3.87,5.43,-0.068812,-0.004237,-0.31628,0.28564,-1.1764,-0.34244,0.13036,0.02,0.21,0.07,93.58
12357,5.9673e+07,1,0.21,3.87,5.43,-0.069324,-0.0043122,-0.31269,0.29387,-1.1768,-0.3427,0.13572,0.02,0.21,0.08,93.58
12399,5.9683e+07,1,0.2,3.87,5.42,-0.071705,-0.0046945,-0.31172,0.31111,-1.1776,-0.34275,0.13231,0.02,0.21,0.08,93.58
12439,5.9693e+07,1,0.2,3.87,5.42,-0.072589,-0.0056092,-0.30819,0.3242,-1.1781,-0.34301,0.13737,0.02,0.21,0.08,93.58
12484,5.9703e+07,1,0.21,3.87,5.42,-0.073212,-0.0054919,-0.30634,0.33094,-1.1786,-0.34327,0.14207,0.02,0.21,0.08,93.58
12524,5.9713e+07,1,0.21,3.87,5.42,-0.073822,-0.0050148,-0.30458,0.33571,-1.1792,-0.34351,0.14641,0.02,0.21,0.08,93.58
12566,5.9723e+07,1,0.21,3.87,5.42,-0.074881,-0.0054671,-0.30242,0.3345,-1.1798,-0.34375,0.15042,0.02,0.21,0.08,93.58
12606,5.9733e+07,1,0.21,3.87,5.41,-0.076579,-0.0060478,-0.30009,0.33804,-1.1805,-0.34398,0.15407,0.02,0.21,0.08,93.58
12648,5.9746e+07,1,0.21,3.87,5.41,-0.078852,-0.006832,-0.29897,0.33732,-1.1815,-0.34423,0.15803,0.02,0.21,0.08,93.58
12689,5.9757e+07,1,0.21,3.88,5.41,-0.080496,-0.0078135,-0.29742,0.34017,-1.1824,-0.34447,0.16218,0.02,0.21,0.08,93.58
12729,5.9768e+07,1,0.21,3.88,5.41,-0.082941,-0.0084487,-0.29745,0.34602,-1.1832,-0.34456,0.15922,0.02,0.21,0.08,93.58
12769,5.9778e+07,1,0.21,3.88,5.41,-0.084571,-0.0099512,-0.29491,0.34418,-1.1842,-0.34481,0.16309,0.02,0.21,0.08,93.58
12806,5.9788e+07,1,0.21,3.88,5.41,-0.084477,-0.010121,-0.29171,0.33441,-1.1843,-0.34505,0.1696,0.02,0.21,0.08,93.58
12847,5.9798e+07,1,0.21,3.88,5.41,-0.085181,-0.0096152,-0.28825,0.33344,-1.1844,-0.34528,0.1757,0.02,0.21,0.08,93.58
12893,5.9809e+07,1,0.21,3.89,5.41,-0.087095,-0.0093143,-0.28653,0.34609,-1.1854,-0.34539,0.17253,0.02,0.21,0.08,93.58
12933,5.9819e+07,1,0.2,3.9,5.41,-0.089217,-0.0097595,-0.28503,0.35126,-1.1856,-0.34561,0.17828,0.02,0.21,0.08,93.58
12975,5.9829e+07,1,0.2,3.9,5.41,-0.089757,-0.0092963,-0.28212,0.35871,-1.1859,-0.34582,0.18364,0.02,0.21,0.08,93.58
13015,5.9839e+07,1,0.21,3.9,5.41,-0.091174,-0.0081168,-0.27971,0.36476,-1.1863,-0.34602,0.18864,0.02,0.21,0.08,93.58
13058,5.9852e+07,1,0.21,3.9,5.41,-0.093719,-0.0079413,-0.2768,0.37231,-1.187,-0.34624,0.19383,0.02,0.21,0.08,93.58
13098,5.9862e+07,1,0.21,3.91,5.41,-0.093989,-0.0073243,-0.27427,0.37405,-1.1874,-0.34641,0.1997,0.02,0.21,0.08,93.58
13139,5.9872e+07,1,0.21,3.92,5.41,-0.09689,-0.0076307,-0.27376,0.38621,-1.1884,-0.34649,0.19671,0.02,0.21,0.08,93.58
13180,5.9882e+07,1,0.21,3.92,5.41,-0.098646,-0.0074976,-0.27107,0.39058,-1.189,-0.34666,0.202,0.02,0.21,0.08,93.58
13220,5.9893e+07,1,0.21,3.92,5.41,-0.10053,-0.006111,-0.26727,0.40083,-1.1896,-0.34682,0.20692,0.02,0.22,0.08,93.58
13261,5.9903e+07,1,0.21,3.92,5.41,-0.10339,-0.0057201,-0.26469,0.40324,-1.1904,-0.34697,0.21124,0.02,0.22,0.08,93.58
13305,5.9913e+07,1,0.21,3.93,5.4,-0.1041,-0.0060234,-0.26333,0.40045,-1.1911,-0.34711,0.21551,0.02,0.22,0.08,93.58
13346,5.9923e+07,1,0.22,3.93,5.4,-0.1069,-0.0060988,-0.26267,0.39037,-1.1919,-0.34724,0.21944,0.02,0.22,0.08,93.58
13387,5.9933e+07,1,0.21,3.93,5.4,-0.10867,-0.0064287,-0.26064,0.38719,-1.193,-0.34731,0.21682,0.02,0.22,0.08,93.58
13428,5.9944e+07,1,0.21,3.94,5.4,-0.10971,-0.0063168,-0.25828,0.3759,-1.194,-0.34745,0.22023,0.02,0.22,0.08,93.58
13472,5.9956e+07,1,0.21,3.94,5.4,-0.11074,-0.0052918,-0.25583,0.37109,-1.1951,-0.34758,0.22463,0.02,0.22,0.08,93.58
13513,5.9966e+07,1,0.21,3.94,5.39,-0.11188,-0.0040749,-0.25393,0.36638,-1.196,-0.34769,0.22922,0.02,0.22,0.08,93.58
13557,5.9976e+07,1,0.21,3.94,5.4,-0.11392,-0.0046705,-0.25195,0.36138,-1.1971,-0.3478,0.23345,0.02,0.22,0.08,93.58
13595,5.9987e+07,1,0.21,3.94,5.4,-0.11333,-0.0052384,-0.24676,0.36609,-1.1969,-0.34801,0.2398,0.02,0.22,0.08,93.58
13635,5.9997e+07,1,0.21,3.95,5.4,-0.11283,-0.0057998,-0.24481,0.37127,-1.1967,-0.34822,0.246,0.02,0.22,0.08,93.58
13683,6.001e+07,1,0.22,3.94,5.4,-0.11276,-0.0048477,-0.2424,0.37927,-1.1967,-0.34843,0.25132,0.02,0.22,0.08,93.58
13724,6.002e+07,1,0.22,3.94,5.4,-0.11617,-0.0024521,-0.24032,0.38584,-1.1979,-0.34847,0.2489,0.02,0.22,0.08,93.58
13767,6.003e+07,1,0.22,3.95,5.4,-0.11689,-0.0026595,-0.24063,0.38536,-1.1979,-0.34863,0.2542,0.02,0.22,0.08,93.58
13809,6.004e+07,1,0.22,3.95,5.4,-0.11711,-0.0028519,-0.23794,0.39366,-1.1978,-0.34879,0.25956,0.02,0.22,0.08,93.58
13849,6.005e+07,1,0.22,3.95,5.4,-0.11739,-0.0026376,-0.23521,0.39822,-1.198,-0.34895,0.26504,0.02,0.22,0.08,93.58
13887,6.006e+07,1,0.23,3.95,5.4,-0.11811,-0.0033057,-0.23306,0.40127,-1.1981,-0.3491,0.27039,0.02,0.22,0.08,93.58
13928,6.007e+07,1,0.23,3.95,5.41,-0.11969,-0.0029407,-0.23262,0.39934,-1.1993,-0.34913,0.26806,0.02,0.22,0.08,93.58
13968,6.008e+07,1,0.23,3.95,5.41,-0.12005,-0.0039839,-0.23076,0.3944,-1.1995,-0.34928,0.27315,0.02,0.22,0.08,93.58
14010,6.009e+07,1,0.22,3.96,5.41,-0.12104,-0.0028296,-0.22859,0.38993,-1.1997,-0.34942,0.27786,0.02,0.22,0.08,93.58
14050,6.0101e+07,1,0.22,3.96,5.41,-0.12197,-0.002815,-0.22732,0.38035,-1.2,-0.34955,0.28232,0.02,0.22,0.08,93.58
14095,6.0111e+07,1,0.22,3.96,5.41,-0.12456,-0.003688,-0.22718,0.3689,-1.2014,-0.34959,0.27981,0.02,0.22,0.08,93.58
14135,6.0121e+07,1,0.23,3.96,5.41,-0.12411,-0.0048257,-0.22644,0.33445,-1.2017,-0.34973,0.2841,0.02,0.22,0.08,93.58
14176,6.0132e+07,1,0.22,3.96,5.41,-0.12454,-0.0041191,-0.22534,0.31384,-1.2021,-0.34987,0.28803,0.02,0.22,0.08,93.58
14219,6.0142e+07,1,0.22,3.97,5.4,-0.12566,-0.0052326,-0.22436,0.3001,-1.2027,-0.35001,0.29144,0.02,0.22,0.08,93.58
14256,6.0152e+07,1,0.22,3.97,5.4,-0.12713,-0.0059016,-0.22441,0.29268,-1.2039,-0.35007,0.28919,0.02,0.22,0.08,93.58
14299,6.0163e+07,1,0.22,3.97,5.4,-0.12866,-0.0064573,-0.22296,0.28643,-1.2045,-0.35022,0.294,0.02,0.22,0.08,93.58
14336,6.0174e+07,1,0.22,3.97,5.4,-0.12873,-0.0068972,-0.22071,0.2845,-1.2039,-0.35062,0.29937,0.02,0.22,0.08,93.58
14376,6.0184e+07,1,0.23,3.97,5.4,-0.12853,-0.0074763,-0.21899,0.29463,-1.2033,-0.351,0.30481,0.02,0.22,0.08,93.58
14418,6.0194e+07,1,0.23,3.97,5.4,-0.12887,-0.007123,-0.21688,0.30174,-1.2027,-0.35137,0.3099,0.02,0.22,0.08,93.58
14458,6.0204e+07,1,0.23,3.96,5.4,-0.12932,-0.0076454,-0.21439,0.31526,-1.2022,-0.35173,0.31462,0.02,0.22,0.08,93.58
14503,6.0214e+07,1,0.23,3.96,5.4,-0.13211,-0.0089532,-0.21396,0.32106,-1.2035,-0.35181,0.31249,0.02,0.22,0.08,93.58
14543,6.0224e+07,1,0.23,3.96,5.4,-0.13151,-0.010445,-0.21296,0.32187,-1.2031,-0.35219,0.31699,0.02,0.22,0.08,93.58
14584,6.0235e+07,1,0.23,3.96,5.4,-0.13245,-0.011318,-0.21156,0.31974,-1.2029,-0.35257,0.321,0.02,0.22,0.08,93.58
14624,6.0245e+07,1,0.23,3.97,5.41,-0.13357,-0.010969,-0.21111,0.31451,-1.2025,-0.35293,0.32509,0.02,0.22,0.08,93.58
14665,6.0258e+07,1,0.22,3.97,5.41,-0.13511,-0.011239,-0.20904,0.31134,-1.2029,-0.35334,0.32881,0.02,0.22,0.08,93.58
14707,6.0268e+07,1,0.22,3.97,5.4,-0.13711,-0.010637,-0.20845,0.30485,-1.2043,-0.35344,0.32673,0.02,0.22,0.08,93.58
14748,6.0278e+07,1,0.22,3.97,5.41,-0.13864,-0.011181,-0.20729,0.29705,-1.2042,-0.3538,0.33105,0.02,0.22,0.08,93.58
14789,6.0288e+07,1,0.22,3.97,5.41,-0.13934,-0.010417,-0.2052,0.29194,-1.2042,-0.35414,0.33507,0.02,0.22,0.08,93.58
14829,6.0299e+07,1,0.21,3.98,5.41,-0.13978,-0.011334,-0.20437,0.29099,-1.2045,-0.35448,0.33858,0.02,0.22,0.08,93.58
14872,6.0309e+07,1,0.21,3.98,5.41,-0.14126,-0.011321,-0.20302,0.28361,-1.2047,-0.35481,0.34202,0.02,0.22,0.08,93.58
14917,6.0319e+07,1,0.21,3.98,5.41,-0.14266,-0.011035,-0.20111,0.27586,-1.2049,-0.35514,0.34519,0.02,0.22,0.08,93.58
14958,6.0329e+07,1,0.2,3.98,5.41,-0.14562,-0.0092044,-0.20195,0.26905,-1.2065,-0.35525,0.34299,0.02,0.22,0.08,93.58
14999,6.034e+07,1,0.21,3.98,5.42,-0.14758,-0.0085162,-0.20146,0.26121,-1.2067,-0.35553,0.34613,0.02,0.22,0.08,93.58
15042,6.0352e+07,1,0.21,3.99,5.42,-0.14884,-0.0098805,-0.19872,0.24408,-1.2076,-0.35585,0.34826,0.02,0.22,0.08,93.58
15083,6.0362e+07,1,0.21,3.99,5.42,-0.15004,-0.010282,-0.19788,0.23045,-1.2081,-0.35614,0.35125,0.02,0.22,0.08,93.58
15124,6.0373e+07,1,0.21,4,5.42,-0.15202,-0.009741,-0.19769,0.21386,-1.2098,-0.35624,0.34906,0.02,0.22,0.08,93.58
15167,6.0383e+07,1,0.21,4,5.41,-0.15285,-0.0098305,-0.19699,0.19833,-1.2104,-0.35653,0.35189,0.02,0.22,0.08,93.58
15206,6.0394e+07,1,0.21,4,5.42,-0.15344,-0.0091488,-0.19652,0.18666,-1.2103,-0.35654,0.35535,0.02,0.22,0.08,93.58
15247,6.0404e+07,1,0.21,4,5.42,-0.15423,-0.010249,-0.19411,0.17853,-1.2104,-0.35656,0.35836,0.02,0.22,0.08,93.58
15289,6.0414e+07,1,0.21,4.01,5.41,-0.1558,-0.0097746,-0.19177,0.17049,-1.2106,-0.35658,0.36134,0.02,0.22,0.08,93.58
15333,6.0424e+07,1,0.21,4.01,5.41,-0.1573,-0.0106,-0.19107,0.16888,-1.2121,-0.35668,0.35945,0.02,0.22,0.08,93.58
15374,6.0434e+07,1,0.21,4.01,5.41,-0.15842,-0.010167,-0.18867,0.16623,-1.2123,-0.3567,0.36222,0.02,0.22,0.08,93.58
15415,6.0444e+07,1,0.21,4.01,5.42,-0.15922,-0.010244,-0.18737,0.16279,-1.2126,-0.35671,0.36477,0.02,0.22,0.08,93.58
15455,6.0454e+07,1,0.21,4.02,5.42,-0.15897,-0.010112,-0.18691,0.15194,-1.213,-0.35672,0.36714,0.02,0.22,0.08,93.58
15492,6.0465e+07,1,0.21,4.02,5.41,-0.16113,-0.0094152,-0.18658,0.14601,-1.2147,-0.35683,0.36509,0.02,0.22,0.08,93.58
15533,6.0475e+07,1,0.21,4.02,5.41,-0.16242,-0.0080945,-0.18516,0.14072,-1.2152,-0.35682,0.36803,0.02,0.22,0.08,93.58
15574,6.0485e+07,1,0.21,4.02,5.41,-0.16402,-0.0072505,-0.18453,0.13698,-1.2157,-0.35681,0.37073,0.02,0.22,0.08,93.58
15615,6.0496e+07,1,0.21,4.03,5.41,-0.16649,-0.0069008,-0.1844,0.12857,-1.2174,-0.35688,0.36887,0.02,0.22,0.08,93.58
15656,6.0506e+07,1,0.21,4.03,5.41,-0.16727,-0.0073794,-0.18368,0.12103,-1.218,-0.35685,0.37141,0.02,0.22,0.08,93.58
15697,6.0516e+07,1,0.22,4.03,5.41,-0.16775,-0.0080847,-0.18259,0.11603,-1.2187,-0.35683,0.37373,0.02,0.22,0.08,93.58
15744,6.0526e+07,1,0.21,4.03,5.41,-0.16993,-0.0081904,-0.18205,0.10586,-1.2194,-0.35682,0.37585,0.02,0.22,0.08,93.58
15785,6.0536e+07,1,0.22,4.03,5.41,-0.17297,-0.0071427,-0.18297,0.10008,-1.2213,-0.3569,0.37384,0.02,0.22,0.08,93.58
15825,6.0546e+07,1,0.22,4.03,5.4,-0.17417,-0.0083132,-0.1811,0.0953,-1.2222,-0.35688,0.37577,0.02,0.22,0.08,93.58
15866,6.0556e+07,1,0.22,4.04,5.4,-0.17621,-0.0081748,-0.18094,0.08974,-1.2231,-0.35687,0.37752,0.02,0.22,0.08,93.58
15904,6.0566e+07,1,0.22,4.04,5.4,-0.17806,-0.0079428,-0.18034,0.083561,-1.2242,-0.35686,0.37986,0.02,0.22,0.08,93.58
15945,6.0576e+07,1,0.22,4.05,5.4,-0.18056,-0.0069362,-0.17934,0.081528,-1.226,-0.35693,0.37807,0.02,0.22,0.08,93.58
15985,6.0586e+07,1,0.22,4.05,5.4,-0.18152,-0.0087106,-0.18012,0.077187,-1.2271,-0.35692,0.38022,0.02,0.21,0.08,93.58
16027,6.0597e+07,1,0.22,4.05,5.4,-0.18242,-0.0091391,-0.17954,0.071101,-1.2284,-0.35692,0.38201,0.02,0.21,0.08,93.58
16068,6.0607e+07,1,0.22,4.05,5.4,-0.1837,-0.0087558,-0.17891,0.068901,-1.2296,-0.35692,0.38378,0.02,0.21,0.08,93.58
16117,6.062e+07,1,0.22,4.06,5.4,-0.18439,-0.007897,-0.17549,0.072993,-1.2302,-0.35689,0.38597,0.02,0.22,0.08,93.58
16159,6.0631e+07,1,0.22,4.06,5.4,-0.1848,-0.0090863,-0.1745,0.078031,-1.2303,-0.35684,0.38849,0.02,0.22,0.08,93.58
16200,6.0641e+07,1,0.22,4.07,5.4,-0.18561,-0.0090583,-0.17232,0.084886,-1.2305,-0.35679,0.39076,0.02,0.22,0.08,93.58
16241,6.0651e+07,1,0.22,4.07,5.4,-0.18917,-0.0090842,-0.17019,0.096064,-1.2326,-0.35689,0.38887,0.02,0.22,0.08,93.58
16285,6.0666e+07,1,0.22,4.07,5.4,-0.18952,-0.0098621,-0.16686,0.10904,-1.2324,-0.35676,0.39504,0.02,0.22,0.08,93.58
16325,6.0676e+07,1,0.23,4.07,5.4,-0.18934,-0.010972,-0.1655,0.11641,-1.2329,-0.35674,0.398,0.02,0.22,0.08,93.58
16366,6.0686e+07,1,0.23,4.07,5.4,-0.19156,-0.010953,-0.16415,0.12966,-1.2348,-0.35684,0.39636,0.02,0.22,0.08,93.58
16408,6.0697e+07,1,0.23,4.07,5.4,-0.19233,-0.010918,-0.16132,0.14049,-1.2354,-0.35682,0.39914,0.02,0.22,0.08,93.58
16449,6.0707e+07,1,0.23,4.07,5.4,-0.1932,-0.010807,-0.15844,0.1458,-1.2363,-0.35681,0.40158,0.02,0.22,0.08,93.58
16489,6.0717e+07,1,0.23,4.07,5.4,-0.19428,-0.011718,-0.1559,0.1478,-1.237,-0.35681,0.40398,0.02,0.22,0.08,93.58
16534,6.0727e+07,1,0.23,4.07,5.39,-0.19623,-0.011237,-0.15623,0.15143,-1.239,-0.35691,0.40243,0.02,0.22,0.08,93.58
16575,6.0737e+07,1,0.23,4.07,5.39,-0.19742,-0.011833,-0.15562,0.15243,-1.2399,-0.35691,0.40465,0.02,0.22,0.08,93.58
16616,6.0747e+07,1,0.23,4.07,5.39,-0.19927,-0.011189,-0.15423,0.15302,-1.2408,-0.35691,0.40668,0.02,0.22,0.08,93.58
16657,6.0757e+07,1,0.23,4.08,5.39,-0.20006,-0.010819,-0.15212,0.14812,-1.2418,-0.3569,0.40854,0.02,0.22,0.08,93.58
16697,6.0767e+07,1,0.23,4.08,5.38,-0.20256,-0.010732,-0.15041,0.14696,-1.2438,-0.357,0.40703,0.02,0.22,0.08,93.58
16740,6.0779e+07,1,0.22,4.08,5.38,-0.20459,-0.010169,-0.14788,0.14491,-1.2451,-0.357,0.40961,0.02,0.22,0.08,93.58
16777,6.0789e+07,1,0.23,4.08,5.39,-0.20305,-0.010122,-0.14639,0.13958,-1.2447,-0.35714,0.41282,0.02,0.22,0.08,93.58
16818,6.0798e+07,1,0.23,4.08,5.39,-0.2028,-0.0097127,-0.14717,0.13672,-1.2444,-0.35728,0.41575,0.02,0.22,0.08,93.58
16861,6.0809e+07,1,0.23,4.08,5.39,-0.20538,-0.010384,-0.14564,0.14365,-1.2467,-0.35738,0.41414,0.02,0.22,0.08,93.58
16901,6.0819e+07,1,0.22,4.08,5.39,-0.20575,-0.010006,-0.14298,0.14999,-1.2465,-0.35751,0.41689,0.02,0.22,0.08,93.58
16946,6.0829e+07,1,0.22,4.08,5.39,-0.20729,-0.0082056,-0.14263,0.14892,-1.2464,-0.35763,0.41947,0.02,0.22,0.08,93.58
16986,6.084e+07,1,0.22,4.08,5.39,-0.20735,-0.0093188,-0.14155,0.15095,-1.2465,-0.35774,0.42181,0.02,0.22,0.08,93.58
17027,6.085e+07,1,0.23,4.08,5.39,-0.20949,-0.0091674,-0.14063,0.15253,-1.2488,-0.35785,0.42024,0.02,0.22,0.08,93.58
17068,6.086e+07,1,0.22,4.08,5.39,-0.20997,-0.0087032,-0.13766,0.1501,-1.2489,-0.35796,0.42248,0.02,0.22,0.08,93.58
17106,6.087e+07,1,0.22,4.08,5.39,-0.21038,-0.0099527,-0.13464,0.14691,-1.2492,-0.35807,0.42456,0.02,0.22,0.08,93.58
17151,6.0883e+07,1,0.22,4.08,5.39,-0.21112,-0.010776,-0.13238,0.1461,-1.2501,-0.35822,0.42726,0.02,0.22,0.08,93.58
17192,6.0893e+07,1,0.22,4.08,5.39,-0.2111,-0.011196,-0.12952,0.147,-1.2506,-0.35835,0.43014,0.02,0.22,0.08,93.58
17233,6.0903e+07,1,0.22,4.08,5.4,-0.21285,-0.010459,-0.13046,0.15112,-1.2527,-0.35847,0.42884,0.02,0.22,0.08,93.58
17274,6.0913e+07,1,0.21,4.09,5.4,-0.21392,-0.010263,-0.12919,0.15508,-1.2533,-0.35859,0.43153,0.02,0.22,0.08,93.58
17315,6.0924e+07,1,0.21,4.09,5.4,-0.21458,-0.011251,-0.12776,0.15764,-1.2539,-0.35871,0.434,0.02,0.22,0.08,93.58
17361,6.0934e+07,1,0.21,4.09,5.4,-0.21566,-0.010638,-0.12689,0.15993,-1.2548,-0.35885,0.43617,0.02,0.22,0.08,93.58
17401,6.0944e+07,1,0.21,4.09,5.4,-0.21713,-0.011294,-0.12581,0.15931,-1.2557,-0.35897,0.43826,0.02,0.22,0.08,93.58
17442,6.0955e+07,1,0.21,4.1,5.39,-0.2195,-0.012429,-0.12436,0.16211,-1.2579,-0.35909,0.437,0.02,0.22,0.08,93.58
17479,6.0965e+07,1,0.21,4.1,5.39,-0.22028,-0.013035,-0.12233,0.16213,-1.2588,-0.35924,0.43895,0.02,0.22,0.08,93.58
17526,6.0977e+07,1,0.21,4.1,5.39,-0.22125,-0.012964,-0.12113,0.16427,-1.2605,-0.35942,0.44117,0.02,0.22,0.08,93.58
17564,6.0988e+07,1,0.21,4.11,5.4,-0.22155,-0.013288,-0.12112,0.16576,-1.2603,-0.35981,0.44374,0.02,0.22,0.08,93.58
17605,6.0999e+07,1,0.21,4.1,5.4,-0.22152,-0.013663,-0.11927,0.17082,-1.26,-0.36018,0.44622,0.02,0.22,0.08,93.58
17646,6.1008e+07,1,0.21,4.1,5.4,-0.22262,-0.014484,-0.11923,0.17277,-1.2599,-0.36054,0.4485,0.02,0.22,0.08,93.58
17688,6.1018e+07,1,0.2,4.1,5.4,-0.22241,-0.015443,-0.1177,0.17292,-1.2599,-0.36091,0.4506,0.02,0.22,0.08,93.58
17734,6.1028e+07,1,0.2,4.1,5.4,-0.22291,-0.015341,-0.11741,0.17066,-1.26,-0.36128,0.45251,0.02,0.22,0.08,93.58
17775,6.1039e+07,1,0.21,4.1,5.4,-0.22577,-0.014543,-0.11641,0.17072,-1.2625,-0.36144,0.45123,0.02,0.22,0.08,93.58
17816,6.105e+07,1,0.2,4.1,5.4,-0.22796,-0.015297,-0.11499,0.16708,-1.2627,-0.3618,0.45301,0.02,0.22,0.08,93.58
17856,6.106e+07,1,0.2,4.11,5.4,-0.22879,-0.015656,-0.11183,0.16281,-1.2633,-0.36217,0.45455,0.02,0.22,0.08,93.58
17899,6.1073e+07,1,0.2,4.11,5.4,-0.23104,-0.017332,-0.11046,0.1602,-1.2644,-0.36257,0.45666,0.02,0.22,0.08,93.58
17940,6.1084e+07,1,0.19,4.11,5.4,-0.23111,-0.017704,-0.10843,0.16202,-1.265,-0.36294,0.45892,0.02,0.22,0.08,93.58
17980,6.1094e+07,1,0.19,4.11,5.4,-0.23209,-0.016893,-0.10751,0.1582,-1.266,-0.3633,0.46091,0.02,0.22,0.08,93.58
18022,6.1104e+07,1,0.19,4.11,5.4,-0.23271,-0.016231,-0.10587,0.15384,-1.2667,-0.36364,0.46286,0.02,0.22,0.08,93.58
18063,6.1114e+07,1,0.2,4.11,5.4,-0.2348,-0.01523,-0.10601,0.15082,-1.2676,-0.36396,0.46463,0.02,0.22,0.08,93.58
18103,6.1125e+07,1,0.2,4.11,5.4,-0.23684,-0.017027,-0.10543,0.15011,-1.2702,-0.36414,0.46347,0.02,0.22,0.08,93.58
18149,6.1135e+07,1,0.2,4.12,5.4,-0.23799,-0.016165,-0.10453,0.14624,-1.2711,-0.36447,0.46511,0.02,0.22,0.08,93.58
18189,6.1145e+07,1,0.2,4.12,5.4,-0.24086,-0.015599,-0.10474,0.13526,-1.2735,-0.36463,0.46405,0.02,0.22,0.08,93.58
18231,6.1156e+07,1,0.2,4.12,5.4,-0.2421,-0.016576,-0.10357,0.12593,-1.2746,-0.36495,0.46563,0.02,0.22,0.08,93.58
18271,6.1166e+07,1,0.2,4.13,5.4,-0.24277,-0.01606,-0.1026,0.11606,-1.276,-0.36528,0.46695,0.02,0.22,0.08,93.58
18312,6.1176e+07,1,0.2,4.13,5.41,-0.24336,-0.015121,-0.1019,0.10791,-1.2772,-0.36558,0.46825,0.02,0.22,0.08,93.58
18354,6.1189e+07,1,0.2,4.12,5.41,-0.24261,-0.015226,-0.098701,0.10304,-1.2772,-0.36589,0.47097,0.02,0.22,0.08,93.58
18391,6.1199e+07,1,0.2,4.11,5.41,-0.2423,-0.014847,-0.096606,0.10775,-1.2767,-0.36613,0.4738,0.02,0.22,0.08,93.58
18433,6.1209e+07,1,0.19,4.11,5.41,-0.24479,-0.013644,-0.096001,0.11217,-1.2791,-0.36627,0.47283,0.02,0.22,0.08,93.58
18473,6.1219e+07,1,0.19,4.11,5.41,-0.245,-0.014337,-0.094016,0.11777,-1.2787,-0.36651,0.47553,0.02,0.22,0.08,93.58
18514,6.1229e+07,1,0.19,4.11,5.41,-0.24468,-0.014041,-0.090982,0.12277,-1.2784,-0.36673,0.47806,0.02,0.22,0.08,93.58
18561,6.1239e+07,1,0.19,4.11,5.41,-0.24415,-0.014871,-0.09151,0.12352,-1.2783,-0.36696,0.48042,0.02,0.22,0.08,93.58
18601,6.1249e+07,1,0.19,4.1,5.41,-0.24428,-0.015718,-0.090717,0.12932,-1.2783,-0.3672,0.48257,0.02,0.22,0.08,93.58
18642,6.126e+07,1,0.19,4.1,5.41,-0.24696,-0.014839,-0.091903,0.13558,-1.281,-0.36737,0.48157,0.02,0.22,0.08,93.58
18682,6.1271e+07,1,0.19,4.1,5.41,-0.24694,-0.014801,-0.08987,0.14015,-1.2811,-0.36759,0.48358,0.02,0.22,0.08,93.58
18723,6.1281e+07,1,0.19,4.1,5.42,-0.24668,-0.015906,-0.089192,0.14303,-1.2815,-0.36784,0.48614,0.02,0.22,0.08,93.58
18764,6.1291e+07,1,0.19,4.1,5.42,-0.24787,-0.015196,-0.089808,0.14814,-1.2818,-0.36806,0.48858,0.02,0.22,0.08,93.58
18805,6.1301e+07,1,0.2,4.1,5.41,-0.24725,-0.014361,-0.08721,0.15537,-1.2823,-0.36827,0.49084,0.02,0.23,0.08,93.58
18846,6.1311e+07,1,0.2,4.1,5.41,-0.24745,-0.015621,-0.086943,0.15729,-1.2828,-0.36849,0.49295,0.02,0.23,0.08,93.58
18886,6.1322e+07,1,0.2,4.1,5.41,-0.24979,-0.016602,-0.085966,0.16221,-1.2853,-0.36865,0.49208,0.02,0.23,0.08,93.58
18927,6.1331e+07,1,0.2,4.1,5.41,-0.24998,-0.018534,-0.084483,0.16409,-1.286,-0.36889,0.49405,0.02,0.22,0.08,93.58
18973,6.1342e+07,1,0.2,4.1,5.42,-0.25094,-0.018809,-0.082994,0.1635,-1.2869,-0.36915,0.4958,0.02,0.22,0.08,93.58
19014,6.1352e+07,1,0.2,4.1,5.41,-0.25103,-0.018018,-0.084033,0.15929,-1.2878,-0.36939,0.49747,0.02,0.23,0.08,93.58
19056,6.1362e+07,1,0.19,4.1,5.41,-0.25223,-0.018747,-0.082998,0.15487,-1.2887,-0.36963,0.499,0.02,0.23,0.08,93.58
19096,6.1373e+07,1,0.19,4.11,5.42,-0.25344,-0.020435,-0.083706,0.1499,-1.2898,-0.36987,0.5012,0.02,0.23,0.08,93.58
19137,6.1384e+07,1,0.19,4.11,5.42,-0.25533,-0.02031,-0.083738,0.14989,-1.2926,-0.37009,0.50028,0.02,0.23,0.08,93.58
19176,6.1394e+07,1,0.19,4.11,5.42,-0.25678,-0.019551,-0.082874,0.14828,-1.294,-0.37036,0.50225,0.02,0.23,0.08,93.58
19214,6.1404e+07,1,0.18,4.11,5.42,-0.25678,-0.018242,-0.082,0.1473,-1.2932,-0.37037,0.50468,0.02,0.23,0.08,93.58
19256,6.1414e+07,1,0.18,4.11,5.42,-0.25615,-0.018039,-0.081627,0.14969,-1.2926,-0.37037,0.5069,0.02,0.23,0.08,93.58
19296,6.1424e+07,1,0.18,4.1,5.42,-0.25599,-0.015943,-0.08089,0.15032,-1.292,-0.37037,0.50899,0.02,0.23,0.08,93.58
19337,6.1434e+07,1,0.19,4.1,5.42,-0.25568,-0.015621,-0.079341,0.15126,-1.2917,-0.37036,0.51091,0.02,0.23,0.08,93.58
19381,6.1445e+07,1,0.19,4.1,5.42,-0.25599,-0.015851,-0.077994,0.15337,-1.2917,-0.37036,0.51261,0.02,0.23,0.08,93.58
19422,6.1455e+07,1,0.19,4.1,5.42,-0.25855,-0.014837,-0.077836,0.15492,-1.2943,-0.37052,0.51182,0.02,0.23,0.08,93.58
19464,6.1465e+07,1,0.19,4.1,5.42,-0.25844,-0.015146,-0.077668,0.15313,-1.2942,-0.3705,0.51348,0.02,0.23,0.08,93.58
19505,6.1476e+07,1,0.2,4.09,5.42,-0.26127,-0.01425,-0.076728,0.14504,-1.297,-0.37066,0.51263,0.02,0.23,0.08,93.58
19546,6.1487e+07,1,0.2,4.09,5.42,-0.26068,-0.01315,-0.074413,0.13742,-1.2973,-0.37066,0.51416,0.02,0.23,0.08,93.58
19586,6.1497e+07,1,0.2,4.09,5.42,-0.26027,-0.01293,-0.074086,0.13079,-1.2974,-0.37063,0.51633,0.02,0.23,0.08,93.58
19627,6.1507e+07,1,0.2,4.09,5.42,-0.26026,-0.012466,-0.073706,0.12275,-1.2976,-0.3706,0.51836,0.02,0.23,0.08,93.58
19670,6.1518e+07,1,0.2,4.09,5.43,-0.2629,-0.013749,-0.072722,0.12066,-1.3005,-0.37074,0.51755,0.02,0.23,0.08,93.58
19711,6.1528e+07,1,0.19,4.08,5.43,-0.26404,-0.014331,-0.071974,0.11793,-1.3008,-0.37073,0.51946,0.02,0.23,0.08,93.58
19752,6.1538e+07,1,0.19,4.08,5.43,-0.26381,-0.014476,-0.0716,0.11598,-1.3013,-0.37073,0.52122,0.02,0.23,0.08,93.58
19796,6.1549e+07,1,0.19,4.08,5.43,-0.26494,-0.014923,-0.069157,0.1175,-1.3021,-0.37075,0.52276,0.02,0.23,0.08,93.58
19838,6.1559e+07,1,0.19,4.08,5.43,-0.26541,-0.01422,-0.068819,0.11641,-1.3028,-0.37075,0.52425,0.02,0.23,0.08,93.58
19878,6.1569e+07,1,0.18,4.08,5.43,-0.2672,-0.015358,-0.068194,0.11426,-1.3055,-0.3709,0.52356,0.02,0.23,0.08,93.58
19922,6.1579e+07,1,0.18,4.08,5.43,-0.26856,-0.015161,-0.06729,0.11187,-1.3063,-0.37092,0.52495,0.02,0.23,0.08,93.58
19956,6.1591e+07,1,0.18,4.08,5.43,-0.26774,-0.013179,-0.066239,0.11188,-1.3057,-0.37099,0.52655,0.02,0.23,0.08,93.58
19996,6.1601e+07,1,0.19,4.08,5.43,-0.2678,-0.012088,-0.065297,0.11242,-1.3047,-0.37103,0.52816,0.02,0.23,0.08,93.58
20037,6.1611e+07,1,0.19,4.07,5.43,-0.26917,-0.012098,-0.065023,0.10656,-1.3074,-0.37115,0.5275,0.02,0.23,0.08,93.58
20078,6.1622e+07,1,0.2,4.07,5.43,-0.26834,-0.01199,-0.065686,0.10019,-1.3065,-0.37118,0.52906,0.02,0.23,0.08,93.58
20118,6.1632e+07,1,0.19,4.08,5.43,-0.26761,-0.014084,-0.06715,0.094988,-1.3061,-0.37124,0.53039,0.02,0.23,0.08,93.58
20159,6.1643e+07,1,0.2,4.07,5.43,-0.26841,-0.014941,-0.065341,0.093743,-1.3056,-0.3713,0.53166,0.02,0.23,0.08,93.58
20206,6.1653e+07,1,0.2,4.08,5.43,-0.26782,-0.015227,-0.064226,0.090899,-1.3052,-0.37137,0.53282,0.02,0.23,0.08,93.58
20249,6.1663e+07,1,0.19,4.08,5.43,-0.27012,-0.015322,-0.064422,0.086365,-1.3081,-0.37153,0.53213,0.02,0.23,0.08,93.58
20290,6.1673e+07,1,0.2,4.08,5.44,-0.26988,-0.01604,-0.06314,0.081245,-1.3078,-0.37161,0.53324,0.02,0.23,0.08,93.58
20330,6.1684e+07,1,0.19,4.08,5.44,-0.27085,-0.015371,-0.063222,0.073586,-1.3105,-0.37176,0.5326,0.02,0.23,0.08,93.58
20371,6.1693e+07,1,0.19,4.07,5.45,-0.27061,-0.015058,-0.062664,0.067247,-1.3103,-0.37183,0.53365,0.02,0.23,0.08,93.58
20411,6.1703e+07,1,0.19,4.07,5.45,-0.27119,-0.015153,-0.062754,0.062602,-1.3103,-0.3719,0.53458,0.02,0.23,0.08,93.58
20453,6.1713e+07,1,0.19,4.07,5.45,-0.2712,-0.015371,-0.060191,0.062053,-1.3104,-0.37198,0.53594,0.02,0.23,0.08,93.58
20493,6.1724e+07,1,0.18,4.06,5.45,-0.27356,-0.015192,-0.059261,0.058334,-1.3134,-0.37214,0.53528,0.02,0.23,0.08,93.58
20534,6.1734e+07,1,0.18,4.06,5.45,-0.27456,-0.014752,-0.058351,0.055645,-1.3136,-0.37222,0.53657,0.02,0.23,0.08,93.58
20575,6.1744e+07,1,0.19,4.06,5.45,-0.27603,-0.014857,-0.056736,0.055306,-1.314,-0.37229,0.53777,0.02,0.23,0.08,93.58
20620,6.1754e+07,1,0.19,4.07,5.45,-0.27697,-0.014285,-0.055692,0.054316,-1.3144,-0.37236,0.53887,0.02,0.23,0.08,93.58
20661,6.1764e+07,1,0.19,4.07,5.45,-0.27679,-0.015079,-0.055734,0.052751,-1.315,-0.37244,0.53984,0.02,0.23,0.08,93.58
20702,6.1775e+07,1,0.19,4.07,5.45,-0.27908,-0.013885,-0.057679,0.050887,-1.3181,-0.3726,0.53922,0.02,0.23,0.08,93.58
20745,6.1786e+07,1,0.19,4.06,5.46,-0.27996,-0.015084,-0.056383,0.050746,-1.3188,-0.37267,0.5401,0.02,0.23,0.08,93.58
20780,6.1797e+07,1,0.19,4.06,5.46,-0.27762,-0.013965,-0.057508,0.048955,-1.3179,-0.37279,0.54134,0.02,0.23,0.08,93.58
20820,6.1807e+07,1,0.19,4.07,5.45,-0.27591,-0.014193,-0.056679,0.051241,-1.3166,-0.37287,0.54256,0.02,0.23,0.08,93.58
20862,6.1817e+07,1,0.19,4.07,5.45,-0.27355,-0.013541,-0.057787,0.051693,-1.3155,-0.37295,0.54367,0.02,0.23,0.08,93.58
20903,6.1827e+07,1,0.19,4.07,5.45,-0.27258,-0.013262,-0.056975,0.053077,-1.3145,-0.37303,0.54466,0.02,0.23,0.08,93.58
20943,6.1837e+07,1,0.19,4.07,5.45,-0.27419,-0.01234,-0.056394,0.055653,-1.3172,-0.37316,0.5441,0.02,0.23,0.08,93.58
20985,6.1848e+07,1,0.19,4.07,5.44,-0.27603,-0.012555,-0.055467,0.056497,-1.3167,-0.37324,0.54495,0.02,0.23,0.08,93.58
21029,6.1858e+07,1,0.19,4.07,5.44,-0.2763,-0.011923,-0.054711,0.054923,-1.316,-0.37331,0.54579,0.02,0.23,0.08,93.58
21071,6.1868e+07,1,0.19,4.07,5.44,-0.27601,-0.011885,-0.054243,0.053101,-1.3156,-0.37337,0.54653,0.02,0.23,0.08,93.58
21113,6.1879e+07,1,0.19,4.07,5.44,-0.27888,-0.01235,-0.053273,0.053043,-1.3183,-0.37349,0.54599,0.02,0.23,0.08,93.58
21153,6.1888e+07,1,0.18,4.07,5.44,-0.27874,-0.011507,-0.053014,0.051081,-1.318,-0.37356,0.54666,0.02,0.23,0.08,93.58
21197,6.1901e+07,1,0.18,4.07,5.43,-0.27743,-0.010154,-0.052698,0.049793,-1.3187,-0.37365,0.54763,0.02,0.23,0.08,93.58
21237,6.1911e+07,1,0.18,4.07,5.44,-0.27779,-0.0093764,-0.051032,0.050965,-1.3186,-0.3737,0.54867,0.02,0.23,0.08,93.58
21279,6.1922e+07,1,0.19,4.06,5.44,-0.27815,-0.0089128,-0.049853,0.051379,-1.3187,-0.37374,0.54961,0.02,0.23,0.08,93.58
21319,6.1932e+07,1,0.18,4.06,5.44,-0.27797,-0.0086327,-0.048815,0.051505,-1.3192,-0.37379,0.55044,0.02,0.23,0.08,93.58
21360,6.1943e+07,1,0.19,4.06,5.44,-0.27778,-0.0091628,-0.048807,0.051635,-1.3196,-0.37383,0.55118,0.02,0.23,0.08,93.58
21400,6.1953e+07,1,0.18,4.06,5.43,-0.28015,-0.0092374,-0.04757,0.053767,-1.3222,-0.37392,0.55073,0.02,0.23,0.08,93.58
21446,6.1963e+07,1,0.19,4.06,5.43,-0.28062,-0.0087216,-0.046962,0.053601,-1.3228,-0.37397,0.55139,0.02,0.23,0.08,93.58
21489,6.1979e+07,1,0.18,4.07,5.43,-0.28201,-0.0089346,-0.047523,0.04696,-1.3232,-0.37387,0.55232,0.02,0.23,0.08,93.58
21529,6.1989e+07,1,0.18,4.07,5.43,-0.28133,-0.0085083,-0.046424,0.0455,-1.3218,-0.37371,0.55349,0.02,0.23,0.08,93.58
21570,6.1999e+07,1,0.18,4.06,5.43,-0.2797,-0.0083642,-0.04757,0.044911,-1.3206,-0.37355,0.55515,0.02,0.23,0.08,93.58
21612,6.2011e+07,1,0.18,4.06,5.43,-0.28208,-0.0083148,-0.048773,0.049441,-1.3237,-0.37364,0.55462,0.02,0.23,0.08,93.58
21654,6.2021e+07,1,0.18,4.06,5.43,-0.28107,-0.0072515,-0.046457,0.056357,-1.3227,-0.37349,0.55615,0.02,0.23,0.08,93.58
21695,6.2031e+07,1,0.18,4.06,5.43,-0.2796,-0.0065202,-0.044645,0.065338,-1.3221,-0.37333,0.55752,0.02,0.23,0.08,93.58
21736,6.2041e+07,1,0.18,4.05,5.43,-0.27947,-0.0060973,-0.043457,0.071743,-1.3214,-0.37318,0.55884,0.02,0.23,0.08,93.58
21777,6.2052e+07,1,0.18,4.05,5.42,-0.27839,-0.0059714,-0.042925,0.074259,-1.3208,-0.37303,0.56008,0.02,0.23,0.08,93.58
21821,6.2062e+07,1,0.18,4.05,5.42,-0.27869,-0.0059208,-0.040663,0.07989,-1.3207,-0.37289,0.56117,0.02,0.23,0.08,93.58
21862,6.2073e+07,1,0.18,4.05,5.42,-0.2807,-0.0072964,-0.04249,0.081625,-1.3235,-0.37295,0.56075,0.02,0.23,0.08,93.58
21902,6.2083e+07,1,0.18,4.05,5.41,-0.2821,-0.0059809,-0.039643,0.086021,-1.3236,-0.37283,0.56175,0.02,0.23,0.08,93.58
21947,6.2095e+07,1,0.18,4.04,5.41,-0.28215,-0.0058196,-0.037201,0.089664,-1.3241,-0.37271,0.56263,0.02,0.23,0.08,93.58
21991,6.2108e+07,1,0.19,4.04,5.41,-0.28343,-0.0057682,-0.03524,0.091917,-1.3249,-0.37259,0.56376,0.02,0.23,0.09,93.58
22033,6.2118e+07,1,0.19,4.04,5.41,-0.28387,-0.0071923,-0.034513,0.09256,-1.3251,-0.37247,0.56491,0.02,0.23,0.09,93.58
22073,6.2128e+07,1,0.19,4.04,5.42,-0.28523,-0.0069336,-0.033472,0.093108,-1.3255,-0.37237,0.56597,0.02,0.23,0.09,93.58
22114,6.2139e+07,1,0.19,4.04,5.41,-0.28466,-0.0083367,-0.032548,0.093542,-1.3263,-0.37228,0.5669,0.02,0.24,0.09,93.58
22156,6.215e+07,1,0.19,4.04,5.42,-0.28482,-0.0079134,-0.031181,0.092895,-1.3269,-0.3722,0.56778,0.02,0.24,0.09,93.58
22196,6.216e+07,1,0.2,4.04,5.42,-0.28528,-0.0099154,-0.03015,0.090792,-1.3279,-0.37214,0.56857,0.02,0.24,0.09,93.58
22241,6.2171e+07,1,0.19,4.04,5.42,-0.28678,-0.0097741,-0.028276,0.09026,-1.3307,-0.37224,0.56828,0.02,0.24,0.09,93.58
22283,6.2181e+07,1,0.19,4.04,5.42,-0.28809,-0.010294,-0.028201,0.086565,-1.3316,-0.37219,0.56905,0.02,0.24,0.09,93.58
22317,6.2191e+07,1,0.19,4.04,5.42,-0.28623,-0.010935,-0.02663,0.085632,-1.3304,-0.37203,0.57011,0.02,0.24,0.09,93.58
22358,6.2202e+07,1,0.18,4.04,5.42,-0.2839,-0.012262,-0.023472,0.086389,-1.3291,-0.37188,0.57115,0.02,0.24,0.09,93.58
22402,6.2215e+07,1,0.18,4.04,5.42,-0.28289,-0.012543,-0.021567,0.084333,-1.3291,-0.3718,0.57272,0.02,0.24,0.09,93.58
22443,6.2226e+07,1,0.19,4.04,5.42,-0.28224,-0.011339,-0.022403,0.084144,-1.3284,-0.37169,0.57425,0.02,0.24,0.09,93.58
22485,6.2236e+07,1,0.19,4.04,5.43,-0.2809,-0.0097998,-0.020554,0.086559,-1.3276,-0.37156,0.57569,0.02,0.24,0.09,93.58
22525,6.2247e+07,1,0.19,4.03,5.43,-0.28322,-0.011386,-0.01936,0.090832,-1.3307,-0.37168,0.57548,0.02,0.24,0.09,93.58
22566,6.2257e+07,1,0.19,4.03,5.43,-0.28214,-0.010954,-0.018758,0.090277,-1.33,-0.37156,0.57689,0.02,0.24,0.09,93.58
22611,6.2267e+07,1,0.19,4.03,5.43,-0.28211,-0.011266,-0.018149,0.089808,-1.3295,-0.37144,0.57821,0.02,0.24,0.09,93.58
22651,6.2277e+07,1,0.2,4.03,5.43,-0.28412,-0.010476,-0.018433,0.090755,-1.3323,-0.37155,0.57803,0.02,0.24,0.09,93.58
22693,6.2287e+07,1,0.19,4.03,5.43,-0.28411,-0.011451,-0.016376,0.091949,-1.3319,-0.37145,0.57929,0.02,0.24,0.09,93.58
22733,6.2297e+07,1,0.19,4.03,5.43,-0.28385,-0.010401,-0.014818,0.092237,-1.3317,-0.37135,0.58047,0.02,0.24,0.09,93.58
22774,6.2307e+07,1,0.19,4.03,5.43,-0.28438,-0.010801,-0.013389,0.092469,-1.3316,-0.37126,0.58158,0.02,0.24,0.09,93.58
22811,6.2318e+07,1,0.2,4.02,5.43,-0.28703,-0.010482,-0.012796,0.092545,-1.3319,-0.37118,0.583,0.02,0.24,0.09,93.58
