LineNo,TimeUS,C,Roll,Pitch,Yaw,VN,VE,VD,dPD,PN,PE,PD,GX,GY,GZ,OH
1003,56703210,1,0.23,3.7,5.52,-0.3569061,-0.02766367,-0.08533016,-0.01904916,-1.12432,-0.306328,0.6546175,0.02,0.19,0.06,93.58
1485,56895150,1,0.22,3.75,5.53,-0.3759595,-0.03082251,-0.5470161,-0.4364164,-1.135452,-0.306328,0.6043838,0.02,0.18,0.05,93.58
1527,56905036,1,0.22,3.75,5.53,-0.3748885,-0.03179639,-0.5458475,-0.4352887,-1.135452,-0.306328,0.6003399,0.02,0.18,0.06,93.58
1567,56915114,1,0.23,3.75,5.52,-0.3739374,-0.03080062,-0.5464191,-0.4386317,-1.135452,-0.306328,0.5961873,0.02,0.18,0.06,93.58
1612,56925171,1,0.23,3.76,5.52,-0.3762892,-0.03023557,-0.5461153,-0.4386033,-1.135452,-0.306328,0.5906979,0.02,0.18,0.06,93.58
1653,56935806,1,0.23,3.76,5.52,-0.3774146,-0.03098413,-0.5469077,-0.44068,-1.135452,-0.306328,0.5858186,0.02,0.18,0.06,93.58
1693,56945557,1,0.23,3.76,5.51,-0.3767314,-0.03183076,-0.5478208,-0.4441302,-1.135452,-0.306328,0.5814804,0.02,0.18,0.06,93.58
1735,56955651,1,0.23,3.76,5.51,-0.3758845,-0.03085948,-0.5488008,-0.4480157,-1.135452,-0.306328,0.5769789,0.02,0.18,0.06,93.58
1781,56969645,1,0.23,3.76,5.5,-0.3747501,-0.03202372,-0.5476221,-0.4466228,-1.135452,-0.306328,0.571208,0.02,0.18,0.06,93.58
1821,56980132,1,0.23,3.76,5.5,-0.3735631,-0.0315496,-0.5463074999999999,-0.4423709,-1.135452,-0.3143893,0.5676055,0.02,0.18,0.06,93.58
1863,56990676,1,0.23,3.76,5.49,-0.3750617,-0.03203963,-0.5467485,-0.4393601,-1.135452,-0.3143893,0.5621251,0.02,0.18,0.06,93.58
1903,57000625,1,0.23,3.75,5.49,-0.3744512,-0.0327806,-0.5462373,-0.4357213,-1.135452,-0.3143893,0.5584258,0.02,0.18,0.06,93.58
1944,57010674,1,0.24,3.75,5.49,-0.3738835,-0.03335411,-0.5480754,-0.4340768,-1.135452,-0.3143893,0.5545821,0.02,0.18,0.06,93.58
1984,57020914,1,0.23,3.75,5.48,-0.3740198,-0.03345788,-0.5481387,-0.4331147,-1.135452,-0.3143893,0.5501112,0.02,0.18,0.06,93.58
2029,57031566,1,0.23,3.75,5.47,-0.3760257,-0.0335957,-0.5477734,-0.4299957,-1.135452,-0.3143893,0.5446339,0.02,0.18,0.06,93.58
2070,57041683,1,0.23,3.75,5.46,-0.3758323,-0.0337761,-0.548779,-0.4292992,-1.135452,-0.3143893,0.5400625999999999,0.02,0.18,0.06,93.58
2113,57051669,1,0.22,3.75,5.45,-0.3754479,-0.03381823,-0.5492035,-0.4289793,-1.135452,-0.3143893,0.5360125,0.02,0.18,0.06,93.58
2158,57064510,1,0.22,3.75,5.45,-0.3778845,-0.03474087,-0.5499167,-0.4289757,-1.135452,-0.3143893,0.5307199,0.02,0.19,0.06,93.58
2198,57074442,1,0.22,3.75,5.44,-0.3772856,-0.03434495,-0.5497916,-0.4293658,-1.135452,-0.3143893,0.5266527,0.02,0.19,0.06,93.58
2239,57085116,1,0.22,3.75,5.44,-0.3778777,-0.03456701,-0.5504163,-0.4292712,-1.135452,-0.3143893,0.5219895,0.02,0.19,0.06,93.58
2279,57095903,1,0.22,3.75,5.44,-0.3800986,-0.03515039,-0.5509568,-0.429796,-1.135452,-0.3143893,0.5159019,0.02,0.19,0.06,93.58
2321,57106357,1,0.22,3.75,5.44,-0.3798919,-0.03524392,-0.5502811,-0.4304378,-1.135452,-0.3143893,0.5117368,0.02,0.19,0.06,93.58
2362,57116324,1,0.22,3.74,5.43,-0.3794538,-0.03608627,-0.5507767,-0.4323952,-1.135452,-0.3143893,0.5074324,0.02,0.19,0.06,93.58
2402,57126119,1,0.22,3.74,5.43,-0.3786234,-0.03616302,-0.5496162,-0.4335522,-1.135452,-0.3143893,0.5031111,0.02,0.19,0.06,93.58
2447,57136194,1,0.22,3.74,5.43,-0.3784745,-0.0361716,-0.5499724,-0.4364167,-1.135452,-0.3143893,0.4986937,0.02,0.19,0.06,93.58
2487,57146607,1,0.22,3.74,5.43,-0.3801552,-0.03519266,-0.5487537,-0.4368109,-1.135452,-0.3143893,0.4930978,0.02,0.19,0.06,93.58
2529,57156620,1,0.22,3.74,5.42,-0.3803081,-0.03643493,-0.5482831,-0.4389482,-1.135452,-0.3143893,0.4887379,0.02,0.19,0.06,93.58
2570,57166638,1,0.22,3.74,5.42,-0.3804442,-0.03728803,-0.5476949,-0.4413859,-1.135452,-0.3143893,0.4842252,0.02,0.19,0.06,93.58
2606,57177352,1,0.22,3.73,5.42,-0.380055,-0.03720183,-0.5468987,-0.4439277,-1.135452,-0.3143893,0.4796611,0.02,0.19,0.06,93.58
2648,57187839,1,0.22,3.73,5.41,-0.3785563,-0.03727657,-0.5443473,-0.442289,-1.146584,-0.3143893,0.4750268,0.02,0.19,0.06,93.58
2688,57198124,1,0.22,3.73,5.41,-0.3772526,-0.03761213,-0.5432655,-0.4423932,-1.146584,-0.3143893,0.470848,0.02,0.19,0.06,93.58
2730,57208949,1,0.22,3.74,5.41,-0.3769019,-0.03729702,-0.5422292,-0.4412338,-1.146584,-0.3143893,0.4660864,0.02,0.19,0.06,93.58
2770,57219655,1,0.22,3.74,5.41,-0.3804025,-0.03687181,-0.5430499,-0.4412954,-1.146584,-0.3143893,0.4601367,0.02,0.19,0.06,93.58
2811,57230561,1,0.22,3.74,5.4,-0.3803926,-0.03655681,-0.5437807,-0.4427284,-1.146584,-0.3143893,0.4558183,0.02,0.19,0.06,93.58
2858,57240366,1,0.22,3.74,5.4,-0.3798621,-0.03661058,-0.5450002,-0.4449009,-1.146584,-0.3143893,0.4514334,0.02,0.19,0.06,93.58
2899,57250659,1,0.21,3.74,5.4,-0.3798319,-0.03688266,-0.5475432,-0.4492156,-1.146584,-0.3143893,0.4464905,0.02,0.19,0.06,93.58
2940,57260616,1,0.21,3.74,5.4,-0.3786832,-0.0377168,-0.5484154999999999,-0.4526202,-1.146584,-0.3143893,0.4419852,0.02,0.19,0.06,93.58
2984,57274644,1,0.21,3.74,5.4,-0.3778119,-0.03760374,-0.5466015,-0.4518698,-1.146584,-0.3143893,0.4362943,0.02,0.19,0.06,93.58
3025,57284914,1,0.22,3.74,5.4,-0.3770406,-0.03747503,-0.5457604,-0.452014,-1.146584,-0.3143893,0.4316987,0.02,0.19,0.06,93.58
3065,57295365,1,0.22,3.74,5.4,-0.3775541,-0.03825769,-0.5441431,-0.4491654,-1.146584,-0.3143893,0.4262441,0.02,0.19,0.06,93.58
3107,57305571,1,0.22,3.73,5.4,-0.3780357,-0.03868779,-0.5430623999999999,-0.448504,-1.146584,-0.3143893,0.4221232,0.02,0.19,0.06,93.58
3148,57315557,1,0.22,3.73,5.4,-0.3771236,-0.03926218,-0.5427662,-0.4500113,-1.146584,-0.3143893,0.4179459,0.02,0.19,0.06,93.58
3188,57325702,1,0.22,3.73,5.4,-0.3773998,-0.03839922,-0.5417882000000001,-0.4491897,-1.146584,-0.3143893,0.4131351,0.02,0.19,0.06,93.58
3233,57336127,1,0.22,3.73,5.4,-0.3789992,-0.03908559,-0.5422673,-0.4487729,-1.146584,-0.3143893,0.4077527,0.02,0.19,0.06,93.58
3274,57346144,1,0.22,3.73,5.4,-0.378465,-0.03879062,-0.5427748,-0.4493246,-1.146584,-0.3143893,0.4034372,0.02,0.19,0.06,93.58
3316,57356658,1,0.22,3.73,5.4,-0.3777913,-0.03951554,-0.5426459,-0.4487124,-1.146584,-0.3143893,0.3985104,0.02,0.19,0.06,93.58
3357,57367104,1,0.22,3.73,5.41,-0.3770628,-0.04029167,-0.542933,-0.449598,-1.146584,-0.3143893,0.3940736,0.02,0.19,0.06,93.58
3398,57377573,1,0.22,3.73,5.41,-0.3770733,-0.04233564,-0.5425994,-0.4491897,-1.146584,-0.3143893,0.3904181,0.02,0.2,0.06,93.58
3438,57388381,1,0.22,3.73,5.4,-0.3771593,-0.04273518,-0.5404741,-0.4425483,-1.157716,-0.3143893,0.3870946,0.02,0.2,0.06,93.58
3479,57398531,1,0.22,3.73,5.4,-0.3763772,-0.04294723,-0.5393296,-0.4355412,-1.157716,-0.3143893,0.3837581,0.02,0.2,0.06,93.58
3520,57409123,1,0.21,3.73,5.4,-0.3779297,-0.04318394,-0.538233,-0.4250923,-1.157716,-0.3143893,0.3779049,0.02,0.2,0.06,93.58
3562,57419052,1,0.22,3.73,5.4,-0.376504,-0.04180308,-0.5361302999999999,-0.4178556,-1.157716,-0.3143893,0.374476,0.02,0.2,0.06,93.58
3602,57428880,1,0.22,3.73,5.4,-0.3757389,-0.04227585,-0.5341823,-0.4106531,-1.157716,-0.3143893,0.3709985,0.02,0.2,0.06,93.58
3647,57438880,1,0.22,3.73,5.4,-0.3760462,-0.04241639,-0.5356476,-0.4081672,-1.157716,-0.3143893,0.3673931,0.02,0.2,0.06,93.58
3688,57449933,1,0.21,3.73,5.41,-0.3779571,-0.04286253,-0.5356287,-0.4024662,-1.157716,-0.3143893,0.361501,0.02,0.2,0.06,93.58
3729,57460695,1,0.21,3.73,5.41,-0.37887,-0.04306223,-0.5354714,-0.3991024,-1.157716,-0.3143893,0.3572888,0.02,0.2,0.06,93.58
3770,57471436,1,0.21,3.73,5.41,-0.3797469,-0.04495727,-0.5337498000000001,-0.3944917,-1.157716,-0.3143893,0.3535309,0.02,0.2,0.06,93.58
3810,57481840,1,0.2,3.74,5.41,-0.3808026,-0.04487041,-0.5346792,-0.3913082,-1.157716,-0.3143893,0.3504574,0.02,0.2,0.06,93.58
3851,57491705,1,0.21,3.73,5.41,-0.3798944,-0.04488086,-0.5328588,-0.3832355,-1.157716,-0.3143893,0.3477545,0.02,0.2,0.06,93.58
3892,57501879,1,0.21,3.73,5.41,-0.3814595,-0.04527216,-0.5333015,-0.3771866,-1.157716,-0.3143893,0.3424106,0.02,0.2,0.06,93.58
3933,57511716,1,0.21,3.73,5.41,-0.3806902,-0.04545918,-0.5338549,-0.3708537,-1.157716,-0.3143893,0.3396296,0.02,0.2,0.06,93.58
3973,57522418,1,0.21,3.73,5.41,-0.3797121,-0.04574546,-0.5331547,-0.3641586,-1.157716,-0.3143893,0.336724,0.02,0.2,0.06,93.58
4014,57532335,1,0.21,3.73,5.41,-0.3800175,-0.04564935,-0.5331306,-0.3617829,-1.157716,-0.3143893,0.3337547,0.02,0.2,0.06,93.58
4063,57542645,1,0.21,3.73,5.41,-0.3809795,-0.04662431,-0.5309453,-0.3546489,-1.157716,-0.3143893,0.3300323,0.02,0.2,0.06,93.58
4104,57553745,1,0.21,3.73,5.42,-0.3826878,-0.04667242,-0.5331934,-0.3514123,-1.157716,-0.3143893,0.3247372,0.02,0.2,0.06,93.58
4145,57563876,1,0.21,3.73,5.42,-0.3832528,-0.04668004,-0.5318027,-0.3467232,-1.157716,-0.3143893,0.3209126,0.02,0.2,0.06,93.58
4187,57573940,1,0.21,3.73,5.42,-0.3836112,-0.04630107,-0.5318217,-0.3432551,-1.157716,-0.3143893,0.317526,0.02,0.2,0.06,93.58
4229,57584611,1,0.21,3.73,5.42,-0.3847385,-0.04722316,-0.5292892,-0.3437281,-1.157716,-0.3143893,0.3122488,0.02,0.2,0.06,93.58
4269,57595006,1,0.22,3.73,5.42,-0.3848339,-0.0478506,-0.5282515,-0.3489194,-1.157716,-0.3143893,0.3083547,0.02,0.2,0.06,93.58
4310,57605103,1,0.22,3.74,5.42,-0.3836075,-0.04704349,-0.5280982,-0.3524742,-1.157716,-0.3143893,0.3056656,0.02,0.2,0.06,93.58
4350,57615660,1,0.21,3.73,5.42,-0.3837412,-0.04762664,-0.5279239999999999,-0.354335,-1.157716,-0.3143893,0.3003358,0.02,0.2,0.06,93.58
4391,57625619,1,0.22,3.73,5.41,-0.3836274,-0.04701589,-0.5265489,-0.3541423,-1.157716,-0.3143893,0.2974712,0.02,0.2,0.06,93.58
4433,57635629,1,0.22,3.73,5.42,-0.3833531,-0.04599562,-0.5271859,-0.3527015,-1.157716,-0.3143893,0.2944828,0.02,0.2,0.06,93.58
4477,57645715,1,0.22,3.73,5.42,-0.3851773,-0.04680803,-0.5273293999999999,-0.3558578,-1.157716,-0.3143893,0.2887267,0.02,0.2,0.06,93.58
4518,57656632,1,0.22,3.73,5.42,-0.384915,-0.04688274,-0.5264470999999999,-0.3576033,-1.157716,-0.3143893,0.2856492,0.02,0.2,0.06,93.58
4558,57666591,1,0.22,3.73,5.42,-0.3841529,-0.04656044,-0.5259684,-0.3584956,-1.157716,-0.3143893,0.2824759,0.02,0.2,0.06,93.58
4599,57676522,1,0.22,3.73,5.42,-0.3841357,-0.04585536,-0.5266315,-0.3609975,-1.157716,-0.3143893,0.279201,0.02,0.2,0.06,93.58
4643,57689073,1,0.22,3.73,5.42,-0.384554,-0.04611741,-0.5253865,-0.3628712,-1.157716,-0.3143893,0.274275,0.02,0.2,0.06,93.58
4684,57699549,1,0.22,3.73,5.42,-0.3861954,-0.04702424,-0.5260328,-0.3643647,-1.157716,-0.3143893,0.2689995,0.02,0.2,0.06,93.58
4721,57710864,1,0.21,3.74,5.42,-0.3864811,-0.04684747,-0.5255,-0.3620665,-1.157716,-0.3143893,0.2666396,0.02,0.2,0.06,93.58
4761,57721646,1,0.21,3.74,5.42,-0.3865141,-0.04645196,-0.5235308,-0.3519651,-1.157716,-0.3143893,0.2640445,0.02,0.2,0.06,93.58
4801,57731849,1,0.21,3.74,5.42,-0.3855426,-0.04642789,-0.5224218,-0.3421125,-1.157716,-0.3143893,0.2614124,0.02,0.2,0.06,93.58
4844,57741807,1,0.21,3.74,5.41,-0.3843405,-0.04685617,-0.5204623,-0.3316429,-1.157716,-0.3143893,0.2590358,0.02,0.2,0.06,93.58
4888,57751922,1,0.21,3.74,5.42,-0.3841055,-0.04727129,-0.5195146,-0.324326,-1.157716,-0.3143893,0.2566372,0.02,0.2,0.06,93.58
4929,57762276,1,0.21,3.74,5.42,-0.3861512,-0.0475779,-0.5205365,-0.3163291,-1.157716,-0.3143893,0.2514381,0.02,0.2,0.06,93.58
4969,57772887,1,0.21,3.73,5.42,-0.38683,-0.04741716,-0.5203154,-0.3096121,-1.157716,-0.3143893,0.2483135,0.02,0.2,0.06,93.58
5012,57783577,1,0.21,3.73,5.42,-0.3857419,-0.04656487,-0.5200536,-0.3037255,-1.17998,-0.3143893,0.2455811,0.02,0.2,0.06,93.58
5050,57794257,1,0.21,3.73,5.42,-0.3857726,-0.04668167,-0.5191289,-0.2966633,-1.17998,-0.3143893,0.2437018,0.02,0.2,0.06,93.58
5090,57804354,1,0.21,3.73,5.42,-0.3859721,-0.04649542,-0.5163593,-0.2876293,-1.17998,-0.3143893,0.2421116,0.02,0.2,0.06,93.58
5131,57814435,1,0.21,3.73,5.42,-0.3848271,-0.04720183,-0.5156174,-0.2797998,-1.17998,-0.3143893,0.2403908,0.02,0.2,0.06,93.58
5172,57824934,1,0.22,3.73,5.42,-0.3865066,-0.04736595,-0.5162017,-0.2689489,-1.17998,-0.3143893,0.2347656,0.02,0.2,0.06,93.58
5213,57835144,1,0.22,3.72,5.42,-0.3858033,-0.04795859,-0.5172196999999999,-0.2632162,-1.17998,-0.3143893,0.2329023,0.02,0.2,0.06,93.58
5254,57845162,1,0.21,3.73,5.41,-0.385514,-0.04750786,-0.5184758,-0.2626273,-1.17998,-0.3143893,0.2308332,0.02,0.2,0.06,93.58
5299,57855646,1,0.22,3.72,5.41,-0.38623,-0.04675766,-0.5200787,-0.2622685,-1.17998,-0.3143893,0.2251607,0.02,0.2,0.06,93.58
5341,57866099,1,0.21,3.72,5.41,-0.3864029,-0.04633475,-0.5179237,-0.2594226,-1.17998,-0.3143893,0.222933,0.02,0.2,0.06,93.58
5381,57876010,1,0.21,3.73,5.41,-0.385983,-0.04669635,-0.5167137000000001,-0.2590457,-1.17998,-0.3143893,0.2206345,0.02,0.2,0.06,93.58
5423,57885998,1,0.21,3.73,5.41,-0.3867557,-0.04463803,-0.5139144,-0.2575123,-1.17998,-0.3143893,0.2181644,0.02,0.2,0.06,93.58
5463,57898931,1,0.21,3.73,5.41,-0.3861119,-0.04479026,-0.5114124,-0.2553833,-1.17998,-0.3143893,0.2155236,0.02,0.2,0.06,93.58
5504,57909359,1,0.21,3.73,5.41,-0.3854756,-0.04477292,-0.5085609,-0.2520704,-1.17998,-0.3143893,0.2142605,0.02,0.2,0.07000000000000001,93.58
5545,57919914,1,0.2,3.73,5.41,-0.3876927,-0.04476073,-0.507889,-0.2442008,-1.17998,-0.3143893,0.2086126,0.02,0.2,0.07000000000000001,93.58
5585,57929845,1,0.2,3.73,5.41,-0.3870916,-0.04460914,-0.5049457000000001,-0.2430394,-1.17998,-0.3143893,0.2072811,0.02,0.2,0.06,93.58
5626,57939940,1,0.2,3.73,5.41,-0.3889088,-0.04506371,-0.5051638000000001,-0.2438337,-1.17998,-0.3143893,0.2022243,0.02,0.2,0.06,93.58
5667,57949857,1,0.2,3.73,5.41,-0.3884359,-0.0455282,-0.5033320999999999,-0.2409623,-1.17998,-0.3143893,0.2007353,0.02,0.2,0.06,93.58
5712,57959906,1,0.21,3.73,5.41,-0.3883721,-0.0454827,-0.5034518,-0.2366289,-1.17998,-0.3143893,0.1989985,0.02,0.2,0.07000000000000001,93.58
5754,57970562,1,0.21,3.73,5.41,-0.3883092,-0.04521022,-0.503057,-0.2315526,-1.17998,-0.3143893,0.1971537,0.02,0.2,0.07000000000000001,93.58
5794,57980466,1,0.21,3.73,5.4,-0.3888113,-0.04585466,-0.5029834,-0.2323385,-1.17998,-0.3143893,0.1951033,0.02,0.2,0.07000000000000001,93.58
5837,57990609,1,0.21,3.73,5.4,-0.3896007,-0.04502614,-0.5020022,-0.2301801,-1.191112,-0.3224505,0.1929181,0.02,0.2,0.07000000000000001,93.58
5875,58003888,1,0.21,3.73,5.41,-0.3888631,-0.04518267,-0.4993779,-0.2257152,-1.191112,-0.3224505,0.1900942,0.02,0.2,0.07000000000000001,93.58
5915,58013901,1,0.21,3.73,5.41,-0.3882675,-0.04391452,-0.4977991,-0.2234287,-1.191112,-0.3224505,0.1890311,0.02,0.2,0.07000000000000001,93.58
5956,58024642,1,0.21,3.73,5.41,-0.3897075,-0.04451317,-0.4972107,-0.2159104,-1.191112,-0.3224505,0.1841211,0.02,0.2,0.07000000000000001,93.58
5999,58034651,1,0.21,3.73,5.41,-0.3892546,-0.04392856,-0.4962106,-0.2100354,-1.191112,-0.3224505,0.1828787,0.02,0.2,0.07000000000000001,93.58
6040,58044956,1,0.21,3.73,5.41,-0.3903013,-0.04303979,-0.4959233,-0.21357,-1.191112,-0.3224505,0.1774362,0.02,0.2,0.07000000000000001,93.58
6081,58054999,1,0.21,3.73,5.41,-0.3903073,-0.0424434,-0.4974596,-0.2214668,-1.191112,-0.3224505,0.1761489,0.02,0.2,0.07000000000000001,93.58
6125,58064958,1,0.21,3.72,5.41,-0.3893092,-0.04290262,-0.4962207,-0.228751,-1.191112,-0.3224505,0.1746852,0.02,0.2,0.07000000000000001,93.58
6167,58075631,1,0.21,3.72,5.41,-0.3906945,-0.04302311,-0.4960193,-0.2300556,-1.191112,-0.3224505,0.1696593,0.02,0.2,0.07000000000000001,93.58
6208,58085867,1,0.21,3.73,5.41,-0.3909468,-0.04331367,-0.4939355,-0.2301839,-1.191112,-0.3224505,0.1675727,0.02,0.2,0.07000000000000001,93.58
6248,58095861,1,0.21,3.73,5.41,-0.3915691,-0.04342135,-0.4924892,-0.2309659,-1.191112,-0.3224505,0.1658053,0.02,0.2,0.07000000000000001,93.58
6287,58106140,1,0.22,3.73,5.41,-0.3916075,-0.04408522,-0.4918959,-0.2339431,-1.191112,-0.3224505,0.1639128,0.02,0.2,0.07000000000000001,93.58
6327,58118898,1,0.22,3.73,5.41,-0.390818,-0.04186049,-0.4910486,-0.2335825,-1.191112,-0.3224505,0.1614706,0.02,0.2,0.07000000000000001,93.58
6368,58128936,1,0.22,3.74,5.41,-0.392404,-0.04215167,-0.4911016,-0.233246,-1.191112,-0.3224505,0.1565564,0.02,0.2,0.07000000000000001,93.58
6409,58139631,1,0.22,3.73,5.41,-0.3908912,-0.04296155,-0.4889566,-0.2304619,-1.191112,-0.3224505,0.1554046,0.02,0.2,0.07000000000000001,93.58
6450,58149996,1,0.22,3.73,5.41,-0.3897973,-0.04351206,-0.4862416,-0.2265563,-1.191112,-0.3224505,0.1536423,0.02,0.2,0.07000000000000001,93.58
6495,58159963,1,0.22,3.73,5.42,-0.3891199,-0.04382955,-0.4848876,-0.2234936,-1.191112,-0.3224505,0.1521908,0.02,0.2,0.07000000000000001,93.58
6537,58170023,1,0.22,3.73,5.42,-0.3882692,-0.04408725,-0.4822764,-0.2209374,-1.202244,-0.3305118,0.1506051,0.02,0.2,0.07000000000000001,93.58
6579,58180486,1,0.22,3.73,5.42,-0.3881429,-0.04457129,-0.4798939,-0.2151361,-1.202244,-0.3305118,0.1457766,0.02,0.2,0.07000000000000001,93.58
6620,58190558,1,0.22,3.73,5.42,-0.3866526,-0.04486557,-0.4789782,-0.2137554,-1.202244,-0.3305118,0.144047,0.02,0.2,0.07000000000000001,93.58
6661,58200568,1,0.22,3.73,5.43,-0.3862433,-0.04418298,-0.4799845,-0.212948,-1.202244,-0.3305118,0.1421765,0.02,0.2,0.07000000000000001,93.58
6699,58210841,1,0.23,3.73,5.42,-0.3858188,-0.04390259,-0.4795322,-0.2102002,-1.202244,-0.3305118,0.1412807,0.02,0.2,0.07000000000000001,93.58
6739,58220932,1,0.23,3.73,5.42,-0.3854917,-0.04271795,-0.4792575,-0.2049978,-1.202244,-0.3305118,0.1406063,0.02,0.2,0.07000000000000001,93.58
6780,58230889,1,0.23,3.73,5.42,-0.3846239,-0.04173449,-0.4781736,-0.2003205,-1.202244,-0.3305118,0.1398252,0.02,0.2,0.07000000000000001,93.58
6821,58241581,1,0.23,3.72,5.42,-0.3866068,-0.04222021,-0.4769386,-0.1903654,-1.202244,-0.3305118,0.1350729,0.02,0.2,0.07000000000000001,93.58
6862,58251576,1,0.22,3.72,5.42,-0.3859439,-0.04216443,-0.4772052,-0.185057,-1.202244,-0.3305118,0.1340495,0.02,0.2,0.07000000000000001,93.58
6907,58261616,1,0.22,3.72,5.42,-0.3853515,-0.04183064,-0.4755352,-0.1788526,-1.202244,-0.3305118,0.1329154,0.02,0.2,0.07000000000000001,93.58
6947,58271863,1,0.22,3.72,5.42,-0.3849289,-0.04105972,-0.4738037,-0.1718497,-1.202244,-0.3305118,0.1310417,0.02,0.2,0.07000000000000001,93.58
6989,58282436,1,0.23,3.72,5.42,-0.3847913,-0.0418104,-0.4721439,-0.1696134,-1.202244,-0.3305118,0.1295929,0.02,0.2,0.07000000000000001,93.58
7029,58292364,1,0.23,3.72,5.42,-0.3849888,-0.04138561,-0.4723147,-0.1709592,-1.202244,-0.3305118,0.127919,0.02,0.2,0.07000000000000001,93.58
7067,58305537,1,0.23,3.72,5.42,-0.3855759,-0.04054242,-0.4722078,-0.1692177,-1.202244,-0.3305118,0.1266577,0.02,0.21,0.07000000000000001,93.58
7110,58315694,1,0.23,3.72,5.43,-0.3861361,-0.04051431,-0.4714984,-0.1649893,-1.202244,-0.3305118,0.1265649,0.02,0.21,0.07000000000000001,93.58
7150,58326016,1,0.22,3.73,5.42,-0.3876988,-0.04016828,-0.471571,-0.1541672,-1.202244,-0.3305118,0.1213377,0.02,0.21,0.07000000000000001,93.58
7191,58336032,1,0.23,3.73,5.42,-0.3861274,-0.04075019,-0.47212,-0.146771,-1.202244,-0.3305118,0.1210927,0.02,0.21,0.07000000000000001,93.58
7231,58346588,1,0.22,3.73,5.42,-0.3846027,-0.04098714,-0.4715542,-0.1506283,-1.202244,-0.3305118,0.1205988,0.02,0.21,0.07000000000000001,93.58
7272,58356560,1,0.22,3.73,5.42,-0.3866473,-0.04001011,-0.4705901,-0.1469799,-1.202244,-0.3305118,0.1159145,0.02,0.21,0.07000000000000001,93.58
7317,58366613,1,0.22,3.73,5.42,-0.3875139,-0.03852545,-0.468704,-0.1442775,-1.202244,-0.3305118,0.1152412,0.02,0.21,0.07000000000000001,93.58
7360,58376593,1,0.22,3.73,5.42,-0.3874091,-0.03872257,-0.4670072,-0.1387559,-1.213375,-0.3385731,0.1144116,0.02,0.21,0.07000000000000001,93.58
7401,58386635,1,0.22,3.73,5.42,-0.390212,-0.03821496,-0.4687018,-0.1458826,-1.213375,-0.3385731,0.1097423,0.02,0.21,0.07000000000000001,93.58
7442,58396822,1,0.22,3.73,5.42,-0.3907895,-0.03781356,-0.4683187,-0.1521685,-1.213375,-0.3385731,0.1082818,0.02,0.2,0.07000000000000001,93.58
7485,58406722,1,0.21,3.73,5.42,-0.3901761,-0.03901223,-0.4682192,-0.1610785,-1.213375,-0.3385731,0.1070946,0.02,0.2,0.07000000000000001,93.58
7519,58417551,1,0.22,3.73,5.41,-0.3890813,-0.03910904,-0.4667795,-0.1632145,-1.213375,-0.3385731,0.1070674,0.02,0.21,0.07000000000000001,93.58
7559,58428007,1,0.22,3.73,5.41,-0.3894031,-0.0396054,-0.4651339,-0.1624388,-1.213375,-0.3385731,0.1072482,0.02,0.21,0.07000000000000001,93.58
7600,58438417,1,0.22,3.73,5.41,-0.3913919,-0.03911881,-0.4644988,-0.1536503,-1.213375,-0.3385731,0.1026222,0.02,0.21,0.07000000000000001,93.58
7641,58448564,1,0.22,3.73,5.41,-0.3924206,-0.03891196,-0.4629659,-0.1456171,-1.213375,-0.3385731,0.1025585,0.02,0.21,0.07000000000000001,93.58
7681,58459091,1,0.22,3.73,5.41,-0.3914067,-0.03972166,-0.4620032,-0.1337755,-1.213375,-0.3385731,0.1018534,0.02,0.21,0.07000000000000001,93.58
7727,58468966,1,0.22,3.73,5.41,-0.3908619,-0.04047916,-0.4611981,-0.1264316,-1.213375,-0.3385731,0.101398,0.02,0.21,0.07000000000000001,93.58
7768,58478942,1,0.22,3.74,5.41,-0.3915035,-0.0406125,-0.4605918,-0.1211019,-1.213375,-0.3385731,0.1007299,0.02,0.21,0.07000000000000001,93.58
7808,58488945,1,0.22,3.74,5.41,-0.3917246,-0.04084974,-0.4589141,-0.1188633,-1.213375,-0.3385731,0.09988755000000001,0.02,0.21,0.07000000000000001,93.58
7849,58499602,1,0.22,3.74,5.4,-0.3940664,-0.04135673,-0.4576143,-0.1143629,-1.213375,-0.3385731,0.09531894,0.02,0.21,0.07000000000000001,93.58
7890,58510570,1,0.22,3.74,5.4,-0.3927124,-0.04039188,-0.4557335,-0.110933,-1.213375,-0.3385731,0.09530519,0.02,0.21,0.07000000000000001,93.58
7928,58520943,1,0.23,3.74,5.4,-0.3923332,-0.04036625,-0.4547461,-0.1073749,-1.213375,-0.3385731,0.09509714,0.02,0.21,0.07000000000000001,93.58
7972,58531174,1,0.23,3.74,5.4,-0.3915876,-0.03953383,-0.4546868,-0.1039439,-1.213375,-0.3385731,0.09504345,0.02,0.21,0.07000000000000001,93.58
8012,58541632,1,0.22,3.74,5.4,-0.3904131,-0.03938453,-0.4561583,-0.1005747,-1.213375,-0.3385731,0.09482133,0.02,0.21,0.07000000000000001,93.58
8053,58551358,1,0.22,3.74,5.4,-0.389501,-0.03879379,-0.4566325,-0.09412768000000001,-1.213375,-0.3385731,0.09435193,0.02,0.21,0.07000000000000001,93.58
8093,58561630,1,0.22,3.75,5.39,-0.3893788,-0.0389944,-0.4536633,-0.08759947999999999,-1.213375,-0.3385731,0.09363361000000001,0.02,0.21,0.07000000000000001,93.58
8140,58572010,1,0.23,3.75,5.4,-0.3917173,-0.03893027,-0.4547682,-0.08425853,-1.213375,-0.3385731,0.08868846,0.02,0.21,0.07000000000000001,93.58
8184,58582026,1,0.22,3.75,5.39,-0.3909329,-0.03768219,-0.4532998,-0.08482089,-1.213375,-0.3385731,0.08783425,0.02,0.21,0.07000000000000001,93.58
8224,58592857,1,0.22,3.75,5.39,-0.3925964,-0.03647041,-0.453717,-0.09813204,-1.213375,-0.3385731,0.08286126000000001,0.02,0.21,0.07000000000000001,93.58
8265,58603609,1,0.22,3.75,5.39,-0.3927889,-0.03586208,-0.4534903,-0.1108669,-1.213375,-0.3385731,0.08188716,0.02,0.21,0.07000000000000001,93.58
8305,58613688,1,0.22,3.76,5.39,-0.3923574,-0.03626527,-0.4536996,-0.1236665,-1.213375,-0.3385731,0.08078825000000001,0.02,0.21,0.07000000000000001,93.58
8343,58623659,1,0.22,3.76,5.39,-0.3906804,-0.03516994,-0.4521641,-0.1319426,-1.213375,-0.3385731,0.08059595,0.02,0.21,0.07000000000000001,93.58
8384,58633826,1,0.22,3.76,5.38,-0.3904919,-0.03633219,-0.4519747,-0.1383291,-1.213375,-0.3385731,0.08066764,0.02,0.21,0.07000000000000001,93.58
8426,58644252,1,0.22,3.76,5.38,-0.3894899,-0.03619928,-0.4490163,-0.1340526,-1.213375,-0.3385731,0.08049049,0.02,0.21,0.07000000000000001,93.58
8466,58654634,1,0.22,3.76,5.38,-0.3912041,-0.03506548,-0.4486193,-0.1270761,-1.213375,-0.3385731,0.07555431999999999,0.02,0.21,0.07000000000000001,93.58
8507,58665529,1,0.22,3.75,5.38,-0.3906776,-0.03441402,-0.4480957,-0.1245555,-1.213375,-0.3385731,0.07517662,0.02,0.21,0.07000000000000001,93.58
8552,58675197,1,0.22,3.75,5.38,-0.3913667,-0.03454822,-0.4488553,-0.1238458,-1.213375,-0.3385731,0.07465782999999999,0.02,0.21,0.07000000000000001,93.58
8592,58685213,1,0.21,3.75,5.38,-0.3917392,-0.03527412,-0.4472421,-0.1272871,-1.213375,-0.3385731,0.07390817,0.02,0.21,0.07000000000000001,93.58
8633,58695754,1,0.21,3.75,5.39,-0.3939826,-0.03511084,-0.4450305,-0.12556,-1.213375,-0.3385731,0.06945081,0.02,0.21,0.07000000000000001,93.58
8674,58705676,1,0.22,3.76,5.39,-0.3933107,-0.03351345,-0.4440928,-0.1282789,-1.213375,-0.3385731,0.06815539,0.02,0.21,0.07000000000000001,93.58
8718,58721315,1,0.22,3.76,5.39,-0.3931085,-0.03443343,-0.4431713,-0.1425776,-1.213375,-0.3385731,0.06689933000000001,0.02,0.21,0.07000000000000001,93.58
8759,58731617,1,0.21,3.76,5.39,-0.3946539,-0.03466221,-0.4413237,-0.144904,-1.213375,-0.3385731,0.06247247,0.02,0.21,0.07000000000000001,93.58
8799,58741605,1,0.22,3.76,5.38,-0.3935111,-0.0356058,-0.4398317,-0.1439541,-1.213375,-0.3385731,0.06326373,0.02,0.21,0.07000000000000001,93.58
8841,58751876,1,0.21,3.76,5.39,-0.3927401,-0.03451306,-0.4375941,-0.139037,-1.213375,-0.3385731,0.06337561,0.02,0.21,0.07000000000000001,93.58
8882,58762217,1,0.21,3.76,5.38,-0.3927127,-0.03452511,-0.4372979,-0.1401948,-1.213375,-0.3385731,0.0636912,0.02,0.21,0.07000000000000001,93.58
8925,58772365,1,0.22,3.76,5.39,-0.3936664,-0.03407651,-0.4375633,-0.1335506,-1.224507,-0.3385731,0.05934334,0.02,0.21,0.07000000000000001,93.58
8969,58782387,1,0.22,3.76,5.39,-0.3935269,-0.03268327,-0.4382886,-0.1292656,-1.224507,-0.3385731,0.05945841,0.02,0.21,0.07000000000000001,93.58
9010,58792374,1,0.21,3.77,5.39,-0.3931335,-0.03165323,-0.4383263,-0.124051,-1.224507,-0.3385731,0.05932114,0.02,0.21,0.07000000000000001,93.58
9051,58802361,1,0.21,3.76,5.38,-0.3929434,-0.03124335,-0.4373186,-0.1207259,-1.224507,-0.3385731,0.05901167,0.02,0.21,0.07000000000000001,93.58
9092,58815623,1,0.21,3.76,5.38,-0.3941996,-0.03143777,-0.434214,-0.1189151,-1.224507,-0.3385731,0.05675102,0.02,0.21,0.07000000000000001,93.58
9134,58826061,1,0.21,3.76,5.38,-0.3954502,-0.03338818,-0.4340265,-0.1182026,-1.224507,-0.3385731,0.05242478,0.02,0.21,0.07000000000000001,93.58
9175,58836549,1,0.21,3.76,5.38,-0.393726,-0.03344602,-0.4322822,-0.1148798,-1.224507,-0.3385731,0.05308551,0.02,0.21,0.07000000000000001,93.58
9217,58846678,1,0.21,3.75,5.38,-0.3932844,-0.0336898,-0.4314927,-0.1152198,-1.224507,-0.3385731,0.05311248,0.02,0.21,0.07000000000000001,93.58
9257,58856669,1,0.21,3.75,5.39,-0.3917288,-0.03143228,-0.4312729,-0.1158554,-1.224507,-0.3385731,0.05329869,0.02,0.21,0.07000000000000001,93.58
9298,58866687,1,0.21,3.75,5.39,-0.3931406,-0.03091042,-0.4316106,-0.1101794,-1.224507,-0.3385731,0.04900073,0.02,0.21,0.07000000000000001,93.58
9343,58876645,1,0.21,3.76,5.39,-0.3916247,-0.03119478,-0.4309446,-0.1044499,-1.224507,-0.3385731,0.04897396,0.02,0.21,0.07000000000000001,93.58
9383,58886660,1,0.21,3.76,5.39,-0.3916528,-0.03086589,-0.4303555,-0.1015404,-1.224507,-0.3385731,0.04873205,0.02,0.21,0.07000000000000001,93.58
9424,58896645,1,0.22,3.76,5.38,-0.3920515,-0.03125523,-0.4284744,-0.09836391,-1.224507,-0.3385731,0.04832719,0.02,0.21,0.07000000000000001,93.58
9464,58906673,1,0.22,3.75,5.38,-0.3929864,-0.03179053,-0.4263654,-0.09820458,-1.224507,-0.3385731,0.04772683,0.02,0.21,0.07000000000000001,93.58
9505,58917035,1,0.22,3.76,5.38,-0.3941071,-0.03152061,-0.4269307,-0.09760166000000001,-1.224507,-0.3385731,0.04348574,0.02,0.21,0.07000000000000001,93.58
9546,58927608,1,0.22,3.75,5.39,-0.3928818,-0.03038045,-0.4255292,-0.09382778,-1.224507,-0.3385731,0.0439438,0.02,0.21,0.07000000000000001,93.58
9586,58937666,1,0.22,3.75,5.39,-0.3943805,-0.02958662,-0.4227741,-0.09803053,-1.224507,-0.3385731,0.03969409,0.02,0.21,0.07000000000000001,93.58
9629,58948137,1,0.22,3.75,5.39,-0.3941836,-0.02981655,-0.4215595,-0.1006539,-1.224507,-0.3385731,0.04046582,0.02,0.21,0.07000000000000001,93.58
9669,58958512,1,0.23,3.75,5.39,-0.3926789,-0.02998092,-0.4203171,-0.09558982000000001,-1.224507,-0.3385731,0.04097663,0.02,0.21,0.07000000000000001,93.58
9710,58968700,1,0.23,3.75,5.39,-0.3922288,-0.02874809,-0.4205167,-0.09608176,-1.224507,-0.3385731,0.04080455,0.02,0.21,0.07000000000000001,93.58
9758,58979567,1,0.23,3.75,5.4,0.01897828,0.01596208,-0.4178625,-0.09090247999999999,-1.2356,-0.33854,0.04085843,0.02,0.21,0.07000000000000001,93.58
9798,58990633,1,0.23,3.75,5.4,0.02022852,0.01569429,-0.4167853,-0.08446285000000001,-1.230855,-0.3380193,0.04030948,0.02,0.21,0.07000000000000001,93.58
9839,59001106,1,0.22,3.75,5.4,0.01996304,0.0156642,-0.416313,-0.08249421,-1.226343,-0.3375092,0.03953248,0.02,0.21,0.07000000000000001,93.58
9880,59011636,1,0.23,3.75,5.4,0.01826774,0.01569514,-0.4166654,-0.07981857000000001,-1.226151,-0.3373521,0.03538977,0.02,0.21,0.07000000000000001,93.58
9921,59021536,1,0.23,3.75,5.4,0.01689626,0.01638368,-0.4155748,-0.07995386,-1.221904,-0.336863,0.03483598,0.02,0.21,0.07000000000000001,93.58
9964,59031602,1,0.22,3.75,5.4,0.01688651,0.01610283,-0.4147116,-0.09004616999999999,-1.217844,-0.3363748,0.03563553,0.02,0.21,0.07000000000000001,93.58
10004,59042130,1,0.23,3.75,5.4,0.0159748,0.01613119,-0.4129089,-0.08949032,-1.214,-0.3358756,0.03572641,0.02,0.21,0.07000000000000001,93.58
10045,59052723,1,0.23,3.75,5.4,0.01384689,0.01718605,-0.4125852,-0.08424384,-1.213836,-0.33569,0.03119788,0.02,0.21,0.07000000000000001,93.58
10085,59063299,1,0.23,3.75,5.4,0.01266074,0.01686924,-0.4134009,-0.08356635,-1.210231,-0.3352009,0.0314652,0.02,0.21,0.07000000000000001,93.58
10126,59073299,1,0.23,3.75,5.4,0.01233053,0.01646045,-0.4117095,-0.0766146,-1.206857,-0.3347251,0.03155072,0.02,0.21,0.07000000000000001,93.58
10171,59083426,1,0.23,3.75,5.4,0.01183857,0.01671847,-0.4113652,-0.07270893,-1.203685,-0.3342582,0.03145086,0.02,0.21,0.07000000000000001,93.58
10212,59093310,1,0.23,3.75,5.4,0.009835853,0.01545492,-0.4110784,-0.07629815,-1.200696,-0.3338117,0.03113484,0.02,0.21,0.07000000000000001,93.58
10252,59103811,1,0.23,3.76,5.4,0.008688385,0.01665712,-0.4113279,-0.07800335,-1.197907,-0.3333662,0.03019843,0.02,0.21,0.07000000000000001,93.58
10293,59113843,1,0.23,3.76,5.41,0.006272794,0.01602853,-0.4095351,-0.07605937,-1.197834,-0.3331969,0.02608476,0.02,0.21,0.07000000000000001,93.58
10334,59126671,1,0.23,3.76,5.41,0.004522929,0.01660652,-0.4068222,-0.07929052,-1.192939,-0.3324938,0.02919472,0.02,0.21,0.07000000000000001,93.58
10374,59137206,1,0.23,3.76,5.41,0.002945173,0.01653643,-0.4052545,-0.07247326,-1.192901,-0.3323295,0.02514396,0.02,0.21,0.07000000000000001,93.58
10415,59147213,1,0.23,3.76,5.41,0.003075649,0.01658645,-0.4044655,-0.07166983,-1.190687,-0.3319387,0.02587652,0.02,0.21,0.07000000000000001,93.58
10455,59157806,1,0.23,3.76,5.42,0.001899315,0.0161904,-0.4044612,-0.06731196,-1.188638,-0.3315487,0.02599795,0.02,0.21,0.07000000000000001,93.58
10496,59168427,1,0.23,3.76,5.42,0.0009945619,0.01857444,-0.4040721,-0.06506571,-1.186739,-0.3311706,0.02619919,0.02,0.21,0.07000000000000001,93.58
10538,59178941,1,0.23,3.75,5.41,-0.001018463,0.01820879,-0.40389,-0.05858333,-1.185011,-0.330781,0.02586608,0.02,0.21,0.07000000000000001,93.58
10583,59192406,1,0.23,3.76,5.42,-0.002764355,0.0164245,-0.4003997,-0.0479521,-1.183407,-0.3308054,0.02796359,0.02,0.21,0.07000000000000001,93.58
10624,59202705,1,0.23,3.77,5.42,-0.003965229,0.01519606,-0.3982836,-0.03684811,-1.181931,-0.3308905,0.03058749,0.02,0.21,0.07000000000000001,93.58
10667,59243367,1,0.23,3.77,5.42,-0.0104989,0.01233815,-0.3904538,0.07163563000000001,-1.178387,-0.3311542,0.03745567,0.02,0.21,0.07000000000000001,93.58
10708,59253689,1,0.23,3.77,5.42,-0.01293003,0.01168789,-0.3898141,0.1068184,-1.177454,-0.3312941,0.0405942,0.02,0.21,0.07000000000000001,93.58
10748,59264222,1,0.23,3.78,5.42,-0.015491,0.01188095,-0.3876502,0.1255576,-1.176609,-0.3314522,0.04380763,0.02,0.21,0.07000000000000001,93.58
10789,59274271,1,0.23,3.78,5.42,-0.01672081,0.01126499,-0.386852,0.149656,-1.176769,-0.331336,0.03995916,0.02,0.21,0.07000000000000001,93.58
10829,59284335,1,0.23,3.79,5.43,-0.01845104,0.01003911,-0.3841206,0.1680109,-1.176039,-0.3315144,0.04292256,0.02,0.21,0.07000000000000001,93.58
10874,59294225,1,0.23,3.79,5.43,-0.02008411,0.009272614,-0.3821233,0.1873822,-1.175428,-0.331701,0.04552989,0.02,0.21,0.07000000000000001,93.58
10914,59304217,1,0.23,3.79,5.43,-0.02191522,0.008102141,-0.381459,0.1998509,-1.174916,-0.3319036,0.04787181,0.02,0.22,0.07000000000000001,93.58
10956,59314237,1,0.23,3.79,5.43,-0.02359085,0.008143174,-0.3795877,0.1996794,-1.174479,-0.3321071,0.04995674,0.02,0.21,0.07000000000000001,93.58
10998,59324661,1,0.23,3.79,5.43,-0.02593281,0.007664569,-0.378066,0.2018722,-1.174155,-0.3323121,0.05344743,0.02,0.22,0.07000000000000001,93.58
11036,59335195,1,0.23,3.8,5.43,-0.02758879,0.007689294,-0.3778883,0.212677,-1.174443,-0.3322291,0.04934482,0.02,0.22,0.07000000000000001,93.58
11077,59345417,1,0.23,3.8,5.43,-0.02892788,0.007380157,-0.3774853,0.2160062,-1.174211,-0.3324399,0.05254634,0.02,0.22,0.07000000000000001,93.58
11118,59355186,1,0.23,3.8,5.43,-0.03015454,0.006811984,-0.3758792,0.2248698,-1.174066,-0.3326553,0.05542335,0.02,0.22,0.07000000000000001,93.58
11159,59365197,1,0.23,3.8,5.43,-0.03179351,0.00572483,-0.3757976,0.2160627,-1.17438,-0.3325916,0.05165154,0.02,0.22,0.07000000000000001,93.58
11200,59375696,1,0.23,3.81,5.43,-0.03393986,0.004924868,-0.3745454,0.2056219,-1.174319,-0.3328188,0.05395334,0.02,0.21,0.07000000000000001,93.58
11242,59386391,1,0.23,3.81,5.42,-0.03571453,0.005192351,-0.3733117,0.2006967,-1.174317,-0.3330522,0.05633207,0.02,0.21,0.07000000000000001,93.58
11285,59396538,1,0.23,3.81,5.42,-0.03598858,0.004759421,-0.3698734,0.2031616,-1.173638,-0.3335164,0.06159573,0.02,0.21,0.07000000000000001,93.58
11326,59406264,1,0.23,3.81,5.42,-0.03669317,0.004203856,-0.3661666,0.2009235,-1.173032,-0.3339722,0.06646892,0.02,0.21,0.07000000000000001,93.58
11367,59416540,1,0.23,3.82,5.42,-0.03934965,0.003689265,-0.3661749,0.2124186,-1.173408,-0.333932,0.06284022,0.02,0.21,0.07000000000000001,93.58
11408,59426405,1,0.23,3.82,5.42,-0.03963799,0.001437147,-0.3622957,0.2248331,-1.172896,-0.3344056,0.06740601,0.02,0.21,0.07000000000000001,93.58
11448,59436415,1,0.23,3.82,5.42,-0.04115891,0.0005195135,-0.3590401,0.2377394,-1.172464,-0.3348823,0.07161858,0.02,0.21,0.07000000000000001,93.58
11486,59446825,1,0.23,3.82,5.43,-0.04219279,-0.0006553867,-0.3570245,0.2571079,-1.172165,-0.3353582,0.07658443,0.02,0.22,0.07000000000000001,93.58
11531,59459501,1,0.22,3.82,5.43,-0.04333481,-0.001795028,-0.3553681,0.2680723,-1.171973,-0.3358333,0.08088344,0.02,0.21,0.07000000000000001,93.58
11572,59469378,1,0.22,3.82,5.43,-0.04407974,-0.001353901,-0.3531104,0.2855916,-1.171779,-0.3363016,0.08544156999999999,0.02,0.22,0.07000000000000001,93.58
11613,59479423,1,0.22,3.83,5.43,-0.04458911,-0.002526607,-0.3526282,0.2976704,-1.171645,-0.3367632,0.0896807,0.02,0.22,0.07000000000000001,93.58
11653,59489824,1,0.22,3.83,5.43,-0.04778681,-0.00369491,-0.3534248,0.3143995,-1.172147,-0.3367946,0.08584509,0.02,0.22,0.07000000000000001,93.58
11698,59499815,1,0.22,3.83,5.43,-0.049342,-0.004471379,-0.3510027,0.3095192,-1.172074,-0.3372716,0.08978604,0.02,0.21,0.07000000000000001,93.58
11738,59509832,1,0.22,3.83,5.43,-0.04969537,-0.005589949,-0.3491669,0.3010319,-1.172061,-0.3377488,0.09343410000000001,0.02,0.21,0.07000000000000001,93.58
11778,59520616,1,0.22,3.84,5.42,-0.05116667,-0.006322504,-0.3489994,0.3000782,-1.172567,-0.3378069,0.08992865999999999,0.02,0.21,0.07000000000000001,93.58
11821,59530402,1,0.21,3.84,5.42,-0.05267292,-0.007352307,-0.3487977,0.2932878,-1.172626,-0.3382944,0.09324617,0.02,0.21,0.07000000000000001,93.58
11861,59543550,1,0.21,3.84,5.42,-0.05289241,-0.008734723,-0.3466935,0.2851924,-1.172894,-0.3388079,0.09616832,0.02,0.21,0.08,93.58
11902,59553246,1,0.21,3.85,5.42,-0.05422439,-0.008729031999999999,-0.3441958,0.2877646,-1.173074,-0.3392963,0.0997377,0.02,0.22,0.08,93.58
11945,59566218,1,0.21,3.85,5.43,-0.05545317,-0.008990278000000001,-0.3429752,0.2781238,-1.173469,-0.3398063,0.1019596,0.02,0.21,0.08,93.58
11986,59576194,1,0.21,3.85,5.43,-0.05591223,-0.008913776999999999,-0.3410835,0.2675691,-1.173738,-0.3402716,0.1049931,0.02,0.21,0.08,93.58
12028,59586235,1,0.21,3.85,5.43,-0.05862551,-0.008170610999999999,-0.3404078,0.2572322,-1.174312,-0.3403546,0.1015798,0.02,0.21,0.08,93.58
12072,59597224,1,0.21,3.86,5.43,-0.05941188,-0.008278397999999999,-0.337604,0.2435861,-1.174376,-0.3407311,0.1073671,0.02,0.21,0.07000000000000001,93.58
12112,59608064,1,0.21,3.86,5.43,-0.06161458,-0.008133761999999999,-0.3349803,0.2484824,-1.17453,-0.3410959,0.1126972,0.02,0.21,0.08,93.58
12154,59617997,1,0.21,3.86,5.43,-0.06329614,-0.007500395,-0.3309376,0.2467985,-1.174681,-0.3414389,0.1180433,0.02,0.21,0.07000000000000001,93.58
12195,59628624,1,0.21,3.86,5.43,-0.065063,-0.006324533,-0.3306381,0.2575995,-1.175384,-0.3415165,0.1144187,0.02,0.21,0.07000000000000001,93.58
12235,59639611,1,0.21,3.86,5.43,-0.06598633,-0.00645852,-0.3259442,0.2667052,-1.175616,-0.3418424,0.1193978,0.02,0.21,0.07000000000000001,93.58
12273,59649990,1,0.21,3.87,5.42,-0.06747383,-0.004812296,-0.3207339,0.2786552,-1.175965,-0.3421464,0.1252282,0.02,0.21,0.07000000000000001,93.58
12316,59662381,1,0.21,3.87,5.43,-0.06881224,-0.004236952,-0.3162814,0.2856431,-1.176438,-0.3424356,0.1303586,0.02,0.21,0.07000000000000001,93.58
12357,59672601,1,0.21,3.87,5.43,-0.06932365,-0.00431219,-0.3126889,0.2938707,-1.176844,-0.342701,0.1357156,0.02,0.21,0.08,93.58
12399,59683040,1,0.2,3.87,5.42,-0.07170549,-0.004694484,-0.3117198,0.3111148,-1.177611,-0.3427502,0.1323135,0.02,0.21,0.08,93.58
12439,59693002,1,0.2,3.87,5.42,-0.0725889,-0.005609219,-0.3081917,0.324196,-1.178085,-0.3430125,0.137367,0.02,0.21,0.08,93.58
12484,59702915,1,0.21,3.87,5.42,-0.07321220000000001,-0.005491852,-0.3063354,0.3309444,-1.178611,-0.343268,0.1420665,0.02,0.21,0.08,93.58
12524,59712955,1,0.21,3.87,5.42,-0.07382152,-0.005014788,-0.3045781,0.3357078,-1.17919,-0.3435137,0.1464097,0.02,0.21,0.08,93.58
12566,59722868,1,0.21,3.87,5.42,-0.07488094000000001,-0.005467067,-0.3024205,0.3345049,-1.179821,-0.3437496,0.1504239,0.02,0.21,0.08,93.58
12606,59733299,1,0.21,3.87,5.41,-0.07657886,-0.006047827,-0.3000879,0.3380449,-1.180526,-0.3439834,0.1540727,0.02,0.21,0.08,93.58
12648,59746412,1,0.21,3.87,5.41,-0.07885188,-0.006832028,-0.2989652,0.3373197,-1.181504,-0.3442335,0.1580273,0.02,0.21,0.08,93.58
12689,59756999,1,0.21,3.88,5.41,-0.08049586,-0.007813464000000001,-0.2974243,0.3401671,-1.182406,-0.3444713,0.1621784,0.02,0.21,0.08,93.58
12729,59767571,1,0.21,3.88,5.41,-0.08294106,-0.008448683,-0.2974522,0.3460231,-1.183219,-0.3445554,0.1592185,0.02,0.21,0.08,93.58
12769,59778117,1,0.21,3.88,5.41,-0.08457126,-0.009951204,-0.2949085,0.3441833,-1.184183,-0.3448068,0.163086,0.02,0.21,0.08,93.58
12806,59788297,1,0.21,3.88,5.41,-0.08447672000000001,-0.01012081,-0.2917144,0.3344081,-1.184283,-0.3450511,0.1696035,0.02,0.21,0.08,93.58
12847,59798009,1,0.21,3.88,5.41,-0.08518119,-0.009615202,-0.2882486,0.3334386,-1.184445,-0.3452829,0.1757042,0.02,0.21,0.08,93.58
12893,59808582,1,0.21,3.89,5.41,-0.08709546999999999,-0.009314278,-0.2865339,0.346092,-1.185396,-0.3453886,0.172535,0.02,0.21,0.08,93.58
12933,59819293,1,0.2,3.9,5.41,-0.08921666,-0.009759479,-0.2850345,0.3512585,-1.185629,-0.3456078,0.1782828,0.02,0.21,0.08,93.58
12975,59829093,1,0.2,3.9,5.41,-0.08975669999999999,-0.009296275999999999,-0.2821181,0.3587145,-1.185928,-0.3458243,0.1836448,0.02,0.21,0.08,93.58
13015,59839019,1,0.21,3.9,5.41,-0.09117432,-0.008116794,-0.2797109,0.3647603,-1.186288,-0.3460238,0.1886371,0.02,0.21,0.08,93.58
13058,59851858,1,0.21,3.9,5.41,-0.09371872000000001,-0.007941316,-0.2768004,0.3723078,-1.186983,-0.3462369,0.1938276,0.02,0.21,0.08,93.58
13098,59861771,1,0.21,3.91,5.41,-0.09398927999999999,-0.007324297,-0.2742664,0.3740488,-1.187382,-0.3464072,0.1996955,0.02,0.21,0.08,93.58
13139,59872164,1,0.21,3.92,5.41,-0.09688968000000001,-0.007630703,-0.2737616,0.3862089,-1.188422,-0.3464898,0.1967071,0.02,0.21,0.08,93.58
13180,59882136,1,0.21,3.92,5.41,-0.09864647999999999,-0.007497641,-0.2710669,0.3905816,-1.188972,-0.3466587,0.2020028,0.02,0.21,0.08,93.58
13220,59892645,1,0.21,3.92,5.41,-0.1005285,-0.006111023,-0.2672741,0.4008265,-1.189592,-0.3468174,0.2069215,0.02,0.22,0.08,93.58
13261,59903091,1,0.21,3.92,5.41,-0.1033938,-0.00572007,-0.2646897,0.4032411,-1.190379,-0.3469658,0.211241,0.02,0.22,0.08,93.58
13305,59913064,1,0.21,3.93,5.4,-0.1040952,-0.006023423,-0.2633333,0.4004484,-1.191118,-0.3471058,0.2155081,0.02,0.22,0.08,93.58
13346,59923116,1,0.22,3.93,5.4,-0.1068973,-0.006098769,-0.2626687,0.3903681,-1.191917,-0.3472425,0.2194436,0.02,0.22,0.08,93.58
13387,59933396,1,0.21,3.93,5.4,-0.1086733,-0.006428669,-0.2606436,0.387193,-1.192996,-0.3473066,0.2168221,0.02,0.22,0.08,93.58
13428,59944048,1,0.21,3.94,5.4,-0.1097112,-0.00631677,-0.2582825,0.375896,-1.193974,-0.3474467,0.2202315,0.02,0.22,0.08,93.58
13472,59956354,1,0.21,3.94,5.4,-0.1107409,-0.005291806,-0.255827,0.3710937,-1.195099,-0.3475821,0.2246296,0.02,0.22,0.08,93.58
13513,59966421,1,0.21,3.94,5.39,-0.1118839,-0.004074919,-0.2539302,0.3663796,-1.196048,-0.347692,0.2292168,0.02,0.22,0.08,93.58
13557,59976285,1,0.21,3.94,5.4,-0.1139176,-0.004670533,-0.2519472,0.3613845,-1.197061,-0.3477954,0.2334526,0.02,0.22,0.08,93.58
13595,59987020,1,0.21,3.94,5.4,-0.1133267,-0.005238448,-0.2467561,0.3660873,-1.196885,-0.3480085,0.2397985,0.02,0.22,0.08,93.58
13635,59996993,1,0.21,3.95,5.4,-0.1128272,-0.005799765,-0.2448097,0.371267,-1.196666,-0.3482157,0.2460005,0.02,0.22,0.08,93.58
13683,60009633,1,0.22,3.94,5.4,-0.1127586,-0.004847728,-0.242403,0.3792745,-1.196746,-0.3484284,0.2513156,0.02,0.22,0.08,93.58
13724,60019656,1,0.22,3.94,5.4,-0.1161707,-0.002452087,-0.24032,0.3858361,-1.197887,-0.3484687,0.248905,0.02,0.22,0.08,93.58
13767,60029558,1,0.22,3.95,5.4,-0.1168928,-0.002659549,-0.2406298,0.3853631,-1.197923,-0.3486327,0.2542011,0.02,0.22,0.08,93.58
13809,60039630,1,0.22,3.95,5.4,-0.117108,-0.002851902,-0.2379424,0.3936567,-1.197811,-0.34879,0.2595568,0.02,0.22,0.08,93.58
13849,60050120,1,0.22,3.95,5.4,-0.1173921,-0.002637597,-0.2352068,0.3982215,-1.197982,-0.3489466,0.2650416,0.02,0.22,0.08,93.58
13887,60060291,1,0.23,3.95,5.4,-0.1181071,-0.003305675,-0.2330578,0.4012734,-1.198111,-0.3490965,0.2703852,0.02,0.22,0.08,93.58
13928,60070174,1,0.23,3.95,5.41,-0.1196945,-0.002940704,-0.2326165,0.3993425,-1.1993,-0.3491276,0.2680564,0.02,0.22,0.08,93.58
13968,60080105,1,0.23,3.95,5.41,-0.1200489,-0.003983929,-0.2307596,0.394396,-1.199466,-0.349278,0.2731525,0.02,0.22,0.08,93.58
14010,60090081,1,0.22,3.96,5.41,-0.1210401,-0.002829602,-0.228588,0.3899305,-1.199721,-0.349422,0.2778619,0.02,0.22,0.08,93.58
14050,60100630,1,0.22,3.96,5.41,-0.1219734,-0.002815034,-0.2273204,0.3803515,-1.200011,-0.3495527,0.2823206,0.02,0.22,0.08,93.58
14095,60110890,1,0.22,3.96,5.41,-0.1245646,-0.003687956,-0.2271839,0.3688951,-1.201375,-0.3495882,0.2798063,0.02,0.22,0.08,93.58
14135,60120925,1,0.23,3.96,5.41,-0.1241083,-0.004825664,-0.2264396,0.3344541,-1.201695,-0.3497295,0.2841009,0.02,0.22,0.08,93.58
14176,60131568,1,0.22,3.96,5.41,-0.1245391,-0.004119134,-0.2253353,0.3138392,-1.202095,-0.3498708,0.2880254,0.02,0.22,0.08,93.58
14219,60141859,1,0.22,3.97,5.4,-0.125664,-0.005232555,-0.2243647,0.3001004,-1.202672,-0.3500136,0.2914389,0.02,0.22,0.08,93.58
14256,60152425,1,0.22,3.97,5.4,-0.1271309,-0.005901604,-0.2244107,0.2926765,-1.203936,-0.3500709,0.2891918,0.02,0.22,0.08,93.58
14299,60162611,1,0.22,3.97,5.4,-0.1286568,-0.006457256,-0.2229631,0.2864279,-1.204454,-0.3502182,0.2940033,0.02,0.22,0.08,93.58
14336,60173705,1,0.22,3.97,5.4,-0.1287338,-0.006897242,-0.2207057,0.2844974,-1.203948,-0.3506221,0.2993673,0.02,0.22,0.08,93.58
14376,60183711,1,0.23,3.97,5.4,-0.1285263,-0.007476282,-0.2189895,0.2946308,-1.203271,-0.351004,0.3048073,0.02,0.22,0.08,93.58
14418,60193674,1,0.23,3.97,5.4,-0.1288656,-0.00712299,-0.216882,0.3017409,-1.202689,-0.3513717,0.3098967,0.02,0.22,0.08,93.58
14458,60203713,1,0.23,3.96,5.4,-0.1293206,-0.007645385,-0.2143909,0.31526,-1.202217,-0.351729,0.3146181,0.02,0.22,0.08,93.58
14503,60213818,1,0.23,3.96,5.4,-0.1321122,-0.008953190999999999,-0.2139561,0.3210634,-1.203513,-0.3518108,0.31249,0.02,0.22,0.08,93.58
14543,60224238,1,0.23,3.96,5.4,-0.1315082,-0.01044476,-0.2129644,0.3218666,-1.2031,-0.3521875,0.3169916,0.02,0.22,0.08,93.58
14584,60234675,1,0.23,3.96,5.4,-0.1324549,-0.01131823,-0.2115648,0.319736,-1.202893,-0.3525746,0.3209971,0.02,0.22,0.08,93.58
14624,60244813,1,0.23,3.97,5.41,-0.1335699,-0.01096941,-0.2111086,0.314506,-1.202536,-0.3529308,0.3250929,0.02,0.22,0.08,93.58
14665,60257747,1,0.22,3.97,5.41,-0.135113,-0.01123948,-0.2090351,0.3113391,-1.202929,-0.3533352,0.3288077,0.02,0.22,0.08,93.58
14707,60267704,1,0.22,3.97,5.4,-0.137109,-0.01063682,-0.2084483,0.3048466,-1.204282,-0.3534436,0.326735,0.02,0.22,0.08,93.58
14748,60278085,1,0.22,3.97,5.41,-0.1386405,-0.0111807,-0.207293,0.297047,-1.204217,-0.3537976,0.3310508,0.02,0.22,0.08,93.58
14789,60288383,1,0.22,3.97,5.41,-0.1393375,-0.01041667,-0.2052038,0.2919411,-1.20424,-0.3541398,0.3350687,0.02,0.22,0.08,93.58
14829,60298684,1,0.21,3.98,5.41,-0.1397808,-0.01133444,-0.2043687,0.2909892,-1.204481,-0.3544828,0.3385766,0.02,0.22,0.08,93.58
14872,60309324,1,0.21,3.98,5.41,-0.1412646,-0.011321,-0.2030193,0.2836094,-1.204666,-0.3548149,0.3420185,0.02,0.22,0.08,93.58
14917,60319223,1,0.21,3.98,5.41,-0.1426623,-0.01103455,-0.2011055,0.2758552,-1.204938,-0.3551387,0.3451945,0.02,0.22,0.08,93.58
14958,60329493,1,0.2,3.98,5.41,-0.1456161,-0.009204441000000001,-0.2019533,0.2690518,-1.206514,-0.3552484,0.3429887,0.02,0.22,0.08,93.58
14999,60339606,1,0.21,3.98,5.42,-0.1475756,-0.00851617,-0.2014608,0.2612101,-1.20673,-0.3555272,0.3461338,0.02,0.22,0.08,93.58
15042,60352187,1,0.21,3.99,5.42,-0.1488365,-0.009880509000000001,-0.1987181,0.2440847,-1.207624,-0.3558461,0.3482551,0.02,0.22,0.08,93.58
15083,60362299,1,0.21,3.99,5.42,-0.1500445,-0.01028232,-0.1978805,0.2304548,-1.208128,-0.3561361,0.3512469,0.02,0.22,0.08,93.58
15124,60372865,1,0.21,4,5.42,-0.1520205,-0.009740975000000001,-0.1976919,0.213863,-1.209795,-0.3562441,0.3490641,0.02,0.22,0.08,93.58
15167,60383285,1,0.21,4,5.41,-0.1528486,-0.009830520000000001,-0.1969882,0.198331,-1.210352,-0.356529,0.3518867,0.02,0.22,0.08,93.58
15206,60393790,1,0.21,4,5.42,-0.153436,-0.009148765999999999,-0.1965207,0.186663,-1.210276,-0.3565387,0.3553476,0.02,0.22,0.08,93.58
15247,60403678,1,0.21,4,5.42,-0.1542321,-0.01024869,-0.1941139,0.1785336,-1.210446,-0.3565603,0.3583602,0.02,0.22,0.08,93.58
15289,60413691,1,0.21,4.01,5.41,-0.1558041,-0.009774622,-0.1917739,0.1704927,-1.210556,-0.3565775,0.3613422,0.02,0.22,0.08,93.58
15333,60424224,1,0.21,4.01,5.41,-0.1573018,-0.01059958,-0.1910692,0.1688831,-1.212108,-0.3566774,0.3594481,0.02,0.22,0.08,93.58
15374,60434397,1,0.21,4.01,5.41,-0.1584167,-0.0101666,-0.1886697,0.1662328,-1.212318,-0.3566978,0.3622192,0.02,0.22,0.08,93.58
15415,60444261,1,0.21,4.01,5.42,-0.1592189,-0.01024375,-0.1873727,0.1627895,-1.212616,-0.3567099,0.3647723,0.02,0.22,0.08,93.58
15455,60454402,1,0.21,4.02,5.42,-0.158966,-0.01011156,-0.1869093,0.1519407,-1.212977,-0.3567201,0.3671446,0.02,0.22,0.08,93.58
15492,60465141,1,0.21,4.02,5.41,-0.1611253,-0.009415237,-0.1865772,0.1460145,-1.214731,-0.3568277,0.365092,0.02,0.22,0.08,93.58
15533,60475156,1,0.21,4.02,5.41,-0.1624164,-0.008094511,-0.1851644,0.1407231,-1.215185,-0.356824,0.3680254,0.02,0.22,0.08,93.58
15574,60485249,1,0.21,4.02,5.41,-0.1640229,-0.00725054,-0.1845255,0.1369761,-1.215714,-0.3568074,0.3707321,0.02,0.22,0.08,93.58
15615,60495708,1,0.21,4.03,5.41,-0.166489,-0.006900768,-0.1843967,0.1285723,-1.217377,-0.3568751,0.368874,0.02,0.22,0.08,93.58
15656,60505659,1,0.21,4.03,5.41,-0.1672723,-0.007379368,-0.1836823,0.1210292,-1.217992,-0.3568497,0.3714113,0.02,0.22,0.08,93.58
15697,60515682,1,0.22,4.03,5.41,-0.1677493,-0.008084694,-0.1825899,0.1160302,-1.21868,-0.356834,0.3737283,0.02,0.22,0.08,93.58
15744,60525694,1,0.21,4.03,5.41,-0.1699338,-0.008190364,-0.1820527,0.1058604,-1.219446,-0.3568214,0.3758479,0.02,0.22,0.08,93.58
15785,60535893,1,0.22,4.03,5.41,-0.172966,-0.007142682,-0.1829681,0.1000752,-1.221332,-0.3569015,0.3738427,0.02,0.22,0.08,93.58
15825,60546389,1,0.22,4.03,5.4,-0.1741651,-0.008313154999999999,-0.1810967,0.09529978,-1.222199,-0.3568822,0.3757744,0.02,0.22,0.08,93.58
15866,60556410,1,0.22,4.04,5.4,-0.1762137,-0.008174832,-0.1809383,0.08974013,-1.223141,-0.3568743,0.3775182,0.02,0.22,0.08,93.58
15904,60566421,1,0.22,4.04,5.4,-0.1780589,-0.007942817,-0.1803387,0.08356076,-1.224162,-0.3568635,0.3798608,0.02,0.22,0.08,93.58
15945,60576392,1,0.22,4.05,5.4,-0.1805572,-0.006936229,-0.1793393,0.08152798999999999,-1.225951,-0.3569346,0.378067,0.02,0.22,0.08,93.58
15985,60586432,1,0.22,4.05,5.4,-0.1815212,-0.008710585,-0.1801157,0.07718680999999999,-1.227065,-0.3569171,0.3802248,0.02,0.21,0.08,93.58
16027,60596641,1,0.22,4.05,5.4,-0.1824216,-0.009139062,-0.1795353,0.07110118999999999,-1.228413,-0.3569234,0.3820131,0.02,0.21,0.08,93.58
16068,60607054,1,0.22,4.05,5.4,-0.1836963,-0.008755807000000001,-0.178914,0.068901,-1.229645,-0.3569202,0.3837755,0.02,0.21,0.08,93.58
16117,60619940,1,0.22,4.06,5.4,-0.1843926,-0.007897035,-0.175487,0.07299335,-1.230185,-0.3568927,0.3859711,0.02,0.22,0.08,93.58
16159,60630652,1,0.22,4.06,5.4,-0.1847963,-0.009086271999999999,-0.1745031,0.07803148,-1.230271,-0.3568366,0.3884871,0.02,0.22,0.08,93.58
16200,60640630,1,0.22,4.07,5.4,-0.1856056,-0.009058266000000001,-0.1723164,0.08488553,-1.230495,-0.3567916,0.3907578,0.02,0.22,0.08,93.58
16241,60650929,1,0.22,4.07,5.4,-0.1891723,-0.009084208999999999,-0.1701926,0.09606434,-1.232556,-0.3568891,0.3888746,0.02,0.22,0.08,93.58
16285,60666142,1,0.22,4.07,5.4,-0.1895229,-0.009862134999999999,-0.1668565,0.1090404,-1.23237,-0.3567598,0.3950364,0.02,0.22,0.08,93.58
16325,60676104,1,0.23,4.07,5.4,-0.1893449,-0.01097222,-0.1655036,0.1164094,-1.23289,-0.356737,0.3979996,0.02,0.22,0.08,93.58
16366,60686153,1,0.23,4.07,5.4,-0.1915635,-0.01095341,-0.1641472,0.1296607,-1.23478,-0.3568428,0.3963612,0.02,0.22,0.08,93.58
16408,60696752,1,0.23,4.07,5.4,-0.1923309,-0.01091798,-0.1613196,0.1404872,-1.235398,-0.3568216,0.3991352,0.02,0.22,0.08,93.58
16449,60706957,1,0.23,4.07,5.4,-0.1931999,-0.01080718,-0.158442,0.1458027,-1.236267,-0.3568121,0.4015841,0.02,0.22,0.08,93.58
16489,60716988,1,0.23,4.07,5.4,-0.1942759,-0.01171757,-0.1558955,0.1478015,-1.23705,-0.3568051,0.4039831,0.02,0.22,0.08,93.58
16534,60726989,1,0.23,4.07,5.39,-0.1962296,-0.0112368,-0.1562284,0.1514303,-1.238995,-0.3569138,0.4024291,0.02,0.22,0.08,93.58
16575,60736983,1,0.23,4.07,5.39,-0.1974249,-0.01183285,-0.1556159,0.1524259,-1.239855,-0.3569082,0.4046522,0.02,0.22,0.08,93.58
16616,60746970,1,0.23,4.07,5.39,-0.1992726,-0.01118905,-0.1542275,0.1530203,-1.240799,-0.3569052,0.4066758,0.02,0.22,0.08,93.58
16657,60757154,1,0.23,4.08,5.39,-0.2000596,-0.01081864,-0.1521227,0.148121,-1.241816,-0.3568954,0.4085389,0.02,0.22,0.08,93.58
16697,60767383,1,0.23,4.08,5.38,-0.2025623,-0.01073162,-0.1504123,0.1469626,-1.243827,-0.3570046,0.4070309,0.02,0.22,0.08,93.58
16740,60778547,1,0.22,4.08,5.38,-0.2045925,-0.01016875,-0.1478759,0.1449131,-1.245139,-0.357001,0.4096054,0.02,0.22,0.08,93.58
16777,60788541,1,0.23,4.08,5.39,-0.203046,-0.01012233,-0.1463892,0.139578,-1.2447,-0.3571376,0.4128161,0.02,0.22,0.08,93.58
16818,60798155,1,0.23,4.08,5.39,-0.2028036,-0.009712683,-0.1471668,0.1367231,-1.244425,-0.357275,0.4157469,0.02,0.22,0.08,93.58
16861,60808692,1,0.23,4.08,5.39,-0.2053793,-0.01038367,-0.1456368,0.1436483,-1.246656,-0.3573817,0.4141448,0.02,0.22,0.08,93.58
16901,60818722,1,0.22,4.08,5.39,-0.2057519,-0.01000597,-0.1429765,0.149993,-1.246486,-0.3575126,0.4168932,0.02,0.22,0.08,93.58
16946,60828643,1,0.22,4.08,5.39,-0.2072936,-0.008205555999999999,-0.1426288,0.1489166,-1.246415,-0.3576305,0.4194654,0.02,0.22,0.08,93.58
16986,60839567,1,0.22,4.08,5.39,-0.2073514,-0.00931884,-0.1415527,0.150951,-1.246475,-0.3577447,0.421811,0.02,0.22,0.08,93.58
17027,60850113,1,0.23,4.08,5.39,-0.2094883,-0.009167355,-0.1406299,0.1525287,-1.248792,-0.3578455,0.420241,0.02,0.22,0.08,93.58
17068,60860216,1,0.22,4.08,5.39,-0.2099704,-0.008703152,-0.1376559,0.1501022,-1.248932,-0.3579568,0.4224799,0.02,0.22,0.08,93.58
17106,60869982,1,0.22,4.08,5.39,-0.2103755,-0.009952742000000001,-0.1346437,0.1469084,-1.249173,-0.3580731,0.4245565,0.02,0.22,0.08,93.58
17151,60882562,1,0.22,4.08,5.39,-0.2111172,-0.01077558,-0.1323819,0.1460961,-1.250142,-0.3582247,0.4272607,0.02,0.22,0.08,93.58
17192,60892852,1,0.22,4.08,5.39,-0.2111037,-0.01119569,-0.1295161,0.1469979,-1.250592,-0.358353,0.4301441,0.02,0.22,0.08,93.58
17233,60903253,1,0.22,4.08,5.4,-0.2128527,-0.01045861,-0.1304567,0.1511162,-1.252718,-0.3584661,0.4288438,0.02,0.22,0.08,93.58
17274,60913268,1,0.21,4.09,5.4,-0.2139215,-0.01026311,-0.1291934,0.1550808,-1.253258,-0.3585866,0.4315277,0.02,0.22,0.08,93.58
17315,60923661,1,0.21,4.09,5.4,-0.2145803,-0.01125126,-0.1277636,0.1576405,-1.253908,-0.3587109,0.4340037,0.02,0.22,0.08,93.58
17361,60933933,1,0.21,4.09,5.4,-0.2156617,-0.010638,-0.1268938,0.1599266,-1.254845,-0.3588476,0.4361666,0.02,0.22,0.08,93.58
17401,60943985,1,0.21,4.09,5.4,-0.2171329,-0.01129392,-0.1258069,0.1593059,-1.255674,-0.3589714,0.4382562,0.02,0.22,0.08,93.58
17442,60954571,1,0.21,4.1,5.39,-0.2195044,-0.01242916,-0.1243633,0.162114,-1.257872,-0.3590912,0.436996,0.02,0.22,0.08,93.58
17479,60964553,1,0.21,4.1,5.39,-0.2202805,-0.01303522,-0.12233,0.1621301,-1.258801,-0.3592371,0.4389483,0.02,0.22,0.08,93.58
17526,60977205,1,0.21,4.1,5.39,-0.2212452,-0.01296426,-0.1211332,0.1642726,-1.260481,-0.3594182,0.4411671,0.02,0.22,0.08,93.58
17564,60987707,1,0.21,4.11,5.4,-0.2215493,-0.01328777,-0.1211216,0.1657576,-1.260296,-0.3598099,0.4437426,0.02,0.22,0.08,93.58
17605,60998548,1,0.21,4.1,5.4,-0.2215248,-0.01366319,-0.1192709,0.1708198,-1.260024,-0.3601792,0.4462194,0.02,0.22,0.08,93.58
17646,61008118,1,0.21,4.1,5.4,-0.2226226,-0.01448437,-0.1192272,0.1727659,-1.259895,-0.360544,0.4484986,0.02,0.22,0.08,93.58
17688,61018116,1,0.2,4.1,5.4,-0.2224144,-0.01544334,-0.1177013,0.1729197,-1.259882,-0.3609123,0.4505955,0.02,0.22,0.08,93.58
17734,61028124,1,0.2,4.1,5.4,-0.2229145,-0.01534101,-0.1174145,0.1706602,-1.259995,-0.3612778,0.4525118,0.02,0.22,0.08,93.58
17775,61038993,1,0.21,4.1,5.4,-0.2257733,-0.01454309,-0.1164102,0.1707238,-1.262453,-0.3614433,0.4512302,0.02,0.22,0.08,93.58
17816,61049575,1,0.2,4.1,5.4,-0.2279578,-0.01529726,-0.114992,0.1670849,-1.262708,-0.3617991,0.4530118,0.02,0.22,0.08,93.58
17856,61060015,1,0.2,4.11,5.4,-0.2287909,-0.01565572,-0.1118266,0.162815,-1.263269,-0.3621688,0.4545481,0.02,0.22,0.08,93.58
17899,61073181,1,0.2,4.11,5.4,-0.2310396,-0.01733182,-0.1104641,0.1602041,-1.264439,-0.3625748,0.4566614,0.02,0.22,0.08,93.58
17940,61083566,1,0.19,4.11,5.4,-0.2311071,-0.01770389,-0.1084327,0.162024,-1.265014,-0.3629353,0.4589229,0.02,0.22,0.08,93.58
17980,61093690,1,0.19,4.11,5.4,-0.2320941,-0.01689292,-0.1075116,0.158203,-1.265951,-0.3633044,0.4609086,0.02,0.22,0.08,93.58
18022,61103841,1,0.19,4.11,5.4,-0.2327068,-0.01623064,-0.1058676,0.1538427,-1.266718,-0.363641,0.4628573,0.02,0.22,0.08,93.58
18063,61114435,1,0.2,4.11,5.4,-0.2347978,-0.01522989,-0.10601,0.1508216,-1.267584,-0.3639647,0.4646257,0.02,0.22,0.08,93.58
18103,61124975,1,0.2,4.11,5.4,-0.2368439,-0.01702717,-0.1054276,0.1501053,-1.270165,-0.3641431,0.4634687,0.02,0.22,0.08,93.58
18149,61134989,1,0.2,4.12,5.4,-0.2379905,-0.01616538,-0.104525,0.1462419,-1.271136,-0.3644742,0.465108,0.02,0.22,0.08,93.58
18189,61144899,1,0.2,4.12,5.4,-0.2408646,-0.01559879,-0.1047435,0.1352589,-1.273545,-0.3646308,0.4640541,0.02,0.22,0.08,93.58
18231,61155751,1,0.2,4.12,5.4,-0.2421038,-0.01657631,-0.1035652,0.1259258,-1.274577,-0.3649476,0.4656318,0.02,0.22,0.08,93.58
18271,61165709,1,0.2,4.13,5.4,-0.2427674,-0.01605993,-0.1025994,0.1160561,-1.27596,-0.3652807,0.4669541,0.02,0.22,0.08,93.58
18312,61175904,1,0.2,4.13,5.41,-0.2433611,-0.01512101,-0.1018969,0.107913,-1.277181,-0.3655839,0.4682456,0.02,0.22,0.08,93.58
18354,61188665,1,0.2,4.12,5.41,-0.242607,-0.01522584,-0.098701,0.1030356,-1.277239,-0.365887,0.4709725,0.02,0.22,0.08,93.58
18391,61198698,1,0.2,4.11,5.41,-0.2423034,-0.01484745,-0.09660625,0.1077453,-1.276702,-0.3661338,0.4738007,0.02,0.22,0.08,93.58
18433,61208667,1,0.19,4.11,5.41,-0.2447877,-0.01364369,-0.09600124,0.1121711,-1.279137,-0.3662736,0.4728347,0.02,0.22,0.08,93.58
18473,61218659,1,0.19,4.11,5.41,-0.2450011,-0.01433714,-0.09401622,0.1177659,-1.278713,-0.3665056,0.4755328,0.02,0.22,0.08,93.58
18514,61228687,1,0.19,4.11,5.41,-0.2446757,-0.01404077,-0.09098236,0.1227716,-1.278449,-0.3667332,0.478064,0.02,0.22,0.08,93.58
18561,61238668,1,0.19,4.11,5.41,-0.2441492,-0.01487096,-0.09150956,0.1235222,-1.278283,-0.3669626,0.480423,0.02,0.22,0.08,93.58
18601,61249347,1,0.19,4.1,5.41,-0.2442758,-0.01571798,-0.09071667,0.129323,-1.278271,-0.3671977,0.4825718,0.02,0.22,0.08,93.58
18642,61259715,1,0.19,4.1,5.41,-0.2469583,-0.01483851,-0.09190348,0.1355844,-1.280984,-0.3673658,0.4815661,0.02,0.22,0.08,93.58
18682,61270597,1,0.19,4.1,5.41,-0.2469369,-0.01480071,-0.08987022,0.1401544,-1.281064,-0.3675924,0.4835784,0.02,0.22,0.08,93.58
18723,61280781,1,0.19,4.1,5.42,-0.2466792,-0.01590585,-0.08919235,0.1430282,-1.281538,-0.3678373,0.486137,0.02,0.22,0.08,93.58
18764,61290723,1,0.19,4.1,5.42,-0.2478667,-0.01519621,-0.08980813,0.1481353,-1.28185,-0.3680588,0.4885807,0.02,0.22,0.08,93.58
18805,61300714,1,0.2,4.1,5.41,-0.2472522,-0.01436069,-0.08721029,0.1553732,-1.282287,-0.3682738,0.4908413,0.02,0.23,0.08,93.58
18846,61310664,1,0.2,4.1,5.41,-0.2474491,-0.01562135,-0.08694267,0.1572868,-1.282822,-0.3684869,0.4929473,0.02,0.23,0.08,93.58
18886,61321500,1,0.2,4.1,5.41,-0.249788,-0.01660227,-0.08596605,0.1622114,-1.285316,-0.3686497,0.4920825,0.02,0.23,0.08,93.58
18927,61331424,1,0.2,4.1,5.41,-0.2499819,-0.01853418,-0.08448286000000001,0.1640947,-1.285971,-0.3688864,0.4940496,0.02,0.22,0.08,93.58
18973,61341641,1,0.2,4.1,5.42,-0.2509421,-0.01880894,-0.08299424,0.1634992,-1.28693,-0.3691467,0.4958048,0.02,0.22,0.08,93.58
19014,61352035,1,0.2,4.1,5.41,-0.2510327,-0.01801846,-0.08403326,0.1592866,-1.287793,-0.3693872,0.4974716,0.02,0.23,0.08,93.58
19056,61362070,1,0.19,4.1,5.41,-0.2522308,-0.01874673,-0.08299753999999999,0.154872,-1.288711,-0.3696254,0.499003,0.02,0.23,0.08,93.58
19096,61372627,1,0.19,4.11,5.42,-0.253436,-0.02043541,-0.08370584,0.149895,-1.289779,-0.3698705,0.5011992,0.02,0.23,0.08,93.58
19137,61383607,1,0.19,4.11,5.42,-0.2553349,-0.02030951,-0.08373772,0.1498937,-1.292575,-0.370093,0.5002786,0.02,0.23,0.08,93.58
19176,61393902,1,0.19,4.11,5.42,-0.2567764,-0.01955059,-0.08287396,0.1482841,-1.293989,-0.37036,0.5022544,0.02,0.23,0.08,93.58
19214,61404369,1,0.18,4.11,5.42,-0.2567787,-0.01824171,-0.08200043999999999,0.147301,-1.293165,-0.3703664,0.5046819,0.02,0.23,0.08,93.58
19256,61414148,1,0.18,4.11,5.42,-0.2561484,-0.01803916,-0.08162705000000001,0.1496897,-1.292578,-0.370371,0.5068955000000001,0.02,0.23,0.08,93.58
19296,61424212,1,0.18,4.1,5.42,-0.2559873,-0.01594342,-0.08089025,0.1503199,-1.292036,-0.3703678,0.5089865,0.02,0.23,0.08,93.58
19337,61434250,1,0.19,4.1,5.42,-0.2556829,-0.01562097,-0.07934057,0.1512579,-1.291683,-0.3703565,0.5109102,0.02,0.23,0.08,93.58
19381,61444689,1,0.19,4.1,5.42,-0.255993,-0.01585145,-0.07799428999999999,0.153369,-1.2917,-0.3703636,0.5126099,0.02,0.23,0.08,93.58
19422,61455165,1,0.19,4.1,5.42,-0.258549,-0.0148366,-0.07783575,0.154917,-1.294283,-0.3705182,0.5118248,0.02,0.23,0.08,93.58
19464,61465240,1,0.19,4.1,5.42,-0.2584437,-0.01514591,-0.07766758999999999,0.1531289,-1.294183,-0.3705013,0.5134801,0.02,0.23,0.08,93.58
19505,61475675,1,0.2,4.09,5.42,-0.2612712,-0.01424987,-0.07672835,0.1450408,-1.297041,-0.370664,0.5126253,0.02,0.23,0.08,93.58
19546,61486673,1,0.2,4.09,5.42,-0.2606828,-0.01314966,-0.07441298,0.1374177,-1.29732,-0.3706568,0.5141591,0.02,0.23,0.08,93.58
19586,61497163,1,0.2,4.09,5.42,-0.2602684,-0.0129301,-0.07408602,0.1307855,-1.297422,-0.3706283,0.5163268,0.02,0.23,0.08,93.58
19627,61507191,1,0.2,4.09,5.42,-0.2602629,-0.0124656,-0.07370596,0.1227546,-1.297627,-0.3706008,0.5183556,0.02,0.23,0.08,93.58
19670,61517706,1,0.2,4.09,5.43,-0.2629033,-0.0137493,-0.07272165999999999,0.1206639,-1.300493,-0.370743,0.517554,0.02,0.23,0.08,93.58
19711,61528194,1,0.19,4.08,5.43,-0.2640352,-0.01433087,-0.07197421,0.1179297,-1.300832,-0.3707327,0.5194635,0.02,0.23,0.08,93.58
19752,61538191,1,0.19,4.08,5.43,-0.2638073,-0.01447556,-0.07159951000000001,0.1159759,-1.301288,-0.3707274,0.5212206,0.02,0.23,0.08,93.58
19796,61548821,1,0.19,4.08,5.43,-0.2649354,-0.01492318,-0.06915738,0.1175031,-1.302139,-0.3707472,0.5227608,0.02,0.23,0.08,93.58
19838,61558699,1,0.19,4.08,5.43,-0.2654108,-0.01421972,-0.06881851999999999,0.1164123,-1.302825,-0.3707533,0.5242452,0.02,0.23,0.08,93.58
