LineNo,TimeUS,C,Roll,Pitch,Yaw,VN,VE,VD,dPD,PN,PE,PD,GX,GY,GZ,OH
996,5.6703e+07,0,-0.29,3.38,3.83,0.010105,0.0078046,-0.04797,0.00065774,-1.1243,-0.30633,0.75928,-0.08,-0.02,-0.05,93.6
1460,5.6875e+07,0,-0.29,3.38,3.82,0.011056,0.0089981,-0.51321,-0.41766,-1.1355,-0.30633,0.71885,-0.08,-0.02,-0.05,93.6
1478,5.6895e+07,0,-0.29,3.38,3.81,0.010896,0.008814,-0.5125,-0.42296,-1.1355,-0.30633,0.70983,-0.08,-0.02,-0.05,93.6
1520,5.6905e+07,0,-0.3,3.38,3.81,0.01087,0.0088916,-0.51211,-0.42598,-1.1355,-0.30633,0.70527,-0.08,-0.02,-0.05,93.6
1560,5.6915e+07,0,-0.3,3.38,3.81,0.010735,0.0089774,-0.51191,-0.42954,-1.1355,-0.30633,0.70069,-0.08,-0.02,-0.05,93.6
1605,5.6925e+07,0,-0.3,3.38,3.8,0.010768,0.0090102,-0.5117,-0.43336,-1.1355,-0.30633,0.69608,-0.08,-0.02,-0.05,93.6
1646,5.6936e+07,0,-0.3,3.38,3.8,0.010638,0.0089486,-0.51172,-0.43757,-1.1355,-0.30633,0.69093,-0.08,-0.02,-0.05,93.6
1686,5.6946e+07,0,-0.3,3.38,3.79,0.010625,0.0090442,-0.51177,-0.44117,-1.1355,-0.30633,0.68582,-0.08,-0.02,-0.05,93.6
1728,5.6956e+07,0,-0.3,3.38,3.79,0.010377,0.0090862,-0.51186,-0.44525,-1.1355,-0.30633,0.68115,-0.08,-0.02,-0.05,93.6
1774,5.697e+07,0,-0.3,3.38,3.79,0.010383,0.0090922,-0.5115,-0.44802,-1.1355,-0.30633,0.6751,-0.08,-0.02,-0.05,93.6
1814,5.698e+07,0,-0.29,3.38,3.78,0.01037,0.0091687,-0.5114,-0.4479,-1.1355,-0.31439,0.67104,-0.08,-0.02,-0.05,93.6
1856,5.6991e+07,0,-0.29,3.38,3.78,0.010344,0.0090428,-0.51087,-0.44675,-1.1355,-0.31439,0.66642,-0.08,-0.02,-0.05,93.6
1896,5.7001e+07,0,-0.29,3.38,3.77,0.010218,0.0089609,-0.51055,-0.4454,-1.1355,-0.31439,0.66226,-0.08,-0.02,-0.05,93.6
1937,5.7011e+07,0,-0.29,3.38,3.77,0.010247,0.0089325,-0.5102,-0.44439,-1.1355,-0.31439,0.65806,-0.08,-0.02,-0.05,93.6
1977,5.7021e+07,0,-0.29,3.38,3.77,0.010278,0.0090041,-0.51042,-0.44285,-1.1355,-0.31439,0.65297,-0.08,-0.02,-0.05,93.6
2022,5.7032e+07,0,-0.29,3.38,3.76,0.010406,0.0090826,-0.51024,-0.4417,-1.1355,-0.31439,0.64873,-0.08,-0.02,-0.05,93.6
2063,5.7042e+07,0,-0.3,3.38,3.76,0.01044,0.0090001,-0.51019,-0.44113,-1.1355,-0.31439,0.64394,-0.08,-0.02,-0.05,93.6
2104,5.7052e+07,0,-0.3,3.38,3.76,0.01051,0.009099,-0.50974,-0.44049,-1.1355,-0.31439,0.63961,-0.08,-0.02,-0.05,93.6
2151,5.7065e+07,0,-0.3,3.38,3.75,0.010603,0.0091334,-0.50959,-0.44054,-1.1355,-0.31439,0.63367,-0.08,-0.02,-0.05,93.6
2191,5.7074e+07,0,-0.3,3.38,3.75,0.010369,0.0091625,-0.50948,-0.44147,-1.1355,-0.31439,0.62973,-0.08,-0.02,-0.05,93.6
2232,5.7085e+07,0,-0.3,3.38,3.75,0.010256,0.0092675,-0.50934,-0.44224,-1.1355,-0.31439,0.62473,-0.08,-0.02,-0.05,93.6
2272,5.7096e+07,0,-0.3,3.38,3.74,0.010396,0.0091631,-0.50881,-0.44285,-1.1355,-0.31439,0.61971,-0.08,-0.02,-0.05,93.6
2314,5.7106e+07,0,-0.3,3.38,3.74,0.010439,0.0091602,-0.50859,-0.44371,-1.1355,-0.31439,0.61463,-0.08,-0.02,-0.05,93.6
2355,5.7116e+07,0,-0.3,3.38,3.74,0.010286,0.0092674,-0.50833,-0.44531,-1.1355,-0.31439,0.61009,-0.08,-0.02,-0.05,93.6
2395,5.7126e+07,0,-0.3,3.38,3.74,0.010241,0.0092587,-0.508,-0.44712,-1.1355,-0.31439,0.60553,-0.08,-0.02,-0.05,93.6
2440,5.7136e+07,0,-0.3,3.38,3.74,0.0099826,0.0091392,-0.50772,-0.44945,-1.1355,-0.31439,0.60095,-0.08,-0.02,-0.05,93.6
2480,5.7147e+07,0,-0.3,3.38,3.73,0.0099905,0.0091999,-0.50766,-0.45246,-1.1355,-0.31439,0.59583,-0.08,-0.02,-0.05,93.6
2522,5.7157e+07,0,-0.3,3.38,3.73,0.010143,0.0092611,-0.50776,-0.45494,-1.1355,-0.31439,0.59076,-0.08,-0.02,-0.05,93.6
2563,5.7167e+07,0,-0.3,3.38,3.73,0.010148,0.0093783,-0.50755,-0.45726,-1.1355,-0.31439,0.58613,-0.08,-0.02,-0.05,93.6
2599,5.7177e+07,0,-0.3,3.38,3.73,0.0099905,0.0092599,-0.50718,-0.45909,-1.1355,-0.31439,0.58174,-0.08,-0.02,-0.05,93.6
2641,5.7188e+07,0,-0.3,3.38,3.73,0.0098621,0.0093906,-0.50685,-0.46001,-1.1466,-0.31439,0.57681,-0.08,-0.02,-0.05,93.6
2681,5.7198e+07,0,-0.3,3.38,3.73,0.0098564,0.0094268,-0.50686,-0.46113,-1.1466,-0.31439,0.57235,-0.08,-0.02,-0.05,93.6
2723,5.7209e+07,0,-0.3,3.38,3.73,0.01012,0.009536,-0.50683,-0.4616,-1.1466,-0.31439,0.56736,-0.08,-0.02,-0.05,93.6
2763,5.722e+07,0,-0.3,3.38,3.73,0.010176,0.0095907,-0.50662,-0.46211,-1.1466,-0.31439,0.56233,-0.08,-0.02,-0.05,93.6
2804,5.7231e+07,0,-0.3,3.38,3.73,0.010243,0.0097891,-0.50669,-0.46239,-1.1466,-0.31439,0.55727,-0.08,-0.02,-0.05,93.6
2851,5.724e+07,0,-0.3,3.38,3.72,0.010258,0.0097506,-0.50695,-0.46329,-1.1466,-0.31439,0.55273,-0.08,-0.02,-0.05,93.6
2892,5.7251e+07,0,-0.3,3.38,3.72,0.010399,0.0098972,-0.50649,-0.46381,-1.1466,-0.31439,0.54766,-0.08,-0.02,-0.05,93.6
2933,5.7261e+07,0,-0.3,3.38,3.72,0.010384,0.0099957,-0.50654,-0.46483,-1.1466,-0.31439,0.54306,-0.08,-0.02,-0.05,93.6
2977,5.7275e+07,0,-0.3,3.38,3.72,0.010451,0.010004,-0.50648,-0.46504,-1.1466,-0.31439,0.53672,-0.08,-0.02,-0.05,93.6
3018,5.7285e+07,0,-0.3,3.38,3.72,0.010472,0.010187,-0.50641,-0.4648,-1.1466,-0.31439,0.53236,-0.08,-0.02,-0.05,93.6
3058,5.7295e+07,0,-0.3,3.38,3.72,0.010661,0.010116,-0.50616,-0.46424,-1.1466,-0.31439,0.5273,-0.08,-0.02,-0.05,93.6
3100,5.7306e+07,0,-0.3,3.38,3.72,0.010694,0.0099663,-0.50612,-0.46394,-1.1466,-0.31439,0.52292,-0.08,-0.02,-0.05,93.6
3141,5.7316e+07,0,-0.3,3.38,3.72,0.010844,0.0098988,-0.5059,-0.46322,-1.1466,-0.31439,0.51851,-0.08,-0.02,-0.05,93.6
3181,5.7326e+07,0,-0.3,3.38,3.72,0.01092,0.0096507,-0.50573,-0.46262,-1.1466,-0.31439,0.51356,-0.08,-0.02,-0.05,93.6
3226,5.7336e+07,0,-0.3,3.38,3.72,0.010852,0.009436,-0.50581,-0.46218,-1.1466,-0.31439,0.50908,-0.08,-0.02,-0.05,93.6
3267,5.7346e+07,0,-0.3,3.38,3.72,0.010898,0.0094168,-0.50575,-0.46181,-1.1466,-0.31439,0.50458,-0.08,-0.02,-0.05,93.6
3308,5.7357e+07,0,-0.3,3.38,3.72,0.010962,0.009534,-0.50535,-0.46089,-1.1466,-0.31439,0.49954,-0.08,-0.02,-0.05,93.6
3350,5.7367e+07,0,-0.3,3.38,3.72,0.010974,0.0094806,-0.50514,-0.46025,-1.1466,-0.31439,0.49498,-0.08,-0.02,-0.05,93.6
3391,5.7378e+07,0,-0.3,3.38,3.72,0.011093,0.0096125,-0.50509,-0.45977,-1.1466,-0.31439,0.48943,-0.08,-0.02,-0.05,93.6
3431,5.7388e+07,0,-0.3,3.38,3.72,0.011139,0.0096914,-0.50482,-0.45596,-1.1577,-0.31439,0.48541,-0.08,-0.02,-0.05,93.6
3472,5.7399e+07,0,-0.3,3.38,3.72,0.011093,0.0097551,-0.50453,-0.4503,-1.1577,-0.31439,0.48232,-0.08,-0.02,-0.05,93.6
3513,5.7409e+07,0,-0.3,3.38,3.72,0.011015,0.0098893,-0.50395,-0.44186,-1.1577,-0.31439,0.47817,-0.08,-0.02,-0.05,93.6
3555,5.7419e+07,0,-0.3,3.38,3.72,0.010989,0.0099161,-0.50338,-0.43314,-1.1577,-0.31439,0.47445,-0.08,-0.02,-0.05,93.6
3595,5.7429e+07,0,-0.3,3.38,3.72,0.011044,0.0099343,-0.50307,-0.42552,-1.1577,-0.31439,0.47068,-0.08,-0.02,-0.05,93.6
3640,5.7439e+07,0,-0.3,3.38,3.72,0.01101,0.0099574,-0.50259,-0.41935,-1.1577,-0.31439,0.46685,-0.08,-0.02,-0.05,93.6
3681,5.745e+07,0,-0.3,3.38,3.73,0.010897,0.0099549,-0.50227,-0.41403,-1.1577,-0.31439,0.46248,-0.08,-0.02,-0.05,93.6
3722,5.7461e+07,0,-0.3,3.38,3.72,0.011142,0.0098879,-0.50206,-0.4092,-1.1577,-0.31439,0.45804,-0.08,-0.02,-0.05,93.6
3763,5.7471e+07,0,-0.3,3.38,3.72,0.01118,0.0097399,-0.50223,-0.40538,-1.1577,-0.31439,0.45303,-0.08,-0.02,-0.05,93.6
3803,5.7482e+07,0,-0.3,3.38,3.73,0.011054,0.009762,-0.50172,-0.39919,-1.1577,-0.31439,0.44956,-0.08,-0.02,-0.05,93.6
3844,5.7492e+07,0,-0.3,3.38,3.73,0.010842,0.0098152,-0.50129,-0.39278,-1.1577,-0.31439,0.44651,-0.08,-0.02,-0.05,93.6
3885,5.7502e+07,0,-0.3,3.38,3.73,0.010844,0.0098198,-0.50067,-0.38545,-1.1577,-0.31439,0.44337,-0.08,-0.02,-0.05,93.6
3926,5.7512e+07,0,-0.3,3.38,3.73,0.010769,0.0097782,-0.5005,-0.37943,-1.1577,-0.31439,0.43966,-0.08,-0.02,-0.05,93.6
3966,5.7522e+07,0,-0.3,3.38,3.73,0.010752,0.010039,-0.50053,-0.37273,-1.1577,-0.31439,0.43466,-0.08,-0.02,-0.05,93.6
4007,5.7532e+07,0,-0.3,3.38,3.73,0.010789,0.010099,-0.5002,-0.36737,-1.1577,-0.31439,0.43137,-0.08,-0.02,-0.05,93.6
4054,5.7543e+07,0,-0.3,3.38,3.73,0.01072,0.010208,-0.49987,-0.36286,-1.1577,-0.31439,0.42751,-0.08,-0.02,-0.05,93.6
4097,5.7554e+07,0,-0.3,3.38,3.73,0.010659,0.010094,-0.49938,-0.35822,-1.1577,-0.31439,0.42358,-0.08,-0.02,-0.05,93.6
4138,5.7564e+07,0,-0.3,3.38,3.73,0.010626,0.010334,-0.49907,-0.35539,-1.1577,-0.31439,0.42008,-0.08,-0.02,-0.05,93.6
4180,5.7574e+07,0,-0.3,3.38,3.73,0.010508,0.01053,-0.49862,-0.35432,-1.1577,-0.31439,0.41652,-0.08,-0.02,-0.05,93.6
4222,5.7585e+07,0,-0.3,3.38,3.73,0.010614,0.010632,-0.49879,-0.35312,-1.1577,-0.31439,0.41154,-0.08,-0.02,-0.05,93.6
4262,5.7595e+07,0,-0.3,3.38,3.73,0.010669,0.010522,-0.49827,-0.3517,-1.1577,-0.31439,0.40786,-0.08,-0.02,-0.05,93.6
4303,5.7605e+07,0,-0.3,3.38,3.74,0.010579,0.010399,-0.49823,-0.34983,-1.1577,-0.31439,0.40459,-0.08,-0.02,-0.05,93.6
4343,5.7616e+07,0,-0.3,3.38,3.74,0.010471,0.010491,-0.49787,-0.34849,-1.1577,-0.31439,0.40076,-0.08,-0.02,-0.05,93.6
4384,5.7626e+07,0,-0.3,3.38,3.74,0.010223,0.010401,-0.49734,-0.34799,-1.1577,-0.31439,0.39784,-0.08,-0.02,-0.05,93.6
4426,5.7636e+07,0,-0.3,3.38,3.74,0.010095,0.010514,-0.49713,-0.34814,-1.1577,-0.31439,0.39437,-0.08,-0.02,-0.05,93.6
4470,5.7646e+07,0,-0.3,3.38,3.74,0.010129,0.010604,-0.49707,-0.34793,-1.1577,-0.31439,0.39032,-0.08,-0.02,-0.05,93.6
4511,5.7657e+07,0,-0.3,3.38,3.74,0.010127,0.010729,-0.49684,-0.34736,-1.1577,-0.31439,0.38536,-0.08,-0.02,-0.05,93.6
4551,5.7667e+07,0,-0.3,3.38,3.74,0.010127,0.01062,-0.49657,-0.34857,-1.1577,-0.31439,0.38176,-0.08,-0.02,-0.05,93.6
4592,5.7677e+07,0,-0.3,3.38,3.74,0.010119,0.010443,-0.49618,-0.35109,-1.1577,-0.31439,0.3776,-0.08,-0.02,-0.05,93.6
4636,5.7689e+07,0,-0.3,3.38,3.74,0.010214,0.010613,-0.49572,-0.35385,-1.1577,-0.31439,0.37415,-0.08,-0.02,-0.05,93.6
4677,5.77e+07,0,-0.3,3.38,3.74,0.010088,0.010531,-0.49518,-0.35385,-1.1577,-0.31439,0.37159,-0.08,-0.02,-0.05,93.6
4714,5.7711e+07,0,-0.3,3.38,3.74,0.010065,0.010537,-0.49457,-0.34898,-1.1577,-0.31439,0.36794,-0.08,-0.02,-0.05,93.6
4754,5.7722e+07,0,-0.3,3.38,3.74,0.010134,0.010447,-0.49404,-0.34277,-1.1577,-0.31439,0.36467,-0.08,-0.02,-0.05,93.6
4794,5.7732e+07,0,-0.31,3.38,3.74,0.010204,0.010643,-0.49391,-0.33581,-1.1577,-0.31439,0.35974,-0.08,-0.02,-0.05,93.6
4837,5.7742e+07,0,-0.31,3.38,3.74,0.010211,0.010494,-0.49358,-0.33075,-1.1577,-0.31439,0.35689,-0.08,-0.02,-0.05,93.6
4881,5.7752e+07,0,-0.31,3.38,3.74,0.010381,0.010541,-0.49322,-0.32648,-1.1577,-0.31439,0.35394,-0.08,-0.02,-0.05,93.6
4922,5.7762e+07,0,-0.31,3.38,3.74,0.010436,0.010708,-0.49275,-0.3259,-1.1577,-0.31439,0.35092,-0.08,-0.02,-0.05,93.6
4962,5.7773e+07,0,-0.31,3.38,3.74,0.010605,0.010581,-0.49238,-0.32405,-1.1577,-0.31439,0.34732,-0.08,-0.02,-0.05,93.6
5005,5.7784e+07,0,-0.3,3.38,3.74,0.01078,0.010649,-0.49234,-0.322,-1.18,-0.31439,0.34241,-0.08,-0.02,-0.05,93.6
5043,5.7794e+07,0,-0.3,3.38,3.74,0.010702,0.010691,-0.49157,-0.31768,-1.18,-0.31439,0.33988,-0.08,-0.02,-0.05,93.6
5083,5.7804e+07,0,-0.3,3.38,3.74,0.010562,0.010749,-0.49116,-0.31093,-1.18,-0.31439,0.33772,-0.08,-0.02,-0.05,93.6
5124,5.7814e+07,0,-0.3,3.38,3.74,0.010512,0.010896,-0.49061,-0.30383,-1.18,-0.31439,0.33544,-0.08,-0.02,-0.05,93.6
5165,5.7825e+07,0,-0.3,3.38,3.74,0.010688,0.010732,-0.48994,-0.29723,-1.18,-0.31439,0.33256,-0.08,-0.02,-0.05,93.6
5206,5.7835e+07,0,-0.3,3.38,3.74,0.010588,0.010519,-0.48924,-0.29117,-1.18,-0.31439,0.33006,-0.08,-0.02,-0.05,93.6
5247,5.7845e+07,0,-0.3,3.38,3.73,0.010444,0.010362,-0.4887,-0.28668,-1.18,-0.31439,0.32745,-0.08,-0.02,-0.05,93.6
5292,5.7856e+07,0,-0.3,3.38,3.73,0.010381,0.01001,-0.48836,-0.28168,-1.18,-0.31439,0.32426,-0.08,-0.02,-0.05,93.6
5334,5.7866e+07,0,-0.3,3.38,3.73,0.010515,0.010053,-0.4883,-0.27749,-1.18,-0.31439,0.31939,-0.08,-0.02,-0.05,93.6
5374,5.7876e+07,0,-0.3,3.38,3.73,0.010629,0.0099882,-0.48777,-0.27601,-1.18,-0.31439,0.3166,-0.08,-0.02,-0.05,93.6
5416,5.7886e+07,0,-0.3,3.38,3.73,0.010853,0.0099784,-0.48747,-0.27624,-1.18,-0.31439,0.31372,-0.08,-0.02,-0.05,93.6
5456,5.7899e+07,0,-0.31,3.38,3.73,0.010815,0.010057,-0.48672,-0.27605,-1.18,-0.31439,0.31047,-0.08,-0.02,-0.05,93.6
5497,5.7909e+07,0,-0.31,3.38,3.73,0.010763,0.010168,-0.48606,-0.27501,-1.18,-0.31439,0.30855,-0.08,-0.02,-0.05,93.6
5538,5.792e+07,0,-0.31,3.38,3.73,0.0108,0.010265,-0.48619,-0.27313,-1.18,-0.31439,0.30321,-0.08,-0.02,-0.05,93.6
5578,5.793e+07,0,-0.3,3.38,3.73,0.010721,0.010251,-0.48561,-0.27067,-1.18,-0.31439,0.30118,-0.08,-0.02,-0.05,93.6
5619,5.794e+07,0,-0.3,3.38,3.72,0.010721,0.010311,-0.48479,-0.26657,-1.18,-0.31439,0.29904,-0.08,-0.02,-0.05,93.6
5660,5.795e+07,0,-0.3,3.38,3.72,0.010824,0.010269,-0.48404,-0.26529,-1.18,-0.31439,0.29678,-0.08,-0.02,-0.05,93.6
5705,5.796e+07,0,-0.3,3.38,3.72,0.010755,0.010323,-0.48356,-0.26583,-1.18,-0.31439,0.29442,-0.08,-0.02,-0.05,93.6
5747,5.7971e+07,0,-0.3,3.39,3.72,0.010803,0.010275,-0.48367,-0.2643,-1.18,-0.31439,0.28959,-0.08,-0.02,-0.05,93.6
5787,5.798e+07,0,-0.3,3.38,3.72,0.01075,0.010346,-0.48304,-0.26422,-1.18,-0.31439,0.28713,-0.08,-0.02,-0.05,93.6
5830,5.7991e+07,0,-0.3,3.38,3.72,0.010601,0.010323,-0.48269,-0.26594,-1.1911,-0.32245,0.28409,-0.08,-0.02,-0.05,93.6
5868,5.8004e+07,0,-0.3,3.39,3.72,0.010624,0.010334,-0.48217,-0.26521,-1.1911,-0.32245,0.28114,-0.08,-0.02,-0.05,93.6
5908,5.8014e+07,0,-0.3,3.39,3.72,0.010449,0.010214,-0.48144,-0.26038,-1.1911,-0.32245,0.2795,-0.08,-0.02,-0.05,93.6
5949,5.8025e+07,0,-0.3,3.39,3.72,0.010199,0.010048,-0.48088,-0.25567,-1.1911,-0.32245,0.27724,-0.08,-0.02,-0.05,93.6
5990,5.8035e+07,0,-0.3,3.39,3.72,0.010238,0.009998,-0.48013,-0.25307,-1.1911,-0.32245,0.27534,-0.08,-0.02,-0.05,93.6
6033,5.8045e+07,0,-0.3,3.39,3.72,0.010427,0.010059,-0.48015,-0.24804,-1.1911,-0.32245,0.27054,-0.08,-0.02,-0.05,93.6
6074,5.8055e+07,0,-0.3,3.39,3.72,0.010363,0.010134,-0.47964,-0.24504,-1.1911,-0.32245,0.26852,-0.08,-0.02,-0.05,93.6
6118,5.8065e+07,0,-0.3,3.39,3.72,0.010459,0.01034,-0.47913,-0.2464,-1.1911,-0.32245,0.2664,-0.08,-0.02,-0.05,93.6
6160,5.8076e+07,0,-0.3,3.38,3.72,0.01041,0.010438,-0.47867,-0.24839,-1.1911,-0.32245,0.26369,-0.08,-0.02,-0.05,93.6
6201,5.8086e+07,0,-0.3,3.39,3.71,0.01053,0.010296,-0.47882,-0.24855,-1.1911,-0.32245,0.25891,-0.08,-0.02,-0.05,93.6
6241,5.8096e+07,0,-0.3,3.39,3.71,0.010623,0.010343,-0.47844,-0.24928,-1.1911,-0.32245,0.25657,-0.08,-0.02,-0.05,93.6
6280,5.8106e+07,0,-0.3,3.39,3.71,0.010669,0.010382,-0.47774,-0.24977,-1.1911,-0.32245,0.25493,-0.08,-0.02,-0.05,93.6
6320,5.8119e+07,0,-0.3,3.39,3.71,0.010658,0.010591,-0.47696,-0.24876,-1.1911,-0.32245,0.25174,-0.08,-0.02,-0.05,93.6
6361,5.8129e+07,0,-0.3,3.39,3.71,0.010561,0.010596,-0.47598,-0.25114,-1.1911,-0.32245,0.24986,-0.08,-0.02,-0.05,93.6
6402,5.814e+07,0,-0.3,3.39,3.71,0.010463,0.010636,-0.47503,-0.24993,-1.1911,-0.32245,0.24738,-0.08,-0.02,-0.05,93.6
6443,5.815e+07,0,-0.3,3.39,3.71,0.010603,0.010586,-0.47504,-0.24737,-1.1911,-0.32245,0.24264,-0.08,-0.02,-0.05,93.6
6488,5.816e+07,0,-0.3,3.39,3.71,0.010637,0.010619,-0.47469,-0.24677,-1.1911,-0.32245,0.24052,-0.08,-0.02,-0.05,93.6
6530,5.817e+07,0,-0.3,3.39,3.71,0.010327,0.010553,-0.47419,-0.24664,-1.2022,-0.33051,0.23829,-0.08,-0.02,-0.05,93.6
6572,5.818e+07,0,-0.3,3.39,3.71,0.010263,0.010561,-0.47369,-0.24536,-1.2022,-0.33051,0.23595,-0.08,-0.02,-0.05,93.6
6613,5.8191e+07,0,-0.3,3.39,3.71,0.010256,0.010502,-0.47298,-0.24662,-1.2022,-0.33051,0.2335,-0.08,-0.02,-0.05,93.6
6654,5.8201e+07,0,-0.3,3.38,3.71,0.010318,0.01049,-0.47299,-0.24937,-1.2022,-0.33051,0.22877,-0.08,-0.02,-0.05,93.6
6692,5.8211e+07,0,-0.3,3.39,3.71,0.010417,0.010349,-0.47227,-0.24944,-1.2022,-0.33051,0.22711,-0.08,-0.02,-0.05,93.6
6732,5.8221e+07,0,-0.31,3.39,3.71,0.010476,0.010301,-0.47121,-0.24473,-1.2022,-0.33051,0.22577,-0.08,-0.02,-0.05,93.6
6773,5.8231e+07,0,-0.31,3.39,3.71,0.010485,0.010102,-0.4706,-0.23719,-1.2022,-0.33051,0.22427,-0.08,-0.02,-0.05,93.6
6814,5.8242e+07,0,-0.31,3.38,3.71,0.010494,0.010154,-0.46984,-0.23097,-1.2022,-0.33051,0.22217,-0.08,-0.02,-0.05,93.6
6855,5.8252e+07,0,-0.31,3.39,3.71,0.010429,0.010245,-0.46948,-0.22435,-1.2022,-0.33051,0.22039,-0.08,-0.02,-0.05,93.6
6900,5.8262e+07,0,-0.31,3.39,3.71,0.010273,0.010089,-0.46887,-0.21965,-1.2022,-0.33051,0.21848,-0.08,-0.02,-0.05,93.6
6940,5.8272e+07,0,-0.3,3.39,3.71,0.010231,0.010241,-0.46807,-0.21828,-1.2022,-0.33051,0.21646,-0.08,-0.02,-0.05,93.6
6982,5.8282e+07,0,-0.3,3.39,3.72,0.010309,0.010132,-0.46811,-0.21625,-1.2022,-0.33051,0.21179,-0.08,-0.02,-0.05,93.6
7022,5.8292e+07,0,-0.3,3.39,3.72,0.010334,0.010017,-0.46751,-0.21687,-1.2022,-0.33051,0.20966,-0.08,-0.02,-0.05,93.6
7060,5.8306e+07,0,-0.3,3.39,3.72,0.01025,0.0099326,-0.4664,-0.21507,-1.2022,-0.33051,0.20725,-0.08,-0.02,-0.05,93.6
7103,5.8316e+07,0,-0.3,3.39,3.72,0.010229,0.0098804,-0.46526,-0.21045,-1.2022,-0.33051,0.20653,-0.08,-0.02,-0.05,93.6
7143,5.8326e+07,0,-0.31,3.39,3.72,0.010145,0.010088,-0.46424,-0.20483,-1.2022,-0.33051,0.20519,-0.08,-0.02,-0.05,93.6
7184,5.8336e+07,0,-0.31,3.39,3.72,0.010324,0.010105,-0.46327,-0.20113,-1.2022,-0.33051,0.20462,-0.08,-0.02,-0.05,93.6
7224,5.8347e+07,0,-0.31,3.39,3.72,0.010349,0.01019,-0.46311,-0.19267,-1.2022,-0.33051,0.19953,-0.08,-0.02,-0.05,93.6
7265,5.8357e+07,0,-0.31,3.39,3.72,0.010337,0.010094,-0.4624,-0.18782,-1.2022,-0.33051,0.19789,-0.08,-0.02,-0.05,93.6
7310,5.8367e+07,0,-0.3,3.39,3.72,0.010334,0.0099978,-0.46171,-0.18581,-1.2022,-0.33051,0.19703,-0.08,-0.02,-0.05,93.6
7353,5.8377e+07,0,-0.31,3.39,3.72,0.010281,0.0099384,-0.46087,-0.18319,-1.2134,-0.33857,0.19511,-0.08,-0.02,-0.05,93.6
7394,5.8387e+07,0,-0.31,3.39,3.72,0.010356,0.010018,-0.46016,-0.18406,-1.2134,-0.33857,0.19352,-0.08,-0.02,-0.05,93.6
7435,5.8397e+07,0,-0.31,3.39,3.71,0.010447,0.0099668,-0.46007,-0.18289,-1.2134,-0.33857,0.18892,-0.08,-0.02,-0.05,93.6
7478,5.8407e+07,0,-0.31,3.39,3.71,0.010429,0.0099552,-0.45915,-0.18391,-1.2134,-0.33857,0.18721,-0.08,-0.02,-0.05,93.6
7512,5.8418e+07,0,-0.31,3.39,3.71,0.01041,0.0098074,-0.45809,-0.18217,-1.2134,-0.33857,0.1864,-0.08,-0.02,-0.04,93.6
7552,5.8428e+07,0,-0.31,3.39,3.71,0.010328,0.0096372,-0.45706,-0.17615,-1.2134,-0.33857,0.18585,-0.08,-0.02,-0.05,93.6
7593,5.8438e+07,0,-0.31,3.39,3.71,0.010109,0.0097467,-0.45609,-0.17025,-1.2134,-0.33857,0.18469,-0.08,-0.02,-0.05,93.6
7634,5.8449e+07,0,-0.31,3.39,3.71,0.010053,0.0097258,-0.45536,-0.16753,-1.2134,-0.33857,0.18382,-0.08,-0.02,-0.04,93.6
7674,5.8459e+07,0,-0.31,3.39,3.71,0.0099246,0.0097215,-0.45508,-0.1612,-1.2134,-0.33857,0.17928,-0.08,-0.02,-0.04,93.6
7720,5.8469e+07,0,-0.31,3.39,3.71,0.0097718,0.0096967,-0.45424,-0.15756,-1.2134,-0.33857,0.17827,-0.08,-0.02,-0.04,93.6
7761,5.8479e+07,0,-0.31,3.39,3.71,0.0096033,0.009691,-0.45356,-0.15512,-1.2134,-0.33857,0.1771,-0.08,-0.02,-0.05,93.6
7801,5.8489e+07,0,-0.31,3.39,3.71,0.0094296,0.0098424,-0.45304,-0.15578,-1.2134,-0.33857,0.1758,-0.08,-0.02,-0.04,93.6
7842,5.85e+07,0,-0.31,3.39,3.71,0.0093824,0.0097466,-0.45255,-0.15828,-1.2134,-0.33857,0.1739,-0.08,-0.02,-0.04,93.6
7883,5.8511e+07,0,-0.31,3.39,3.71,0.0095109,0.0097931,-0.45245,-0.15903,-1.2134,-0.33857,0.16938,-0.08,-0.02,-0.04,93.6
7921,5.8521e+07,0,-0.31,3.39,3.71,0.0095275,0.0097537,-0.4511,-0.15804,-1.2134,-0.33857,0.16857,-0.08,-0.02,-0.04,93.6
7963,5.8531e+07,0,-0.31,3.39,3.7,0.0097361,0.0097393,-0.45016,-0.15361,-1.2134,-0.33857,0.16803,-0.08,-0.02,-0.04,93.6
8005,5.8542e+07,0,-0.31,3.39,3.7,0.0095298,0.0097918,-0.44945,-0.14872,-1.2134,-0.33857,0.16686,-0.08,-0.02,-0.04,93.6
8046,5.8551e+07,0,-0.31,3.39,3.7,0.0094381,0.0097779,-0.44873,-0.1436,-1.2134,-0.33857,0.16597,-0.08,-0.02,-0.04,93.6
8086,5.8562e+07,0,-0.31,3.39,3.7,0.009492,0.0097908,-0.448,-0.14026,-1.2134,-0.33857,0.16492,-0.08,-0.02,-0.04,93.6
8133,5.8572e+07,0,-0.31,3.39,3.7,0.0095302,0.0097236,-0.44735,-0.13751,-1.2134,-0.33857,0.16372,-0.08,-0.02,-0.04,93.6
8177,5.8582e+07,0,-0.31,3.39,3.7,0.0094862,0.0097411,-0.44648,-0.13702,-1.2134,-0.33857,0.16238,-0.08,-0.02,-0.05,93.6
8217,5.8593e+07,0,-0.31,3.39,3.7,0.0094186,0.0096502,-0.44584,-0.13657,-1.2134,-0.33857,0.16045,-0.08,-0.02,-0.05,93.6
8258,5.8604e+07,0,-0.31,3.39,3.7,0.0095053,0.0096185,-0.44566,-0.13661,-1.2134,-0.33857,0.15599,-0.08,-0.02,-0.05,93.6
8298,5.8614e+07,0,-0.31,3.39,3.7,0.0093602,0.0094871,-0.44475,-0.13628,-1.2134,-0.33857,0.15527,-0.08,-0.02,-0.05,93.6
8336,5.8624e+07,0,-0.31,3.39,3.7,0.0091914,0.0094735,-0.44372,-0.13565,-1.2134,-0.33857,0.15481,-0.08,-0.02,-0.04,93.6
8377,5.8634e+07,0,-0.31,3.39,3.7,0.0091816,0.0093401,-0.44285,-0.13451,-1.2134,-0.33857,0.15419,-0.08,-0.02,-0.04,93.6
8419,5.8644e+07,0,-0.31,3.39,3.7,0.0090237,0.0092038,-0.44188,-0.13191,-1.2134,-0.33857,0.15339,-0.08,-0.02,-0.04,93.6
8459,5.8655e+07,0,-0.31,3.39,3.7,0.0089959,0.0090225,-0.44088,-0.13115,-1.2134,-0.33857,0.15201,-0.08,-0.02,-0.04,93.6
8500,5.8666e+07,0,-0.31,3.39,3.7,0.00909,0.0090245,-0.44089,-0.12942,-1.2134,-0.33857,0.14761,-0.08,-0.02,-0.04,93.6
8545,5.8675e+07,0,-0.31,3.39,3.7,0.0088978,0.0090145,-0.44019,-0.13049,-1.2134,-0.33857,0.14653,-0.08,-0.02,-0.04,93.6
8585,5.8685e+07,0,-0.31,3.39,3.7,0.0091484,0.0090517,-0.4395,-0.1327,-1.2134,-0.33857,0.1453,-0.08,-0.02,-0.04,93.6
8626,5.8696e+07,0,-0.31,3.39,3.7,0.009167,0.0090569,-0.43901,-0.13509,-1.2134,-0.33857,0.1435,-0.08,-0.02,-0.04,93.6
8667,5.8706e+07,0,-0.31,3.39,3.7,0.009288,0.0090051,-0.43816,-0.13878,-1.2134,-0.33857,0.14199,-0.08,-0.02,-0.05,93.6
8711,5.8721e+07,0,-0.31,3.39,3.7,0.009048,0.0090075,-0.43721,-0.14305,-1.2134,-0.33857,0.13987,-0.08,-0.02,-0.05,93.6
8752,5.8732e+07,0,-0.31,3.39,3.7,0.0090555,0.0089869,-0.43653,-0.14437,-1.2134,-0.33857,0.13976,-0.08,-0.02,-0.04,93.6
8792,5.8742e+07,0,-0.31,3.39,3.7,0.0091033,0.0088574,-0.43562,-0.14328,-1.2134,-0.33857,0.13945,-0.08,-0.02,-0.04,93.6
8834,5.8752e+07,0,-0.31,3.39,3.7,0.0091247,0.0089868,-0.43463,-0.13752,-1.2134,-0.33857,0.13853,-0.08,-0.02,-0.05,93.6
8875,5.8762e+07,0,-0.31,3.39,3.7,0.0090174,0.0091112,-0.43448,-0.13047,-1.2134,-0.33857,0.13419,-0.08,-0.02,-0.05,93.6
8918,5.8772e+07,0,-0.31,3.39,3.7,0.0088995,0.0090144,-0.43365,-0.12656,-1.2245,-0.33857,0.13356,-0.08,-0.02,-0.05,93.6
8962,5.8782e+07,0,-0.31,3.39,3.7,0.0088916,0.0090401,-0.43293,-0.12408,-1.2245,-0.33857,0.13277,-0.08,-0.02,-0.05,93.6
9003,5.8792e+07,0,-0.31,3.39,3.7,0.0088914,0.0089571,-0.43222,-0.12485,-1.2245,-0.33857,0.13183,-0.08,-0.02,-0.05,93.6
9044,5.8802e+07,0,-0.31,3.38,3.7,0.0088272,0.0090554,-0.43141,-0.12675,-1.2245,-0.33857,0.13075,-0.08,-0.02,-0.05,93.6
9085,5.8816e+07,0,-0.31,3.38,3.7,0.0089467,0.0091023,-0.4307,-0.12497,-1.2245,-0.33857,0.12884,-0.08,-0.02,-0.05,93.6
9127,5.8826e+07,0,-0.31,3.38,3.7,0.0090033,0.0089717,-0.42984,-0.12222,-1.2245,-0.33857,0.12847,-0.08,-0.02,-0.05,93.6
9168,5.8837e+07,0,-0.31,3.38,3.7,0.0089412,0.0090814,-0.42925,-0.12071,-1.2245,-0.33857,0.12752,-0.08,-0.02,-0.05,93.6
9210,5.8847e+07,0,-0.31,3.38,3.7,0.0089123,0.0089218,-0.42923,-0.11708,-1.2245,-0.33857,0.12323,-0.08,-0.02,-0.05,93.6
9250,5.8857e+07,0,-0.31,3.38,3.7,0.008898,0.0089821,-0.42861,-0.11627,-1.2245,-0.33857,0.12255,-0.08,-0.02,-0.05,93.6
9291,5.8867e+07,0,-0.31,3.38,3.7,0.0087869,0.0089684,-0.42779,-0.11626,-1.2245,-0.33857,0.12172,-0.08,-0.02,-0.05,93.6
9336,5.8877e+07,0,-0.31,3.38,3.7,0.0086046,0.0088558,-0.42707,-0.11766,-1.2245,-0.33857,0.12073,-0.08,-0.02,-0.05,93.6
9376,5.8887e+07,0,-0.31,3.38,3.7,0.0083897,0.008869,-0.4265,-0.12227,-1.2245,-0.33857,0.11961,-0.08,-0.02,-0.05,93.6
9417,5.8897e+07,0,-0.31,3.38,3.7,0.0082172,0.0087248,-0.42626,-0.12447,-1.2245,-0.33857,0.11536,-0.08,-0.02,-0.05,93.6
9457,5.8907e+07,0,-0.31,3.38,3.7,0.0083111,0.0086403,-0.42559,-0.12812,-1.2245,-0.33857,0.11411,-0.08,-0.02,-0.05,93.6
9498,5.8917e+07,0,-0.31,3.38,3.7,0.0082606,0.0085388,-0.42456,-0.12763,-1.2245,-0.33857,0.1141,-0.08,-0.02,-0.05,93.6
9539,5.8928e+07,0,-0.31,3.38,3.7,0.0080834,0.0086475,-0.42385,-0.12698,-1.2245,-0.33857,0.11349,-0.08,-0.02,-0.05,93.6
9579,5.8938e+07,0,-0.31,3.38,3.7,0.0081507,0.0085329,-0.42292,-0.12524,-1.2245,-0.33857,0.11314,-0.08,-0.02,-0.05,93.6
9622,5.8948e+07,0,-0.31,3.38,3.71,0.0078965,0.0085414,-0.42172,-0.1217,-1.2245,-0.33857,0.11261,-0.08,-0.02,-0.05,93.6
9662,5.8959e+07,0,-0.31,3.38,3.71,0.007735,0.0084354,-0.42064,-0.11956,-1.2245,-0.33857,0.11193,-0.08,-0.02,-0.05,93.6
9703,5.8969e+07,0,-0.31,3.38,3.71,0.0078634,0.0084899,-0.4201,-0.11639,-1.2245,-0.33857,0.11067,-0.08,-0.02,-0.05,93.6
9751,5.898e+07,0,-0.31,3.38,3.71,0.0078432,0.0083048,-0.41954,-0.11387,-1.2356,-0.33857,0.10925,-0.08,-0.02,-0.05,93.6
9791,5.8991e+07,0,-0.31,3.38,3.71,0.007961,0.0083104,-0.41886,-0.11247,-1.2356,-0.33857,0.1077,-0.08,-0.02,-0.05,93.6
9832,5.9001e+07,0,-0.31,3.38,3.71,0.0080479,0.0083605,-0.41867,-0.11189,-1.2356,-0.33857,0.10351,-0.08,-0.02,-0.05,93.6
9873,5.9012e+07,0,-0.31,3.38,3.71,0.0080917,0.0083256,-0.41791,-0.11557,-1.2356,-0.33857,0.10184,-0.08,-0.02,-0.05,93.6
9914,5.9022e+07,0,-0.31,3.38,3.71,0.0080578,0.0083909,-0.41692,-0.11895,-1.2356,-0.33857,0.10165,-0.08,-0.02,-0.05,93.6
9955,5.9032e+07,0,-0.31,3.38,3.71,0.0079949,0.0083954,-0.41594,-0.1205,-1.2356,-0.33857,0.10128,-0.08,-0.02,-0.05,93.6
9997,5.9042e+07,0,-0.31,3.38,3.71,0.0080059,0.0083435,-0.41504,-0.11986,-1.2356,-0.33857,0.10075,-0.08,-0.02,-0.05,93.6
10038,5.9053e+07,0,-0.31,3.38,3.71,0.007999,0.0083862,-0.41427,-0.12058,-1.2356,-0.33857,0.099652,-0.08,-0.02,-0.05,93.6
10078,5.9063e+07,0,-0.31,3.38,3.71,0.0079174,0.0084306,-0.41358,-0.11942,-1.2356,-0.33857,0.098811,-0.08,-0.02,-0.05,93.6
10119,5.9073e+07,0,-0.31,3.38,3.71,0.0079861,0.0086425,-0.41363,-0.11703,-1.2356,-0.33857,0.094681,-0.08,-0.02,-0.05,93.6
10164,5.9083e+07,0,-0.31,3.38,3.71,0.0078503,0.0087203,-0.41276,-0.11768,-1.2356,-0.33857,0.093708,-0.08,-0.02,-0.05,93.6
10205,5.9093e+07,0,-0.31,3.38,3.71,0.0077607,0.0086059,-0.41194,-0.11754,-1.2356,-0.33857,0.09259,-0.08,-0.02,-0.05,93.6
10245,5.9104e+07,0,-0.31,3.38,3.71,0.0077049,0.008561,-0.41148,-0.12135,-1.2356,-0.33857,0.090939,-0.08,-0.02,-0.05,93.6
10286,5.9114e+07,0,-0.31,3.38,3.71,0.0076669,0.0084321,-0.41108,-0.12658,-1.2356,-0.33857,0.089573,-0.08,-0.02,-0.05,93.6
10327,5.9127e+07,0,-0.31,3.38,3.71,0.0075775,0.0083879,-0.40982,-0.13245,-1.2356,-0.33857,0.088373,-0.08,-0.02,-0.05,93.6
10367,5.9137e+07,0,-0.31,3.38,3.71,0.007456,0.0084003,-0.40897,-0.13256,-1.2356,-0.33857,0.088221,-0.08,-0.02,-0.05,93.6
10408,5.9147e+07,0,-0.31,3.38,3.71,0.0074689,0.0082818,-0.40832,-0.13166,-1.2356,-0.33857,0.087902,-0.08,-0.02,-0.05,93.6
10448,5.9158e+07,0,-0.31,3.38,3.71,0.0074709,0.0083498,-0.40741,-0.12681,-1.2356,-0.33857,0.087006,-0.08,-0.02,-0.05,93.6
10489,5.9168e+07,0,-0.3,3.38,3.71,0.0073859,0.0085354,-0.40671,-0.12141,-1.2356,-0.33857,0.085952,-0.08,-0.02,-0.05,93.6
10531,5.9179e+07,0,-0.31,3.38,3.71,0.0073775,0.0085833,-0.40679,-0.11629,-1.2356,-0.33857,0.081889,-0.08,-0.02,-0.05,93.6
10576,5.9192e+07,0,-0.31,3.38,3.71,0.0073722,0.0083883,-0.40553,-0.11752,-1.2356,-0.34663,0.082213,-0.08,-0.02,-0.05,93.6
10617,5.9203e+07,0,-0.31,3.38,3.71,0.0075271,0.0083394,-0.40573,-0.11687,-1.2356,-0.34663,0.078161,-0.08,-0.02,-0.05,93.6
10660,5.9243e+07,0,-0.31,3.38,3.71,0.0070051,0.0084143,-0.4013,-0.11171,-1.2356,-0.34663,0.078494,-0.08,-0.02,-0.05,93.6
10701,5.9254e+07,0,-0.31,3.38,3.71,0.0069947,0.0086381,-0.40024,-0.10263,-1.2356,-0.34663,0.07818,-0.08,-0.02,-0.05,93.6
10741,5.9264e+07,0,-0.31,3.38,3.71,0.0070384,0.0088112,-0.40002,-0.0926,-1.2356,-0.34663,0.074184,-0.08,-0.02,-0.05,93.6
10782,5.9274e+07,0,-0.31,3.38,3.71,0.0069147,0.0088389,-0.3992,-0.086194,-1.2356,-0.34663,0.074118,-0.08,-0.02,-0.05,93.6
10822,5.9284e+07,0,-0.31,3.38,3.71,0.007007,0.0087424,-0.39826,-0.081253,-1.2356,-0.34663,0.073888,-0.08,-0.02,-0.05,93.6
10867,5.9294e+07,0,-0.31,3.38,3.71,0.0070354,0.0086954,-0.3974,-0.080008,-1.2356,-0.34663,0.073506,-0.08,-0.02,-0.05,93.6
10907,5.9304e+07,0,-0.31,3.38,3.72,0.0069625,0.0086446,-0.39636,-0.080088,-1.2356,-0.34663,0.072974,-0.08,-0.02,-0.05,93.6
10949,5.9314e+07,0,-0.31,3.38,3.72,0.0069957,0.0086431,-0.39657,-0.078987,-1.2356,-0.34663,0.069014,-0.08,-0.02,-0.05,93.6
10991,5.9325e+07,0,-0.31,3.38,3.72,0.0071639,0.0085812,-0.39609,-0.081384,-1.2356,-0.34663,0.067951,-0.08,-0.02,-0.05,93.6
11029,5.9335e+07,0,-0.31,3.38,3.72,0.0069987,0.0085567,-0.39494,-0.07795,-1.2356,-0.34663,0.068846,-0.08,-0.02,-0.05,93.6
11070,5.9345e+07,0,-0.31,3.38,3.72,0.0067976,0.0084517,-0.39369,-0.072207,-1.2356,-0.34663,0.069539,-0.08,-0.02,-0.05,93.6
11111,5.9355e+07,0,-0.31,3.38,3.72,0.0069367,0.0084305,-0.39265,-0.068183,-1.2356,-0.34663,0.070049,-0.08,-0.02,-0.05,93.6
11152,5.9365e+07,0,-0.31,3.38,3.72,0.0067473,0.0083018,-0.39165,-0.064052,-1.2356,-0.34663,0.070371,-0.08,-0.02,-0.05,93.6
11193,5.9376e+07,0,-0.31,3.38,3.72,0.0065958,0.0082521,-0.39062,-0.056544,-1.2356,-0.34663,0.070115,-0.08,-0.02,-0.05,93.6
11235,5.9386e+07,0,-0.31,3.38,3.72,0.0066099,0.0082198,-0.39041,-0.04896,-1.2134,-0.3547,0.066214,-0.08,-0.02,-0.05,93.6
11278,5.9397e+07,0,-0.31,3.38,3.72,0.0065037,0.0082673,-0.38954,-0.045492,-1.2134,-0.3547,0.066198,-0.08,-0.02,-0.05,93.6
11319,5.9406e+07,0,-0.31,3.38,3.72,0.0064924,0.0081666,-0.38871,-0.04397,-1.2134,-0.3547,0.066018,-0.08,-0.02,-0.05,93.6
11360,5.9417e+07,0,-0.31,3.38,3.72,0.0064546,0.0082132,-0.38787,-0.046173,-1.2134,-0.3547,0.065688,-0.08,-0.02,-0.05,93.6
11401,5.9426e+07,0,-0.31,3.38,3.72,0.0063339,0.0080416,-0.38708,-0.049917,-1.2134,-0.3547,0.065206,-0.08,-0.02,-0.05,93.6
11441,5.9436e+07,0,-0.31,3.38,3.72,0.0064404,0.0080999,-0.3868,-0.051701,-1.2134,-0.3547,0.061342,-0.08,-0.02,-0.05,93.6
11479,5.9447e+07,0,-0.31,3.38,3.72,0.00648,0.0079936,-0.38564,-0.051444,-1.2134,-0.3547,0.062029,-0.08,-0.02,-0.05,93.6
11524,5.946e+07,0,-0.31,3.38,3.72,0.0065118,0.0080404,-0.38457,-0.049428,-1.2134,-0.3547,0.062136,-0.08,-0.02,-0.05,93.6
11565,5.9469e+07,0,-0.31,3.38,3.72,0.0063492,0.0082231,-0.38351,-0.045311,-1.2134,-0.3547,0.062814,-0.08,-0.02,-0.05,93.6
11606,5.9479e+07,0,-0.31,3.38,3.72,0.0064339,0.008049,-0.38238,-0.043204,-1.2134,-0.3547,0.063308,-0.08,-0.02,-0.05,93.6
11646,5.949e+07,0,-0.31,3.39,3.72,0.0065042,0.0080978,-0.3823,-0.041847,-1.2134,-0.3547,0.059108,-0.08,-0.02,-0.05,93.6
11691,5.95e+07,0,-0.31,3.39,3.72,0.0066867,0.0082483,-0.38137,-0.042878,-1.2134,-0.3547,0.059466,-0.08,-0.02,-0.04,93.6
11731,5.951e+07,0,-0.31,3.39,3.72,0.0067015,0.0082955,-0.3801,-0.043157,-1.2134,-0.3547,0.059646,-0.08,-0.02,-0.04,93.6
11771,5.9521e+07,0,-0.31,3.39,3.72,0.0067105,0.0083548,-0.37916,-0.045941,-1.2134,-0.3547,0.059664,-0.08,-0.02,-0.04,93.6
11812,5.953e+07,0,-0.31,3.39,3.72,0.0066573,0.0084212,-0.37834,-0.04917,-1.2134,-0.3547,0.059516,-0.08,-0.02,-0.04,93.6
11854,5.9544e+07,0,-0.31,3.39,3.72,0.0066583,0.0083716,-0.3771,-0.046969,-1.2134,-0.3547,0.058779,-0.08,-0.02,-0.04,93.6
11895,5.9553e+07,0,-0.31,3.38,3.72,0.0066357,0.0083121,-0.37611,-0.047286,-1.2134,-0.3547,0.059736,-0.08,-0.02,-0.04,93.6
11938,5.9566e+07,0,-0.31,3.39,3.72,0.0067674,0.0082971,-0.37492,-0.039402,-1.2134,-0.3547,0.058996,-0.08,-0.02,-0.04,93.6
11979,5.9576e+07,0,-0.31,3.39,3.72,0.0067059,0.0082772,-0.37399,-0.036801,-1.2134,-0.3547,0.059206,-0.08,-0.02,-0.04,93.6
12021,5.9586e+07,0,-0.31,3.39,3.71,0.0067815,0.0082549,-0.37389,-0.032089,-1.2134,-0.3547,0.055471,-0.08,-0.02,-0.04,93.6
12065,5.9597e+07,0,-0.31,3.39,3.71,0.0069298,0.008162,-0.37298,-0.031326,-1.2134,-0.3547,0.054786,-0.08,-0.02,-0.04,93.6
12105,5.9608e+07,0,-0.31,3.39,3.71,0.0071982,0.008074,-0.37211,-0.031727,-1.2134,-0.3547,0.054684,-0.08,-0.02,-0.04,93.6
12147,5.9618e+07,0,-0.31,3.39,3.71,0.0071644,0.0079816,-0.37126,-0.038469,-1.2134,-0.3547,0.054449,-0.08,-0.02,-0.04,93.6
12188,5.9629e+07,0,-0.31,3.39,3.71,0.0070075,0.0079485,-0.37047,-0.046856,-1.2134,-0.3547,0.053699,-0.08,-0.02,-0.04,93.6
12228,5.964e+07,0,-0.31,3.39,3.71,0.0071579,0.0077818,-0.37041,-0.052232,-1.2134,-0.3547,0.05,-0.08,-0.02,-0.04,93.6
12266,5.965e+07,0,-0.31,3.39,3.71,0.007041,0.0075885,-0.36919,-0.053829,-1.2134,-0.3547,0.050949,-0.08,-0.02,-0.04,93.6
12309,5.9662e+07,0,-0.31,3.39,3.7,0.0069963,0.0075755,-0.36808,-0.048819,-1.2134,-0.3547,0.051306,-0.08,-0.02,-0.04,93.6
12350,5.9673e+07,0,-0.31,3.39,3.7,0.0069693,0.0075782,-0.36682,-0.041734,-1.2134,-0.3547,0.052194,-0.08,-0.02,-0.04,93.6
12392,5.9683e+07,0,-0.31,3.39,3.7,0.0069802,0.00753,-0.36591,-0.03614,-1.2134,-0.3547,0.052528,-0.08,-0.02,-0.04,93.6
12432,5.9693e+07,0,-0.31,3.39,3.7,0.0069015,0.0073693,-0.36475,-0.033688,-1.2134,-0.3547,0.053051,-0.08,-0.02,-0.04,93.6
12477,5.9703e+07,0,-0.31,3.39,3.7,0.0069465,0.0073096,-0.36464,-0.03205,-1.2134,-0.3547,0.049408,-0.08,-0.02,-0.04,93.6
12517,5.9713e+07,0,-0.31,3.39,3.7,0.0068875,0.0073189,-0.36367,-0.032188,-1.2134,-0.3547,0.049786,-0.08,-0.02,-0.04,93.6
12559,5.9723e+07,0,-0.31,3.39,3.7,0.0068858,0.0072661,-0.3627,-0.032553,-1.2134,-0.3547,0.049989,-0.08,-0.02,-0.04,93.6
12599,5.9733e+07,0,-0.31,3.39,3.7,0.0068996,0.0070852,-0.36157,-0.035323,-1.2134,-0.3547,0.050032,-0.08,-0.02,-0.04,93.6
12641,5.9746e+07,0,-0.31,3.39,3.7,0.0068107,0.0069623,-0.36022,-0.037462,-1.2134,-0.3547,0.050689,-0.08,-0.02,-0.04,93.6
12682,5.9757e+07,0,-0.31,3.39,3.7,0.0069103,0.0067898,-0.35913,-0.030989,-1.2134,-0.3547,0.051826,-0.08,-0.02,-0.04,93.6
12722,5.9768e+07,0,-0.31,3.39,3.7,0.0068568,0.0067247,-0.35789,-0.024392,-1.2134,-0.3547,0.052753,-0.08,-0.02,-0.04,93.6
12762,5.9778e+07,0,-0.31,3.39,3.7,0.0069737,0.0067496,-0.35809,-0.014596,-1.2134,-0.3547,0.049178,-0.08,-0.02,-0.04,93.6
12799,5.9788e+07,0,-0.31,3.39,3.7,0.0070872,0.0065094,-0.35701,-0.0071558,-1.2134,-0.3547,0.050272,-0.08,-0.02,-0.04,93.6
12840,5.9798e+07,0,-0.31,3.39,3.7,0.0070533,0.0063287,-0.35563,-0.0062541,-1.2134,-0.3547,0.051192,-0.08,-0.02,-0.04,93.6
12886,5.9809e+07,0,-0.31,3.39,3.7,0.0070536,0.006305,-0.35462,-0.0061145,-1.2134,-0.3547,0.051573,-0.08,-0.02,-0.04,93.6
12926,5.9819e+07,0,-0.31,3.39,3.7,0.0071177,0.0063649,-0.35479,-0.0032179,-1.2134,-0.3547,0.04803,-0.08,-0.02,-0.04,93.6
12968,5.9829e+07,0,-0.31,3.39,3.69,0.0069822,0.0065176,-0.35391,-0.0027299,-1.2134,-0.3547,0.048591,-0.08,-0.02,-0.04,93.6
13008,5.9839e+07,0,-0.31,3.39,3.69,0.007002,0.0063404,-0.35301,-0.0030479,-1.2134,-0.3547,0.048968,-0.08,-0.02,-0.04,93.6
13051,5.9852e+07,0,-0.31,3.39,3.69,0.0070672,0.0062577,-0.35162,-0.0015641,-1.2134,-0.3547,0.050043,-0.08,-0.02,-0.04,93.6
13091,5.9862e+07,0,-0.31,3.39,3.69,0.0070979,0.006005,-0.35035,0.0041055,-1.2134,-0.3547,0.051928,-0.08,-0.02,-0.04,93.6
13132,5.9872e+07,0,-0.31,3.39,3.69,0.0070719,0.0058234,-0.34925,0.013432,-1.2134,-0.3547,0.053564,-0.08,-0.02,-0.04,93.6
13173,5.9882e+07,0,-0.31,3.39,3.69,0.0069543,0.0057837,-0.34805,0.022136,-1.2134,-0.3547,0.054975,-0.08,-0.02,-0.04,93.6
13213,5.9893e+07,0,-0.31,3.39,3.69,0.0068533,0.0054453,-0.34705,0.034011,-1.2134,-0.3547,0.055816,-0.08,-0.02,-0.04,93.6
13254,5.9903e+07,0,-0.31,3.39,3.69,0.0068582,0.0054523,-0.34673,0.045221,-1.2134,-0.3547,0.052351,-0.08,-0.02,-0.04,93.6
13298,5.9913e+07,0,-0.31,3.39,3.69,0.0069068,0.0053515,-0.34562,0.051179,-1.2134,-0.3547,0.053358,-0.08,-0.02,-0.04,93.6
13339,5.9923e+07,0,-0.31,3.38,3.69,0.0067025,0.0052582,-0.34474,0.057559,-1.2134,-0.3547,0.054153,-0.08,-0.02,-0.04,93.6
13380,5.9933e+07,0,-0.31,3.38,3.69,0.0066056,0.0050363,-0.34366,0.059011,-1.2134,-0.3547,0.054426,-0.08,-0.02,-0.04,93.6
13421,5.9944e+07,0,-0.31,3.38,3.69,0.0066131,0.0048899,-0.34225,0.060083,-1.2134,-0.3547,0.056945,-0.08,-0.02,-0.04,93.6
13465,5.9956e+07,0,-0.31,3.39,3.69,0.0065571,0.0047889,-0.34071,0.064939,-1.2134,-0.3547,0.058539,-0.08,-0.02,-0.04,93.6
13506,5.9966e+07,0,-0.31,3.39,3.69,0.0066023,0.0048956,-0.33933,0.069477,-1.2134,-0.3547,0.060569,-0.08,-0.02,-0.04,93.6
13550,5.9976e+07,0,-0.31,3.38,3.69,0.006633,0.0048019,-0.3393,0.079095,-1.2134,-0.3547,0.05718,-0.08,-0.02,-0.04,93.6
13588,5.9987e+07,0,-0.31,3.38,3.69,0.0066723,0.0047576,-0.33816,0.085693,-1.1911,-0.36276,0.05866,-0.08,-0.02,-0.04,93.6
13628,5.9997e+07,0,-0.31,3.38,3.69,0.0067408,0.0045203,-0.33725,0.092401,-1.1911,-0.36276,0.060236,-0.08,-0.02,-0.04,93.6
13676,6.001e+07,0,-0.32,3.38,3.69,0.0066785,0.0045991,-0.33609,0.095765,-1.1911,-0.36276,0.060257,-0.08,-0.02,-0.04,93.6
13717,6.002e+07,0,-0.31,3.38,3.69,0.0065261,0.0045684,-0.33502,0.096765,-1.1911,-0.36276,0.061421,-0.08,-0.02,-0.04,93.6
13758,6.003e+07,0,-0.31,3.38,3.69,0.0065123,0.0045874,-0.33386,0.093298,-1.1911,-0.36276,0.062391,-0.08,-0.02,-0.04,93.6
13802,6.004e+07,0,-0.31,3.38,3.69,0.0064146,0.0045206,-0.33268,0.085934,-1.1911,-0.36276,0.063182,-0.08,-0.02,-0.04,93.6
13842,6.005e+07,0,-0.31,3.38,3.69,0.006595,0.0044233,-0.33267,0.081107,-1.1911,-0.36276,0.05986,-0.08,-0.02,-0.04,93.6
13880,6.006e+07,0,-0.31,3.38,3.69,0.0064322,0.0044127,-0.33148,0.077982,-1.1911,-0.36276,0.06204,-0.08,-0.02,-0.04,93.6
13921,6.007e+07,0,-0.31,3.38,3.69,0.0063405,0.0044504,-0.33008,0.077693,-1.1911,-0.36276,0.06398,-0.08,-0.02,-0.04,93.6
13961,6.008e+07,0,-0.31,3.38,3.69,0.0062893,0.0043916,-0.32854,0.076084,-1.1911,-0.36276,0.065704,-0.08,-0.02,-0.04,93.6
14003,6.009e+07,0,-0.31,3.38,3.69,0.0063908,0.0043246,-0.32723,0.074775,-1.1911,-0.36276,0.067209,-0.08,-0.02,-0.04,93.6
14043,6.0101e+07,0,-0.31,3.38,3.69,0.0063734,0.0043082,-0.32608,0.076905,-1.1911,-0.36276,0.068165,-0.08,-0.02,-0.04,93.6
14088,6.0111e+07,0,-0.32,3.38,3.69,0.0064149,0.0041658,-0.32607,0.079927,-1.1911,-0.36276,0.064909,-0.08,-0.02,-0.04,93.6
14128,6.0121e+07,0,-0.32,3.38,3.69,0.0064607,0.00409,-0.32517,0.078911,-1.1911,-0.36276,0.066011,-0.08,-0.02,-0.04,93.6
14169,6.0132e+07,0,-0.32,3.38,3.69,0.006511,0.0041251,-0.32399,0.076395,-1.1911,-0.36276,0.066602,-0.08,-0.02,-0.04,93.6
14212,6.0142e+07,0,-0.32,3.38,3.69,0.0064898,0.0042915,-0.32311,0.070189,-1.1911,-0.36276,0.067337,-0.08,-0.02,-0.04,93.6
14249,6.0152e+07,0,-0.32,3.38,3.69,0.0063368,0.0040791,-0.3219,0.066193,-1.1911,-0.36276,0.070012,-0.08,-0.02,-0.04,93.6
14292,6.0163e+07,0,-0.32,3.38,3.69,0.0063943,0.0039802,-0.32022,0.066283,-1.1577,-0.37082,0.072124,-0.08,-0.02,-0.04,93.6
14329,6.0174e+07,0,-0.32,3.38,3.69,0.0063194,0.0040758,-0.31933,0.07235,-1.1577,-0.37082,0.073979,-0.08,-0.02,-0.04,93.6
14369,6.0184e+07,0,-0.32,3.38,3.7,0.0063656,0.0040406,-0.31908,0.082096,-1.1577,-0.37082,0.070792,-0.08,-0.02,-0.04,93.6
14411,6.0194e+07,0,-0.32,3.38,3.7,0.0063513,0.0040167,-0.31782,0.090363,-1.1577,-0.37082,0.072746,-0.08,-0.02,-0.04,93.6
14451,6.0204e+07,0,-0.32,3.38,3.7,0.006378,0.0039217,-0.31717,0.093957,-1.1577,-0.37082,0.074482,-0.08,-0.02,-0.04,93.6
14496,6.0214e+07,0,-0.32,3.38,3.7,0.0063396,0.0039181,-0.31614,0.089476,-1.1577,-0.37082,0.076032,-0.08,-0.02,-0.04,93.6
14536,6.0224e+07,0,-0.32,3.38,3.7,0.0064402,0.0037991,-0.31592,0.089783,-1.1577,-0.37082,0.072876,-0.08,-0.02,-0.04,93.6
14577,6.0235e+07,0,-0.31,3.38,3.7,0.0062826,0.0036973,-0.31475,0.086938,-1.1577,-0.37082,0.073924,-0.08,-0.02,-0.04,93.6
14617,6.0245e+07,0,-0.31,3.38,3.7,0.00613,0.0035138,-0.31378,0.082083,-1.1577,-0.37082,0.075097,-0.08,-0.02,-0.04,93.6
14658,6.0258e+07,0,-0.31,3.38,3.7,0.0061331,0.0033465,-0.312,0.078312,-1.1577,-0.37082,0.076805,-0.08,-0.02,-0.04,93.6
14700,6.0268e+07,0,-0.31,3.38,3.7,0.0061787,0.0031941,-0.31066,0.079493,-1.1577,-0.37082,0.079201,-0.08,-0.02,-0.04,93.6
14741,6.0278e+07,0,-0.32,3.38,3.7,0.0062857,0.0029807,-0.30921,0.084655,-1.1577,-0.37082,0.081341,-0.08,-0.02,-0.04,93.6
14782,6.0288e+07,0,-0.32,3.38,3.7,0.006317,0.0026747,-0.30781,0.089147,-1.1577,-0.37082,0.083252,-0.08,-0.02,-0.04,93.6
14822,6.0299e+07,0,-0.32,3.38,3.7,0.006384,0.002495,-0.30668,0.096595,-1.1577,-0.37082,0.084624,-0.08,-0.02,-0.04,93.6
14865,6.0309e+07,0,-0.32,3.38,3.71,0.0063083,0.0024489,-0.30672,0.10364,-1.1577,-0.37082,0.081561,-0.08,-0.02,-0.04,93.6
14910,6.0319e+07,0,-0.32,3.38,3.71,0.0061765,0.0022782,-0.30559,0.10603,-1.1577,-0.37082,0.083054,-0.08,-0.02,-0.04,93.6
14951,6.0329e+07,0,-0.32,3.38,3.71,0.0061811,0.0022753,-0.30458,0.10425,-1.1577,-0.37082,0.084051,-0.08,-0.02,-0.04,93.6
14992,6.034e+07,0,-0.32,3.38,3.71,0.0058609,0.0024842,-0.3036,0.10064,-1.1577,-0.37082,0.085158,-0.08,-0.02,-0.04,93.6
15035,6.0352e+07,0,-0.32,3.38,3.71,0.005793,0.0024836,-0.30229,0.094496,-1.1577,-0.37082,0.086583,-0.08,-0.02,-0.04,93.6
15076,6.0362e+07,0,-0.32,3.38,3.71,0.0056924,0.0024696,-0.30092,0.09059,-1.1577,-0.37082,0.088392,-0.08,-0.02,-0.04,93.6
15117,6.0373e+07,0,-0.32,3.38,3.71,0.0057373,0.002282,-0.29962,0.091204,-1.1577,-0.37082,0.089676,-0.08,-0.02,-0.04,93.6
15160,6.0383e+07,0,-0.32,3.38,3.71,0.0058218,0.0020282,-0.29974,0.093433,-1.1577,-0.37082,0.086682,-0.08,-0.02,-0.04,93.6
15199,6.0394e+07,0,-0.32,3.39,3.71,0.0056765,0.002002,-0.29859,0.092231,-1.1577,-0.37082,0.087784,-0.08,-0.02,-0.04,93.6
15240,6.0404e+07,0,-0.32,3.38,3.71,0.005698,0.0020169,-0.29743,0.088504,-1.1577,-0.37082,0.088999,-0.08,-0.02,-0.04,93.6
15282,6.0414e+07,0,-0.32,3.38,3.71,0.0055479,0.0019586,-0.29622,0.083782,-1.1577,-0.37082,0.090027,-0.08,-0.02,-0.04,93.6
15326,6.0424e+07,0,-0.32,3.38,3.71,0.0055406,0.0018125,-0.29521,0.079233,-1.1577,-0.37082,0.090866,-0.08,-0.02,-0.04,93.6
15367,6.0434e+07,0,-0.32,3.38,3.71,0.0053925,0.0016437,-0.2946,0.072365,-1.1577,-0.37082,0.091531,-0.08,-0.02,-0.04,93.6
15408,6.0444e+07,0,-0.32,3.38,3.71,0.0056578,0.0016172,-0.29463,0.067329,-1.1577,-0.37082,0.088588,-0.08,-0.02,-0.04,93.6
15448,6.0454e+07,0,-0.32,3.38,3.71,0.005619,0.0014824,-0.29352,0.059515,-1.1577,-0.37082,0.089105,-0.08,-0.02,-0.04,93.6
15485,6.0465e+07,0,-0.32,3.38,3.71,0.005704,0.0014449,-0.29228,0.05157,-1.1577,-0.37082,0.090662,-0.08,-0.02,-0.04,93.6
15526,6.0475e+07,0,-0.32,3.39,3.71,0.0055603,0.0013261,-0.2911,0.045519,-1.1577,-0.37082,0.09231,-0.08,-0.02,-0.04,93.6
15567,6.0485e+07,0,-0.32,3.39,3.71,0.0056582,0.0013686,-0.29009,0.041529,-1.1577,-0.37082,0.093753,-0.08,-0.02,-0.04,93.6
15608,6.0496e+07,0,-0.32,3.39,3.71,0.0054628,0.0014114,-0.28869,0.042458,-1.1577,-0.37082,0.094703,-0.08,-0.02,-0.04,93.6
15649,6.0506e+07,0,-0.32,3.39,3.71,0.0056781,0.0014668,-0.28853,0.045151,-1.1577,-0.37082,0.091821,-0.08,-0.02,-0.04,93.6
15690,6.0516e+07,0,-0.32,3.39,3.71,0.0055894,0.0014114,-0.28751,0.046471,-1.1577,-0.37082,0.092886,-0.08,-0.02,-0.04,93.6
15735,6.0526e+07,0,-0.32,3.39,3.71,0.0056025,0.0014359,-0.28653,0.04458,-1.1577,-0.37082,0.093783,-0.08,-0.02,-0.04,93.6
15778,6.0536e+07,0,-0.32,3.39,3.71,0.0056205,0.0013838,-0.28559,0.036299,-1.1577,-0.37082,0.094537,-0.08,-0.02,-0.04,93.6
15818,6.0546e+07,0,-0.32,3.39,3.71,0.0056545,0.0012711,-0.28535,0.031855,-1.1577,-0.37082,0.091685,-0.08,-0.02,-0.04,93.6
15859,6.0556e+07,0,-0.32,3.39,3.71,0.005656,0.0010593,-0.28426,0.025785,-1.1577,-0.37082,0.092293,-0.08,-0.02,-0.04,93.6
15897,6.0566e+07,0,-0.32,3.39,3.71,0.0055887,0.0010675,-0.28305,0.022951,-1.1577,-0.37082,0.093963,-0.08,-0.02,-0.04,93.6
15938,6.0576e+07,0,-0.32,3.39,3.71,0.0055231,0.001048,-0.28219,0.020543,-1.1577,-0.37082,0.095993,-0.08,-0.02,-0.04,93.6
15978,6.0586e+07,0,-0.32,3.39,3.71,0.0054315,0.001072,-0.28088,0.021061,-1.1577,-0.37082,0.097533,-0.08,-0.02,-0.04,93.6
16020,6.0597e+07,0,-0.32,3.39,3.71,0.0054024,0.0010039,-0.27974,0.026256,-1.1577,-0.37082,0.098586,-0.08,-0.02,-0.04,93.6
16061,6.0607e+07,0,-0.32,3.39,3.71,0.0053223,0.00098374,-0.27966,0.032769,-1.1577,-0.37082,0.095792,-0.08,-0.02,-0.04,93.6
16110,6.062e+07,0,-0.32,3.39,3.71,0.0054144,0.0010379,-0.27843,0.035905,-1.1577,-0.37082,0.096123,-0.08,-0.02,-0.04,93.6
16152,6.0631e+07,0,-0.32,3.39,3.71,0.0055069,0.00087354,-0.27728,0.037163,-1.1577,-0.37082,0.096847,-0.08,-0.02,-0.04,93.6
16193,6.0641e+07,0,-0.32,3.39,3.71,0.0055844,0.00082998,-0.27635,0.035708,-1.1577,-0.37082,0.097686,-0.08,-0.02,-0.04,93.6
16234,6.0651e+07,0,-0.32,3.39,3.71,0.005744,0.00096606,-0.27544,0.03323,-1.1577,-0.37082,0.098358,-0.08,-0.02,-0.04,93.6
16278,6.0666e+07,0,-0.32,3.39,3.71,0.0056848,0.0010043,-0.27386,0.033114,-1.1577,-0.37082,0.099673,-0.08,-0.02,-0.04,93.6
16318,6.0676e+07,0,-0.32,3.39,3.71,0.0055867,0.00078662,-0.27258,0.03587,-1.1577,-0.37082,0.10213,-0.08,-0.02,-0.04,93.6
16359,6.0686e+07,0,-0.32,3.39,3.71,0.005602,0.00062558,-0.27123,0.04164,-1.1577,-0.37082,0.10436,-0.08,-0.02,-0.04,93.6
16401,6.0697e+07,0,-0.32,3.39,3.71,0.00555,0.00071726,-0.27008,0.05336,-1.1577,-0.37082,0.10609,-0.08,-0.02,-0.04,93.6
16442,6.0707e+07,0,-0.32,3.39,3.71,0.0055101,0.00073781,-0.27012,0.06592,-1.1577,-0.37082,0.10339,-0.08,-0.02,-0.04,93.6
16482,6.0717e+07,0,-0.32,3.39,3.71,0.0056233,0.00070409,-0.26884,0.074942,-1.1577,-0.37082,0.10519,-0.08,-0.02,-0.04,93.6
16527,6.0727e+07,0,-0.32,3.39,3.71,0.0054607,0.00058068,-0.26792,0.081718,-1.1577,-0.37082,0.10679,-0.08,-0.02,-0.04,93.6
16568,6.0737e+07,0,-0.32,3.39,3.71,0.0055114,0.00055964,-0.26679,0.089873,-1.1577,-0.37082,0.10819,-0.08,-0.02,-0.04,93.6
16609,6.0747e+07,0,-0.32,3.39,3.71,0.0055703,0.00036454,-0.26597,0.092314,-1.1577,-0.37082,0.1094,-0.08,-0.02,-0.04,93.6
16650,6.0757e+07,0,-0.32,3.39,3.71,0.0055942,0.00059694,-0.2646,0.097322,-1.1577,-0.37082,0.11216,-0.08,-0.02,-0.04,93.6
16690,6.0767e+07,0,-0.33,3.39,3.71,0.0054763,0.00057371,-0.26352,0.10332,-1.1577,-0.37082,0.11444,-0.08,-0.02,-0.04,93.6
16733,6.0779e+07,0,-0.33,3.39,3.71,0.0054941,0.0006094,-0.26333,0.1133,-1.1466,-0.37082,0.11181,-0.08,-0.02,-0.04,93.6
16770,6.0789e+07,0,-0.33,3.39,3.71,0.0053417,0.00058092,-0.26212,0.12089,-1.1466,-0.37082,0.11389,-0.08,-0.02,-0.04,93.6
16811,6.0798e+07,0,-0.33,3.39,3.71,0.005342,0.00051834,-0.26086,0.12646,-1.1466,-0.37082,0.11626,-0.08,-0.02,-0.04,93.6
16854,6.0809e+07,0,-0.32,3.39,3.71,0.0052063,0.00043201,-0.25975,0.13353,-1.1466,-0.37082,0.11789,-0.08,-0.02,-0.04,93.6
16894,6.0819e+07,0,-0.32,3.39,3.71,0.0049709,0.00054173,-0.25886,0.13678,-1.1466,-0.37082,0.11959,-0.08,-0.02,-0.04,93.6
16939,6.0829e+07,0,-0.32,3.39,3.71,0.0050342,0.00058516,-0.25777,0.13532,-1.1466,-0.37082,0.12109,-0.08,-0.02,-0.04,93.6
16979,6.084e+07,0,-0.32,3.39,3.71,0.004978,0.00065333,-0.25652,0.13513,-1.1466,-0.37082,0.12215,-0.08,-0.02,-0.04,93.6
17020,6.085e+07,0,-0.32,3.39,3.71,0.0049013,0.00049363,-0.25655,0.13356,-1.1466,-0.37082,0.11933,-0.08,-0.02,-0.04,93.6
17061,6.086e+07,0,-0.32,3.39,3.71,0.0048946,0.00062189,-0.25578,0.12887,-1.1466,-0.37082,0.12049,-0.08,-0.02,-0.04,93.6
17099,6.087e+07,0,-0.32,3.39,3.71,0.0049682,0.00061278,-0.25425,0.12576,-1.1466,-0.37082,0.12352,-0.08,-0.02,-0.04,93.6
17144,6.0883e+07,0,-0.32,3.39,3.71,0.0050123,0.00037774,-0.25293,0.12607,-1.1466,-0.37082,0.12555,-0.08,-0.02,-0.04,93.6
17185,6.0893e+07,0,-0.32,3.39,3.71,0.0051036,0.00025613,-0.25133,0.12899,-1.1466,-0.37082,0.12812,-0.08,-0.02,-0.04,93.6
17226,6.0903e+07,0,-0.32,3.39,3.71,0.005193,0.00038168,-0.24977,0.1344,-1.1466,-0.37082,0.13045,-0.08,-0.02,-0.04,93.6
17267,6.0913e+07,0,-0.32,3.39,3.71,0.0053431,0.00043982,-0.24856,0.13812,-1.1466,-0.37082,0.13256,-0.08,-0.02,-0.04,93.6
17308,6.0924e+07,0,-0.32,3.39,3.71,0.005517,0.00037925,-0.24744,0.14409,-1.1466,-0.37082,0.13422,-0.08,-0.02,-0.04,93.6
17354,6.0934e+07,0,-0.32,3.39,3.72,0.0055459,0.00037228,-0.24738,0.14942,-1.1466,-0.37082,0.13175,-0.08,-0.02,-0.04,93.6
17394,6.0944e+07,0,-0.32,3.39,3.72,0.0055397,0.00061041,-0.24622,0.15023,-1.1466,-0.37082,0.13348,-0.08,-0.02,-0.04,93.6
17435,6.0955e+07,0,-0.32,3.39,3.72,0.005519,0.00075569,-0.24518,0.14862,-1.1466,-0.37082,0.13502,-0.08,-0.02,-0.04,93.6
17472,6.0965e+07,0,-0.32,3.39,3.72,0.0056918,0.00071546,-0.2436,0.14558,-1.1466,-0.37082,0.13772,-0.08,-0.02,-0.04,93.6
17519,6.0977e+07,0,-0.32,3.39,3.72,0.0055697,0.00057232,-0.24217,0.14474,-1.1466,-0.37082,0.13995,-0.08,-0.02,-0.04,93.6
17557,6.0988e+07,0,-0.32,3.39,3.72,0.005676,0.00062858,-0.24078,0.14389,-1.1466,-0.37888,0.14221,-0.08,-0.02,-0.04,93.6
17598,6.0999e+07,0,-0.32,3.39,3.72,-0.041868,-0.036069,-0.24097,0.14701,-1.147,-0.37924,0.13981,-0.08,-0.02,-0.04,93.6
17639,6.1008e+07,0,-0.32,3.39,3.72,-0.041934,-0.036234,-0.23976,0.14818,-1.1475,-0.3797,0.14211,-0.08,-0.02,-0.04,93.6
17679,6.1018e+07,0,-0.32,3.39,3.72,-0.042012,-0.036046,-0.23879,0.14855,-1.1481,-0.38018,0.14421,-0.08,-0.02,-0.04,93.6
17727,6.1028e+07,0,-0.32,3.39,3.72,-0.042041,-0.036063,-0.23772,0.1458,-1.1486,-0.38067,0.14611,-0.08,-0.02,-0.04,93.6
17768,6.1039e+07,0,-0.32,3.39,3.72,-0.042017,-0.036177,-0.23678,0.14495,-1.1493,-0.38122,0.14757,-0.08,-0.02,-0.04,93.6
17809,6.105e+07,0,-0.32,3.39,3.72,-0.041986,-0.03621,-0.23577,0.14138,-1.1499,-0.38174,0.14909,-0.08,-0.02,-0.04,93.6
17849,6.106e+07,0,-0.32,3.39,3.72,-0.042013,-0.036351,-0.23508,0.13856,-1.1505,-0.38231,0.15018,-0.08,-0.02,-0.04,93.6
17892,6.1073e+07,0,-0.32,3.39,3.72,-0.041715,-0.036512,-0.23342,0.1375,-1.1513,-0.38298,0.1524,-0.08,-0.02,-0.04,93.6
17933,6.1084e+07,0,-0.32,3.39,3.72,-0.041757,-0.036464,-0.23234,0.1373,-1.1519,-0.38354,0.15509,-0.08,-0.02,-0.04,93.6
17973,6.1094e+07,0,-0.32,3.39,3.72,-0.041918,-0.036293,-0.23201,0.14298,-1.1524,-0.38394,0.15254,-0.08,-0.02,-0.04,93.6
18015,6.1104e+07,0,-0.32,3.39,3.72,-0.041907,-0.036166,-0.23097,0.1448,-1.153,-0.3845,0.15505,-0.08,-0.02,-0.04,93.6
18056,6.1114e+07,0,-0.32,3.39,3.72,-0.041677,-0.036063,-0.22979,0.1467,-1.1537,-0.38505,0.15735,-0.08,-0.02,-0.04,93.6
18096,6.1125e+07,0,-0.32,3.39,3.72,-0.041748,-0.036104,-0.22855,0.1504,-1.1543,-0.38562,0.1592,-0.08,-0.02,-0.04,93.6
18142,6.1135e+07,0,-0.32,3.39,3.72,-0.041863,-0.036106,-0.22755,0.15116,-1.1549,-0.38615,0.1611,-0.08,-0.02,-0.04,93.6
18182,6.1145e+07,0,-0.32,3.39,3.72,-0.042011,-0.036009,-0.22643,0.14784,-1.1555,-0.38667,0.1628,-0.08,-0.02,-0.04,93.6
18224,6.1156e+07,0,-0.32,3.39,3.73,-0.041906,-0.036178,-0.22638,0.14659,-1.1559,-0.38703,0.16054,-0.08,-0.02,-0.04,93.6
18264,6.1166e+07,0,-0.32,3.39,3.73,-0.041743,-0.036214,-0.2255,0.14138,-1.1566,-0.38758,0.16186,-0.08,-0.02,-0.04,93.6
18305,6.1176e+07,0,-0.32,3.39,3.73,-0.041757,-0.036263,-0.22375,0.1387,-1.1572,-0.38808,0.16502,-0.08,-0.02,-0.04,93.6
18347,6.1189e+07,0,-0.32,3.39,3.73,-0.041492,-0.036561,-0.22238,0.14115,-1.1579,-0.38869,0.16727,-0.08,-0.02,-0.04,93.6
18384,6.1199e+07,0,-0.32,3.39,3.73,-0.040033,-0.035547,-0.22038,0.15165,-1.158,-0.38909,0.17208,-0.08,-0.02,-0.04,93.6
18426,6.1209e+07,0,-0.32,3.39,3.73,-0.038464,-0.034511,-0.21846,0.16678,-1.1582,-0.38948,0.1766,-0.08,-0.02,-0.04,93.6
18466,6.1219e+07,0,-0.32,3.39,3.73,-0.038483,-0.034649,-0.21835,0.18025,-1.1586,-0.38982,0.17441,-0.08,-0.02,-0.04,93.6
18507,6.1229e+07,0,-0.32,3.39,3.73,-0.036811,-0.033911,-0.21642,0.19361,-1.1587,-0.39018,0.17872,-0.08,-0.02,-0.04,93.6
18554,6.1239e+07,0,-0.32,3.39,3.73,-0.035353,-0.032949,-0.21488,0.20762,-1.1588,-0.39052,0.18275,-0.08,-0.02,-0.04,93.6
18594,6.1249e+07,0,-0.33,3.39,3.74,-0.034076,-0.031969,-0.21316,0.21827,-1.1589,-0.39083,0.18652,-0.08,-0.02,-0.04,93.6
18635,6.126e+07,0,-0.33,3.39,3.74,-0.032754,-0.031124,-0.21176,0.22749,-1.159,-0.39116,0.18984,-0.08,-0.02,-0.04,93.6
18675,6.1271e+07,0,-0.33,3.39,3.74,-0.032666,-0.031003,-0.21164,0.23878,-1.1594,-0.39147,0.18773,-0.08,-0.02,-0.04,93.6
18716,6.1281e+07,0,-0.32,3.39,3.73,-0.031409,-0.030259,-0.20976,0.25106,-1.1594,-0.39177,0.19228,-0.08,-0.02,-0.04,93.6
18757,6.1291e+07,0,-0.32,3.39,3.73,-0.030293,-0.029386,-0.20778,0.26678,-1.1595,-0.39201,0.19673,-0.08,-0.02,-0.04,93.6
18798,6.1301e+07,0,-0.32,3.39,3.73,-0.0293,-0.028568,-0.20623,0.28059,-1.1595,-0.39225,0.2009,-0.08,-0.02,-0.04,93.6
18839,6.1311e+07,0,-0.32,3.39,3.73,-0.028322,-0.028074,-0.20457,0.29196,-1.1595,-0.39246,0.2048,-0.08,-0.02,-0.04,93.6
18879,6.1322e+07,0,-0.32,3.39,3.73,-0.027343,-0.027578,-0.20298,0.30257,-1.1594,-0.39266,0.20843,-0.08,-0.02,-0.04,93.6
18920,6.1331e+07,0,-0.32,3.39,3.73,-0.026476,-0.027026,-0.20148,0.30882,-1.1594,-0.39285,0.21182,-0.08,-0.02,-0.04,93.6
18966,6.1342e+07,0,-0.31,3.39,3.73,-0.025596,-0.026527,-0.20003,0.31571,-1.1594,-0.39305,0.21477,-0.08,-0.02,-0.04,93.6
19007,6.1352e+07,0,-0.31,3.39,3.73,-0.0255,-0.02664,-0.19988,0.32055,-1.1596,-0.39332,0.21277,-0.08,-0.02,-0.04,93.6
19049,6.1362e+07,0,-0.32,3.39,3.73,-0.024783,-0.026328,-0.19879,0.31864,-1.1596,-0.39348,0.21572,-0.08,-0.02,-0.04,93.6
19089,6.1373e+07,0,-0.32,3.39,3.74,-0.02411,-0.025746,-0.19723,0.31461,-1.1595,-0.39366,0.21973,-0.08,-0.02,-0.04,93.6
19130,6.1384e+07,0,-0.32,3.39,3.74,-0.023125,-0.02519,-0.19561,0.31494,-1.1595,-0.3938,0.22367,-0.08,-0.02,-0.04,93.6
19169,6.1394e+07,0,-0.32,3.39,3.74,-0.022255,-0.023627,-0.19325,0.31796,-1.1591,-0.39376,0.22859,-0.08,-0.02,-0.04,93.6
19207,6.1404e+07,0,-0.32,3.39,3.74,-0.021395,-0.022323,-0.19111,0.32538,-1.1588,-0.39368,0.23339,-0.08,-0.02,-0.04,93.6
19249,6.1414e+07,0,-0.32,3.39,3.74,-0.020686,-0.020918,-0.1892,0.33205,-1.1585,-0.39359,0.23791,-0.08,-0.02,-0.04,93.6
19289,6.1424e+07,0,-0.32,3.39,3.74,-0.020502,-0.020552,-0.18899,0.34325,-1.1587,-0.39379,0.23603,-0.08,-0.02,-0.04,93.6
19330,6.1434e+07,0,-0.32,3.39,3.74,-0.019648,-0.019065,-0.18709,0.34928,-1.1584,-0.39366,0.24031,-0.08,-0.02,-0.04,93.6
19374,6.1445e+07,0,-0.32,3.39,3.74,-0.019001,-0.017914,-0.18529,0.351,-1.1581,-0.39354,0.24416,-0.08,-0.02,-0.04,93.6
19415,6.1455e+07,0,-0.32,3.39,3.74,-0.018274,-0.016819,-0.18359,0.34763,-1.1578,-0.39339,0.24796,-0.08,-0.02,-0.04,93.6
19457,6.1465e+07,0,-0.32,3.39,3.74,-0.017618,-0.015686,-0.18202,0.3426,-1.1575,-0.39322,0.25152,-0.08,-0.02,-0.04,93.6
19498,6.1476e+07,0,-0.31,3.39,3.74,-0.016975,-0.014681,-0.18016,0.33974,-1.1572,-0.39305,0.25584,-0.08,-0.02,-0.04,93.6
19539,6.1487e+07,0,-0.31,3.39,3.74,-0.016221,-0.013901,-0.17827,0.34193,-1.1569,-0.39288,0.25988,-0.08,-0.02,-0.04,93.6
19579,6.1497e+07,0,-0.31,3.39,3.74,-0.016194,-0.014094,-0.1781,0.34656,-1.1571,-0.39302,0.2581,-0.08,-0.02,-0.04,93.6
19620,6.1507e+07,0,-0.31,3.39,3.74,-0.015543,-0.013274,-0.17634,0.34678,-1.1568,-0.39282,0.26209,-0.08,-0.02,-0.04,93.6
19661,6.1518e+07,0,-0.32,3.39,3.74,-0.015077,-0.012463,-0.17465,0.34292,-1.1565,-0.39262,0.26568,-0.08,-0.02,-0.04,93.6
19704,6.1528e+07,0,-0.32,3.39,3.75,-0.014559,-0.011687,-0.17281,0.33553,-1.1562,-0.3924,0.26922,-0.08,-0.02,-0.04,93.6
19745,6.1538e+07,0,-0.32,3.4,3.75,-0.013985,-0.01081,-0.17107,0.32706,-1.1559,-0.39218,0.27254,-0.08,-0.02,-0.04,93.6
19789,6.1549e+07,0,-0.32,3.4,3.75,-0.014061,-0.010754,-0.17097,0.32031,-1.1561,-0.3923,0.27066,-0.08,-0.02,-0.04,93.6
19831,6.1559e+07,0,-0.32,3.4,3.75,-0.013893,-0.0099342,-0.16966,0.31173,-1.1558,-0.39206,0.27378,-0.08,-0.02,-0.04,93.6
19871,6.1569e+07,0,-0.32,3.4,3.75,-0.013592,-0.0091679,-0.16839,0.30359,-1.1555,-0.39182,0.27668,-0.08,-0.02,-0.04,93.6
19915,6.1579e+07,0,-0.32,3.4,3.75,-0.013353,-0.0084337,-0.16706,0.29369,-1.1553,-0.39158,0.27938,-0.08,-0.02,-0.04,93.6
19949,6.1591e+07,0,-0.32,3.4,3.75,-0.012987,-0.0076118,-0.16563,0.28185,-1.1548,-0.39142,0.28315,-0.08,-0.02,-0.04,93.6
19989,6.1601e+07,0,-0.32,3.4,3.75,-0.01276,-0.0069164,-0.16404,0.27722,-1.1544,-0.39124,0.28699,-0.08,-0.02,-0.04,93.6
20030,6.1611e+07,0,-0.32,3.4,3.75,-0.012589,-0.0066317,-0.16248,0.27068,-1.1539,-0.39106,0.2906,-0.08,-0.02,-0.04,93.6
20071,6.1622e+07,0,-0.31,3.4,3.75,-0.012381,-0.0061274,-0.16093,0.26891,-1.1535,-0.39089,0.29382,-0.08,-0.02,-0.04,93.6
20111,6.1632e+07,0,-0.31,3.4,3.75,-0.012287,-0.0061846,-0.16053,0.26983,-1.1537,-0.39095,0.29221,-0.08,-0.02,-0.04,93.6
20152,6.1643e+07,0,-0.31,3.4,3.75,-0.012167,-0.0056398,-0.15903,0.26648,-1.1533,-0.39077,0.29524,-0.08,-0.02,-0.04,93.6
20199,6.1653e+07,0,-0.31,3.4,3.75,-0.011866,-0.005176,-0.15754,0.26075,-1.1529,-0.39058,0.29824,-0.08,-0.02,-0.04,93.6
20242,6.1663e+07,0,-0.31,3.4,3.75,-0.011396,-0.0048511,-0.1562,0.24769,-1.1525,-0.39039,0.30106,-0.08,-0.02,-0.04,93.6
20283,6.1673e+07,0,-0.31,3.4,3.75,-0.011146,-0.0049892,-0.15621,0.23984,-1.1526,-0.39044,0.2995,-0.08,-0.02,-0.04,93.6
20323,6.1684e+07,0,-0.31,3.4,3.76,-0.010829,-0.0046069,-0.15495,0.2302,-1.1523,-0.39025,0.30215,-0.08,-0.02,-0.04,93.6
20364,6.1693e+07,0,-0.31,3.4,3.76,-0.010782,-0.004121,-0.15316,0.22083,-1.1519,-0.39006,0.30558,-0.08,-0.02,-0.04,93.6
20404,6.1703e+07,0,-0.31,3.4,3.76,-0.010472,-0.003759,-0.15158,0.21253,-1.1516,-0.38988,0.30864,-0.08,-0.02,-0.04,93.6
20446,6.1713e+07,0,-0.31,3.4,3.76,-0.010182,-0.0033886,-0.14992,0.20635,-1.1513,-0.38969,0.31165,-0.08,-0.02,-0.04,93.6
20486,6.1724e+07,0,-0.31,3.4,3.76,-0.010136,-0.0029155,-0.14847,0.20429,-1.151,-0.38951,0.31429,-0.08,-0.02,-0.04,93.6
20527,6.1734e+07,0,-0.32,3.4,3.76,-0.010267,-0.0028633,-0.14808,0.20469,-1.1511,-0.38954,0.31281,-0.08,-0.02,-0.04,93.6
20568,6.1744e+07,0,-0.32,3.4,3.76,-0.0098494,-0.0025395,-0.1467,0.20212,-1.1508,-0.38936,0.31544,-0.08,-0.02,-0.04,93.6
20613,6.1754e+07,0,-0.32,3.4,3.76,-0.0097634,-0.0022561,-0.14545,0.19847,-1.1506,-0.38917,0.31788,-0.08,-0.02,-0.04,93.6
20654,6.1764e+07,0,-0.31,3.4,3.76,-0.0095654,-0.0018656,-0.14424,0.19182,-1.1503,-0.38899,0.32015,-0.08,-0.02,-0.04,93.6
20695,6.1775e+07,0,-0.31,3.4,3.76,-0.009423,-0.0017337,-0.14305,0.18303,-1.1501,-0.38881,0.32212,-0.08,-0.02,-0.04,93.6
20738,6.1786e+07,0,-0.31,3.4,3.76,-0.009369,-0.00176,-0.14276,0.17715,-1.1502,-0.38883,0.32069,-0.08,-0.02,-0.04,93.6
20773,6.1797e+07,0,-0.31,3.4,3.76,-0.0089529,-0.0016653,-0.14133,0.17317,-1.1497,-0.3887,0.32391,-0.08,-0.02,-0.04,93.6
20813,6.1807e+07,0,-0.31,3.4,3.76,-0.008831,-0.0013964,-0.1395,0.1745,-1.1493,-0.38857,0.32719,-0.08,-0.02,-0.04,93.6
20855,6.1817e+07,0,-0.31,3.4,3.76,-0.0086252,-0.0013572,-0.13772,0.17704,-1.1489,-0.38844,0.33026,-0.08,-0.02,-0.04,93.6
20896,6.1827e+07,0,-0.31,3.4,3.76,-0.0084593,-0.0011402,-0.13639,0.17716,-1.1485,-0.38832,0.33315,-0.08,-0.02,-0.04,93.6
20936,6.1837e+07,0,-0.31,3.4,3.76,-0.0083255,-0.00094877,-0.1348,0.17679,-1.1481,-0.3882,0.33572,-0.08,-0.02,-0.04,93.6
20978,6.1848e+07,0,-0.31,3.4,3.76,-0.0083644,-0.00083682,-0.13438,0.17902,-1.1482,-0.3882,0.33437,-0.08,-0.02,-0.04,93.6
21022,6.1858e+07,0,-0.31,3.4,3.76,-0.0082055,-0.00082737,-0.13318,0.17858,-1.1478,-0.38808,0.33691,-0.08,-0.02,-0.04,93.6
21064,6.1868e+07,0,-0.31,3.4,3.76,-0.0078507,-0.00071561,-0.13198,0.1774,-1.1474,-0.38796,0.33928,-0.08,-0.02,-0.04,93.6
21106,6.1879e+07,0,-0.31,3.4,3.76,-0.0076506,-0.00043601,-0.13083,0.17672,-1.1471,-0.38785,0.34132,-0.08,-0.02,-0.04,93.6
21146,6.1888e+07,0,-0.31,3.4,3.76,-0.0074994,-0.000204,-0.12971,0.17418,-1.1468,-0.38773,0.34334,-0.08,-0.02,-0.04,93.6
21190,6.1901e+07,0,-0.31,3.4,3.76,-0.0072696,0.00012873,-0.12828,0.1695,-1.1465,-0.38762,0.3459,-0.08,-0.02,-0.04,93.6
21230,6.1911e+07,0,-0.31,3.4,3.76,-0.00724,0.00049042,-0.1271,0.16643,-1.1462,-0.38751,0.34854,-0.08,-0.02,-0.04,93.6
21272,6.1922e+07,0,-0.31,3.4,3.76,-0.0071432,0.00061953,-0.1254,0.16771,-1.1459,-0.3874,0.35085,-0.08,-0.02,-0.04,93.6
21312,6.1932e+07,0,-0.31,3.4,3.77,-0.0070866,0.00068856,-0.1251,0.17014,-1.146,-0.38739,0.3496,-0.08,-0.02,-0.04,93.6
21353,6.1943e+07,0,-0.31,3.4,3.77,-0.0070309,0.00064257,-0.12386,0.16971,-1.1457,-0.38728,0.35178,-0.08,-0.02,-0.04,93.6
21393,6.1953e+07,0,-0.31,3.4,3.76,-0.0068737,0.00075253,-0.12292,0.16692,-1.1455,-0.38718,0.35392,-0.08,-0.02,-0.04,93.6
21439,6.1963e+07,0,-0.31,3.4,3.77,-0.006567,0.00074618,-0.12159,0.16374,-1.1452,-0.38708,0.3559,-0.08,-0.02,-0.04,93.6
21482,6.1979e+07,0,-0.31,3.4,3.76,-0.0065672,0.0011921,-0.11985,0.16046,-1.145,-0.38685,0.35823,-0.08,-0.02,-0.04,93.6
21522,6.1989e+07,0,-0.31,3.4,3.76,-0.006649,0.0014323,-0.11847,0.16276,-1.1447,-0.38662,0.36108,-0.08,-0.02,-0.04,93.6
21563,6.1999e+07,0,-0.31,3.4,3.76,-0.0064808,0.0016622,-0.11693,0.16585,-1.1444,-0.3864,0.36461,-0.08,-0.02,-0.04,93.6
21603,6.2011e+07,0,-0.31,3.4,3.77,-0.0064459,0.0019926,-0.11533,0.17322,-1.1442,-0.38619,0.36804,-0.08,-0.02,-0.04,93.6
21647,6.2021e+07,0,-0.31,3.4,3.77,-0.0064563,0.0024222,-0.11373,0.18091,-1.1439,-0.38598,0.37126,-0.08,-0.02,-0.04,93.6
21688,6.2031e+07,0,-0.31,3.4,3.77,-0.006601,0.0029445,-0.11234,0.19217,-1.1437,-0.38576,0.37416,-0.08,-0.02,-0.04,93.6
21729,6.2041e+07,0,-0.31,3.4,3.77,-0.0066354,0.0031284,-0.11177,0.20328,-1.1438,-0.38573,0.37304,-0.08,-0.02,-0.04,93.6
21770,6.2052e+07,0,-0.31,3.4,3.77,-0.0068225,0.003575,-0.1104,0.20994,-1.1436,-0.38551,0.37589,-0.08,-0.02,-0.04,93.6
21814,6.2062e+07,0,-0.31,3.4,3.77,-0.0070589,0.0038071,-0.10899,0.21653,-1.1434,-0.38529,0.37845,-0.08,-0.02,-0.04,93.6
21855,6.2073e+07,0,-0.31,3.4,3.77,-0.0072003,0.0042547,-0.10766,0.21857,-1.1432,-0.38507,0.38085,-0.08,-0.02,-0.04,93.6
21895,6.2083e+07,0,-0.31,3.41,3.77,-0.007324,0.0044994,-0.10674,0.21774,-1.1431,-0.38486,0.38319,-0.08,-0.02,-0.04,93.6
21940,6.2095e+07,0,-0.31,3.41,3.77,-0.0073075,0.0046884,-0.1055,0.21451,-1.143,-0.38464,0.38584,-0.08,-0.02,-0.04,93.6
21984,6.2108e+07,0,-0.31,3.41,3.77,-0.0073745,0.0048922,-0.10398,0.21372,-1.1428,-0.38442,0.3882,-0.08,-0.02,-0.04,93.6
22026,6.2118e+07,0,-0.31,3.41,3.77,-0.0073533,0.0050218,-0.10227,0.21348,-1.1427,-0.38421,0.39071,-0.08,-0.02,-0.04,93.6
22066,6.2128e+07,0,-0.31,3.41,3.77,-0.0073962,0.0053242,-0.10108,0.21133,-1.1426,-0.38401,0.39305,-0.08,-0.02,-0.04,93.6
22107,6.2139e+07,0,-0.31,3.41,3.77,-0.0074383,0.0055301,-0.10002,0.21006,-1.1425,-0.38381,0.39512,-0.08,-0.02,-0.04,93.6
