LineNo,TimeUS,C,Roll,Pitch,Yaw,VN,VE,VD,dPD,PN,PE,PD,GX,GY,GZ,OH
996,56703210,0,-0.29,3.38,3.83,0.01010526,0.007804615,-0.0479705,0.00065774,-1.12432,-0.306328,0.7592781,-0.08,-0.02,-0.05,93.59999999999999
1460,56874641,0,-0.29,3.38,3.82,0.01105568,0.008998071999999999,-0.5132104,-0.4176625,-1.135452,-0.306328,0.718847,-0.08,-0.02,-0.05,93.59999999999999
1478,56895150,0,-0.29,3.38,3.81,0.01089639,0.008814001,-0.5124951,-0.4229641,-1.135452,-0.306328,0.7098326,-0.08,-0.02,-0.05,93.59999999999999
1520,56905036,0,-0.3,3.38,3.81,0.01087003,0.008891593999999999,-0.5121066,-0.4259763,-1.135452,-0.306328,0.7052741,-0.08,-0.02,-0.05,93.59999999999999
1560,56915114,0,-0.3,3.38,3.81,0.01073474,0.008977377,-0.5119064,-0.4295419,-1.135452,-0.306328,0.70069,-0.08,-0.02,-0.05,93.59999999999999
1605,56925171,0,-0.3,3.38,3.8,0.0107679,0.009010206,-0.5116972,-0.4333612,-1.135452,-0.306328,0.6960787000000001,-0.08,-0.02,-0.05,93.59999999999999
1646,56935806,0,-0.3,3.38,3.8,0.01063843,0.008948571000000001,-0.5117233,-0.4375675,-1.135452,-0.306328,0.6909279,-0.08,-0.02,-0.05,93.59999999999999
1686,56945557,0,-0.3,3.38,3.79,0.01062455,0.009044215,-0.5117655,-0.4411651,-1.135452,-0.306328,0.6858169,-0.08,-0.02,-0.05,93.59999999999999
1728,56955651,0,-0.3,3.38,3.79,0.01037712,0.009086156999999999,-0.5118561,-0.4452457,-1.135452,-0.306328,0.6811527000000001,-0.08,-0.02,-0.05,93.59999999999999
1774,56969645,0,-0.3,3.38,3.79,0.01038334,0.009092202000000001,-0.5115048,-0.448018,-1.135452,-0.306328,0.6751006000000001,-0.08,-0.02,-0.05,93.59999999999999
1814,56980132,0,-0.29,3.38,3.78,0.01036973,0.009168666000000001,-0.5113978,-0.4478967,-1.135452,-0.3143893,0.6710389,-0.08,-0.02,-0.05,93.59999999999999
1856,56990676,0,-0.29,3.38,3.78,0.01034352,0.009042823,-0.5108694,-0.4467549,-1.135452,-0.3143893,0.6664187,-0.08,-0.02,-0.05,93.59999999999999
1896,57000625,0,-0.29,3.38,3.77,0.01021764,0.008960874000000001,-0.5105473,-0.4454032,-1.135452,-0.3143893,0.6622626,-0.08,-0.02,-0.05,93.59999999999999
1937,57010674,0,-0.29,3.38,3.77,0.01024728,0.008932489,-0.5102037,-0.4443904,-1.135452,-0.3143893,0.6580637,-0.08,-0.02,-0.05,93.59999999999999
1977,57020914,0,-0.29,3.38,3.77,0.01027834,0.009004118,-0.5104151,-0.4428462,-1.135452,-0.3143893,0.6529669,-0.08,-0.02,-0.05,93.59999999999999
2022,57031566,0,-0.29,3.38,3.76,0.01040569,0.009082567999999999,-0.5102429000000001,-0.4416992,-1.135452,-0.3143893,0.6487262,-0.08,-0.02,-0.05,93.59999999999999
2063,57041683,0,-0.3,3.38,3.76,0.01043955,0.009000088999999999,-0.5101894,-0.4411259,-1.135452,-0.3143893,0.643935,-0.08,-0.02,-0.05,93.59999999999999
2104,57051669,0,-0.3,3.38,3.76,0.01051025,0.009098998000000001,-0.509736,-0.4404866,-1.135452,-0.3143893,0.6396139,-0.08,-0.02,-0.05,93.59999999999999
2151,57064510,0,-0.3,3.38,3.75,0.01060292,0.009133352000000001,-0.5095917,-0.4405437,-1.135452,-0.3143893,0.6336697,-0.08,-0.02,-0.05,93.59999999999999
2191,57074442,0,-0.3,3.38,3.75,0.01036904,0.009162541,-0.5094777,-0.4414717,-1.135452,-0.3143893,0.629727,-0.08,-0.02,-0.05,93.59999999999999
2232,57085116,0,-0.3,3.38,3.75,0.01025556,0.009267536,-0.5093422,-0.4422426,-1.135452,-0.3143893,0.6247333,-0.08,-0.02,-0.05,93.59999999999999
2272,57095903,0,-0.3,3.38,3.74,0.01039621,0.00916312,-0.5088103,-0.4428522,-1.135452,-0.3143893,0.6197103,-0.08,-0.02,-0.05,93.59999999999999
2314,57106357,0,-0.3,3.38,3.74,0.01043942,0.009160247999999999,-0.5085852,-0.443711,-1.135452,-0.3143893,0.6146291,-0.08,-0.02,-0.05,93.59999999999999
2355,57116324,0,-0.3,3.38,3.74,0.01028637,0.009267381999999999,-0.5083289,-0.4453131,-1.135452,-0.3143893,0.6100936,-0.08,-0.02,-0.05,93.59999999999999
2395,57126119,0,-0.3,3.38,3.74,0.01024062,0.009258673,-0.508001,-0.4471244,-1.135452,-0.3143893,0.6055319,-0.08,-0.02,-0.05,93.59999999999999
2440,57136194,0,-0.3,3.38,3.74,0.009982599,0.009139249,-0.507719,-0.4494494,-1.135452,-0.3143893,0.6009481,-0.08,-0.02,-0.05,93.59999999999999
2480,57146607,0,-0.3,3.38,3.73,0.009990478000000001,0.009199921999999999,-0.5076617,-0.4524566,-1.135452,-0.3143893,0.5958331,-0.08,-0.02,-0.05,93.59999999999999
2522,57156620,0,-0.3,3.38,3.73,0.01014318,0.009261135,-0.5077575,-0.454942,-1.135452,-0.3143893,0.5907626,-0.08,-0.02,-0.05,93.59999999999999
2563,57166638,0,-0.3,3.38,3.73,0.01014813,0.009378341,-0.507547,-0.4572621,-1.135452,-0.3143893,0.5861309,-0.08,-0.02,-0.05,93.59999999999999
2599,57177352,0,-0.3,3.38,3.73,0.009990476999999999,0.009259949999999999,-0.5071768,-0.4590942,-1.135452,-0.3143893,0.5817387000000001,-0.08,-0.02,-0.05,93.59999999999999
2641,57187839,0,-0.3,3.38,3.73,0.009862101999999999,0.009390571,-0.5068539,-0.4600095,-1.146584,-0.3143893,0.576807,-0.08,-0.02,-0.05,93.59999999999999
2681,57198124,0,-0.3,3.38,3.73,0.009856353999999999,0.009426792999999999,-0.506856,-0.4611281,-1.146584,-0.3143893,0.5723515,-0.08,-0.02,-0.05,93.59999999999999
2723,57208949,0,-0.3,3.38,3.73,0.01011973,0.009536032999999999,-0.5068349,-0.4615964,-1.146584,-0.3143893,0.5673561,-0.08,-0.02,-0.05,93.59999999999999
2763,57219655,0,-0.3,3.38,3.73,0.01017606,0.009590697,-0.5066152,-0.4621148,-1.146584,-0.3143893,0.562334,-0.08,-0.02,-0.05,93.59999999999999
2804,57230561,0,-0.3,3.38,3.73,0.01024305,0.009789146,-0.50669,-0.4623947,-1.146584,-0.3143893,0.5572731,-0.08,-0.02,-0.05,93.59999999999999
2851,57240366,0,-0.3,3.38,3.72,0.01025819,0.009750569000000001,-0.5069463,-0.4632948,-1.146584,-0.3143893,0.5527300000000001,-0.08,-0.02,-0.05,93.59999999999999
2892,57250659,0,-0.3,3.38,3.72,0.01039935,0.009897161999999999,-0.5064876,-0.4638086,-1.146584,-0.3143893,0.5476553,-0.08,-0.02,-0.05,93.59999999999999
2933,57260616,0,-0.3,3.38,3.72,0.01038397,0.009995656,-0.5065408,-0.4648288,-1.146584,-0.3143893,0.5430633,-0.08,-0.02,-0.05,93.59999999999999
2977,57274644,0,-0.3,3.38,3.72,0.01045086,0.01000374,-0.5064838,-0.4650368,-1.146584,-0.3143893,0.5367179,-0.08,-0.02,-0.05,93.59999999999999
3018,57284914,0,-0.3,3.38,3.72,0.01047195,0.01018703,-0.5064119,-0.4647971,-1.146584,-0.3143893,0.5323607,-0.08,-0.02,-0.05,93.59999999999999
3058,57295365,0,-0.3,3.38,3.72,0.01066091,0.01011582,-0.5061568,-0.4642381,-1.146584,-0.3143893,0.5273042,-0.08,-0.02,-0.05,93.59999999999999
3100,57305571,0,-0.3,3.38,3.72,0.01069377,0.009966254000000001,-0.5061237,-0.4639362,-1.146584,-0.3143893,0.5229228,-0.08,-0.02,-0.05,93.59999999999999
3141,57315557,0,-0.3,3.38,3.72,0.01084423,0.009898758000000001,-0.5059049,-0.4632197,-1.146584,-0.3143893,0.5185084,-0.08,-0.02,-0.05,93.59999999999999
3181,57325702,0,-0.3,3.38,3.72,0.01091969,0.009650694,-0.5057259,-0.4626219,-1.146584,-0.3143893,0.5135599,-0.08,-0.02,-0.05,93.59999999999999
3226,57336127,0,-0.3,3.38,3.72,0.01085242,0.009436045000000001,-0.5058101,-0.4621807,-1.146584,-0.3143893,0.5090837,-0.08,-0.02,-0.05,93.59999999999999
3267,57346144,0,-0.3,3.38,3.72,0.01089775,0.009416816,-0.5057467,-0.4618126,-1.146584,-0.3143893,0.5045771999999999,-0.08,-0.02,-0.05,93.59999999999999
3308,57356658,0,-0.3,3.38,3.72,0.01096151,0.009534031,-0.5053512999999999,-0.4608911,-1.146584,-0.3143893,0.4995371,-0.08,-0.02,-0.05,93.59999999999999
3350,57367104,0,-0.3,3.38,3.72,0.01097354,0.009480614,-0.5051374,-0.4602514,-1.146584,-0.3143893,0.4949769,-0.08,-0.02,-0.05,93.59999999999999
3391,57377573,0,-0.3,3.38,3.72,0.01109325,0.009612516999999999,-0.5050895,-0.4597736,-1.146584,-0.3143893,0.4894266,-0.08,-0.02,-0.05,93.59999999999999
3431,57388381,0,-0.3,3.38,3.72,0.01113855,0.009691379999999999,-0.5048159,-0.4559592,-1.157716,-0.3143893,0.4854071,-0.08,-0.02,-0.05,93.59999999999999
3472,57398531,0,-0.3,3.38,3.72,0.01109323,0.009755079999999999,-0.5045255,-0.4502985,-1.157716,-0.3143893,0.4823247,-0.08,-0.02,-0.05,93.59999999999999
3513,57409123,0,-0.3,3.38,3.72,0.01101501,0.009889306,-0.5039509,-0.4418554,-1.157716,-0.3143893,0.4781675,-0.08,-0.02,-0.05,93.59999999999999
3555,57419052,0,-0.3,3.38,3.72,0.01098895,0.009916057000000001,-0.5033814,-0.4331401,-1.157716,-0.3143893,0.4744515,-0.08,-0.02,-0.05,93.59999999999999
3595,57428880,0,-0.3,3.38,3.72,0.01104434,0.00993429,-0.5030722,-0.4255247,-1.157716,-0.3143893,0.4706788,-0.08,-0.02,-0.05,93.59999999999999
3640,57438880,0,-0.3,3.38,3.72,0.01100951,0.009957377999999999,-0.5025885,-0.419346,-1.157716,-0.3143893,0.4668526,-0.08,-0.02,-0.05,93.59999999999999
3681,57449933,0,-0.3,3.38,3.73,0.01089704,0.009954914,-0.5022708,-0.4140312,-1.157716,-0.3143893,0.4624754,-0.08,-0.02,-0.05,93.59999999999999
3722,57460695,0,-0.3,3.38,3.72,0.01114219,0.009887925000000001,-0.5020578,-0.4091978,-1.157716,-0.3143893,0.458044,-0.08,-0.02,-0.05,93.59999999999999
3763,57471436,0,-0.3,3.38,3.72,0.01117983,0.009739940000000001,-0.5022271,-0.4053779,-1.157716,-0.3143893,0.4530289,-0.08,-0.02,-0.05,93.59999999999999
3803,57481840,0,-0.3,3.38,3.73,0.01105441,0.009761961,-0.5017214,-0.3991853,-1.157716,-0.3143893,0.4495623,-0.08,-0.02,-0.05,93.59999999999999
3844,57491705,0,-0.3,3.38,3.73,0.01084164,0.009815246999999999,-0.5012947,-0.3927806,-1.157716,-0.3143893,0.4465107,-0.08,-0.02,-0.05,93.59999999999999
3885,57501879,0,-0.3,3.38,3.73,0.01084411,0.009819766000000001,-0.5006699,-0.3854477,-1.157716,-0.3143893,0.4433739,-0.08,-0.02,-0.05,93.59999999999999
3926,57511716,0,-0.3,3.38,3.73,0.01076854,0.009778238999999999,-0.5005027,-0.3794261,-1.157716,-0.3143893,0.4396592,-0.08,-0.02,-0.05,93.59999999999999
3966,57522418,0,-0.3,3.38,3.73,0.01075204,0.01003934,-0.5005321,-0.3727274,-1.157716,-0.3143893,0.4346606,-0.08,-0.02,-0.05,93.59999999999999
4007,57532335,0,-0.3,3.38,3.73,0.01078868,0.01009888,-0.5002016,-0.3673672,-1.157716,-0.3143893,0.4313727,-0.08,-0.02,-0.05,93.59999999999999
4054,57542645,0,-0.3,3.38,3.73,0.01072013,0.01020826,-0.4998723,-0.3628599,-1.157716,-0.3143893,0.4275137,-0.08,-0.02,-0.05,93.59999999999999
4097,57553745,0,-0.3,3.38,3.73,0.0106586,0.01009376,-0.4993801,-0.3582211,-1.157716,-0.3143893,0.4235809,-0.08,-0.02,-0.05,93.59999999999999
4138,57563876,0,-0.3,3.38,3.73,0.01062565,0.0103338,-0.4990696,-0.3553886,-1.157716,-0.3143893,0.4200788,-0.08,-0.02,-0.05,93.59999999999999
4180,57573940,0,-0.3,3.38,3.73,0.01050751,0.01052959,-0.4986192,-0.3543217,-1.157716,-0.3143893,0.4165161,-0.08,-0.02,-0.05,93.59999999999999
4222,57584611,0,-0.3,3.38,3.73,0.01061396,0.01063152,-0.4987905,-0.3531159,-1.157716,-0.3143893,0.4115351,-0.08,-0.02,-0.05,93.59999999999999
4262,57595006,0,-0.3,3.38,3.73,0.01066947,0.01052191,-0.4982672,-0.3517041,-1.157716,-0.3143893,0.4078558,-0.08,-0.02,-0.05,93.59999999999999
4303,57605103,0,-0.3,3.38,3.74,0.01057921,0.01039936,-0.4982269,-0.3498252,-1.157716,-0.3143893,0.4045912,-0.08,-0.02,-0.05,93.59999999999999
4343,57615660,0,-0.3,3.38,3.74,0.0104709,0.01049118,-0.4978726,-0.3484895,-1.157716,-0.3143893,0.4007562,-0.08,-0.02,-0.05,93.59999999999999
4384,57625619,0,-0.3,3.38,3.74,0.01022337,0.01040075,-0.497344,-0.3479933,-1.157716,-0.3143893,0.3978442,-0.08,-0.02,-0.05,93.59999999999999
4426,57635629,0,-0.3,3.38,3.74,0.01009469,0.01051392,-0.4971287,-0.3481383,-1.157716,-0.3143893,0.3943673,-0.08,-0.02,-0.05,93.59999999999999
4470,57645715,0,-0.3,3.38,3.74,0.01012901,0.01060412,-0.4970676,-0.347935,-1.157716,-0.3143893,0.3903228,-0.08,-0.02,-0.05,93.59999999999999
4511,57656632,0,-0.3,3.38,3.74,0.01012668,0.01072929,-0.4968375,-0.3473579,-1.157716,-0.3143893,0.3853593,-0.08,-0.02,-0.05,93.59999999999999
4551,57666591,0,-0.3,3.38,3.74,0.01012732,0.01062036,-0.4965662,-0.3485699,-1.157716,-0.3143893,0.3817567,-0.08,-0.02,-0.05,93.59999999999999
4592,57676522,0,-0.3,3.38,3.74,0.0101185,0.01044268,-0.4961795,-0.3510942,-1.157716,-0.3143893,0.3776003,-0.08,-0.02,-0.05,93.59999999999999
4636,57689073,0,-0.3,3.38,3.74,0.01021421,0.01061341,-0.4957169,-0.3538514,-1.157716,-0.3143893,0.3741536,-0.08,-0.02,-0.05,93.59999999999999
4677,57699549,0,-0.3,3.38,3.74,0.01008839,0.01053081,-0.4951848,-0.3538502,-1.157716,-0.3143893,0.37159,-0.08,-0.02,-0.05,93.59999999999999
4714,57710864,0,-0.3,3.38,3.74,0.01006488,0.01053736,-0.4945738,-0.348982,-1.157716,-0.3143893,0.3679353,-0.08,-0.02,-0.05,93.59999999999999
4754,57721646,0,-0.3,3.38,3.74,0.01013406,0.01044708,-0.4940401,-0.342772,-1.157716,-0.3143893,0.3646736,-0.08,-0.02,-0.05,93.59999999999999
4794,57731849,0,-0.31,3.38,3.74,0.01020385,0.01064258,-0.4939124,-0.335813,-1.157716,-0.3143893,0.3597396,-0.08,-0.02,-0.05,93.59999999999999
4837,57741807,0,-0.31,3.38,3.74,0.01021102,0.01049415,-0.4935832,-0.3307527,-1.157716,-0.3143893,0.356887,-0.08,-0.02,-0.05,93.59999999999999
4881,57751922,0,-0.31,3.38,3.74,0.01038121,0.01054124,-0.4932195,-0.3264819,-1.157716,-0.3143893,0.3539427,-0.08,-0.02,-0.05,93.59999999999999
4922,57762276,0,-0.31,3.38,3.74,0.01043648,0.01070776,-0.4927527,-0.3258956,-1.157716,-0.3143893,0.3509228,-0.08,-0.02,-0.05,93.59999999999999
4962,57772887,0,-0.31,3.38,3.74,0.01060545,0.01058132,-0.4923843,-0.3240534,-1.157716,-0.3143893,0.3473243,-0.08,-0.02,-0.05,93.59999999999999
5005,57783577,0,-0.3,3.38,3.74,0.01078002,0.01064867,-0.4923442,-0.3219988,-1.17998,-0.3143893,0.3424071,-0.08,-0.02,-0.05,93.59999999999999
5043,57794257,0,-0.3,3.38,3.74,0.01070182,0.0106905,-0.4915741,-0.3176835,-1.17998,-0.3143893,0.3398819,-0.08,-0.02,-0.05,93.59999999999999
5083,57804354,0,-0.3,3.38,3.74,0.01056204,0.01074939,-0.491163,-0.3109262,-1.17998,-0.3143893,0.3377196,-0.08,-0.02,-0.05,93.59999999999999
5124,57814435,0,-0.3,3.38,3.74,0.0105121,0.01089554,-0.4906144,-0.3038287,-1.17998,-0.3143893,0.3354377,-0.08,-0.02,-0.05,93.59999999999999
5165,57824934,0,-0.3,3.38,3.74,0.0106882,0.01073181,-0.4899426,-0.2972342,-1.17998,-0.3143893,0.3325578,-0.08,-0.02,-0.05,93.59999999999999
5206,57835144,0,-0.3,3.38,3.74,0.01058845,0.01051881,-0.489238,-0.2911675,-1.17998,-0.3143893,0.3300571,-0.08,-0.02,-0.05,93.59999999999999
5247,57845162,0,-0.3,3.38,3.73,0.0104442,0.0103624,-0.4886956,-0.2866797,-1.17998,-0.3143893,0.3274544,-0.08,-0.02,-0.05,93.59999999999999
5292,57855646,0,-0.3,3.38,3.73,0.010381,0.01001009,-0.4883596,-0.2816831,-1.17998,-0.3143893,0.3242635,-0.08,-0.02,-0.05,93.59999999999999
5334,57866099,0,-0.3,3.38,3.73,0.01051475,0.01005306,-0.4883015,-0.277489,-1.17998,-0.3143893,0.3193859,-0.08,-0.02,-0.05,93.59999999999999
5374,57876010,0,-0.3,3.38,3.73,0.01062896,0.009988156999999999,-0.4877667,-0.2760065,-1.17998,-0.3143893,0.3165973,-0.08,-0.02,-0.05,93.59999999999999
5416,57885998,0,-0.3,3.38,3.73,0.0108532,0.00997842,-0.4874685,-0.2762437,-1.17998,-0.3143893,0.3137192,-0.08,-0.02,-0.05,93.59999999999999
5456,57898931,0,-0.31,3.38,3.73,0.01081546,0.01005697,-0.4867203,-0.276046,-1.17998,-0.3143893,0.3104664,-0.08,-0.02,-0.05,93.59999999999999
5497,57909359,0,-0.31,3.38,3.73,0.01076285,0.0101681,-0.4860591,-0.2750058,-1.17998,-0.3143893,0.3085489,-0.08,-0.02,-0.05,93.59999999999999
5538,57919914,0,-0.31,3.38,3.73,0.01080022,0.01026483,-0.4861934,-0.2731293,-1.17998,-0.3143893,0.3032074,-0.08,-0.02,-0.05,93.59999999999999
5578,57929845,0,-0.3,3.38,3.73,0.01072085,0.01025135,-0.4856148,-0.2706683,-1.17998,-0.3143893,0.301185,-0.08,-0.02,-0.05,93.59999999999999
5619,57939940,0,-0.3,3.38,3.72,0.01072102,0.01031143,-0.4847947,-0.266567,-1.17998,-0.3143893,0.2990361,-0.08,-0.02,-0.05,93.59999999999999
5660,57949857,0,-0.3,3.38,3.72,0.01082385,0.01026941,-0.4840428,-0.2652885,-1.17998,-0.3143893,0.2967823,-0.08,-0.02,-0.05,93.59999999999999
5705,57959906,0,-0.3,3.38,3.72,0.01075535,0.01032317,-0.4835592,-0.2658269,-1.17998,-0.3143893,0.2944208,-0.08,-0.02,-0.05,93.59999999999999
5747,57970562,0,-0.3,3.39,3.72,0.01080325,0.01027492,-0.4836694,-0.2643025,-1.17998,-0.3143893,0.2895905,-0.08,-0.02,-0.05,93.59999999999999
5787,57980466,0,-0.3,3.38,3.72,0.01074957,0.01034607,-0.4830358,-0.2642155,-1.17998,-0.3143893,0.2871307,-0.08,-0.02,-0.05,93.59999999999999
5830,57990609,0,-0.3,3.38,3.72,0.01060082,0.01032272,-0.4826915,-0.2659447,-1.191112,-0.3224505,0.2840895,-0.08,-0.02,-0.05,93.59999999999999
5868,58003888,0,-0.3,3.39,3.72,0.01062358,0.0103339,-0.4821663,-0.2652076,-1.191112,-0.3224505,0.2811448,-0.08,-0.02,-0.05,93.59999999999999
5908,58013901,0,-0.3,3.39,3.72,0.0104494,0.01021435,-0.4814421,-0.2603804,-1.191112,-0.3224505,0.2794971,-0.08,-0.02,-0.05,93.59999999999999
5949,58024642,0,-0.3,3.39,3.72,0.01019902,0.01004814,-0.480877,-0.2556706,-1.191112,-0.3224505,0.2772391,-0.08,-0.02,-0.05,93.59999999999999
5990,58034651,0,-0.3,3.39,3.72,0.01023775,0.009997989000000001,-0.4801256,-0.2530693,-1.191112,-0.3224505,0.2753358,-0.08,-0.02,-0.05,93.59999999999999
6033,58044956,0,-0.3,3.39,3.72,0.01042735,0.01005909,-0.4801514,-0.248035,-1.191112,-0.3224505,0.2705404,-0.08,-0.02,-0.05,93.59999999999999
6074,58054999,0,-0.3,3.39,3.72,0.01036326,0.01013355,-0.4796359,-0.2450359,-1.191112,-0.3224505,0.2685245,-0.08,-0.02,-0.05,93.59999999999999
6118,58064958,0,-0.3,3.39,3.72,0.01045927,0.01034031,-0.4791337,-0.2464049,-1.191112,-0.3224505,0.2664027,-0.08,-0.02,-0.05,93.59999999999999
6160,58075631,0,-0.3,3.38,3.72,0.01040968,0.0104385,-0.4786733,-0.2483899,-1.191112,-0.3224505,0.2636896,-0.08,-0.02,-0.05,93.59999999999999
6201,58085867,0,-0.3,3.39,3.71,0.01053028,0.01029559,-0.4788151,-0.2485451,-1.191112,-0.3224505,0.2589083,-0.08,-0.02,-0.05,93.59999999999999
6241,58095861,0,-0.3,3.39,3.71,0.01062251,0.01034315,-0.47844,-0.2492782,-1.191112,-0.3224505,0.2565653,-0.08,-0.02,-0.05,93.59999999999999
6280,58106140,0,-0.3,3.39,3.71,0.01066892,0.01038242,-0.4777364,-0.2497669,-1.191112,-0.3224505,0.2549322,-0.08,-0.02,-0.05,93.59999999999999
6320,58118898,0,-0.3,3.39,3.71,0.01065795,0.01059125,-0.476958,-0.2487585,-1.191112,-0.3224505,0.2517377,-0.08,-0.02,-0.05,93.59999999999999
6361,58128936,0,-0.3,3.39,3.71,0.01056135,0.01059613,-0.4759848,-0.2511404,-1.191112,-0.3224505,0.2498625,-0.08,-0.02,-0.05,93.59999999999999
6402,58139631,0,-0.3,3.39,3.71,0.01046277,0.01063565,-0.4750314,-0.2499267,-1.191112,-0.3224505,0.2473827,-0.08,-0.02,-0.05,93.59999999999999
6443,58149996,0,-0.3,3.39,3.71,0.01060262,0.01058553,-0.4750433,-0.2473692,-1.191112,-0.3224505,0.2426386,-0.08,-0.02,-0.05,93.59999999999999
6488,58159963,0,-0.3,3.39,3.71,0.01063665,0.01061864,-0.4746919,-0.2467667,-1.191112,-0.3224505,0.2405248,-0.08,-0.02,-0.05,93.59999999999999
6530,58170023,0,-0.3,3.39,3.71,0.01032728,0.01055333,-0.4741877,-0.2466353,-1.202244,-0.3305118,0.2382946,-0.08,-0.02,-0.05,93.59999999999999
6572,58180486,0,-0.3,3.39,3.71,0.01026348,0.01056051,-0.473688,-0.245358,-1.202244,-0.3305118,0.2359465,-0.08,-0.02,-0.05,93.59999999999999
6613,58190558,0,-0.3,3.39,3.71,0.01025556,0.01050245,-0.4729752,-0.2466222,-1.202244,-0.3305118,0.2334962,-0.08,-0.02,-0.05,93.59999999999999
6654,58200568,0,-0.3,3.38,3.71,0.01031814,0.01048995,-0.4729946,-0.2493692,-1.202244,-0.3305118,0.2287715,-0.08,-0.02,-0.05,93.59999999999999
6692,58210841,0,-0.3,3.39,3.71,0.0104168,0.01034902,-0.472272,-0.249437,-1.202244,-0.3305118,0.2271136,-0.08,-0.02,-0.05,93.59999999999999
6732,58220932,0,-0.31,3.39,3.71,0.01047645,0.0103007,-0.4712135,-0.2447256,-1.202244,-0.3305118,0.2257693,-0.08,-0.02,-0.05,93.59999999999999
6773,58230889,0,-0.31,3.39,3.71,0.0104848,0.01010183,-0.4705969,-0.2371865,-1.202244,-0.3305118,0.2242723,-0.08,-0.02,-0.05,93.59999999999999
6814,58241581,0,-0.31,3.38,3.71,0.01049418,0.01015377,-0.4698367,-0.2309679,-1.202244,-0.3305118,0.222167,-0.08,-0.02,-0.05,93.59999999999999
6855,58251576,0,-0.31,3.39,3.71,0.01042887,0.01024509,-0.469477,-0.2243537,-1.202244,-0.3305118,0.2203896,-0.08,-0.02,-0.05,93.59999999999999
6900,58261616,0,-0.31,3.39,3.71,0.0102732,0.01008877,-0.4688736,-0.2196494,-1.202244,-0.3305118,0.2184842,-0.08,-0.02,-0.05,93.59999999999999
6940,58271863,0,-0.3,3.39,3.71,0.01023074,0.01024095,-0.4680721,-0.2182761,-1.202244,-0.3305118,0.2164623,-0.08,-0.02,-0.05,93.59999999999999
6982,58282436,0,-0.3,3.39,3.72,0.01030902,0.01013224,-0.4681141,-0.2162482,-1.202244,-0.3305118,0.2117881,-0.08,-0.02,-0.05,93.59999999999999
7022,58292364,0,-0.3,3.39,3.72,0.01033435,0.01001703,-0.4675125,-0.2168694,-1.202244,-0.3305118,0.2096617,-0.08,-0.02,-0.05,93.59999999999999
7060,58305537,0,-0.3,3.39,3.72,0.01024959,0.009932567,-0.466397,-0.2150676,-1.202244,-0.3305118,0.2072479,-0.08,-0.02,-0.05,93.59999999999999
7103,58315694,0,-0.3,3.39,3.72,0.0102292,0.009880435999999999,-0.4652563,-0.2104534,-1.202244,-0.3305118,0.2065337,-0.08,-0.02,-0.05,93.59999999999999
7143,58326016,0,-0.31,3.39,3.72,0.01014517,0.0100881,-0.4642394,-0.204826,-1.202244,-0.3305118,0.2051926,-0.08,-0.02,-0.05,93.59999999999999
7184,58336032,0,-0.31,3.39,3.72,0.01032407,0.01010521,-0.4632692,-0.2011329,-1.202244,-0.3305118,0.2046178,-0.08,-0.02,-0.05,93.59999999999999
7224,58346588,0,-0.31,3.39,3.72,0.01034896,0.01018992,-0.4631063,-0.1926686,-1.202244,-0.3305118,0.1995284,-0.08,-0.02,-0.05,93.59999999999999
7265,58356560,0,-0.31,3.39,3.72,0.01033722,0.01009384,-0.4624024,-0.1878154,-1.202244,-0.3305118,0.1978911,-0.08,-0.02,-0.05,93.59999999999999
7310,58366613,0,-0.3,3.39,3.72,0.01033411,0.009997812,-0.4617084,-0.1858104,-1.202244,-0.3305118,0.1970327,-0.08,-0.02,-0.05,93.59999999999999
7353,58376593,0,-0.31,3.39,3.72,0.01028082,0.00993839,-0.4608729,-0.1831924,-1.213375,-0.3385731,0.1951085,-0.08,-0.02,-0.05,93.59999999999999
7394,58386635,0,-0.31,3.39,3.72,0.01035637,0.01001778,-0.4601648,-0.1840581,-1.213375,-0.3385731,0.1935155,-0.08,-0.02,-0.05,93.59999999999999
7435,58396822,0,-0.31,3.39,3.71,0.01044657,0.009966793,-0.4600692,-0.1828876,-1.213375,-0.3385731,0.1889197,-0.08,-0.02,-0.05,93.59999999999999
7478,58406722,0,-0.31,3.39,3.71,0.01042853,0.009955185,-0.459145,-0.1839077,-1.213375,-0.3385731,0.1872093,-0.08,-0.02,-0.05,93.59999999999999
7512,58417551,0,-0.31,3.39,3.71,0.01040968,0.009807428999999999,-0.4580877,-0.1821691,-1.213375,-0.3385731,0.1863973,-0.08,-0.02,-0.04,93.59999999999999
7552,58428007,0,-0.31,3.39,3.71,0.01032782,0.009637164,-0.4570645,-0.1761526,-1.213375,-0.3385731,0.1858543,-0.08,-0.02,-0.05,93.59999999999999
7593,58438417,0,-0.31,3.39,3.71,0.01010892,0.009746728,-0.4560885,-0.1702511,-1.213375,-0.3385731,0.1846894,-0.08,-0.02,-0.05,93.59999999999999
7634,58448564,0,-0.31,3.39,3.71,0.01005298,0.00972579,-0.4553573,-0.1675337,-1.213375,-0.3385731,0.1838228,-0.08,-0.02,-0.04,93.59999999999999
7674,58459091,0,-0.31,3.39,3.71,0.009924641,0.009721464000000001,-0.4550824,-0.1611993,-1.213375,-0.3385731,0.1792758,-0.08,-0.02,-0.04,93.59999999999999
7720,58468966,0,-0.31,3.39,3.71,0.009771788999999999,0.009696672,-0.454236,-0.1575646,-1.213375,-0.3385731,0.1782659,-0.08,-0.02,-0.04,93.59999999999999
7761,58478942,0,-0.31,3.39,3.71,0.009603291999999999,0.009691030999999999,-0.4535556,-0.1551225,-1.213375,-0.3385731,0.1771017,-0.08,-0.02,-0.05,93.59999999999999
7801,58488945,0,-0.31,3.39,3.71,0.009429615000000001,0.009842436,-0.4530384,-0.1557758,-1.213375,-0.3385731,0.1757958,-0.08,-0.02,-0.04,93.59999999999999
7842,58499602,0,-0.31,3.39,3.71,0.009382431,0.009746601000000001,-0.4525471,-0.158282,-1.213375,-0.3385731,0.1739011,-0.08,-0.02,-0.04,93.59999999999999
7883,58510570,0,-0.31,3.39,3.71,0.009510869999999999,0.009793125,-0.4524492,-0.1590329,-1.213375,-0.3385731,0.169381,-0.08,-0.02,-0.04,93.59999999999999
7921,58520943,0,-0.31,3.39,3.71,0.009527532999999999,0.009753687,-0.4511002,-0.1580376,-1.213375,-0.3385731,0.1685713,-0.08,-0.02,-0.04,93.59999999999999
7963,58531174,0,-0.31,3.39,3.7,0.009736145999999999,0.009739319999999999,-0.4501593,-0.1536093,-1.213375,-0.3385731,0.1680255,-0.08,-0.02,-0.04,93.59999999999999
8005,58541632,0,-0.31,3.39,3.7,0.009529772000000001,0.009791757999999999,-0.4494467,-0.1487173,-1.213375,-0.3385731,0.1668587,-0.08,-0.02,-0.04,93.59999999999999
8046,58551358,0,-0.31,3.39,3.7,0.009438121000000001,0.009777925999999999,-0.4487273,-0.1436018,-1.213375,-0.3385731,0.1659696,-0.08,-0.02,-0.04,93.59999999999999
8086,58561630,0,-0.31,3.39,3.7,0.009492016000000001,0.009790764,-0.4479982,-0.1402553,-1.213375,-0.3385731,0.1649237,-0.08,-0.02,-0.04,93.59999999999999
8133,58572010,0,-0.31,3.39,3.7,0.009530188,0.009723590000000001,-0.4473452,-0.1375134,-1.213375,-0.3385731,0.1637208,-0.08,-0.02,-0.04,93.59999999999999
8177,58582026,0,-0.31,3.39,3.7,0.009486158,0.009741078,-0.4464758,-0.1370189,-1.213375,-0.3385731,0.1623762,-0.08,-0.02,-0.05,93.59999999999999
8217,58592857,0,-0.31,3.39,3.7,0.009418556,0.009650153999999999,-0.4458447,-0.1365668,-1.213375,-0.3385731,0.1604456,-0.08,-0.02,-0.05,93.59999999999999
8258,58603609,0,-0.31,3.39,3.7,0.009505341,0.009618468,-0.4456579,-0.1366106,-1.213375,-0.3385731,0.1559934,-0.08,-0.02,-0.05,93.59999999999999
8298,58613688,0,-0.31,3.39,3.7,0.009360248999999999,0.009487071,-0.4447473,-0.1362802,-1.213375,-0.3385731,0.1552676,-0.08,-0.02,-0.05,93.59999999999999
8336,58623659,0,-0.31,3.39,3.7,0.009191395999999999,0.009473534,-0.4437186,-0.1356501,-1.213375,-0.3385731,0.1548146,-0.08,-0.02,-0.04,93.59999999999999
8377,58633826,0,-0.31,3.39,3.7,0.009181646999999999,0.009340058,-0.4428545,-0.1345078,-1.213375,-0.3385731,0.1541907,-0.08,-0.02,-0.04,93.59999999999999
8419,58644252,0,-0.31,3.39,3.7,0.009023692999999999,0.009203784,-0.441883,-0.1319107,-1.213375,-0.3385731,0.1533944,-0.08,-0.02,-0.04,93.59999999999999
8459,58654634,0,-0.31,3.39,3.7,0.008995919,0.009022483,-0.4408759,-0.1311457,-1.213375,-0.3385731,0.1520109,-0.08,-0.02,-0.04,93.59999999999999
8500,58665529,0,-0.31,3.39,3.7,0.009089979999999999,0.009024526,-0.4408924,-0.12942,-1.213375,-0.3385731,0.1476082,-0.08,-0.02,-0.04,93.59999999999999
8545,58675197,0,-0.31,3.39,3.7,0.008897847,0.009014483,-0.4401941,-0.1304865,-1.213375,-0.3385731,0.1465289,-0.08,-0.02,-0.04,93.59999999999999
8585,58685213,0,-0.31,3.39,3.7,0.009148376999999999,0.00905166,-0.4395039,-0.1326972,-1.213375,-0.3385731,0.1453046,-0.08,-0.02,-0.04,93.59999999999999
8626,58695754,0,-0.31,3.39,3.7,0.009167033,0.009056919,-0.4390083,-0.1350927,-1.213375,-0.3385731,0.1434951,-0.08,-0.02,-0.04,93.59999999999999
8667,58705676,0,-0.31,3.39,3.7,0.009287996,0.009005106000000001,-0.4381571,-0.1387828,-1.213375,-0.3385731,0.1419937,-0.08,-0.02,-0.05,93.59999999999999
8711,58721315,0,-0.31,3.39,3.7,0.009048033,0.009007513,-0.437205,-0.1430475,-1.213375,-0.3385731,0.1398726,-0.08,-0.02,-0.05,93.59999999999999
8752,58731617,0,-0.31,3.39,3.7,0.009055479,0.008986921,-0.4365329,-0.1443697,-1.213375,-0.3385731,0.1397557,-0.08,-0.02,-0.04,93.59999999999999
8792,58741605,0,-0.31,3.39,3.7,0.009103300999999999,0.008857378000000001,-0.4356166,-0.1432794,-1.213375,-0.3385731,0.1394533,-0.08,-0.02,-0.04,93.59999999999999
8834,58751876,0,-0.31,3.39,3.7,0.009124663999999999,0.008986831000000001,-0.4346331,-0.1375214,-1.213375,-0.3385731,0.1385347,-0.08,-0.02,-0.05,93.59999999999999
8875,58762217,0,-0.31,3.39,3.7,0.009017392000000001,0.009111206,-0.4344784,-0.1304743,-1.213375,-0.3385731,0.1341941,-0.08,-0.02,-0.05,93.59999999999999
8918,58772365,0,-0.31,3.39,3.7,0.008899460999999999,0.009014437,-0.4336516,-0.1265618,-1.224507,-0.3385731,0.1335632,-0.08,-0.02,-0.05,93.59999999999999
8962,58782387,0,-0.31,3.39,3.7,0.008891634000000001,0.009040131999999999,-0.4329315,-0.1240836,-1.224507,-0.3385731,0.1327723,-0.08,-0.02,-0.05,93.59999999999999
9003,58792374,0,-0.31,3.39,3.7,0.008891448,0.008957088,-0.432224,-0.1248506,-1.224507,-0.3385731,0.131834,-0.08,-0.02,-0.05,93.59999999999999
9044,58802361,0,-0.31,3.38,3.7,0.008827226000000001,0.009055448000000001,-0.4314086,-0.1267534,-1.224507,-0.3385731,0.1307488,-0.08,-0.02,-0.05,93.59999999999999
9085,58815623,0,-0.31,3.38,3.7,0.00894665,0.009102300000000001,-0.4306977,-0.1249664,-1.224507,-0.3385731,0.1288422,-0.08,-0.02,-0.05,93.59999999999999
9127,58826061,0,-0.31,3.38,3.7,0.00900331,0.008971689999999999,-0.4298406,-0.1222212,-1.224507,-0.3385731,0.1284748,-0.08,-0.02,-0.05,93.59999999999999
9168,58836549,0,-0.31,3.38,3.7,0.008941174,0.009081407999999999,-0.4292499,-0.120712,-1.224507,-0.3385731,0.1275162,-0.08,-0.02,-0.05,93.59999999999999
9210,58846678,0,-0.31,3.38,3.7,0.008912323,0.008921769,-0.4292336,-0.1170819,-1.224507,-0.3385731,0.1232292,-0.08,-0.02,-0.05,93.59999999999999
9250,58856669,0,-0.31,3.38,3.7,0.008897960999999999,0.008982076,-0.4286145,-0.1162694,-1.224507,-0.3385731,0.1225519,-0.08,-0.02,-0.05,93.59999999999999
9291,58866687,0,-0.31,3.38,3.7,0.00878692,0.008968357999999999,-0.4277898,-0.1162622,-1.224507,-0.3385731,0.1217173,-0.08,-0.02,-0.05,93.59999999999999
9336,58876645,0,-0.31,3.38,3.7,0.008604573000000001,0.008855836000000001,-0.4270716,-0.117659,-1.224507,-0.3385731,0.1207344,-0.08,-0.02,-0.05,93.59999999999999
9376,58886660,0,-0.31,3.38,3.7,0.008389748000000001,0.008869045000000001,-0.4264964,-0.1222669,-1.224507,-0.3385731,0.1196146,-0.08,-0.02,-0.05,93.59999999999999
9417,58896645,0,-0.31,3.38,3.7,0.008217164000000001,0.008724805,-0.4262607,-0.1244737,-1.224507,-0.3385731,0.115356,-0.08,-0.02,-0.05,93.59999999999999
9457,58906673,0,-0.31,3.38,3.7,0.008311087999999999,0.008640287999999999,-0.4255946,-0.1281173,-1.224507,-0.3385731,0.1141076,-0.08,-0.02,-0.05,93.59999999999999
9498,58917035,0,-0.31,3.38,3.7,0.008260564,0.008538810000000001,-0.4245581,-0.1276288,-1.224507,-0.3385731,0.1141002,-0.08,-0.02,-0.05,93.59999999999999
9539,58927608,0,-0.31,3.38,3.7,0.008083376,0.008647537,-0.4238501,-0.1269835,-1.224507,-0.3385731,0.1134945,-0.08,-0.02,-0.05,93.59999999999999
9579,58937666,0,-0.31,3.38,3.7,0.008150747999999999,0.008532906999999999,-0.4229179,-0.1252375,-1.224507,-0.3385731,0.1131392,-0.08,-0.02,-0.05,93.59999999999999
9622,58948137,0,-0.31,3.38,3.71,0.007896459,0.008541412,-0.4217152,-0.1217046,-1.224507,-0.3385731,0.1126114,-0.08,-0.02,-0.05,93.59999999999999
9662,58958512,0,-0.31,3.38,3.71,0.007734981,0.008435366999999999,-0.4206413,-0.1195633,-1.224507,-0.3385731,0.1119286,-0.08,-0.02,-0.05,93.59999999999999
9703,58968700,0,-0.31,3.38,3.71,0.007863380999999999,0.008489861,-0.4200988,-0.1163869,-1.224507,-0.3385731,0.1106677,-0.08,-0.02,-0.05,93.59999999999999
9751,58979567,0,-0.31,3.38,3.71,0.007843179,0.008304842,-0.4195405,-0.1138742,-1.235639,-0.3385731,0.1092546,-0.08,-0.02,-0.05,93.59999999999999
9791,58990633,0,-0.31,3.38,3.71,0.007960982,0.008310423000000001,-0.4188581,-0.1124749,-1.235639,-0.3385731,0.1076972,-0.08,-0.02,-0.05,93.59999999999999
9832,59001106,0,-0.31,3.38,3.71,0.008047947999999999,0.00836048,-0.4186698,-0.1118939,-1.235639,-0.3385731,0.1035141,-0.08,-0.02,-0.05,93.59999999999999
9873,59011636,0,-0.31,3.38,3.71,0.008091711999999999,0.008325633000000001,-0.4179134,-0.1155671,-1.235639,-0.3385731,0.1018416,-0.08,-0.02,-0.05,93.59999999999999
9914,59021536,0,-0.31,3.38,3.71,0.008057764,0.008390916,-0.4169237,-0.1189485,-1.235639,-0.3385731,0.1016455,-0.08,-0.02,-0.05,93.59999999999999
9955,59031602,0,-0.31,3.38,3.71,0.007994859999999999,0.008395366,-0.4159369,-0.1204956,-1.235639,-0.3385731,0.1012813,-0.08,-0.02,-0.05,93.59999999999999
9997,59042130,0,-0.31,3.38,3.71,0.008005903999999999,0.008343486000000001,-0.4150431,-0.1198642,-1.235639,-0.3385731,0.1007465,-0.08,-0.02,-0.05,93.59999999999999
10038,59052723,0,-0.31,3.38,3.71,0.007998976,0.00838622,-0.4142672,-0.1205801,-1.235639,-0.3385731,0.09965227,-0.08,-0.02,-0.05,93.59999999999999
10078,59063299,0,-0.31,3.38,3.71,0.007917415000000001,0.008430564,-0.4135821,-0.1194235,-1.235639,-0.3385731,0.09881144,-0.08,-0.02,-0.05,93.59999999999999
10119,59073299,0,-0.31,3.38,3.71,0.007986128,0.008642520000000001,-0.4136347,-0.1170317,-1.235639,-0.3385731,0.09468076,-0.08,-0.02,-0.05,93.59999999999999
10164,59083426,0,-0.31,3.38,3.71,0.007850328,0.00872034,-0.4127628,-0.117685,-1.235639,-0.3385731,0.09370804000000001,-0.08,-0.02,-0.05,93.59999999999999
10205,59093310,0,-0.31,3.38,3.71,0.00776066,0.008605923999999999,-0.4119395,-0.117541,-1.235639,-0.3385731,0.09258967999999999,-0.08,-0.02,-0.05,93.59999999999999
10245,59103811,0,-0.31,3.38,3.71,0.007704875,0.008561025,-0.4114809,-0.1213473,-1.235639,-0.3385731,0.09093921000000001,-0.08,-0.02,-0.05,93.59999999999999
10286,59113843,0,-0.31,3.38,3.71,0.007666889,0.008432131000000001,-0.4110767,-0.1265774,-1.235639,-0.3385731,0.08957341000000001,-0.08,-0.02,-0.05,93.59999999999999
10327,59126671,0,-0.31,3.38,3.71,0.007577521,0.008387896000000001,-0.4098231,-0.1324537,-1.235639,-0.3385731,0.08837266000000001,-0.08,-0.02,-0.05,93.59999999999999
10367,59137206,0,-0.31,3.38,3.71,0.007455999,0.008400309,-0.4089733,-0.1325584,-1.235639,-0.3385731,0.08822115,-0.08,-0.02,-0.05,93.59999999999999
10408,59147213,0,-0.31,3.38,3.71,0.007468906,0.008281821999999999,-0.4083232,-0.1316571,-1.235639,-0.3385731,0.08790178999999999,-0.08,-0.02,-0.05,93.59999999999999
10448,59157806,0,-0.31,3.38,3.71,0.007470863,0.008349812,-0.4074107,-0.1268148,-1.235639,-0.3385731,0.08700599000000001,-0.08,-0.02,-0.05,93.59999999999999
10489,59168427,0,-0.3,3.38,3.71,0.007385897,0.008535355,-0.4067141,-0.1214116,-1.235639,-0.3385731,0.08595168,-0.08,-0.02,-0.05,93.59999999999999
10531,59178941,0,-0.31,3.38,3.71,0.007377474,0.008583343,-0.4067925,-0.1162927,-1.235639,-0.3385731,0.08188914,-0.08,-0.02,-0.05,93.59999999999999
10576,59192406,0,-0.31,3.38,3.71,0.007372233,0.008388275000000001,-0.4055274,-0.1175153,-1.235639,-0.3466344,0.08221257,-0.08,-0.02,-0.05,93.59999999999999
10617,59202705,0,-0.31,3.38,3.71,0.007527096,0.008339424999999999,-0.405728,-0.1168681,-1.235639,-0.3466344,0.07816096,-0.08,-0.02,-0.05,93.59999999999999
10660,59243367,0,-0.31,3.38,3.71,0.007005059,0.008414286,-0.4012996,-0.1117058,-1.235639,-0.3466344,0.07849399999999999,-0.08,-0.02,-0.05,93.59999999999999
10701,59253689,0,-0.31,3.38,3.71,0.006994687,0.008638086999999999,-0.4002399,-0.1026258,-1.235639,-0.3466344,0.07818007,-0.08,-0.02,-0.05,93.59999999999999
10741,59264222,0,-0.31,3.38,3.71,0.007038405,0.00881124,-0.4000232,-0.09259961,-1.235639,-0.3466344,0.074184,-0.08,-0.02,-0.05,93.59999999999999
10782,59274271,0,-0.31,3.38,3.71,0.006914674,0.00883893,-0.3992042,-0.08619396,-1.235639,-0.3466344,0.07411784,-0.08,-0.02,-0.05,93.59999999999999
10822,59284335,0,-0.31,3.38,3.71,0.00700699,0.008742356,-0.3982581,-0.08125293,-1.235639,-0.3466344,0.07388797,-0.08,-0.02,-0.05,93.59999999999999
10867,59294225,0,-0.31,3.38,3.71,0.007035384,0.008695418,-0.3973965,-0.08000790000000001,-1.235639,-0.3466344,0.07350617,-0.08,-0.02,-0.05,93.59999999999999
10907,59304217,0,-0.31,3.38,3.72,0.006962514,0.008644614,-0.3963631,-0.08008844,-1.235639,-0.3466344,0.07297356000000001,-0.08,-0.02,-0.05,93.59999999999999
10949,59314237,0,-0.31,3.38,3.72,0.006995654,0.008643117000000001,-0.3965678,-0.07898721,-1.235639,-0.3466344,0.06901357,-0.08,-0.02,-0.05,93.59999999999999
10991,59324661,0,-0.31,3.38,3.72,0.007163915,0.008581215999999999,-0.3960854,-0.08138368,-1.235639,-0.3466344,0.06795122000000001,-0.08,-0.02,-0.05,93.59999999999999
11029,59335195,0,-0.31,3.38,3.72,0.006998688,0.008556694,-0.3949431,-0.07794975,-1.235639,-0.3466344,0.0688462,-0.08,-0.02,-0.05,93.59999999999999
11070,59345417,0,-0.31,3.38,3.72,0.006797647,0.008451729999999999,-0.3936941,-0.07220683,-1.235639,-0.3466344,0.06953937,-0.08,-0.02,-0.05,93.59999999999999
11111,59355186,0,-0.31,3.38,3.72,0.006936694,0.008430528,-0.3926506,-0.06818319,-1.235639,-0.3466344,0.07004889,-0.08,-0.02,-0.05,93.59999999999999
11152,59365197,0,-0.31,3.38,3.72,0.006747334,0.008301841000000001,-0.3916529,-0.0640524,-1.235639,-0.3466344,0.07037052000000001,-0.08,-0.02,-0.05,93.59999999999999
11193,59375696,0,-0.31,3.38,3.72,0.006595831,0.008252057,-0.390619,-0.05654432,-1.235639,-0.3466344,0.0701146,-0.08,-0.02,-0.05,93.59999999999999
11235,59386391,0,-0.31,3.38,3.72,0.006609938,0.00821977,-0.3904057,-0.0489601,-1.213375,-0.3546956,0.06621367,-0.08,-0.02,-0.05,93.59999999999999
11278,59396538,0,-0.31,3.38,3.72,0.006503729,0.008267323,-0.3895423,-0.04549237,-1.213375,-0.3546956,0.06619838,-0.08,-0.02,-0.05,93.59999999999999
11319,59406264,0,-0.31,3.38,3.72,0.006492405,0.008166566,-0.3887057,-0.04397007,-1.213375,-0.3546956,0.06601775,-0.08,-0.02,-0.05,93.59999999999999
11360,59416540,0,-0.31,3.38,3.72,0.006454613,0.008213242000000001,-0.3878681,-0.04617263,-1.213375,-0.3546956,0.06568839999999999,-0.08,-0.02,-0.05,93.59999999999999
11401,59426405,0,-0.31,3.38,3.72,0.006333875,0.00804159,-0.3870795,-0.0499172,-1.213375,-0.3546956,0.06520579,-0.08,-0.02,-0.05,93.59999999999999
11441,59436415,0,-0.31,3.38,3.72,0.00644041,0.008099904999999999,-0.3867951,-0.05170149,-1.213375,-0.3546956,0.06134191,-0.08,-0.02,-0.05,93.59999999999999
11479,59446825,0,-0.31,3.38,3.72,0.006479991,0.007993577,-0.3856353,-0.05144398,-1.213375,-0.3546956,0.06202908,-0.08,-0.02,-0.05,93.59999999999999
11524,59459501,0,-0.31,3.38,3.72,0.006511811,0.008040439,-0.3845667,-0.0494277,-1.213375,-0.3546956,0.06213616,-0.08,-0.02,-0.05,93.59999999999999
11565,59469378,0,-0.31,3.38,3.72,0.006349155,0.00822312,-0.3835101,-0.04531072,-1.213375,-0.3546956,0.06281355,-0.08,-0.02,-0.05,93.59999999999999
11606,59479423,0,-0.31,3.38,3.72,0.006433889,0.008048982999999999,-0.3823771,-0.0432036,-1.213375,-0.3546956,0.06330781000000001,-0.08,-0.02,-0.05,93.59999999999999
11646,59489824,0,-0.31,3.39,3.72,0.006504179,0.008097841,-0.3823,-0.04184669,-1.213375,-0.3546956,0.05910778,-0.08,-0.02,-0.05,93.59999999999999
11691,59499815,0,-0.31,3.39,3.72,0.006686694,0.008248259000000001,-0.3813715,-0.04287761,-1.213375,-0.3546956,0.05946649,-0.08,-0.02,-0.04,93.59999999999999
11731,59509832,0,-0.31,3.39,3.72,0.006701479,0.008295458,-0.3801049,-0.04315651,-1.213375,-0.3546956,0.05964591,-0.08,-0.02,-0.04,93.59999999999999
11771,59520616,0,-0.31,3.39,3.72,0.00671052,0.008354781,-0.3791578,-0.04594081,-1.213375,-0.3546956,0.05966365,-0.08,-0.02,-0.04,93.59999999999999
11812,59530402,0,-0.31,3.39,3.72,0.006657285,0.008421219000000001,-0.3783365,-0.04917008,-1.213375,-0.3546956,0.05951614,-0.08,-0.02,-0.04,93.59999999999999
11854,59543550,0,-0.31,3.39,3.72,0.006658297,0.008371629,-0.3770995,-0.04696858,-1.213375,-0.3546956,0.05877942,-0.08,-0.02,-0.04,93.59999999999999
11895,59553246,0,-0.31,3.38,3.72,0.006635739,0.008312071000000001,-0.3761068,-0.04728613,-1.213375,-0.3546956,0.05973574,-0.08,-0.02,-0.04,93.59999999999999
11938,59566218,0,-0.31,3.39,3.72,0.006767386,0.008297143999999999,-0.3749245,-0.03940235,-1.213375,-0.3546956,0.05899562,-0.08,-0.02,-0.04,93.59999999999999
11979,59576194,0,-0.31,3.39,3.72,0.0067059,0.008277158,-0.3739948,-0.03680102,-1.213375,-0.3546956,0.05920604,-0.08,-0.02,-0.04,93.59999999999999
12021,59586235,0,-0.31,3.39,3.71,0.006781485,0.008254931,-0.3738852,-0.03208863,-1.213375,-0.3546956,0.05547078,-0.08,-0.02,-0.04,93.59999999999999
12065,59597224,0,-0.31,3.39,3.71,0.006929841,0.008162022,-0.3729759,-0.03132568,-1.213375,-0.3546956,0.05478616,-0.08,-0.02,-0.04,93.59999999999999
12105,59608064,0,-0.31,3.39,3.71,0.007198188,0.008073986999999999,-0.3721138,-0.03172746,-1.213375,-0.3546956,0.05468399,-0.08,-0.02,-0.04,93.59999999999999
12147,59617997,0,-0.31,3.39,3.71,0.007164387,0.007981626,-0.3712592,-0.03846918,-1.213375,-0.3546956,0.05444894,-0.08,-0.02,-0.04,93.59999999999999
12188,59628624,0,-0.31,3.39,3.71,0.007007515,0.007948488,-0.3704748,-0.04685568,-1.213375,-0.3546956,0.05369948,-0.08,-0.02,-0.04,93.59999999999999
12228,59639611,0,-0.31,3.39,3.71,0.007157912,0.007781804,-0.3704095,-0.05223223,-1.213375,-0.3546956,0.04999964,-0.08,-0.02,-0.04,93.59999999999999
12266,59649990,0,-0.31,3.39,3.71,0.007041005,0.007588539,-0.3691939,-0.05382864,-1.213375,-0.3546956,0.05094887,-0.08,-0.02,-0.04,93.59999999999999
12309,59662381,0,-0.31,3.39,3.7,0.00699632,0.007575532,-0.3680835,-0.04881911,-1.213375,-0.3546956,0.05130611,-0.08,-0.02,-0.04,93.59999999999999
12350,59672601,0,-0.31,3.39,3.7,0.006969262,0.007578166,-0.3668219,-0.04173445,-1.213375,-0.3546956,0.05219386,-0.08,-0.02,-0.04,93.59999999999999
12392,59683040,0,-0.31,3.39,3.7,0.006980175,0.007529961,-0.365906,-0.03614038,-1.213375,-0.3546956,0.05252834,-0.08,-0.02,-0.04,93.59999999999999
12432,59693002,0,-0.31,3.39,3.7,0.006901511,0.007369278,-0.3647526,-0.03368761,-1.213375,-0.3546956,0.05305058,-0.08,-0.02,-0.04,93.59999999999999
12477,59702915,0,-0.31,3.39,3.7,0.006946477,0.007309582,-0.3646364,-0.03204997,-1.213375,-0.3546956,0.04940761,-0.08,-0.02,-0.04,93.59999999999999
12517,59712955,0,-0.31,3.39,3.7,0.006887546,0.007318918,-0.3636737,-0.03218754,-1.213375,-0.3546956,0.04978604,-0.08,-0.02,-0.04,93.59999999999999
12559,59722868,0,-0.31,3.39,3.7,0.006885755,0.00726613,-0.3626986,-0.03255305,-1.213375,-0.3546956,0.04998852,-0.08,-0.02,-0.04,93.59999999999999
12599,59733299,0,-0.31,3.39,3.7,0.006899566,0.007085205,-0.3615738,-0.03532254,-1.213375,-0.3546956,0.05003215,-0.08,-0.02,-0.04,93.59999999999999
12641,59746412,0,-0.31,3.39,3.7,0.006810702,0.006962318,-0.3602161,-0.03746211,-1.213375,-0.3546956,0.05068908,-0.08,-0.02,-0.04,93.59999999999999
12682,59756999,0,-0.31,3.39,3.7,0.006910292,0.006789828,-0.3591269,-0.03098915,-1.213375,-0.3546956,0.05182578,-0.08,-0.02,-0.04,93.59999999999999
12722,59767571,0,-0.31,3.39,3.7,0.006856781,0.006724662,-0.3578929,-0.02439153,-1.213375,-0.3546956,0.05275319,-0.08,-0.02,-0.04,93.59999999999999
12762,59778117,0,-0.31,3.39,3.7,0.006973678,0.006749619,-0.3580905,-0.01459598,-1.213375,-0.3546956,0.0491784,-0.08,-0.02,-0.04,93.59999999999999
12799,59788297,0,-0.31,3.39,3.7,0.007087204,0.006509355,-0.3570147,-0.007155801,-1.213375,-0.3546956,0.05027191,-0.08,-0.02,-0.04,93.59999999999999
12840,59798009,0,-0.31,3.39,3.7,0.007053347,0.006328749,-0.3556255,-0.006254057,-1.213375,-0.3546956,0.05119194,-0.08,-0.02,-0.04,93.59999999999999
12886,59808582,0,-0.31,3.39,3.7,0.007053637,0.006305007,-0.3546178,-0.006114489,-1.213375,-0.3546956,0.05157264,-0.08,-0.02,-0.04,93.59999999999999
12926,59819293,0,-0.31,3.39,3.7,0.007117658,0.006364871,-0.3547888,-0.003217855,-1.213375,-0.3546956,0.04802971,-0.08,-0.02,-0.04,93.59999999999999
12968,59829093,0,-0.31,3.39,3.69,0.006982166,0.006517617,-0.353912,-0.002729856,-1.213375,-0.3546956,0.04859096,-0.08,-0.02,-0.04,93.59999999999999
13008,59839019,0,-0.31,3.39,3.69,0.007001973,0.006340439,-0.3530071,-0.003047908,-1.213375,-0.3546956,0.04896773,-0.08,-0.02,-0.04,93.59999999999999
13051,59851858,0,-0.31,3.39,3.69,0.007067239,0.006257706,-0.3516183,-0.001564074,-1.213375,-0.3546956,0.05004313,-0.08,-0.02,-0.04,93.59999999999999
13091,59861771,0,-0.31,3.39,3.69,0.0070979,0.006004961,-0.3503539,0.004105482,-1.213375,-0.3546956,0.05192775,-0.08,-0.02,-0.04,93.59999999999999
13132,59872164,0,-0.31,3.39,3.69,0.007071852,0.005823373,-0.3492513,0.0134325,-1.213375,-0.3546956,0.05356411,-0.08,-0.02,-0.04,93.59999999999999
13173,59882136,0,-0.31,3.39,3.69,0.00695433,0.00578366,-0.3480524,0.02213611,-1.213375,-0.3546956,0.0549752,-0.08,-0.02,-0.04,93.59999999999999
13213,59892645,0,-0.31,3.39,3.69,0.006853301,0.005445321,-0.3470476,0.03401105,-1.213375,-0.3546956,0.05581594,-0.08,-0.02,-0.04,93.59999999999999
13254,59903091,0,-0.31,3.39,3.69,0.006858241,0.005452272,-0.3467349,0.04522115,-1.213375,-0.3546956,0.05235108,-0.08,-0.02,-0.04,93.59999999999999
13298,59913064,0,-0.31,3.39,3.69,0.006906768,0.005351538,-0.3456176,0.05117902,-1.213375,-0.3546956,0.05335815,-0.08,-0.02,-0.04,93.59999999999999
13339,59923116,0,-0.31,3.38,3.69,0.006702458,0.005258164,-0.3447376,0.05755922,-1.213375,-0.3546956,0.05415292,-0.08,-0.02,-0.04,93.59999999999999
13380,59933396,0,-0.31,3.38,3.69,0.006605551,0.005036273,-0.3436618,0.05901125,-1.213375,-0.3546956,0.05442559,-0.08,-0.02,-0.04,93.59999999999999
13421,59944048,0,-0.31,3.38,3.69,0.006613069,0.004889881,-0.3422488,0.06008322,-1.213375,-0.3546956,0.05694509,-0.08,-0.02,-0.04,93.59999999999999
13465,59956354,0,-0.31,3.39,3.69,0.00655714,0.004788884,-0.3407121,0.06493889,-1.213375,-0.3546956,0.05853924,-0.08,-0.02,-0.04,93.59999999999999
13506,59966421,0,-0.31,3.39,3.69,0.00660232,0.004895567,-0.3393338,0.06947726999999999,-1.213375,-0.3546956,0.06056921,-0.08,-0.02,-0.04,93.59999999999999
13550,59976285,0,-0.31,3.38,3.69,0.006633039,0.004801922,-0.3392977,0.07909486,-1.213375,-0.3546956,0.05718043,-0.08,-0.02,-0.04,93.59999999999999
13588,59987020,0,-0.31,3.38,3.69,0.006672313,0.0047576,-0.3381626,0.08569335,-1.191112,-0.3627569,0.05865993,-0.08,-0.02,-0.04,93.59999999999999
13628,59996993,0,-0.31,3.38,3.69,0.006740802,0.004520281,-0.3372503,0.09240101000000001,-1.191112,-0.3627569,0.06023608,-0.08,-0.02,-0.04,93.59999999999999
13676,60009633,0,-0.32,3.38,3.69,0.006678453,0.004599128,-0.336094,0.09576479,-1.191112,-0.3627569,0.06025666,-0.08,-0.02,-0.04,93.59999999999999
13717,60019656,0,-0.31,3.38,3.69,0.006526109,0.004568362,-0.3350169,0.09676503,-1.191112,-0.3627569,0.06142076,-0.08,-0.02,-0.04,93.59999999999999
13758,60029558,0,-0.31,3.38,3.69,0.006512338,0.004587376,-0.3338574,0.09329821000000001,-1.191112,-0.3627569,0.06239107,-0.08,-0.02,-0.04,93.59999999999999
13802,60039630,0,-0.31,3.38,3.69,0.006414593,0.004520584,-0.3326768,0.08593407,-1.191112,-0.3627569,0.06318182,-0.08,-0.02,-0.04,93.59999999999999
13842,60050120,0,-0.31,3.38,3.69,0.006595047,0.004423315,-0.3326705,0.08110676999999999,-1.191112,-0.3627569,0.05985963,-0.08,-0.02,-0.04,93.59999999999999
13880,60060291,0,-0.31,3.38,3.69,0.006432181,0.004412659,-0.331481,0.07798163,-1.191112,-0.3627569,0.06204011,-0.08,-0.02,-0.04,93.59999999999999
13921,60070174,0,-0.31,3.38,3.69,0.006340508,0.004450372,-0.3300765,0.07769341,-1.191112,-0.3627569,0.06397991,-0.08,-0.02,-0.04,93.59999999999999
13961,60080105,0,-0.31,3.38,3.69,0.006289268,0.004391633,-0.3285407,0.07608371,-1.191112,-0.3627569,0.06570408,-0.08,-0.02,-0.04,93.59999999999999
14003,60090081,0,-0.31,3.38,3.69,0.006390757,0.004324582,-0.3272305,0.07477538,-1.191112,-0.3627569,0.06720861,-0.08,-0.02,-0.04,93.59999999999999
14043,60100630,0,-0.31,3.38,3.69,0.006373447,0.004308232,-0.3260833,0.07690452,-1.191112,-0.3627569,0.06816543999999999,-0.08,-0.02,-0.04,93.59999999999999
14088,60110890,0,-0.32,3.38,3.69,0.006414897,0.004165811,-0.3260685,0.07992695,-1.191112,-0.3627569,0.06490897,-0.08,-0.02,-0.04,93.59999999999999
14128,60120925,0,-0.32,3.38,3.69,0.006460666,0.004090047,-0.325168,0.07891065,-1.191112,-0.3627569,0.06601087999999999,-0.08,-0.02,-0.04,93.59999999999999
14169,60131568,0,-0.32,3.38,3.69,0.006511027,0.004125123,-0.3239894,0.07639529,-1.191112,-0.3627569,0.06660212,-0.08,-0.02,-0.04,93.59999999999999
14212,60141859,0,-0.32,3.38,3.69,0.006489793,0.00429149,-0.3231125,0.07018919,-1.191112,-0.3627569,0.0673373,-0.08,-0.02,-0.04,93.59999999999999
14249,60152425,0,-0.32,3.38,3.69,0.006336787,0.004079109,-0.3219017,0.06619271,-1.191112,-0.3627569,0.07001213000000001,-0.08,-0.02,-0.04,93.59999999999999
14292,60162611,0,-0.32,3.38,3.69,0.006394328,0.003980224,-0.3202241,0.06628294999999999,-1.157716,-0.3708181,0.07212359,-0.08,-0.02,-0.04,93.59999999999999
14329,60173705,0,-0.32,3.38,3.69,0.006319443,0.004075828,-0.3193314,0.07234963,-1.157716,-0.3708181,0.07397918000000001,-0.08,-0.02,-0.04,93.59999999999999
14369,60183711,0,-0.32,3.38,3.7,0.006365627,0.00404064,-0.3190837,0.08209585,-1.157716,-0.3708181,0.07079151,-0.08,-0.02,-0.04,93.59999999999999
14411,60193674,0,-0.32,3.38,3.7,0.006351265,0.004016723,-0.317823,0.09036259000000001,-1.157716,-0.3708181,0.07274551999999999,-0.08,-0.02,-0.04,93.59999999999999
14451,60203713,0,-0.32,3.38,3.7,0.006378024,0.003921746,-0.3171734,0.09395676,-1.157716,-0.3708181,0.07448179000000001,-0.08,-0.02,-0.04,93.59999999999999
14496,60213818,0,-0.32,3.38,3.7,0.00633959,0.003918129,-0.3161432,0.08947571,-1.157716,-0.3708181,0.07603186000000001,-0.08,-0.02,-0.04,93.59999999999999
14536,60224238,0,-0.32,3.38,3.7,0.006440166,0.003799093,-0.3159235,0.08978319999999999,-1.157716,-0.3708181,0.07287551,-0.08,-0.02,-0.04,93.59999999999999
14577,60234675,0,-0.31,3.38,3.7,0.006282644,0.003697316,-0.3147537,0.08693769,-1.157716,-0.3708181,0.07392384,-0.08,-0.02,-0.04,93.59999999999999
14617,60244813,0,-0.31,3.38,3.7,0.00612999,0.003513793,-0.3137767,0.08208285999999999,-1.157716,-0.3708181,0.07509723,-0.08,-0.02,-0.04,93.59999999999999
14658,60257747,0,-0.31,3.38,3.7,0.006133124,0.003346463,-0.3120041,0.07831204999999999,-1.157716,-0.3708181,0.07680530000000001,-0.08,-0.02,-0.04,93.59999999999999
14700,60267704,0,-0.31,3.38,3.7,0.00617867,0.003194135,-0.3106616,0.07949264,-1.157716,-0.3708181,0.07920109,-0.08,-0.02,-0.04,93.59999999999999
14741,60278085,0,-0.32,3.38,3.7,0.006285704,0.002980698,-0.3092069,0.08465527,-1.157716,-0.3708181,0.08134139,-0.08,-0.02,-0.04,93.59999999999999
14782,60288383,0,-0.32,3.38,3.7,0.006316956,0.002674665,-0.3078052,0.08914706,-1.157716,-0.3708181,0.08325162999999999,-0.08,-0.02,-0.04,93.59999999999999
14822,60298684,0,-0.32,3.38,3.7,0.006383988,0.002495017,-0.3066773,0.0965953,-1.157716,-0.3708181,0.08462428,-0.08,-0.02,-0.04,93.59999999999999
14865,60309324,0,-0.32,3.38,3.71,0.006308303,0.002448928,-0.3067193,0.1036394,-1.157716,-0.3708181,0.08156141,-0.08,-0.02,-0.04,93.59999999999999
14910,60319223,0,-0.32,3.38,3.71,0.006176522,0.002278222,-0.305589,0.1060261,-1.157716,-0.3708181,0.08305448,-0.08,-0.02,-0.04,93.59999999999999
14951,60329493,0,-0.32,3.38,3.71,0.006181066,0.002275292,-0.3045808,0.1042527,-1.157716,-0.3708181,0.08405103999999999,-0.08,-0.02,-0.04,93.59999999999999
14992,60339606,0,-0.32,3.38,3.71,0.005860915,0.002484242,-0.3035974,0.1006421,-1.157716,-0.3708181,0.08515771,-0.08,-0.02,-0.04,93.59999999999999
15035,60352187,0,-0.32,3.38,3.71,0.005792986,0.002483566,-0.3022894,0.09449581,-1.157716,-0.3708181,0.08658331,-0.08,-0.02,-0.04,93.59999999999999
15076,60362299,0,-0.32,3.38,3.71,0.005692416,0.002469614,-0.3009227,0.09058975,-1.157716,-0.3708181,0.08839152,-0.08,-0.02,-0.04,93.59999999999999
15117,60372865,0,-0.32,3.38,3.71,0.005737289,0.002282013,-0.299622,0.09120399999999999,-1.157716,-0.3708181,0.08967551999999999,-0.08,-0.02,-0.04,93.59999999999999
15160,60383285,0,-0.32,3.38,3.71,0.005821786,0.002028157,-0.2997413,0.09343301,-1.157716,-0.3708181,0.08668192,-0.08,-0.02,-0.04,93.59999999999999
15199,60393790,0,-0.32,3.39,3.71,0.00567646,0.002002032,-0.298595,0.09223126,-1.157716,-0.3708181,0.08778428000000001,-0.08,-0.02,-0.04,93.59999999999999
15240,60403678,0,-0.32,3.38,3.71,0.005698046,0.002016907,-0.297428,0.08850434,-1.157716,-0.3708181,0.08899899999999999,-0.08,-0.02,-0.04,93.59999999999999
15282,60413691,0,-0.32,3.38,3.71,0.005547905,0.001958627,-0.2962192,0.08378153000000001,-1.157716,-0.3708181,0.09002712,-0.08,-0.02,-0.04,93.59999999999999
15326,60424224,0,-0.32,3.38,3.71,0.005540603,0.001812484,-0.2952126,0.07923289,-1.157716,-0.3708181,0.09086567,-0.08,-0.02,-0.04,93.59999999999999
15367,60434397,0,-0.32,3.38,3.71,0.005392484,0.001643669,-0.2946042,0.07236478,-1.157716,-0.3708181,0.09153058,-0.08,-0.02,-0.04,93.59999999999999
15408,60444261,0,-0.32,3.38,3.71,0.005657781,0.001617197,-0.2946295,0.06732935,-1.157716,-0.3708181,0.08858799000000001,-0.08,-0.02,-0.04,93.59999999999999
15448,60454402,0,-0.32,3.38,3.71,0.005618959,0.001482365,-0.2935156,0.05951501,-1.157716,-0.3708181,0.08910468000000001,-0.08,-0.02,-0.04,93.59999999999999
15485,60465141,0,-0.32,3.38,3.71,0.005703995,0.001444938,-0.2922792,0.05156999,-1.157716,-0.3708181,0.09066204,-0.08,-0.02,-0.04,93.59999999999999
15526,60475156,0,-0.32,3.39,3.71,0.005560269,0.00132613,-0.2910984,0.04551942,-1.157716,-0.3708181,0.09230955,-0.08,-0.02,-0.04,93.59999999999999
15567,60485249,0,-0.32,3.39,3.71,0.005658189,0.001368638,-0.2900898,0.04152945,-1.157716,-0.3708181,0.093753,-0.08,-0.02,-0.04,93.59999999999999
15608,60495708,0,-0.32,3.39,3.71,0.005462769,0.001411398,-0.288693,0.04245808,-1.157716,-0.3708181,0.09470299,-0.08,-0.02,-0.04,93.59999999999999
15649,60505659,0,-0.32,3.39,3.71,0.005678102,0.001466823,-0.2885285,0.0451513,-1.157716,-0.3708181,0.09182063,-0.08,-0.02,-0.04,93.59999999999999
15690,60515682,0,-0.32,3.39,3.71,0.005589442,0.001411355,-0.2875108,0.04647053,-1.157716,-0.3708181,0.09288634,-0.08,-0.02,-0.04,93.59999999999999
15735,60525694,0,-0.32,3.39,3.71,0.005602462,0.00143586,-0.2865255,0.04457964,-1.157716,-0.3708181,0.09378288999999999,-0.08,-0.02,-0.04,93.59999999999999
15778,60535893,0,-0.32,3.39,3.71,0.005620499,0.001383826,-0.2855869,0.03629909,-1.157716,-0.3708181,0.09453654,-0.08,-0.02,-0.04,93.59999999999999
15818,60546389,0,-0.32,3.39,3.71,0.005654518,0.001271069,-0.2853468,0.03185546,-1.157716,-0.3708181,0.09168516,-0.08,-0.02,-0.04,93.59999999999999
15859,60556410,0,-0.32,3.39,3.71,0.005655994,0.001059284,-0.2842574,0.02578507,-1.157716,-0.3708181,0.09229307,-0.08,-0.02,-0.04,93.59999999999999
15897,60566421,0,-0.32,3.39,3.71,0.00558871,0.001067526,-0.2830455,0.02295095,-1.157716,-0.3708181,0.0939625,-0.08,-0.02,-0.04,93.59999999999999
15938,60576392,0,-0.32,3.39,3.71,0.005523147,0.001047977,-0.2821942,0.02054306,-1.157716,-0.3708181,0.09599275,-0.08,-0.02,-0.04,93.59999999999999
15978,60586432,0,-0.32,3.39,3.71,0.005431465,0.001071974,-0.2808847,0.02106129,-1.157716,-0.3708181,0.09753273,-0.08,-0.02,-0.04,93.59999999999999
16020,60596641,0,-0.32,3.39,3.71,0.005402377,0.001003889,-0.2797445,0.02625642,-1.157716,-0.3708181,0.0985856,-0.08,-0.02,-0.04,93.59999999999999
16061,60607054,0,-0.32,3.39,3.71,0.005322259,0.0009837362000000001,-0.2796638,0.03276885,-1.157716,-0.3708181,0.09579205,-0.08,-0.02,-0.04,93.59999999999999
16110,60619940,0,-0.32,3.39,3.71,0.005414392,0.001037863,-0.2784324,0.03590493,-1.157716,-0.3708181,0.09612324999999999,-0.08,-0.02,-0.04,93.59999999999999
16152,60630652,0,-0.32,3.39,3.71,0.005506896,0.0008735444,-0.2772816,0.03716309,-1.157716,-0.3708181,0.09684733,-0.08,-0.02,-0.04,93.59999999999999
16193,60640630,0,-0.32,3.39,3.71,0.005584391,0.0008299849,-0.2763495,0.035708,-1.157716,-0.3708181,0.09768604,-0.08,-0.02,-0.04,93.59999999999999
16234,60650929,0,-0.32,3.39,3.71,0.005743962,0.0009660579,-0.2754383,0.03322984,-1.157716,-0.3708181,0.09835839,-0.08,-0.02,-0.04,93.59999999999999
16278,60666142,0,-0.32,3.39,3.71,0.00568484,0.001004266,-0.2738561,0.03311413,-1.157716,-0.3708181,0.09967346000000001,-0.08,-0.02,-0.04,93.59999999999999
16318,60676104,0,-0.32,3.39,3.71,0.005586721,0.0007866226,-0.2725755,0.0358697,-1.157716,-0.3708181,0.1021345,-0.08,-0.02,-0.04,93.59999999999999
16359,60686153,0,-0.32,3.39,3.71,0.005602038,0.0006255831,-0.2712339,0.04163951,-1.157716,-0.3708181,0.1043623,-0.08,-0.02,-0.04,93.59999999999999
16401,60696752,0,-0.32,3.39,3.71,0.005549984,0.0007172602,-0.2700794,0.05336012,-1.157716,-0.3708181,0.1060866,-0.08,-0.02,-0.04,93.59999999999999
16442,60706957,0,-0.32,3.39,3.71,0.005510119,0.0007378095,-0.2701241,0.06591991,-1.157716,-0.3708181,0.1033884,-0.08,-0.02,-0.04,93.59999999999999
16482,60716988,0,-0.32,3.39,3.71,0.005623337,0.0007040859,-0.2688446,0.07494165999999999,-1.157716,-0.3708181,0.105193,-0.08,-0.02,-0.04,93.59999999999999
16527,60726989,0,-0.32,3.39,3.71,0.00546068,0.000580683,-0.2679165,0.08171795,-1.157716,-0.3708181,0.1067947,-0.08,-0.02,-0.04,93.59999999999999
16568,60736983,0,-0.32,3.39,3.71,0.005511425,0.0005596406,-0.2667911,0.08987286999999999,-1.157716,-0.3708181,0.1081854,-0.08,-0.02,-0.04,93.59999999999999
16609,60746970,0,-0.32,3.39,3.71,0.005570346,0.0003645353,-0.2659672,0.09231415,-1.157716,-0.3708181,0.1093968,-0.08,-0.02,-0.04,93.59999999999999
16650,60757154,0,-0.32,3.39,3.71,0.005594152,0.0005969427,-0.2646034,0.09732177,-1.157716,-0.3708181,0.1121642,-0.08,-0.02,-0.04,93.59999999999999
16690,60767383,0,-0.33,3.39,3.71,0.005476342,0.0005737102999999999,-0.2635177,0.1033196,-1.157716,-0.3708181,0.1144421,-0.08,-0.02,-0.04,93.59999999999999
16733,60778547,0,-0.33,3.39,3.71,0.005494135,0.0006094023,-0.263335,0.1132984,-1.146584,-0.3708181,0.1118113,-0.08,-0.02,-0.04,93.59999999999999
16770,60788541,0,-0.33,3.39,3.71,0.005341687,0.0005809161,-0.2621207,0.1208893,-1.146584,-0.3708181,0.113885,-0.08,-0.02,-0.04,93.59999999999999
16811,60798155,0,-0.33,3.39,3.71,0.005342045,0.0005183374,-0.2608575,0.126458,-1.146584,-0.3708181,0.1162616,-0.08,-0.02,-0.04,93.59999999999999
16854,60808692,0,-0.32,3.39,3.71,0.005206297,0.0004320115,-0.2597453,0.1335326,-1.146584,-0.3708181,0.1178948,-0.08,-0.02,-0.04,93.59999999999999
16894,60818722,0,-0.32,3.39,3.71,0.004970914,0.0005417257,-0.2588603,0.1367814,-1.146584,-0.3708181,0.1195863,-0.08,-0.02,-0.04,93.59999999999999
16939,60828643,0,-0.32,3.39,3.71,0.005034222,0.0005851593,-0.2577674,0.1353152,-1.146584,-0.3708181,0.1210933,-0.08,-0.02,-0.04,93.59999999999999
16979,60839567,0,-0.32,3.39,3.71,0.004978024,0.0006533255,-0.2565186,0.1351309,-1.146584,-0.3708181,0.1221511,-0.08,-0.02,-0.04,93.59999999999999
17020,60850113,0,-0.32,3.39,3.71,0.004901259,0.0004936316,-0.2565502,0.1335564,-1.146584,-0.3708181,0.1193321,-0.08,-0.02,-0.04,93.59999999999999
17061,60860216,0,-0.32,3.39,3.71,0.004894624,0.0006218881000000001,-0.2557823,0.1288736,-1.146584,-0.3708181,0.120489,-0.08,-0.02,-0.04,93.59999999999999
17099,60869982,0,-0.32,3.39,3.71,0.004968194,0.0006127773,-0.2542464,0.1257588,-1.146584,-0.3708181,0.1235165,-0.08,-0.02,-0.04,93.59999999999999
17144,60882562,0,-0.32,3.39,3.71,0.005012346,0.0003777385,-0.2529265,0.1260707,-1.146584,-0.3708181,0.1255538,-0.08,-0.02,-0.04,93.59999999999999
17185,60892852,0,-0.32,3.39,3.71,0.005103588,0.0002561348,-0.2513287,0.1289915,-1.146584,-0.3708181,0.1281181,-0.08,-0.02,-0.04,93.59999999999999
17226,60903253,0,-0.32,3.39,3.71,0.005193011,0.0003816825,-0.2497662,0.1344035,-1.146584,-0.3708181,0.1304482,-0.08,-0.02,-0.04,93.59999999999999
17267,60913268,0,-0.32,3.39,3.71,0.005343094,0.0004398178,-0.2485625,0.1381217,-1.146584,-0.3708181,0.132565,-0.08,-0.02,-0.04,93.59999999999999
17308,60923661,0,-0.32,3.39,3.71,0.005517025,0.000379245,-0.2474408,0.1440917,-1.146584,-0.3708181,0.1342192,-0.08,-0.02,-0.04,93.59999999999999
17354,60933933,0,-0.32,3.39,3.72,0.005545894,0.0003722764,-0.2473775,0.149422,-1.146584,-0.3708181,0.131748,-0.08,-0.02,-0.04,93.59999999999999
17394,60943985,0,-0.32,3.39,3.72,0.005539733,0.0006104131,-0.2462188,0.1502345,-1.146584,-0.3708181,0.1334754,-0.08,-0.02,-0.04,93.59999999999999
17435,60954571,0,-0.32,3.39,3.72,0.005519013,0.0007556948,-0.2451785,0.1486245,-1.146584,-0.3708181,0.1350212,-0.08,-0.02,-0.04,93.59999999999999
17472,60964553,0,-0.32,3.39,3.72,0.005691754,0.0007154562,-0.2435965,0.1455771,-1.146584,-0.3708181,0.1377151,-0.08,-0.02,-0.04,93.59999999999999
17519,60977205,0,-0.32,3.39,3.72,0.005569729,0.0005723186,-0.2421732,0.1447357,-1.146584,-0.3708181,0.139948,-0.08,-0.02,-0.04,93.59999999999999
17557,60987707,0,-0.32,3.39,3.72,0.005676015,0.000628583,-0.2407782,0.1438865,-1.146584,-0.3788794,0.1422125,-0.08,-0.02,-0.04,93.59999999999999
17598,60998548,0,-0.32,3.39,3.72,-0.04186816,-0.03606923,-0.2409745,0.1470077,-1.147003,-0.3792389,0.1398069,-0.08,-0.02,-0.04,93.59999999999999
17639,61008118,0,-0.32,3.39,3.72,-0.04193428,-0.03623442,-0.2397559,0.148175,-1.14753,-0.379701,0.1421142,-0.08,-0.02,-0.04,93.59999999999999
17679,61018116,0,-0.32,3.39,3.72,-0.04201161,-0.03604617,-0.2387934,0.1485454,-1.148077,-0.3801792,0.1442097,-0.08,-0.02,-0.04,93.59999999999999
17727,61028124,0,-0.32,3.39,3.72,-0.04204066,-0.03606252,-0.237725,0.1457963,-1.148642,-0.3806705,0.1461119,-0.08,-0.02,-0.04,93.59999999999999
17768,61038993,0,-0.32,3.39,3.72,-0.04201682,-0.0361773,-0.2367828,0.1449509,-1.149268,-0.3812151,0.1475736,-0.08,-0.02,-0.04,93.59999999999999
17809,61049575,0,-0.32,3.39,3.72,-0.04198606,-0.03620992,-0.2357663,0.1413825,-1.149868,-0.3817384,0.1490867,-0.08,-0.02,-0.04,93.59999999999999
17849,61060015,0,-0.32,3.39,3.72,-0.04201345,-0.036351,-0.235075,0.1385556,-1.150528,-0.3823133,0.1501771,-0.08,-0.02,-0.04,93.59999999999999
17892,61073181,0,-0.32,3.39,3.72,-0.04171545,-0.03651239,-0.2334223,0.1375012,-1.151287,-0.3829763,0.1523991,-0.08,-0.02,-0.04,93.59999999999999
17933,61083566,0,-0.32,3.39,3.72,-0.04175662,-0.03646396,-0.2323427,0.1373015,-1.151935,-0.3835447,0.1550939,-0.08,-0.02,-0.04,93.59999999999999
17973,61093690,0,-0.32,3.39,3.72,-0.04191753,-0.03629276,-0.232009,0.1429772,-1.152395,-0.3839447,0.1525427,-0.08,-0.02,-0.04,93.59999999999999
18015,61103841,0,-0.32,3.39,3.72,-0.04190743,-0.03616638,-0.2309686,0.1447976,-1.153035,-0.3845007,0.155055,-0.08,-0.02,-0.04,93.59999999999999
18056,61114435,0,-0.32,3.39,3.72,-0.041677,-0.03606332,-0.2297853,0.1466964,-1.153662,-0.3850466,0.157351,-0.08,-0.02,-0.04,93.59999999999999
