LineNo,TimeUS,DesRoll,Roll,DesPitch,Pitch,DesYaw,Yaw,ErrRP,ErrYaw,AEKF
642,69155539,0,-0.97,0,0.71,11.88,2.36,0,0.01,3
982,69229151,0,-0.96,0,0.71,15.23,2.37,0,0.01,3
1382,69444296,0,-0.95,0,0.72,24.82,2.36,0.01,0.01,3
1530,69466802,0,-0.96,0,0.72,27.11,2.36,0.01,0.01,3
1569,69479216,0,-0.96,0,0.72,28.6,2.36,0.01,0.01,3
1614,69489898,0,-0.96,0,0.72,29.33,2.36,0.01,0.01,3
1659,69500520,0,-0.96,0,0.71,29.34,2.36,0.01,0.01,3
1706,69510598,0,-0.96,0,0.71,29.35,2.36,0.01,0.01,3
1744,69522023,0,-0.96,0,0.72,29.35,2.36,0.01,0.01,3
1788,69531813,0,-0.96,0,0.72,29.36,2.36,0.01,0.01,3
1836,69541764,0,-0.96,0,0.72,29.37,2.36,0.01,0.01,3
1881,69552101,0,-0.96,0,0.72,29.37,2.36,0.01,0.01,3
1927,69562672,0,-0.96,0,0.72,29.38,2.36,0.01,0.01,3
1971,69572588,0,-0.96,0,0.71,29.38,2.36,0.01,0.01,3
2016,69583235,0,-0.95,0,0.71,29.39,2.36,0.01,0.01,3
2060,69593555,0,-0.96,0,0.71,29.4,2.36,0.01,0.01,3
2106,69603586,0,-0.96,0,0.71,29.4,2.36,0.01,0.01,3
2151,69613759,0,-0.96,0,0.71,29.41,2.36,0.01,0.01,3
2196,69623486,0,-0.96,0,0.71,29.42,2.36,0.01,0.01,3
2241,69633456,0,-0.96,0,0.71,29.43,2.36,0.01,0.01,3
2289,69643482,0,-0.96,0,0.71,29.43,2.36,0.01,0.01,3
2334,69653878,0,-0.96,0,0.71,29.44,2.36,0.01,0.01,3
2378,69663995,0,-0.96,0,0.72,29.45,2.37,0.01,0.01,3
2426,69676320,0,-0.96,0,0.72,29.46,2.37,0.01,0.01,3
2467,69687416,0,-0.96,0,0.72,29.47,2.37,0.01,0.01,3
2515,69697885,0,-0.96,0,0.72,29.47,2.37,0.01,0.01,3
2554,69708864,0,-0.96,0,0.72,29.47,2.37,0.01,0.01,3
2599,69719018,0,-0.96,0,0.72,29.46,2.37,0.01,0.01,3
2644,69728797,0,-0.96,0,0.72,29.45,2.37,0.01,0.01,3
2694,69739213,0,-0.96,0,0.72,29.45,2.37,0.01,0.01,3
2740,69749564,0,-0.95,0,0.72,29.44,2.37,0.01,0.01,3
2785,69759771,0,-0.95,0,0.72,29.43,2.37,0.01,0.01,3
2829,69769586,0,-0.95,0,0.72,29.43,2.37,0.01,0.01,3
2875,69780482,0,-0.95,0,0.72,29.42,2.38,0.01,0.01,3
2919,69790511,0,-0.96,0,0.72,29.41,2.38,0.01,0.01,3
2965,69801072,0,-0.96,0,0.72,29.41,2.38,0.01,0.01,3
3010,69811538,0,-0.96,0,0.71,29.4,2.38,0.01,0.01,3
3054,69821891,0,-0.96,0,0.71,29.39,2.38,0.01,0.01,3
3099,69831573,0,-0.96,0,0.71,29.39,2.38,0.01,0.01,3
3146,69841585,0,-0.96,0,0.71,29.38,2.38,0.01,0.01,3
3192,69851723,0,-0.96,0,0.71,29.37,2.38,0.01,0.01,3
3236,69862053,0,-0.96,0,0.71,29.37,2.38,0.01,0.01,3
3282,69872566,0,-0.96,0,0.71,29.36,2.38,0.01,0.01,3
3327,69883091,0,-0.96,0,0.71,29.35,2.38,0.01,0.01,3
3371,69893088,0,-0.95,0,0.72,29.34,2.38,0.01,0.01,3
3417,69903282,0,-0.95,0,0.72,29.34,2.38,0.01,0.01,3
3459,69916401,0,-0.95,0,0.72,29.33,2.38,0.01,0.01,3
3505,69926560,0,-0.95,0,0.72,29.32,2.37,0.01,0.01,3
3550,69937193,0,-0.95,0,0.72,29.31,2.37,0.01,0.01,3
3600,69947777,0,-0.95,0,0.72,29.31,2.37,0.01,0,3
3646,69957899,0,-0.95,0,0.72,29.3,2.37,0.01,0,3
3691,69968047,0,-0.95,0,0.72,29.29,2.37,0.01,0,3
3738,69978457,0,-0.96,0,0.72,29.28,2.37,0.01,0,3
3783,69989069,0,-0.96,0,0.72,29.28,2.37,0.01,0,3
3827,70000045,0,-0.96,0,0.72,29.27,2.37,0.01,0,3
3871,70010153,0,-0.96,0,0.72,29.26,2.37,0.01,0,3
3915,70020101,0,-0.96,0,0.72,29.26,2.37,0.01,0,3
3959,70029909,0,-0.96,0,0.72,29.25,2.37,0.01,0,3
4006,70040493,0,-0.96,0,0.72,29.24,2.37,0.01,0,3
4058,70051136,0,-0.96,0,0.72,29.23,2.37,0.01,0.01,3
4102,70061706,0,-0.96,0,0.72,29.23,2.37,0.01,0.01,3
4147,70071624,0,-0.96,0,0.71,29.22,2.37,0.01,0.01,3
4192,70081657,0,-0.95,0,0.71,29.21,2.37,0.01,0.01,3
4236,70091769,0,-0.95,0,0.71,29.2,2.37,0.01,0.01,3
4281,70102088,0,-0.95,0,0.71,29.2,2.37,0.01,0.01,3
4327,70118195,0,-0.95,0,0.71,29.19,2.37,0.01,0.01,3
4373,70128682,0,-0.95,0,0.71,29.18,2.37,0.01,0.01,3
4417,70138847,0,-0.95,0,0.71,29.17,2.37,0.01,0.01,3
4462,70148910,0,-0.95,0,0.71,29.17,2.37,0.01,0.01,3
4511,70158742,0,-0.96,0,0.71,29.16,2.37,0.01,0,3
4555,70168815,0,-0.96,0,0.72,29.15,2.37,0.01,0,3
4600,70178782,0,-0.96,0,0.72,29.15,2.37,0.01,0,3
4644,70189080,0,-0.96,0,0.72,29.14,2.37,0.01,0,3
4689,70199568,0,-0.96,0,0.72,29.13,2.37,0.01,0,3
4733,70209668,0,-0.96,0,0.72,29.12,2.37,0.01,0,3
4778,70219918,0,-0.95,0,0.72,29.12,2.37,0.01,0,3
4823,70229895,0,-0.95,0,0.72,29.11,2.37,0.01,0,3
4867,70240047,0,-0.95,0,0.72,29.1,2.37,0.01,0,3
4913,70250236,0,-0.95,0,0.72,29.1,2.37,0.01,0,3
4961,70260523,0,-0.95,0,0.72,29.09,2.37,0.01,0,3
5006,70270830,0,-0.95,0,0.72,29.08,2.37,0.01,0,3
5050,70281101,0,-0.95,0,0.71,29.08,2.37,0.01,0,3
5095,70290881,0,-0.95,0,0.72,29.07,2.37,0.01,0,3
5143,70303525,0,-0.95,0,0.72,29.06,2.37,0.01,0,3
5191,70316055,0,-0.95,0,0.72,29.06,2.37,0.01,0,3
5233,70326574,0,-0.95,0,0.72,29.05,2.37,0.01,0,3
5279,70337261,0,-0.96,0,0.71,29.05,2.37,0.01,0,3
5323,70348066,0,-0.96,0,0.71,29.04,2.37,0.01,0,3
5372,70358720,0,-0.96,0,0.71,29.03,2.37,0.01,0,3
5416,70369018,0,-0.96,0,0.71,29.03,2.37,0.01,0,3
5461,70378807,0,-0.96,0,0.72,29.03,2.37,0.01,0,3
5506,70388756,0,-0.96,0,0.72,29.03,2.37,0.01,0,3
5551,70399689,0,-0.95,0,0.72,29.03,2.37,0.01,0,3
5596,70410162,0,-0.95,0,0.72,29.03,2.37,0.01,0,3
5640,70420559,0,-0.95,0,0.72,29.03,2.37,0.01,0,3
5685,70430672,0,-0.9399999999999999,0,0.72,29.03,2.37,0.01,0,3
5729,70440915,0,-0.95,0,0.72,29.03,2.37,0.01,0,3
5778,70451009,0,-0.9399999999999999,0,0.72,29.03,2.37,0.01,0,3
5827,70461088,0,-0.95,0,0.72,29.03,2.37,0.01,0,3
5871,70471296,0,-0.95,0,0.72,29.03,2.37,0.01,0,3
5916,70482058,0,-0.95,0,0.72,29.03,2.37,0.01,0,3
5960,70492525,0,-0.95,0,0.72,29.03,2.37,0.01,0,3
6005,70502316,0,-0.96,0,0.72,29.03,2.37,0.01,0,3
6049,70512564,0,-0.96,0,0.72,29.03,2.37,0.01,0,3
6090,70523905,0,-0.96,0,0.72,29.03,2.37,0,0,3
6135,70534469,0,-0.96,0,0.72,29.03,2.37,0,0,3
6179,70544035,0,-0.96,0,0.72,29.03,2.37,0,0,3
6224,70554285,0,-0.96,0,0.72,29.03,2.37,0,0,3
6273,70564066,0,-0.95,0,0.72,29.03,2.37,0,0,3
6318,70574044,0,-0.95,0,0.72,29.03,2.37,0,0,3
6362,70584275,0,-0.95,0,0.71,29.03,2.37,0,0,3
6407,70594503,0,-0.95,0,0.71,29.03,2.37,0,0,3
6453,70604465,0,-0.95,0,0.71,29.03,2.37,0,0,3
6494,70614592,0,-0.9399999999999999,0,0.71,29.03,2.37,0,0,3
6539,70624545,0,-0.9399999999999999,0,0.71,29.03,2.37,0,0,3
6583,70634581,0,-0.9399999999999999,0,0.71,29.03,2.37,0,0,3
6628,70644925,0,-0.95,0,0.71,29.03,2.37,0,0,3
6674,70655457,0,-0.95,0,0.71,29.03,2.37,0,0,3
6723,70665556,0,-0.95,0,0.71,29.03,2.37,0,0,3
6768,70675723,0,-0.95,0,0.72,29.03,2.37,0,0,3
6812,70686082,0,-0.95,0,0.72,29.03,2.37,0,0,3
6857,70696737,0,-0.95,0,0.72,29.03,2.37,0,0,3
6900,70711107,0,-0.95,0,0.71,29.03,2.37,0.01,0,3
6945,70721271,0,-0.95,0,0.71,29.03,2.37,0.01,0,3
6989,70731920,0,-0.95,0,0.71,29.03,2.37,0.01,0,3
7034,70742511,0,-0.95,0,0.71,29.03,2.37,0.01,0,3
7079,70752533,0,-0.95,0,0.72,29.03,2.37,0.01,0,3
7123,70762576,0,-0.95,0,0.71,29.03,2.37,0.01,0,3
7174,70772669,0,-0.95,0,0.72,29.03,2.37,0.01,0.01,3
7219,70783512,0,-0.95,0,0.71,29.03,2.37,0.01,0.01,3
7264,70793664,0,-0.95,0,0.71,29.03,2.37,0.01,0.01,3
7309,70803576,0,-0.95,0,0.71,29.03,2.37,0.01,0.01,3
7353,70813547,0,-0.95,0,0.71,29.03,2.37,0.01,0.01,3
7398,70824026,0,-0.95,0,0.71,29.03,2.37,0.01,0.01,3
7447,70836806,0,-0.95,0,0.71,29.03,2.37,0.01,0.01,3
7493,70847364,0,-0.95,0,0.71,2.36,2.37,0.01,0.01,3
7539,70857475,0,-0.95,0,0.71,2.36,2.37,0.01,0.01,3
7583,70867310,0,-0.95,0,0.71,2.36,2.37,0.01,0.01,3
7634,70877393,0,-0.96,0,0.71,2.36,2.38,0.01,0.01,3
7678,70888133,0,-0.96,0,0.71,2.37,2.38,0.01,0.01,3
7723,70898563,0,-0.95,0,0.71,2.38,2.39,0.01,0.01,3
7769,70908792,0,-0.95,0,0.71,2.39,2.4,0,0.01,3
7808,70920808,0,-0.95,0,0.71,2.39,2.4,0,0.01,3
7854,70931044,0,-0.95,0,0.71,2.39,2.4,0,0.01,3
7900,70940889,0,-0.95,0,0.72,2.38,2.4,0,0.01,3
7946,70951010,0,-0.96,0,0.72,2.38,2.39,0,0.01,3
7992,70960789,0,-0.95,0,0.72,2.38,2.39,0,0.01,3
8037,70971313,0,-0.9399999999999999,0,0.71,2.38,2.39,0,0.01,3
8087,70981564,0,-0.93,0,0.71,2.38,2.39,0,0.01,3
8132,70991542,0,-0.93,0,0.71,2.38,2.39,0,0.01,3
8176,71001474,0,-0.95,0,0.72,2.38,2.39,0,0.01,3
8221,71011149,0,-0.95,0,0.71,2.38,2.39,0,0.01,3
8266,71022252,0,-0.9399999999999999,0,0.71,2.38,2.39,0,0.01,3
8311,71032588,0,-0.95,0,0.71,2.38,2.39,0,0.01,3
8358,71045488,0,-0.97,0,0.72,2.39,2.4,0,0.01,3
8403,71055278,0,-0.99,0,0.73,2.39,2.4,0,0.01,3
8449,71066020,0,-0.99,0,0.73,2.38,2.39,0,0.01,3
8498,71076047,0,-0.98,0,0.72,2.37,2.38,0,0.01,3
8544,71085798,0,-0.97,0,0.72,2.35,2.36,0,0.01,3
8591,71099081,0,-0.97,0,0.71,2.34,2.35,0.01,0.01,3
8632,71109029,0,-0.97,0,0.71,2.33,2.34,0.01,0.01,3
8679,71122122,0,-0.97,0,0.71,2.33,2.34,0.01,0.01,3
8724,71132484,0,-0.97,0,0.71,2.35,2.36,0.01,0.01,3
8766,71142759,0,-0.95,0,0.6899999999999999,2.36,2.37,0.01,0.01,3
8810,71152554,0,-0.93,0,0.6899999999999999,2.38,2.39,0.01,0.01,3
8855,71163020,0,-0.93,0,0.6899999999999999,2.39,2.4,0.01,0.01,3
8899,71173491,0,-0.9399999999999999,0,0.6899999999999999,2.41,2.42,0.01,0.01,3
8950,71183357,0,-0.9399999999999999,0,0.7,2.42,2.43,0.01,0,3
8994,71193589,0,-0.9399999999999999,0,0.6899999999999999,2.44,2.45,0.01,0,3
9039,71204028,0,-0.95,0,0.7,2.44,2.45,0.01,0,3
9084,71214536,0,-0.95,0,0.6899999999999999,2.42,2.44,0.01,0,3
9128,71224701,0,-0.9399999999999999,0,0.7,2.42,2.43,0.01,0,3
9173,71234523,0,-0.9399999999999999,0,0.7,2.41,2.42,0.01,0,3
9217,71244674,0,-0.96,0,0.7,2.4,2.41,0.01,0,3
9262,71255043,0,-0.95,0,0.7,2.36,2.38,0.01,0,3
9307,71265273,0,-0.9399999999999999,0,0.6899999999999999,2.36,2.37,0.01,0,3
9352,71275075,0,-0.9399999999999999,0,0.7,2.35,2.36,0.01,0,3
9402,71284832,0,-0.96,0,0.7,2.36,2.37,0.01,0.01,3
9446,71295510,0,-0.9399999999999999,0,0.7,2.35,2.36,0.01,0.01,3
9491,71305476,0,-0.92,0,0.7,2.35,2.37,0.01,0.01,3
9540,71318077,0,-0.91,0,0.71,2.38,2.39,0,0.01,3
9580,71329524,0,-0.93,0,0.7,2.4,2.41,0,0.01,3
9624,71340214,0,-0.91,0,0.6899999999999999,2.39,2.41,0,0.01,3
9669,71350715,0,-0.91,0,0.71,2.41,2.42,0,0.01,3
9714,71361504,0,-0.92,0,0.72,2.43,2.44,0,0.01,3
9758,71371774,0,-0.9399999999999999,0,0.71,2.43,2.44,0,0.01,3
9803,71381947,0,-0.93,0,0.6899999999999999,2.4,2.41,0,0.01,3
9852,71391806,0,-0.92,0,0.71,2.39,2.4,0,0,3
9897,71402192,0,-0.93,0,0.71,2.4,2.41,0,0,3
9943,71412732,0,-0.95,0,0.7,2.37,2.38,0,0,3
9987,71422865,0,-0.9399999999999999,0,0.6899999999999999,2.35,2.36,0,0,3
10032,71433077,0,-0.93,0,0.7,2.34,2.35,0,0,3
10078,71443754,0,-0.93,0,0.72,2.36,2.37,0,0,3
10124,71453891,0,-0.9399999999999999,0,0.6899999999999999,2.34,2.35,0,0,3
10169,71464208,0,-0.92,0,0.7,2.34,2.36,0,0,3
10213,71474580,0,-0.91,0,0.7,2.36,2.37,0,0,3
10258,71484405,0,-0.92,0,0.72,2.39,2.4,0,0,3
10306,71494575,0,-0.92,0,0.68,2.38,2.39,0,0,3
10353,71507450,0,-0.92,0,0.71,2.39,2.4,0,0,3
10396,71517738,0,-0.9,0,0.7,2.41,2.42,0,0,3
10441,71528151,0,-0.9399999999999999,0,0.72,2.41,2.42,0,0,3
10486,71538462,0,-0.9399999999999999,0,0.7,2.39,2.4,0,0,3
10530,71548240,0,-0.9399999999999999,0,0.71,2.38,2.39,0,0,3
10574,71559032,0,-0.93,0,0.73,2.39,2.4,0,0,3
10619,71569552,0,-0.95,0,0.71,2.37,2.38,0,0,3
10663,71579766,0,-0.9399999999999999,0,0.72,2.35,2.36,0,0,3
10711,71589783,0,-0.93,0,0.71,2.35,2.36,0,0,3
10756,71599705,0,-0.92,0,0.74,2.36,2.37,0,0.01,3
10801,71609811,0,-0.9399999999999999,0,0.7,2.34,2.35,0,0.01,3
10847,71620280,0,-0.93,0,0.71,2.35,2.36,0,0.01,3
10892,71630520,0,-0.9,0,0.7,2.35,2.36,0,0.01,3
10937,71641022,0,-0.93,0,0.72,2.38,2.39,0,0.01,3
10981,71651592,0,-0.9399999999999999,0,0.68,2.36,2.37,0,0.01,3
11026,71661711,0,-0.95,0,0.6899999999999999,2.38,2.39,0,0.01,3
11071,71672120,0,-0.91,0,0.7,2.39,2.4,0,0.01,3
11116,71682588,0,-0.9399999999999999,0,0.72,2.4,2.41,0,0.01,3
11164,71692923,0,-0.9399999999999999,0,0.7,2.38,2.39,0,0.01,3
11209,71703034,0,-0.9399999999999999,0,0.71,2.38,2.39,0,0.04,3
11256,71713276,0,-0.92,0,0.74,2.39,2.4,0.01,0.04,3
11294,71724589,0,-0.91,0,0.7,2.36,2.37,0.01,0.04,3
11339,71734685,0,-0.93,0,0.7,2.35,2.36,0.01,0.04,3
11383,71745585,0,-0.9,0,0.68,2.34,2.35,0.01,0.04,3
11428,71755456,0,-0.93,0,0.71,2.34,2.35,0.01,0.04,3
11473,71765670,0,-0.92,0,0.67,2.31,2.32,0.01,0.04,3
11518,71776068,0,-0.9399999999999999,0,0.68,2.31,2.32,0.01,0.04,3
11564,71786743,0,-0.91,0,0.71,2.33,2.34,0.01,0.04,3
11611,71797512,0,-0.92,0,0.7,2.32,2.33,0.01,0.04,3
11657,71807860,0,-0.92,0,0.72,2.32,2.33,0.01,0.04,3
11703,71818438,0,-0.9,0,0.7,2.32,2.33,0.01,0.04,3
11747,71828105,0,-0.92,0,0.74,2.35,2.36,0.01,0.04,3
11792,71839058,0,-0.91,0,0.7,2.32,2.33,0.01,0.04,3
11836,71849795,0,-0.93,0,0.7,2.31,2.32,0.01,0.04,3
11881,71859862,0,-0.88,0,0.72,2.33,2.34,0.01,0.04,3
11926,71870448,0,-0.9,0,0.72,2.31,2.32,0.01,0.04,3
11970,71880765,0,-0.89,0,0.71,2.29,2.3,0.01,0.04,3
12015,71890777,0,-0.9,0,0.7,2.28,2.29,0.01,0.04,3
12064,71901108,0,-0.89,0,0.72,2.3,2.31,0,0.04,3
12106,71914919,0,-0.91,0,0.67,2.26,2.27,0,0.03,3
12150,71925537,0,-0.9399999999999999,0,0.68,2.25,2.26,0,0.03,3
12198,71935368,0,-0.9,0,0.6899999999999999,2.26,2.27,0,0.03,3
12243,71946490,0,-0.9399999999999999,0,0.7,2.26,2.27,0,0.03,3
12288,71956754,0,-0.91,0,0.6899999999999999,2.25,2.26,0,0.03,3
12332,71967408,0,-0.91,0,0.6899999999999999,2.25,2.26,0,0.03,3
12379,71977853,0,-0.89,0,0.74,2.29,2.3,0,0.03,3
12425,71988480,0,-0.9,0,0.7,2.27,2.28,0,0.03,3
12470,71998294,0,-0.92,0,0.71,2.27,2.28,0,0.03,3
12518,72008752,0,-0.88,0,0.6899999999999999,2.27,2.28,0,0.02,3
12562,72019091,0,-0.9,0,0.72,2.29,2.3,0,0.02,3
12607,72030112,0,-0.89,0,0.68,2.26,2.27,0,0.02,3
12651,72040788,0,-0.92,0,0.68,2.25,2.26,0,0.02,3
12699,72053308,0,-0.89,0,0.74,2.28,2.29,0,0.02,3
12743,72063848,0,-0.89,0,0.71,2.25,2.26,0,0.02,3
12788,72074086,0,-0.93,0,0.71,2.24,2.25,0,0.02,3
12833,72084014,0,-0.9,0,0.6899999999999999,2.24,2.25,0,0.02,3
12877,72093816,0,-0.93,0,0.72,2.26,2.27,0,0.02,3
12925,72104714,0,-0.91,0,0.7,2.24,2.25,0,0.02,3
12975,72118014,0,-0.93,0,0.6899999999999999,2.23,2.24,0,0.02,3
13017,72129062,0,-0.91,0,0.75,2.27,2.28,0,0.02,3
13062,72139190,0,-0.91,0,0.72,2.26,2.27,0,0.02,3
13107,72148810,0,-0.93,0,0.73,2.26,2.27,0,0.02,3
13151,72159047,0,-0.91,0,0.71,2.27,2.28,0,0.02,3
13195,72169823,0,-0.92,0,0.72,2.28,2.29,0,0.02,3
13239,72179881,0,-0.89,0,0.7,2.27,2.28,0,0.02,3
13284,72190572,0,-0.93,0,0.67,2.25,2.26,0,0.02,3
13313,72250561,0,-0.86,0,0.6899999999999999,2.24,2.25,0,0.02,3
13358,72260819,0,-0.9399999999999999,0,0.68,2.24,2.25,0,0.02,3
13402,72271572,0,-0.89,0,0.7,2.27,2.28,0,0.02,3
13447,72282256,0,-0.88,0,0.68,2.27,2.26,0,0.02,3
13491,72292785,0,-0.95,0,0.6899999999999999,2.27,2.28,0,0.02,3
13536,72303790,0,-0.95,0.01,0.7,2.27,2.29,0,0.02,3
13583,72313821,0,-0.87,0.01,0.6899999999999999,2.27,2.27,0,0.02,3
13625,72325343,0,-0.85,0.02,0.66,2.27,2.3,0,0.02,3
13670,72336011,-0.01,-0.83,0.02,0.68,2.27,2.28,0,0.02,3
13715,72346254,-0.02,-0.86,0.02,0.7,2.27,2.29,0,0.02,3
13759,72357046,-0.04,-0.99,0.02,0.6899999999999999,2.27,2.29,0,0.02,3
13808,72370311,-0.05,-0.9,0.02,0.67,2.27,2.3,0,0.02,3
13853,72380705,-0.07000000000000001,-0.92,0.02,0.67,2.27,2.29,0,0.02,3
13897,72391188,-0.08,-0.76,0.02,0.66,2.27,2.29,0,0.02,3
13943,72401479,-0.1,-0.6899999999999999,0.02,0.64,2.27,2.28,0,0.02,3
13987,72412128,-0.1,-0.75,0.02,0.6,2.27,2.29,0,0.02,3
14032,72422715,-0.11,-0.85,0.02,0.65,2.27,2.29,0,0.02,3
14082,72433518,-0.12,-0.9399999999999999,0.02,0.57,2.27,2.3,0,0.01,3
14127,72443585,-0.12,-0.86,0.02,0.67,2.27,2.31,0,0.01,3
14171,72454018,-0.12,-0.71,0.02,0.57,2.27,2.31,0,0.01,3
14217,72464035,-0.12,-0.74,0.02,0.57,2.27,2.31,0,0.01,3
14262,72474542,-0.12,-0.88,0.02,0.6,2.27,2.34,0,0.01,3
14306,72484905,-0.13,-0.96,0.01,0.52,2.27,2.31,0,0.01,3
14351,72495446,-0.12,-0.87,0.01,0.66,2.27,2.35,0,0.01,3
14395,72505917,-0.12,-0.74,0.01,0.57,2.27,2.31,0.01,0.01,3
14433,72517488,-0.12,-0.74,0,0.51,2.27,2.32,0.01,0.01,3
14477,72527797,-0.12,-0.71,0,0.61,2.27,2.31,0.01,0.01,3
14526,72538473,-0.12,-0.82,-0.02,0.58,2.27,2.32,0.01,0.01,3
14571,72549060,-0.11,-0.88,-0.03,0.52,2.27,2.3,0.01,0.01,3
14616,72559291,-0.11,-0.72,-0.04,0.58,2.27,2.32,0.01,0.01,3
14660,72569416,-0.11,-0.57,-0.04,0.62,2.27,2.29,0.01,0.01,3
14706,72579849,-0.11,-0.77,-0.05,0.44,2.27,2.29,0.01,0.01,3
14750,72590746,-0.12,-0.82,-0.06,0.58,2.27,2.33,0.01,0.01,3
14795,72601709,-0.12,-0.66,-0.07000000000000001,0.73,2.27,2.33,0.01,0.01,3
14840,72611984,-0.12,-0.79,-0.08,0.48,2.27,2.3,0.01,0.01,3
14885,72622131,-0.12,-0.88,-0.08,0.4,2.27,2.33,0.01,0.01,3
14930,72632085,-0.12,-0.61,-0.09,0.6,2.27,2.35,0.01,0.01,3
14978,72642600,-0.12,-0.72,-0.09,0.7,2.27,2.35,0.01,0.01,3
15023,72652879,-0.14,-0.92,-0.08,0.54,2.27,2.34,0.01,0.01,3
15067,72663521,-0.14,-0.76,-0.08,0.42,2.27,2.33,0.01,0.01,3
15115,72676555,-0.15,-0.88,-0.07000000000000001,0.51,2.27,2.35,0.01,0.01,3
15159,72687248,-0.16,-0.59,-0.06,0.41,2.27,2.32,0.01,0.01,3
15204,72698691,-0.19,-0.53,-0.06,0.44,2.27,2.31,0.01,0.01,3
15250,72709286,-0.2,-0.44,-0.06,0.51,2.27,2.32,0.01,0.01,3
15294,72719995,-0.2,-0.5,-0.06,0.51,2.27,2.31,0.01,0.01,3
15335,72730714,-0.21,-0.65,-0.06,0.55,2.27,2.33,0.01,0.01,3
15381,72740788,-0.22,-0.66,-0.06,0.65,2.27,2.33,0.01,0.01,3
15429,72751532,-0.23,-0.61,-0.07000000000000001,0.61,2.27,2.33,0.01,0.01,3
15474,72761836,-0.22,-0.65,-0.07000000000000001,0.6,2.27,2.34,0.01,0.01,3
15518,72772125,-0.21,-0.62,-0.09,0.57,2.27,2.37,0.01,0.01,3
15566,72784849,-0.23,-0.51,-0.11,0.53,2.27,2.37,0.01,0.01,3
15610,72795290,-0.26,-0.5,-0.12,0.51,2.27,2.39,0.01,0.01,3
15655,72806018,-0.28,-0.45,-0.13,0.52,2.27,2.43,0.01,0.01,3
15700,72816682,-0.3,-0.4,-0.15,0.6,2.27,2.47,0.01,0.01,3
15745,72826794,-0.33,-0.3,-0.16,0.64,2.27,2.5,0.01,0.01,3
15790,72836757,-0.37,-0.26,-0.17,0.6899999999999999,2.27,2.54,0.01,0.01,3
15841,72849133,-0.4,-0.12,-0.2,0.6899999999999999,2.27,2.61,0.01,0.01,3
15886,72859741,-0.42,-0.08,-0.22,0.67,2.27,2.66,0.01,0.01,3
15931,72870189,-0.44,-0.02,-0.25,0.65,2.27,2.71,0.01,0.01,3
15976,72880504,-0.46,0.01,-0.26,0.68,2.27,2.77,0.01,0.01,3
16020,72890692,-0.48,0.09,-0.28,0.6899999999999999,2.27,2.84,0.01,0.01,3
16066,72901119,-0.49,0.14,-0.31,0.66,2.27,2.93,0.01,0.01,3
16104,72912578,-0.5,0.24,-0.32,0.59,2.27,3.01,0.01,0.01,3
16149,72922592,-0.52,0.32,-0.35,0.58,2.27,3.09,0.01,0.01,3
16198,72933024,-0.5600000000000001,0.45,-0.37,0.52,2.27,3.18,0.01,0.01,3
16242,72943849,-0.6,0.58,-0.39,0.46,2.27,3.27,0.01,0.01,3
16292,72954508,-0.65,0.71,-0.41,0.35,2.27,3.36,0.01,0.02,3
16337,72965294,-0.7,0.83,-0.42,0.28,2.27,3.46,0.01,0.02,3
16381,72975531,-0.76,0.95,-0.44,0.21,2.27,3.55,0.01,0.02,3
16426,72985701,-0.83,1.12,-0.45,0.11,2.27,3.64,0.01,0.02,3
16472,72998817,-0.91,1.21,-0.48,0,2.27,3.78,0.01,0.02,3
16516,73009302,-0.98,1.34,-0.51,-0.04,2.27,3.87,0.01,0.02,3
16561,73020079,-1.04,1.55,-0.54,-0.15,2.27,4.01,0.01,0.02,3
16605,73030458,-1.11,1.67,-0.57,-0.26,2.27,4.12,0.01,0.02,3
16650,73040236,-1.18,1.72,-0.61,-0.3,2.27,4.23,0.01,0.02,3
16694,73050276,-1.25,1.8,-0.64,-0.34,2.27,4.36,0.01,0.02,3
16743,73060721,-1.33,1.87,-0.68,-0.41,2.27,4.49,0.01,0.02,3
16788,73071269,-1.41,1.94,-0.72,-0.49,2.27,4.61,0.01,0.02,3
16832,73082065,-1.49,1.97,-0.75,-0.53,2.27,4.75,0.01,0.02,3
16877,73094839,-1.59,2.05,-0.79,-0.64,2.28,4.93,0.01,0.02,3
16921,73105578,-1.68,2.05,-0.8100000000000001,-0.71,2.28,5.06,0.01,0.02,3
16969,73123235,-1.82,2.04,-0.84,-0.79,2.28,5.3,0.01,0.02,3
17014,73133917,-1.91,2.03,-0.86,-0.87,2.28,5.46,0.01,0.02,3
17059,73144053,-2.01,2.05,-0.88,-0.9399999999999999,2.28,5.6,0.01,0.02,3
17105,73154729,-2.12,2,-0.89,-0.99,2.28,5.74,0.01,0.02,3
17155,73164781,-2.23,1.94,-0.9,-1.03,2.28,5.88,0.01,0.02,3
17199,73175285,-2.35,1.89,-0.91,-1.09,2.28,6.05,0.01,0.02,3
17244,73185534,-2.46,1.79,-0.91,-1.14,2.28,6.19,0.01,0.02,3
17292,73198256,-2.6,1.63,-0.91,-1.12,2.28,6.35,0.01,0.02,3
17336,73209073,-2.72,1.57,-0.91,-1.15,2.28,6.5,0.01,0.02,3
17381,73219562,-2.83,1.44,-0.91,-1.22,2.28,6.68,0.01,0.02,3
17425,73229746,-2.95,1.31,-0.91,-1.21,2.28,6.81,0.01,0.02,3
17470,73240402,-3.07,1.17,-0.91,-1.14,2.28,6.96,0.01,0.02,3
17515,73250551,-3.19,1.03,-0.9,-1.15,2.28,7.12,0.01,0.02,3
17560,73260713,-3.3,0.91,-0.9,-1.18,2.28,7.26,0.01,0.02,3
17609,73270900,-3.42,0.78,-0.89,-1.15,2.28,7.39,0.01,0.01,3
17654,73281583,-3.54,0.6,-0.88,-1.04,2.28,7.54,0.01,0.01,3
17699,73291751,-3.66,0.48,-0.87,-1.01,2.28,7.69,0.01,0.01,3
17742,73302588,-3.77,0.39,-0.87,-1.01,2.28,7.85,0.01,0.01,3
17784,73313548,-3.86,0.23,-0.86,-0.98,2.28,8,0.01,0.01,3
17829,73323916,-3.98,0.03,-0.85,-0.91,2.28,8.140000000000001,0.01,0.01,3
17873,73334510,-4.09,-0.1,-0.83,-0.85,2.27,8.279999999999999,0.01,0.01,3
17917,73344696,-4.2,-0.23,-0.82,-0.82,2.27,8.41,0.01,0.01,3
17963,73355018,-4.3,-0.37,-0.8,-0.79,2.27,8.56,0.01,0.01,3
18007,73365473,-4.4,-0.52,-0.78,-0.72,2.27,8.68,0.01,0.01,3
18056,73375744,-4.5,-0.6899999999999999,-0.76,-0.61,2.27,8.81,0.01,0.01,3
18100,73386273,-4.59,-0.83,-0.75,-0.5600000000000001,2.27,8.970000000000001,0.01,0.01,3
18145,73397123,-4.67,-0.88,-0.74,-0.54,2.27,9.09,0.01,0.01,3
18193,73409920,-4.78,-1.17,-0.73,-0.46,2.27,9.26,0.01,0.01,3
18238,73420645,-4.86,-1.27,-0.72,-0.37,2.27,9.359999999999999,0.01,0.01,3
18284,73430905,-4.94,-1.42,-0.71,-0.31,2.26,9.49,0.01,0.01,3
18328,73441767,-5.02,-1.52,-0.7,-0.29,2.26,9.6,0.01,0.01,3
18373,73452005,-5.08,-1.64,-0.6899999999999999,-0.26,2.26,9.710000000000001,0.01,0.01,3
18418,73462004,-5.15,-1.8,-0.67,-0.2,2.26,9.82,0.01,0.01,3
18463,73472437,-5.21,-1.84,-0.67,-0.19,2.25,9.91,0.01,0.01,3
18512,73483146,-5.27,-1.96,-0.66,-0.13,2.21,10.03,0.01,0.01,3
18557,73494040,-5.32,-2.07,-0.66,-0.1,2.15,10.14,0.01,0.01,3
18602,73504158,-5.37,-2.2,-0.66,-0.12,2.06,10.24,0.01,0.01,3
18645,73515336,-5.41,-2.42,-0.67,-0.08,1.94,10.33,0.02,0.01,3
18687,73527233,-5.43,-2.53,-0.67,0,1.84,10.43,0.02,0.01,3
18732,73537742,-5.46,-2.62,-0.68,0.02,1.67,10.51,0.02,0.01,3
18776,73548130,-5.5,-2.69,-0.7,0.03,1.48,10.59,0.02,0.01,3
18821,73559006,-5.53,-2.72,-0.74,0,1.26,10.66,0.02,0.01,3
18866,73569629,-5.56,-2.83,-0.78,0.01,1.02,10.73,0.02,0.01,3
18911,73579738,-5.59,-2.95,-0.82,0.05,0.74,10.78,0.02,0.01,3
18961,73590023,-5.61,-3.05,-0.86,0.08,0.44,10.82,0.02,0.01,3
19005,73600721,-5.62,-3.16,-0.91,0.12,0.11,10.87,0.02,0.01,3
19050,73611689,-5.63,-3.2,-0.97,0.12,359.75,10.91,0.02,0.01,3
19095,73622608,-5.63,-3.21,-1.03,0.08,359.37,10.92,0.02,0.01,3
19140,73633004,-5.63,-3.34,-1.09,0.03,358.96,10.93,0.02,0.01,3
19184,73643497,-5.63,-3.41,-1.15,0,358.54,10.91,0.02,0.01,3
19229,73653266,-5.62,-3.55,-1.21,0,358.11,10.9,0.02,0.01,3
19273,73664093,-5.6,-3.63,-1.27,-0.01,357.67,10.87,0.02,0.01,3
19318,73674551,-5.59,-3.8,-1.33,0.05,357.23,10.82,0.02,0.01,3
19364,73684804,-5.57,-3.82,-1.39,0.04,356.78,10.76,0.02,0.01,3
19412,73695592,-5.54,-3.85,-1.45,0.03,356.34,10.68,0.02,0.01,3
19460,73706580,-5.52,-3.9,-1.51,-0.01,355.9,10.59,0.02,0.01,3
19501,73717823,-5.49,-3.86,-1.57,-0.08,355.46,10.48,0.02,0.01,3
19543,73729207,-5.47,-3.86,-1.63,-0.22,355.14,10.35,0.02,0.01,3
19588,73739533,-5.45,-3.92,-1.7,-0.27,354.7,10.22,0.02,0.01,3
19632,73749565,-5.43,-3.98,-1.77,-0.33,354.29,10.09,0.02,0.01,3
19677,73760069,-5.4,-3.96,-1.83,-0.41,353.88,9.9,0.02,0.01,3
19721,73770737,-5.38,-4.06,-1.9,-0.48,353.49,9.76,0.02,0.01,3
19766,73781057,-5.35,-4.07,-1.97,-0.5600000000000001,353.1,9.539999999999999,0.02,0.01,3
19811,73790994,-5.32,-4.09,-2.03,-0.63,352.74,9.380000000000001,0.02,0.01,3
19859,73801075,-5.29,-4.1,-2.1,-0.6899999999999999,352.39,9.17,0.02,0.02,3
19904,73811279,-5.26,-4.05,-2.16,-0.72,352.07,8.970000000000001,0.02,0.02,3
19949,73821271,-5.22,-4.16,-2.22,-0.77,351.76,8.76,0.02,0.02,3
19994,73831774,-5.18,-4.2,-2.27,-0.76,351.47,8.539999999999999,0.02,0.02,3
20039,73842997,-5.14,-4.25,-2.32,-0.87,351.2,8.289999999999999,0.02,0.02,3
20084,73853153,-5.11,-4.28,-2.36,-0.92,350.95,8.02,0.02,0.02,3
20129,73863566,-5.07,-4.29,-2.4,-0.99,350.72,7.79,0.02,0.02,3
20173,73873694,-5.04,-4.36,-2.44,-1.02,350.51,7.54,0.02,0.02,3
20219,73884059,-5,-4.39,-2.47,-1.02,350.33,7.29,0.02,0.02,3
20263,73894763,-4.97,-4.45,-2.5,-1.1,350.18,7.01,0.02,0.02,3
20313,73904994,-4.93,-4.47,-2.52,-1.13,350.05,6.75,0.02,0.03,3
20359,73915495,-4.9,-4.48,-2.54,-1.2,349.95,6.46,0.04,0.03,3
20400,73927427,-4.86,-4.59,-2.55,-1.15,349.88,6.13,0.04,0.03,3
20445,73938587,-4.83,-4.57,-2.56,-1.2,349.83,5.86,0.04,0.03,3
20490,73949229,-4.8,-4.62,-2.56,-1.16,349.81,5.56,0.04,0.03,3
20537,73962256,-4.77,-4.52,-2.56,-1.12,349.81,5.2,0.04,0.03,3
20582,73972786,-4.74,-4.51,-2.56,-1.09,349.81,4.93,0.04,0.03,3
20626,73983065,-4.72,-4.52,-2.56,-1.09,349.81,4.66,0.04,0.03,3
20670,73993042,-4.7,-4.48,-2.57,-1.14,349.81,4.38,0.04,0.03,3
20722,74005911,-4.68,-4.45,-2.56,-1.23,349.81,4.05,0.04,0.04,3
20768,74016150,-4.67,-4.4,-2.56,-1.19,349.81,3.79,0.04,0.04,3
20812,74026967,-4.66,-4.41,-2.55,-1.15,349.81,3.5,0.04,0.04,3
20860,74039689,-4.64,-4.44,-2.53,-1.06,349.8,3.18,0.04,0.04,3
20905,74051067,-4.62,-4.4,-2.51,-1.08,349.8,2.92,0.04,0.04,3
20950,74062025,-4.61,-4.37,-2.49,-1.15,349.8,2.65,0.04,0.04,3
20995,74072494,-4.59,-4.36,-2.48,-1.16,349.8,2.38,0.04,0.04,3
21039,74082679,-4.57,-4.35,-2.46,-1.16,349.8,2.14,0.04,0.04,3
21084,74093010,-4.56,-4.36,-2.45,-1.17,349.8,1.89,0.04,0.04,3
21131,74103015,-4.54,-4.37,-2.44,-1.11,349.8,1.66,0.05,0.04,3
21173,74114772,-4.52,-4.32,-2.44,-1.07,349.8,1.38,0.05,0.04,3
21218,74125282,-4.5,-4.28,-2.44,-1.07,349.8,1.15,0.05,0.04,3
21264,74135714,-4.47,-4.23,-2.44,-1.09,349.8,0.93,0.05,0.04,3
21309,74146726,-4.44,-4.21,-2.45,-1.16,349.8,0.6899999999999999,0.05,0.04,3
21354,74158053,-4.41,-4.25,-2.46,-1.11,349.8,0.42,0.05,0.04,3
21399,74168694,-4.38,-4.28,-2.47,-1.08,349.8,0.18,0.05,0.04,3
21443,74179052,-4.34,-4.26,-2.47,-1.06,349.8,359.97,0.05,0.04,3
21488,74189499,-4.3,-4.17,-2.48,-1.05,349.8,359.73,0.05,0.04,3
21533,74199778,-4.25,-4.12,-2.5,-1.08,349.8,359.53,0.05,0.04,3
21580,74209753,-4.21,-4.09,-2.52,-1.1,349.8,359.33,0.05,0.04,3
21628,74220671,-4.17,-4.04,-2.54,-1.15,349.8,359.08,0.05,0.03,3
21672,74230918,-4.13,-3.99,-2.56,-1.16,349.81,358.87,0.05,0.03,3
21717,74241711,-4.09,-4.01,-2.57,-1.16,349.81,358.65,0.05,0.03,3
21762,74251859,-4.05,-4.03,-2.58,-1.19,349.81,358.44,0.05,0.03,3
21806,74262591,-4.01,-4,-2.59,-1.2,349.81,358.23,0.05,0.03,3
21851,74273469,-3.97,-4,-2.61,-1.26,349.81,358.06,0.05,0.03,3
21896,74283215,-3.94,-3.96,-2.62,-1.36,349.81,357.84,0.05,0.03,3
21941,74293479,-3.9,-3.89,-2.63,-1.42,349.81,357.65,0.05,0.03,3
21987,74303812,-3.87,-3.85,-2.63,-1.48,349.81,357.47,0.05,0.03,3
22033,74318031,-3.83,-3.85,-2.62,-1.54,349.81,357.24,0.05,0.03,3
22079,74329281,-3.8,-3.82,-2.62,-1.68,349.81,357.04,0.05,0.03,3
22123,74339797,-3.76,-3.8,-2.61,-1.74,349.81,356.87,0.05,0.03,3
22168,74350567,-3.72,-3.77,-2.6,-1.72,349.81,356.69,0.05,0.03,3
22213,74360747,-3.68,-3.74,-2.59,-1.75,349.81,356.54,0.05,0.03,3
22257,74371025,-3.64,-3.71,-2.59,-1.8,349.81,356.4,0.05,0.03,3
22302,74381822,-3.6,-3.6,-2.59,-1.85,349.81,356.24,0.05,0.03,3
22348,74391813,-3.57,-3.55,-2.59,-1.86,349.81,356.09,0.05,0.03,3
22393,74402526,-3.53,-3.52,-2.59,-1.86,349.81,355.94,0.05,0.03,3
22437,74413087,-3.5,-3.55,-2.59,-1.84,349.81,355.77,0.05,0.03,3
22483,74424032,-3.46,-3.51,-2.59,-1.74,349.81,355.62,0.05,0.03,3
22533,74434306,-3.43,-3.38,-2.59,-1.73,349.81,355.47,0.05,0.02,3
22577,74445679,-3.4,-3.31,-2.59,-1.72,349.81,355.34,0.05,0.02,3
22622,74455745,-3.37,-3.26,-2.6,-1.65,349.81,355.18,0.05,0.02,3
22666,74465581,-3.34,-3.2,-2.61,-1.56,349.81,355.05,0.05,0.02,3
22711,74476574,-3.31,-3.15,-2.62,-1.47,349.81,354.91,0.05,0.02,3
22755,74486591,-3.29,-3.1,-2.63,-1.4,349.81,354.79,0.05,0.02,3
22800,74497228,-3.26,-3.05,-2.64,-1.33,349.81,354.67,0.05,0.02,3
22845,74512070,-3.23,-2.95,-2.66,-1.26,349.81,354.49,0.06,0.02,3
22890,74522686,-3.22,-2.87,-2.67,-1.17,349.81,354.36,0.06,0.02,3
22935,74533731,-3.2,-2.75,-2.68,-1.17,349.81,354.25,0.06,0.02,3
22984,74544005,-3.2,-2.7,-2.69,-1.16,349.81,354.16,0.06,0.02,3
23028,74554551,-3.2,-2.66,-2.68,-1.14,349.81,354.04,0.06,0.02,3
23073,74564600,-3.2,-2.59,-2.68,-1.09,349.81,353.94,0.06,0.02,3
23117,74574743,-3.21,-2.53,-2.66,-1.1,349.81,353.87,0.06,0.02,3
23161,74586148,-3.22,-2.48,-2.65,-1.11,349.81,353.8,0.06,0.02,3
23208,74596993,-3.23,-2.37,-2.63,-1.2,349.81,353.72,0.06,0.02,3
23252,74607752,-3.25,-2.38,-2.62,-1.2,349.81,353.63,0.06,0.02,3
23297,74618062,-3.28,-2.36,-2.62,-1.18,349.81,353.55,0.06,0.02,3
23341,74628701,-3.3,-2.31,-2.61,-1.17,349.81,353.49,0.06,0.02,3
23386,74638798,-3.32,-2.25,-2.61,-1.21,349.81,353.44,0.06,0.02,3
23435,74648758,-3.34,-2.23,-2.61,-1.25,349.81,353.38,0.06,0.01,3
23479,74659552,-3.36,-2.21,-2.62,-1.25,349.81,353.31,0.06,0.01,3
23524,74670067,-3.39,-2.23,-2.63,-1.26,349.81,353.25,0.06,0.01,3
23569,74680891,-3.41,-2.25,-2.64,-1.29,349.81,353.2,0.06,0.01,3
23612,74692077,-3.43,-2.27,-2.65,-1.31,349.81,353.14,0.06,0.01,3
23662,74709793,-3.44,-2.31,-2.69,-1.34,348.82,352.07,0.06,0.01,3
23706,74720545,-3.46,-2.36,-2.71,-1.39,348.82,352.02,0.06,0.01,3
23751,74730818,-3.48,-2.44,-2.73,-1.39,348.82,351.98,0.06,0.01,3
23796,74741293,-3.49,-2.53,-2.75,-1.36,348.82,351.92,0.06,0.01,3
23844,74752461,-3.51,-2.54,-2.77,-1.35,348.82,351.88,0.06,0.01,3
23889,74763123,-3.53,-2.61,-2.8,-1.44,348.82,351.86,0.06,0.02,3
23934,74773719,-3.55,-2.78,-2.83,-1.45,348.82,351.82,0.06,0.02,3
23979,74784752,-3.56,-2.92,-2.86,-1.39,348.83,351.77,0.06,0.02,3
24023,74794807,-3.58,-3.02,-2.88,-1.39,348.83,351.75,0.06,0.02,3
24065,74806218,-3.59,-3.1,-2.92,-1.45,348.83,351.73,0.06,0.02,3
24107,74817225,-3.59,-3.24,-2.95,-1.45,348.83,351.68,0.06,0.02,3
24152,74827762,-3.6,-3.39,-3,-1.42,348.83,351.65,0.06,0.02,3
24197,74838158,-3.6,-3.54,-3.04,-1.39,348.84,351.61,0.06,0.02,3
24242,74848593,-3.61,-3.59,-3.09,-1.41,348.84,351.57,0.06,0.02,3
24290,74859104,-3.62,-3.62,-3.13,-1.45,348.84,351.55,0.06,0.02,3
24335,74869698,-3.63,-3.7,-3.18,-1.5,348.85,351.52,0.06,0.02,3
24379,74879745,-3.64,-3.78,-3.22,-1.52,348.85,351.49,0.06,0.02,3
24425,74889797,-3.65,-3.84,-3.27,-1.51,348.85,351.45,0.06,0.02,3
24469,74906958,-3.66,-3.83,-3.32,-1.56,348.86,351.4,0.06,0.02,3
24512,74919302,-3.66,-3.87,-3.35,-1.53,348.86,351.36,0.06,0.02,3
24557,74929715,-3.67,-3.82,-3.4,-1.61,348.86,351.33,0.06,0.02,3
24604,74940261,-3.67,-3.78,-3.44,-1.68,348.86,351.3,0.06,0.02,3
24649,74950713,-3.67,-3.82,-3.48,-1.7,348.87,351.25,0.06,0.02,3
24694,74961293,-3.66,-3.87,-3.51,-1.69,348.87,351.23,0.06,0.02,3
24742,74971720,-3.64,-3.85,-3.54,-1.73,348.87,351.21,0.06,0.02,3
24787,74982090,-3.62,-3.77,-3.58,-1.8,348.87,351.2,0.06,0.02,3
24831,74992692,-3.6,-3.7,-3.61,-1.85,348.87,351.18,0.06,0.02,3
24878,75003277,-3.57,-3.66,-3.64,-1.89,348.88,351.16,0.06,0.02,3
24924,75020896,-3.55,-3.62,-3.66,-1.97,348.88,351.15,0.06,0.02,3
24969,75031231,-3.52,-3.65,-3.68,-1.98,348.88,351.13,0.06,0.02,3
25013,75041763,-3.49,-3.62,-3.69,-2,348.88,351.12,0.06,0.02,3
25059,75052347,-3.46,-3.55,-3.7,-2.06,348.88,351.12,0.06,0.02,3
25103,75063109,-3.44,-3.45,-3.71,-2.16,348.88,351.12,0.06,0.02,3
25153,75073783,-3.42,-3.37,-3.72,-2.21,348.88,351.12,0.06,0.02,3
25198,75084027,-3.4,-3.32,-3.73,-2.23,348.88,351.11,0.06,0.02,3
25242,75093888,-3.39,-3.25,-3.74,-2.24,348.88,351.11,0.06,0.02,3
25289,75104799,-3.38,-3.17,-3.75,-2.29,348.88,351.12,0.06,0.02,3
25330,75120027,-3.37,-3.05,-3.76,-2.34,348.88,351.11,0.07000000000000001,0.02,3
25369,75132756,-3.37,-2.9,-3.77,-2.45,348.88,351.14,0.07000000000000001,0.02,3
25413,75143760,-3.38,-2.82,-3.78,-2.5,348.88,351.14,0.07000000000000001,0.02,3
25459,75154242,-3.38,-2.75,-3.79,-2.5,348.88,351.13,0.07000000000000001,0.02,3
25504,75164809,-3.38,-2.71,-3.79,-2.52,348.89,351.15,0.07000000000000001,0.02,3
25549,75175059,-3.38,-2.62,-3.8,-2.57,348.89,351.18,0.07000000000000001,0.02,3
25598,75185117,-3.39,-2.5,-3.8,-2.66,348.89,351.2,0.07000000000000001,0.02,3
25642,75195581,-3.41,-2.43,-3.8,-2.7,348.89,351.22,0.07000000000000001,0.02,3
25686,75206590,-3.43,-2.41,-3.8,-2.74,348.89,351.24,0.07000000000000001,0.02,3
25730,75217444,-3.45,-2.36,-3.8,-2.76,348.89,351.25,0.07000000000000001,0.02,3
25771,75232472,-3.48,-2.23,-3.8,-2.84,348.89,351.31,0.07000000000000001,0.02,3
25816,75243124,-3.51,-2.2,-3.79,-2.84,348.89,351.32,0.07000000000000001,0.02,3
25860,75253793,-3.55,-2.14,-3.79,-2.85,348.88,351.36,0.07000000000000001,0.02,3
25905,75264058,-3.58,-2.05,-3.78,-2.89,348.88,351.4,0.07000000000000001,0.02,3
25950,75274273,-3.62,-1.98,-3.78,-2.96,348.88,351.44,0.07000000000000001,0.02,3
25998,75284771,-3.67,-1.99,-3.77,-3.04,348.88,351.46,0.07000000000000001,0.02,3
26046,75295271,-3.71,-2.03,-3.77,-3.03,348.88,351.49,0.07000000000000001,0.02,3
26093,75313078,-3.76,-1.99,-3.75,-3.06,348.88,351.54,0.07000000000000001,0.02,3
26137,75323699,-3.79,-2.03,-3.73,-3.07,348.88,351.51,0.07000000000000001,0.02,3
26184,75333762,-3.83,-2.02,-3.7,-3.14,348.88,351.49,0.07000000000000001,0.02,3
26223,75346277,-3.85,-2.01,-3.69,-3.23,348.88,351.46,0.07000000000000001,0.02,3
26267,75357195,-3.91,-2.03,-3.66,-3.26,348.88,351.42,0.07000000000000001,0.02,3
26312,75368102,-3.96,-2.06,-3.61,-3.29,348.87,351.4,0.07000000000000001,0.02,3
26357,75378462,-4.02,-2.03,-3.55,-3.37,348.87,351.38,0.07000000000000001,0.02,3
26401,75388487,-4.08,-2,-3.49,-3.46,348.86,351.35,0.07000000000000001,0.02,3
26451,75398737,-4.14,-2,-3.43,-3.53,348.86,351.3,0.07000000000000001,0.02,3
26498,75409003,-4.21,-2.06,-3.37,-3.58,348.86,351.27,0.07000000000000001,0.02,3
26543,75419214,-4.27,-2.14,-3.31,-3.62,348.85,351.24,0.07000000000000001,0.02,3
26588,75429267,-4.32,-2.18,-3.24,-3.66,348.85,351.2,0.07000000000000001,0.02,3
26632,75440221,-4.38,-2.21,-3.17,-3.71,348.84,351.17,0.07000000000000001,0.02,3
26677,75450298,-4.43,-2.25,-3.11,-3.76,348.84,351.15,0.07000000000000001,0.02,3
26716,75463000,-4.45,-2.37,-3.07,-3.72,348.83,351.1,0.07000000000000001,0.02,3
26760,75473326,-4.5,-2.42,-3.01,-3.7,348.83,351.08,0.07000000000000001,0.02,3
26805,75483258,-4.54,-2.5,-2.94,-3.71,348.82,351.07,0.07000000000000001,0.02,3
26851,75493094,-4.58,-2.6,-2.88,-3.73,348.82,351.07,0.07000000000000001,0.02,3
26900,75504136,-4.63,-2.67,-2.81,-3.72,348.81,351.03,0.07000000000000001,0.02,3
26946,75514663,-4.67,-2.77,-2.74,-3.63,348.81,351.02,0.07000000000000001,0.03,3
26992,75528794,-4.72,-2.91,-2.65,-3.64,348.8,351.02,0.07000000000000001,0.03,3
27034,75540036,-4.76,-3.06,-2.57,-3.5,348.79,351.05,0.07000000000000001,0.03,3
27075,75552025,-4.78,-3.12,-2.52,-3.47,348.79,351.09,0.07000000000000001,0.03,3
27120,75565676,-4.82,-3.29,-2.44,-3.33,348.78,351.11,0.07000000000000001,0.03,3
27165,75576063,-4.85,-3.39,-2.38,-3.24,348.78,351.15,0.07000000000000001,0.03,3
27209,75586260,-4.87,-3.43,-2.32,-3.19,348.77,351.21,0.07000000000000001,0.03,3
27254,75596273,-4.88,-3.52,-2.26,-3.1,348.77,351.25,0.07000000000000001,0.03,3
27298,75606765,-4.89,-3.65,-2.21,-2.97,348.76,351.29,0.07000000000000001,0.03,3
27348,75617656,-4.9,-3.8,-2.16,-2.82,348.76,351.34,0.07000000000000001,0.03,3
27393,75627498,-4.91,-3.9,-2.11,-2.7,348.75,351.39,0.07000000000000001,0.03,3
27437,75638095,-4.91,-3.96,-2.07,-2.59,348.75,351.44,0.07000000000000001,0.03,3
27482,75648561,-4.9,-4.05,-2.03,-2.5,348.75,351.5,0.07000000000000001,0.03,3
27520,75661103,-4.9,-4.16,-2.01,-2.36,348.74,351.55,0.07000000000000001,0.03,3
27565,75671793,-4.89,-4.24,-1.97,-2.24,348.74,351.61,0.07000000000000001,0.03,3
27611,75682629,-4.87,-4.32,-1.92,-2.16,348.74,351.68,0.07000000000000001,0.03,3
27655,75693001,-4.86,-4.37,-1.88,-2.12,348.73,351.73,0.07000000000000001,0.03,3
27699,75704252,-4.84,-4.43,-1.83,-1.97,348.73,351.78,0.06,0.03,3
27740,75715151,-4.81,-4.49,-1.78,-1.87,348.73,351.87,0.06,0.03,3
27789,75725769,-4.78,-4.49,-1.74,-1.84,348.72,351.97,0.06,0.03,3
27834,75736049,-4.75,-4.52,-1.71,-1.78,348.72,352.07,0.06,0.03,3
27878,75746764,-4.72,-4.59,-1.69,-1.69,348.72,352.16,0.06,0.03,3
27924,75757002,-4.68,-4.58,-1.68,-1.58,348.72,352.24,0.06,0.03,3
27968,75767196,-4.64,-4.57,-1.67,-1.49,348.72,352.34,0.06,0.03,3
28007,75779824,-4.62,-4.5,-1.67,-1.52,348.72,352.47,0.06,0.03,3
28052,75790087,-4.58,-4.55,-1.67,-1.42,348.72,352.54,0.06,0.03,3
28096,75800284,-4.53,-4.58,-1.68,-1.32,348.72,352.63,0.06,0.03,3
28143,75810528,-4.47,-4.54,-1.69,-1.27,348.72,352.73,0.06,0.03,3
28187,75820781,-4.41,-4.47,-1.71,-1.25,348.72,352.83,0.06,0.03,3
28236,75831195,-4.35,-4.41,-1.73,-1.24,348.72,352.91,0.06,0.02,3
28281,75841796,-4.29,-4.36,-1.75,-1.21,348.72,352.98,0.06,0.02,3
28325,75852589,-4.23,-4.35,-1.77,-1.16,348.72,353.08,0.06,0.02,3
28370,75863017,-4.17,-4.3,-1.78,-1.13,348.72,353.15,0.06,0.02,3
28413,75878500,-4.13,-4.2,-1.8,-1.15,348.73,353.24,0.06,0.02,3
28459,75889661,-4.07,-4.12,-1.83,-1.13,348.73,353.33,0.06,0.02,3
28504,75900029,-4.01,-4.06,-1.86,-1.19,348.73,353.42,0.06,0.02,3
28550,75910696,-3.95,-3.95,-1.89,-1.19,348.73,353.47,0.06,0.02,3
28595,75925602,-3.87,-3.85,-1.91,-1.22,348.73,353.57,0.06,0.02,3
28644,75936299,-3.8,-3.77,-1.93,-1.24,348.73,353.62,0.06,0.02,3
28690,75946750,-3.74,-3.75,-1.94,-1.25,348.74,353.67,0.06,0.02,3
28735,75958005,-3.67,-3.67,-1.96,-1.21,348.74,353.73,0.06,0.02,3
28780,75972038,-3.61,-3.55,-1.97,-1.33,348.74,353.82,0.06,0.02,3
28824,75982562,-3.54,-3.53,-1.98,-1.28,348.74,353.86,0.06,0.02,3
28870,75996708,-3.48,-3.37,-1.99,-1.32,348.74,353.95,0.06,0.02,3
28915,76006843,-3.43,-3.29,-2,-1.34,348.74,354,0.06,0.02,3
28960,76017790,-3.37,-3.28,-2.01,-1.33,348.74,354.05,0.06,0.02,3
29007,76028590,-3.32,-3.28,-2.01,-1.32,348.74,354.09,0.06,0.02,3
29051,76039218,-3.27,-3.21,-2.02,-1.31,348.74,354.13,0.06,0.02,3
29100,76049886,-3.22,-3.14,-2.02,-1.36,348.74,354.2,0.06,0.02,3
29144,76060453,-3.18,-3.09,-2.03,-1.4,348.74,354.22,0.06,0.02,3
29189,76070669,-3.14,-3.07,-2.03,-1.4,348.74,354.26,0.06,0.02,3
29234,76081044,-3.11,-3.08,-2.03,-1.39,348.74,354.3,0.06,0.02,3
29275,76096140,-3.09,-2.95,-2.03,-1.47,348.74,354.35,0.06,0.02,3
29320,76106690,-3.05,-2.98,-2.02,-1.46,348.74,354.38,0.06,0.02,3
29364,76118563,-3.01,-2.94,-2.01,-1.41,348.74,354.41,0.05,0.02,3
29405,76129715,-2.98,-2.9,-2,-1.45,348.74,354.46,0.05,0.02,3
29450,76139773,-2.95,-2.84,-1.98,-1.5,348.74,354.48,0.05,0.02,3
29495,76150140,-2.92,-2.76,-1.96,-1.55,348.74,354.49,0.05,0.02,3
29543,76160713,-2.89,-2.79,-1.93,-1.58,348.74,354.5,0.05,0.01,3
29587,76171560,-2.86,-2.85,-1.89,-1.55,348.73,354.52,0.05,0.01,3
29631,76181706,-2.83,-2.84,-1.85,-1.55,348.73,354.53,0.05,0.01,3
29676,76191768,-2.79,-2.82,-1.81,-1.55,348.73,354.55,0.05,0.01,3
29718,76203281,-2.76,-2.76,-1.78,-1.56,348.73,354.56,0.05,0.01,3
29762,76217242,-2.73,-2.75,-1.74,-1.54,348.73,354.57,0.05,0.01,3
29809,76227727,-2.7,-2.75,-1.7,-1.52,348.72,354.58,0.05,0.01,3
29854,76238448,-2.66,-2.74,-1.66,-1.5,348.72,354.58,0.05,0.01,3
29898,76249114,-2.62,-2.75,-1.61,-1.51,348.72,354.59,0.05,0.01,3
29947,76260150,-2.59,-2.77,-1.57,-1.53,348.72,354.56,0.05,0.01,3
29991,76270355,-2.56,-2.71,-1.52,-1.51,348.72,354.55,0.05,0.01,3
30036,76280823,-2.53,-2.7,-1.47,-1.48,348.71,354.54,0.05,0.01,3
30080,76290985,-2.5,-2.72,-1.42,-1.45,348.71,354.53,0.05,0.01,3
30128,76304913,-2.47,-2.61,-1.38,-1.46,348.71,354.52,0.05,0.01,3
30167,76317518,-2.44,-2.67,-1.33,-1.41,348.71,354.49,0.05,0.01,3
30208,76329029,-2.4,-2.71,-1.28,-1.33,348.71,354.47,0.05,0.01,3
30253,76339265,-2.37,-2.62,-1.24,-1.3,348.7,354.45,0.05,0.01,3
30300,76349563,-2.34,-2.64,-1.19,-1.28,348.7,354.43,0.05,0.01,3
30346,76359924,-2.31,-2.66,-1.15,-1.26,348.7,354.41,0.05,0.01,3
30395,76370594,-2.28,-2.63,-1.11,-1.23,348.7,354.38,0.05,0.01,3
30439,76381541,-2.26,-2.64,-1.07,-1.18,348.7,354.35,0.05,0.01,3
30484,76392369,-2.24,-2.68,-1.04,-1.14,348.7,354.32,0.05,0.01,3
30530,76402917,-2.23,-2.73,-1.01,-1.05,348.69,354.3,0.05,0.01,3
30572,76418096,-2.22,-2.71,-0.99,-1.07,348.69,354.25,0.05,0.01,3
30616,76429042,-2.2,-2.73,-0.95,-1.02,348.69,354.22,0.05,0.01,3
30662,76439752,-2.19,-2.71,-0.92,-0.99,348.69,354.2,0.05,0.01,3
30706,76449898,-2.17,-2.69,-0.88,-0.98,348.69,354.18,0.05,0.01,3
30750,76460493,-2.15,-2.66,-0.84,-1,348.69,354.15,0.05,0.01,3
30795,76470579,-2.14,-2.63,-0.8100000000000001,-1.03,348.69,354.12,0.05,0.01,3
30844,76480531,-2.13,-2.67,-0.78,-1.04,348.69,354.1,0.05,0.01,3
30888,76490946,-2.11,-2.68,-0.75,-1.04,348.68,354.08,0.05,0.01,3
30935,76502093,-2.1,-2.7,-0.72,-1.04,348.68,354.04,0.05,0.01,3
30976,76520554,-2.08,-2.71,-0.6899999999999999,-1.04,348.68,354,0.05,0.01,3
31021,76531142,-2.06,-2.8,-0.67,-0.98,348.68,353.97,0.05,0.01,3
31063,76542871,-2.04,-2.77,-0.66,-0.96,348.68,353.95,0.05,0.01,3
31107,76553040,-2.02,-2.69,-0.64,-0.98,348.68,353.93,0.05,0.01,3
31152,76563677,-2.01,-2.64,-0.62,-1,348.68,353.91,0.05,0.01,3
31197,76573774,-1.99,-2.63,-0.59,-1.02,348.68,353.88,0.05,0.01,3
31246,76584551,-1.98,-2.63,-0.5600000000000001,-1.04,348.68,353.86,0.05,0.01,3
31291,76595047,-1.97,-2.57,-0.53,-1.08,348.68,353.83,0.05,0.01,3
31336,76606013,-1.96,-2.58,-0.51,-1.1,348.68,353.8,0.05,0.01,3
31381,76617126,-1.96,-2.54,-0.48,-1.07,348.68,353.77,0.05,0.01,3
31423,76632054,-1.95,-2.48,-0.46,-1.1,348.67,353.74,0.05,0.01,3
31467,76642160,-1.94,-2.42,-0.43,-1.1,348.67,353.72,0.05,0.01,3
31512,76652471,-1.93,-2.37,-0.4,-1.1,348.67,353.69,0.05,0.01,3
31557,76662313,-1.92,-2.38,-0.38,-1.1,348.67,353.67,0.05,0.01,3
31601,76672666,-1.91,-2.4,-0.36,-1.07,348.67,353.64,0.05,0.01,3
31647,76682750,-1.9,-2.38,-0.34,-1.02,348.67,353.62,0.05,0.01,3
31695,76692894,-1.89,-2.33,-0.32,-0.98,348.67,353.59,0.05,0.01,3
31738,76704801,-1.88,-2.3,-0.31,-0.91,348.67,353.58,0.06,0.01,3
31782,76715750,-1.87,-2.23,-0.3,-0.88,348.67,353.55,0.06,0.01,3
31827,76726429,-1.86,-2.2,-0.3,-0.88,348.67,353.53,0.06,0.01,3
31871,76736682,-1.84,-2.19,-0.3,-0.85,348.67,353.52,0.06,0.01,3
31916,76754337,-1.83,-2.13,-0.3,-0.79,348.67,353.48,0.06,0.01,3
31962,76764465,-1.82,-2.13,-0.3,-0.79,348.67,353.46,0.06,0.01,3
32008,76775103,-1.8,-2.13,-0.31,-0.77,348.67,353.44,0.06,0.01,3
32052,76785075,-1.79,-2.14,-0.32,-0.78,348.67,353.4,0.06,0.01,3
32097,76795533,-1.78,-2.06,-0.33,-0.79,348.67,353.38,0.06,0.01,3
32145,76805602,-1.78,-2.02,-0.35,-0.79,348.67,353.35,0.06,0.01,3
32190,76816037,-1.78,-2.03,-0.36,-0.79,348.67,353.32,0.06,0.01,3
32235,76826495,-1.77,-2.07,-0.37,-0.78,348.67,353.28,0.06,0.01,3
32279,76836708,-1.76,-2.04,-0.38,-0.75,348.67,353.25,0.06,0.01,3
32319,76849248,-1.76,-2.06,-0.38,-0.65,348.67,353.22,0.06,0.01,3
32365,76859506,-1.74,-2.01,-0.38,-0.6899999999999999,348.67,353.18,0.06,0.01,3
32409,76870493,-1.74,-1.95,-0.39,-0.68,348.67,353.14,0.06,0.01,3
32455,76880763,-1.73,-1.9,-0.41,-0.6899999999999999,348.67,353.11,0.06,0.01,3
32499,76891749,-1.72,-1.87,-0.44,-0.72,348.67,353.07,0.06,0.01,3
32546,76902504,-1.72,-1.85,-0.46,-0.76,348.67,353.03,0.06,0.01,3
32596,76913271,-1.73,-1.78,-0.49,-0.76,348.68,352.98,0.06,0.01,3
32635,76925097,-1.73,-1.79,-0.51,-0.65,348.68,352.95,0.05,0.01,3
32680,76935799,-1.74,-1.75,-0.53,-0.64,348.68,352.93,0.05,0.01,3
32726,76946210,-1.74,-1.68,-0.5600000000000001,-0.61,348.68,352.92,0.05,0.01,3
32768,76957770,-1.74,-1.61,-0.59,-0.59,348.68,352.91,0.05,0.01,3
32813,76968579,-1.75,-1.53,-0.63,-0.64,348.68,352.9,0.05,0.01,3
32857,76979052,-1.74,-1.48,-0.67,-0.63,348.68,352.89,0.05,0.01,3
32903,76989777,-1.74,-1.42,-0.71,-0.68,348.68,352.86,0.05,0.01,3
32944,77001755,-1.73,-1.46,-0.74,-0.72,348.68,352.81,0.05,0.01,3
32988,77012032,-1.71,-1.46,-0.78,-0.71,348.68,352.8,0.05,0.01,3
33037,77022093,-1.68,-1.5,-0.82,-0.7,348.69,352.78,0.05,0.01,3
33083,77032816,-1.65,-1.55,-0.85,-0.6899999999999999,348.69,352.76,0.05,0.01,3
33128,77043476,-1.63,-1.56,-0.88,-0.6899999999999999,348.69,352.72,0.05,0.01,3
33173,77053674,-1.61,-1.58,-0.9,-0.6899999999999999,348.69,352.69,0.05,0.01,3
33214,77065009,-1.6,-1.6,-0.92,-0.63,348.69,352.66,0.05,0.01,3
33259,77075776,-1.59,-1.56,-0.95,-0.67,348.69,352.64,0.05,0.01,3
33301,77087834,-1.58,-1.4,-0.98,-0.79,348.69,352.59,0.05,0.01,3
33345,77098412,-1.57,-1.35,-1.01,-0.85,348.69,352.53,0.05,0.01,3
33393,77109113,-1.57,-1.37,-1.04,-0.88,348.69,352.5,0.05,0.01,3
33439,77123494,-1.57,-1.45,-1.07,-0.96,348.69,352.38,0.07000000000000001,0.01,3
33484,77133759,-1.58,-1.48,-1.07,-0.98,348.69,352.3,0.07000000000000001,0.01,3
33528,77144130,-1.59,-1.42,-1.05,-1.09,348.69,352.23,0.07000000000000001,0.01,3
33573,77154539,-1.61,-1.36,-1.04,-1.13,348.69,352.14,0.07000000000000001,0.01,3
33614,77165721,-1.62,-1.31,-1.02,-1.19,348.69,352.06,0.07000000000000001,0.01,3
33659,77175826,-1.64,-1.25,-0.99,-1.21,348.69,351.97,0.07000000000000001,0.01,3
33701,77187362,-1.67,-1.16,-0.98,-1.28,348.69,351.9,0.07000000000000001,0.01,3
33745,77198026,-1.69,-1.18,-0.96,-1.3,348.69,351.82,0.07000000000000001,0.01,3
33790,77208672,-1.72,-1.13,-0.9399999999999999,-1.34,348.69,351.72,0.07000000000000001,0.01,3
33835,77219020,-1.74,-1.1,-0.93,-1.32,348.69,351.64,0.07000000000000001,0.01,3
33884,77229594,-1.76,-1.12,-0.91,-1.33,348.69,351.56,0.07000000000000001,0.01,3
33929,77240092,-1.78,-1.16,-0.9,-1.26,348.69,351.48,0.07000000000000001,0.01,3
33973,77250555,-1.8,-1.18,-0.88,-1.23,348.69,351.41,0.07000000000000001,0.01,3
34019,77260902,-1.82,-1.18,-0.86,-1.21,348.69,351.34,0.07000000000000001,0.01,3
34063,77275109,-1.83,-1.35,-0.84,-0.98,348.69,351.28,0.07000000000000001,0.01,3
34108,77289653,-1.85,-1.3,-0.8100000000000001,-0.96,348.68,351.21,0.07000000000000001,0.01,3
34152,77300109,-1.86,-1.37,-0.79,-0.91,348.68,351.16,0.07000000000000001,0.01,3
34196,77311252,-1.87,-1.44,-0.77,-0.8,348.68,351.13,0.09,0.01,3
34238,77322064,-1.88,-1.58,-0.76,-0.64,348.68,351.13,0.09,0.01,3
34282,77332313,-1.88,-1.61,-0.75,-0.58,348.68,351.13,0.09,0.01,3
34331,77342764,-1.89,-1.61,-0.76,-0.53,348.68,351.15,0.09,0.01,3
34376,77353456,-1.9,-1.65,-0.76,-0.46,348.68,351.16,0.09,0.01,3
34421,77363589,-1.91,-1.68,-0.77,-0.45,348.68,351.19,0.09,0.01,3
34466,77373729,-1.92,-1.69,-0.77,-0.45,348.68,351.22,0.09,0.01,3
34507,77385085,-1.92,-1.79,-0.78,-0.36,348.68,351.25,0.09,0.01,3
34554,77399126,-1.92,-1.72,-0.79,-0.31,348.68,351.3,0.09,0.01,3
34598,77409438,-1.93,-1.76,-0.79,-0.32,348.68,351.34,0.09,0.01,3
34643,77419813,-1.94,-1.81,-0.79,-0.33,348.68,351.37,0.09,0.01,3
34691,77430431,-1.94,-1.84,-0.8,-0.36,348.68,351.41,0.09,0.01,3
34735,77441068,-1.95,-1.91,-0.8100000000000001,-0.37,348.68,351.45,0.09,0.01,3
34784,77452011,-1.95,-1.89,-0.83,-0.4,348.69,351.5,0.09,0.02,3
34828,77462467,-1.96,-1.88,-0.85,-0.48,348.69,351.55,0.09,0.02,3
34873,77472904,-1.96,-1.84,-0.88,-0.54,348.69,351.58,0.09,0.02,3
34918,77483156,-1.97,-1.8,-0.9,-0.64,348.69,351.62,0.09,0.02,3
34959,77494539,-1.97,-1.79,-0.91,-0.72,348.69,351.66,0.09,0.02,3
35004,77508592,-1.98,-2,-0.92,-0.8,348.69,351.7,0.09,0.02,3
35051,77519048,-1.99,-2.01,-0.95,-0.86,348.69,351.74,0.09,0.02,3
35089,77530381,-1.98,-2.1,-0.97,-0.84,348.69,351.78,0.09,0.02,3
35134,77541523,-1.99,-2.03,-1,-0.93,348.69,351.82,0.09,0.02,3
35184,77551911,-2.01,-2.02,-1.02,-0.95,348.69,351.85,0.09,0.02,3
35229,77562216,-2.02,-2.07,-1.05,-0.99,348.69,351.88,0.09,0.02,3
35273,77572328,-2.03,-2.1,-1.08,-1.04,348.69,351.91,0.09,0.02,3
35318,77582671,-2.05,-2.11,-1.11,-1.08,348.69,351.94,0.09,0.02,3
35359,77593755,-2.06,-2.14,-1.13,-1.08,348.7,351.97,0.09,0.02,3
35401,77605586,-2.07,-2.13,-1.16,-1.1,348.7,352.01,0.09,0.02,3
35445,77615589,-2.08,-2.17,-1.21,-1.12,348.7,352.01,0.09,0.02,3
35489,77626003,-2.1,-2.21,-1.25,-1.14,348.7,352.02,0.09,0.02,3
35533,77636768,-2.11,-2.29,-1.3,-1.12,348.7,352.05,0.09,0.02,3
35578,77647175,-2.13,-2.36,-1.35,-1.13,348.7,352.07,0.09,0.02,3
35628,77658131,-2.16,-2.4,-1.4,-1.15,348.71,352.07,0.09,0.02,3
35673,77668242,-2.2,-2.4,-1.45,-1.19,348.71,352.07,0.09,0.02,3
35717,77678713,-2.24,-2.45,-1.49,-1.23,348.71,352.07,0.09,0.02,3
35762,77688906,-2.27,-2.54,-1.53,-1.24,348.71,352.08,0.09,0.02,3
35807,77699276,-2.31,-2.61,-1.56,-1.22,348.71,352.06,0.09,0.02,3
35847,77711780,-2.33,-2.61,-1.59,-1.31,348.71,352.07,0.09,0.02,3
35885,77723250,-2.37,-2.61,-1.62,-1.44,348.71,352.06,0.09,0.02,3
35930,77733507,-2.45,-2.69,-1.66,-1.43,348.72,352.04,0.09,0.02,3
35975,77743771,-2.53,-2.77,-1.7,-1.41,348.72,352.03,0.09,0.02,3
36019,77753600,-2.61,-2.87,-1.74,-1.4,348.72,352.01,0.09,0.02,3
36068,77764540,-2.7,-2.98,-1.77,-1.39,348.72,352,0.09,0.02,3
36113,77775064,-2.78,-3.02,-1.81,-1.46,348.72,351.98,0.09,0.02,3
36158,77785697,-2.86,-3.05,-1.84,-1.5,348.72,351.97,0.09,0.02,3
36204,77795690,-2.94,-3.08,-1.86,-1.5,348.73,351.95,0.09,0.02,3
36248,77805757,-3.03,-3.15,-1.88,-1.5,348.73,351.93,0.09,0.02,3
36290,77817175,-3.09,-3.23,-1.88,-1.63,348.73,351.9,0.09,0.02,3
36334,77827673,-3.22,-3.31,-1.88,-1.61,348.73,351.89,0.09,0.02,3
36376,77839013,-3.31,-3.37,-1.87,-1.66,348.73,351.88,0.09,0.02,3
36421,77849108,-3.45,-3.42,-1.85,-1.67,348.72,351.86,0.09,0.02,3
36465,77859796,-3.58,-3.53,-1.81,-1.69,348.72,351.85,0.09,0.02,3
36514,77870647,-3.71,-3.65,-1.76,-1.71,348.72,351.83,0.09,0.02,3
36558,77880824,-3.83,-3.73,-1.72,-1.7,348.72,351.83,0.09,0.02,3
36606,77891075,-3.97,-3.84,-1.67,-1.67,348.71,351.82,0.09,0.02,3
36653,77904753,-4.14,-4.03,-1.59,-1.51,348.71,351.81,0.09,0.02,3
36695,77915919,-4.28,-4.07,-1.53,-1.46,348.7,351.81,0.09,0.02,3
36736,77930144,-4.43,-4.29,-1.46,-1.48,348.7,351.8,0.09,0.02,3
36783,77943287,-4.67,-4.44,-1.31,-1.29,348.69,351.82,0.09,0.02,3
36829,77953825,-4.85,-4.58,-1.19,-1.18,348.68,351.83,0.09,0.02,3
36874,77964075,-5.02,-4.65,-1.06,-1.04,348.66,351.86,0.09,0.02,3
36919,77973916,-5.18,-4.78,-0.91,-0.95,348.65,351.88,0.09,0.02,3
36968,77984539,-5.34,-4.9,-0.74,-0.8100000000000001,348.63,351.9,0.09,0.03,3
37013,77994905,-5.49,-5.07,-0.57,-0.66,348.62,351.92,0.09,0.03,3
37059,78005275,-5.65,-5.19,-0.39,-0.55,348.6,351.94,0.09,0.03,3
37103,78015338,-5.8,-5.25,-0.22,-0.44,348.58,351.96,0.09,0.03,3
37145,78026721,-5.91,-5.32,-0.06,-0.32,348.57,351.99,0.09,0.03,3
37188,78038732,-6.02,-5.57,0.09,-0.14,348.55,352.01,0.09,0.03,3
37233,78048919,-6.14,-5.72,0.32,0.02,348.53,352.03,0.09,0.03,3
37278,78058826,-6.25,-5.82,0.53,0.21,348.5,352.05,0.09,0.03,3
37322,78069047,-6.36,-5.92,0.76,0.4,348.48,352.06,0.09,0.03,3
37367,78079125,-6.46,-6.02,0.97,0.61,348.45,352.08,0.09,0.03,3
37415,78089745,-6.56,-6.15,1.19,0.85,348.43,352.09,0.09,0.03,3
37459,78100260,-6.66,-6.3,1.4,1.08,348.41,352.1,0.09,0.03,3
37504,78110533,-6.75,-6.39,1.62,1.3,348.38,352.11,0.09,0.03,3
37550,78121073,-6.82,-6.48,1.84,1.52,348.35,352.12,0.08,0.03,3
37590,78133063,-6.85,-6.53,1.94,1.79,348.34,352.13,0.08,0.03,3
37629,78145145,-6.88,-6.6,2.05,1.94,348.33,352.13,0.08,0.03,3
37673,78155112,-6.93,-6.66,2.27,2.12,348.3,352.13,0.08,0.03,3
37718,78165135,-6.97,-6.7,2.48,2.3,348.28,352.13,0.08,0.03,3
37762,78175519,-6.99,-6.76,2.68,2.48,348.25,352.12,0.08,0.03,3
37807,78185747,-7.01,-6.85,2.88,2.66,348.23,352.12,0.08,0.03,3
37855,78196295,-7.04,-6.92,3.07,2.83,348.2,352.11,0.08,0.03,3
37900,78206931,-7.06,-7,3.26,3.01,348.18,352.09,0.08,0.03,3
37945,78217185,-7.08,-7.11,3.46,3.21,348.15,352.06,0.08,0.03,3
37991,78228092,-7.09,-7.15,3.66,3.39,348.13,352.06,0.08,0.03,3
38036,78242104,-7.1,-7.29,3.85,3.79,348.11,352.03,0.08,0.03,3
38080,78256255,-7.12,-7.24,4.03,3.89,348.08,351.98,0.08,0.03,3
38125,78267434,-7.13,-7.28,4.19,4.08,348.06,351.95,0.08,0.03,3
38170,78278439,-7.14,-7.37,4.34,4.31,348.04,351.94,0.08,0.03,3
38214,78288822,-7.15,-7.42,4.5,4.53,348.02,351.89,0.08,0.03,3
38263,78299739,-7.15,-7.42,4.65,4.7,348.01,351.86,0.08,0.03,3
38308,78310374,-7.15,-7.39,4.79,4.92,347.99,351.84,0.08,0.03,3
38352,78324589,-7.16,-7.19,4.93,5,347.97,351.82,0.07000000000000001,0.03,3
38393,78335804,-7.15,-7.26,5.03,5.18,347.96,351.75,0.07000000000000001,0.03,3
38437,78346530,-7.14,-7.2,5.14,5.29,347.94,351.73,0.07000000000000001,0.03,3
38480,78358123,-7.12,-7.2,5.22,5.48,347.93,351.67,0.07000000000000001,0.03,3
38525,78368722,-7.1,-7.22,5.32,5.68,347.92,351.62,0.07000000000000001,0.03,3
38569,78379167,-7.08,-7.13,5.41,5.81,347.91,351.59,0.07000000000000001,0.03,3
38616,78389484,-7.06,-7.07,5.49,5.93,347.9,351.56,0.07000000000000001,0.03,3
38660,78400070,-7.03,-6.99,5.56,6.02,347.89,351.53,0.07000000000000001,0.03,3
38710,78410265,-7,-6.91,5.64,6.16,347.88,351.5,0.07000000000000001,0.02,3
38755,78420678,-6.98,-6.82,5.71,6.24,347.87,351.47,0.07000000000000001,0.02,3
38800,78431559,-6.97,-6.7,5.79,6.29,347.86,351.44,0.07000000000000001,0.02,3
38845,78441750,-6.97,-6.59,5.86,6.3,347.85,351.41,0.07000000000000001,0.02,3
38889,78452089,-6.97,-6.46,5.92,6.29,347.85,351.4,0.07000000000000001,0.02,3
38930,78463892,-6.97,-6.39,5.97,6.3,347.84,351.37,0.07000000000000001,0.02,3
38974,78474702,-6.97,-6.35,6.03,6.31,347.83,351.34,0.07000000000000001,0.02,3
39016,78486586,-6.96,-6.4,6.08,6.39,347.83,351.31,0.07000000000000001,0.02,3
39061,78497026,-6.95,-6.36,6.13,6.42,347.82,351.28,0.07000000000000001,0.02,3
39109,78508053,-6.92,-6.32,6.18,6.48,347.81,351.26,0.07000000000000001,0.02,3
39152,78519572,-6.9,-6.23,6.21,6.55,347.81,351.23,0.07000000000000001,0.02,3
39198,78530591,-6.88,-6.22,6.25,6.56,347.81,351.2,0.07000000000000001,0.02,3
39242,78541012,-6.84,-6.13,6.27,6.47,347.8,351.19,0.07000000000000001,0.02,3
39288,78551229,-6.82,-6.06,6.3,6.42,347.8,351.14,0.07000000000000001,0.02,3
39329,78562328,-6.81,-6,6.32,6.42,347.8,351.1,0.07000000000000001,0.02,3
39374,78576685,-6.79,-6.03,6.34,6.48,347.8,351.04,0.07000000000000001,0.02,3
39418,78587695,-6.78,-5.96,6.37,6.47,347.79,351.01,0.07000000000000001,0.02,3
39463,78598074,-6.76,-5.96,6.4,6.45,347.79,350.97,0.07000000000000001,0.02,3
39508,78608677,-6.75,-5.86,6.42,6.33,347.79,350.95,0.07000000000000001,0.02,3
39552,78619249,-6.75,-5.81,6.45,6.28,347.78,350.91,0.07000000000000001,0.02,3
39601,78630073,-6.75,-5.74,6.48,6.18,347.78,350.86,0.07000000000000001,0.02,3
39648,78640712,-6.77,-5.7,6.52,6.11,347.77,350.81,0.07000000000000001,0.02,3
39695,78653534,-6.79,-5.73,6.57,6.16,347.77,350.75,0.07000000000000001,0.02,3
39740,78667184,-6.81,-5.62,6.62,6.03,347.76,350.72,0.07000000000000001,0.02,3
39781,78678737,-6.82,-5.66,6.66,5.97,347.76,350.68,0.07000000000000001,0.02,3
39827,78689059,-6.83,-5.68,6.7,5.96,347.75,350.64,0.07000000000000001,0.02,3
39871,78699465,-6.83,-5.68,6.73,5.96,347.75,350.6,0.07000000000000001,0.02,3
39918,78709101,-6.84,-5.63,6.76,5.95,347.74,350.56,0.07000000000000001,0.02,3
39956,78720561,-6.84,-5.57,6.78,5.95,347.74,350.57,0.07000000000000001,0.02,3
40005,78730908,-6.84,-5.54,6.81,5.92,347.74,350.6,0.07000000000000001,0.01,3
40049,78741308,-6.83,-5.5,6.83,5.89,347.74,350.62,0.07000000000000001,0.01,3
40094,78752052,-6.83,-5.45,6.86,5.79,347.73,350.65,0.07000000000000001,0.01,3
40139,78763054,-6.83,-5.37,6.89,5.73,347.73,350.67,0.07000000000000001,0.01,3
40184,78773487,-6.83,-5.39,6.93,5.72,347.72,350.7,0.07000000000000001,0.01,3
40223,78786221,-6.83,-5.29,6.95,5.74,347.72,350.73,0.07000000000000001,0.01,3
40268,78796302,-6.83,-5.18,6.98,5.73,347.72,350.76,0.07000000000000001,0.01,3
40312,78807209,-6.82,-5.17,7.01,5.69,347.71,350.81,0.07000000000000001,0.01,3
40357,78818256,-6.82,-5.08,7.04,5.62,347.71,350.86,0.07000000000000001,0.01,3
40403,78829058,-6.83,-5,7.07,5.61,347.71,350.88,0.07000000000000001,0.01,3
40451,78840078,-6.84,-4.91,7.1,5.65,347.7,350.91,0.07000000000000001,0.02,3
40496,78850551,-6.86,-4.8,7.14,5.66,347.7,350.95,0.07000000000000001,0.02,3
40540,78860746,-6.89,-4.71,7.18,5.65,347.69,350.99,0.07000000000000001,0.02,3
40585,78871014,-6.92,-4.65,7.22,5.65,347.69,351.02,0.07000000000000001,0.02,3
40629,78882740,-6.94,-4.51,7.26,5.63,347.68,351.08,0.07000000000000001,0.02,3
40674,78893782,-6.96,-4.48,7.3,5.63,347.68,351.1,0.07000000000000001,0.02,3
40721,78904122,-6.97,-4.47,7.33,5.66,347.68,351.14,0.06,0.02,3
40759,78920115,-6.97,-4.3,7.36,5.66,347.67,351.18,0.06,0.02,3
40805,78930824,-6.97,-4.27,7.38,5.66,347.67,351.2,0.06,0.02,3
40851,78941117,-6.96,-4.27,7.4,5.71,347.67,351.21,0.06,0.02,3
40900,78951059,-6.95,-4.27,7.41,5.73,347.67,351.23,0.06,0.05,3
40944,78961688,-6.96,-4.25,7.43,5.79,347.66,351.25,0.06,0.05,3
40989,78972715,-6.97,-4.24,7.45,5.83,347.66,351.27,0.06,0.05,3
41035,78983076,-7,-4.22,7.47,5.86,347.66,351.28,0.06,0.05,3
41073,78995152,-7.01,-4.08,7.48,5.73,347.66,351.29,0.06,0.05,3
41118,79006012,-7.03,-4.04,7.48,5.74,347.66,351.3,0.06,0.05,3
41163,79016527,-7.05,-4.11,7.49,5.79,347.66,351.29,0.06,0.05,3
41208,79026845,-7.07,-4.16,7.49,5.84,347.66,351.29,0.06,0.05,3
41252,79037516,-7.09,-4.18,7.5,5.87,347.66,351.29,0.06,0.05,3
41298,79048104,-7.12,-4.18,7.51,5.89,347.65,351.3,0.06,0.05,3
41346,79058905,-7.15,-4.17,7.52,5.87,347.65,351.3,0.06,0.04,3
41390,79069259,-7.18,-4.13,7.54,5.81,347.65,351.31,0.06,0.04,3
41437,79080096,-7.22,-4.15,7.56,5.82,347.65,351.29,0.06,0.04,3
41482,79090118,-7.27,-4.21,7.59,5.83,347.64,351.29,0.06,0.04,3
41525,79104761,-7.31,-4.24,7.6,5.9,347.64,351.28,0.06,0.04,3
41567,79115759,-7.34,-4.23,7.62,5.9,347.64,351.29,0.06,0.04,3
41612,79129096,-7.36,-4.31,7.64,5.91,347.64,351.28,0.06,0.04,3
41656,79139259,-7.38,-4.36,7.63,5.99,347.64,351.3,0.06,0.04,3
41702,79149601,-7.42,-4.4,7.61,6.05,347.64,351.31,0.06,0.04,3
41750,79160230,-7.45,-4.39,7.59,6.09,347.64,351.31,0.06,0.04,3
41795,79170806,-7.49,-4.36,7.58,6.08,347.64,351.33,0.06,0.03,3
41840,79181646,-7.53,-4.38,7.59,6.07,347.64,351.34,0.06,0.03,3
41885,79192035,-7.59,-4.43,7.59,6.1,347.64,351.33,0.06,0.03,3
41930,79209578,-7.64,-4.44,7.61,6.2,347.64,351.35,0.06,0.03,3
41974,79219910,-7.69,-4.45,7.62,6.19,347.64,351.36,0.06,0.03,3
42019,79230211,-7.73,-4.53,7.62,6.23,347.64,351.37,0.06,0.03,3
42064,79240869,-7.77,-4.59,7.63,6.29,347.64,351.36,0.06,0.03,3
42108,79251492,-7.82,-4.63,7.64,6.34,347.64,351.37,0.06,0.03,3
42153,79262069,-7.87,-4.65,7.65,6.35,347.64,351.4,0.06,0.03,3
42201,79272528,-7.91,-4.67,7.65,6.34,347.63,351.42,0.06,0.02,3
42247,79283047,-7.96,-4.66,7.66,6.34,347.63,351.43,0.06,0.02,3
42293,79294087,-8.01,-4.67,7.67,6.28,347.63,351.43,0.06,0.02,3
42336,79308853,-8.07,-4.78,7.68,6.35,347.63,351.46,0.06,0.02,3
42378,79324506,-8.1,-4.87,7.71,6.34,347.63,351.53,0.06,0.02,3
42423,79334775,-8.130000000000001,-4.94,7.71,6.36,347.63,351.6,0.06,0.02,3
42467,79345071,-8.140000000000001,-4.99,7.69,6.37,347.63,351.65,0.06,0.02,3
42512,79355721,-8.15,-4.97,7.66,6.35,347.63,351.75,0.06,0.02,3
42558,79366075,-8.16,-4.97,7.64,6.26,347.64,351.81,0.06,0.02,3
42608,79376833,-8.18,-4.98,7.62,6.25,347.64,351.88,0.06,0.02,3
42653,79387187,-8.199999999999999,-5.06,7.62,6.26,347.64,351.94,0.06,0.02,3
42697,79397872,-8.220000000000001,-5.09,7.62,6.24,347.64,352.01,0.06,0.02,3
42742,79408947,-8.25,-5.12,7.63,6.26,347.64,352.1,0.06,0.02,3
42784,79424259,-8.27,-5.12,7.63,6.19,347.64,352.2,0.06,0.02,3
42828,79434682,-8.279999999999999,-5.16,7.63,6.21,347.64,352.26,0.06,0.02,3
42873,79445071,-8.289999999999999,-5.24,7.61,6.21,347.64,352.35,0.06,0.02,3
42919,79455672,-8.289999999999999,-5.2,7.59,6.21,347.64,352.42,0.06,0.02,3
42964,79466011,-8.300000000000001,-5.21,7.58,6.16,347.65,352.49,0.06,0.02,3
43009,79476413,-8.32,-5.2,7.56,6.11,347.65,352.56,0.06,0.02,3
43057,79487269,-8.34,-5.22,7.55,6.06,347.65,352.62,0.06,0.02,3
43104,79500770,-8.359999999999999,-5.33,7.56,6.12,347.65,352.69,0.05,0.02,3
43145,79512164,-8.380000000000001,-5.28,7.56,6.09,347.65,352.77,0.05,0.02,3
43191,79522543,-8.41,-5.28,7.57,6.04,347.65,352.84,0.05,0.02,3
43233,79533557,-8.43,-5.3,7.57,5.97,347.65,352.92,0.05,0.02,3
43278,79547458,-8.44,-5.3,7.57,5.99,347.65,353.01,0.05,0.02,3
43323,79558042,-8.44,-5.32,7.56,5.97,347.65,353.1,0.05,0.02,3
43368,79568537,-8.44,-5.32,7.55,5.96,347.65,353.15,0.05,0.02,3
43414,79579574,-8.44,-5.32,7.55,5.92,347.65,353.21,0.05,0.02,3
43459,79590279,-8.43,-5.38,7.54,5.9,347.65,353.27,0.05,0.02,3
43508,79600515,-8.43,-5.45,7.55,5.93,347.65,353.33,0.05,0.01,3
43552,79610451,-8.43,-5.48,7.56,5.93,347.65,353.38,0.05,0.01,3
43596,79621105,-8.449999999999999,-5.45,7.58,5.95,347.65,353.41,0.05,0.01,3
43641,79634826,-8.460000000000001,-5.44,7.6,5.93,347.64,353.49,0.05,0.01,3
43685,79645102,-8.470000000000001,-5.44,7.62,5.9,347.64,353.54,0.05,0.01,3
43727,79656926,-8.48,-5.52,7.63,5.96,347.64,353.56,0.05,0.01,3
43772,79667109,-8.48,-5.54,7.64,6.02,347.64,353.61,0.05,0.01,3
43817,79677784,-8.470000000000001,-5.57,7.64,6.03,347.64,353.64,0.05,0.01,3
43861,79688551,-8.460000000000001,-5.55,7.65,6.07,347.63,353.68,0.05,0.01,3
43910,79699093,-8.460000000000001,-5.53,7.66,6.05,347.63,353.72,0.05,0.01,3
43957,79710044,-8.470000000000001,-5.54,7.67,6.01,347.63,353.74,0.05,0.01,3
43996,79722091,-8.470000000000001,-5.71,7.69,6.09,347.63,353.76,0.04,0.01,3
44040,79732429,-8.48,-5.71,7.7,6.15,347.63,353.77,0.04,0.01,3
44082,79747819,-8.48,-5.69,7.7,6.12,347.63,353.82,0.04,0.01,3
44129,79758590,-8.470000000000001,-5.78,7.7,6.15,347.63,353.82,0.04,0.01,3
44173,79769063,-8.460000000000001,-5.8,7.69,6.19,347.63,353.83,0.04,0.01,3
44218,79779279,-8.449999999999999,-5.77,7.68,6.21,347.63,353.85,0.04,0.01,3
44262,79789466,-8.44,-5.76,7.68,6.21,347.63,353.86,0.04,0.01,3
44308,79799752,-8.44,-5.81,7.7,6.24,347.63,353.88,0.04,0.01,3
44357,79809905,-8.44,-5.76,7.72,6.23,347.62,353.9,0.04,0.01,3
44401,79820316,-8.449999999999999,-5.74,7.75,6.19,347.62,353.91,0.04,0.01,3
44446,79830524,-8.460000000000001,-5.74,7.78,6.16,347.61,353.92,0.04,0.01,3
