LineNo,TimeUS,DesRoll,Roll,DesPitch,Pitch,DesYaw,Yaw,ErrRP,ErrYaw,AEKF
642,6.9156e+07,0,-0.97,0,0.71,11.88,2.36,0,0.01,3
982,6.9229e+07,0,-0.96,0,0.71,15.23,2.37,0,0.01,3
1382,6.9444e+07,0,-0.95,0,0.72,24.82,2.36,0.01,0.01,3
1530,6.9467e+07,0,-0.96,0,0.72,27.11,2.36,0.01,0.01,3
1569,6.9479e+07,0,-0.96,0,0.72,28.6,2.36,0.01,0.01,3
1614,6.949e+07,0,-0.96,0,0.72,29.33,2.36,0.01,0.01,3
1659,6.9501e+07,0,-0.96,0,0.71,29.34,2.36,0.01,0.01,3
1706,6.9511e+07,0,-0.96,0,0.71,29.35,2.36,0.01,0.01,3
1744,6.9522e+07,0,-0.96,0,0.72,29.35,2.36,0.01,0.01,3
1788,6.9532e+07,0,-0.96,0,0.72,29.36,2.36,0.01,0.01,3
1836,6.9542e+07,0,-0.96,0,0.72,29.37,2.36,0.01,0.01,3
1881,6.9552e+07,0,-0.96,0,0.72,29.37,2.36,0.01,0.01,3
1927,6.9563e+07,0,-0.96,0,0.72,29.38,2.36,0.01,0.01,3
1971,6.9573e+07,0,-0.96,0,0.71,29.38,2.36,0.01,0.01,3
2016,6.9583e+07,0,-0.95,0,0.71,29.39,2.36,0.01,0.01,3
2060,6.9594e+07,0,-0.96,0,0.71,29.4,2.36,0.01,0.01,3
2106,6.9604e+07,0,-0.96,0,0.71,29.4,2.36,0.01,0.01,3
2151,6.9614e+07,0,-0.96,0,0.71,29.41,2.36,0.01,0.01,3
2196,6.9623e+07,0,-0.96,0,0.71,29.42,2.36,0.01,0.01,3
2241,6.9633e+07,0,-0.96,0,0.71,29.43,2.36,0.01,0.01,3
2289,6.9643e+07,0,-0.96,0,0.71,29.43,2.36,0.01,0.01,3
2334,6.9654e+07,0,-0.96,0,0.71,29.44,2.36,0.01,0.01,3
2378,6.9664e+07,0,-0.96,0,0.72,29.45,2.37,0.01,0.01,3
2426,6.9676e+07,0,-0.96,0,0.72,29.46,2.37,0.01,0.01,3
2467,6.9687e+07,0,-0.96,0,0.72,29.47,2.37,0.01,0.01,3
2515,6.9698e+07,0,-0.96,0,0.72,29.47,2.37,0.01,0.01,3
2554,6.9709e+07,0,-0.96,0,0.72,29.47,2.37,0.01,0.01,3
2599,6.9719e+07,0,-0.96,0,0.72,29.46,2.37,0.01,0.01,3
2644,6.9729e+07,0,-0.96,0,0.72,29.45,2.37,0.01,0.01,3
2694,6.9739e+07,0,-0.96,0,0.72,29.45,2.37,0.01,0.01,3
2740,6.975e+07,0,-0.95,0,0.72,29.44,2.37,0.01,0.01,3
2785,6.976e+07,0,-0.95,0,0.72,29.43,2.37,0.01,0.01,3
2829,6.977e+07,0,-0.95,0,0.72,29.43,2.37,0.01,0.01,3
2875,6.978e+07,0,-0.95,0,0.72,29.42,2.38,0.01,0.01,3
2919,6.9791e+07,0,-0.96,0,0.72,29.41,2.38,0.01,0.01,3
2965,6.9801e+07,0,-0.96,0,0.72,29.41,2.38,0.01,0.01,3
3010,6.9812e+07,0,-0.96,0,0.71,29.4,2.38,0.01,0.01,3
3054,6.9822e+07,0,-0.96,0,0.71,29.39,2.38,0.01,0.01,3
3099,6.9832e+07,0,-0.96,0,0.71,29.39,2.38,0.01,0.01,3
3146,6.9842e+07,0,-0.96,0,0.71,29.38,2.38,0.01,0.01,3
3192,6.9852e+07,0,-0.96,0,0.71,29.37,2.38,0.01,0.01,3
3236,6.9862e+07,0,-0.96,0,0.71,29.37,2.38,0.01,0.01,3
3282,6.9873e+07,0,-0.96,0,0.71,29.36,2.38,0.01,0.01,3
3327,6.9883e+07,0,-0.96,0,0.71,29.35,2.38,0.01,0.01,3
3371,6.9893e+07,0,-0.95,0,0.72,29.34,2.38,0.01,0.01,3
3417,6.9903e+07,0,-0.95,0,0.72,29.34,2.38,0.01,0.01,3
3459,6.9916e+07,0,-0.95,0,0.72,29.33,2.38,0.01,0.01,3
3505,6.9927e+07,0,-0.95,0,0.72,29.32,2.37,0.01,0.01,3
3550,6.9937e+07,0,-0.95,0,0.72,29.31,2.37,0.01,0.01,3
3600,6.9948e+07,0,-0.95,0,0.72,29.31,2.37,0.01,0,3
3646,6.9958e+07,0,-0.95,0,0.72,29.3,2.37,0.01,0,3
3691,6.9968e+07,0,-0.95,0,0.72,29.29,2.37,0.01,0,3
3738,6.9978e+07,0,-0.96,0,0.72,29.28,2.37,0.01,0,3
3783,6.9989e+07,0,-0.96,0,0.72,29.28,2.37,0.01,0,3
3827,7e+07,0,-0.96,0,0.72,29.27,2.37,0.01,0,3
3871,7.001e+07,0,-0.96,0,0.72,29.26,2.37,0.01,0,3
3915,7.002e+07,0,-0.96,0,0.72,29.26,2.37,0.01,0,3
3959,7.003e+07,0,-0.96,0,0.72,29.25,2.37,0.01,0,3
4006,7.004e+07,0,-0.96,0,0.72,29.24,2.37,0.01,0,3
4058,7.0051e+07,0,-0.96,0,0.72,29.23,2.37,0.01,0.01,3
4102,7.0062e+07,0,-0.96,0,0.72,29.23,2.37,0.01,0.01,3
4147,7.0072e+07,0,-0.96,0,0.71,29.22,2.37,0.01,0.01,3
4192,7.0082e+07,0,-0.95,0,0.71,29.21,2.37,0.01,0.01,3
4236,7.0092e+07,0,-0.95,0,0.71,29.2,2.37,0.01,0.01,3
4281,7.0102e+07,0,-0.95,0,0.71,29.2,2.37,0.01,0.01,3
4327,7.0118e+07,0,-0.95,0,0.71,29.19,2.37,0.01,0.01,3
4373,7.0129e+07,0,-0.95,0,0.71,29.18,2.37,0.01,0.01,3
4417,7.0139e+07,0,-0.95,0,0.71,29.17,2.37,0.01,0.01,3
4462,7.0149e+07,0,-0.95,0,0.71,29.17,2.37,0.01,0.01,3
4511,7.0159e+07,0,-0.96,0,0.71,29.16,2.37,0.01,0,3
4555,7.0169e+07,0,-0.96,0,0.72,29.15,2.37,0.01,0,3
4600,7.0179e+07,0,-0.96,0,0.72,29.15,2.37,0.01,0,3
4644,7.0189e+07,0,-0.96,0,0.72,29.14,2.37,0.01,0,3
4689,7.02e+07,0,-0.96,0,0.72,29.13,2.37,0.01,0,3
4733,7.021e+07,0,-0.96,0,0.72,29.12,2.37,0.01,0,3
4778,7.022e+07,0,-0.95,0,0.72,29.12,2.37,0.01,0,3
4823,7.023e+07,0,-0.95,0,0.72,29.11,2.37,0.01,0,3
4867,7.024e+07,0,-0.95,0,0.72,29.1,2.37,0.01,0,3
4913,7.025e+07,0,-0.95,0,0.72,29.1,2.37,0.01,0,3
4961,7.0261e+07,0,-0.95,0,0.72,29.09,2.37,0.01,0,3
5006,7.0271e+07,0,-0.95,0,0.72,29.08,2.37,0.01,0,3
5050,7.0281e+07,0,-0.95,0,0.71,29.08,2.37,0.01,0,3
5095,7.0291e+07,0,-0.95,0,0.72,29.07,2.37,0.01,0,3
5143,7.0304e+07,0,-0.95,0,0.72,29.06,2.37,0.01,0,3
5191,7.0316e+07,0,-0.95,0,0.72,29.06,2.37,0.01,0,3
5233,7.0327e+07,0,-0.95,0,0.72,29.05,2.37,0.01,0,3
5279,7.0337e+07,0,-0.96,0,0.71,29.05,2.37,0.01,0,3
5323,7.0348e+07,0,-0.96,0,0.71,29.04,2.37,0.01,0,3
5372,7.0359e+07,0,-0.96,0,0.71,29.03,2.37,0.01,0,3
5416,7.0369e+07,0,-0.96,0,0.71,29.03,2.37,0.01,0,3
5461,7.0379e+07,0,-0.96,0,0.72,29.03,2.37,0.01,0,3
5506,7.0389e+07,0,-0.96,0,0.72,29.03,2.37,0.01,0,3
5551,7.04e+07,0,-0.95,0,0.72,29.03,2.37,0.01,0,3
5596,7.041e+07,0,-0.95,0,0.72,29.03,2.37,0.01,0,3
5640,7.0421e+07,0,-0.95,0,0.72,29.03,2.37,0.01,0,3
5685,7.0431e+07,0,-0.94,0,0.72,29.03,2.37,0.01,0,3
5729,7.0441e+07,0,-0.95,0,0.72,29.03,2.37,0.01,0,3
5778,7.0451e+07,0,-0.94,0,0.72,29.03,2.37,0.01,0,3
5827,7.0461e+07,0,-0.95,0,0.72,29.03,2.37,0.01,0,3
5871,7.0471e+07,0,-0.95,0,0.72,29.03,2.37,0.01,0,3
5916,7.0482e+07,0,-0.95,0,0.72,29.03,2.37,0.01,0,3
5960,7.0493e+07,0,-0.95,0,0.72,29.03,2.37,0.01,0,3
6005,7.0502e+07,0,-0.96,0,0.72,29.03,2.37,0.01,0,3
6049,7.0513e+07,0,-0.96,0,0.72,29.03,2.37,0.01,0,3
6090,7.0524e+07,0,-0.96,0,0.72,29.03,2.37,0,0,3
6135,7.0534e+07,0,-0.96,0,0.72,29.03,2.37,0,0,3
6179,7.0544e+07,0,-0.96,0,0.72,29.03,2.37,0,0,3
6224,7.0554e+07,0,-0.96,0,0.72,29.03,2.37,0,0,3
6273,7.0564e+07,0,-0.95,0,0.72,29.03,2.37,0,0,3
6318,7.0574e+07,0,-0.95,0,0.72,29.03,2.37,0,0,3
6362,7.0584e+07,0,-0.95,0,0.71,29.03,2.37,0,0,3
6407,7.0595e+07,0,-0.95,0,0.71,29.03,2.37,0,0,3
6453,7.0604e+07,0,-0.95,0,0.71,29.03,2.37,0,0,3
6494,7.0615e+07,0,-0.94,0,0.71,29.03,2.37,0,0,3
6539,7.0625e+07,0,-0.94,0,0.71,29.03,2.37,0,0,3
6583,7.0635e+07,0,-0.94,0,0.71,29.03,2.37,0,0,3
6628,7.0645e+07,0,-0.95,0,0.71,29.03,2.37,0,0,3
6674,7.0655e+07,0,-0.95,0,0.71,29.03,2.37,0,0,3
6723,7.0666e+07,0,-0.95,0,0.71,29.03,2.37,0,0,3
6768,7.0676e+07,0,-0.95,0,0.72,29.03,2.37,0,0,3
6812,7.0686e+07,0,-0.95,0,0.72,29.03,2.37,0,0,3
6857,7.0697e+07,0,-0.95,0,0.72,29.03,2.37,0,0,3
6900,7.0711e+07,0,-0.95,0,0.71,29.03,2.37,0.01,0,3
6945,7.0721e+07,0,-0.95,0,0.71,29.03,2.37,0.01,0,3
6989,7.0732e+07,0,-0.95,0,0.71,29.03,2.37,0.01,0,3
7034,7.0743e+07,0,-0.95,0,0.71,29.03,2.37,0.01,0,3
7079,7.0753e+07,0,-0.95,0,0.72,29.03,2.37,0.01,0,3
7123,7.0763e+07,0,-0.95,0,0.71,29.03,2.37,0.01,0,3
7174,7.0773e+07,0,-0.95,0,0.72,29.03,2.37,0.01,0.01,3
7219,7.0784e+07,0,-0.95,0,0.71,29.03,2.37,0.01,0.01,3
7264,7.0794e+07,0,-0.95,0,0.71,29.03,2.37,0.01,0.01,3
7309,7.0804e+07,0,-0.95,0,0.71,29.03,2.37,0.01,0.01,3
7353,7.0814e+07,0,-0.95,0,0.71,29.03,2.37,0.01,0.01,3
7398,7.0824e+07,0,-0.95,0,0.71,29.03,2.37,0.01,0.01,3
7447,7.0837e+07,0,-0.95,0,0.71,29.03,2.37,0.01,0.01,3
7493,7.0847e+07,0,-0.95,0,0.71,2.36,2.37,0.01,0.01,3
7539,7.0857e+07,0,-0.95,0,0.71,2.36,2.37,0.01,0.01,3
7583,7.0867e+07,0,-0.95,0,0.71,2.36,2.37,0.01,0.01,3
7634,7.0877e+07,0,-0.96,0,0.71,2.36,2.38,0.01,0.01,3
7678,7.0888e+07,0,-0.96,0,0.71,2.37,2.38,0.01,0.01,3
7723,7.0899e+07,0,-0.95,0,0.71,2.38,2.39,0.01,0.01,3
7769,7.0909e+07,0,-0.95,0,0.71,2.39,2.4,0,0.01,3
7808,7.0921e+07,0,-0.95,0,0.71,2.39,2.4,0,0.01,3
7854,7.0931e+07,0,-0.95,0,0.71,2.39,2.4,0,0.01,3
7900,7.0941e+07,0,-0.95,0,0.72,2.38,2.4,0,0.01,3
7946,7.0951e+07,0,-0.96,0,0.72,2.38,2.39,0,0.01,3
7992,7.0961e+07,0,-0.95,0,0.72,2.38,2.39,0,0.01,3
8037,7.0971e+07,0,-0.94,0,0.71,2.38,2.39,0,0.01,3
8087,7.0982e+07,0,-0.93,0,0.71,2.38,2.39,0,0.01,3
8132,7.0992e+07,0,-0.93,0,0.71,2.38,2.39,0,0.01,3
8176,7.1001e+07,0,-0.95,0,0.72,2.38,2.39,0,0.01,3
8221,7.1011e+07,0,-0.95,0,0.71,2.38,2.39,0,0.01,3
8266,7.1022e+07,0,-0.94,0,0.71,2.38,2.39,0,0.01,3
8311,7.1033e+07,0,-0.95,0,0.71,2.38,2.39,0,0.01,3
8358,7.1045e+07,0,-0.97,0,0.72,2.39,2.4,0,0.01,3
8403,7.1055e+07,0,-0.99,0,0.73,2.39,2.4,0,0.01,3
8449,7.1066e+07,0,-0.99,0,0.73,2.38,2.39,0,0.01,3
8498,7.1076e+07,0,-0.98,0,0.72,2.37,2.38,0,0.01,3
8544,7.1086e+07,0,-0.97,0,0.72,2.35,2.36,0,0.01,3
8591,7.1099e+07,0,-0.97,0,0.71,2.34,2.35,0.01,0.01,3
8632,7.1109e+07,0,-0.97,0,0.71,2.33,2.34,0.01,0.01,3
8679,7.1122e+07,0,-0.97,0,0.71,2.33,2.34,0.01,0.01,3
8724,7.1132e+07,0,-0.97,0,0.71,2.35,2.36,0.01,0.01,3
8766,7.1143e+07,0,-0.95,0,0.69,2.36,2.37,0.01,0.01,3
8810,7.1153e+07,0,-0.93,0,0.69,2.38,2.39,0.01,0.01,3
8855,7.1163e+07,0,-0.93,0,0.69,2.39,2.4,0.01,0.01,3
8899,7.1173e+07,0,-0.94,0,0.69,2.41,2.42,0.01,0.01,3
8950,7.1183e+07,0,-0.94,0,0.7,2.42,2.43,0.01,0,3
8994,7.1194e+07,0,-0.94,0,0.69,2.44,2.45,0.01,0,3
9039,7.1204e+07,0,-0.95,0,0.7,2.44,2.45,0.01,0,3
9084,7.1215e+07,0,-0.95,0,0.69,2.42,2.44,0.01,0,3
9128,7.1225e+07,0,-0.94,0,0.7,2.42,2.43,0.01,0,3
9173,7.1235e+07,0,-0.94,0,0.7,2.41,2.42,0.01,0,3
9217,7.1245e+07,0,-0.96,0,0.7,2.4,2.41,0.01,0,3
9262,7.1255e+07,0,-0.95,0,0.7,2.36,2.38,0.01,0,3
9307,7.1265e+07,0,-0.94,0,0.69,2.36,2.37,0.01,0,3
9352,7.1275e+07,0,-0.94,0,0.7,2.35,2.36,0.01,0,3
9402,7.1285e+07,0,-0.96,0,0.7,2.36,2.37,0.01,0.01,3
9446,7.1296e+07,0,-0.94,0,0.7,2.35,2.36,0.01,0.01,3
9491,7.1305e+07,0,-0.92,0,0.7,2.35,2.37,0.01,0.01,3
9540,7.1318e+07,0,-0.91,0,0.71,2.38,2.39,0,0.01,3
9580,7.133e+07,0,-0.93,0,0.7,2.4,2.41,0,0.01,3
9624,7.134e+07,0,-0.91,0,0.69,2.39,2.41,0,0.01,3
9669,7.1351e+07,0,-0.91,0,0.71,2.41,2.42,0,0.01,3
9714,7.1362e+07,0,-0.92,0,0.72,2.43,2.44,0,0.01,3
9758,7.1372e+07,0,-0.94,0,0.71,2.43,2.44,0,0.01,3
9803,7.1382e+07,0,-0.93,0,0.69,2.4,2.41,0,0.01,3
9852,7.1392e+07,0,-0.92,0,0.71,2.39,2.4,0,0,3
9897,7.1402e+07,0,-0.93,0,0.71,2.4,2.41,0,0,3
9943,7.1413e+07,0,-0.95,0,0.7,2.37,2.38,0,0,3
9987,7.1423e+07,0,-0.94,0,0.69,2.35,2.36,0,0,3
10032,7.1433e+07,0,-0.93,0,0.7,2.34,2.35,0,0,3
10078,7.1444e+07,0,-0.93,0,0.72,2.36,2.37,0,0,3
10124,7.1454e+07,0,-0.94,0,0.69,2.34,2.35,0,0,3
10169,7.1464e+07,0,-0.92,0,0.7,2.34,2.36,0,0,3
10213,7.1475e+07,0,-0.91,0,0.7,2.36,2.37,0,0,3
10258,7.1484e+07,0,-0.92,0,0.72,2.39,2.4,0,0,3
10306,7.1495e+07,0,-0.92,0,0.68,2.38,2.39,0,0,3
10353,7.1507e+07,0,-0.92,0,0.71,2.39,2.4,0,0,3
10396,7.1518e+07,0,-0.9,0,0.7,2.41,2.42,0,0,3
10441,7.1528e+07,0,-0.94,0,0.72,2.41,2.42,0,0,3
10486,7.1538e+07,0,-0.94,0,0.7,2.39,2.4,0,0,3
10530,7.1548e+07,0,-0.94,0,0.71,2.38,2.39,0,0,3
10574,7.1559e+07,0,-0.93,0,0.73,2.39,2.4,0,0,3
10619,7.157e+07,0,-0.95,0,0.71,2.37,2.38,0,0,3
10663,7.158e+07,0,-0.94,0,0.72,2.35,2.36,0,0,3
10711,7.159e+07,0,-0.93,0,0.71,2.35,2.36,0,0,3
10756,7.16e+07,0,-0.92,0,0.74,2.36,2.37,0,0.01,3
10801,7.161e+07,0,-0.94,0,0.7,2.34,2.35,0,0.01,3
10847,7.162e+07,0,-0.93,0,0.71,2.35,2.36,0,0.01,3
10892,7.1631e+07,0,-0.9,0,0.7,2.35,2.36,0,0.01,3
10937,7.1641e+07,0,-0.93,0,0.72,2.38,2.39,0,0.01,3
10981,7.1652e+07,0,-0.94,0,0.68,2.36,2.37,0,0.01,3
11026,7.1662e+07,0,-0.95,0,0.69,2.38,2.39,0,0.01,3
11071,7.1672e+07,0,-0.91,0,0.7,2.39,2.4,0,0.01,3
11116,7.1683e+07,0,-0.94,0,0.72,2.4,2.41,0,0.01,3
11164,7.1693e+07,0,-0.94,0,0.7,2.38,2.39,0,0.01,3
11209,7.1703e+07,0,-0.94,0,0.71,2.38,2.39,0,0.04,3
11256,7.1713e+07,0,-0.92,0,0.74,2.39,2.4,0.01,0.04,3
11294,7.1725e+07,0,-0.91,0,0.7,2.36,2.37,0.01,0.04,3
11339,7.1735e+07,0,-0.93,0,0.7,2.35,2.36,0.01,0.04,3
11383,7.1746e+07,0,-0.9,0,0.68,2.34,2.35,0.01,0.04,3
11428,7.1755e+07,0,-0.93,0,0.71,2.34,2.35,0.01,0.04,3
11473,7.1766e+07,0,-0.92,0,0.67,2.31,2.32,0.01,0.04,3
11518,7.1776e+07,0,-0.94,0,0.68,2.31,2.32,0.01,0.04,3
11564,7.1787e+07,0,-0.91,0,0.71,2.33,2.34,0.01,0.04,3
11611,7.1798e+07,0,-0.92,0,0.7,2.32,2.33,0.01,0.04,3
11657,7.1808e+07,0,-0.92,0,0.72,2.32,2.33,0.01,0.04,3
11703,7.1818e+07,0,-0.9,0,0.7,2.32,2.33,0.01,0.04,3
11747,7.1828e+07,0,-0.92,0,0.74,2.35,2.36,0.01,0.04,3
11792,7.1839e+07,0,-0.91,0,0.7,2.32,2.33,0.01,0.04,3
11836,7.185e+07,0,-0.93,0,0.7,2.31,2.32,0.01,0.04,3
11881,7.186e+07,0,-0.88,0,0.72,2.33,2.34,0.01,0.04,3
11926,7.187e+07,0,-0.9,0,0.72,2.31,2.32,0.01,0.04,3
11970,7.1881e+07,0,-0.89,0,0.71,2.29,2.3,0.01,0.04,3
12015,7.1891e+07,0,-0.9,0,0.7,2.28,2.29,0.01,0.04,3
12064,7.1901e+07,0,-0.89,0,0.72,2.3,2.31,0,0.04,3
12106,7.1915e+07,0,-0.91,0,0.67,2.26,2.27,0,0.03,3
12150,7.1926e+07,0,-0.94,0,0.68,2.25,2.26,0,0.03,3
12198,7.1935e+07,0,-0.9,0,0.69,2.26,2.27,0,0.03,3
12243,7.1946e+07,0,-0.94,0,0.7,2.26,2.27,0,0.03,3
12288,7.1957e+07,0,-0.91,0,0.69,2.25,2.26,0,0.03,3
12332,7.1967e+07,0,-0.91,0,0.69,2.25,2.26,0,0.03,3
12379,7.1978e+07,0,-0.89,0,0.74,2.29,2.3,0,0.03,3
12425,7.1988e+07,0,-0.9,0,0.7,2.27,2.28,0,0.03,3
12470,7.1998e+07,0,-0.92,0,0.71,2.27,2.28,0,0.03,3
12518,7.2009e+07,0,-0.88,0,0.69,2.27,2.28,0,0.02,3
12562,7.2019e+07,0,-0.9,0,0.72,2.29,2.3,0,0.02,3
12607,7.203e+07,0,-0.89,0,0.68,2.26,2.27,0,0.02,3
12651,7.2041e+07,0,-0.92,0,0.68,2.25,2.26,0,0.02,3
12699,7.2053e+07,0,-0.89,0,0.74,2.28,2.29,0,0.02,3
12743,7.2064e+07,0,-0.89,0,0.71,2.25,2.26,0,0.02,3
12788,7.2074e+07,0,-0.93,0,0.71,2.24,2.25,0,0.02,3
12833,7.2084e+07,0,-0.9,0,0.69,2.24,2.25,0,0.02,3
12877,7.2094e+07,0,-0.93,0,0.72,2.26,2.27,0,0.02,3
12925,7.2105e+07,0,-0.91,0,0.7,2.24,2.25,0,0.02,3
12975,7.2118e+07,0,-0.93,0,0.69,2.23,2.24,0,0.02,3
13017,7.2129e+07,0,-0.91,0,0.75,2.27,2.28,0,0.02,3
13062,7.2139e+07,0,-0.91,0,0.72,2.26,2.27,0,0.02,3
13107,7.2149e+07,0,-0.93,0,0.73,2.26,2.27,0,0.02,3
13151,7.2159e+07,0,-0.91,0,0.71,2.27,2.28,0,0.02,3
13195,7.217e+07,0,-0.92,0,0.72,2.28,2.29,0,0.02,3
13239,7.218e+07,0,-0.89,0,0.7,2.27,2.28,0,0.02,3
13284,7.2191e+07,0,-0.93,0,0.67,2.25,2.26,0,0.02,3
13313,7.2251e+07,0,-0.86,0,0.69,2.24,2.25,0,0.02,3
13358,7.2261e+07,0,-0.94,0,0.68,2.24,2.25,0,0.02,3
13402,7.2272e+07,0,-0.89,0,0.7,2.27,2.28,0,0.02,3
13447,7.2282e+07,0,-0.88,0,0.68,2.27,2.26,0,0.02,3
13491,7.2293e+07,0,-0.95,0,0.69,2.27,2.28,0,0.02,3
13536,7.2304e+07,0,-0.95,0.01,0.7,2.27,2.29,0,0.02,3
13583,7.2314e+07,0,-0.87,0.01,0.69,2.27,2.27,0,0.02,3
13625,7.2325e+07,0,-0.85,0.02,0.66,2.27,2.3,0,0.02,3
13670,7.2336e+07,-0.01,-0.83,0.02,0.68,2.27,2.28,0,0.02,3
13715,7.2346e+07,-0.02,-0.86,0.02,0.7,2.27,2.29,0,0.02,3
13759,7.2357e+07,-0.04,-0.99,0.02,0.69,2.27,2.29,0,0.02,3
13808,7.237e+07,-0.05,-0.9,0.02,0.67,2.27,2.3,0,0.02,3
13853,7.2381e+07,-0.07,-0.92,0.02,0.67,2.27,2.29,0,0.02,3
13897,7.2391e+07,-0.08,-0.76,0.02,0.66,2.27,2.29,0,0.02,3
13943,7.2401e+07,-0.1,-0.69,0.02,0.64,2.27,2.28,0,0.02,3
13987,7.2412e+07,-0.1,-0.75,0.02,0.6,2.27,2.29,0,0.02,3
14032,7.2423e+07,-0.11,-0.85,0.02,0.65,2.27,2.29,0,0.02,3
14082,7.2434e+07,-0.12,-0.94,0.02,0.57,2.27,2.3,0,0.01,3
14127,7.2444e+07,-0.12,-0.86,0.02,0.67,2.27,2.31,0,0.01,3
14171,7.2454e+07,-0.12,-0.71,0.02,0.57,2.27,2.31,0,0.01,3
14217,7.2464e+07,-0.12,-0.74,0.02,0.57,2.27,2.31,0,0.01,3
14262,7.2475e+07,-0.12,-0.88,0.02,0.6,2.27,2.34,0,0.01,3
14306,7.2485e+07,-0.13,-0.96,0.01,0.52,2.27,2.31,0,0.01,3
14351,7.2495e+07,-0.12,-0.87,0.01,0.66,2.27,2.35,0,0.01,3
14395,7.2506e+07,-0.12,-0.74,0.01,0.57,2.27,2.31,0.01,0.01,3
14433,7.2517e+07,-0.12,-0.74,0,0.51,2.27,2.32,0.01,0.01,3
14477,7.2528e+07,-0.12,-0.71,0,0.61,2.27,2.31,0.01,0.01,3
14526,7.2538e+07,-0.12,-0.82,-0.02,0.58,2.27,2.32,0.01,0.01,3
14571,7.2549e+07,-0.11,-0.88,-0.03,0.52,2.27,2.3,0.01,0.01,3
14616,7.2559e+07,-0.11,-0.72,-0.04,0.58,2.27,2.32,0.01,0.01,3
14660,7.2569e+07,-0.11,-0.57,-0.04,0.62,2.27,2.29,0.01,0.01,3
14706,7.258e+07,-0.11,-0.77,-0.05,0.44,2.27,2.29,0.01,0.01,3
14750,7.2591e+07,-0.12,-0.82,-0.06,0.58,2.27,2.33,0.01,0.01,3
14795,7.2602e+07,-0.12,-0.66,-0.07,0.73,2.27,2.33,0.01,0.01,3
14840,7.2612e+07,-0.12,-0.79,-0.08,0.48,2.27,2.3,0.01,0.01,3
14885,7.2622e+07,-0.12,-0.88,-0.08,0.4,2.27,2.33,0.01,0.01,3
14930,7.2632e+07,-0.12,-0.61,-0.09,0.6,2.27,2.35,0.01,0.01,3
14978,7.2643e+07,-0.12,-0.72,-0.09,0.7,2.27,2.35,0.01,0.01,3
15023,7.2653e+07,-0.14,-0.92,-0.08,0.54,2.27,2.34,0.01,0.01,3
15067,7.2664e+07,-0.14,-0.76,-0.08,0.42,2.27,2.33,0.01,0.01,3
15115,7.2677e+07,-0.15,-0.88,-0.07,0.51,2.27,2.35,0.01,0.01,3
15159,7.2687e+07,-0.16,-0.59,-0.06,0.41,2.27,2.32,0.01,0.01,3
15204,7.2699e+07,-0.19,-0.53,-0.06,0.44,2.27,2.31,0.01,0.01,3
15250,7.2709e+07,-0.2,-0.44,-0.06,0.51,2.27,2.32,0.01,0.01,3
15294,7.272e+07,-0.2,-0.5,-0.06,0.51,2.27,2.31,0.01,0.01,3
15335,7.2731e+07,-0.21,-0.65,-0.06,0.55,2.27,2.33,0.01,0.01,3
15381,7.2741e+07,-0.22,-0.66,-0.06,0.65,2.27,2.33,0.01,0.01,3
15429,7.2752e+07,-0.23,-0.61,-0.07,0.61,2.27,2.33,0.01,0.01,3
15474,7.2762e+07,-0.22,-0.65,-0.07,0.6,2.27,2.34,0.01,0.01,3
15518,7.2772e+07,-0.21,-0.62,-0.09,0.57,2.27,2.37,0.01,0.01,3
15566,7.2785e+07,-0.23,-0.51,-0.11,0.53,2.27,2.37,0.01,0.01,3
15610,7.2795e+07,-0.26,-0.5,-0.12,0.51,2.27,2.39,0.01,0.01,3
15655,7.2806e+07,-0.28,-0.45,-0.13,0.52,2.27,2.43,0.01,0.01,3
15700,7.2817e+07,-0.3,-0.4,-0.15,0.6,2.27,2.47,0.01,0.01,3
15745,7.2827e+07,-0.33,-0.3,-0.16,0.64,2.27,2.5,0.01,0.01,3
15790,7.2837e+07,-0.37,-0.26,-0.17,0.69,2.27,2.54,0.01,0.01,3
15841,7.2849e+07,-0.4,-0.12,-0.2,0.69,2.27,2.61,0.01,0.01,3
15886,7.286e+07,-0.42,-0.08,-0.22,0.67,2.27,2.66,0.01,0.01,3
15931,7.287e+07,-0.44,-0.02,-0.25,0.65,2.27,2.71,0.01,0.01,3
15976,7.2881e+07,-0.46,0.01,-0.26,0.68,2.27,2.77,0.01,0.01,3
16020,7.2891e+07,-0.48,0.09,-0.28,0.69,2.27,2.84,0.01,0.01,3
16066,7.2901e+07,-0.49,0.14,-0.31,0.66,2.27,2.93,0.01,0.01,3
16104,7.2913e+07,-0.5,0.24,-0.32,0.59,2.27,3.01,0.01,0.01,3
16149,7.2923e+07,-0.52,0.32,-0.35,0.58,2.27,3.09,0.01,0.01,3
16198,7.2933e+07,-0.56,0.45,-0.37,0.52,2.27,3.18,0.01,0.01,3
16242,7.2944e+07,-0.6,0.58,-0.39,0.46,2.27,3.27,0.01,0.01,3
16292,7.2955e+07,-0.65,0.71,-0.41,0.35,2.27,3.36,0.01,0.02,3
16337,7.2965e+07,-0.7,0.83,-0.42,0.28,2.27,3.46,0.01,0.02,3
16381,7.2976e+07,-0.76,0.95,-0.44,0.21,2.27,3.55,0.01,0.02,3
16426,7.2986e+07,-0.83,1.12,-0.45,0.11,2.27,3.64,0.01,0.02,3
16472,7.2999e+07,-0.91,1.21,-0.48,0,2.27,3.78,0.01,0.02,3
16516,7.3009e+07,-0.98,1.34,-0.51,-0.04,2.27,3.87,0.01,0.02,3
16561,7.302e+07,-1.04,1.55,-0.54,-0.15,2.27,4.01,0.01,0.02,3
16605,7.303e+07,-1.11,1.67,-0.57,-0.26,2.27,4.12,0.01,0.02,3
16650,7.304e+07,-1.18,1.72,-0.61,-0.3,2.27,4.23,0.01,0.02,3
16694,7.305e+07,-1.25,1.8,-0.64,-0.34,2.27,4.36,0.01,0.02,3
16743,7.3061e+07,-1.33,1.87,-0.68,-0.41,2.27,4.49,0.01,0.02,3
16788,7.3071e+07,-1.41,1.94,-0.72,-0.49,2.27,4.61,0.01,0.02,3
16832,7.3082e+07,-1.49,1.97,-0.75,-0.53,2.27,4.75,0.01,0.02,3
16877,7.3095e+07,-1.59,2.05,-0.79,-0.64,2.28,4.93,0.01,0.02,3
16921,7.3106e+07,-1.68,2.05,-0.81,-0.71,2.28,5.06,0.01,0.02,3
16969,7.3123e+07,-1.82,2.04,-0.84,-0.79,2.28,5.3,0.01,0.02,3
17014,7.3134e+07,-1.91,2.03,-0.86,-0.87,2.28,5.46,0.01,0.02,3
17059,7.3144e+07,-2.01,2.05,-0.88,-0.94,2.28,5.6,0.01,0.02,3
17105,7.3155e+07,-2.12,2,-0.89,-0.99,2.28,5.74,0.01,0.02,3
17155,7.3165e+07,-2.23,1.94,-0.9,-1.03,2.28,5.88,0.01,0.02,3
17199,7.3175e+07,-2.35,1.89,-0.91,-1.09,2.28,6.05,0.01,0.02,3
17244,7.3186e+07,-2.46,1.79,-0.91,-1.14,2.28,6.19,0.01,0.02,3
17292,7.3198e+07,-2.6,1.63,-0.91,-1.12,2.28,6.35,0.01,0.02,3
17336,7.3209e+07,-2.72,1.57,-0.91,-1.15,2.28,6.5,0.01,0.02,3
17381,7.322e+07,-2.83,1.44,-0.91,-1.22,2.28,6.68,0.01,0.02,3
17425,7.323e+07,-2.95,1.31,-0.91,-1.21,2.28,6.81,0.01,0.02,3
17470,7.324e+07,-3.07,1.17,-0.91,-1.14,2.28,6.96,0.01,0.02,3
17515,7.3251e+07,-3.19,1.03,-0.9,-1.15,2.28,7.12,0.01,0.02,3
17560,7.3261e+07,-3.3,0.91,-0.9,-1.18,2.28,7.26,0.01,0.02,3
17609,7.3271e+07,-3.42,0.78,-0.89,-1.15,2.28,7.39,0.01,0.01,3
17654,7.3282e+07,-3.54,0.6,-0.88,-1.04,2.28,7.54,0.01,0.01,3
17699,7.3292e+07,-3.66,0.48,-0.87,-1.01,2.28,7.69,0.01,0.01,3
17742,7.3303e+07,-3.77,0.39,-0.87,-1.01,2.28,7.85,0.01,0.01,3
17784,7.3314e+07,-3.86,0.23,-0.86,-0.98,2.28,8,0.01,0.01,3
17829,7.3324e+07,-3.98,0.03,-0.85,-0.91,2.28,8.14,0.01,0.01,3
17873,7.3335e+07,-4.09,-0.1,-0.83,-0.85,2.27,8.28,0.01,0.01,3
17917,7.3345e+07,-4.2,-0.23,-0.82,-0.82,2.27,8.41,0.01,0.01,3
17963,7.3355e+07,-4.3,-0.37,-0.8,-0.79,2.27,8.56,0.01,0.01,3
18007,7.3365e+07,-4.4,-0.52,-0.78,-0.72,2.27,8.68,0.01,0.01,3
18056,7.3376e+07,-4.5,-0.69,-0.76,-0.61,2.27,8.81,0.01,0.01,3
18100,7.3386e+07,-4.59,-0.83,-0.75,-0.56,2.27,8.97,0.01,0.01,3
18145,7.3397e+07,-4.67,-0.88,-0.74,-0.54,2.27,9.09,0.01,0.01,3
18193,7.341e+07,-4.78,-1.17,-0.73,-0.46,2.27,9.26,0.01,0.01,3
18238,7.3421e+07,-4.86,-1.27,-0.72,-0.37,2.27,9.36,0.01,0.01,3
18284,7.3431e+07,-4.94,-1.42,-0.71,-0.31,2.26,9.49,0.01,0.01,3
18328,7.3442e+07,-5.02,-1.52,-0.7,-0.29,2.26,9.6,0.01,0.01,3
18373,7.3452e+07,-5.08,-1.64,-0.69,-0.26,2.26,9.71,0.01,0.01,3
18418,7.3462e+07,-5.15,-1.8,-0.67,-0.2,2.26,9.82,0.01,0.01,3
18463,7.3472e+07,-5.21,-1.84,-0.67,-0.19,2.25,9.91,0.01,0.01,3
18512,7.3483e+07,-5.27,-1.96,-0.66,-0.13,2.21,10.03,0.01,0.01,3
18557,7.3494e+07,-5.32,-2.07,-0.66,-0.1,2.15,10.14,0.01,0.01,3
18602,7.3504e+07,-5.37,-2.2,-0.66,-0.12,2.06,10.24,0.01,0.01,3
18645,7.3515e+07,-5.41,-2.42,-0.67,-0.08,1.94,10.33,0.02,0.01,3
18687,7.3527e+07,-5.43,-2.53,-0.67,0,1.84,10.43,0.02,0.01,3
18732,7.3538e+07,-5.46,-2.62,-0.68,0.02,1.67,10.51,0.02,0.01,3
18776,7.3548e+07,-5.5,-2.69,-0.7,0.03,1.48,10.59,0.02,0.01,3
18821,7.3559e+07,-5.53,-2.72,-0.74,0,1.26,10.66,0.02,0.01,3
18866,7.357e+07,-5.56,-2.83,-0.78,0.01,1.02,10.73,0.02,0.01,3
18911,7.358e+07,-5.59,-2.95,-0.82,0.05,0.74,10.78,0.02,0.01,3
18961,7.359e+07,-5.61,-3.05,-0.86,0.08,0.44,10.82,0.02,0.01,3
19005,7.3601e+07,-5.62,-3.16,-0.91,0.12,0.11,10.87,0.02,0.01,3
19050,7.3612e+07,-5.63,-3.2,-0.97,0.12,359.75,10.91,0.02,0.01,3
19095,7.3623e+07,-5.63,-3.21,-1.03,0.08,359.37,10.92,0.02,0.01,3
19140,7.3633e+07,-5.63,-3.34,-1.09,0.03,358.96,10.93,0.02,0.01,3
19184,7.3643e+07,-5.63,-3.41,-1.15,0,358.54,10.91,0.02,0.01,3
19229,7.3653e+07,-5.62,-3.55,-1.21,0,358.11,10.9,0.02,0.01,3
19273,7.3664e+07,-5.6,-3.63,-1.27,-0.01,357.67,10.87,0.02,0.01,3
19318,7.3675e+07,-5.59,-3.8,-1.33,0.05,357.23,10.82,0.02,0.01,3
19364,7.3685e+07,-5.57,-3.82,-1.39,0.04,356.78,10.76,0.02,0.01,3
19412,7.3696e+07,-5.54,-3.85,-1.45,0.03,356.34,10.68,0.02,0.01,3
19460,7.3707e+07,-5.52,-3.9,-1.51,-0.01,355.9,10.59,0.02,0.01,3
19501,7.3718e+07,-5.49,-3.86,-1.57,-0.08,355.46,10.48,0.02,0.01,3
19543,7.3729e+07,-5.47,-3.86,-1.63,-0.22,355.14,10.35,0.02,0.01,3
19588,7.374e+07,-5.45,-3.92,-1.7,-0.27,354.7,10.22,0.02,0.01,3
19632,7.375e+07,-5.43,-3.98,-1.77,-0.33,354.29,10.09,0.02,0.01,3
19677,7.376e+07,-5.4,-3.96,-1.83,-0.41,353.88,9.9,0.02,0.01,3
19721,7.3771e+07,-5.38,-4.06,-1.9,-0.48,353.49,9.76,0.02,0.01,3
19766,7.3781e+07,-5.35,-4.07,-1.97,-0.56,353.1,9.54,0.02,0.01,3
19811,7.3791e+07,-5.32,-4.09,-2.03,-0.63,352.74,9.38,0.02,0.01,3
19859,7.3801e+07,-5.29,-4.1,-2.1,-0.69,352.39,9.17,0.02,0.02,3
19904,7.3811e+07,-5.26,-4.05,-2.16,-0.72,352.07,8.97,0.02,0.02,3
19949,7.3821e+07,-5.22,-4.16,-2.22,-0.77,351.76,8.76,0.02,0.02,3
19994,7.3832e+07,-5.18,-4.2,-2.27,-0.76,351.47,8.54,0.02,0.02,3
20039,7.3843e+07,-5.14,-4.25,-2.32,-0.87,351.2,8.29,0.02,0.02,3
20084,7.3853e+07,-5.11,-4.28,-2.36,-0.92,350.95,8.02,0.02,0.02,3
20129,7.3864e+07,-5.07,-4.29,-2.4,-0.99,350.72,7.79,0.02,0.02,3
20173,7.3874e+07,-5.04,-4.36,-2.44,-1.02,350.51,7.54,0.02,0.02,3
20219,7.3884e+07,-5,-4.39,-2.47,-1.02,350.33,7.29,0.02,0.02,3
20263,7.3895e+07,-4.97,-4.45,-2.5,-1.1,350.18,7.01,0.02,0.02,3
20313,7.3905e+07,-4.93,-4.47,-2.52,-1.13,350.05,6.75,0.02,0.03,3
20359,7.3915e+07,-4.9,-4.48,-2.54,-1.2,349.95,6.46,0.04,0.03,3
20400,7.3927e+07,-4.86,-4.59,-2.55,-1.15,349.88,6.13,0.04,0.03,3
20445,7.3939e+07,-4.83,-4.57,-2.56,-1.2,349.83,5.86,0.04,0.03,3
20490,7.3949e+07,-4.8,-4.62,-2.56,-1.16,349.81,5.56,0.04,0.03,3
20537,7.3962e+07,-4.77,-4.52,-2.56,-1.12,349.81,5.2,0.04,0.03,3
20582,7.3973e+07,-4.74,-4.51,-2.56,-1.09,349.81,4.93,0.04,0.03,3
20626,7.3983e+07,-4.72,-4.52,-2.56,-1.09,349.81,4.66,0.04,0.03,3
20670,7.3993e+07,-4.7,-4.48,-2.57,-1.14,349.81,4.38,0.04,0.03,3
20722,7.4006e+07,-4.68,-4.45,-2.56,-1.23,349.81,4.05,0.04,0.04,3
20768,7.4016e+07,-4.67,-4.4,-2.56,-1.19,349.81,3.79,0.04,0.04,3
20812,7.4027e+07,-4.66,-4.41,-2.55,-1.15,349.81,3.5,0.04,0.04,3
20860,7.404e+07,-4.64,-4.44,-2.53,-1.06,349.8,3.18,0.04,0.04,3
20905,7.4051e+07,-4.62,-4.4,-2.51,-1.08,349.8,2.92,0.04,0.04,3
20950,7.4062e+07,-4.61,-4.37,-2.49,-1.15,349.8,2.65,0.04,0.04,3
20995,7.4072e+07,-4.59,-4.36,-2.48,-1.16,349.8,2.38,0.04,0.04,3
21039,7.4083e+07,-4.57,-4.35,-2.46,-1.16,349.8,2.14,0.04,0.04,3
21084,7.4093e+07,-4.56,-4.36,-2.45,-1.17,349.8,1.89,0.04,0.04,3
21131,7.4103e+07,-4.54,-4.37,-2.44,-1.11,349.8,1.66,0.05,0.04,3
21173,7.4115e+07,-4.52,-4.32,-2.44,-1.07,349.8,1.38,0.05,0.04,3
21218,7.4125e+07,-4.5,-4.28,-2.44,-1.07,349.8,1.15,0.05,0.04,3
21264,7.4136e+07,-4.47,-4.23,-2.44,-1.09,349.8,0.93,0.05,0.04,3
21309,7.4147e+07,-4.44,-4.21,-2.45,-1.16,349.8,0.69,0.05,0.04,3
21354,7.4158e+07,-4.41,-4.25,-2.46,-1.11,349.8,0.42,0.05,0.04,3
21399,7.4169e+07,-4.38,-4.28,-2.47,-1.08,349.8,0.18,0.05,0.04,3
21443,7.4179e+07,-4.34,-4.26,-2.47,-1.06,349.8,359.97,0.05,0.04,3
21488,7.4189e+07,-4.3,-4.17,-2.48,-1.05,349.8,359.73,0.05,0.04,3
21533,7.42e+07,-4.25,-4.12,-2.5,-1.08,349.8,359.53,0.05,0.04,3
21580,7.421e+07,-4.21,-4.09,-2.52,-1.1,349.8,359.33,0.05,0.04,3
21628,7.4221e+07,-4.17,-4.04,-2.54,-1.15,349.8,359.08,0.05,0.03,3
21672,7.4231e+07,-4.13,-3.99,-2.56,-1.16,349.81,358.87,0.05,0.03,3
21717,7.4242e+07,-4.09,-4.01,-2.57,-1.16,349.81,358.65,0.05,0.03,3
21762,7.4252e+07,-4.05,-4.03,-2.58,-1.19,349.81,358.44,0.05,0.03,3
21806,7.4263e+07,-4.01,-4,-2.59,-1.2,349.81,358.23,0.05,0.03,3
21851,7.4273e+07,-3.97,-4,-2.61,-1.26,349.81,358.06,0.05,0.03,3
21896,7.4283e+07,-3.94,-3.96,-2.62,-1.36,349.81,357.84,0.05,0.03,3
21941,7.4293e+07,-3.9,-3.89,-2.63,-1.42,349.81,357.65,0.05,0.03,3
21987,7.4304e+07,-3.87,-3.85,-2.63,-1.48,349.81,357.47,0.05,0.03,3
22033,7.4318e+07,-3.83,-3.85,-2.62,-1.54,349.81,357.24,0.05,0.03,3
22079,7.4329e+07,-3.8,-3.82,-2.62,-1.68,349.81,357.04,0.05,0.03,3
22123,7.434e+07,-3.76,-3.8,-2.61,-1.74,349.81,356.87,0.05,0.03,3
22168,7.4351e+07,-3.72,-3.77,-2.6,-1.72,349.81,356.69,0.05,0.03,3
22213,7.4361e+07,-3.68,-3.74,-2.59,-1.75,349.81,356.54,0.05,0.03,3
22257,7.4371e+07,-3.64,-3.71,-2.59,-1.8,349.81,356.4,0.05,0.03,3
22302,7.4382e+07,-3.6,-3.6,-2.59,-1.85,349.81,356.24,0.05,0.03,3
22348,7.4392e+07,-3.57,-3.55,-2.59,-1.86,349.81,356.09,0.05,0.03,3
22393,7.4403e+07,-3.53,-3.52,-2.59,-1.86,349.81,355.94,0.05,0.03,3
22437,7.4413e+07,-3.5,-3.55,-2.59,-1.84,349.81,355.77,0.05,0.03,3
22483,7.4424e+07,-3.46,-3.51,-2.59,-1.74,349.81,355.62,0.05,0.03,3
22533,7.4434e+07,-3.43,-3.38,-2.59,-1.73,349.81,355.47,0.05,0.02,3
22577,7.4446e+07,-3.4,-3.31,-2.59,-1.72,349.81,355.34,0.05,0.02,3
22622,7.4456e+07,-3.37,-3.26,-2.6,-1.65,349.81,355.18,0.05,0.02,3
22666,7.4466e+07,-3.34,-3.2,-2.61,-1.56,349.81,355.05,0.05,0.02,3
22711,7.4477e+07,-3.31,-3.15,-2.62,-1.47,349.81,354.91,0.05,0.02,3
22755,7.4487e+07,-3.29,-3.1,-2.63,-1.4,349.81,354.79,0.05,0.02,3
22800,7.4497e+07,-3.26,-3.05,-2.64,-1.33,349.81,354.67,0.05,0.02,3
22845,7.4512e+07,-3.23,-2.95,-2.66,-1.26,349.81,354.49,0.06,0.02,3
22890,7.4523e+07,-3.22,-2.87,-2.67,-1.17,349.81,354.36,0.06,0.02,3
22935,7.4534e+07,-3.2,-2.75,-2.68,-1.17,349.81,354.25,0.06,0.02,3
22984,7.4544e+07,-3.2,-2.7,-2.69,-1.16,349.81,354.16,0.06,0.02,3
23028,7.4555e+07,-3.2,-2.66,-2.68,-1.14,349.81,354.04,0.06,0.02,3
23073,7.4565e+07,-3.2,-2.59,-2.68,-1.09,349.81,353.94,0.06,0.02,3
23117,7.4575e+07,-3.21,-2.53,-2.66,-1.1,349.81,353.87,0.06,0.02,3
23161,7.4586e+07,-3.22,-2.48,-2.65,-1.11,349.81,353.8,0.06,0.02,3
23208,7.4597e+07,-3.23,-2.37,-2.63,-1.2,349.81,353.72,0.06,0.02,3
23252,7.4608e+07,-3.25,-2.38,-2.62,-1.2,349.81,353.63,0.06,0.02,3
23297,7.4618e+07,-3.28,-2.36,-2.62,-1.18,349.81,353.55,0.06,0.02,3
23341,7.4629e+07,-3.3,-2.31,-2.61,-1.17,349.81,353.49,0.06,0.02,3
23386,7.4639e+07,-3.32,-2.25,-2.61,-1.21,349.81,353.44,0.06,0.02,3
23435,7.4649e+07,-3.34,-2.23,-2.61,-1.25,349.81,353.38,0.06,0.01,3
23479,7.466e+07,-3.36,-2.21,-2.62,-1.25,349.81,353.31,0.06,0.01,3
23524,7.467e+07,-3.39,-2.23,-2.63,-1.26,349.81,353.25,0.06,0.01,3
23569,7.4681e+07,-3.41,-2.25,-2.64,-1.29,349.81,353.2,0.06,0.01,3
23612,7.4692e+07,-3.43,-2.27,-2.65,-1.31,349.81,353.14,0.06,0.01,3
23662,7.471e+07,-3.44,-2.31,-2.69,-1.34,348.82,352.07,0.06,0.01,3
23706,7.4721e+07,-3.46,-2.36,-2.71,-1.39,348.82,352.02,0.06,0.01,3
23751,7.4731e+07,-3.48,-2.44,-2.73,-1.39,348.82,351.98,0.06,0.01,3
23796,7.4741e+07,-3.49,-2.53,-2.75,-1.36,348.82,351.92,0.06,0.01,3
23844,7.4752e+07,-3.51,-2.54,-2.77,-1.35,348.82,351.88,0.06,0.01,3
23889,7.4763e+07,-3.53,-2.61,-2.8,-1.44,348.82,351.86,0.06,0.02,3
23934,7.4774e+07,-3.55,-2.78,-2.83,-1.45,348.82,351.82,0.06,0.02,3
23979,7.4785e+07,-3.56,-2.92,-2.86,-1.39,348.83,351.77,0.06,0.02,3
24023,7.4795e+07,-3.58,-3.02,-2.88,-1.39,348.83,351.75,0.06,0.02,3
24065,7.4806e+07,-3.59,-3.1,-2.92,-1.45,348.83,351.73,0.06,0.02,3
24107,7.4817e+07,-3.59,-3.24,-2.95,-1.45,348.83,351.68,0.06,0.02,3
24152,7.4828e+07,-3.6,-3.39,-3,-1.42,348.83,351.65,0.06,0.02,3
24197,7.4838e+07,-3.6,-3.54,-3.04,-1.39,348.84,351.61,0.06,0.02,3
24242,7.4849e+07,-3.61,-3.59,-3.09,-1.41,348.84,351.57,0.06,0.02,3
24290,7.4859e+07,-3.62,-3.62,-3.13,-1.45,348.84,351.55,0.06,0.02,3
24335,7.487e+07,-3.63,-3.7,-3.18,-1.5,348.85,351.52,0.06,0.02,3
24379,7.488e+07,-3.64,-3.78,-3.22,-1.52,348.85,351.49,0.06,0.02,3
24425,7.489e+07,-3.65,-3.84,-3.27,-1.51,348.85,351.45,0.06,0.02,3
24469,7.4907e+07,-3.66,-3.83,-3.32,-1.56,348.86,351.4,0.06,0.02,3
24512,7.4919e+07,-3.66,-3.87,-3.35,-1.53,348.86,351.36,0.06,0.02,3
24557,7.493e+07,-3.67,-3.82,-3.4,-1.61,348.86,351.33,0.06,0.02,3
24604,7.494e+07,-3.67,-3.78,-3.44,-1.68,348.86,351.3,0.06,0.02,3
24649,7.4951e+07,-3.67,-3.82,-3.48,-1.7,348.87,351.25,0.06,0.02,3
24694,7.4961e+07,-3.66,-3.87,-3.51,-1.69,348.87,351.23,0.06,0.02,3
24742,7.4972e+07,-3.64,-3.85,-3.54,-1.73,348.87,351.21,0.06,0.02,3
24787,7.4982e+07,-3.62,-3.77,-3.58,-1.8,348.87,351.2,0.06,0.02,3
24831,7.4993e+07,-3.6,-3.7,-3.61,-1.85,348.87,351.18,0.06,0.02,3
24878,7.5003e+07,-3.57,-3.66,-3.64,-1.89,348.88,351.16,0.06,0.02,3
24924,7.5021e+07,-3.55,-3.62,-3.66,-1.97,348.88,351.15,0.06,0.02,3
24969,7.5031e+07,-3.52,-3.65,-3.68,-1.98,348.88,351.13,0.06,0.02,3
25013,7.5042e+07,-3.49,-3.62,-3.69,-2,348.88,351.12,0.06,0.02,3
25059,7.5052e+07,-3.46,-3.55,-3.7,-2.06,348.88,351.12,0.06,0.02,3
25103,7.5063e+07,-3.44,-3.45,-3.71,-2.16,348.88,351.12,0.06,0.02,3
25153,7.5074e+07,-3.42,-3.37,-3.72,-2.21,348.88,351.12,0.06,0.02,3
25198,7.5084e+07,-3.4,-3.32,-3.73,-2.23,348.88,351.11,0.06,0.02,3
25242,7.5094e+07,-3.39,-3.25,-3.74,-2.24,348.88,351.11,0.06,0.02,3
25289,7.5105e+07,-3.38,-3.17,-3.75,-2.29,348.88,351.12,0.06,0.02,3
25330,7.512e+07,-3.37,-3.05,-3.76,-2.34,348.88,351.11,0.07,0.02,3
25369,7.5133e+07,-3.37,-2.9,-3.77,-2.45,348.88,351.14,0.07,0.02,3
25413,7.5144e+07,-3.38,-2.82,-3.78,-2.5,348.88,351.14,0.07,0.02,3
25459,7.5154e+07,-3.38,-2.75,-3.79,-2.5,348.88,351.13,0.07,0.02,3
25504,7.5165e+07,-3.38,-2.71,-3.79,-2.52,348.89,351.15,0.07,0.02,3
25549,7.5175e+07,-3.38,-2.62,-3.8,-2.57,348.89,351.18,0.07,0.02,3
25598,7.5185e+07,-3.39,-2.5,-3.8,-2.66,348.89,351.2,0.07,0.02,3
25642,7.5196e+07,-3.41,-2.43,-3.8,-2.7,348.89,351.22,0.07,0.02,3
25686,7.5207e+07,-3.43,-2.41,-3.8,-2.74,348.89,351.24,0.07,0.02,3
25730,7.5217e+07,-3.45,-2.36,-3.8,-2.76,348.89,351.25,0.07,0.02,3
25771,7.5232e+07,-3.48,-2.23,-3.8,-2.84,348.89,351.31,0.07,0.02,3
25816,7.5243e+07,-3.51,-2.2,-3.79,-2.84,348.89,351.32,0.07,0.02,3
25860,7.5254e+07,-3.55,-2.14,-3.79,-2.85,348.88,351.36,0.07,0.02,3
25905,7.5264e+07,-3.58,-2.05,-3.78,-2.89,348.88,351.4,0.07,0.02,3
25950,7.5274e+07,-3.62,-1.98,-3.78,-2.96,348.88,351.44,0.07,0.02,3
25998,7.5285e+07,-3.67,-1.99,-3.77,-3.04,348.88,351.46,0.07,0.02,3
26046,7.5295e+07,-3.71,-2.03,-3.77,-3.03,348.88,351.49,0.07,0.02,3
26093,7.5313e+07,-3.76,-1.99,-3.75,-3.06,348.88,351.54,0.07,0.02,3
26137,7.5324e+07,-3.79,-2.03,-3.73,-3.07,348.88,351.51,0.07,0.02,3
26184,7.5334e+07,-3.83,-2.02,-3.7,-3.14,348.88,351.49,0.07,0.02,3
26223,7.5346e+07,-3.85,-2.01,-3.69,-3.23,348.88,351.46,0.07,0.02,3
26267,7.5357e+07,-3.91,-2.03,-3.66,-3.26,348.88,351.42,0.07,0.02,3
26312,7.5368e+07,-3.96,-2.06,-3.61,-3.29,348.87,351.4,0.07,0.02,3
26357,7.5378e+07,-4.02,-2.03,-3.55,-3.37,348.87,351.38,0.07,0.02,3
26401,7.5388e+07,-4.08,-2,-3.49,-3.46,348.86,351.35,0.07,0.02,3
26451,7.5399e+07,-4.14,-2,-3.43,-3.53,348.86,351.3,0.07,0.02,3
26498,7.5409e+07,-4.21,-2.06,-3.37,-3.58,348.86,351.27,0.07,0.02,3
26543,7.5419e+07,-4.27,-2.14,-3.31,-3.62,348.85,351.24,0.07,0.02,3
26588,7.5429e+07,-4.32,-2.18,-3.24,-3.66,348.85,351.2,0.07,0.02,3
26632,7.544e+07,-4.38,-2.21,-3.17,-3.71,348.84,351.17,0.07,0.02,3
26677,7.545e+07,-4.43,-2.25,-3.11,-3.76,348.84,351.15,0.07,0.02,3
26716,7.5463e+07,-4.45,-2.37,-3.07,-3.72,348.83,351.1,0.07,0.02,3
26760,7.5473e+07,-4.5,-2.42,-3.01,-3.7,348.83,351.08,0.07,0.02,3
26805,7.5483e+07,-4.54,-2.5,-2.94,-3.71,348.82,351.07,0.07,0.02,3
26851,7.5493e+07,-4.58,-2.6,-2.88,-3.73,348.82,351.07,0.07,0.02,3
26900,7.5504e+07,-4.63,-2.67,-2.81,-3.72,348.81,351.03,0.07,0.02,3
26946,7.5515e+07,-4.67,-2.77,-2.74,-3.63,348.81,351.02,0.07,0.03,3
26992,7.5529e+07,-4.72,-2.91,-2.65,-3.64,348.8,351.02,0.07,0.03,3
27034,7.554e+07,-4.76,-3.06,-2.57,-3.5,348.79,351.05,0.07,0.03,3
27075,7.5552e+07,-4.78,-3.12,-2.52,-3.47,348.79,351.09,0.07,0.03,3
27120,7.5566e+07,-4.82,-3.29,-2.44,-3.33,348.78,351.11,0.07,0.03,3
27165,7.5576e+07,-4.85,-3.39,-2.38,-3.24,348.78,351.15,0.07,0.03,3
27209,7.5586e+07,-4.87,-3.43,-2.32,-3.19,348.77,351.21,0.07,0.03,3
27254,7.5596e+07,-4.88,-3.52,-2.26,-3.1,348.77,351.25,0.07,0.03,3
27298,7.5607e+07,-4.89,-3.65,-2.21,-2.97,348.76,351.29,0.07,0.03,3
27348,7.5618e+07,-4.9,-3.8,-2.16,-2.82,348.76,351.34,0.07,0.03,3
27393,7.5627e+07,-4.91,-3.9,-2.11,-2.7,348.75,351.39,0.07,0.03,3
27437,7.5638e+07,-4.91,-3.96,-2.07,-2.59,348.75,351.44,0.07,0.03,3
27482,7.5649e+07,-4.9,-4.05,-2.03,-2.5,348.75,351.5,0.07,0.03,3
27520,7.5661e+07,-4.9,-4.16,-2.01,-2.36,348.74,351.55,0.07,0.03,3
27565,7.5672e+07,-4.89,-4.24,-1.97,-2.24,348.74,351.61,0.07,0.03,3
27611,7.5683e+07,-4.87,-4.32,-1.92,-2.16,348.74,351.68,0.07,0.03,3
27655,7.5693e+07,-4.86,-4.37,-1.88,-2.12,348.73,351.73,0.07,0.03,3
27699,7.5704e+07,-4.84,-4.43,-1.83,-1.97,348.73,351.78,0.06,0.03,3
27740,7.5715e+07,-4.81,-4.49,-1.78,-1.87,348.73,351.87,0.06,0.03,3
27789,7.5726e+07,-4.78,-4.49,-1.74,-1.84,348.72,351.97,0.06,0.03,3
27834,7.5736e+07,-4.75,-4.52,-1.71,-1.78,348.72,352.07,0.06,0.03,3
27878,7.5747e+07,-4.72,-4.59,-1.69,-1.69,348.72,352.16,0.06,0.03,3
27924,7.5757e+07,-4.68,-4.58,-1.68,-1.58,348.72,352.24,0.06,0.03,3
27968,7.5767e+07,-4.64,-4.57,-1.67,-1.49,348.72,352.34,0.06,0.03,3
28007,7.578e+07,-4.62,-4.5,-1.67,-1.52,348.72,352.47,0.06,0.03,3
28052,7.579e+07,-4.58,-4.55,-1.67,-1.42,348.72,352.54,0.06,0.03,3
28096,7.58e+07,-4.53,-4.58,-1.68,-1.32,348.72,352.63,0.06,0.03,3
28143,7.5811e+07,-4.47,-4.54,-1.69,-1.27,348.72,352.73,0.06,0.03,3
28187,7.5821e+07,-4.41,-4.47,-1.71,-1.25,348.72,352.83,0.06,0.03,3
28236,7.5831e+07,-4.35,-4.41,-1.73,-1.24,348.72,352.91,0.06,0.02,3
28281,7.5842e+07,-4.29,-4.36,-1.75,-1.21,348.72,352.98,0.06,0.02,3
28325,7.5853e+07,-4.23,-4.35,-1.77,-1.16,348.72,353.08,0.06,0.02,3
28370,7.5863e+07,-4.17,-4.3,-1.78,-1.13,348.72,353.15,0.06,0.02,3
28413,7.5878e+07,-4.13,-4.2,-1.8,-1.15,348.73,353.24,0.06,0.02,3
28459,7.589e+07,-4.07,-4.12,-1.83,-1.13,348.73,353.33,0.06,0.02,3
28504,7.59e+07,-4.01,-4.06,-1.86,-1.19,348.73,353.42,0.06,0.02,3
28550,7.5911e+07,-3.95,-3.95,-1.89,-1.19,348.73,353.47,0.06,0.02,3
28595,7.5926e+07,-3.87,-3.85,-1.91,-1.22,348.73,353.57,0.06,0.02,3
28644,7.5936e+07,-3.8,-3.77,-1.93,-1.24,348.73,353.62,0.06,0.02,3
28690,7.5947e+07,-3.74,-3.75,-1.94,-1.25,348.74,353.67,0.06,0.02,3
28735,7.5958e+07,-3.67,-3.67,-1.96,-1.21,348.74,353.73,0.06,0.02,3
28780,7.5972e+07,-3.61,-3.55,-1.97,-1.33,348.74,353.82,0.06,0.02,3
28824,7.5983e+07,-3.54,-3.53,-1.98,-1.28,348.74,353.86,0.06,0.02,3
28870,7.5997e+07,-3.48,-3.37,-1.99,-1.32,348.74,353.95,0.06,0.02,3
28915,7.6007e+07,-3.43,-3.29,-2,-1.34,348.74,354,0.06,0.02,3
28960,7.6018e+07,-3.37,-3.28,-2.01,-1.33,348.74,354.05,0.06,0.02,3
29007,7.6029e+07,-3.32,-3.28,-2.01,-1.32,348.74,354.09,0.06,0.02,3
29051,7.6039e+07,-3.27,-3.21,-2.02,-1.31,348.74,354.13,0.06,0.02,3
29100,7.605e+07,-3.22,-3.14,-2.02,-1.36,348.74,354.2,0.06,0.02,3
29144,7.606e+07,-3.18,-3.09,-2.03,-1.4,348.74,354.22,0.06,0.02,3
29189,7.6071e+07,-3.14,-3.07,-2.03,-1.4,348.74,354.26,0.06,0.02,3
29234,7.6081e+07,-3.11,-3.08,-2.03,-1.39,348.74,354.3,0.06,0.02,3
29275,7.6096e+07,-3.09,-2.95,-2.03,-1.47,348.74,354.35,0.06,0.02,3
29320,7.6107e+07,-3.05,-2.98,-2.02,-1.46,348.74,354.38,0.06,0.02,3
29364,7.6119e+07,-3.01,-2.94,-2.01,-1.41,348.74,354.41,0.05,0.02,3
29405,7.613e+07,-2.98,-2.9,-2,-1.45,348.74,354.46,0.05,0.02,3
29450,7.614e+07,-2.95,-2.84,-1.98,-1.5,348.74,354.48,0.05,0.02,3
29495,7.615e+07,-2.92,-2.76,-1.96,-1.55,348.74,354.49,0.05,0.02,3
29543,7.6161e+07,-2.89,-2.79,-1.93,-1.58,348.74,354.5,0.05,0.01,3
29587,7.6172e+07,-2.86,-2.85,-1.89,-1.55,348.73,354.52,0.05,0.01,3
29631,7.6182e+07,-2.83,-2.84,-1.85,-1.55,348.73,354.53,0.05,0.01,3
29676,7.6192e+07,-2.79,-2.82,-1.81,-1.55,348.73,354.55,0.05,0.01,3
29718,7.6203e+07,-2.76,-2.76,-1.78,-1.56,348.73,354.56,0.05,0.01,3
29762,7.6217e+07,-2.73,-2.75,-1.74,-1.54,348.73,354.57,0.05,0.01,3
29809,7.6228e+07,-2.7,-2.75,-1.7,-1.52,348.72,354.58,0.05,0.01,3
29854,7.6238e+07,-2.66,-2.74,-1.66,-1.5,348.72,354.58,0.05,0.01,3
29898,7.6249e+07,-2.62,-2.75,-1.61,-1.51,348.72,354.59,0.05,0.01,3
29947,7.626e+07,-2.59,-2.77,-1.57,-1.53,348.72,354.56,0.05,0.01,3
29991,7.627e+07,-2.56,-2.71,-1.52,-1.51,348.72,354.55,0.05,0.01,3
30036,7.6281e+07,-2.53,-2.7,-1.47,-1.48,348.71,354.54,0.05,0.01,3
30080,7.6291e+07,-2.5,-2.72,-1.42,-1.45,348.71,354.53,0.05,0.01,3
30128,7.6305e+07,-2.47,-2.61,-1.38,-1.46,348.71,354.52,0.05,0.01,3
30167,7.6318e+07,-2.44,-2.67,-1.33,-1.41,348.71,354.49,0.05,0.01,3
30208,7.6329e+07,-2.4,-2.71,-1.28,-1.33,348.71,354.47,0.05,0.01,3
30253,7.6339e+07,-2.37,-2.62,-1.24,-1.3,348.7,354.45,0.05,0.01,3
30300,7.635e+07,-2.34,-2.64,-1.19,-1.28,348.7,354.43,0.05,0.01,3
30346,7.636e+07,-2.31,-2.66,-1.15,-1.26,348.7,354.41,0.05,0.01,3
30395,7.6371e+07,-2.28,-2.63,-1.11,-1.23,348.7,354.38,0.05,0.01,3
30439,7.6382e+07,-2.26,-2.64,-1.07,-1.18,348.7,354.35,0.05,0.01,3
30484,7.6392e+07,-2.24,-2.68,-1.04,-1.14,348.7,354.32,0.05,0.01,3
30530,7.6403e+07,-2.23,-2.73,-1.01,-1.05,348.69,354.3,0.05,0.01,3
30572,7.6418e+07,-2.22,-2.71,-0.99,-1.07,348.69,354.25,0.05,0.01,3
30616,7.6429e+07,-2.2,-2.73,-0.95,-1.02,348.69,354.22,0.05,0.01,3
30662,7.644e+07,-2.19,-2.71,-0.92,-0.99,348.69,354.2,0.05,0.01,3
30706,7.645e+07,-2.17,-2.69,-0.88,-0.98,348.69,354.18,0.05,0.01,3
30750,7.646e+07,-2.15,-2.66,-0.84,-1,348.69,354.15,0.05,0.01,3
30795,7.6471e+07,-2.14,-2.63,-0.81,-1.03,348.69,354.12,0.05,0.01,3
30844,7.6481e+07,-2.13,-2.67,-0.78,-1.04,348.69,354.1,0.05,0.01,3
30888,7.6491e+07,-2.11,-2.68,-0.75,-1.04,348.68,354.08,0.05,0.01,3
30935,7.6502e+07,-2.1,-2.7,-0.72,-1.04,348.68,354.04,0.05,0.01,3
30976,7.6521e+07,-2.08,-2.71,-0.69,-1.04,348.68,354,0.05,0.01,3
31021,7.6531e+07,-2.06,-2.8,-0.67,-0.98,348.68,353.97,0.05,0.01,3
31063,7.6543e+07,-2.04,-2.77,-0.66,-0.96,348.68,353.95,0.05,0.01,3
31107,7.6553e+07,-2.02,-2.69,-0.64,-0.98,348.68,353.93,0.05,0.01,3
31152,7.6564e+07,-2.01,-2.64,-0.62,-1,348.68,353.91,0.05,0.01,3
31197,7.6574e+07,-1.99,-2.63,-0.59,-1.02,348.68,353.88,0.05,0.01,3
31246,7.6585e+07,-1.98,-2.63,-0.56,-1.04,348.68,353.86,0.05,0.01,3
31291,7.6595e+07,-1.97,-2.57,-0.53,-1.08,348.68,353.83,0.05,0.01,3
31336,7.6606e+07,-1.96,-2.58,-0.51,-1.1,348.68,353.8,0.05,0.01,3
31381,7.6617e+07,-1.96,-2.54,-0.48,-1.07,348.68,353.77,0.05,0.01,3
31423,7.6632e+07,-1.95,-2.48,-0.46,-1.1,348.67,353.74,0.05,0.01,3
31467,7.6642e+07,-1.94,-2.42,-0.43,-1.1,348.67,353.72,0.05,0.01,3
31512,7.6652e+07,-1.93,-2.37,-0.4,-1.1,348.67,353.69,0.05,0.01,3
31557,7.6662e+07,-1.92,-2.38,-0.38,-1.1,348.67,353.67,0.05,0.01,3
31601,7.6673e+07,-1.91,-2.4,-0.36,-1.07,348.67,353.64,0.05,0.01,3
31647,7.6683e+07,-1.9,-2.38,-0.34,-1.02,348.67,353.62,0.05,0.01,3
31695,7.6693e+07,-1.89,-2.33,-0.32,-0.98,348.67,353.59,0.05,0.01,3
31738,7.6705e+07,-1.88,-2.3,-0.31,-0.91,348.67,353.58,0.06,0.01,3
31782,7.6716e+07,-1.87,-2.23,-0.3,-0.88,348.67,353.55,0.06,0.01,3
31827,7.6726e+07,-1.86,-2.2,-0.3,-0.88,348.67,353.53,0.06,0.01,3
31871,7.6737e+07,-1.84,-2.19,-0.3,-0.85,348.67,353.52,0.06,0.01,3
31916,7.6754e+07,-1.83,-2.13,-0.3,-0.79,348.67,353.48,0.06,0.01,3
31962,7.6764e+07,-1.82,-2.13,-0.3,-0.79,348.67,353.46,0.06,0.01,3
32008,7.6775e+07,-1.8,-2.13,-0.31,-0.77,348.67,353.44,0.06,0.01,3
32052,7.6785e+07,-1.79,-2.14,-0.32,-0.78,348.67,353.4,0.06,0.01,3
32097,7.6796e+07,-1.78,-2.06,-0.33,-0.79,348.67,353.38,0.06,0.01,3
32145,7.6806e+07,-1.78,-2.02,-0.35,-0.79,348.67,353.35,0.06,0.01,3
32190,7.6816e+07,-1.78,-2.03,-0.36,-0.79,348.67,353.32,0.06,0.01,3
32235,7.6826e+07,-1.77,-2.07,-0.37,-0.78,348.67,353.28,0.06,0.01,3
32279,7.6837e+07,-1.76,-2.04,-0.38,-0.75,348.67,353.25,0.06,0.01,3
32319,7.6849e+07,-1.76,-2.06,-0.38,-0.65,348.67,353.22,0.06,0.01,3
32365,7.686e+07,-1.74,-2.01,-0.38,-0.69,348.67,353.18,0.06,0.01,3
32409,7.687e+07,-1.74,-1.95,-0.39,-0.68,348.67,353.14,0.06,0.01,3
32455,7.6881e+07,-1.73,-1.9,-0.41,-0.69,348.67,353.11,0.06,0.01,3
32499,7.6892e+07,-1.72,-1.87,-0.44,-0.72,348.67,353.07,0.06,0.01,3
32546,7.6903e+07,-1.72,-1.85,-0.46,-0.76,348.67,353.03,0.06,0.01,3
32596,7.6913e+07,-1.73,-1.78,-0.49,-0.76,348.68,352.98,0.06,0.01,3
32635,7.6925e+07,-1.73,-1.79,-0.51,-0.65,348.68,352.95,0.05,0.01,3
32680,7.6936e+07,-1.74,-1.75,-0.53,-0.64,348.68,352.93,0.05,0.01,3
32726,7.6946e+07,-1.74,-1.68,-0.56,-0.61,348.68,352.92,0.05,0.01,3
32768,7.6958e+07,-1.74,-1.61,-0.59,-0.59,348.68,352.91,0.05,0.01,3
32813,7.6969e+07,-1.75,-1.53,-0.63,-0.64,348.68,352.9,0.05,0.01,3
32857,7.6979e+07,-1.74,-1.48,-0.67,-0.63,348.68,352.89,0.05,0.01,3
32903,7.699e+07,-1.74,-1.42,-0.71,-0.68,348.68,352.86,0.05,0.01,3
32944,7.7002e+07,-1.73,-1.46,-0.74,-0.72,348.68,352.81,0.05,0.01,3
32988,7.7012e+07,-1.71,-1.46,-0.78,-0.71,348.68,352.8,0.05,0.01,3
33037,7.7022e+07,-1.68,-1.5,-0.82,-0.7,348.69,352.78,0.05,0.01,3
33083,7.7033e+07,-1.65,-1.55,-0.85,-0.69,348.69,352.76,0.05,0.01,3
33128,7.7043e+07,-1.63,-1.56,-0.88,-0.69,348.69,352.72,0.05,0.01,3
33173,7.7054e+07,-1.61,-1.58,-0.9,-0.69,348.69,352.69,0.05,0.01,3
33214,7.7065e+07,-1.6,-1.6,-0.92,-0.63,348.69,352.66,0.05,0.01,3
33259,7.7076e+07,-1.59,-1.56,-0.95,-0.67,348.69,352.64,0.05,0.01,3
33301,7.7088e+07,-1.58,-1.4,-0.98,-0.79,348.69,352.59,0.05,0.01,3
33345,7.7098e+07,-1.57,-1.35,-1.01,-0.85,348.69,352.53,0.05,0.01,3
33393,7.7109e+07,-1.57,-1.37,-1.04,-0.88,348.69,352.5,0.05,0.01,3
33439,7.7123e+07,-1.57,-1.45,-1.07,-0.96,348.69,352.38,0.07,0.01,3
33484,7.7134e+07,-1.58,-1.48,-1.07,-0.98,348.69,352.3,0.07,0.01,3
33528,7.7144e+07,-1.59,-1.42,-1.05,-1.09,348.69,352.23,0.07,0.01,3
33573,7.7155e+07,-1.61,-1.36,-1.04,-1.13,348.69,352.14,0.07,0.01,3
33614,7.7166e+07,-1.62,-1.31,-1.02,-1.19,348.69,352.06,0.07,0.01,3
33659,7.7176e+07,-1.64,-1.25,-0.99,-1.21,348.69,351.97,0.07,0.01,3
33701,7.7187e+07,-1.67,-1.16,-0.98,-1.28,348.69,351.9,0.07,0.01,3
33745,7.7198e+07,-1.69,-1.18,-0.96,-1.3,348.69,351.82,0.07,0.01,3
33790,7.7209e+07,-1.72,-1.13,-0.94,-1.34,348.69,351.72,0.07,0.01,3
33835,7.7219e+07,-1.74,-1.1,-0.93,-1.32,348.69,351.64,0.07,0.01,3
33884,7.723e+07,-1.76,-1.12,-0.91,-1.33,348.69,351.56,0.07,0.01,3
33929,7.724e+07,-1.78,-1.16,-0.9,-1.26,348.69,351.48,0.07,0.01,3
33973,7.7251e+07,-1.8,-1.18,-0.88,-1.23,348.69,351.41,0.07,0.01,3
34019,7.7261e+07,-1.82,-1.18,-0.86,-1.21,348.69,351.34,0.07,0.01,3
34063,7.7275e+07,-1.83,-1.35,-0.84,-0.98,348.69,351.28,0.07,0.01,3
34108,7.729e+07,-1.85,-1.3,-0.81,-0.96,348.68,351.21,0.07,0.01,3
34152,7.73e+07,-1.86,-1.37,-0.79,-0.91,348.68,351.16,0.07,0.01,3
34196,7.7311e+07,-1.87,-1.44,-0.77,-0.8,348.68,351.13,0.09,0.01,3
34238,7.7322e+07,-1.88,-1.58,-0.76,-0.64,348.68,351.13,0.09,0.01,3
34282,7.7332e+07,-1.88,-1.61,-0.75,-0.58,348.68,351.13,0.09,0.01,3
34331,7.7343e+07,-1.89,-1.61,-0.76,-0.53,348.68,351.15,0.09,0.01,3
34376,7.7353e+07,-1.9,-1.65,-0.76,-0.46,348.68,351.16,0.09,0.01,3
34421,7.7364e+07,-1.91,-1.68,-0.77,-0.45,348.68,351.19,0.09,0.01,3
34466,7.7374e+07,-1.92,-1.69,-0.77,-0.45,348.68,351.22,0.09,0.01,3
34507,7.7385e+07,-1.92,-1.79,-0.78,-0.36,348.68,351.25,0.09,0.01,3
34554,7.7399e+07,-1.92,-1.72,-0.79,-0.31,348.68,351.3,0.09,0.01,3
34598,7.7409e+07,-1.93,-1.76,-0.79,-0.32,348.68,351.34,0.09,0.01,3
34643,7.742e+07,-1.94,-1.81,-0.79,-0.33,348.68,351.37,0.09,0.01,3
34691,7.743e+07,-1.94,-1.84,-0.8,-0.36,348.68,351.41,0.09,0.01,3
34735,7.7441e+07,-1.95,-1.91,-0.81,-0.37,348.68,351.45,0.09,0.01,3
34784,7.7452e+07,-1.95,-1.89,-0.83,-0.4,348.69,351.5,0.09,0.02,3
34828,7.7462e+07,-1.96,-1.88,-0.85,-0.48,348.69,351.55,0.09,0.02,3
34873,7.7473e+07,-1.96,-1.84,-0.88,-0.54,348.69,351.58,0.09,0.02,3
34918,7.7483e+07,-1.97,-1.8,-0.9,-0.64,348.69,351.62,0.09,0.02,3
34959,7.7495e+07,-1.97,-1.79,-0.91,-0.72,348.69,351.66,0.09,0.02,3
35004,7.7509e+07,-1.98,-2,-0.92,-0.8,348.69,351.7,0.09,0.02,3
35051,7.7519e+07,-1.99,-2.01,-0.95,-0.86,348.69,351.74,0.09,0.02,3
35089,7.753e+07,-1.98,-2.1,-0.97,-0.84,348.69,351.78,0.09,0.02,3
35134,7.7542e+07,-1.99,-2.03,-1,-0.93,348.69,351.82,0.09,0.02,3
35184,7.7552e+07,-2.01,-2.02,-1.02,-0.95,348.69,351.85,0.09,0.02,3
35229,7.7562e+07,-2.02,-2.07,-1.05,-0.99,348.69,351.88,0.09,0.02,3
35273,7.7572e+07,-2.03,-2.1,-1.08,-1.04,348.69,351.91,0.09,0.02,3
35318,7.7583e+07,-2.05,-2.11,-1.11,-1.08,348.69,351.94,0.09,0.02,3
35359,7.7594e+07,-2.06,-2.14,-1.13,-1.08,348.7,351.97,0.09,0.02,3
35401,7.7606e+07,-2.07,-2.13,-1.16,-1.1,348.7,352.01,0.09,0.02,3
35445,7.7616e+07,-2.08,-2.17,-1.21,-1.12,348.7,352.01,0.09,0.02,3
35489,7.7626e+07,-2.1,-2.21,-1.25,-1.14,348.7,352.02,0.09,0.02,3
35533,7.7637e+07,-2.11,-2.29,-1.3,-1.12,348.7,352.05,0.09,0.02,3
35578,7.7647e+07,-2.13,-2.36,-1.35,-1.13,348.7,352.07,0.09,0.02,3
35628,7.7658e+07,-2.16,-2.4,-1.4,-1.15,348.71,352.07,0.09,0.02,3
35673,7.7668e+07,-2.2,-2.4,-1.45,-1.19,348.71,352.07,0.09,0.02,3
35717,7.7679e+07,-2.24,-2.45,-1.49,-1.23,348.71,352.07,0.09,0.02,3
35762,7.7689e+07,-2.27,-2.54,-1.53,-1.24,348.71,352.08,0.09,0.02,3
35807,7.7699e+07,-2.31,-2.61,-1.56,-1.22,348.71,352.06,0.09,0.02,3
35847,7.7712e+07,-2.33,-2.61,-1.59,-1.31,348.71,352.07,0.09,0.02,3
35885,7.7723e+07,-2.37,-2.61,-1.62,-1.44,348.71,352.06,0.09,0.02,3
35930,7.7734e+07,-2.45,-2.69,-1.66,-1.43,348.72,352.04,0.09,0.02,3
35975,7.7744e+07,-2.53,-2.77,-1.7,-1.41,348.72,352.03,0.09,0.02,3
36019,7.7754e+07,-2.61,-2.87,-1.74,-1.4,348.72,352.01,0.09,0.02,3
36068,7.7765e+07,-2.7,-2.98,-1.77,-1.39,348.72,352,0.09,0.02,3
36113,7.7775e+07,-2.78,-3.02,-1.81,-1.46,348.72,351.98,0.09,0.02,3
36158,7.7786e+07,-2.86,-3.05,-1.84,-1.5,348.72,351.97,0.09,0.02,3
36204,7.7796e+07,-2.94,-3.08,-1.86,-1.5,348.73,351.95,0.09,0.02,3
36248,7.7806e+07,-3.03,-3.15,-1.88,-1.5,348.73,351.93,0.09,0.02,3
36290,7.7817e+07,-3.09,-3.23,-1.88,-1.63,348.73,351.9,0.09,0.02,3
36334,7.7828e+07,-3.22,-3.31,-1.88,-1.61,348.73,351.89,0.09,0.02,3
36376,7.7839e+07,-3.31,-3.37,-1.87,-1.66,348.73,351.88,0.09,0.02,3
36421,7.7849e+07,-3.45,-3.42,-1.85,-1.67,348.72,351.86,0.09,0.02,3
36465,7.786e+07,-3.58,-3.53,-1.81,-1.69,348.72,351.85,0.09,0.02,3
36514,7.7871e+07,-3.71,-3.65,-1.76,-1.71,348.72,351.83,0.09,0.02,3
36558,7.7881e+07,-3.83,-3.73,-1.72,-1.7,348.72,351.83,0.09,0.02,3
36606,7.7891e+07,-3.97,-3.84,-1.67,-1.67,348.71,351.82,0.09,0.02,3
36653,7.7905e+07,-4.14,-4.03,-1.59,-1.51,348.71,351.81,0.09,0.02,3
36695,7.7916e+07,-4.28,-4.07,-1.53,-1.46,348.7,351.81,0.09,0.02,3
36736,7.793e+07,-4.43,-4.29,-1.46,-1.48,348.7,351.8,0.09,0.02,3
36783,7.7943e+07,-4.67,-4.44,-1.31,-1.29,348.69,351.82,0.09,0.02,3
36829,7.7954e+07,-4.85,-4.58,-1.19,-1.18,348.68,351.83,0.09,0.02,3
36874,7.7964e+07,-5.02,-4.65,-1.06,-1.04,348.66,351.86,0.09,0.02,3
36919,7.7974e+07,-5.18,-4.78,-0.91,-0.95,348.65,351.88,0.09,0.02,3
36968,7.7985e+07,-5.34,-4.9,-0.74,-0.81,348.63,351.9,0.09,0.03,3
37013,7.7995e+07,-5.49,-5.07,-0.57,-0.66,348.62,351.92,0.09,0.03,3
37059,7.8005e+07,-5.65,-5.19,-0.39,-0.55,348.6,351.94,0.09,0.03,3
37103,7.8015e+07,-5.8,-5.25,-0.22,-0.44,348.58,351.96,0.09,0.03,3
37145,7.8027e+07,-5.91,-5.32,-0.06,-0.32,348.57,351.99,0.09,0.03,3
37188,7.8039e+07,-6.02,-5.57,0.09,-0.14,348.55,352.01,0.09,0.03,3
37233,7.8049e+07,-6.14,-5.72,0.32,0.02,348.53,352.03,0.09,0.03,3
37278,7.8059e+07,-6.25,-5.82,0.53,0.21,348.5,352.05,0.09,0.03,3
37322,7.8069e+07,-6.36,-5.92,0.76,0.4,348.48,352.06,0.09,0.03,3
37367,7.8079e+07,-6.46,-6.02,0.97,0.61,348.45,352.08,0.09,0.03,3
37415,7.809e+07,-6.56,-6.15,1.19,0.85,348.43,352.09,0.09,0.03,3
37459,7.81e+07,-6.66,-6.3,1.4,1.08,348.41,352.1,0.09,0.03,3
37504,7.8111e+07,-6.75,-6.39,1.62,1.3,348.38,352.11,0.09,0.03,3
37550,7.8121e+07,-6.82,-6.48,1.84,1.52,348.35,352.12,0.08,0.03,3
37590,7.8133e+07,-6.85,-6.53,1.94,1.79,348.34,352.13,0.08,0.03,3
37629,7.8145e+07,-6.88,-6.6,2.05,1.94,348.33,352.13,0.08,0.03,3
37673,7.8155e+07,-6.93,-6.66,2.27,2.12,348.3,352.13,0.08,0.03,3
37718,7.8165e+07,-6.97,-6.7,2.48,2.3,348.28,352.13,0.08,0.03,3
37762,7.8176e+07,-6.99,-6.76,2.68,2.48,348.25,352.12,0.08,0.03,3
37807,7.8186e+07,-7.01,-6.85,2.88,2.66,348.23,352.12,0.08,0.03,3
37855,7.8196e+07,-7.04,-6.92,3.07,2.83,348.2,352.11,0.08,0.03,3
37900,7.8207e+07,-7.06,-7,3.26,3.01,348.18,352.09,0.08,0.03,3
37945,7.8217e+07,-7.08,-7.11,3.46,3.21,348.15,352.06,0.08,0.03,3
37991,7.8228e+07,-7.09,-7.15,3.66,3.39,348.13,352.06,0.08,0.03,3
38036,7.8242e+07,-7.1,-7.29,3.85,3.79,348.11,352.03,0.08,0.03,3
38080,7.8256e+07,-7.12,-7.24,4.03,3.89,348.08,351.98,0.08,0.03,3
38125,7.8267e+07,-7.13,-7.28,4.19,4.08,348.06,351.95,0.08,0.03,3
38170,7.8278e+07,-7.14,-7.37,4.34,4.31,348.04,351.94,0.08,0.03,3
38214,7.8289e+07,-7.15,-7.42,4.5,4.53,348.02,351.89,0.08,0.03,3
38263,7.83e+07,-7.15,-7.42,4.65,4.7,348.01,351.86,0.08,0.03,3
38308,7.831e+07,-7.15,-7.39,4.79,4.92,347.99,351.84,0.08,0.03,3
38352,7.8325e+07,-7.16,-7.19,4.93,5,347.97,351.82,0.07,0.03,3
38393,7.8336e+07,-7.15,-7.26,5.03,5.18,347.96,351.75,0.07,0.03,3
38437,7.8347e+07,-7.14,-7.2,5.14,5.29,347.94,351.73,0.07,0.03,3
38480,7.8358e+07,-7.12,-7.2,5.22,5.48,347.93,351.67,0.07,0.03,3
38525,7.8369e+07,-7.1,-7.22,5.32,5.68,347.92,351.62,0.07,0.03,3
38569,7.8379e+07,-7.08,-7.13,5.41,5.81,347.91,351.59,0.07,0.03,3
38616,7.8389e+07,-7.06,-7.07,5.49,5.93,347.9,351.56,0.07,0.03,3
38660,7.84e+07,-7.03,-6.99,5.56,6.02,347.89,351.53,0.07,0.03,3
38710,7.841e+07,-7,-6.91,5.64,6.16,347.88,351.5,0.07,0.02,3
38755,7.8421e+07,-6.98,-6.82,5.71,6.24,347.87,351.47,0.07,0.02,3
38800,7.8432e+07,-6.97,-6.7,5.79,6.29,347.86,351.44,0.07,0.02,3
38845,7.8442e+07,-6.97,-6.59,5.86,6.3,347.85,351.41,0.07,0.02,3
38889,7.8452e+07,-6.97,-6.46,5.92,6.29,347.85,351.4,0.07,0.02,3
38930,7.8464e+07,-6.97,-6.39,5.97,6.3,347.84,351.37,0.07,0.02,3
38974,7.8475e+07,-6.97,-6.35,6.03,6.31,347.83,351.34,0.07,0.02,3
39016,7.8487e+07,-6.96,-6.4,6.08,6.39,347.83,351.31,0.07,0.02,3
39061,7.8497e+07,-6.95,-6.36,6.13,6.42,347.82,351.28,0.07,0.02,3
39109,7.8508e+07,-6.92,-6.32,6.18,6.48,347.81,351.26,0.07,0.02,3
39152,7.852e+07,-6.9,-6.23,6.21,6.55,347.81,351.23,0.07,0.02,3
39198,7.8531e+07,-6.88,-6.22,6.25,6.56,347.81,351.2,0.07,0.02,3
39242,7.8541e+07,-6.84,-6.13,6.27,6.47,347.8,351.19,0.07,0.02,3
39288,7.8551e+07,-6.82,-6.06,6.3,6.42,347.8,351.14,0.07,0.02,3
39329,7.8562e+07,-6.81,-6,6.32,6.42,347.8,351.1,0.07,0.02,3
39374,7.8577e+07,-6.79,-6.03,6.34,6.48,347.8,351.04,0.07,0.02,3
39418,7.8588e+07,-6.78,-5.96,6.37,6.47,347.79,351.01,0.07,0.02,3
39463,7.8598e+07,-6.76,-5.96,6.4,6.45,347.79,350.97,0.07,0.02,3
39508,7.8609e+07,-6.75,-5.86,6.42,6.33,347.79,350.95,0.07,0.02,3
39552,7.8619e+07,-6.75,-5.81,6.45,6.28,347.78,350.91,0.07,0.02,3
39601,7.863e+07,-6.75,-5.74,6.48,6.18,347.78,350.86,0.07,0.02,3
39648,7.8641e+07,-6.77,-5.7,6.52,6.11,347.77,350.81,0.07,0.02,3
39695,7.8654e+07,-6.79,-5.73,6.57,6.16,347.77,350.75,0.07,0.02,3
39740,7.8667e+07,-6.81,-5.62,6.62,6.03,347.76,350.72,0.07,0.02,3
39781,7.8679e+07,-6.82,-5.66,6.66,5.97,347.76,350.68,0.07,0.02,3
39827,7.8689e+07,-6.83,-5.68,6.7,5.96,347.75,350.64,0.07,0.02,3
39871,7.8699e+07,-6.83,-5.68,6.73,5.96,347.75,350.6,0.07,0.02,3
39918,7.8709e+07,-6.84,-5.63,6.76,5.95,347.74,350.56,0.07,0.02,3
39956,7.8721e+07,-6.84,-5.57,6.78,5.95,347.74,350.57,0.07,0.02,3
40005,7.8731e+07,-6.84,-5.54,6.81,5.92,347.74,350.6,0.07,0.01,3
40049,7.8741e+07,-6.83,-5.5,6.83,5.89,347.74,350.62,0.07,0.01,3
40094,7.8752e+07,-6.83,-5.45,6.86,5.79,347.73,350.65,0.07,0.01,3
40139,7.8763e+07,-6.83,-5.37,6.89,5.73,347.73,350.67,0.07,0.01,3
40184,7.8773e+07,-6.83,-5.39,6.93,5.72,347.72,350.7,0.07,0.01,3
40223,7.8786e+07,-6.83,-5.29,6.95,5.74,347.72,350.73,0.07,0.01,3
40268,7.8796e+07,-6.83,-5.18,6.98,5.73,347.72,350.76,0.07,0.01,3
40312,7.8807e+07,-6.82,-5.17,7.01,5.69,347.71,350.81,0.07,0.01,3
40357,7.8818e+07,-6.82,-5.08,7.04,5.62,347.71,350.86,0.07,0.01,3
40403,7.8829e+07,-6.83,-5,7.07,5.61,347.71,350.88,0.07,0.01,3
40451,7.884e+07,-6.84,-4.91,7.1,5.65,347.7,350.91,0.07,0.02,3
40496,7.8851e+07,-6.86,-4.8,7.14,5.66,347.7,350.95,0.07,0.02,3
40540,7.8861e+07,-6.89,-4.71,7.18,5.65,347.69,350.99,0.07,0.02,3
40585,7.8871e+07,-6.92,-4.65,7.22,5.65,347.69,351.02,0.07,0.02,3
40629,7.8883e+07,-6.94,-4.51,7.26,5.63,347.68,351.08,0.07,0.02,3
40674,7.8894e+07,-6.96,-4.48,7.3,5.63,347.68,351.1,0.07,0.02,3
40721,7.8904e+07,-6.97,-4.47,7.33,5.66,347.68,351.14,0.06,0.02,3
40759,7.892e+07,-6.97,-4.3,7.36,5.66,347.67,351.18,0.06,0.02,3
40805,7.8931e+07,-6.97,-4.27,7.38,5.66,347.67,351.2,0.06,0.02,3
40851,7.8941e+07,-6.96,-4.27,7.4,5.71,347.67,351.21,0.06,0.02,3
40900,7.8951e+07,-6.95,-4.27,7.41,5.73,347.67,351.23,0.06,0.05,3
40944,7.8962e+07,-6.96,-4.25,7.43,5.79,347.66,351.25,0.06,0.05,3
40989,7.8973e+07,-6.97,-4.24,7.45,5.83,347.66,351.27,0.06,0.05,3
41035,7.8983e+07,-7,-4.22,7.47,5.86,347.66,351.28,0.06,0.05,3
41073,7.8995e+07,-7.01,-4.08,7.48,5.73,347.66,351.29,0.06,0.05,3
41118,7.9006e+07,-7.03,-4.04,7.48,5.74,347.66,351.3,0.06,0.05,3
41163,7.9017e+07,-7.05,-4.11,7.49,5.79,347.66,351.29,0.06,0.05,3
41208,7.9027e+07,-7.07,-4.16,7.49,5.84,347.66,351.29,0.06,0.05,3
41252,7.9038e+07,-7.09,-4.18,7.5,5.87,347.66,351.29,0.06,0.05,3
41298,7.9048e+07,-7.12,-4.18,7.51,5.89,347.65,351.3,0.06,0.05,3
41346,7.9059e+07,-7.15,-4.17,7.52,5.87,347.65,351.3,0.06,0.04,3
41390,7.9069e+07,-7.18,-4.13,7.54,5.81,347.65,351.31,0.06,0.04,3
41437,7.908e+07,-7.22,-4.15,7.56,5.82,347.65,351.29,0.06,0.04,3
41482,7.909e+07,-7.27,-4.21,7.59,5.83,347.64,351.29,0.06,0.04,3
41525,7.9105e+07,-7.31,-4.24,7.6,5.9,347.64,351.28,0.06,0.04,3
41567,7.9116e+07,-7.34,-4.23,7.62,5.9,347.64,351.29,0.06,0.04,3
41612,7.9129e+07,-7.36,-4.31,7.64,5.91,347.64,351.28,0.06,0.04,3
41656,7.9139e+07,-7.38,-4.36,7.63,5.99,347.64,351.3,0.06,0.04,3
41702,7.915e+07,-7.42,-4.4,7.61,6.05,347.64,351.31,0.06,0.04,3
41750,7.916e+07,-7.45,-4.39,7.59,6.09,347.64,351.31,0.06,0.04,3
41795,7.9171e+07,-7.49,-4.36,7.58,6.08,347.64,351.33,0.06,0.03,3
41840,7.9182e+07,-7.53,-4.38,7.59,6.07,347.64,351.34,0.06,0.03,3
41885,7.9192e+07,-7.59,-4.43,7.59,6.1,347.64,351.33,0.06,0.03,3
41930,7.921e+07,-7.64,-4.44,7.61,6.2,347.64,351.35,0.06,0.03,3
41974,7.922e+07,-7.69,-4.45,7.62,6.19,347.64,351.36,0.06,0.03,3
42019,7.923e+07,-7.73,-4.53,7.62,6.23,347.64,351.37,0.06,0.03,3
42064,7.9241e+07,-7.77,-4.59,7.63,6.29,347.64,351.36,0.06,0.03,3
42108,7.9251e+07,-7.82,-4.63,7.64,6.34,347.64,351.37,0.06,0.03,3
42153,7.9262e+07,-7.87,-4.65,7.65,6.35,347.64,351.4,0.06,0.03,3
42201,7.9273e+07,-7.91,-4.67,7.65,6.34,347.63,351.42,0.06,0.02,3
42247,7.9283e+07,-7.96,-4.66,7.66,6.34,347.63,351.43,0.06,0.02,3
42293,7.9294e+07,-8.01,-4.67,7.67,6.28,347.63,351.43,0.06,0.02,3
42336,7.9309e+07,-8.07,-4.78,7.68,6.35,347.63,351.46,0.06,0.02,3
42378,7.9325e+07,-8.1,-4.87,7.71,6.34,347.63,351.53,0.06,0.02,3
42423,7.9335e+07,-8.13,-4.94,7.71,6.36,347.63,351.6,0.06,0.02,3
42467,7.9345e+07,-8.14,-4.99,7.69,6.37,347.63,351.65,0.06,0.02,3
42512,7.9356e+07,-8.15,-4.97,7.66,6.35,347.63,351.75,0.06,0.02,3
42558,7.9366e+07,-8.16,-4.97,7.64,6.26,347.64,351.81,0.06,0.02,3
42608,7.9377e+07,-8.18,-4.98,7.62,6.25,347.64,351.88,0.06,0.02,3
42653,7.9387e+07,-8.2,-5.06,7.62,6.26,347.64,351.94,0.06,0.02,3
42697,7.9398e+07,-8.22,-5.09,7.62,6.24,347.64,352.01,0.06,0.02,3
42742,7.9409e+07,-8.25,-5.12,7.63,6.26,347.64,352.1,0.06,0.02,3
42784,7.9424e+07,-8.27,-5.12,7.63,6.19,347.64,352.2,0.06,0.02,3
42828,7.9435e+07,-8.28,-5.16,7.63,6.21,347.64,352.26,0.06,0.02,3
42873,7.9445e+07,-8.29,-5.24,7.61,6.21,347.64,352.35,0.06,0.02,3
42919,7.9456e+07,-8.29,-5.2,7.59,6.21,347.64,352.42,0.06,0.02,3
42964,7.9466e+07,-8.3,-5.21,7.58,6.16,347.65,352.49,0.06,0.02,3
43009,7.9476e+07,-8.32,-5.2,7.56,6.11,347.65,352.56,0.06,0.02,3
43057,7.9487e+07,-8.34,-5.22,7.55,6.06,347.65,352.62,0.06,0.02,3
43104,7.9501e+07,-8.36,-5.33,7.56,6.12,347.65,352.69,0.05,0.02,3
43145,7.9512e+07,-8.38,-5.28,7.56,6.09,347.65,352.77,0.05,0.02,3
43191,7.9523e+07,-8.41,-5.28,7.57,6.04,347.65,352.84,0.05,0.02,3
43233,7.9534e+07,-8.43,-5.3,7.57,5.97,347.65,352.92,0.05,0.02,3
43278,7.9547e+07,-8.44,-5.3,7.57,5.99,347.65,353.01,0.05,0.02,3
43323,7.9558e+07,-8.44,-5.32,7.56,5.97,347.65,353.1,0.05,0.02,3
43368,7.9569e+07,-8.44,-5.32,7.55,5.96,347.65,353.15,0.05,0.02,3
43414,7.958e+07,-8.44,-5.32,7.55,5.92,347.65,353.21,0.05,0.02,3
43459,7.959e+07,-8.43,-5.38,7.54,5.9,347.65,353.27,0.05,0.02,3
43508,7.9601e+07,-8.43,-5.45,7.55,5.93,347.65,353.33,0.05,0.01,3
43552,7.961e+07,-8.43,-5.48,7.56,5.93,347.65,353.38,0.05,0.01,3
43596,7.9621e+07,-8.45,-5.45,7.58,5.95,347.65,353.41,0.05,0.01,3
43641,7.9635e+07,-8.46,-5.44,7.6,5.93,347.64,353.49,0.05,0.01,3
43685,7.9645e+07,-8.47,-5.44,7.62,5.9,347.64,353.54,0.05,0.01,3
43727,7.9657e+07,-8.48,-5.52,7.63,5.96,347.64,353.56,0.05,0.01,3
43772,7.9667e+07,-8.48,-5.54,7.64,6.02,347.64,353.61,0.05,0.01,3
43817,7.9678e+07,-8.47,-5.57,7.64,6.03,347.64,353.64,0.05,0.01,3
43861,7.9689e+07,-8.46,-5.55,7.65,6.07,347.63,353.68,0.05,0.01,3
43910,7.9699e+07,-8.46,-5.53,7.66,6.05,347.63,353.72,0.05,0.01,3
43957,7.971e+07,-8.47,-5.54,7.67,6.01,347.63,353.74,0.05,0.01,3
43996,7.9722e+07,-8.47,-5.71,7.69,6.09,347.63,353.76,0.04,0.01,3
44040,7.9732e+07,-8.48,-5.71,7.7,6.15,347.63,353.77,0.04,0.01,3
44082,7.9748e+07,-8.48,-5.69,7.7,6.12,347.63,353.82,0.04,0.01,3
44129,7.9759e+07,-8.47,-5.78,7.7,6.15,347.63,353.82,0.04,0.01,3
44173,7.9769e+07,-8.46,-5.8,7.69,6.19,347.63,353.83,0.04,0.01,3
44218,7.9779e+07,-8.45,-5.77,7.68,6.21,347.63,353.85,0.04,0.01,3
44262,7.9789e+07,-8.44,-5.76,7.68,6.21,347.63,353.86,0.04,0.01,3
44308,7.98e+07,-8.44,-5.81,7.7,6.24,347.63,353.88,0.04,0.01,3
44357,7.981e+07,-8.44,-5.76,7.72,6.23,347.62,353.9,0.04,0.01,3
44401,7.982e+07,-8.45,-5.74,7.75,6.19,347.62,353.91,0.04,0.01,3
44446,7.9831e+07,-8.46,-5.74,7.78,6.16,347.61,353.92,0.04,0.01,3
44491,7.9841e+07,-8.48,-5.72,7.82,6.1,347.61,353.91,0.04,0.01,3
44537,7.9851e+07,-8.49,-5.79,7.86,6.13,347.6,353.91,0.04,0.01,3
44582,7.9862e+07,-8.5,-5.9,7.9,6.17,347.6,353.91,0.04,0.01,3
44626,7.9873e+07,-8.5,-5.97,7.92,6.27,347.59,353.9,0.04,0.01,3
44670,7.9883e+07,-8.5,-6,7.94,6.3,347.59,353.9,0.04,0.01,3
44714,7.9898e+07,-8.5,-6,7.94,6.26,347.59,353.9,0.04,0.01,3
44758,7.9912e+07,-8.5,-6.03,7.94,6.36,347.59,353.89,0.04,0.01,3
44806,7.9922e+07,-8.49,-5.99,7.92,6.37,347.59,353.85,0.04,0.01,3
44852,7.9933e+07,-8.48,-6.02,7.91,6.41,347.6,353.82,0.04,0.01,3
44897,7.9943e+07,-8.47,-6.13,7.89,6.42,347.6,353.8,0.04,0.01,3
44942,7.9953e+07,-8.46,-6.21,7.88,6.39,347.6,353.78,0.04,0.01,3
44984,7.9968e+07,-8.45,-6.25,7.88,6.51,347.6,353.72,0.04,0.01,3
45029,7.9978e+07,-8.43,-6.31,7.86,6.51,347.6,353.68,0.04,0.01,3
45073,7.9989e+07,-8.41,-6.3,7.81,6.53,347.61,353.66,0.04,0.01,3
45117,7.9999e+07,-8.39,-6.33,7.77,6.49,347.62,353.62,0.04,0.01,3
45162,8.0009e+07,-8.38,-6.33,7.74,6.43,347.62,353.6,0.04,0.01,3
45211,8.002e+07,-8.37,-6.37,7.71,6.37,347.63,353.54,0.04,0.01,3
45256,8.0031e+07,-8.36,-6.44,7.69,6.37,347.63,353.52,0.04,0.01,3
45301,8.0041e+07,-8.35,-6.53,7.66,6.37,347.63,353.49,0.04,0.01,3
45346,8.0052e+07,-8.34,-6.47,7.64,6.31,347.64,353.47,0.04,0.01,3
45389,8.0064e+07,-8.35,-6.36,7.61,6.19,347.64,353.45,0.04,0.01,3
45433,8.0074e+07,-8.37,-6.31,7.56,6.1,347.65,353.42,0.04,0.01,3
45475,8.0085e+07,-8.38,-6.35,7.51,6.03,347.66,353.38,0.04,0.01,3
45521,8.0096e+07,-8.39,-6.34,7.43,6.02,347.67,353.36,0.04,0.01,3
45567,8.0107e+07,-8.41,-6.37,7.31,5.99,347.69,353.34,0.04,0.01,3
45606,8.0119e+07,-8.41,-6.34,7.2,5.96,347.7,353.33,0.04,0.01,3
