LineNo,TimeUS,ThI,ABst,ThO,ThH,DAlt,Alt,BAlt,DSAlt,SAlt,TAlt,DCRt,CRt
1280,69428459,5.960464e-07,1.309672e-10,5.920796e-07,0.2585996,-1.471874,-1.471874,-1.67,NaN,0,0.0283775,41,41
1826,69537451,5.960464e-07,1.315925e-10,5.949887e-07,0.2585996,-1.436883,-1.436883,-1.37,NaN,0,0.06336901,41,41
2279,69638786,5.960464e-07,1.310809e-10,5.958324e-07,0.2585996,-1.41205,-1.41205,-1.71,NaN,0,0.08820161,40,40
2726,69741731,5.960464e-07,1.307967e-10,5.96078e-07,0.2585996,-1.392784,-1.392784,-1.29,NaN,0,0.1076048,39,39
3178,69843821,5.960464e-07,1.31763e-10,5.961488e-07,0.2585996,-1.376231,-1.376231,-1.65,NaN,0,0.1241581,38,38
3596,69947558,5.960464e-07,1.307967e-10,5.961691e-07,0.2585996,-1.363802,-1.363802,-1.76,NaN,0,0.1365871,37,37
4054,70050987,5.960464e-07,1.315925e-10,5.961756999999999e-07,0.2585996,-1.350737,-1.350737,-1.4,NaN,0,0.1500795,36,36
4501,70154046,5.960464e-07,1.306262e-10,5.961761e-07,0.2585996,-1.339976,-1.339976,-1.59,NaN,0,0.1609924,35,35
4951,70255701,5.960464e-07,1.297167e-10,5.96177e-07,0.2585996,-1.33204,-1.33204,-1.71,NaN,0,0.1689288,34,34
5368,70358516,5.960464e-07,1.308536e-10,5.961768e-07,0.2585996,-1.327363,-1.327363,-1.61,NaN,0,0.1736061,33,33
5823,70460791,5.960464e-07,1.292619e-10,5.961765e-07,0.2585996,-1.327327,-1.327327,-1.37,NaN,0,0.1736421,32,32
6269,70563750,5.960464e-07,1.30683e-10,5.96177e-07,0.2585996,-1.325478,-1.325478,-1.53,NaN,0,0.1754913,31,31
6719,70665400,5.960464e-07,1.296598e-10,5.961759e-07,0.2585996,-1.325243,-1.325243,-1.74,NaN,0,0.1757261,30,30
7167,70770555,5.960464e-07,1.295462e-10,5.961762e-07,0.2585996,-1.330752,-1.330752,-1.62,NaN,0,0.170217,28,28
7624,70872767,5.960464e-07,1.307399e-10,5.961762e-07,0.2585996,-1.329719,-1.329719,-1.75,NaN,0,0.1712497,27,27
8075,70976284,5.960464e-07,1.331273e-10,5.961761e-07,0.2585996,-1.332998,-1.332998,-1.43,NaN,0,0.1676962,26,26
8530,71078998,5.960464e-07,1.378453e-10,5.961791e-07,0.2585996,-1.331501,-1.331501,-1.46,NaN,0,0.1691931,25,25
8943,71181099,5.960464e-07,1.25624e-10,5.961758e-07,0.2585996,-1.335212,-1.335212,-1.52,NaN,0,0.1657564,24,24
9394,71282557,5.960464e-07,1.308536e-10,5.961748e-07,0.2585996,-1.333596,-1.333596,-1.29,NaN,0,0.1673727,23,23
9842,71387170,5.960464e-07,1.234639e-10,5.961724e-07,0.2585996,-1.333607,-1.333607,-1.72,NaN,0,0.1673617,22,22
10296,71490026,5.960464e-07,1.276135e-10,5.961712e-07,0.2585996,-1.329116,-1.329116,-1.4,NaN,0,0.1720059,21,21
10743,71592580,5.960464e-07,1.196554e-10,5.961716e-07,0.2585996,-1.331561,-1.331561,-1.18,NaN,0,0.1696906,20,20
11196,71695577,5.960464e-07,1.242029e-10,5.961718e-07,0.2585996,-1.329849,-1.329849,-1.48,NaN,0,0.1716382,20,20
11643,71800551,5.960464e-07,1.199396e-10,5.961705e-07,0.2585996,-1.332168,-1.332168,-1.54,NaN,0,0.1693192,19,19
12096,71903504,5.960464e-07,1.244871e-10,5.961688e-07,0.2585996,-1.330613,-1.330613,-1.86,NaN,0,0.1708744,18,18
12514,72008546,5.960464e-07,1.152785e-10,5.961684e-07,0.2585996,-1.335678,-1.335678,-1.66,NaN,0,0.1658101,17,17
12968,72112269,5.960464e-07,1.29603e-10,5.961681e-07,0.2585996,-1.333646,-1.333646,-1.44,NaN,0,0.1678421,16,16
13618,72323164,0.02125037,4.038215e-06,0.00490497,0.2585996,-1.342755,-1.342755,-1.6,NaN,0,0.159023,15,15
14072,72428112,0.07124993,9.998679000000001e-06,0.03738264,0.2585996,-1.352852,-1.352852,-1.53,NaN,0,0.1489254,12,12
14516,72533226,0.1199995,1.612306e-05,0.08202903,0.2585996,-1.359715,-1.359715,-1.59,NaN,0,0.1421386,11,11
14968,72637419,0.2302974,3.387034e-05,0.1376803,0.2585996,-1.361728,-1.364381,-1.68,NaN,0,0.137473,17,11
15416,72744208,0.2962606,3.188848e-05,0.2312584,0.2585996,-1.33838,-1.367842,-1.46,NaN,0,0.134012,35,13
15834,72847325,0.3629871,3.242493e-05,0.3147694,0.2585996,-1.295865,-1.371202,-1.35,NaN,0,0.130652,60,18
16284,72951582,0.3240737,2.95043e-05,0.3314785,0.2585996,-1.23415,-1.356418,-1.03,NaN,0,0.1455881,89,43
16733,73055284,0.3107789,0.000167191,0.3203224,0.2585996,-1.145658,-1.308119,-1.15,NaN,0,0.1941161,115,76
17147,73162492,0.3190579,0.0002400875,0.313881,0.2585996,-1.036505,-1.226787,-1.67,NaN,0,0.2756242,137,103
17599,73266019,0.3087322,8.571148e-05,0.3164046,0.2585996,-0.910666,-1.124229,-1.42,NaN,0,0.3787774,154,124
18045,73371075,0.3045999,3.740191e-05,0.310184,0.2585996,-0.7749214,-0.999514,-1.42,NaN,0,0.5039496,167,143
18498,73475039,0.3002764,0.0001720786,0.3079534,0.2585996,-0.6246186,-0.8524187,-1.24,NaN,0,0.6515104,177,159
18946,73582769,0.2987783,0.000408113,0.3014858,0.2585996,-0.4692962,-0.6912459,-0.92,NaN,0,0.8133774,185,173
19399,73688085,0.2964656,0.0006266534,0.2985272,0.2585996,-0.3025427,-0.5198113,-0.78,NaN,0,0.9851401,191,184
19846,73794064,0.2966303,0.0008268952,0.2967725,0.2585996,-0.1340602,-0.3312862,-0.33,NaN,0,1.173993,195,190
20298,73897455,0.2938667,0.0009737313,0.293496,0.2585996,0.04364767,-0.13575,-0.51,NaN,0,1.369636,197,197
20714,74003790,0.2825148,0.00091061,0.2906283,0.2585996,0.2254056,0.06530643,-0.42,NaN,0,1.570792,199,200
21166,74112711,0.2829115,0.0008773804,0.2879034,0.2585996,0.4104759,0.2735562,-0.28,NaN,0,1.779278,200,204
21621,74218134,0.2792529,0.0007694066,0.2834027,0.2585996,0.5982389,0.4762346,0.1,NaN,0,1.981682,201,204
22072,74326964,0.280742,0.0007269681,0.2824096,0.2585996,0.7930734,0.6876521,0.34,NaN,0,2.192733,201,205
22525,74431601,0.290187,0.0006648004,0.2867439,0.2585996,0.9850543,0.8913987,0.27,NaN,0,2.396327,202,205
22974,74539237,0.2856316,0.0003880262,0.2851406,0.2585996,1.178591,1.094825,0.54,NaN,0,2.599669,202,206
23425,74643831,0.2976628,0.000292629,0.2883089,0.2585996,1.373256,1.291086,0.8100000000000001,NaN,0,2.79593,203,203
23840,74752053,0.2982751,0.0003785491,0.2955693,0.2585996,1.559126,1.494005,0.96,NaN,0,2.998834,202,202
24286,74858882,0.2977765,0.0006918609,0.2993462,0.2585996,1.745709,1.693707,1.15,NaN,0,3.198537,202,201
24732,74967154,0.2851945,0.0007623732,0.2941101,0.2585996,1.92805,1.892651,1.55,NaN,0,3.397252,200,201
25149,75073543,0.2808107,0.00069803,0.2866574,0.2585996,2.115861,2.091965,1.95,NaN,0,3.596405,200,203
25591,75183105,0.2719718,0.0005653799,0.2786215,0.2585996,2.304102,2.299699,2.01,NaN,0,3.80401,198,204
26036,75290130,0.2746368,0.0005359054,0.2756281,0.2585996,2.492674,2.504841,2.07,NaN,0,4.009151,197,203
26447,75398531,0.285509,0.0007199049,0.28048,0.2585996,2.681524,2.709545,2.72,NaN,0,4.213855,196,200
26895,75503708,0.2935763,0.0009407103,0.2896754,0.2585996,2.870713,2.905309,2.48,NaN,0,4.40991,195,197
27338,75612348,0.3106396,0.001060724,0.2973287,0.2585996,3.060512,3.104739,3.14,NaN,0,4.609339,196,195
27778,75720923,0.3221102,0.001177758,0.3151496,0.2585996,3.25385,3.308103,3.14,NaN,0,4.812704,200,195
28225,75826036,0.3005913,0.0009886026000000001,0.3120256,0.2585996,3.451737,3.508031,3.2,NaN,0,5.012471,204,199
28640,75936059,0.2940013,0.0007094443,0.3011714,0.2585996,3.652056,3.720619,3.75,NaN,0,5.224907,204,202
29090,76044733,0.2882201,0.0005325079,0.2932715,0.2585996,3.852783,3.935576,3.69,NaN,0,5.439711,202,204
29530,76152890,0.279039,0.0004586875,0.2859421,0.2585996,4.05216,4.150571,4.29,NaN,0,5.654676,198,202
29943,76259811,0.2764763,0.0004246831,0.2817371,0.2585996,4.248625,4.365426,4.55,NaN,0,5.869203,193,197
30388,76367764,0.2653924,0.0003451109,0.2749624,0.2585996,4.440785,4.583081,4.56,NaN,0,6.086743,185,193
30834,76475672,0.253569,0.0003343225,0.2623488,0.2585996,4.627311,4.797267,4.78,NaN,0,6.3007,175,187
31242,76584141,0.2488154,0.0003046244,0.2560435,0.2585996,4.806998,5.006624,4.73,NaN,0,6.509935,165,177
31688,76690772,0.2416926,0.0002254546,0.2479414,0.2585996,4.978706,5.197508,5.38,NaN,0,6.700789,154,167
32132,76798504,0.2378757,0.0001935363,0.2417502,0.2585996,5.13726,5.386445,5.14,NaN,0,6.889413,141,156
32581,76905664,0.2365147,0.0001471192,0.2378011,0.2585996,5.290208,5.555161,5.53,NaN,0,7.057824,128,142
33023,77014905,0.2201414,9.040534e-05,0.2276539,0.2585996,5.432188,5.719289,6.06,NaN,0,7.221525,114,129
33435,77123256,0.2166319,0.0001008958,0.2192781,0.2585996,5.562458,5.867228,6.41,NaN,0,7.369082,100,115
33880,77229283,0.2050287,9.474158000000001e-05,0.2111355,0.2585996,5.680573,6.004956,6.52,NaN,0,7.506734,85,99
34320,77337819,0.2004,7.678568e-05,0.2083096,0.2585996,5.786358,6.13149,6.58,NaN,0,7.633267,70,86
34770,77443732,0.2128961,0.0001125634,0.206711,0.2585996,5.879877,6.243385,6.74,NaN,0,7.744873,55,68
35180,77551713,0.2160311,0.0001653284,0.2128699,0.2585996,5.959427,6.338889,6.86,NaN,0,7.840377,42,52
35624,77657912,0.2282912,0.0002474636,0.2174097,0.2585996,6.029776,6.417182,6.87,NaN,0,7.91867,29,37
36064,77764224,0.229759,0.0003813356,0.2258042,0.2585996,6.087878,6.47803,7.22,NaN,0,7.979388,18,21
36510,77870264,0.2224867,0.0005521178,0.2279771,0.2585996,6.137712,6.52187,7.19,NaN,0,8.023228,9,9
36954,77976554,0.2262833,0.0008226931,0.2289248,0.2585996,6.177567,6.556913,7.29,NaN,0,8.058033999999999,0,0
37402,78082123,0.2311984,0.001364514,0.2304205,0.2585996,6.210563,6.582397,7.27,NaN,0,8.082938,-6,-7
37842,78189124,0.2372666,0.002039075,0.2318434,0.2585996,6.235284,6.600832,6.91,NaN,0,8.100626,-12,-15
38256,78296820,0.2358988,0.002733454,0.2354955,0.2585996,6.255377,6.604542,7.2,NaN,0,8.103237,-16,-21
38699,78405072,0.242203,0.003078833,0.2399984,0.2585996,6.269925,6.602743,7.4,NaN,0,8.100125999999999,-19,-25
39144,78514038,0.2331324,0.002834439,0.2380968,0.2585996,6.280629,6.599869,7.07,NaN,0,8.095589,-22,-26
39587,78621905,0.2317662,0.002572402,0.2373571,0.2585996,6.287694,6.593751,7.15,NaN,0,8.087517999999999,-24,-28
39998,78728790,0.2344953,0.002378717,0.2373715,0.2585996,6.29201,6.586307,7.16,NaN,0,8.077778,-25,-28
40444,78836744,0.2314431,0.001921952,0.2341331,0.2585996,6.294421,6.576844,6.88,NaN,0,8.065636,-26,-29
40889,78946234,0.231742,0.001806751,0.2366709,0.2585996,6.295147,6.565871,7.09,NaN,0,8.051436000000001,-27,-30
41336,79053561,0.2423214,0.001876667,0.2374011,0.2585996,6.294654,6.552225,6.89,NaN,0,8.034761,-26,-29
41746,79159886,0.2526262,0.002184302,0.2431415,0.2585996,6.293429,6.53614,6.97,NaN,0,8.015433,-25,-30
42191,79268011,0.2439281,0.002313316,0.2487201,0.2585996,6.291807,6.520232,6.61,NaN,0,7.995962,-24,-28
42604,79376317,0.2477013,0.002431229,0.2466692,0.2585996,6.290146,6.503432,6.61,NaN,0,7.975638,-22,-27
43050,79484073,0.24545,0.002419263,0.2472253,0.2585996,6.288725,6.485499,6.55,NaN,0,7.953479,-20,-26
43494,79593109,0.2464062,0.002449289,0.2482869,0.2585996,6.28781,6.46666,6.77,NaN,0,7.93026,-18,-23
43906,79698880,0.2495628,0.002578229,0.2510123,0.2585996,6.287567,6.450359,6.7,NaN,0,7.909931,-16,-21
44350,79807384,0.2471577,0.002758428,0.2506679,0.2585996,6.288184,6.437503,7.14,NaN,0,7.892169,-13,-17
44793,79914828,0.244685,0.002857342,0.2503535,0.2585996,6.289719,6.430723,6.75,NaN,0,7.86865,-12,-15
45207,80019721,0.2460784,0.003074169,0.2506467,0.2585996,6.292128,6.426471,6.88,NaN,0,7.843112,-10,-12
45653,80129799,0.2401448,0.002776697,0.2464524,0.2585996,6.295318,6.426366,6.55,NaN,0,7.819196,-9,-10
46097,80236742,0.2397698,0.002589226,0.2443669,0.2585996,6.299169,6.425982,6.44,NaN,0,7.793841,-8,-8
46543,80346532,0.2401138,0.002919003,0.2423948,0.2585996,6.303702,6.424875,7,NaN,0,7.767588,-7,-7
46990,80453736,0.2378521,0.003852174,0.2429321,0.2585996,6.308591,6.427949,6.42,NaN,0,7.744668,-6,-5
47400,80560452,0.2379417,0.004878476,0.2407691,0.2585996,6.313675,6.431225,6.34,NaN,0,7.722462,-6,-5
47849,80668115,0.2353216,0.005338401,0.2402536,0.2585996,6.319127,6.430911,6.64,NaN,0,7.697337,-5,-2
48289,80775310,0.2452199,0.005557626,0.2465938,0.2585996,6.324623,6.429712,6.64,NaN,0,7.670832,-4,-5
48706,80883273,0.2380017,0.004842982,0.2453508,0.2585996,6.330446,6.429141,7.36,NaN,0,7.645396,-3,-3
49150,80991723,0.2267254,0.003297761,0.2377053,0.2585996,6.33626,6.435297,7.7,NaN,0,7.626429,-3,-1
49598,81097908,0.2171042,0.002017438,0.2266068,0.2585996,6.342248,6.451082,7.09,NaN,0,7.617685,-4,0
50009,81205867,0.2148992,0.001543835,0.2235126,0.2585996,6.347984,6.473909,7.05,NaN,0,7.615793,-6,0
50450,81313092,0.2264032,0.001537442,0.2250758,0.2585996,6.353151,6.493649,7.42,NaN,0,7.610806,-9,-1
50898,81418842,0.2185367,0.0009033084,0.2233668,0.2585996,6.357536,6.509043,6.62,NaN,0,7.601459,-11,-4
51346,81528132,0.2212775,0.0002636015,0.2223519,0.2585996,6.361092,6.520018,6.59,NaN,0,7.586668,-12,-7
51788,81636792,0.2192487,2.363324e-05,0.2219343,0.2585996,6.363626,6.52499,6.83,NaN,0,7.566859,-13,-8
52231,81747452,0.2293472,1.005828e-05,0.2206061,0.2585996,6.365317,6.52535,6.69,NaN,0,7.543279,-14,-10
52680,81854778,0.2282471,4.693866e-05,0.2239758,0.2585996,6.366303,6.520707,6.21,NaN,0,7.514145,-14,-12
53093,81963558,0.2238326,8.437037000000001e-05,0.2299114,0.2585996,6.366786,6.509066,6.42,NaN,0,7.479166,-13,-15
53539,82070745,0.2168564,0.0002765507,0.2232058,0.2585996,6.36704,6.495264,6.27,NaN,0,7.443956,-12,-12
53982,82180034,0.224563,0.000516504,0.2221398,0.2585996,6.367336,6.478977,6.26,NaN,0,7.404888,-10,-11
54427,82285492,0.2304332,0.000911206,0.2311092,0.2585996,6.367929,6.460912,6.61,NaN,0,7.366117,-8,-11
54839,82394712,0.2295913,0.001222923,0.2322878,0.2585996,6.369057,6.444293,6.47,NaN,0,7.329883,-5,-11
55285,82501755,0.242757,0.001554534,0.2394988,0.2585996,6.370903,6.4307,6.63,NaN,0,7.299536,-3,-9
55730,82610868,0.2397082,0.001652896,0.2412529,0.2585996,6.373568,6.420251,6.67,NaN,0,7.272645,-1,-5
56143,82718290,0.2398882,0.001803353,0.2424743,0.2585996,6.37708,6.415254,6.49,NaN,0,7.252382,0,-4
56591,82826510,0.2293787,0.001430556,0.2380126,0.2585996,6.381374,6.414057,6.68,NaN,0,7.236407,1,-1
57039,82936588,0.2352147,0.00110434,0.2353942,0.2585996,6.386333,6.418554,7.25,NaN,0,7.228223,2,1
57487,83044776,0.2479441,0.0006539226,0.2400386,0.2585996,6.391761,6.430861,6.82,NaN,0,7.229034,1,1
57927,83153917,0.2522456,0.0003540516,0.242586,0.2585996,6.397394,6.443484,7.23,NaN,0,7.229633,1,0
58342,83259683,0.2341135,0.0002654642,0.2427599,0.2585996,6.402979,6.456409,7.33,NaN,0,7.233242,0,0
58784,83368482,0.2446718,0.0005713254000000001,0.2438604,0.2585996,6.40817,6.472156,7.31,NaN,0,7.238986,0,-1
59230,83474503,0.2467725,0.0008714646,0.2464515,0.2585996,6.413049,6.485799,7.32,NaN,0,7.244657,-2,-2
59671,83583760,0.2284914,0.0007617474,0.2383858,0.2585996,6.417298,6.50725,7.25,NaN,0,7.259905,-4,-1
60117,83691023,0.2330381,0.0007213652,0.2327048,0.2585996,6.420704,6.52824,7.29,NaN,0,7.274615,-7,-3
60557,83797752,0.2319639,0.0007531941,0.2344508,0.2585996,6.423025,6.544985,7.21,NaN,0,7.287622,-10,-7
60978,83903750,0.2315811,0.0009246618,0.232288,0.2585996,6.424286,6.556491,6.82,NaN,0,7.294375,-12,-7
61387,84012216,0.2370323,0.0009801388,0.2346176,0.2585996,6.424417,6.560112,7.6,NaN,0,7.293251,-13,-11
61829,84119113,0.2363003,0.0009756684,0.2349363,0.2585996,6.423563,6.557776,7.58,NaN,0,7.286849,-14,-14
62274,84223870,0.2380295,0.0007417053,0.2380271,0.2585996,6.421918,6.551829,7.12,NaN,0,7.278529,-15,-16
62717,84332033,0.2307753,0.0004357994,0.2333834,0.2585996,6.419713,6.54235,7.21,NaN,0,7.266753,-14,-15
63163,84438587,0.2259562,0.0002597421,0.2296711,0.2585996,6.417202,6.529925,6.95,NaN,0,7.251947,-13,-14
63572,84546103,0.2446301,0.0004044771,0.2358675,0.2585996,6.414636,6.51728,7.18,NaN,0,7.236847,-12,-14
64017,84654103,0.2355862,0.0008858889,0.2334999,0.2585996,6.412225,6.50589,7.29,NaN,0,7.224617,-11,-12
64457,84762115,0.2400363,0.001308709,0.2358854,0.2585996,6.410135,6.495362,7,NaN,0,7.214089,-10,-11
64905,84868785,0.2386115,0.001324356,0.2378225,0.2585996,6.408484,6.48596,6.78,NaN,0,7.202909,-9,-11
65352,84978488,0.2414254,0.00135085,0.2403398,0.2585996,6.407354,6.475298,6.83,NaN,0,7.191835,-7,-10
65796,85085153,0.2403448,0.001422137,0.2398708,0.2585996,6.406827,6.465531,6.58,NaN,0,7.181733,-6,-9
66239,85192779,0.245211,0.001793325,0.2414889,0.2585996,6.406958,6.458403,6.66,NaN,0,7.174109,-4,-7
66685,85300272,0.2465386,0.00214988,0.2446808,0.2585996,6.407748,6.454064,6.4,NaN,0,7.169114,-3,-6
67134,85410534,0.2514801,0.002405971,0.2427828,0.2585996,6.409165,6.448517,6.75,NaN,0,7.161797,-2,-4
67581,85521021,0.2492567,0.002707541,0.2499809,0.2585996,6.411242,6.446134,6.36,NaN,0,7.157575,-1,-4
68028,85628903,0.2522672,0.002887011,0.2460008,0.2585996,6.413806,6.446409,6.46,NaN,0,7.154745,0,-1
68469,85737669,0.248005,0.002541408,0.2470552,0.2585996,6.416805,6.446395,6.18,NaN,0,7.152565,0,-2
68886,85843557,0.2489753,0.002510503,0.2473324,0.2585996,6.42017,6.443149,6.21,NaN,0,7.145038,1,-1
69331,85950485,0.2404117,0.002457559,0.2470926,0.2585996,6.42379,6.437427,6.01,NaN,0,7.135036,2,1
69780,86058514,0.2385383,0.002135515,0.2399133,0.2585996,6.427886,6.431983,5.96,NaN,0,7.127082,4,2
70223,86166084,0.2509347,0.001286179,0.2445447,0.2585996,6.432401,6.422791,6.17,NaN,0,7.113358,5,3
70637,86272998,0.2349917,0.0005399584999999999,0.2432384,0.2585996,6.437399,6.415973,6.56,NaN,0,7.103023,7,4
71084,86383110,0.2310021,0.0003334582,0.2367571,0.2585996,6.442904,6.414272,6.34,NaN,0,7.09856,8,9
71531,86488098,0.2395947,0.0003484786,0.2328833,0.2585996,6.448856,6.417638,6.03,NaN,0,7.098661,9,10
71940,86594778,0.2384815,0.0005369186,0.2422256,0.2585996,6.455137,6.420038,6.11,NaN,0,7.098627,10,8
72384,86706690,0.237571,0.0008976012,0.2399857,0.2585996,6.461995,6.421824,6.45,NaN,0,7.098917,10,10
72834,86813710,0.2344502,0.001147211,0.2420448,0.2585996,6.468663,6.428763,6.42,NaN,0,7.103438,11,11
73243,86919808,0.2368034,0.001151919,0.2330191,0.2585996,6.475346,6.439507,6.71,NaN,0,7.11261,10,12
73691,87027522,0.2318813,0.001057908,0.2338556,0.2585996,6.481855,6.456607,6.28,NaN,0,7.128216,9,11
74134,87135131,0.2280722,0.0008909404,0.2312154,0.2585996,6.487951,6.471027,6.81,NaN,0,7.141056,7,10
74581,87241635,0.2328105,0.0005304962000000001,0.2333676,0.2585996,6.493468,6.484118,7.17,NaN,0,7.152659,6,10
75021,87349674,0.2240599,0.0001147389,0.2302715,0.2585996,6.498284,6.502424,6.92,NaN,0,7.169386,4,8
75469,87455292,0.2247484,0.0001148283,0.2245492,0.2585996,6.50223,6.522128,7.18,NaN,0,7.185977,1,8
75879,87564505,0.2401177,0.0001308471,0.2243009,0.2585996,6.505112,6.546972,7.25,NaN,0,7.209661,-1,3
76325,87671667,0.2269447,0.0001623482,0.2280582,0.2585996,6.506734,6.570629,7.33,NaN,0,7.229694,-5,0
76769,87780641,0.2340683,0.0003344715,0.2315623,0.2585996,6.506926,6.591423,6.98,NaN,0,7.248642,-9,-4
77217,87888879,0.2236051,0.0005822480000000001,0.2345356,0.2585996,6.505607,6.600214,7.47,NaN,0,7.256769,-11,-8
77661,87995710,0.2264496,0.0006564409,0.2308006,0.2585996,6.502864,6.603793,7.05,NaN,0,7.258745,-13,-10
78107,88101998,0.2406428,0.0006273538,0.2333064,0.2585996,6.498892,6.601763,7.04,NaN,0,7.257158,-15,-14
78551,88208808,0.240289,0.0006190389,0.2386336,0.2585996,6.493948,6.594146,7.04,NaN,0,7.248961,-15,-16
78965,88315679,0.2337759,0.0007422119,0.2398235,0.2585996,6.488312,6.583098,7.36,NaN,0,7.23648,-15,-18
79412,88422573,0.2333502,0.0007280409,0.2370943,0.2585996,6.482288,6.570932,7.33,NaN,0,7.224062,-15,-16
79861,88529780,0.2378452,0.0007865727000000001,0.2372298,0.2585996,6.476145,6.559473,7.06,NaN,0,7.213045,-14,-17
80273,88635692,0.260999,0.0009877682,0.2470726,0.2585996,6.470085,6.547966,6.86,NaN,0,7.202049,-14,-15
80717,88744314,0.2453907,0.001224265,0.2503411,0.2585996,6.464289,6.535634,6.84,NaN,0,7.191936,-13,-18
81164,88852072,0.2460659,0.001656309,0.2513318,0.2585996,6.458906,6.524518,7.11,NaN,0,7.183034,-11,-17
81606,88959601,0.243578,0.00177899,0.2455411,0.2585996,6.454048,6.514069,7.29,NaN,0,7.175827,-10,-13
82053,89066253,0.244699,0.001670972,0.2479348,0.2585996,6.449803,6.504444,7.25,NaN,0,7.170879,-9,-13
82495,89174514,0.240282,0.00129433,0.2445552,0.2585996,6.446307,6.495985,7.1,NaN,0,7.167273,-8,-10
82942,89281816,0.2356893,0.001025707,0.2412855,0.2585996,6.443393,6.491027,6.97,NaN,0,7.166152,-7,-8
83386,89389281,0.2416005,0.001056105,0.2417372,0.2585996,6.441186,6.486308,6.97,NaN,0,7.168918,-6,-6
83830,89495589,0.2352258,0.00102894,0.2399575,0.2585996,6.439529,6.483201,7.25,NaN,0,7.173287,-5,-4
84240,89602911,0.2358513,0.001186311,0.2385469,0.2585996,6.438461,6.481302,6.82,NaN,0,7.178019,-5,-4
84648,89709316,0.2421115,0.001524091,0.2423606,0.2585996,6.437865,6.479924,7.09,NaN,0,7.184124,-4,-5
85097,89815777,0.2464482,0.001617461,0.2471213,0.2585996,6.437688,6.477604,7.03,NaN,0,7.190144,-3,-5
85538,89922805,0.2501845,0.001437604,0.2483043,0.2585996,6.437899,6.482032,7.09,NaN,0,7.203071,-4,-4
85985,90030111,0.2481567,0.001358554,0.2477015,0.2585996,6.438373,6.489753,7.36,NaN,0,7.218956,-4,-5
86426,90137814,0.2494281,0.001448408,0.2498582,0.2585996,6.438929,6.506274,7.28,NaN,0,7.243815,-6,-5
86841,90244565,0.239029,0.001677841,0.2460741,0.2585996,6.439302,6.525239,7.35,NaN,0,7.270432,-8,-6
87289,90351299,0.2398047,0.001904353,0.2421832,0.2585996,6.439218,6.540967,7.17,NaN,0,7.296185,-10,-5
87735,90456320,0.2467368,0.002226681,0.2447171,0.2585996,6.438477,6.550769,7.31,NaN,0,7.315173,-12,-8
88177,90563864,0.2437064,0.00225307,0.2448826,0.2585996,6.437088,6.550547,7.4,NaN,0,7.326006,-13,-11
88623,90671079,0.2398942,0.002305508,0.2447791,0.2585996,6.435087,6.545712,7.12,NaN,0,7.333233,-13,-12
89033,90778307,0.2460607,0.002447546,0.2398313,0.2585996,6.432807,6.542862,6.9,NaN,0,7.343292,-13,-11
89480,90884461,0.2457497,0.0023527,0.2433607,0.2585996,6.430116,6.541528,6.91,NaN,0,7.35402,-14,-13
89925,90991679,0.2291042,0.002343446,0.2413751,0.2585996,6.427287,6.539482,7.78,NaN,0,7.365898,-14,-14
90339,91096099,0.2321988,0.002406657,0.24077,0.2585996,6.424237,6.543401,7.96,NaN,0,7.384756,-15,-11
90782,91203067,0.2389871,0.002441913,0.2429839,0.2585996,6.420994,6.558,7.32,NaN,0,7.414132,-17,-13
91231,91309277,0.2250438,0.002550691,0.2343467,0.2585996,6.417371,6.574538,6.9,NaN,0,7.448072,-19,-12
91645,91416137,0.2194032,0.003173113,0.2256536,0.2585996,6.413154,6.582832,6.69,NaN,0,7.474007,-21,-14
92089,91523758,0.2451423,0.003712758,0.2333691,0.2585996,6.408306,6.582799,6.68,NaN,0,7.492468,-22,-19
92536,91632668,0.2416774,0.002659559,0.242631,0.2585996,6.402948,6.573251,6.58,NaN,0,7.504045,-22,-21
92945,91741812,0.2281581,0.001807123,0.2341214,0.2585996,6.397325,6.558128,6.35,NaN,0,7.511658,-22,-21
93393,91849001,0.2453557,0.001949221,0.2345493,0.2585996,6.391726,6.537824,6.33,NaN,0,7.514256,-20,-22
93837,91956941,0.2404648,0.001134649,0.2330565,0.2585996,6.386479,6.513866,6.39,NaN,0,7.512416,-17,-18
94252,92062103,0.2626517,0.0009478629,0.2508977,0.2585996,6.381917,6.486748,7.37,NaN,0,7.509041,-14,-21
94694,92170384,0.2453394,0.0009034574,0.2483402,0.2585996,6.378353,6.471081,7.04,NaN,0,7.516416,-12,-18
95142,92275903,0.2292807,0.0009226054,0.2431126,0.2585996,6.375866,6.46702,7.05,NaN,0,7.535235,-11,-13
95585,92385525,0.2187647,0.000895679,0.2335111,0.2585996,6.374344,6.46978,6.75,NaN,0,7.560112,-10,-9
96032,92491081,0.2373358,0.001442194,0.2309882,0.2585996,6.373585,6.474891,6.7,NaN,0,7.586242,-10,-6
96441,92599230,0.2432662,0.001658425,0.2373085,0.2585996,6.373361,6.480553,7.1,NaN,0,7.614617,-10,-10
96889,92706624,0.2355418,0.001721531,0.2417229,0.2585996,6.373504,6.48412,7.7,NaN,0,7.640973,-10,-10
97333,92815572,0.2324179,0.001755282,0.2405895,0.2585996,6.373871,6.494295,7.79,NaN,0,7.673014,-11,-10
97742,92924142,0.2250845,0.001763761,0.2317405,0.2585996,6.374249,6.512886,7.51,NaN,0,7.715232,-13,-7
98189,93030824,0.2195131,0.001590878,0.224737,0.2585996,6.374328,6.535275,7.71,NaN,0,7.759556,-16,-7
98632,93139133,0.2095208,0.00153698,0.2158351,0.2585996,6.373795,6.559632,7.68,NaN,0,7.807466,-19,-10
99079,93245680,0.215024,0.001542643,0.2176515,0.2585996,6.372381,6.583615,7.67,NaN,0,7.853298,-23,-12
99489,93353056,0.2184004,0.001610801,0.2154944,0.2585996,6.369947,6.605842,7.45,NaN,0,7.89923,-26,-16
99934,93458229,0.1785449,0.001246065,0.2036251,0.2585996,6.366188,6.618757,6.31,NaN,0,7.936537,-29,-16
100378,93564911,0.2258,0.00169526,0.2039596,0.2585996,6.361135,6.621947,6.89,NaN,0,7.964186,-32,-23
100793,93671582,0.23752,0.002164021,0.2286839,0.2585996,6.354977,6.607494,6.71,NaN,0,7.95692,-32,-29
101240,93781782,0.2477063,0.002159715,0.2395928,0.2585996,6.348131,6.581081,6.08,NaN,0,7.935581,-30,-35
101685,93887459,0.2464007,0.002056569,0.2426018,0.2585996,6.341146,6.545543,6.68,NaN,0,7.90488,-27,-35
102126,93994893,0.2609146,0.001893938,0.2553112,0.2585996,6.334641,6.502933,5.97,NaN,0,7.867252,-23,-36
102538,94103101,0.2637634,0.001590103,0.2600087,0.2585996,6.329226,6.458122,6.02,NaN,0,7.827561,-17,-31
102983,94210251,0.2454796,0.001033023,0.2456126,0.2585996,6.325436,6.417828,5.32,NaN,0,7.792165,-12,-23
103430,94315955,0.2773507,0.0009399652,0.2585287,0.2585996,6.323658,6.378818,5.11,NaN,0,7.758045,-6,-19
103839,94425755,0.2659667,0.001127273,0.2679531,0.2585996,6.32421,6.333429,5.66,NaN,0,7.717538,1,-14
104279,94534773,0.2759653,0.001214534,0.2686798,0.2585996,6.327413,6.293828,5.62,NaN,0,7.682622,8,-7
104726,94640677,0.2603934,0.001059651,0.2676659,0.2585996,6.333445,6.264602,5.76,NaN,0,7.657836,14,0
105137,94748043,0.2636244,0.0008529723,0.2700876,0.2585996,6.342295,6.244071,5.67,NaN,0,7.641235,20,8
105582,94854034,0.2581436,0.0007444024,0.2615824,0.2585996,6.353812,6.233665,5.73,NaN,0,7.634903,25,17
105994,94961240,0.2524885,0.0006501675,0.2565965,0.2585996,6.367701,6.233883,5.86,NaN,0,7.638836,29,22
106439,95067155,0.2476914,0.0006260574,0.2517862,0.2585996,6.383534,6.245196,5.61,NaN,0,7.653347,31,29
106885,95175500,0.2538631,0.000626415,0.2509803,0.2585996,6.400337,6.261977,5.98,NaN,0,7.673469,32,32
107301,95281277,0.2472304,0.0006300807,0.2521932,0.2585996,6.4185,6.282848,5.25,NaN,0,7.697673,32,33
107744,95390271,0.2472791,0.0006100982,0.2509659,0.2585996,6.437101,6.300056,5.77,NaN,0,7.718231,33,33
108194,95498477,0.2432087,0.0006100982,0.2437235,0.2585996,6.455779,6.316792,5.44,NaN,0,7.738011,33,36
108630,95606044,0.2568207,0.0006598233999999999,0.24721,0.2585996,6.47424,6.333412,6.08,NaN,0,7.757683,33,34
109048,95715704,0.2500165,0.0006178021,0.2505099,0.2585996,6.492682,6.354732,5.86,NaN,0,7.782344,32,31
109496,95823990,0.2568813,0.000603646,0.2543792,0.2585996,6.509906,6.378077,5.92,NaN,0,7.808589,30,30
109941,95932963,0.2526573,0.0005612969,0.2524647,0.2585996,6.525733,6.398517,5.93,NaN,0,7.83179,29,29
110386,96038242,0.2497334,0.000564605,0.2499224,0.2585996,6.540852,6.417425,6.63,NaN,0,7.85359,27,27
110797,96146567,0.2382698,0.0004103184,0.2472769,0.2585996,6.554704,6.442473,6.57,NaN,0,7.881248,25,27
111247,96253625,0.2356756,0.0003206432,0.2381857,0.2585996,6.567098,6.474164,6.35,NaN,0,7.915479,21,27
111656,96362103,0.2370124,0.0002989024,0.2319874,0.2585996,6.577515,6.505816,6.3,NaN,0,7.949808,17,25
112103,96468264,0.2216824,0.0002932549,0.2297344,0.2585996,6.586289,6.533208,6.37,NaN,0,7.979811,13,22
112543,96576666,0.2285845,0.0003361255,0.2247565,0.2585996,6.592996,6.55709,6.3,NaN,0,8.006446,9,18
112988,96684079,0.2292101,0.0003284365,0.2247211,0.2585996,6.597606,6.574694,6.35,NaN,0,8.026514000000001,6,13
113438,96792500,0.2368332,0.0002643764,0.2321704,0.2585996,6.600194,6.58582,6.02,NaN,0,8.039891000000001,3,7
113853,96899082,0.2466543,0.0001614541,0.2396113,0.2585996,6.600933,6.586266,6.63,NaN,0,8.042877000000001,1,2
114296,97009140,0.2413388,7.192791e-05,0.2428085,0.2585996,6.600121,6.585099,6.55,NaN,0,8.044098999999999,0,0
114737,97117777,0.2376665,1.163781e-05,0.2441043,0.2585996,6.598051,6.582293,6.49,NaN,0,8.043619,-1,-2
115184,97224876,0.2448524,0.0002577901,0.2453709,0.2585996,6.594984,6.579477,6.38,NaN,0,8.043123,-2,-3
115596,97333565,0.2367382,0.0006300211,0.2420531,0.2585996,6.591139,6.577625,6.56,NaN,0,8.043957000000001,-3,-3
116042,97439991,0.2472522,0.0008706003,0.2381771,0.2585996,6.586681,6.578628,6.56,NaN,0,8.047431,-4,-2
116485,97549673,0.2426266,0.0006627738,0.2429474,0.2585996,6.581703,6.579035,6.4,NaN,0,8.050967,-5,-4
116925,97654238,0.2359579,0.0002317727,0.2397202,0.2585996,6.576287,6.578316,6.23,NaN,0,8.053077999999999,-6,-4
117339,97764268,0.2471701,5.170703e-05,0.24263,0.2585996,6.570525,6.577766,6.24,NaN,0,8.055732000000001,-6,-5
117786,97871561,0.2399441,0.0001310557,0.2433403,0.2585996,6.564476,6.578209,6.8,NaN,0,8.059296,-7,-6
118229,97980683,0.2352277,0.0002556741,0.2396852,0.2585996,6.558188,6.578049,6.42,NaN,0,8.062118999999999,-8,-6
118677,98088496,0.2547437,0.0004766583,0.245397,0.2585996,6.551714,6.574424,6.44,NaN,0,8.061614000000001,-9,-8
119119,98196999,0.2455235,0.000602141,0.2480261,0.2585996,6.545129,6.571239,6.48,NaN,0,8.061404,-9,-9
119567,98305105,0.2274254,0.000424698,0.2394371,0.2585996,6.538512,6.566615,6.61,NaN,0,8.059466,-9,-8
120008,98414894,0.2502249,0.0003667474,0.2414401,0.2585996,6.531942,6.561511,6.62,NaN,0,8.0572,-9,-8
120456,98524519,0.2466191,0.0004275292,0.248886,0.2585996,6.525334,6.554028,6.43,NaN,0,8.052402000000001,-9,-10
120898,98631570,0.2474976,0.0004274249,0.25102,0.2585996,6.519123,6.545371,6.62,NaN,0,8.046287,-9,-11
121341,98740880,0.2452714,0.0004068017,0.2489252,0.2585996,6.513094,6.537099,6.4,NaN,0,8.040708,-8,-8
121789,98849086,0.2385975,0.0004630834,0.2460132,0.2585996,6.507621,6.532763,6.53,NaN,0,8.039202,-8,-7
122234,98959272,0.24323,0.0005845129,0.2448515,0.2585996,6.502553,6.530596,6.61,NaN,0,8.039797,-7,-7
122679,99066135,0.2422598,0.000514254,0.2459707,0.2585996,6.497862,6.528692,6.52,NaN,0,8.040373000000001,-7,-7
123120,99174451,0.2437923,0.0004066378,0.247249,0.2585996,6.493514,6.527216,6.4,NaN,0,8.041385,-7,-7
123568,99282036,0.2441499,0.0003271401,0.2466264,0.2585996,6.489478,6.524012,6.83,NaN,0,8.040590999999999,-7,-7
123980,99391786,0.2424094,0.0002765208,0.2447265,0.2585996,6.485744,6.524107,6.95,NaN,0,8.043469999999999,-7,-5
124426,99499523,0.247169,0.0002834797,0.2438921,0.2585996,6.482259,6.529119,6.8,NaN,0,8.050901,-8,-6
124868,99607158,0.2448677,0.0002591312,0.2451031,0.2585996,6.478902,6.535827,6.78,NaN,0,8.060537999999999,-9,-7
125280,99717903,0.2485335,0.0002684593,0.24532,0.2585996,6.475543,6.541236,6.69,NaN,0,8.06874,-10,-7
125729,99824702,0.2454857,0.0001447052,0.2422519,0.2585996,6.472094,6.545596,6.79,NaN,0,8.07596,-11,-7
126140,99932580,0.2386952,8.109212e-05,0.2397782,0.2585996,6.468486,6.550246,7.11,NaN,0,8.083555,-12,-9
126590,100039829,0.2330044,2.880394e-05,0.2367182,0.2585996,6.46467,6.559428,7.36,NaN,0,8.095758999999999,-13,-8
127000,100147451,0.2338301,2.107024e-05,0.2361403,0.2585996,6.460642,6.572024,6.94,NaN,0,8.111307999999999,-15,-10
127449,100253798,0.2335949,2.910197e-05,0.2352003,0.2585996,6.456057,6.57981,6.94,NaN,0,8.122344,-17,-12
127894,100362076,0.241344,8.150935000000001e-05,0.2376383,0.2585996,6.451109,6.583059,7.03,NaN,0,8.128988,-18,-15
128340,100469108,0.2346886,0.0001329184,0.2376146,0.2585996,6.445537,6.587503,7.01,NaN,0,8.136965,-20,-16
128782,100577776,0.2412859,0.0002203286,0.2373456,0.2585996,6.439513,6.586346,7.58,NaN,0,8.139073,-21,-17
129196,100682498,0.2388089,0.0002356023,0.2399011,0.2585996,6.433118,6.586836,7.61,NaN,0,8.142965999999999,-22,-20
129639,100790492,0.2430202,0.0002076328,0.2426979,0.2585996,6.426392,6.592684,7.6,NaN,0,8.152086000000001,-23,-20
130086,100896351,0.2403353,0.0001405329,0.2396275,0.2585996,6.419296,6.600654,7.14,NaN,0,8.163482,-25,-22
130531,101004282,0.231505,9.723007999999999e-05,0.2350273,0.2585996,6.411789,6.607377,7.16,NaN,0,8.173355000000001,-27,-22
130944,101113542,0.239464,0.0001101047,0.2334374,0.2585996,6.403822,6.608403,7.3,NaN,0,8.177609,-29,-24
131390,101220798,0.2365274,0.0001568794,0.2358359,0.2585996,6.395452,6.60577,7.32,NaN,0,8.178775999999999,-30,-27
131799,101327717,0.2334297,0.0001179278,0.2367067,0.2585996,6.387028,6.603143,7.35,NaN,0,8.179467000000001,-30,-27
132244,101434041,0.2343443,0.000100702,0.2355444,0.2585996,6.378187,6.600096,7.02,NaN,0,8.180296999999999,-31,-28
132687,101542839,0.2401206,9.575486e-05,0.2351641,0.2585996,6.36926,6.592371,7.25,NaN,0,8.176409,-31,-28
133134,101650095,0.2452561,0.0001226813,0.2396224,0.2585996,6.360374,6.583076,6.89,NaN,0,8.171013,-31,-30
133578,101757490,0.2496184,0.0001398623,0.2427756,0.2585996,6.35168,6.56856,7.15,NaN,0,8.160546999999999,-30,-32
134023,101864267,0.2542194,0.0001162291,0.2486024,0.2585996,6.343369,6.552935,6.87,NaN,0,8.149111,-29,-31
134437,101972770,0.2432206,9.028614000000001e-05,0.2493944,0.2585996,6.335639,6.534867,7.19,NaN,0,8.135324000000001,-27,-31
134882,102079528,0.2489967,7.498264e-05,0.2464081,0.2585996,6.328679,6.518592,7.17,NaN,0,8.123557999999999,-25,-28
135326,102188886,0.2427773,7.030368e-05,0.2471936,0.2585996,6.322608,6.508332,6.94,NaN,0,8.117599,-24,-25
135775,102295039,0.2435894,4.643202e-05,0.2432815,0.2585996,6.317444,6.500519,7.05,NaN,0,8.114029,-23,-23
136189,102404230,0.2482113,4.829466e-05,0.245942,0.2585996,6.313164,6.494663,6.67,NaN,0,8.112492,-22,-22
136633,102513037,0.2466912,7.654727e-05,0.2467108,0.2585996,6.309728,6.485617,6.86,NaN,0,8.107695,-20,-22
137077,102620131,0.2562098,9.402632999999999e-05,0.25314,0.2585996,6.307112,6.479617,6.9,NaN,0,8.106180999999999,-19,-20
137488,102726131,0.2465481,2.701581e-05,0.2486442,0.2585996,6.305291,6.472035,6.64,NaN,0,8.102880000000001,-18,-17
137934,102832768,0.2561631,1.490116e-05,0.251107,0.2585996,6.304236,6.466117,6.83,NaN,0,8.101448,-16,-18
138374,102941228,0.2526407,0.0001653731,0.2531906,0.2585996,6.303923,6.458613,6.49,NaN,0,8.098445,-15,-17
138791,103047820,0.2480383,0.0004900694,0.2518252,0.2585996,6.30435,6.450326,6.47,NaN,0,8.094568000000001,-13,-15
139230,103155211,0.2491553,0.0006464869,0.2503075,0.2585996,6.305519,6.441008,6.68,NaN,0,8.089873000000001,-11,-13
139680,103261721,0.2447919,0.0005902200999999999,0.2492792,0.2585996,6.307456,6.432698,6.48,NaN,0,8.085804,-10,-11
140123,103368752,0.2510896,0.0004454255,0.2495913,0.2585996,6.310005,6.424847,6.6,NaN,0,8.082065999999999,-8,-11
140537,103472084,0.250346,0.00038445,0.252801,0.2585996,6.313449,6.418021,6.39,NaN,0,8.079131,-6,-9
140979,103580035,0.251177,0.0003533065,0.2511982,0.2585996,6.317649,6.410525,6.38,NaN,0,8.075726,-4,-7
141429,103688023,0.2456465,0.000274092,0.2482779,0.2585996,6.322596,6.404118,6.26,NaN,0,8.073292,-2,-4
141865,103793134,0.2433307,0.0002424717,0.247577,0.2585996,6.328099,6.401558,6.46,NaN,0,8.074661000000001,-1,-2
142315,103900578,0.2534175,0.0002714097,0.2474399,0.2585996,6.334382,6.400244,6.67,NaN,0,8.077177000000001,0,0
142721,104007380,0.2379666,0.0003485233,0.2446074,0.2585996,6.341205,6.405859,6.15,NaN,0,8.086477,0,1
143165,104114058,0.249952,0.001057923,0.2473016,0.2585996,6.348402,6.409357,6.25,NaN,0,8.093531,1,1
143612,104221077,0.2548777,0.003176838,0.2504291,0.2585996,6.355842,6.411738,6.57,NaN,0,8.099582,2,1
144027,104331272,0.2565791,0.007048368,0.2579197,0.2585996,6.363447,6.413481,6.41,NaN,0,8.104568,3,0
144474,104438804,0.2440046,0.009910643,0.2565393,0.2585996,6.371158,6.416548,6.32,NaN,0,8.110563000000001,3,2
144914,104546221,0.2369758,0.009081095000000001,0.2518636,0.2585996,6.378904,6.420872,6.3,NaN,0,8.117428,3,3
145359,104652671,0.2402798,0.006892845,0.2470254,0.2585996,6.386611,6.426042,6,NaN,0,8.124605000000001,4,4
145802,104759590,0.2436621,0.004568741,0.2449655,0.2585996,6.394202,6.429781,6.32,NaN,0,8.130106,4,5
146247,104865536,0.2388237,0.003102809,0.2455795,0.2585996,6.401634,6.433195,6.09,NaN,0,8.134793999999999,4,5
146657,104973842,0.2395016,0.002472848,0.2444234,0.2585996,6.408689,6.436117,6.16,NaN,0,8.138952,4,5
147104,105082498,0.2446215,0.00228022,0.2444802,0.2585996,6.415732,6.437344,5.95,NaN,0,8.141232,5,4
147549,105190096,0.2440745,0.002124637,0.245343,0.2585996,6.422584,6.437631,6.1,NaN,0,8.142511000000001,5,4
147994,105296102,0.2473784,0.002040014,0.2450508,0.2585996,6.429277,6.435964,6.18,NaN,0,8.141622999999999,6,5
148442,105405016,0.2569188,0.001908422,0.2475709,0.2585996,6.435848,6.438805,6.43,NaN,0,8.145035,6,4
148851,105510188,0.2604331,0.001744539,0.2568894,0.2585996,6.442286,6.440766,5.94,NaN,0,8.147593000000001,6,2
149298,105618423,0.2451499,0.001505479,0.2552339,0.2585996,6.448581,6.442444,6.36,NaN,0,8.149711999999999,7,4
149739,105726100,0.2518456,0.001137525,0.2517294,0.2585996,6.454729,6.444299,5.76,NaN,0,8.151972000000001,7,4
150153,105832787,0.2544475,0.0008669794,0.2523675,0.2585996,6.460734,6.44344,6.51,NaN,0,8.15141,7,5
150596,105942414,0.265678,0.001049548,0.2579255,0.2585996,6.466628,6.443108,6.22,NaN,0,8.151130999999999,8,5
151044,106050099,0.2647106,0.001036912,0.2637701,0.2585996,6.472439,6.442431,6.43,NaN,0,8.150606,9,4
151486,106157105,0.26589,0.0008381009,0.2655638,0.2585996,6.478038,6.44355,6.41,NaN,0,8.151749000000001,9,3
151902,106261787,0.2659832,0.0007967055,0.2662687,0.2585996,6.483716,6.446611,6.34,NaN,0,8.154809999999999,9,4
152344,106368722,0.2609951,0.00117448,0.2646009,0.2585996,6.489143,6.451433,6.42,NaN,0,8.159266000000001,9,6
152757,106473668,0.2538857,0.001649499,0.2598771,0.2585996,6.49455,6.458369,6.11,NaN,0,8.166232000000001,9,7
153199,106580562,0.2550687,0.002054513,0.2556012,0.2585996,6.499702,6.465858,6.54,NaN,0,8.173247999999999,8,9
153646,106686698,0.2564718,0.002211571,0.2577199,0.2585996,6.504519,6.475037,6.4,NaN,0,8.181816,7,8
154087,106796949,0.2559321,0.002485961,0.2608232,0.2585996,6.508905,6.486401,6.57,NaN,0,8.192546999999999,6,7
154533,106905038,0.2660199,0.002909809,0.2624074,0.2585996,6.512759,6.496257,6.62,NaN,0,8.201373999999999,5,5
154976,107012146,0.2732994,0.002735734,0.2699343,0.2585996,6.516007,6.503864,6.66,NaN,0,8.207836,4,2
155386,107120671,0.2646798,0.001891047,0.2710221,0.2585996,6.518569,6.509544,6.8,NaN,0,8.211921999999999,3,0
155834,107229088,0.2532529,0.001062393,0.2630465,0.2585996,6.520589,6.516877,6.86,NaN,0,8.21766,2,2
156274,107338521,0.2407067,0.0006610304,0.2524111,0.2585996,6.521973,6.528691,7.07,NaN,0,8.227634999999999,0,3
156719,107444256,0.2310426,0.0006770194,0.2418093,0.2585996,6.522634,6.546205,7.46,NaN,0,8.243302,-2,4
157163,107553911,0.232219,0.0009040087,0.2340457,0.2585996,6.522418,6.565538,7.58,NaN,0,8.260706000000001,-5,5
157610,107660758,0.2471288,0.001417592,0.2372354,0.2585996,6.521166,6.582666,7.18,NaN,0,8.275904000000001,-8,1
158020,107769020,0.2580752,0.001833707,0.2488407,0.2585996,6.518781,6.594512,7.07,NaN,0,8.285299,-10,-6
158468,107877861,0.2497421,0.00154765,0.2512467,0.2585996,6.515255,6.60279,7.28,NaN,0,8.291283,-13,-9
158909,107984810,0.2422313,0.001230851,0.247077,0.2585996,6.510654,6.607709,7.5,NaN,0,8.293851,-15,-10
159323,108090212,0.2387003,0.001248673,0.2421097,0.2585996,6.505063,6.616837,7.31,NaN,0,8.300407,-17,-12
159768,108198995,0.2346425,0.00140968,0.2355235,0.2585996,6.49851,6.629982,6.98,NaN,0,8.310957999999999,-20,-12
160187,108313542,0.2258714,0.00153634,0.2318813,0.2585996,6.490558,6.637667,7.05,NaN,0,8.315721999999999,-23,-14
160635,108422114,0.2421917,0.00217016,0.2363692,0.2585996,6.48203,6.640491,7.03,NaN,0,8.31554,-25,-18
161079,108531715,0.2644882,0.002884924,0.2521957,0.2585996,6.472933,6.63392,7.23,NaN,0,8.306207000000001,-26,-25
161528,108639480,0.2573399,0.002689511,0.2611278,0.2585996,6.463014,6.625798,7.66,NaN,0,8.294682999999999,-26,-28
161969,108746278,0.2441738,0.001898468,0.254508,0.2585996,6.452751,6.618457,7.51,NaN,0,8.283977,-27,-28
162416,108852134,0.2522832,0.001576781,0.2518891,0.2585996,6.442322,6.610876,7.06,NaN,0,8.272954,-27,-27
162857,108961054,0.2513001,0.0008282065,0.2530825,0.2585996,6.43186,6.604813,7.03,NaN,0,8.263007999999999,-28,-28
163271,109068112,0.2492912,4.814565e-05,0.2521045,0.2585996,6.421503,6.593958,7.31,NaN,0,8.2484,-28,-27
163718,109176760,0.2505023,0.0002200603,0.2500588,0.2585996,6.411663,6.581892,7.43,NaN,0,8.232723999999999,-27,-26
164163,109280859,0.2470043,0.0004576743,0.2503718,0.2585996,6.401954,6.573558,7.27,NaN,0,8.220912,-27,-26
164573,109386259,0.2448222,0.0003983229,0.2487862,0.2585996,6.392969,6.563735,7.05,NaN,0,8.207686000000001,-26,-26
165018,109491666,0.2532398,0.0003019571,0.2511446,0.2585996,6.384287,6.555565,6.99,NaN,0,8.185036,-25,-25
165460,109597505,0.2578205,0.0002680123,0.2540872,0.2585996,6.376417,6.545176,7.03,NaN,0,8.151926,-25,-25
165909,109706593,0.2535027,0.0002678633,0.2546341,0.2585996,6.36898,6.534128,7.15,NaN,0,8.117426,-23,-24
166317,109814060,0.2470259,0.0002481341,0.2560194,0.2585996,6.362269,6.523577,6.9,NaN,0,8.086634,-22,-24
166766,109928102,0.2502438,0.0002384484,0.2555607,0.2585996,6.356203,6.512258,6.97,NaN,0,8.051693999999999,-21,-22
167213,110035125,0.2542424,0.0001988113,0.2560045,0.2585996,6.35112,6.504842,6.71,NaN,0,8.024794,-20,-22
167656,110144306,0.2555455,0.0004186034,0.2551006,0.2585996,6.346854,6.495516,6.67,NaN,0,7.994326,-18,-19
168103,110252111,0.2520452,0.001258582,0.2543412,0.2585996,6.343411,6.485352,6.68,NaN,0,7.964921,-17,-18
168515,110361645,0.2535596,0.003241748,0.2552669,0.2585996,6.340872,6.473813,6.73,NaN,0,7.936444,-15,-16
168960,110467560,0.2515537,0.005263537,0.257512,0.2585996,6.339144,6.462892,6.73,NaN,0,7.910913,-13,-15
169400,110576025,0.2384076,0.004947424,0.2522379,0.2585996,6.338334,6.451436,6.32,NaN,0,7.887471,-11,-13
169847,110681810,0.2500487,0.003576398,0.2500799,0.2585996,6.338462,6.441192,6.21,NaN,0,7.866828,-9,-10
170291,110788909,0.2649086,0.002078772,0.2579894,0.2585996,6.339541,6.429967,6.31,NaN,0,7.846853,-7,-10
170736,110894511,0.2657244,0.001163423,0.2627847,0.2585996,6.341589,6.417534,6.59,NaN,0,7.827309,-4,-8
171179,111000708,0.2633755,0.0008305310999999999,0.2634223,0.2585996,6.344633,6.40954,6.65,NaN,0,7.812289,-2,-7
171591,111105572,0.2600406,0.0007985532,0.2619244,0.2585996,6.348629,6.406035,6.32,NaN,0,7.803337,-1,-5
172034,111212580,0.2645978,0.001010597,0.2643505,0.2585996,6.353488,6.402392,6.44,NaN,0,7.793994,0,-4
172476,111323499,0.2524213,0.0009975730999999999,0.2603118,0.2585996,6.359269,6.40047,6.29,NaN,0,7.789013,2,0
172924,111429504,0.241375,0.0008029491,0.2514948,0.2585996,6.365572,6.400113,6.64,NaN,0,7.785352,3,2
173365,111537862,0.2383037,0.0004571676,0.2434487,0.2585996,6.372417,6.406609,6.42,NaN,0,7.78788,4,6
173779,111642997,0.2400742,0.0003721863,0.241439,0.2585996,6.379611,6.416134,6.85,NaN,0,7.795765,4,7
174220,111750287,0.2577389,0.0005784929,0.245569,0.2585996,6.386546,6.42959,6.12,NaN,0,7.80691,3,8
174667,111855074,0.2657338,0.0006830394,0.2556839,0.2585996,6.39376,6.439358,6.14,NaN,0,7.815022,2,2
175106,111963768,0.259733,0.0003935397,0.2609004,0.2585996,6.400369,6.442726,6.2,NaN,0,7.817559,2,0
175521,112069745,0.2566173,0.0001901388,0.2603134,0.2585996,6.407087,6.442889,6.69,NaN,0,7.817722,3,0
175964,112179022,0.2600478,0.0001085699,0.2577709,0.2585996,6.413579,6.445921,6.76,NaN,0,7.819113,3,1
176376,112283564,0.2577632,0.0001144111,0.2581343,0.2585996,6.419835,6.452964,6.37,NaN,0,7.826316,3,1
176821,112391267,0.2614556,0.0001403987,0.2572156,0.2585996,6.425782,6.46128,6.18,NaN,0,7.834632,2,2
177266,112496045,0.253471,0.0001616478,0.2550457,0.2585996,6.431337,6.466282,6.38,NaN,0,7.838803,2,3
177709,112603521,0.2456729,0.0001956373,0.2518868,0.2585996,6.436485,6.46959,6.56,NaN,0,7.842271,1,2
178155,112713764,0.2539202,0.0002085268,0.2505288,0.2585996,6.441359,6.473622,6.54,NaN,0,7.846303,1,2
178600,112822541,0.2588283,0.0002218783,0.2551607,0.2585996,6.445717,6.477015,6.37,NaN,0,7.849856,1,0
179044,112930068,0.2564815,0.0002348423,0.2559419,0.2585996,6.4497,6.478711,6.61,NaN,0,7.851552,1,0
179457,113035537,0.2513247,0.0002920926,0.2527556,0.2585996,6.453341,6.481938,6.58,NaN,0,7.854939,0,1
179901,113143718,0.2460294,0.0003200918,0.2504277,0.2585996,6.456647,6.485675,6.87,NaN,0,7.858676,0,1
180343,113249230,0.2460008,0.0002795011,0.2469172,0.2585996,6.459613,6.491482,6.8,NaN,0,7.86382,0,1
180787,113358583,0.2453206,0.0002398938,0.2457123,0.2585996,6.462203,6.499144,6.67,NaN,0,7.871481,-1,2
181202,113465539,0.2418031,0.0002768636,0.24423,0.2585996,6.464356,6.50642,6.75,NaN,0,7.878757,-2,2
181642,113574670,0.2462018,0.0002737492,0.2450119,0.2585996,6.46603,6.513086,6.44,NaN,0,7.883775,-3,0
182088,113680872,0.2494531,0.0002895147,0.247592,0.2585996,6.467198,6.516397,6.49,NaN,0,7.887246,-3,-1
182531,113790099,0.2477933,0.0002589077,0.2478644,0.2585996,6.467894,6.517888,6.34,NaN,0,7.887914,-4,-2
182977,113897597,0.2481668,0.0002275258,0.2493807,0.2585996,6.468173,6.516628,6.37,NaN,0,7.886814,-4,-3
183387,114005706,0.2528394,0.0002193451,0.2508208,0.2585996,6.468132,6.511992,6.8,NaN,0,7.882415,-4,-3
183830,114113874,0.2501575,0.0002111495,0.2508229,0.2585996,6.467902,6.506736,6.74,NaN,0,7.877158,-4,-3
184243,114222054,0.2531761,0.000212729,0.2495999,0.2585996,6.467594,6.504275,6.81,NaN,0,7.87321,-4,-4
184687,114330713,0.2471777,0.0002158433,0.2496923,0.2585996,6.46726,6.502858,6.56,NaN,0,7.871869,-3,-3
185133,114438012,0.2454007,0.000270009,0.2477483,0.2585996,6.466943,6.502706,6.43,NaN,0,7.871877,-3,-2
185577,114547775,0.2438439,0.0003359765,0.247552,0.2585996,6.466642,6.502489,6.86,NaN,0,7.870844,-3,-3
186023,114653948,0.2462664,0.0003873706,0.2478119,0.2585996,6.46634,6.503312,6.59,NaN,0,7.871902,-4,-2
186462,114762695,0.2436045,0.0003843755,0.2478847,0.2585996,6.466039,6.503738,6.66,NaN,0,7.87233,-4,-3
186905,114868924,0.2417697,0.0004181713,0.2461299,0.2585996,6.465737,6.504345,6.8,NaN,0,7.872936,-4,-3
187348,114976823,0.2491381,0.0004480183,0.2464305,0.2585996,6.465414,6.504982,6.73,NaN,0,7.871925,-4,-2
187765,115081795,0.2563017,0.0004799068,0.2514789,0.2585996,6.465068,6.503834,6.52,NaN,0,7.870777,-4,-3
188207,115190678,0.2536328,0.0004574656,0.2518986,0.2585996,6.464721,6.50172,6.66,NaN,0,7.868663,-4,-4
188652,115297124,0.2543935,0.0004174411,0.2510117,0.2585996,6.464408,6.499216,6.52,NaN,0,7.865335,-3,-3
189064,115403890,0.2605924,0.0004625022,0.2587823,0.2585996,6.464169,6.493649,6.28,NaN,0,7.859769,-3,-6
189508,115514915,0.2630277,0.0004594922,0.262941,0.2585996,6.464079,6.486128,6.67,NaN,0,7.851416,-2,-6
189955,115621129,0.2694845,0.0004683733,0.2660808,0.2585996,6.46423,6.481163,6.56,NaN,0,7.84481,-1,-7
190396,115728731,0.2707657,0.000456214,0.270799,0.2585996,6.464666,6.477576,6.66,NaN,0,7.840392,0,-5
190841,115834577,0.2597105,0.0004809201,0.2695342,0.2585996,6.465393,6.476644,7.01,NaN,0,7.837584,0,-4
191253,115940879,0.2600413,0.000537008,0.2606053,0.2585996,6.466311,6.483495,6.77,NaN,0,7.843602,0,-1
191697,116048505,0.2617665,0.0006213784,0.2594709,0.2585996,6.467377,6.49367,6.34,NaN,0,7.85213,-1,0
192142,116155792,0.2557323,0.000662595,0.2588693,0.2585996,6.468352,6.498737,6.4,NaN,0,7.856365,-2,-1
192588,116261047,0.2591839,0.0006955564,0.2587552,0.2585996,6.469206,6.500673,6.34,NaN,0,7.857485,-2,-2
193029,116370091,0.2592333,0.0006623268,0.2607476,0.2585996,6.469886,6.500234,6.23,NaN,0,7.856886,-2,-2
193444,116475555,0.2654648,0.0006935894,0.2631686,0.2585996,6.470468,6.495854,6.02,NaN,0,7.852665,-1,-3
193884,116583497,0.2710732,0.0007385612,0.2697703,0.2585996,6.470993,6.485316,6.52,NaN,0,7.842128,0,-4
194331,116690544,0.2666669,0.0006215274,0.2683157,0.2585996,6.471687,6.474643,6.49,NaN,0,7.831691,0,-2
194740,116799035,0.2546032,0.0004530847,0.2651629,0.2585996,6.472666,6.469599,6.43,NaN,0,7.827631,1,0
195186,116906981,0.2655238,0.0004330873,0.2626898,0.2585996,6.473969,6.468069,6.6,NaN,0,7.826101,2,1
195625,117015059,0.2423022,0.0003858954,0.2546878,0.2585996,6.475514,6.473352,6.84,NaN,0,7.831545,1,2
196042,117126312,0.2368831,0.0004899949,0.2415453,0.2585996,6.477301,6.486311,6.95,NaN,0,7.845495,0,8
196490,117233100,0.2420543,0.000657469,0.2399494,0.2585996,6.478956,6.505735,6.48,NaN,0,7.867392,-1,8
196899,117342889,0.2484312,0.0008533001,0.2429985,0.2585996,6.480238,6.520737,6.47,NaN,0,7.884033,-2,2
197345,117449912,0.2509134,0.0007898211,0.2477565,0.2585996,6.480964,6.529059,6.1,NaN,0,7.894835,-4,1
197755,117558520,0.2483194,0.0006481707,0.2436477,0.2585996,6.4811,6.529472,6.22,NaN,0,7.896896,-4,0
198202,117665908,0.2345525,0.0003257394,0.2425725,0.2585996,6.480731,6.527023,6.27,NaN,0,7.898567,-5,-1
198643,117774512,0.2320545,0.000204131,0.2357333,0.2585996,6.479979,6.5263,6.51,NaN,0,7.900324,-5,-1
199087,117881016,0.2431661,0.0003015846,0.2363916,0.2585996,6.478926,6.526411,6.49,NaN,0,7.90225,-6,-2
199528,117989227,0.2431292,0.0004616231,0.2416402,0.2585996,6.477619,6.525291,6.86,NaN,0,7.902771,-6,-4
199974,118097159,0.236443,0.0005933493,0.2414695,0.2585996,6.476124,6.523238,6.67,NaN,0,7.901548,-6,-4
200384,118204807,0.2571976,0.0007690787,0.2492495,0.2585996,6.474507,6.520199,6.8,NaN,0,7.900318,-6,-6
200831,118314870,0.2626964,0.000947386,0.2558222,0.2585996,6.472795,6.514742,6.42,NaN,0,7.895685,-5,-8
201273,118422679,0.2576505,0.000959605,0.2583606,0.2585996,6.47113,6.508694,6.82,NaN,0,7.891286,-5,-9
201714,118530109,0.2617409,0.0008814037,0.2598788,0.2585996,6.469647,6.503107,7,NaN,0,7.885698,-4,-9
202162,118637741,0.2626346,0.000890106,0.2606483,0.2585996,6.468371,6.500018,6.72,NaN,0,7.882449,-4,-7
202603,118746226,0.2604439,0.0008692145000000001,0.2609696,0.2585996,6.467322,6.496697,6.93,NaN,0,7.878976,-3,-7
203047,118852019,0.2582995,0.0006616712,0.2613959,0.2585996,6.466506,6.494421,6.97,NaN,0,7.874884,-3,-7
203462,118959191,0.2584119,0.0004575849,0.2609778,0.2585996,6.465925,6.492022,6.88,NaN,0,7.872164,-3,-4
203907,119065555,0.2499465,0.0002400279,0.2567407,0.2585996,6.465575,6.490712,6.99,NaN,0,7.870374,-2,-3
204349,119174758,0.2488029,0.0001332909,0.2521007,0.2585996,6.465439,6.491272,6.75,NaN,0,7.869713,-2,-1
204794,119280567,0.24763,0.0001521707,0.2481496,0.2585996,6.465469,6.49267,6.93,NaN,0,7.869135,-2,0
205204,119388907,0.2554926,0.0002261102,0.2511266,0.2585996,6.46561,6.49684,6.92,NaN,0,7.872153,-2,-1
205648,119495546,0.2625575,0.0003924072,0.2609696,0.2585996,6.465783,6.503284,7.39,NaN,0,7.876636,-3,-3
206089,119602049,0.2563889,0.0003622174,0.2625847,0.2585996,6.46586,6.517119,7.12,NaN,0,7.889158,-5,-4
206535,119713239,0.2596109,0.0002599955,0.2594616,0.2585996,6.465614,6.530115,6.84,NaN,0,7.899363,-6,-6
206980,119819888,0.2682607,0.000249058,0.2655133,0.2585996,6.464919,6.537611,6.57,NaN,0,7.905469,-8,-9
207421,119928577,0.2661203,0.0002451837,0.2695203,0.2585996,6.463739,6.537982,7.02,NaN,0,7.903049,-8,-10
207866,120035000,0.2617789,0.0001809895,0.265663,0.2585996,6.462148,6.535429,6.73,NaN,0,7.89852,-9,-10
208308,120142821,0.2599543,0.0001951754,0.2618749,0.2585996,6.46031,6.531593,6.79,NaN,0,7.892876,-9,-9
208753,120249905,0.2564974,0.0001968741,0.2587723,0.2585996,6.45823,6.528032,6.7,NaN,0,7.887506,-9,-9
209166,120358549,0.2599884,0.0001708567,0.2585137,0.2585996,6.455991,6.52375,7.03,NaN,0,7.882233,-9,-7
209614,120466693,0.2584118,0.000223428,0.2599906,0.2585996,6.453796,6.52001,7.03,NaN,0,7.876852,-8,-9
210054,120574533,0.2582717,0.0003413856,0.257986,0.2585996,6.451656,6.514451,6.83,NaN,0,7.870622,-8,-8
210502,120682260,0.2586437,0.0004092455,0.2581701,0.2585996,6.449651,6.507972,6.73,NaN,0,7.862503,-7,-7
210942,120790815,0.2576201,0.0003109276,0.2580387,0.2585996,6.447864,6.501169,6.81,NaN,0,7.854868,-7,-6
211386,120896946,0.2663306,0.0002627969,0.2609559,0.2585996,6.446369,6.494978,6.88,NaN,0,7.848838,-6,-7
211830,121004129,0.2651843,0.0002135038,0.2629731,0.2585996,6.445243,6.489386,6.94,NaN,0,7.842421,-5,-7
212246,121111093,0.2540063,0.0002186596,0.2580259,0.2585996,6.444456,6.485876,7.05,NaN,0,7.839072,-4,-5
212687,121220563,0.2585688,0.0002754629,0.2550335,0.2585996,6.444036,6.484053,6.89,NaN,0,7.835601,-4,-3
213093,121327215,0.2602604,0.0003656745,0.2583492,0.2585996,6.443954,6.483423,6.64,NaN,0,7.834306,-3,-3
213538,121434801,0.2599213,0.0004028976,0.2578462,0.2585996,6.444158,6.483632,6.77,NaN,0,7.833028,-3,-3
213947,121542810,0.2576549,0.0004751682,0.2580076,0.2585996,6.444594,6.486154,6.66,NaN,0,7.835549,-3,-2
214394,121649984,0.2532724,0.000467509,0.2566093,0.2585996,6.445183,6.489871,6.8,NaN,0,7.838596,-3,-1
214835,121760516,0.2524646,0.0004765093,0.2533364,0.2585996,6.445815,6.49521,6.32,NaN,0,7.844339,-4,0
215281,121868453,0.245182,0.0004883707,0.2506132,0.2585996,6.446431,6.4968,6.36,NaN,0,7.846089,-4,0
215720,121974921,0.2562439,0.0005765855,0.2494275,0.2585996,6.446997,6.494912,6.36,NaN,0,7.844361,-4,-1
216169,122081345,0.2550105,0.0005289912,0.2542196,0.2585996,6.447555,6.490422,6.52,NaN,0,7.840192,-3,-3
216577,122189796,0.2569852,0.0006119013,0.2537695,0.2585996,6.448166,6.487175,6.75,NaN,0,7.837265,-3,-3
217023,122295732,0.2678408,0.0008009374,0.2600989,0.2585996,6.448881,6.486806,6.61,NaN,0,7.838048,-2,-4
217463,122403713,0.2591882,0.0008785725000000001,0.2621142,0.2585996,6.449694,6.485847,6.72,NaN,0,7.837402,-2,-3
217904,122510709,0.26109,0.0009592474,0.2662994,0.2585996,6.450599,6.48551,6.63,NaN,0,7.837233,-2,-4
218321,122619012,0.2567576,0.001072794,0.2626047,0.2585996,6.451581,6.488608,6.64,NaN,0,7.842139,-2,-3
218763,122727114,0.2534566,0.0008142889,0.2583574,0.2585996,6.452578,6.492888,6.55,NaN,0,7.84658,-2,-3
219176,122832990,0.2494778,0.0004352182,0.2545032,0.2585996,6.453523,6.496844,6.63,NaN,0,7.850375,-3,-1
219617,122940297,0.2520292,0.0002987087,0.2526936,0.2585996,6.454355,6.500999,6.5,NaN,0,7.85453,-3,-1
220062,123046579,0.2539197,0.000703156,0.2524869,0.2585996,6.455022,6.504785,6.73,NaN,0,7.856507,-4,-2
220502,123154039,0.24957,0.001360118,0.2512565,0.2585996,6.455492,6.508277,6.89,NaN,0,7.859009,-4,-1
220946,123261087,0.2529611,0.001603395,0.2535867,0.2585996,6.455744,6.513208,6.58,NaN,0,7.860483,-5,-3
221355,123369711,0.2408455,0.001473427,0.2505169,0.2585996,6.455743,6.518673,6.25,NaN,0,7.860912,-6,-2
221801,123477129,0.2473176,0.001328245,0.2457089,0.2585996,6.455446,6.521358,6.53,NaN,0,7.856182,-7,-2
222243,123586002,0.2456896,0.001260951,0.2491003,0.2585996,6.454852,6.519039,6.75,NaN,0,7.845448,-7,-5
222692,123693686,0.24792,0.001191631,0.2497778,0.2585996,6.454052,6.51376,6.27,NaN,0,7.831768,-6,-5
223134,123802704,0.2420168,0.0009123087,0.2473633,0.2585996,6.453161,6.509864,6.61,NaN,0,7.817969,-6,-5
223580,123910799,0.2440612,0.000803262,0.2468089,0.2585996,6.452263,6.505779,6.42,NaN,0,7.80135,-6,-3
223987,124018766,0.2528211,0.0009726286,0.2497978,0.2585996,6.451429,6.499942,6.52,NaN,0,7.783138,-5,-6
224432,124125535,0.2532299,0.001303017,0.251701,0.2585996,6.450774,6.493405,6.32,NaN,0,7.76341,-4,-5
224876,124231581,0.2506232,0.001525193,0.2515337,0.2585996,6.450307,6.485525,6.35,NaN,0,7.741262,-3,-5
225286,124338273,0.2556019,0.001622707,0.254743,0.2585996,6.450157,6.477291,6.42,NaN,0,7.716518,-2,-5
225730,124445039,0.2585308,0.001551241,0.2564279,0.2585996,6.450397,6.470514,5.9,NaN,0,7.693079,-1,-4
226142,124552365,0.2506343,0.001404881,0.2539864,0.2585996,6.451059,6.46268,6.38,NaN,0,7.667934,0,-1
226587,124658543,0.2551021,0.001351595,0.2535117,0.2585996,6.452233,6.454512,6.55,NaN,0,7.638976,1,0
227027,124766772,0.2504748,0.001071006,0.2535652,0.2585996,6.453945,6.450471,6.33,NaN,0,7.614976,2,1
227473,124873790,0.2513011,0.0004705787,0.2523475,0.2585996,6.456171,6.448359,6.47,NaN,0,7.592738,3,2
227915,124981682,0.2497124,0.0005728602,0.2496191,0.2585996,6.458859,6.44727,6.51,NaN,0,7.571438,4,4
228363,125086593,0.2490194,0.0006512403,0.2510656,0.2585996,6.461943,6.448837,6.33,NaN,0,7.553535,4,3
228772,125193785,0.2490414,0.0004455,0.2501966,0.2585996,6.465328,6.45402,6.37,NaN,0,7.539415,4,5
229217,125302027,0.2406093,0.0001796931,0.2460303,0.2585996,6.468882,6.459128,6.5,NaN,0,7.525054,4,7
229659,125410774,0.2308738,8.484721e-05,0.2379593,0.2585996,6.47249,6.466169,6.46,NaN,0,7.514265,4,9
230103,125519536,0.2351859,0.0001685023,0.2365157,0.2585996,6.476025,6.474981,6.38,NaN,0,7.505346,3,8
230549,125625056,0.2458363,0.0001796484,0.2380363,0.2585996,6.479358,6.482878,6.62,NaN,0,7.494842,3,7
230988,125733078,0.2375491,0.0001663417,0.2393703,0.2585996,6.482394,6.489976,6.8,NaN,0,7.484193,2,5
231401,125839725,0.2380759,0.0002119243,0.2392186,0.2585996,6.485067,6.497222,6.77,NaN,0,7.473777,1,4
231814,125949131,0.2372929,0.0002010465,0.2387603,0.2585996,6.487323,6.506663,6.97,NaN,0,7.466388,0,2
232260,126054782,0.2383427,0.0001824051,0.2400175,0.2585996,6.48908,6.516167,6.82,NaN,0,7.459793,-1,0
232704,126163716,0.2388106,0.0002670586,0.2397312,0.2585996,6.490269,6.528604,6.58,NaN,0,7.457032,-2,0
233147,126270526,0.2370804,0.000273183,0.2377871,0.2585996,6.490795,6.537142,6.86,NaN,0,7.449556,-4,-1
233588,126380450,0.239738,0.0002480149,0.2391878,0.2585996,6.490614,6.543247,6.66,NaN,0,7.441296,-5,-2
234033,126488907,0.2422848,0.0002605766,0.2409674,0.2585996,6.489753,6.545746,6.9,NaN,0,7.427528,-6,-6
234475,126598695,0.2412306,0.000213027,0.2418972,0.2585996,6.488287,6.546734,6.55,NaN,0,7.414066,-7,-8
234881,126705066,0.2413664,0.0002029985,0.2422951,0.2585996,6.486309,6.54509,6.85,NaN,0,7.399628,-8,-8
235325,126813508,0.2467223,0.0004842877,0.2452709,0.2585996,6.483932,6.540622,6.61,NaN,0,7.38161,-8,-9
235770,126921788,0.2464356,0.001568779,0.2469641,0.2585996,6.481371,6.534456,6.69,NaN,0,7.363382,-8,-9
236185,127028794,0.2444321,0.002242357,0.2461877,0.2585996,6.478638,6.52633,6.71,NaN,0,7.345017,-7,-9
236624,127137898,0.2487142,0.001915991,0.2472304,0.2585996,6.475942,6.518511,6.75,NaN,0,7.327692,-7,-8
237069,127244571,0.2441955,0.001078621,0.248788,0.2585996,6.473411,6.512088,6.84,NaN,0,7.313671,-6,-8
237479,127352582,0.2543802,0.0005238354,0.2499456,0.2585996,6.471177,6.506897,6.73,NaN,0,7.302277,-5,-7
237924,127460082,0.2474844,0.0002806336,0.2495451,0.2585996,6.469163,6.50339,6.81,NaN,0,7.292834,-5,-7
238368,127566962,0.2451864,0.0002507865,0.245373,0.2585996,6.467484,6.500838,6.87,NaN,0,7.284324,-5,-5
238813,127676224,0.2448024,0.0002396554,0.2473769,0.2585996,6.466037,6.49926,6.75,NaN,0,7.279274,-4,-4
239254,127786577,0.2486562,0.0002446622,0.2470338,0.2585996,6.464882,6.497639,6.85,NaN,0,7.272526,-4,-4
239667,127892191,0.2476204,0.0002267361,0.247904,0.2585996,6.463938,6.495615,6.74,NaN,0,7.26555,-4,-4
240112,128000787,0.2501708,0.0001675785,0.2498292,0.2585996,6.463233,6.492666,6.83,NaN,0,7.259138,-3,-3
240561,128109127,0.2529299,0.0001568794,0.2484012,0.2585996,6.46277,6.490262,6.64,NaN,0,7.253255,-3,-4
241003,128215594,0.2495354,0.0001575947,0.2503616,0.2585996,6.462549,6.48758,6.81,NaN,0,7.246278,-2,-3
241414,128324574,0.2497428,0.0001412034,0.2491425,0.2585996,6.462574,6.485888,6.72,NaN,0,7.242679,-2,-3
241858,128430740,0.2501135,0.0001696944,0.2482305,0.2585996,6.462823,6.487805,6.58,NaN,0,7.241948,-2,-2
242302,128539354,0.2531769,0.0004019737,0.2488286,0.2585996,6.463229,6.490669,6.82,NaN,0,7.242257,-2,-1
242747,128645621,0.2464083,0.00113152,0.2483804,0.2585996,6.463717,6.495613,6.85,NaN,0,7.244301,-2,-2
243157,128752559,0.2550818,0.002600729,0.2524678,0.2585996,6.464194,6.50338,6.69,NaN,0,7.249077,-3,-2
243601,128858820,0.2516748,0.003976464,0.2543121,0.2585996,6.464542,6.508361,6.39,NaN,0,7.250731,-4,-4
244042,128966562,0.2546041,0.004653484,0.2572821,0.2585996,6.464692,6.511311,6.69,NaN,0,7.250935,-4,-6
244460,129071493,0.2576486,0.004637837,0.260378,0.2585996,6.464635,6.511976,6.7,NaN,0,7.247762,-4,-6
245079,129285735,0.2448051,0.00344193,0.2474348,0.2585996,6.464002,6.5118,6.3,NaN,0,7.238729,-5,-4
245519,129394090,0.2501824,0.003339499,0.2507555,0.2585996,6.463488,6.509932,6.55,NaN,0,7.23374,-5,-4
245936,129506821,0.252569,0.003481179,0.2531959,0.2585996,6.46287,6.505758,6.58,NaN,0,7.224294,-4,-5
246383,129614684,0.2507094,0.003501683,0.2542793,0.2585996,6.462296,6.499508,6.02,NaN,0,7.213582,-4,-5
246791,129723112,0.2288726,0.003208593,0.2479112,0.2585996,6.46183,6.494113,6.47,NaN,0,7.204395,-3,-3
247237,129831666,0.2380383,0.003433853,0.238435,0.2585996,6.461536,6.493742,6.29,NaN,0,7.200636,-3,0
247679,129939115,0.2431318,0.004099175,0.2404515,0.2585996,6.461397,6.491594,6.38,NaN,0,7.196001,-3,0
248125,130046767,0.2280003,0.003906623,0.2408917,0.2585996,6.461428,6.486127,6.27,NaN,0,7.189283,-2,0
248573,130155817,0.2380689,0.004656032,0.2409496,0.2585996,6.461681,6.481044,5.76,NaN,0,7.182041,-1,-1
249018,130262049,0.25111,0.005191803,0.2472497,0.2585996,6.462209,6.470118,6.23,NaN,0,7.170535,0,-2
249427,130370062,0.2439878,0.004898623,0.2494794,0.2585996,6.463135,6.455879,6.41,NaN,0,7.155205,1,-2
249873,130476066,0.2610877,0.005908459,0.2598265,0.2585996,6.464618,6.444393,6.05,NaN,0,7.14262,3,-3
250317,130585576,0.2545588,0.006020546,0.2620776,0.2585996,6.466754,6.435351,6.08,NaN,0,7.132808,5,0
250763,130692904,0.2483471,0.005858496,0.259522,0.2585996,6.469582,6.428262,5.85,NaN,0,7.124963,7,1
251170,130799815,0.2466847,0.005691141,0.256173,0.2585996,6.473104,6.420234,6.39,NaN,0,7.116493,9,5
251617,130906703,0.2496353,0.005617529,0.2543752,0.2585996,6.477316,6.418457,6.66,NaN,0,7.114281,10,6
252029,131017136,0.2472961,0.00562121,0.2546549,0.2585996,6.482128,6.42537,6.06,NaN,0,7.119004,10,10
252439,131126591,0.2438574,0.005411997,0.2518399,0.2585996,6.487335,6.433368,6.57,NaN,0,7.127315,11,11
