LineNo,TimeUS,Instance,RPM,RawRPM,Volt,Curr,Temp,CTot,MotTemp,Err
2012,69580798,2,0,0,16.36,0.03,27,0,0,0
2507,69693068,2,0,0,16.36,0.03,27,0,0,0
2961,69798211,2,0,0,16.37,0.03,27,0,0,0
4359,70119208,2,0,0,16.36,0.03,27,0,0,0
5265,70327502,2,0,0,16.36,0.03,27,0,0,0
5766,70443418,2,0,0,16.36,0.03,27,0,0,0
6214,70546967,2,0,0,16.36,0.03,27,0,0,0
6709,70658184,2,0,0,16.36,0.03,27,0,0,0
7158,70765020,2,0,0,16.36,0.03,27,0,0,0
7623,70870102,2,0,0,16.36,0.02,27,0,0,0
8082,70979463,2,16,171,16.36,0.04,27,0,0,0
8537,71081592,2,178,571,16.33,0.09,27,0,0,0
9029,71195923,2,606,1000,16.33,0.15,27,0,0,0
9481,71298346,2,1014,1214,16.33,0.12,27,0,0,0
9932,71405142,2,1218,1285,16.34,0.11,27,0,0,0
10388,71513163,2,1286,1314,16.34,0.11,27,0,0,0
10885,71625602,2,1316,1342,16.34,0.11,27,0,0,0
11335,71733226,2,1342,1342,16.35,0.09999999,27,0,0,0
11788,71836015,2,1342,1342,16.35,0.09999999,27,0,0,0
12278,71948889,2,1342,1342,16.35,0.09999999,27,0,0,0
12778,72066173,2,1342,1342,16.35,0.09999999,27,0,0,0
13440,72277140,2,1356,1642,16.29,0.26,27,0,0,0
13846,72375705,2,1657,2457,16.04,1.22,27,0,0,0
14344,72490037,2,2524,3214,16.14,1.6,27,0,0,0
15243,72704086,2,3221,4200,15.76,3.13,27,0,0,0
15693,72811707,2,4221,5257,15.5,3.62,27,0,0,0
16186,72925229,2,5317,5957,15.48,4.5,27,0,0,0
16640,73033544,2,5968,6085,15.6,4.28,27,0,0,0
17049,73136407,2,6095,6328,15.53,4.38,27,0,0,0
17502,73241227,2,6333,6542,15.55,4.63,27,1,0,0
17955,73349922,2,6541,6500,15.58,4.74,27,1,0,0
18453,73464669,2,6504,6571,15.51,4.93,27,1,0,0
18904,73574740,2,6582,6700,15.54,5.06,27,1,0,0
19357,73680296,2,6701,6771,15.54,5.74,27,1,0,0
19804,73786021,2,6773,6971,15.52,6.05,27,1,0,0
20309,73902701,2,6972,6985,15.55,5.57,27,1,0,0
20757,74008797,2,6967,6728,15.58,4.32,28,2,0,0
21214,74122787,2,6715,6514,15.59,4.15,28,2,0,0
21707,74233946,2,6491,6257,15.61,3.87,28,2,0,0
22158,74342451,2,6255,6242,15.6,4.15,28,2,0,0
22612,74448878,2,6231,6100,15.53,3.61,28,2,0,0
23063,74557815,2,6089,5985,15.64,3.42,28,2,0,0
23514,74662543,2,5995,6142,15.53,3.68,28,2,0,0
23969,74776822,2,6139,6100,15.47,3.77,28,2,0,0
24417,74885042,2,6114,6271,15.55,3.87,28,3,0,0
24867,74995466,2,6255,6100,15.54,3.73,28,3,0,0
25277,75096524,2,6093,5942,15.54,3.61,28,3,0,0
26169,75324590,2,5947,6085,15.64,3.68,28,3,0,0
26578,75422509,2,6086,6171,15.54,4.03,28,3,0,0
27030,75538294,2,6165,6071,15.48,4.04,28,3,0,0
27472,75641085,2,6087,6300,15.49,3.94,28,3,0,0
27917,75752025,2,6301,6328,15.37,4.48,28,4,0,0
28366,75860489,2,6333,6471,15.5,4.32,28,4,0,0
28773,75963172,2,6471,6528,15.56,4.29,28,4,0,0
29224,76073997,2,6519,6342,15.52,4.24,28,4,0,0
29666,76185081,2,6351,6442,15.54,4.31,28,4,0,0
30115,76293545,2,6438,6400,15.54,4.23,28,4,0,0
30562,76403813,2,6400,6400,15.58,3.95,28,4,0,0
31008,76521497,2,6385,6271,15.57,3.82,28,4,0,0
31416,76620047,2,6263,6128,15.63,3.66,28,5,0,0
31906,76739901,2,6114,5971,15.61,3.41,28,5,0,0
32315,76843096,2,5972,5985,15.67,3.29,28,5,0,0
32764,76955568,2,5963,5771,15.6,2.91,28,5,0,0
33246,77065806,2,5770,5757,15.64,3.17,28,5,0,0
33652,77170913,2,5749,5557,15.74,2.93,28,5,0,0
34101,77280512,2,5557,5571,15.73,2.36,28,5,0,0
34550,77393017,2,5548,5314,15.76,2.54,28,5,0,0
35000,77502553,2,5315,5328,15.68,2.86,29,5,0,0
35917,77724148,2,5345,5600,15.57,2.96,29,5,0,0
36369,77834438,2,5592,5542,15.61,3.16,28,6,0,0
37183,78036006,2,5543,5757,15.58,3.25,28,6,0,0
37625,78142805,2,5757,5785,15.63,3.05,29,6,0,0
38115,78258822,2,5797,5914,15.67,3.22,29,6,0,0
38512,78359067,2,5909,5828,15.67,3.18,29,6,0,0
39009,78480858,2,5821,5771,15.64,3.15,29,6,0,0
39453,78590150,2,5777,5842,15.58,3.09,29,6,0,0
39817,78681600,2,5843,5928,15.64,3.14,29,6,0,0
40264,78794728,2,5926,5885,15.58,3.07,29,6,0,0
40717,78902271,2,5886,5914,15.68,2.85,29,6,0,0
41156,79011599,2,5916,5942,15.61,3,29,7,0,0
41602,79118571,2,5939,5885,15.61,3.03,29,7,0,0
42051,79231110,2,5897,6157,15.56,3.26,29,7,0,0
42499,79346014,2,6147,6014,15.57,3.34,29,7,0,0
42905,79446003,2,6017,6142,15.61,3.29,29,7,0,0
43355,79559002,2,6144,6185,15.6,3.57,29,7,0,0
43807,79669783,2,6186,6214,15.63,3.64,29,7,0,0
44211,79774698,2,6215,6228,15.61,3.75,29,7,0,0
45559,80101509,2,6230,6300,15.57,3.58,29,8,0,0
46410,80311754,2,6299,6228,15.61,3.75,29,8,0,0
46855,80422593,2,6232,6285,15.58,3.82,29,8,0,0
47306,80534533,2,6291,6342,15.63,3.69,29,8,0,0
47752,80644576,2,6340,6314,15.57,3.62,29,8,0,0
48199,80754996,2,6301,6185,15.57,3.58,29,8,0,0
48650,80865696,2,6190,6242,15.58,3.83,29,8,0,0
49098,80977414,2,6225,6057,15.6,3.33,29,8,0,0
49508,81077506,2,6055,6014,15.58,3.19,29,9,0,0
49955,81188554,2,6016,6057,15.67,3.39,29,9,0,0
50853,81408725,2,6057,6100,15.63,3.01,29,9,0,0
51342,81522541,2,6078,5857,15.6,2.69,29,9,0,0
51781,81631598,2,5864,5942,15.62,2.91,29,9,0,0
52145,81728918,2,5944,6000,15.63,3.12,29,9,0,0
52591,81835890,2,6000,6000,15.55,3.05,29,9,0,0
53041,81947158,2,6005,6085,15.55,3.06,29,9,0,0
53488,82055238,2,6082,5928,15.54,3.39,29,9,0,0
53934,82167378,2,5943,6157,15.65,2.96,29,10,0,0
54382,82275149,2,6176,6357,15.62,3.49,29,10,0,0
54826,82384779,2,6360,6428,15.57,3.14,29,10,0,0
55281,82498767,2,6411,6242,15.55,2.95,29,10,0,0
55682,82597770,2,6243,6271,15.57,3.3,29,10,0,0
56128,82704555,2,6271,6300,15.5,3.37,29,10,0,0
56543,82813517,2,6292,6114,15.59,3.15,29,10,0,0
56991,82923270,2,6113,6085,15.6,2.97,29,10,0,0
57441,83033769,2,6084,6071,15.57,2.64,29,10,0,0
57931,83154270,2,6022,5571,15.6,1.95,29,10,0,0
58327,83250043,2,5565,5385,15.55,2.04,29,10,0,0
58780,83365698,2,5400,5757,15.51,3.23,29,11,0,0
59237,83477687,2,5780,5985,15.51,3.68,29,11,0,0
59675,83584093,2,5991,6057,15.55,3.62,29,11,0,0
60124,83693123,2,6072,6228,15.55,3.51,30,11,0,0
60569,83802692,2,6226,6214,15.47,3.92,29,11,0,0
61017,83913458,2,6228,6357,15.54,3.96,29,11,0,0
61471,84025318,2,6355,6328,15.5,3.79,29,11,0,0
61877,84129673,2,6333,6442,15.56,3.89,29,11,0,0
62322,84233782,2,6439,6271,15.51,4.02,30,11,0,0
62801,84345503,2,6271,6271,15.57,3.62,29,11,0,0
63252,84456789,2,6259,5985,15.57,2.96,29,12,0,0
63700,84570602,2,5985,5985,15.55,3.35,29,12,0,0
64148,84681035,2,5995,6100,15.56,2.77,29,12,0,0
64547,84781475,2,6097,5971,15.55,3,29,12,0,0
64996,84887826,2,5969,5900,15.58,2.61,30,12,0,0
65441,84996976,2,5897,5757,15.57,2.63,29,12,0,0
65890,85105277,2,5757,5785,15.51,2.65,29,12,0,0
66332,85213293,2,5785,5842,15.53,2.87,30,12,0,0
66781,85323280,2,5835,5685,15.54,2.58,30,12,0,0
67265,85436106,2,5697,5828,15.56,2.85,29,12,0,0
67675,85541326,2,5831,5871,15.51,2.96,30,12,0,0
68121,85649531,2,5873,5900,15.48,2.91,30,13,0,0
68563,85758249,2,5902,5942,15.5,2.95,30,13,0,0
69015,85867678,2,5943,5971,15.57,3.42,30,13,0,0
69422,85969779,2,5975,6057,15.49,3.7,30,13,0,0
69914,86086760,2,6059,6085,15.53,3.38,30,13,0,0
70313,86185601,2,6085,6100,15.49,3.01,30,13,0,0
70765,86297669,2,6088,5928,15.52,2.94,30,13,0,0
71219,86412137,2,5935,6014,15.58,2.94,29,13,0,0
71620,86510885,2,6011,5828,15.55,2.65,30,13,0,0
72109,86627579,2,5831,5900,15.51,3.41,30,13,0,0
72555,86738822,2,5902,5942,15.52,2.99,30,13,0,0
73013,86851492,2,5942,5942,15.55,2.76,30,14,0,0
73417,86954487,2,5927,5742,15.55,2.68,30,14,0,0
73867,87063804,2,5740,5714,15.49,2.86,30,14,0,0
74314,87179041,2,5726,5871,15.55,3.15,30,14,0,0
74763,87287712,2,5873,5971,15.55,2.35,30,14,0,0
75243,87400134,2,5924,5542,15.54,2.54,30,14,0,0
75649,87498693,2,5539,5514,15.53,1.98,30,14,0,0
76135,87621757,2,5483,5185,15.57,1.8,30,14,0,0
76503,87713421,2,5186,5285,15.55,1.97,30,14,0,0
76989,87825540,2,5288,5342,15.57,2.42,30,14,0,0
77429,87940623,2,5353,5428,15.58,2.34,30,14,0,0
77880,88044510,2,5435,5500,15.53,2.73,30,14,0,0
78284,88146061,2,5502,5714,15.5,3.15,30,15,0,0
78772,88262822,2,5747,6000,15.47,3.5,30,15,0,0
79225,88376319,2,6010,6128,15.5,3.48,30,15,0,0
79672,88481242,2,6108,5957,15.51,3.51,30,15,0,0
80044,88578692,2,5966,6142,15.44,3.14,30,15,0,0
80492,88684454,2,6139,6085,15.4,3.86,30,15,0,0
80938,88795827,2,6106,6314,15.47,3.61,30,15,0,0
81421,88905325,2,6302,6185,15.47,3.62,30,15,0,0
81864,89017444,2,6202,6371,15.44,3.43,30,15,0,0
82315,89128511,2,6343,6085,15.47,3.22,30,16,0,0
82761,89235736,2,6081,6028,15.47,2.73,30,16,0,0
83209,89350801,2,6032,6085,15.47,3.12,30,16,0,0
83657,89455078,2,6069,5857,15.51,2.58,30,16,0,0
84097,89566567,2,5864,5971,15.52,2.53,30,16,0,0
84544,89673027,2,5971,5971,15.51,2.88,30,16,0,0
85405,89888015,2,5969,5771,15.41,2.36,30,16,0,0
85892,90006764,2,5760,5657,15.44,2.5,30,16,0,0
86301,90107429,2,5650,5500,15.44,2.52,30,16,0,0
86786,90225626,2,5503,5542,15.45,2.59,30,16,0,0
87188,90323465,2,5539,5457,15.52,2.42,30,16,0,0
87642,90434074,2,5457,5457,15.46,2.38,30,17,0,0
88091,90545571,2,5455,5428,15.52,2.46,30,17,0,0
88581,90663450,2,5437,5528,15.5,2.53,30,17,0,0
89029,90775291,2,5540,5671,15.48,2.62,30,17,0,0
89476,90882583,2,5662,5542,15.5,2.57,30,17,0,0
89921,90989908,2,5548,5628,15.45,2.68,30,17,0,0
90378,91099572,2,5628,5628,15.52,2.8,30,17,0,0
90778,91200858,2,5626,5542,15.47,2.56,30,17,0,0
91277,91320304,2,5582,5985,15.55,2.83,30,17,0,0
91728,91429920,2,5992,6100,15.47,3.33,30,17,0,0
92172,91537858,2,6101,6128,15.39,3.19,30,17,0,0
92629,91654062,2,6124,6085,15.46,2.95,30,17,0,0
93036,91760078,2,6094,6228,15.47,3.31,30,17,0,0
93492,91872003,2,6234,6300,15.4,3.07,30,18,0,0
93926,91975569,2,6278,5857,15.37,2.72,30,18,0,0
94380,92086747,2,5848,5742,15.38,2.71,30,18,0,0
94784,92188554,2,5743,5771,15.46,2.78,30,18,0,0
95238,92299766,2,5771,5771,15.49,2.4,30,18,0,0
95681,92408528,2,5767,5585,15.47,2.31,30,18,0,0
96127,92518767,2,5582,5385,15.42,2.41,30,18,0,0
96574,92625570,2,5385,5385,15.42,2.42,30,18,0,0
97016,92735551,2,5387,5485,15.41,2.52,30,18,0,0
97512,92859580,2,5489,5528,15.45,2.63,30,18,0,0
97917,92958578,2,5523,5428,15.54,2.22,30,18,0,0
98365,93066964,2,5428,5428,15.54,2.15,30,18,0,0
98767,93168541,2,5426,5371,15.55,2.27,30,19,0,0
99262,93286758,2,5371,5371,15.45,2.13,30,19,0,0
99665,93389996,2,5378,5471,15.54,2.28,30,19,0,0
100115,93496944,2,5464,5128,15.62,1.76,30,19,0,0
100560,93606294,2,5129,5271,15.56,2.06,30,19,0,0
101009,93719728,2,5273,5300,15.44,2.3,30,19,0,0
101457,93829003,2,5304,5357,15.47,2.45,30,19,0,0
101902,93945108,2,5371,5514,15.45,2.28,30,19,0,0
102343,94047272,2,5533,5728,15.46,2.7,30,19,0,0
102794,94163914,2,5726,5714,15.44,2.43,30,19,0,0
103246,94267962,2,5743,6000,15.49,2.71,30,19,0,0
103650,94372428,2,5993,5871,15.33,2.71,30,19,0,0
104100,94487435,2,5865,5814,15.38,3.04,30,19,0,0
104960,94702542,2,5815,5857,15.39,2.7,30,20,0,0
105448,94822231,2,5847,5771,15.42,2.68,30,20,0,0
105854,94918567,2,5772,5800,15.39,2.49,30,20,0,0
106298,95030762,2,5794,5714,15.41,2.67,30,20,0,0
106705,95132899,2,5715,5800,15.43,2.82,30,20,0,0
107157,95242785,2,5795,5714,15.44,2.56,30,20,0,0
107601,95351624,2,5718,5800,15.44,2.65,30,20,0,0
108052,95465102,2,5792,5714,15.49,2.6,30,20,0,0
108499,95577262,2,5710,5671,15.44,2.79,30,20,0,0
108903,95677239,2,5668,5628,15.39,2.76,30,20,0,0
109350,95786052,2,5632,5728,15.33,2.77,30,20,0,0
109807,95898046,2,5735,5828,15.44,3.11,30,21,0,0
110210,95999713,2,5823,5614,15.39,2.99,30,21,0,0
110658,96111724,2,5614,5671,15.38,2.84,30,21,0,0
111106,96218911,2,5671,5671,15.46,2.73,30,21,0,0
111556,96333743,2,5664,5600,15.5,2.47,30,21,0,0
112002,96440599,2,5603,5657,15.5,2.61,30,21,0,0
112442,96548303,2,5655,5642,15.45,2.34,30,21,0,0
112853,96651862,2,5641,5628,15.44,2.34,30,21,0,0
113300,96760322,2,5622,5514,15.51,2.5,30,21,0,0
113752,96870214,2,5516,5557,15.45,2.51,30,21,0,0
114157,96974675,2,5560,5785,15.44,2.98,30,21,0,0
114648,97092815,2,5780,5714,15.47,2.83,30,21,0,0
115049,97192546,2,5709,5628,15.46,2.62,30,21,0,0
115537,97313022,2,5653,5871,15.43,2.77,30,22,0,0
115942,97412094,2,5873,5928,15.42,3.14,30,22,0,0
116388,97523597,2,5942,6214,15.39,3.33,30,22,0,0
117286,97748237,2,6212,6171,15.36,3.01,30,22,0,0
117730,97853235,2,6168,6128,15.39,3.3,30,22,0,0
118171,97960718,2,6116,5900,15.43,3.13,30,22,0,0
118626,98072473,2,5903,5957,15.42,3.1,30,22,0,0
119069,98183538,2,5964,6042,15.39,3.2,30,22,0,0
119515,98289514,2,6042,6057,15.42,3.24,30,22,0,0
119959,98401923,2,6047,5914,15.44,3.11,30,23,0,0
120411,98511004,2,5922,6042,15.37,3.11,30,23,0,0
120852,98621225,2,6030,5914,15.38,3.32,30,23,0,0
121293,98728509,2,5918,6014,15.43,3.34,30,23,0,0
121741,98836755,2,6001,5842,15.4,3.11,30,23,0,0
122188,98949004,2,5847,5900,15.41,3.07,30,23,0,0
122593,99047786,2,5902,6057,15.4,3.41,30,23,0,0
123071,99162039,2,6043,5871,15.42,3.38,30,23,0,0
123485,99266013,2,5874,6071,15.41,3.42,30,23,0,0
124378,99486287,2,6070,6057,15.4,3.4,30,24,0,0
124819,99594592,2,6043,5871,15.35,3.45,30,24,0,0
125230,99698549,2,5867,5828,15.36,3.33,30,24,0,0
125680,99812126,2,5844,6014,15.43,3.78,30,24,0,0
126130,99925252,2,6004,5928,15.43,3.27,30,24,0,0
126542,100027092,2,5933,6000,15.44,3.65,30,24,0,0
126990,100139421,2,6000,6014,15.41,3.29,30,24,0,0
127441,100248564,2,6010,5957,15.39,3.37,30,24,0,0
127849,100352485,2,5949,5771,15.4,3.07,30,24,0,0
128295,100459249,2,5775,5885,15.45,3.28,30,25,0,0
128737,100567202,2,5881,5828,15.35,3.36,30,25,0,0
129185,100675456,2,5835,5928,15.38,3.65,30,25,0,0
129594,100780256,2,5925,5885,15.41,3.65,30,25,0,0
130001,100880819,2,5888,6057,15.37,4,30,25,0,0
130488,100996127,2,6057,6085,15.4,3.67,30,25,0,0
130940,101111751,2,6092,6171,15.39,3.91,30,25,0,0
131397,101223093,2,6137,5800,15.44,3.55,30,25,0,0
132286,101439148,2,5803,5914,15.38,3.56,30,25,0,0
132739,101555583,2,5894,5685,15.41,3.14,30,26,0,0
133185,101663270,2,5708,5928,15.34,3.7,30,26,0,0
133588,101762582,2,5928,5971,15.41,3.5,30,26,0,0
134033,101869200,2,5970,5914,15.38,3.8,30,26,0,0
134517,101984571,2,5922,6085,15.38,3.71,30,26,0,0
134971,102102988,2,6082,6071,15.42,3.82,30,26,0,0
135378,102198879,2,6070,6028,15.3,4.11,30,26,0,0
135868,102318555,2,6024,6000,15.37,3.86,30,26,0,0
136272,102418065,2,6000,6014,15.3,4,30,26,0,0
136722,102532834,2,6023,6157,15.36,4.07,30,27,0,0
137171,102641225,2,6173,6328,15.32,4.2,30,27,0,0
137575,102742785,2,6323,6228,15.32,4.08,30,27,0,0
138470,102964867,2,6223,6100,15.31,4.14,30,27,0,0
138923,103074232,2,6114,6314,15.32,4.09,30,27,0,0
139361,103181668,2,6294,6042,15.3,3.89,30,27,0,0
139813,103287281,2,6047,6128,15.36,3.78,30,27,0,0
140257,103395755,2,6122,6028,15.35,3.8,30,28,0,0
140712,103507238,2,6033,6100,15.3,4.02,30,28,0,0
141158,103619579,2,6103,6142,15.35,3.89,30,28,0,0
142005,103823734,2,6140,5885,15.39,3.65,30,28,0,0
142943,104061219,2,5880,5814,15.4,3.22,30,28,0,0
143829,104273159,2,5816,5857,15.32,3.64,30,28,0,0
144246,104380853,2,5878,6028,15.3,3.91,30,29,0,0
144649,104480004,2,6031,6285,15.32,3.85,30,29,0,0
145093,104585174,2,6269,6071,15.36,3.43,30,29,0,0
146019,104810678,2,6062,5914,15.38,3.33,30,29,0,0
146876,105025785,2,5918,6000,15.36,3.4,30,29,0,0
147323,105135087,2,6000,6000,15.35,3.42,30,29,0,0
148218,105350811,2,6001,6028,15.36,3.32,30,30,0,0
148625,105449056,2,6026,5914,15.33,3.38,30,30,0,0
149070,105558481,2,5920,6000,15.29,3.42,30,30,0,0
149477,105664114,2,5999,5942,15.31,3.29,30,30,0,0
149926,105774316,2,5938,5871,15.32,3.42,30,30,0,0
150375,105881053,2,5871,5885,15.26,3.48,30,30,0,0
150860,106004767,2,5899,6057,15.33,3.57,30,30,0,0
151305,106111799,2,6067,6257,15.32,4.37,30,30,0,0
151754,106221254,2,6284,6557,15.26,4.25,30,30,0,0
152162,106322541,2,6552,6385,15.25,4.56,30,31,0,0
153506,106653530,2,6382,6085,15.32,3.9,30,31,0,0
153949,106762130,2,6087,6157,15.28,3.73,30,31,0,0
154439,106879730,2,6148,6057,15.35,3.84,30,31,0,0
154842,106981011,2,6058,6085,15.27,3.74,30,31,0,0
155291,107090248,2,6091,6185,15.22,4.11,30,31,0,0
155735,107199550,2,6183,6142,15.25,3.97,30,31,0,0
156630,107423818,2,6136,5857,15.29,3.35,30,32,0,0
157073,107532067,2,5859,5900,15.42,3.17,30,32,0,0
157519,107639146,2,5893,5800,15.32,3.33,30,32,0,0
157965,107750699,2,5804,5871,15.32,3.87,30,32,0,0
158416,107862519,2,5907,6271,15.3,4.22,30,32,0,0
158820,107964804,2,6266,6214,15.33,4.07,30,32,0,0
159272,108075738,2,6204,6085,15.3,3.59,30,32,0,0
159719,108186560,2,6083,6071,15.38,3.41,30,32,0,0
160128,108288480,2,6068,6014,15.38,3.32,30,33,0,0
160538,108396146,2,6012,5985,15.32,3.17,30,33,0,0
160986,108506103,2,5981,5928,15.34,3.63,30,33,0,0
161441,108621222,2,5930,5957,15.27,3.75,30,33,0,0
162323,108829745,2,5958,6000,15.32,3.32,30,33,0,0
162766,108939547,2,5981,5728,15.3,3.09,30,33,0,0
163216,109050029,2,5743,5971,15.3,4.2,30,33,0,0
163621,109150953,2,5977,6228,15.28,3.82,30,33,0,0
164114,109267837,2,6213,6057,15.35,3.95,30,34,0,0
164522,109371556,2,6060,6114,15.31,3.82,30,34,0,0
164928,109470732,2,6117,6328,15.31,4.03,30,34,0,0
165415,109587266,2,6318,6057,15.3,3.94,30,34,0,0
165867,109698729,2,6079,6300,15.27,3.94,30,34,0,0
166309,109808738,2,6292,6214,15.32,3.98,30,34,0,0
166759,109916641,2,6215,6242,15.27,4.19,30,34,0,0
167164,110022588,2,6245,6285,15.32,3.63,30,34,0,0
167612,110136798,2,6267,6100,15.33,3.81,30,35,0,0
168061,110243802,2,6100,6100,15.23,3.93,30,35,0,0
168504,110353808,2,6116,6285,15.28,3.92,30,35,0,0
168910,110453753,2,6285,6300,15.31,4.36,30,35,0,0
169389,110568997,2,6287,6114,15.28,3.86,30,35,0,0
169840,110676590,2,6111,6085,15.26,3.41,30,35,0,0
170287,110786293,2,6064,5842,15.3,3.35,30,35,0,0
170740,110894893,2,5836,5785,15.22,3.54,30,35,0,0
171140,110995077,2,5787,5957,15.26,3.42,30,36,0,0
171630,111109003,2,5965,6042,15.29,3.75,30,36,0,0
172030,111209698,2,6044,6228,15.23,4.29,30,36,0,0
172518,111329100,2,6250,6457,15.21,4.52,30,36,0,0
172920,111427210,2,6456,6428,15.32,4.18,30,36,0,0
173323,111530172,2,6422,6071,15.26,3.85,30,36,0,0
173821,111648723,2,6081,6185,15.36,3.75,30,36,0,0
174224,111750763,2,6185,6200,15.23,4.14,30,36,0,0
174712,111863586,2,6193,6128,15.23,4,30,36,0,0
175113,111965769,2,6118,6028,15.29,3.69,30,37,0,0
175560,112072624,2,6030,6071,15.23,3.58,30,37,0,0
175968,112179320,2,6074,6257,15.25,3.4,30,37,0,0
176415,112286753,2,6240,5914,15.29,3.52,30,37,0,0
177311,112504536,2,5918,6014,15.32,3.57,30,37,0,0
177713,112603751,2,6013,5971,15.32,3.52,30,37,0,0
178235,112725704,2,5980,6071,15.32,3.33,30,37,0,0
178690,112840271,2,6054,5871,15.29,3.5,30,37,0,0
179093,112940897,2,5871,5871,15.27,3.37,30,38,0,0
179542,113049499,2,5873,5914,15.26,3.48,30,38,0,0
179984,113157370,2,5917,5971,15.25,3.54,30,38,0,0
180470,113273095,2,5967,5928,15.31,3.12,30,38,0,0
180878,113377175,2,5912,5771,15.27,3.23,30,38,0,0
181289,113482001,2,5783,5957,15.32,3.29,30,38,0,0
181736,113596251,2,5954,5928,15.35,3.39,30,38,0,0
182182,113702317,2,5933,6014,15.28,3.46,30,38,0,0
182620,113809025,2,6005,5885,15.33,3.62,30,38,0,0
183065,113920765,2,5891,6000,15.25,3.59,30,38,0,0
183518,114032260,2,6005,6057,15.25,3.61,30,39,0,0
183920,114133485,2,6057,6071,15.27,3.51,30,39,0,0
184375,114248575,2,6070,6057,15.27,3.46,30,39,0,0
184859,114365598,2,6054,6028,15.24,3.65,30,39,0,0
185264,114465220,2,6027,5985,15.28,3.4,30,39,0,0
185708,114574764,2,5985,5985,15.25,3.1,30,39,0,0
186157,114683700,2,5983,5971,15.29,3.14,30,39,0,0
187046,114900677,2,5969,5928,15.33,2.93,30,39,0,0
187448,115002377,2,5924,5700,15.29,3.01,30,39,0,0
187938,115124752,2,5714,5842,15.26,2.96,30,40,0,0
188389,115232246,2,5843,5857,15.3,2.81,30,40,0,0
188829,115341904,2,5843,5728,15.22,3.2,30,40,0,0
189240,115445283,2,5729,5742,15.28,3.05,30,40,0,0
190131,115658225,2,5742,5785,15.27,3.42,30,40,0,0
190578,115770515,2,5786,5828,15.19,3.63,30,40,0,0
191066,115892045,2,5833,5871,15.22,3.47,30,40,0,0
191511,116002018,2,5874,5914,15.22,3.45,30,40,0,0
191924,116102048,2,5912,5900,15.26,3.46,30,40,0,0
192370,116211240,2,5906,6071,15.22,3.59,30,41,0,0
192817,116316993,2,6068,6014,15.27,3.52,30,41,0,0
193298,116436737,2,6009,5957,15.27,3.76,30,41,0,0
193702,116539070,2,5962,6014,15.19,3.84,30,41,0,0
194149,116645992,2,6026,6200,15.17,4.27,30,41,0,0
194593,116757781,2,6204,6257,15.22,3.85,30,41,0,0
195042,116868416,2,6262,6328,15.25,4.17,30,41,0,0
195484,116979716,2,6324,6285,15.2,4.43,30,41,0,0
195892,117080087,2,6292,6442,15.23,4.77,30,42,0,0
196308,117189769,2,6446,6542,15.25,4.22,30,42,0,0
196758,117303307,2,6531,6414,15.29,3.8,30,42,0,0
197163,117405915,2,6407,6114,15.21,3.45,30,42,0,0
197607,117517698,2,6113,6100,15.27,3.19,30,42,0,0
198061,117630510,2,6079,5814,15.24,3,30,42,0,0
198460,117729574,2,5815,5971,15.36,2.99,30,42,0,0
199386,117953890,2,5966,5842,15.26,2.87,30,42,0,0
199838,118064439,2,5831,5714,15.3,2.82,30,42,0,0
200281,118174218,2,5719,5785,15.26,2.8,31,43,0,0
200727,118281510,2,5786,5800,15.22,3.02,30,43,0,0
201129,118384097,2,5792,5685,15.23,2.82,30,43,0,0
201575,118490603,2,5687,5771,15.24,2.68,30,43,0,0
202019,118598684,2,5771,5771,15.26,3.33,30,43,0,0
202462,118710012,2,5773,5871,15.25,3.64,30,43,0,0
202868,118810558,2,5871,5885,15.2,3.58,30,43,0,0
203363,118931747,2,5889,5957,15.24,3.75,30,43,0,0
203765,119029690,2,5958,6042,15.27,3.55,30,43,0,0
204657,119248060,2,6041,6028,15.26,3.52,31,44,0,0
205108,119363153,2,6021,5957,15.23,3.6,30,44,0,0
205556,119472482,2,5948,5828,15.22,3.14,30,44,0,0
205999,119582090,2,5822,5771,15.19,3.24,30,44,0,0
206883,119794556,2,5778,5985,15.17,3.41,30,44,0,0
207366,119910815,2,5967,5771,15.13,3.48,30,44,0,0
207811,120017406,2,5774,5814,15.25,3.23,30,44,0,0
208210,120115543,2,5817,5942,15.2,3.62,30,44,0,0
208701,120234125,2,5944,5971,15.2,3.54,30,44,0,0
209112,120340713,2,5971,5971,15.14,3.39,31,45,0,0
209562,120450878,2,5975,6014,15.14,3.81,30,45,0,0
209961,120550788,2,6012,5971,15.16,3.68,30,45,0,0
210453,120668762,2,5962,5871,15.22,3.54,30,45,0,0
210856,120772691,2,5875,5942,15.25,3.17,30,45,0,0
211303,120881069,2,5937,5828,15.22,3.3,30,45,0,0
211746,120988668,2,5828,5842,15.16,3.25,30,45,0,0
212198,121098285,2,5838,5742,15.25,3.11,30,45,0,0
212639,121207483,2,5739,5685,15.22,3.16,30,45,0,0
213534,121432254,2,5686,5714,15.22,3.04,30,46,0,0
213986,121546039,2,5731,5914,15.23,3.28,30,46,0,0
214390,121648069,2,5902,5657,15.24,3.1,30,46,0,0
214828,121754916,2,5660,5742,15.22,2.98,30,46,0,0
215277,121865725,2,5738,5685,15.21,3.06,30,46,0,0
215716,121972733,2,5686,5700,15.25,3.02,30,46,0,0
216126,122073249,2,5700,5700,15.22,3.08,30,46,0,0
216619,122195001,2,5715,5885,15.22,3.23,30,46,0,0
217019,122294101,2,5885,5928,15.22,3.17,30,46,0,0
217467,122404023,2,5923,5814,15.22,3.09,31,46,0,0
217952,122521315,2,5809,5757,15.26,2.82,30,46,0,0
218360,122622320,2,5741,5557,15.2,2.88,30,47,0,0
218759,122725147,2,5562,5757,15.22,3.18,30,47,0,0
219218,122838804,2,5755,5728,15.2,3.05,30,47,0,0
219662,122948467,2,5725,5685,15.22,2.91,30,47,0,0
220110,123057392,2,5675,5557,15.22,2.8,30,47,0,0
220994,123271905,2,5553,5471,15.2,2.73,30,47,0,0
221438,123383797,2,5480,5614,15.23,2.58,30,47,0,0
221887,123493510,2,5600,5414,15.24,2.47,30,47,0,0
222324,123597729,2,5419,5614,15.27,2.84,31,47,0,0
222780,123709591,2,5609,5542,15.25,3.01,30,47,0,0
223223,123821737,2,5582,5971,15.26,3.38,30,48,0,0
223664,123930894,2,5965,5842,15.21,3.22,31,48,0,0
224117,124042588,2,5853,6014,15.22,3.4,30,48,0,0
224566,124154030,2,6005,5871,15.19,3.4,30,48,0,0
225014,124262084,2,5887,6128,15.23,3.65,30,48,0,0
225420,124368109,2,6120,6028,15.23,3.6,30,48,0,0
225871,124478726,2,6031,6071,15.25,4.03,30,48,0,0
226314,124586569,2,6071,6085,15.25,3.84,30,48,0,0
226720,124687408,2,6087,6271,15.22,4.03,30,48,0,0
227200,124801503,2,6246,6000,15.18,3.88,30,48,0,0
227648,124908779,2,6008,6171,15.25,4.2,30,49,0,0
228096,125020585,2,6166,6100,15.25,4.04,30,49,0,0
228535,125132145,2,6098,6085,15.2,3.7,30,49,0,0
228986,125239914,2,6095,6185,15.25,3.5,30,49,0,0
229429,125354436,2,6163,5900,15.23,3.47,30,49,0,0
229876,125464067,2,5908,5971,15.33,3.02,30,49,0,0
230286,125565262,2,5953,5757,15.26,3.04,31,49,0,0
230731,125674519,2,5758,5857,15.32,3.79,31,49,0,0
231664,125903671,2,5859,5900,15.3,3.57,30,50,0,0
232032,125997780,2,5901,5971,15.27,3.63,30,50,0,0
232956,126218583,2,5972,6057,15.23,3.77,30,50,0,0
233850,126443805,2,6061,6171,15.26,3.97,30,50,0,0
234292,126554112,2,6165,6114,15.28,3.74,30,50,0,0
235139,126766598,2,6114,6128,15.21,3.63,30,51,0,0
235630,126883686,2,6129,6142,15.26,4.08,31,51,0,0
236976,127221751,2,6139,6042,15.26,3.49,30,51,0,0
237379,127323823,2,6046,6114,15.25,3.34,30,51,0,0
237787,127425677,2,6112,6028,15.29,3.48,31,51,0,0
238274,127543533,2,6017,5914,15.28,3.25,30,51,0,0
238720,127652288,2,5915,5928,15.25,3.47,31,51,0,0
239167,127767778,2,5929,5942,15.19,3.25,30,52,0,0
239568,127864454,2,5951,6142,15.26,3.57,30,52,0,0
239972,127964902,2,6136,5942,15.23,3.45,31,52,0,0
240423,128074901,2,5947,6100,15.2,3.33,31,52,0,0
240868,128184492,2,6096,5885,15.18,3.4,30,52,0,0
241357,128301095,2,5883,5857,15.22,3.29,31,52,0,0
241762,128405006,2,5865,5971,15.2,3.36,30,52,0,0
242215,128515431,2,5960,5857,15.27,2.89,30,52,0,0
242657,128624574,2,5860,5900,15.27,3.18,30,52,0,0
243101,128735028,2,5891,5800,15.23,3.32,30,52,0,0
243507,128835898,2,5800,5842,15.2,3.33,31,53,0,0
243993,128954083,2,5843,5857,15.19,3.35,30,53,0,0
244405,129054553,2,5855,5800,15.17,3.21,31,53,0,0
245034,129275043,2,5881,5842,15.19,3.12,31,53,0,0
245477,129385589,2,5849,5928,15.27,3.34,31,53,0,0
245927,129495022,2,5936,6028,15.22,3.45,31,53,0,0
246334,129601683,2,6024,5971,15.19,3.48,30,53,0,0
246734,129703092,2,5972,6042,15.23,3.55,31,53,0,0
247183,129813769,2,6042,6071,15.26,3.2,31,53,0,0
247627,129925109,2,6071,6114,15.13,3.71,31,54,0,0
248080,130035699,2,6110,6057,15.19,3.38,31,54,0,0
248528,130145103,2,6063,6157,15.17,3.83,30,54,0,0
248935,130246760,2,6153,6085,15.17,3.61,31,54,0,0
249417,130362455,2,6083,6071,15.19,3.53,31,54,0,0
249863,130469075,2,6080,6214,15.05,3.57,31,54,0,0
250269,130573093,2,6208,6100,15.06,3.52,30,54,0,0
250679,130677092,2,6100,6114,15.14,3.76,31,54,0,0
251119,130785556,2,6114,6114,15.17,3.34,31,54,0,0
251570,130895990,2,6110,6057,15.17,3.52,31,54,0,0
252022,131012476,2,6051,5971,15.2,3.47,31,55,0,0
252478,131129558,2,5971,5971,15.23,3.24,31,55,0,0
252880,131227516,2,5971,5971,15.25,3.45,31,55,0,0
253283,131331094,2,5963,5857,15.19,3.6,31,55,0,0
253728,131437708,2,5866,6085,15.19,3.49,31,55,0,0
254172,131546564,2,6074,5857,15.16,3.09,31,55,0,0
254621,131655212,2,5860,5928,15.28,2.75,31,55,0,0
255065,131765135,2,5913,5700,15.25,2.88,31,55,0,0
255512,131874691,2,5699,5657,15.23,2.91,31,55,0,0
255963,131985513,2,5648,5528,15.24,3.03,31,55,0,0
256411,132094554,2,5537,5685,15.23,2.62,30,56,0,0
256854,132203827,2,5681,5642,15.17,2.85,31,56,0,0
257300,132315594,2,5650,5728,15.22,2.96,31,56,0,0
257746,132421522,2,5726,5714,15.2,2.88,31,56,0,0
258589,132631016,2,5713,5614,15.22,2.89,31,56,0,0
259033,132742670,2,5620,5685,15.22,3.22,31,56,0,0
259479,132849273,2,5690,5800,15.16,3.21,31,56,0,0
259932,132962546,2,5810,5928,15.16,3.21,31,56,0,0
260378,133067860,2,5913,5714,15.25,3,31,56,0,0
260819,133174065,2,5714,5728,15.3,2.98,31,56,0,0
261309,133291756,2,5720,5614,15.27,2.51,31,56,0,0
261755,133402058,2,5606,5528,15.32,2.6,31,57,0,0
262204,133508155,2,5528,5542,15.27,2.41,30,57,0,0
262650,133621543,2,5550,5642,15.28,2.7,31,57,0,0
263052,133723056,2,5638,5557,15.22,2.54,31,57,0,0
263539,133837132,2,5560,5600,15.27,2.71,31,57,0,0
263984,133946602,2,5584,5442,15.3,2.75,30,57,0,0
264430,134052582,2,5451,5657,15.26,2.68,30,57,0,0
264878,134165038,2,5650,5557,15.24,2.63,30,57,0,0
265325,134273457,2,5561,5600,15.28,2.42,31,57,0,0
265724,134374477,2,5600,5600,15.26,2.7,31,57,0,0
266178,134483453,2,5599,5528,15.27,2.62,30,57,0,0
266582,134587111,2,5528,5571,15.35,2.38,30,57,0,0
267068,134705754,2,5572,5585,15.23,2.94,30,57,0,0
267471,134804062,2,5588,5814,15.25,2.91,30,58,0,0
267953,134922141,2,5816,5842,15.26,2.32,30,58,0,0
268403,135031697,2,5859,6028,15.16,3.16,31,58,0,0
268843,135138823,2,6021,5942,15.26,2.32,30,58,0,0
269297,135252757,2,5944,5985,15.2,2.97,30,58,0,0
269700,135355319,2,5974,5800,15.2,2.8,30,58,0,0
270192,135474815,2,5802,5828,15.2,2.96,30,58,0,0
270595,135579759,2,5840,5942,15.27,3.07,31,58,0,0
271047,135690995,2,5960,6085,15.14,3.5,31,58,0,0
271492,135801077,2,6082,6057,15.13,3.47,30,58,0,0
271942,135913084,2,6058,6071,15.14,3.9,30,59,0,0
272347,136009772,2,6071,6085,15.22,3.63,31,59,0,0
273268,136236788,2,6083,6057,15.22,3.66,30,59,0,0
273678,136347065,2,6061,6100,15.23,3.62,31,59,0,0
274128,136452744,2,6102,6128,15.2,3.53,31,59,0,0
274574,136563231,2,6123,6085,15.22,3.3,30,59,0,0
275018,136671794,2,6073,5971,15.25,3.7,30,59,0,0
275421,136776132,2,5991,6142,15.23,3.67,30,59,0,0
275869,136885923,2,6152,6257,15.19,4.25,30,60,0,0
276321,136996115,2,6268,6371,15.21,4.57,30,60,0,0
276768,137100694,2,6371,6385,15.16,4.55,30,60,0,0
277208,137212776,2,6396,6542,15.19,4.77,30,60,0,0
277625,137320903,2,6551,6628,15.11,5.16,31,60,0,0
278105,137431169,2,6628,6628,15.14,4.98,30,60,0,0
278957,137643726,2,6637,6814,15.11,6.17,30,61,0,0
279847,137861905,2,6821,7014,15.18,5.1,30,61,0,0
280253,137966462,2,7016,7171,14.92,7.29,30,61,0,0
280739,138080296,2,7133,6757,14.93,5.11,30,61,0,0
281183,138190125,2,6807,7500,14.95,7.24,31,61,0,0
281631,138299214,2,7476,7142,15.13,6.48,31,62,0,0
282518,138521307,2,7137,7042,14.97,6.28,31,62,0,0
282929,138625032,2,7049,7214,15.01,5.71,30,62,0,0
283377,138738504,2,7199,6971,15.01,6.84,30,63,0,0
283824,138846732,2,6990,7257,15.05,5.99,31,63,0,0
284270,138957268,2,7264,7371,15.05,5.56,31,63,0,0
284718,139066131,2,7328,6900,15.05,5.13,31,63,0,0
285160,139176300,2,6893,6800,15.12,5.37,31,63,0,0
285567,139278378,2,6814,7071,15.14,5.32,31,63,0,0
285976,139384026,2,7071,7100,15.07,4.94,31,63,0,0
286462,139496700,2,7092,6942,15.11,4.83,31,64,0,0
286865,139599625,2,6935,6671,15.16,4.14,31,64,0,0
287315,139711702,2,6653,6342,15.14,3.68,31,64,0,0
287764,139823805,2,6345,6400,15.15,3.9,31,64,0,0
288175,139932788,2,6395,6285,15.17,3.65,31,64,0,0
288621,140040909,2,6285,6300,15.17,3.77,31,64,0,0
289065,140151822,2,6294,6214,15.1,3.83,31,64,0,0
289473,140253105,2,6212,6157,15.17,3.89,31,64,0,0
289962,140374546,2,6158,6171,15.13,3.72,31,65,0,0
290411,140480879,2,6173,6214,15.16,3.78,31,65,0,0
290853,140593705,2,6207,6114,15.1,3.5,31,65,0,0
291302,140702554,2,6110,6071,15.11,3.75,31,65,0,0
291702,140803667,2,6075,6128,15.19,3.66,31,65,0,0
292112,140909858,2,6127,6100,15.14,3.87,31,65,0,0
292564,141021784,2,6090,5957,15.14,3.54,31,65,0,0
293009,141132544,2,5967,6071,15.23,3.63,31,65,0,0
293416,141234137,2,6073,6114,15.14,3.68,31,66,0,0
293860,141345545,2,6107,5971,15.15,3.22,31,66,0,0
294313,141455915,2,5958,5828,15.11,3.08,31,66,0,0
295203,141675528,2,5809,5428,15.13,2.54,31,66,0,0
295602,141775739,2,5424,5371,15.13,2.71,31,66,0,0
296055,141886031,2,5369,5328,15.15,2.52,31,66,0,0
296506,141998074,2,5344,5571,15.16,3.28,31,66,0,0
296953,142108773,2,5559,5457,15.19,2.51,31,66,0,0
297395,142215748,2,5450,5385,15.22,2.32,31,66,0,0
297798,142319051,2,5382,5328,15.2,2.3,31,66,0,0
298283,142431242,2,5325,5300,15.18,2.68,31,66,0,0
298692,142539003,2,5323,5557,15.2,3.27,31,66,0,0
299586,142755771,2,5562,5728,15.19,3.49,31,67,0,0
299989,142856532,2,5729,5842,15.12,3.33,31,67,0,0
300436,142968755,2,5845,5900,15.12,3.9,31,67,0,0
300845,143072048,2,5901,5928,15.14,3.65,31,67,0,0
301292,143183757,2,5934,6100,15.1,3.85,31,67,0,0
301737,143290507,2,6102,6228,15.17,3.49,31,67,0,0
302225,143404552,2,6229,6257,15.13,3.59,31,67,0,0
302675,143517844,2,6227,5971,15.14,3.5,31,67,0,0
303521,143725672,2,5972,6157,15.17,3.4,31,68,0,0
304009,143845218,2,6146,6042,15.19,3.15,31,68,0,0
304418,143951098,2,6022,5828,15.23,3.14,31,68,0,0
304866,144060920,2,5826,5814,15.18,2.96,31,68,0,0
305312,144171221,2,5812,5785,15.16,2.98,31,68,0,0
305760,144281553,2,5786,5814,15.17,2.94,31,68,0,0
306163,144384073,2,5809,5714,15.17,2.92,31,68,0,0
306613,144493556,2,5718,5785,15.16,2.99,31,68,0,0
307015,144597206,2,5783,5714,15.17,2.83,31,68,0,0
307947,144822673,2,5714,5714,15.16,3.1,31,69,0,0
308396,144934107,2,5717,5757,15.16,2.97,31,69,0,0
308803,145033224,2,5768,6014,15.16,3.31,31,69,0,0
309258,145149252,2,5999,5857,15.13,3.45,31,69,0,0
309708,145258770,2,5883,6142,15.13,3.7,31,69,0,0
310110,145359000,2,6138,6071,15.1,3.56,31,69,0,0
310558,145466270,2,6072,6100,15.19,3.38,31,69,0,0
311005,145578277,2,6082,5828,15.17,3.32,31,69,0,0
311455,145691677,2,5829,5842,15.22,3.03,31,69,0,0
311902,145802064,2,5848,5928,15.19,3.11,31,70,0,0
312354,145922489,2,5916,5857,15.19,3.24,31,70,0,0
312758,146022750,2,5844,5742,15.23,3.15,31,70,0,0
313199,146124688,2,5737,5685,15.2,3.15,31,70,0,0
313648,146235143,2,5685,5714,15.23,2.86,31,70,0,0
314056,146340906,2,5714,5714,15.29,2.74,31,70,0,0
314546,146462101,2,5692,5528,15.26,2.48,31,70,0,0
314949,146563317,2,5531,5557,15.26,2.86,31,70,0,0
315392,146669294,2,5560,5600,15.23,3.02,31,70,0,0
315797,146771539,2,5607,5957,15.21,3.26,31,70,0,0
316291,146890033,2,5974,6157,15.25,2.94,31,70,0,0
316766,147004306,2,6139,6028,15.29,2.69,31,70,0,0
317219,147116018,2,6038,6114,15.19,3.19,31,71,0,0
318065,147322106,2,6113,5971,15.23,2.26,31,71,0,0
318550,147441298,2,5957,5814,15.24,2.29,31,71,0,0
318947,147537394,2,5813,5785,15.17,2.56,31,71,0,0
319395,147645500,2,5780,5742,15.17,2.2,31,71,0,0
319800,147748438,2,5742,5757,15.2,2.34,31,71,0,0
320293,147864519,2,5749,5685,15.17,2.39,31,71,0,0
320698,147969704,2,5688,5771,15.23,2.43,31,71,0,0
321630,148194443,2,5766,5657,15.19,2.49,31,71,0,0
322481,148406476,2,5664,5828,15.27,2.56,31,71,0,0
322886,148504504,2,5827,5800,15.18,2.55,31,72,0,0
323406,148626821,2,5795,5742,15.2,1.95,31,72,0,0
323810,148729768,2,5703,5328,15.32,1.89,31,72,0,0
324212,148826076,2,5328,5357,15.37,2.19,31,72,0,0
324708,148950898,2,5354,5328,15.19,2.05,31,72,0,0
325110,149045482,2,5329,5442,15.21,2.53,31,72,0,0
325520,149149882,2,5441,5385,15.1,2.16,31,72,0,0
326009,149267131,2,5382,5328,15.13,2.61,31,72,0,0
326903,149492746,2,5339,5585,15.19,2.91,31,72,0,0
327299,149590119,2,5591,5728,15.08,3.18,31,72,0,0
328181,149803239,2,5727,5671,15.2,2.85,31,72,0,0
328673,149924265,2,5679,5757,15.17,3.04,31,72,0,0
329124,150034118,2,5763,5828,15.17,3.27,31,73,0,0
329524,150129147,2,5831,5914,15.18,2.82,30,73,0,0
330017,150253581,2,5904,5800,15.25,2.69,31,73,0,0
330421,150353911,2,5791,5685,15.22,2.29,31,73,0,0
330869,150462049,2,5685,5685,15.1,2.76,30,73,0,0
331315,150573006,2,5679,5614,15.22,2.85,30,73,0,0
331721,150673313,2,5610,5471,15.13,2.54,31,73,0,0
332169,150786286,2,5466,5400,15.26,2.48,30,73,0,0
332625,150899052,2,5393,5300,15.26,2.52,31,73,0,0
333027,151003214,2,5298,5242,15.23,2.12,30,73,0,0
333511,151123068,2,5258,5414,15.23,2.6,31,73,0,0
333960,151232234,2,5403,5271,15.16,2.27,30,73,0,0
334363,151334690,2,5269,5257,15.23,2.12,30,74,0,0
334813,151443237,2,5255,5228,15.21,2.27,30,74,0,0
335260,151558182,2,5239,5357,15.2,2.22,31,74,0,0
335710,151668602,2,5351,5300,15.2,2.41,30,74,0,0
336112,151770744,2,5315,5600,15.25,2.46,31,74,0,0
336565,151881797,2,5585,5400,15.27,1.74,30,74,0,0
337010,151989831,2,5401,5442,15.19,2.18,30,74,0,0
337463,152105555,2,5451,5571,15.17,2.16,30,74,0,0
338349,152325270,2,5575,5657,15.25,2.28,30,74,0,0
338759,152425683,2,5661,5771,15.21,2.5,31,74,0,0
339649,152643543,2,5765,5628,15.05,2.55,30,74,0,0
340103,152755436,2,5659,6085,15.04,3.25,30,74,0,0
340508,152855756,2,6087,6142,15.04,3.32,31,75,0,0
340992,152970570,2,6144,6171,15.11,3.06,30,75,0,0
341445,153080525,2,6158,6028,15.05,3.16,30,75,0,0
341890,153191246,2,6034,6100,15.07,3.17,30,75,0,0
342336,153298914,2,6079,5885,15.13,3.16,30,75,0,0
342739,153402091,2,5895,6100,15.14,2.98,30,75,0,0
343144,153506186,2,6089,5871,15.14,3.04,30,75,0,0
343589,153613230,2,5870,5857,15.11,3.12,30,75,0,0
344070,153729489,2,5866,5957,15.14,3.11,31,75,0,0
344527,153842311,2,5961,6014,15.14,3.11,30,75,0,0
344971,153953917,2,6001,5871,15.11,2.75,30,76,0,0
345376,154051272,2,5871,5914,15.13,3.07,30,76,0,0
345864,154169701,2,5917,5957,15.17,3.23,30,76,0,0
346311,154278248,2,5963,6028,15.14,3.59,30,76,0,0
346747,154381538,2,6032,6114,15.14,3.69,31,76,0,0
347191,154486585,2,6115,6171,15.12,3.46,30,76,0,0
347635,154596131,2,6171,6185,15.14,3.59,30,76,0,0
348121,154716582,2,6172,6042,15.1,3.46,30,76,0,0
348569,154823095,2,6041,6028,15.14,3.45,30,76,0,0
348980,154931670,2,6037,6128,15.1,3.58,30,76,0,0
349420,155033585,2,6126,6085,15.08,3.42,30,77,0,0
349867,155144294,2,6088,6142,15.13,3.54,30,77,0,0
350315,155252909,2,6140,6028,15.14,3.7,30,77,0,0
350763,155362801,2,6030,6085,15.1,3.56,30,77,0,0
351209,155471321,2,6083,6057,15.1,3.41,30,77,0,0
351650,155583789,2,6061,6100,15.11,3.36,30,77,0,0
352103,155701666,2,6100,6100,15.05,3.6,30,77,0,0
352467,155789556,2,6099,6085,15.16,3.06,30,77,0,0
352996,155913501,2,6082,6042,15.12,3.38,30,77,0,0
353887,156136969,2,6041,6028,15.11,3.3,30,78,0,0
354292,156231651,2,6026,5971,15.13,3.33,30,78,0,0
355628,156562703,2,5968,5842,15.11,2.93,30,78,0,0
356079,156675099,2,5849,5928,15.16,3.46,30,78,0,0
356483,156774157,2,5929,5985,15.14,3.45,30,78,0,0
356934,156885790,2,5988,6257,15.14,4,30,78,0,0
357379,156996972,2,6256,6214,15.11,3.97,30,78,0,0
357830,157108047,2,6233,6414,15.11,4.11,30,78,0,0
358279,157218015,2,6414,6414,15.04,4.21,30,79,0,0
358719,157325875,2,6416,6500,15.09,4.01,30,79,0,0
359165,157433006,2,6493,6342,15.13,4.11,30,79,0,0
359611,157545009,2,6343,6371,15.12,4.15,30,79,0,0
360056,157651901,2,6359,6200,15,3.91,30,79,0,0
360500,157762495,2,6202,6228,15.06,3.94,30,79,0,0
360948,157869553,2,6234,6328,15.1,3.96,30,79,0,0
361350,157972114,2,6328,6328,15.08,4.18,30,79,0,0
361801,158080726,2,6326,6300,15.03,4.02,30,80,0,0
362250,158194482,2,6271,5957,15.11,3.94,30,80,0,0
362660,158295713,2,5959,6071,15.08,3.52,30,80,0,0
363142,158411097,2,6054,5871,15.11,3.29,30,80,0,0
363589,158524855,2,5873,5900,15.06,3.95,30,80,0,0
363993,158623786,2,5910,6114,15.06,3.83,30,80,0,0
364440,158733600,2,6106,6042,15,3.93,30,80,0,0
364888,158842092,2,6047,6100,15.07,3.87,30,80,0,0
365288,158941760,2,6101,6142,15.05,4.13,30,81,0,0
365736,159050600,2,6141,6128,15.1,3.89,30,81,0,0
366185,159165525,2,6129,6142,15.11,3.93,30,81,0,0
366672,159277487,2,6142,6142,15.15,3.6,30,81,0,0
367039,159375438,2,6141,6114,14.97,4,30,81,0,0
367530,159493764,2,6128,6314,15.04,4.23,30,81,0,0
367940,159599271,2,6305,6114,15.14,3.26,30,81,0,0
368423,159712781,2,6094,5914,15.08,3.45,30,81,0,0
368830,159814287,2,5913,5900,15.04,3.82,31,82,0,0
369281,159931066,2,5913,6042,15.09,3.83,30,82,0,0
369726,160037027,2,6036,5957,15.08,3.92,30,82,0,0
370176,160151795,2,5980,6228,15.05,4.18,31,82,0,0
370663,160261207,2,6221,6128,15.14,3.93,30,82,0,0
371514,160472273,2,6127,6100,15,4.14,30,82,0,0
372396,160686026,2,6093,5785,15.14,2.94,30,82,0,0
372848,160796799,2,5771,5585,15.13,2.86,31,82,0,0
373289,160904525,2,5585,5585,15.15,2.92,31,83,0,0
373698,161007320,2,5584,5571,15.11,2.93,30,83,0,0
374637,161235036,2,5568,5514,15.19,2.78,30,83,0,0
375041,161336388,2,5514,5585,15.13,2.95,30,83,0,0
375238,161452755,2,5595,5700,15.14,3.55,30,83,0,0
375644,161558340,2,5695,5585,15.18,3.28,30,83,0,0
376092,161668104,2,5600,5828,15.1,3.99,31,83,0,0
376541,161781729,2,5828,5828,15.18,2.76,30,83,0,0
376987,161891907,2,5803,5557,15.14,3.15,30,83,0,0
377391,161994062,2,5567,5785,15.02,3.76,30,84,0,0
378245,162207741,2,5790,6071,15.11,4.01,31,84,0,0
378691,162318236,2,6074,6142,15.04,3.42,30,84,0,0
379104,162423892,2,6125,5900,15.09,3.58,30,84,0,0
379547,162534587,2,5898,5885,15.16,3.38,31,84,0,0
379952,162635146,2,5883,5785,15.15,3.12,30,84,0,0
380847,162855712,2,5769,5442,15.16,2.87,31,84,0,0
381250,162958761,2,5441,5400,15.13,2.79,31,84,0,0
381694,163066954,2,5400,5428,15.13,2.8,31,85,0,0
382135,163174115,2,5424,5271,15.15,2.7,30,85,0,0
382589,163285521,2,5281,5428,15.14,2.87,30,85,0,0
383033,163397438,2,5409,5228,15.12,2.53,30,85,0,0
383442,163498822,2,5232,5542,15.1,3.19,30,85,0,0
383887,163611755,2,5540,5457,15.2,2.91,30,85,0,0
384372,163732465,2,5451,5400,15.13,3.35,31,85,0,0
384821,163837462,2,5424,5657,15.05,2.95,30,85,0,0
385225,163940676,2,5649,5500,15.1,2.8,31,85,0,0
385677,164050761,2,5504,5571,15.11,3.16,30,85,0,0
386083,164152741,2,5571,5600,15.06,3.45,31,85,0,0
386569,164265030,2,5591,5471,15.14,3.02,31,86,0,0
387012,164374513,2,5477,5542,15.17,3,31,86,0,0
387460,164481827,2,5543,5571,15.16,3.05,31,86,0,0
387902,164590091,2,5576,5628,15.14,3.15,30,86,0,0
388349,164698274,2,5602,5357,15.13,2.6,31,86,0,0
388793,164808318,2,5362,5414,15.11,2.94,31,86,0,0
389195,164911105,2,5426,5728,15.12,2.98,31,86,0,0
389641,165017896,2,5709,5471,15.14,2.82,31,86,0,0
390047,165122730,2,5484,5728,15.13,3.52,30,86,0,0
390498,165232698,2,5729,5785,15.16,3.22,31,86,0,0
390952,165346263,2,5772,5614,15.19,3.17,30,86,0,0
391400,165456098,2,5614,5642,15.2,2.89,30,87,0,0
391884,165577565,2,5645,5671,15.14,3.59,31,87,0,0
392291,165676081,2,5668,5628,15.14,2.98,31,87,0,0
392702,165786774,2,5625,5457,15.1,3.1,30,87,0,0
393229,165906017,2,5464,5542,15.13,3.23,31,87,0,0
393594,166002672,2,5540,5514,15.12,3.23,31,87,0,0
394074,166113221,2,5522,5642,15.16,3.38,30,87,0,0
394525,166223515,2,5643,5657,15.13,3.61,31,87,0,0
395419,166443802,2,5654,5600,15.23,2.93,30,87,0,0
395814,166544501,2,5593,5414,15.3,2.79,30,87,0,0
396269,166651280,2,5414,5414,15.3,2.58,30,88,0,0
396743,166764125,2,5422,5585,15.28,2.87,31,88,0,0
397634,166984680,2,5575,5285,15.3,2.42,31,88,0,0
398083,167094497,2,5256,4985,15.42,2.02,31,88,0,0
398519,167199766,2,4962,3985,15.55,1.01,30,88,0,0
398972,167310682,2,3939,3071,15.61,0.29,31,88,0,0
399857,167528542,2,3069,3000,15.6,0.53,31,88,0,0
400305,167638274,2,2997,2971,15.6,0.49,31,88,0,0
400711,167736833,2,2969,2928,15.58,0.46,31,88,0,0
401158,167850522,2,2926,2900,15.6,0.51,31,88,0,0
401603,167960101,2,2901,2914,15.6,0.49,31,88,0,0
402442,168165064,2,2914,2942,15.61,0.44,30,88,0,0
402934,168281527,2,2943,2957,15.6,0.51,31,88,0,0
403337,168383152,2,2956,2942,15.61,0.47,31,88,0,0
403786,168490925,2,2941,2914,15.61,0.46,31,88,0,0
404233,168599384,2,2909,2857,15.61,0.42,31,88,0,0
404719,168708992,2,2842,2700,15.65,0.34,30,88,0,0
405124,168810138,2,2696,2557,15.63,0.39,30,88,0,0
406059,169037126,2,2543,2157,15.71,0.04,30,88,0,0
406506,169145765,2,2107,1600,15.69,0,30,88,0,0
406954,169250329,2,1588,1371,15.68,0.03,30,88,0,0
407366,169355066,2,1369,1314,15.68,0.07000000000000001,30,88,0,0
407855,169469845,2,1313,1300,15.69,0.08,30,88,0,0
408303,169580589,2,1300,1300,15.69,0.08,30,88,0,0
408750,169685714,2,1300,1300,15.69,0.09,30,88,0,0
409153,169786141,2,1300,1300,15.69,0.08,30,88,0,0
409601,169893256,2,1300,1300,15.69,0.08,30,88,0,0
410012,169998836,2,1300,1300,15.7,0.08,30,88,0,0
410549,170125675,2,1300,1300,15.69,0.09,30,88,0,0
410956,170223278,2,1300,1300,15.7,0.08,30,88,0,0
411367,170326960,2,1300,1300,15.69,0.08,30,88,0,0
411814,170434710,2,1300,1300,15.7,0.08,30,88,0,0
412261,170544708,2,1300,1300,15.7,0.09,30,88,0,0
412707,170652688,2,1300,1300,15.72,0.09,30,88,0,0
413194,170769802,2,1300,1300,15.7,0.08,30,88,0,0
413645,170878123,2,1300,1300,15.71,0.09,30,88,0,0
414088,170980051,2,1300,1300,15.72,0.09,30,88,0,0
414533,171085454,2,1300,1300,15.72,0.09,30,88,0,0
414983,171195279,2,1300,1300,15.72,0.09,30,88,0,0
415474,171314023,2,1300,1300,15.72,0.09,30,88,0,0
415872,171411706,2,1300,1300,15.72,0.09,30,88,0,0
416356,171528572,2,1298,1285,15.73,0.09,30,88,0,0
416807,171640596,2,1285,1285,15.72,0.09,30,88,0,0
417218,171734464,2,1285,1300,15.73,0.09,30,88,0,0
417705,171850578,2,1298,1285,15.73,0.09,30,88,0,0
418110,171950840,2,1286,1300,15.73,0.09,30,88,0,0
418560,172057861,2,1300,1300,15.72,0.09,30,88,0,0
419002,172166036,2,1300,1300,15.73,0.09,30,88,0,0
419453,172273492,2,1300,1300,15.74,0.09,30,88,0,0
419894,172382709,2,1300,1300,15.73,0.09,30,88,0,0
420348,172494304,2,1300,1300,15.74,0.09,30,88,0,0
420792,172602135,2,1300,1300,15.74,0.09,30,88,0,0
421241,172706515,2,1300,1300,15.74,0.08,30,88,0,0
421645,172809738,2,1300,1300,15.75,0.08,30,88,0,0
422170,172931749,2,1300,1300,15.74,0.09,30,88,0,0
422536,173020285,2,1300,1300,15.75,0.09,30,88,0,0
423506,173244801,2,1300,1300,15.75,0.09,30,88,0,0
424393,173458269,2,1300,1300,15.75,0.09,30,88,0,0
424836,173567001,2,1300,1300,15.76,0.08,30,88,0,0
425285,173673115,2,1300,1300,15.76,0.09,30,88,0,0
425723,173773807,2,1300,1300,15.76,0.09,30,88,0,0
426172,173880759,2,1300,1300,15.76,0.09,30,88,0,0
426618,173989227,2,1300,1300,15.76,0.08,30,88,0,0
427066,174094691,2,1300,1314,15.76,0.08,30,88,0,0
427513,174201870,2,1313,1300,15.76,0.08,30,88,0,0
427956,174310003,2,1300,1314,15.76,0.08,30,88,0,0
428402,174417188,2,1313,1300,15.76,0.09,30,88,0,0
428884,174529829,2,1300,1300,15.77,0.09,30,88,0,0
429293,174630600,2,1300,1300,15.77,0.09,30,88,0,0
429772,174742445,2,1300,1300,15.77,0.09,30,88,0,0
430227,174852547,2,1300,1300,15.77,0.09,30,88,0,0
430674,174959293,2,1301,1314,15.76,0.09,30,88,0,0
431122,175066099,2,1312,1300,15.77,0.09,30,88,0,0
431605,175176331,2,1300,1300,15.77,0.09,30,88,0,0
432057,175285663,2,1300,1300,15.77,0.09,30,88,0,0
432460,175384479,2,1300,1314,15.78,0.09,30,88,0,0
432908,175492132,2,1313,1300,15.77,0.09,30,88,0,0
433355,175602029,2,1300,1300,15.78,0.09,30,88,0,0
433804,175707755,2,1300,1314,15.78,0.09,30,88,0,0
434288,175822889,2,1312,1300,15.78,0.09,30,88,0,0
434730,175927459,2,1300,1300,15.78,0.09,30,88,0,0
435184,176037101,2,1300,1300,15.79,0.09,30,88,0,0
435587,176136383,2,1300,1314,15.79,0.09,30,88,0,0
436042,176245459,2,1313,1300,15.78,0.09,30,88,0,0
436486,176353829,2,1300,1300,15.79,0.09,30,88,0,0
436973,176470809,2,1300,1300,15.79,0.09,30,88,0,0
437414,176577443,2,1300,1300,15.79,0.09,30,88,0,0
437864,176687748,2,1300,1300,15.79,0.09,30,88,0,0
438311,176796815,2,1300,1300,15.79,0.09,30,88,0,0
438761,176904826,2,1300,1300,15.79,0.09,30,88,0,0
439171,177005167,2,1300,1300,15.79,0.09,30,88,0,0
440105,177230898,2,1300,1300,15.79,0.09,30,88,0,0
440538,177332920,2,1300,1300,15.79,0.09,30,88,0,0
440989,177438790,2,1300,1300,15.79,0.09,30,88,0,0
441433,177549717,2,1300,1300,15.79,0.09,30,88,0,0
441837,177647043,2,1300,1300,15.8,0.09,30,88,0,0
442328,177765082,2,1300,1300,15.8,0.09,30,88,0,0
443217,177978060,2,1300,1314,15.8,0.09,30,88,0,0
443666,178084444,2,1313,1300,15.79,0.09,30,88,0,0
444118,178195433,2,1300,1300,15.8,0.09,30,88,0,0
444571,178302559,2,1300,1300,15.8,0.09,30,88,0,0
445014,178411369,2,1300,1300,15.8,0.09,30,88,0,0
445417,178513263,2,1300,1314,15.8,0.09,30,88,0,0
445865,178620439,2,1313,1300,15.81,0.09,30,88,0,0
446305,178721580,2,1300,1314,15.81,0.09,30,88,0,0
446754,178824461,2,1313,1300,15.8,0.09,30,88,0,0
447235,178939790,2,1300,1300,15.81,0.09,30,88,0,0
447685,179046917,2,1300,1314,15.82,0.09,30,88,0,0
448126,179152494,2,1251,400,15.82,0,30,88,0,0
448621,179266673,2,380,171,15.82,0.01,30,88,0,0
449068,179372815,2,160,0,15.83,0.02,30,88,0,0
449519,179477172,2,0,0,15.83,0.02,30,88,0,0
449976,179589146,2,0,0,15.83,0.02,30,88,0,0
450473,179703741,2,0,0,15.83,0.02,30,88,0,0
450926,179814527,2,0,0,15.83,0.02,30,88,0,0
451376,179924085,2,0,0,15.83,0.02,30,88,0,0
451828,180027198,2,0,0,15.84,0.02,30,88,0,0
452278,180132871,2,0,0,15.83,0.02,30,88,0,0
452774,180248279,2,0,0,15.83,0.02,30,88,0,0
453222,180355199,2,0,0,15.83,0.02,30,88,0,0
453679,180464758,2,0,0,15.83,0.02,30,88,0,0
454129,180573784,2,0,0,15.84,0.02,30,88,0,0
454582,180681150,2,0,0,15.85,0.02,30,88,0,0
455032,180788352,2,0,0,15.85,0.02,30,88,0,0
455487,180895873,2,0,0,15.84,0.02,30,88,0,0
455940,181008013,2,0,0,15.85,0.02,30,88,0,0
456436,181129192,2,0,0,15.84,0.02,30,88,0,0
456888,181232753,2,0,0,15.84,0.02,30,88,0,0
457337,181341266,2,0,0,15.84,0.02,30,88,0,0
457793,181450488,2,0,0,15.84,0.02,30,88,0,0
458692,181664262,2,0,0,15.84,0.02,30,88,0,0
459639,181888916,2,0,0,15.85,0.02,30,88,0,0
460087,181994803,2,0,0,15.85,0.02,30,88,0,0
461527,182327559,2,0,0,15.85,0.03,30,88,0,0
461977,182437888,2,0,0,15.85,0.02,30,88,0,0
462431,182544734,2,0,0,15.85,0.02,30,88,0,0
462884,182647224,2,0,0,15.85,0.02,30,88,0,0
