LineNo,TimeUS,Instance,RPM,RawRPM,Volt,Curr,Temp,CTot,MotTemp,Err
1697,6.9506e+07,4,0,0,16.34,0.05,28,0,0,0
2147,6.9611e+07,4,0,0,16.33,0.05,28,0,0,0
2640,6.9726e+07,4,0,0,16.34,0.05,28,0,0,0
3095,6.9829e+07,4,0,0,16.33,0.05,28,0,0,0
3585,6.994e+07,4,0,0,16.34,0.05,28,0,0,0
4041,7.0043e+07,4,0,0,16.33,0.05,28,0,0,0
4500,7.0152e+07,4,0,0,16.34,0.05,28,0,0,0
4996,7.0263e+07,4,0,0,16.34,0.05,28,0,0,0
5451,7.0372e+07,4,0,0,16.33,0.05,28,0,0,0
5906,7.0474e+07,4,0,0,16.33,0.05,28,0,0,0
6397,7.0587e+07,4,0,0,16.33,0.05,28,0,0,0
6847,7.0689e+07,4,0,0,16.33,0.05,28,0,0,0
7299,7.0797e+07,4,0,0,16.33,0.05,28,0,0,0
7804,7.0919e+07,4,0,0,16.33,0.03,28,0,0,0
8217,7.101e+07,4,3,157,16.32,0.06,28,0,0,0
9163,7.1228e+07,4,177,1114,16.31,0.17,28,0,0,0
9659,7.1343e+07,4,1131,1271,16.32,0.12,28,0,0,0
10113,7.1447e+07,4,1274,1314,16.31,0.12,28,0,0,0
11019,7.1657e+07,4,1314,1328,16.32,0.11,28,0,0,0
11469,7.1764e+07,4,1328,1342,16.31,0.11,28,0,0,0
12460,7.1991e+07,4,1342,1357,16.32,0.11,28,0,0,0
12912,7.2097e+07,4,1357,1357,16.31,0.11,28,0,0,0
13574,7.2309e+07,4,1436,1742,16.17,0.57,28,0,0,0
14025,7.2418e+07,4,1820,2785,16.11,1.21,28,0,0,0
14926,7.263e+07,4,2795,3857,15.53,2.41,28,0,0,0
15377,7.2739e+07,4,3871,4700,15.61,3.43,28,0,0,0
15876,7.2853e+07,4,4784,5585,15.52,4.11,28,0,0,0
16327,7.2958e+07,4,5629,6014,15.5,4.51,28,0,0,0
16778,7.3064e+07,4,6031,6257,15.58,3.76,28,0,0,0
17234,7.3179e+07,4,6243,6114,15.58,3.52,28,0,0,0
17689,7.3285e+07,4,6108,6028,15.5,3.34,28,1,0,0
18138,7.3392e+07,4,6019,5914,15.53,2.71,28,1,0,0
18592,7.3497e+07,4,5902,5685,15.51,2.91,28,1,0,0
19043,7.3606e+07,4,5681,5500,15.53,2.24,28,1,0,0
19536,7.3724e+07,4,5459,5085,15.55,1.66,28,1,0,0
19987,7.3827e+07,4,5066,4900,15.45,2.43,28,1,0,0
20892,7.4041e+07,4,4911,5400,15.54,2.94,28,1,0,0
21350,7.4155e+07,4,5408,5600,15.57,2.71,28,1,0,0
21841,7.4266e+07,4,5598,5585,15.61,3.01,28,1,0,0
22292,7.4375e+07,4,5602,5828,15.6,2.96,28,1,0,0
22790,7.449e+07,4,5822,5757,15.58,2.77,28,2,0,0
23196,7.4589e+07,4,5758,5771,15.55,3.24,28,2,0,0
23651,7.4696e+07,4,5769,5700,15.47,3.22,28,2,0,0
24103,7.4811e+07,4,5706,5785,15.49,3.07,28,2,0,0
24544,7.492e+07,4,5781,5742,15.42,3.16,28,2,0,0
24959,7.5024e+07,4,5742,5757,15.5,3.19,28,2,0,0
25448,7.5146e+07,4,5758,5771,15.49,3.06,28,2,0,0
26302,7.536e+07,4,5773,5828,15.53,3.05,29,2,0,0
26712,7.5461e+07,4,5827,5800,15.47,3.38,29,2,0,0
27152,7.5567e+07,4,5806,5914,15.49,3.24,28,2,0,0
27600,7.5675e+07,4,5912,5885,15.41,3.11,29,2,0,0
28048,7.5788e+07,4,5884,5857,15.41,3.41,29,3,0,0
28497,7.5895e+07,4,5858,5871,15.47,3.08,29,3,0,0
28947,7.6008e+07,4,5858,5685,15.47,2.88,29,3,0,0
29352,7.6107e+07,4,5689,5785,15.47,2.91,29,3,0,0
29794,7.6218e+07,4,5769,5600,15.52,2.63,29,3,0,0
30240,7.633e+07,4,5595,5557,15.5,2.62,29,3,0,0
31544,7.6653e+07,4,5555,5328,15.54,2.43,29,3,0,0
31994,7.6765e+07,4,5325,5271,15.59,2.25,29,3,0,0
32447,7.6876e+07,4,5268,5242,15.64,2.44,29,3,0,0
32899,7.6987e+07,4,5243,5271,15.66,2.21,29,4,0,0
33383,7.7104e+07,4,5257,5114,15.67,2.04,29,4,0,0
33786,7.7206e+07,4,5117,5200,15.7,2.37,29,4,0,0
34681,7.7425e+07,4,5192,4985,15.69,2.66,29,4,0,0
35169,7.7544e+07,4,4983,4971,15.69,2.03,29,4,0,0
35571,7.7643e+07,4,4968,4871,15.65,2.23,29,4,0,0
36051,7.7755e+07,4,4873,4900,15.68,2.61,29,4,0,0
36503,7.7865e+07,4,4920,5128,15.52,2.78,29,4,0,0
36915,7.7972e+07,4,5139,5257,15.64,2.19,29,4,0,0
37803,7.8184e+07,4,5255,5200,15.63,2.08,29,4,0,0
38249,7.8292e+07,4,5195,5142,15.63,2.47,29,4,0,0
38695,7.8403e+07,4,5144,5171,15.64,2.55,29,4,0,0
39148,7.8514e+07,4,5180,5271,15.58,2.69,29,5,0,0
39591,7.8622e+07,4,5282,5400,15.61,2.82,29,5,0,0
39991,7.8723e+07,4,5399,5385,15.59,2.6,29,5,0,0
40399,7.8826e+07,4,5387,5542,15.64,2.58,29,5,0,0
40837,7.8932e+07,4,5542,5571,15.65,2.51,29,5,0,0
41290,7.9043e+07,4,5568,5428,15.62,2.8,29,5,0,0
41782,7.9161e+07,4,5430,5457,15.61,2.65,29,5,0,0
42236,7.9275e+07,4,5467,5585,15.48,2.95,29,5,0,0
42643,7.938e+07,4,5580,5528,15.61,2.65,29,5,0,0
43092,7.949e+07,4,5532,5585,15.58,2.45,29,5,0,0
43498,7.9593e+07,4,5579,5471,15.55,2.52,29,5,0,0
43945,7.9702e+07,4,5477,5557,15.59,2.59,29,5,0,0
44346,7.9805e+07,4,5555,5442,15.5,2.76,29,5,0,0
44838,7.9923e+07,4,5447,5528,15.57,2.45,29,6,0,0
45246,8.0023e+07,4,5523,5471,15.47,2.61,29,6,0,0
45648,8.0126e+07,4,5470,5414,15.57,2.54,29,6,0,0
46142,8.0244e+07,4,5431,5614,15.5,3,29,6,0,0
46994,8.0454e+07,4,5612,5528,15.57,2.7,29,6,0,0
47442,8.0566e+07,4,5522,5442,15.59,2.42,29,6,0,0
47894,8.0676e+07,4,5442,5442,15.55,2.79,29,6,0,0
48337,8.0786e+07,4,5437,5342,15.5,2.36,30,6,0,0
48791,8.0897e+07,4,5349,5457,15.55,2.48,29,6,0,0
49237,8.1007e+07,4,5457,5471,15.61,2.65,29,6,0,0
49687,8.1121e+07,4,5460,5342,15.58,2.71,30,6,0,0
50096,8.1222e+07,4,5337,5242,15.6,2.23,29,7,0,0
50543,8.1333e+07,4,5241,5228,15.54,2.44,29,7,0,0
50991,8.1439e+07,4,5227,5200,15.61,2.43,30,7,0,0
51474,8.1555e+07,4,5198,5171,15.63,2.48,29,7,0,0
51919,8.1664e+07,4,5174,5214,15.57,2.52,29,7,0,0
52329,8.1771e+07,4,5220,5285,15.5,3.02,29,7,0,0
52777,8.1878e+07,4,5270,5128,15.6,2.5,29,7,0,0
53224,8.199e+07,4,5123,5071,15.62,2.69,30,7,0,0
53672,8.2098e+07,4,5099,5371,15.55,3,29,7,0,0
54116,8.2208e+07,4,5369,5357,15.62,2.46,30,7,0,0
54520,8.2306e+07,4,5360,5428,15.6,2.57,30,7,0,0
55013,8.243e+07,4,5430,5457,15.55,2.69,30,7,0,0
55420,8.2534e+07,4,5444,5342,15.57,2.66,29,7,0,0
56278,8.2748e+07,4,5349,5500,15.49,2.81,30,8,0,0
56683,8.2845e+07,4,5499,5471,15.56,2.88,30,8,0,0
57175,8.2965e+07,4,5471,5471,15.57,2.72,30,8,0,0
57624,8.3076e+07,4,5491,5714,15.47,3.15,30,8,0,0
58514,8.3294e+07,4,5727,6100,15.59,3.3,30,8,0,0
58965,8.3408e+07,4,6065,5728,15.46,3.06,30,8,0,0
59373,8.3509e+07,4,5724,5671,15.56,2.64,30,8,0,0
60257,8.3728e+07,4,5666,5042,15.55,1.96,30,8,0,0
60705,8.3835e+07,4,5040,4971,15.52,2.47,30,8,0,0
61152,8.3952e+07,4,4962,4857,15.54,2.72,30,9,0,0
61609,8.4066e+07,4,4864,4914,15.46,2.45,30,9,0,0
62012,8.416e+07,4,4916,4985,15.51,2.49,30,9,0,0
62498,8.4277e+07,4,4997,5114,15.52,2.55,30,9,0,0
62977,8.4392e+07,4,5133,5314,15.51,2.6,30,9,0,0
63433,8.4502e+07,4,5304,5200,15.58,2.58,30,9,0,0
63831,8.4604e+07,4,5223,5514,15.52,2.74,30,9,0,0
64676,8.4814e+07,4,5514,5642,15.46,3,30,9,0,0
65165,8.4934e+07,4,5628,5514,15.52,2.84,30,9,0,0
66014,8.5141e+07,4,5515,5571,15.55,2.54,30,9,0,0
66545,8.5266e+07,4,5571,5571,15.5,2.48,30,10,0,0
66948,8.5359e+07,4,5568,5528,15.48,2.67,30,10,0,0
67394,8.547e+07,4,5526,5500,15.46,2.91,30,10,0,0
67806,8.5576e+07,4,5500,5500,15.48,2.75,30,10,0,0
68252,8.5683e+07,4,5497,5400,15.38,2.98,30,10,0,0
68735,8.5802e+07,4,5406,5471,15.5,2.38,30,10,0,0
69148,8.59e+07,4,5465,5357,15.41,2.41,30,10,0,0
69594,8.6014e+07,4,5361,5414,15.48,2.61,30,10,0,0
70045,8.6121e+07,4,5394,5200,15.48,2.67,30,10,0,0
70488,8.6232e+07,4,5211,5328,15.48,2.66,30,10,0,0
70903,8.6337e+07,4,5328,5342,15.5,2.47,30,10,0,0
71350,8.6447e+07,4,5341,5257,15.52,2.35,30,10,0,0
71792,8.6555e+07,4,5255,5242,15.27,2.89,30,10,0,0
72247,8.6669e+07,4,5250,5328,15.51,2.71,30,11,0,0
72692,8.6779e+07,4,5319,5257,15.31,2.89,30,11,0,0
73144,8.6887e+07,4,5260,5300,15.53,2.43,30,11,0,0
73549,8.6987e+07,4,5293,5057,15.51,2.31,30,11,0,0
74038,8.7109e+07,4,5061,5157,15.55,2.06,30,11,0,0
74448,8.7213e+07,4,5150,5014,15.5,2.28,30,11,0,0
74926,8.7325e+07,4,5031,5200,15.5,2.36,30,11,0,0
75378,8.7436e+07,4,5210,5314,15.48,2.91,30,11,0,0
75776,8.7534e+07,4,5315,5385,15.5,2.63,30,11,0,0
76225,8.7643e+07,4,5397,5642,15.52,2.99,30,11,0,0
77117,8.786e+07,4,5643,5685,15.51,3.01,30,11,0,0
77564,8.797e+07,4,5689,5742,15.54,2.91,30,12,0,0
78014,8.808e+07,4,5707,5371,15.48,1.99,30,12,0,0
78462,8.8189e+07,4,5360,5257,15.5,2.31,30,12,0,0
78909,8.8293e+07,4,5253,5157,15.48,2.25,30,12,0,0
79360,8.8407e+07,4,5158,5171,15.45,2.41,30,12,0,0
79777,8.8515e+07,4,5167,5128,15.41,2.64,30,12,0,0
80222,8.8621e+07,4,5118,5028,15.43,2.46,30,12,0,0
80620,8.8719e+07,4,5030,5142,15.42,3.18,30,12,0,0
81070,8.8828e+07,4,5142,5200,15.44,2.8,30,12,0,0
81551,8.8942e+07,4,5203,5257,15.45,2.7,30,12,0,0
82001,8.9051e+07,4,5253,5200,15.44,2.66,30,12,0,0
82447,8.9162e+07,4,5197,5171,15.42,2.53,30,12,0,0
83344,8.9381e+07,4,5173,5300,15.51,2.41,30,13,0,0
84232,8.9599e+07,4,5299,5214,15.38,2.54,30,13,0,0
84731,8.9723e+07,4,5224,5342,15.47,2.65,30,13,0,0
85139,8.9822e+07,4,5348,5428,15.44,2.46,30,13,0,0
85542,8.9923e+07,4,5427,5400,15.46,2.31,30,13,0,0
86031,9.0038e+07,4,5387,5214,15.47,1.97,30,13,0,0
86925,9.0258e+07,4,5210,5142,15.45,2.16,30,13,0,0
87377,9.0367e+07,4,5155,5300,15.43,2.34,30,13,0,0
87824,9.0475e+07,4,5308,5400,15.46,2.65,30,13,0,0
88274,9.0587e+07,4,5401,5414,15.45,2.4,30,13,0,0
88720,9.0694e+07,4,5413,5385,15.48,2.24,30,13,0,0
89168,9.0807e+07,4,5383,5342,15.42,2.24,30,13,0,0
90064,9.1023e+07,4,5338,5185,15.4,2.4,30,14,0,0
90511,9.1135e+07,4,5181,5128,15.46,2.1,30,14,0,0
90961,9.1242e+07,4,5139,5285,15.39,2.52,30,14,0,0
91408,9.1352e+07,4,5284,5271,15.5,2.22,30,14,0,0
91862,9.1462e+07,4,5269,5242,15.49,2.2,30,14,0,0
92309,9.1577e+07,4,5219,4985,15.38,2.46,30,14,0,0
92761,9.1691e+07,4,4967,4785,15.34,2.77,30,14,0,0
93216,9.1809e+07,4,4794,4900,15.41,2.47,30,14,0,0
93616,9.19e+07,4,4906,5128,15.36,2.58,30,14,0,0
94063,9.201e+07,4,5111,4771,15.42,2.58,30,14,0,0
94554,9.2137e+07,4,4768,4742,15.38,2.41,30,14,0,0
94919,9.2227e+07,4,4748,5214,15.35,2.82,30,14,0,0
95409,9.2346e+07,4,5202,5085,15.48,1.85,30,15,0,0
95897,9.2463e+07,4,5064,4828,15.5,1.96,30,15,0,0
96300,9.2563e+07,4,4838,4942,15.39,2.27,30,15,0,0
96749,9.267e+07,4,4957,5100,15.42,2.68,30,15,0,0
97194,9.2782e+07,4,5105,5185,15.41,2.27,30,15,0,0
97644,9.2893e+07,4,5209,5442,15.47,2.4,30,15,0,0
98049,9.2995e+07,4,5423,5185,15.51,1.99,30,15,0,0
98496,9.3101e+07,4,5182,5128,15.51,1.95,30,15,0,0
98940,9.3213e+07,4,5126,5100,15.5,2.04,30,15,0,0
99392,9.3327e+07,4,5081,4914,15.5,1.96,30,15,0,0
99797,9.3425e+07,4,4914,4928,15.53,2.3,30,15,0,0
1.0024e+05,9.3534e+07,4,4928,4957,15.58,2.17,30,15,0,0
1.0073e+05,9.3652e+07,4,4962,5028,15.45,2.44,30,15,0,0
1.0114e+05,9.3756e+07,4,5053,5414,15.44,2.7,30,15,0,0
1.0159e+05,9.3862e+07,4,5413,5400,15.47,2.36,30,16,0,0
1.0199e+05,9.3966e+07,4,5398,5314,15.32,2.55,30,16,0,0
1.0248e+05,9.4081e+07,4,5328,5542,15.38,2.9,30,16,0,0
1.0293e+05,9.4195e+07,4,5548,5614,15.45,2.7,30,16,0,0
1.0338e+05,9.4301e+07,4,5599,5414,15.45,1.75,30,16,0,0
1.0378e+05,9.4407e+07,4,5406,5228,15.29,2.42,30,16,0,0
1.0468e+05,9.4628e+07,4,5228,5257,15.39,2.46,30,16,0,0
1.0509e+05,9.4735e+07,4,5259,5457,15.33,2.69,30,16,0,0
1.0559e+05,9.4854e+07,4,5454,5428,15.35,2.28,30,16,0,0
1.0598e+05,9.4953e+07,4,5425,5357,15.39,2.27,30,16,0,0
1.0644e+05,9.5064e+07,4,5351,5228,15.41,2.19,30,16,0,0
1.0689e+05,9.5176e+07,4,5233,5300,15.34,2.9,30,16,0,0
1.0734e+05,9.5287e+07,4,5303,5342,15.39,2.46,30,16,0,0
1.0779e+05,9.5396e+07,4,5345,5385,15.36,2.56,30,17,0,0
1.0819e+05,9.5496e+07,4,5384,5371,15.39,2.44,30,17,0,0
1.0864e+05,9.5609e+07,4,5362,5285,15.4,2.36,30,17,0,0
1.0909e+05,9.5719e+07,4,5283,5271,15.37,2.47,30,17,0,0
1.0949e+05,9.5819e+07,4,5272,5300,15.38,2.58,30,17,0,0
1.099e+05,9.5924e+07,4,5302,5457,15.35,2.71,30,17,0,0
1.1039e+05,9.6041e+07,4,5440,5200,15.39,2.2,30,17,0,0
1.1079e+05,9.6144e+07,4,5199,5185,15.37,2.38,30,17,0,0
1.1124e+05,9.6251e+07,4,5188,5257,15.38,2.26,30,17,0,0
1.117e+05,9.6366e+07,4,5254,5228,15.49,2.39,30,17,0,0
1.1258e+05,9.658e+07,4,5225,5128,15.51,2.47,30,17,0,0
1.1304e+05,9.6694e+07,4,5134,5200,15.46,2.48,30,17,0,0
1.1349e+05,9.6802e+07,4,5211,5385,15.41,2.62,30,17,0,0
1.1389e+05,9.6905e+07,4,5384,5342,15.41,2.6,30,18,0,0
1.1434e+05,9.7018e+07,4,5337,5242,15.33,2.31,30,18,0,0
1.1478e+05,9.7126e+07,4,5248,5314,15.3,2.57,30,18,0,0
1.1524e+05,9.7235e+07,4,5322,5442,15.41,2.44,30,18,0,0
1.1568e+05,9.7347e+07,4,5438,5400,15.38,2.54,30,18,0,0
1.1613e+05,9.7453e+07,4,5399,5385,15.41,2.56,30,18,0,0
1.1697e+05,9.7665e+07,4,5382,5271,15.39,2.23,30,18,0,0
1.1742e+05,9.7781e+07,4,5254,5085,15.41,2.07,30,18,0,0
1.1787e+05,9.7886e+07,4,5095,5300,15.38,2.8,30,18,0,0
1.1831e+05,9.7995e+07,4,5295,5200,15.35,2.31,30,18,0,0
1.1881e+05,9.8119e+07,4,5202,5228,15.36,2.4,30,18,0,0
1.2014e+05,9.8444e+07,4,5228,5228,15.39,2.4,30,19,0,0
1.2055e+05,9.8546e+07,4,5229,5242,15.41,2.7,30,19,0,0
1.2099e+05,9.8653e+07,4,5251,5385,15.3,2.89,30,19,0,0
1.2143e+05,9.876e+07,4,5386,5457,15.39,2.59,30,19,0,0
1.2188e+05,9.8868e+07,4,5455,5385,15.3,2.77,30,19,0,0
1.2233e+05,9.8981e+07,4,5378,5300,15.39,2.73,30,19,0,0
1.2278e+05,9.909e+07,4,5303,5357,15.32,2.57,30,19,0,0
1.2321e+05,9.9193e+07,4,5358,5414,15.36,2.97,30,19,0,0
1.2367e+05,9.9307e+07,4,5416,5485,15.35,2.74,30,19,0,0
1.2407e+05,9.9408e+07,4,5485,5500,15.29,2.76,30,19,0,0
1.2452e+05,9.9524e+07,4,5501,5514,15.41,2.57,30,19,0,0
1.2496e+05,9.9626e+07,4,5513,5471,15.29,2.94,30,19,0,0
1.2537e+05,9.9734e+07,4,5461,5342,15.33,2.54,30,20,0,0
1.2582e+05,9.9844e+07,4,5348,5442,15.4,2.94,30,20,0,0
1.2627e+05,9.9956e+07,4,5448,5542,15.36,2.74,30,20,0,0
1.2673e+05,1.0007e+08,4,5536,5485,15.4,2.66,30,20,0,0
1.2717e+05,1.0018e+08,4,5486,5500,15.36,2.61,30,20,0,0
1.2758e+05,1.0028e+08,4,5495,5414,15.37,2.71,30,20,0,0
1.2799e+05,1.0038e+08,4,5416,5585,15.37,2.76,30,20,0,0
1.2843e+05,1.0049e+08,4,5581,5342,15.42,2.43,30,20,0,0
1.2888e+05,1.006e+08,4,5342,5357,15.4,2.33,30,20,0,0
1.2933e+05,1.0071e+08,4,5350,5242,15.41,2.32,30,20,0,0
1.2973e+05,1.0081e+08,4,5240,5214,15.36,2.28,30,20,0,0
1.3022e+05,1.0093e+08,4,5209,5157,15.39,2.57,30,20,0,0
1.3067e+05,1.0104e+08,4,5160,5200,15.35,2.38,30,20,0,0
1.3108e+05,1.0115e+08,4,5197,5157,15.36,2.4,30,21,0,0
1.3153e+05,1.0125e+08,4,5156,5142,15.39,2.76,30,21,0,0
1.3198e+05,1.0136e+08,4,5144,5300,15.37,2.5,30,21,0,0
1.3246e+05,1.0149e+08,4,5322,5442,15.41,2.72,30,21,0,0
1.3287e+05,1.0159e+08,4,5437,5314,15.41,2.32,30,21,0,0
1.3332e+05,1.0169e+08,4,5318,5442,15.42,2.72,30,21,0,0
1.3425e+05,1.0192e+08,4,5445,5500,15.28,2.63,30,21,0,0
1.351e+05,1.0214e+08,4,5491,5328,15.38,2.35,30,21,0,0
1.3555e+05,1.0224e+08,4,5321,5257,15.35,2.77,30,21,0,0
1.3596e+05,1.0234e+08,4,5255,5171,15.34,2.57,30,21,0,0
1.3645e+05,1.0246e+08,4,5160,5071,15.29,2.33,30,22,0,0
1.3685e+05,1.0257e+08,4,5072,5157,15.25,2.65,30,22,0,0
1.373e+05,1.0267e+08,4,5158,5228,15.23,2.55,30,22,0,0
1.3771e+05,1.0278e+08,4,5228,5242,15.22,2.42,30,22,0,0
1.382e+05,1.029e+08,4,5246,5285,15.3,2.63,30,22,0,0
1.3865e+05,1.0301e+08,4,5272,5185,15.3,2.56,30,22,0,0
1.395e+05,1.0321e+08,4,5186,5371,15.31,2.83,30,22,0,0
1.3994e+05,1.0332e+08,4,5371,5385,15.33,2.52,30,22,0,0
1.4039e+05,1.0343e+08,4,5384,5371,15.35,2.49,30,22,0,0
1.4084e+05,1.0355e+08,4,5368,5328,15.29,2.78,30,22,0,0
1.4129e+05,1.0365e+08,4,5337,5471,15.38,2.65,30,22,0,0
1.4173e+05,1.0376e+08,4,5469,5457,15.24,2.68,30,22,0,0
1.4218e+05,1.0387e+08,4,5450,5357,15.34,2.65,30,23,0,0
1.4303e+05,1.0408e+08,4,5357,5385,15.29,2.57,30,23,0,0
1.4347e+05,1.0419e+08,4,5385,5428,15.3,2.81,30,23,0,0
1.4397e+05,1.0431e+08,4,5429,5442,15.32,2.56,30,23,0,0
1.4434e+05,1.044e+08,4,5441,5385,15.21,2.69,30,23,0,0
1.4522e+05,1.0462e+08,4,5385,5385,15.29,2.65,30,23,0,0
1.4571e+05,1.0473e+08,4,5385,5385,15.26,2.58,30,23,0,0
1.4616e+05,1.0484e+08,4,5395,5500,15.35,2.54,30,23,0,0
1.4656e+05,1.0495e+08,4,5490,5300,15.3,2.56,30,23,0,0
1.4701e+05,1.0506e+08,4,5302,5371,15.29,2.63,30,23,0,0
1.4746e+05,1.0517e+08,4,5365,5314,15.35,2.4,30,23,0,0
1.479e+05,1.0527e+08,4,5316,5342,15.36,2.47,30,24,0,0
1.4831e+05,1.0538e+08,4,5342,5357,15.36,2.71,30,24,0,0
1.4876e+05,1.0548e+08,4,5356,5328,15.29,2.78,30,24,0,0
1.492e+05,1.0559e+08,4,5333,5442,15.32,2.73,30,24,0,0
1.4966e+05,1.0571e+08,4,5430,5357,15.26,2.58,30,24,0,0
1.5006e+05,1.0581e+08,4,5357,5414,15.29,2.57,30,24,0,0
1.5051e+05,1.0592e+08,4,5410,5157,15.27,2.39,30,24,0,0
1.5099e+05,1.0604e+08,4,5166,5257,15.25,2.74,30,24,0,0
1.5144e+05,1.0615e+08,4,5279,5500,15.3,2.98,30,24,0,0
1.5189e+05,1.0625e+08,4,5496,5442,15.23,2.39,30,24,0,0
1.523e+05,1.0636e+08,4,5440,5385,15.2,2.69,30,24,0,0
1.528e+05,1.0648e+08,4,5382,5357,15.27,2.46,30,24,0,0
1.532e+05,1.0658e+08,4,5354,5214,15.27,2.5,30,25,0,0
1.5369e+05,1.0669e+08,4,5226,5357,15.28,2.55,30,25,0,0
1.5413e+05,1.068e+08,4,5359,5385,15.26,2.43,30,25,0,0
1.5454e+05,1.0691e+08,4,5381,5214,15.23,2.46,30,25,0,0
1.5502e+05,1.0702e+08,4,5234,5528,15.23,3.39,30,25,0,0
1.5592e+05,1.0724e+08,4,5540,5814,15.25,3.26,30,25,0,0
1.5632e+05,1.0735e+08,4,5815,5942,15.29,3.03,30,25,0,0
1.5677e+05,1.0745e+08,4,5939,5785,15.36,2.95,30,25,0,0
1.5726e+05,1.0757e+08,4,5756,5442,15.36,2.58,30,25,0,0
1.577e+05,1.0768e+08,4,5444,5471,15.35,2.56,30,25,0,0
1.5815e+05,1.0779e+08,4,5463,5385,15.24,2.77,30,25,0,0
1.5855e+05,1.0789e+08,4,5391,5485,15.29,3.07,30,26,0,0
1.5896e+05,1.0799e+08,4,5485,5571,15.3,2.87,30,26,0,0
1.5945e+05,1.0812e+08,4,5564,5500,15.36,2.89,30,26,0,0
1.5986e+05,1.0822e+08,4,5504,5585,15.36,2.77,30,26,0,0
1.6068e+05,1.0843e+08,4,5582,5328,15.37,2.32,30,26,0,0
1.6113e+05,1.0854e+08,4,5334,5428,15.26,2.69,30,26,0,0
1.6202e+05,1.0875e+08,4,5431,5771,15.32,3.22,30,26,0,0
1.625e+05,1.0887e+08,4,5764,5671,15.3,2.69,30,26,0,0
1.6336e+05,1.0908e+08,4,5671,5771,15.36,3.3,30,26,0,0
1.6425e+05,1.093e+08,4,5768,5671,15.3,2.86,30,27,0,0
1.651e+05,1.0951e+08,4,5666,5300,15.29,2.42,30,27,0,0
1.656e+05,1.0963e+08,4,5303,5342,15.29,2.54,30,27,0,0
1.66e+05,1.0973e+08,4,5343,5471,15.27,2.86,30,27,0,0
1.6645e+05,1.0984e+08,4,5469,5371,15.26,2.54,30,27,0,0
1.6689e+05,1.0995e+08,4,5377,5471,15.3,2.77,30,27,0,0
1.6735e+05,1.1006e+08,4,5460,5357,15.2,2.56,30,27,0,0
1.6775e+05,1.1017e+08,4,5355,5328,15.26,2.62,30,27,0,0
1.6905e+05,1.1049e+08,4,5329,5557,15.26,2.96,30,28,0,0
1.6953e+05,1.106e+08,4,5558,5585,15.34,2.6,30,28,0,0
1.6998e+05,1.1071e+08,4,5573,5357,15.22,2.29,30,28,0,0
1.7043e+05,1.1082e+08,4,5348,5228,15.15,2.42,30,28,0,0
1.7084e+05,1.1092e+08,4,5229,5314,15.24,2.6,30,28,0,0
1.7176e+05,1.1114e+08,4,5308,5157,15.22,2.55,30,28,0,0
1.7221e+05,1.1125e+08,4,5153,5128,15.22,2.67,30,28,0,0
1.7265e+05,1.1136e+08,4,5133,5185,15.18,2.5,30,28,0,0
1.731e+05,1.1147e+08,4,5186,5200,15.33,2.33,30,28,0,0
1.735e+05,1.1157e+08,4,5180,4900,15.26,2.12,30,28,0,0
1.7396e+05,1.1168e+08,4,4905,4985,15.3,2.45,30,28,0,0
1.7436e+05,1.1178e+08,4,4984,4957,15.23,2.45,30,28,0,0
1.7485e+05,1.119e+08,4,4992,5228,15.25,2.82,30,29,0,0
1.7525e+05,1.12e+08,4,5229,5300,15.21,2.62,30,29,0,0
1.7574e+05,1.1212e+08,4,5300,5300,15.18,2.5,30,29,0,0
1.7614e+05,1.1222e+08,4,5300,5300,15.24,2.45,30,29,0,0
1.7655e+05,1.1232e+08,4,5298,5257,15.22,2.65,30,29,0,0
1.77e+05,1.1243e+08,4,5263,5414,15.25,2.7,30,29,0,0
1.7748e+05,1.1255e+08,4,5408,5357,15.24,2.42,30,29,0,0
1.7793e+05,1.1265e+08,4,5361,5414,15.22,2.73,30,29,0,0
1.7837e+05,1.1276e+08,4,5415,5428,15.26,2.4,30,29,0,0
1.7882e+05,1.1287e+08,4,5420,5357,15.17,2.84,30,29,0,0
1.7968e+05,1.1308e+08,4,5355,5300,15.3,2.5,30,29,0,0
1.8061e+05,1.1331e+08,4,5300,5314,15.23,2.67,30,30,0,0
1.8102e+05,1.1341e+08,4,5322,5400,15.26,2.57,31,30,0,0
1.8142e+05,1.1352e+08,4,5389,5171,15.32,2.24,30,30,0,0
1.8279e+05,1.1385e+08,4,5175,5300,15.27,2.55,30,30,0,0
1.832e+05,1.1396e+08,4,5288,5185,15.26,2.24,30,30,0,0
1.8365e+05,1.1407e+08,4,5183,5157,15.15,2.53,31,30,0,0
1.841e+05,1.1418e+08,4,5178,5300,15.27,2.44,30,30,0,0
1.8455e+05,1.1429e+08,4,5289,5128,15.29,2.34,30,30,0,0
1.8499e+05,1.144e+08,4,5132,5171,15.22,2.56,30,30,0,0
1.8543e+05,1.1451e+08,4,5181,5271,15.26,2.43,31,30,0,0
1.8584e+05,1.1461e+08,4,5274,5328,15.27,2.35,30,30,0,0
1.8632e+05,1.1473e+08,4,5330,5342,15.29,2.58,30,30,0,0
1.8673e+05,1.1483e+08,4,5345,5400,15.24,2.78,31,31,0,0
1.8717e+05,1.1494e+08,4,5391,5300,15.28,2.58,30,31,0,0
1.8763e+05,1.1505e+08,4,5308,5528,15.28,2.6,30,31,0,0
1.8807e+05,1.1516e+08,4,5517,5385,15.25,2.84,30,31,0,0
1.8852e+05,1.1527e+08,4,5385,5385,15.3,2.48,30,31,0,0
1.8892e+05,1.1537e+08,4,5393,5571,15.18,2.92,30,31,0,0
1.8937e+05,1.1548e+08,4,5565,5442,15.2,2.8,31,31,0,0
1.8986e+05,1.156e+08,4,5453,5585,15.21,2.77,31,31,0,0
1.9026e+05,1.157e+08,4,5586,5628,15.17,2.63,30,31,0,0
1.9071e+05,1.158e+08,4,5627,5614,15.14,2.7,30,31,0,0
1.9115e+05,1.1592e+08,4,5612,5457,15.26,2.57,30,31,0,0
1.916e+05,1.1602e+08,4,5454,5357,15.23,2.59,31,32,0,0
1.9205e+05,1.1614e+08,4,5355,5285,15.23,2.42,31,32,0,0
1.925e+05,1.1624e+08,4,5285,5342,15.24,2.66,31,32,0,0
1.9299e+05,1.1636e+08,4,5339,5314,15.2,2.36,30,32,0,0
1.9343e+05,1.1647e+08,4,5318,5385,15.22,2.45,30,32,0,0
1.9384e+05,1.1657e+08,4,5381,5314,15.14,2.54,31,32,0,0
1.9428e+05,1.1668e+08,4,5314,5328,15.22,2.58,30,32,0,0
1.9473e+05,1.1679e+08,4,5323,5257,15.2,2.25,30,32,0,0
1.9518e+05,1.169e+08,4,5241,5028,15.22,2.04,31,32,0,0
1.9562e+05,1.1701e+08,4,5020,4914,15.24,2.08,30,32,0,0
1.9608e+05,1.1713e+08,4,4920,4985,15.27,2.58,31,32,0,0
1.9649e+05,1.1723e+08,4,4966,4728,15.23,2.62,31,32,0,0
1.9689e+05,1.1734e+08,4,4724,4657,15.15,2.8,31,32,0,0
1.973e+05,1.1744e+08,4,4678,5114,15.2,3.34,30,32,0,0
1.9774e+05,1.1755e+08,4,5123,5257,15.2,2.91,31,33,0,0
1.982e+05,1.1766e+08,4,5276,5542,15.24,2.98,31,33,0,0
1.9864e+05,1.1777e+08,4,5528,5400,15.27,2.63,31,33,0,0
1.9904e+05,1.1787e+08,4,5398,5328,15.28,2.59,31,33,0,0
1.9952e+05,1.1798e+08,4,5336,5500,15.23,2.74,31,33,0,0
1.9998e+05,1.181e+08,4,5500,5500,15.23,3,31,33,0,0
2.0042e+05,1.1821e+08,4,5509,5685,15.25,3.16,31,33,0,0
2.0087e+05,1.1832e+08,4,5677,5557,15.2,3.01,31,33,0,0
2.0131e+05,1.1843e+08,4,5567,5714,15.22,2.91,31,33,0,0
2.0175e+05,1.1853e+08,4,5702,5557,15.23,2.86,31,33,0,0
2.022e+05,1.1864e+08,4,5562,5628,15.23,2.59,31,33,0,0
2.026e+05,1.1874e+08,4,5626,5485,15.19,2.86,30,34,0,0
2.0305e+05,1.1885e+08,4,5483,5471,15.25,2.95,31,34,0,0
2.035e+05,1.1896e+08,4,5465,5385,15.12,2.77,31,34,0,0
2.0395e+05,1.1907e+08,4,5388,5428,15.26,2.62,31,34,0,0
2.0439e+05,1.1918e+08,4,5428,5428,15.24,2.73,31,34,0,0
2.0484e+05,1.1929e+08,4,5427,5414,15.29,2.46,31,34,0,0
2.0525e+05,1.1939e+08,4,5412,5314,15.22,2.39,31,34,0,0
2.0569e+05,1.195e+08,4,5313,5300,15.21,2.43,31,34,0,0
2.0614e+05,1.1961e+08,4,5302,5357,15.2,2.84,31,34,0,0
2.0702e+05,1.1983e+08,4,5362,5571,15.16,2.88,31,34,0,0
2.075e+05,1.1994e+08,4,5571,5585,15.17,3.17,31,34,0,0
2.0795e+05,1.2005e+08,4,5589,5642,15.2,2.85,31,34,0,0
2.0839e+05,1.2016e+08,4,5639,5600,15.22,2.93,31,35,0,0
2.0884e+05,1.2027e+08,4,5594,5457,15.23,2.5,31,35,0,0
2.097e+05,1.2048e+08,4,5456,5442,15.2,2.49,31,35,0,0
2.1014e+05,1.2059e+08,4,5431,5300,15.18,2.63,31,35,0,0
2.1059e+05,1.2071e+08,4,5311,5414,15.2,2.54,31,35,0,0
2.1104e+05,1.2081e+08,4,5414,5414,15.24,2.8,31,35,0,0
2.1152e+05,1.2093e+08,4,5415,5428,15.17,2.41,31,35,0,0
2.1193e+05,1.2103e+08,4,5423,5385,15.22,2.53,31,35,0,0
2.1237e+05,1.2114e+08,4,5376,5285,15.25,2.45,31,35,0,0
2.1282e+05,1.2125e+08,4,5285,5300,15.23,2.59,31,35,0,0
2.1322e+05,1.2135e+08,4,5311,5457,15.13,2.65,31,35,0,0
2.1367e+05,1.2146e+08,4,5458,5485,15.19,2.86,31,36,0,0
2.1412e+05,1.2158e+08,4,5483,5471,15.18,2.77,31,36,0,0
2.1453e+05,1.2168e+08,4,5471,5514,15.13,2.63,30,36,0,0
2.1501e+05,1.218e+08,4,5505,5442,15.24,2.49,31,36,0,0
2.1546e+05,1.2191e+08,4,5429,5300,15.22,2.54,31,36,0,0
2.1586e+05,1.2201e+08,4,5304,5414,15.16,2.66,31,36,0,0
2.1631e+05,1.2212e+08,4,5435,5614,15.21,3.06,31,36,0,0
2.1675e+05,1.2223e+08,4,5603,5457,15.13,2.85,31,36,0,0
2.1716e+05,1.2233e+08,4,5456,5442,15.1,2.47,31,36,0,0
2.176e+05,1.2243e+08,4,5441,5414,15.2,2.67,31,36,0,0
2.1809e+05,1.2255e+08,4,5411,5385,15.19,2.58,31,36,0,0
2.185e+05,1.2265e+08,4,5387,5442,15.11,2.9,31,36,0,0
2.1894e+05,1.2277e+08,4,5458,5600,15.17,2.99,31,36,0,0
2.1939e+05,1.2288e+08,4,5602,5628,15.17,2.98,31,37,0,0
2.198e+05,1.2298e+08,4,5628,5628,15.22,2.71,31,37,0,0
2.2029e+05,1.231e+08,4,5625,5600,15.17,2.71,31,37,0,0
2.2072e+05,1.2321e+08,4,5580,5357,15.22,2.9,31,37,0,0
2.2117e+05,1.2332e+08,4,5388,5628,15.25,2.98,31,37,0,0
2.2157e+05,1.2341e+08,4,5630,5800,15.19,2.93,31,37,0,0
2.2205e+05,1.2354e+08,4,5775,5585,15.2,2.79,31,37,0,0
2.2246e+05,1.2363e+08,4,5585,5628,15.16,3.06,31,37,0,0
2.229e+05,1.2375e+08,4,5624,5542,15.16,3.07,31,37,0,0
2.2335e+05,1.2385e+08,4,5544,5714,15.16,2.97,31,37,0,0
2.2379e+05,1.2396e+08,4,5706,5557,15.2,2.67,31,37,0,0
2.2425e+05,1.2407e+08,4,5558,5614,15.22,2.78,31,38,0,0
2.2474e+05,1.242e+08,4,5595,5400,15.23,2.52,31,38,0,0
2.2514e+05,1.243e+08,4,5394,5342,15.2,2.69,31,38,0,0
2.2604e+05,1.2452e+08,4,5347,5442,15.16,2.74,31,38,0,0
2.2645e+05,1.2462e+08,4,5440,5428,15.07,3.02,31,38,0,0
2.2688e+05,1.2473e+08,4,5426,5357,15.22,2.08,31,38,0,0
2.2733e+05,1.2483e+08,4,5361,5457,15.15,3.07,31,38,0,0
2.2777e+05,1.2495e+08,4,5458,5542,15.22,2.73,31,38,0,0
2.2822e+05,1.2505e+08,4,5539,5500,15.22,3.06,31,38,0,0
2.2867e+05,1.2517e+08,4,5507,5585,15.18,3.01,31,38,0,0
2.2912e+05,1.2527e+08,4,5592,5700,15.21,3.09,31,38,0,0
2.2956e+05,1.2539e+08,4,5693,5614,15.22,2.89,31,38,0,0
2.3001e+05,1.255e+08,4,5613,5600,15.2,2.78,31,39,0,0
2.3042e+05,1.256e+08,4,5592,5414,15.17,2.83,31,39,0,0
2.3135e+05,1.2582e+08,4,5421,5585,15.24,2.6,31,39,0,0
2.3176e+05,1.2593e+08,4,5577,5428,15.27,2.58,31,39,0,0
2.3261e+05,1.2614e+08,4,5427,5400,15.16,2.62,31,39,0,0
2.3354e+05,1.2636e+08,4,5399,5271,15.19,2.52,31,39,0,0
2.3398e+05,1.2648e+08,4,5271,5271,15.15,2.77,31,39,0,0
2.3443e+05,1.2659e+08,4,5270,5257,15.26,2.42,31,39,0,0
2.3487e+05,1.2669e+08,4,5255,5200,15.19,2.21,31,39,0,0
2.3532e+05,1.2681e+08,4,5208,5314,15.15,2.37,31,39,0,0
2.3577e+05,1.2692e+08,4,5327,5457,15.22,2.94,31,40,0,0
2.3622e+05,1.2703e+08,4,5458,5485,15.22,2.83,31,40,0,0
2.3667e+05,1.2714e+08,4,5483,5457,15.2,2.68,31,40,0,0
2.3711e+05,1.2725e+08,4,5458,5485,15.19,2.67,31,40,0,0
2.3756e+05,1.2737e+08,4,5488,5528,15.19,2.8,31,40,0,0
2.3797e+05,1.2747e+08,4,5525,5457,15.25,2.65,31,40,0,0
2.3841e+05,1.2758e+08,4,5453,5400,15.2,2.62,31,40,0,0
2.3886e+05,1.2768e+08,4,5396,5314,15.24,2.53,31,40,0,0
2.3926e+05,1.2779e+08,4,5312,5214,15.17,2.65,31,40,0,0
2.3971e+05,1.279e+08,4,5216,5400,15.2,2.39,31,40,0,0
2.4061e+05,1.2812e+08,4,5401,5442,15.21,2.6,31,41,0,0
2.4105e+05,1.2823e+08,4,5438,5385,15.22,2.9,31,41,0,0
2.415e+05,1.2834e+08,4,5386,5400,15.27,2.55,31,41,0,0
2.419e+05,1.2844e+08,4,5401,5485,15.2,2.71,31,41,0,0
2.4235e+05,1.2855e+08,4,5484,5471,15.2,2.45,31,41,0,0
2.428e+05,1.2866e+08,4,5469,5400,15.2,2.78,31,41,0,0
2.4324e+05,1.2877e+08,4,5399,5385,15.12,2.49,31,41,0,0
2.4369e+05,1.2888e+08,4,5390,5457,15.2,2.53,31,41,0,0
2.4413e+05,1.2899e+08,4,5457,5457,15.14,2.81,31,41,0,0
2.4459e+05,1.291e+08,4,5450,5357,15.14,2.64,31,41,0,0
2.4517e+05,1.2931e+08,4,5511,5285,15.14,2.62,31,41,0,0
2.4562e+05,1.2942e+08,4,5287,5414,15.22,2.57,31,41,0,0
2.4606e+05,1.2953e+08,4,5401,5242,15.14,2.35,31,42,0,0
2.4647e+05,1.2963e+08,4,5244,5271,15.22,2.31,31,42,0,0
2.4692e+05,1.2975e+08,4,5260,5157,15.21,2.66,31,42,0,0
2.4737e+05,1.2986e+08,4,5152,5100,15.21,2.35,31,42,0,0
2.4776e+05,1.2996e+08,4,5098,5071,15.14,3.08,31,42,0,0
2.4822e+05,1.3007e+08,4,5081,5314,15.08,2.94,31,42,0,0
2.4867e+05,1.3018e+08,4,5302,5028,15.23,3.19,31,42,0,0
2.4912e+05,1.3029e+08,4,5033,5171,15.16,2.97,31,42,0,0
2.4956e+05,1.3039e+08,4,5169,5142,14.94,3.49,31,42,0,0
2.5001e+05,1.305e+08,4,5137,5085,15.09,3.33,31,42,0,0
2.5041e+05,1.3061e+08,4,5101,5314,15.16,2.57,31,42,0,0
2.5086e+05,1.3072e+08,4,5323,5414,15.12,3.01,31,43,0,0
2.513e+05,1.3083e+08,4,5412,5385,15.2,2.57,31,43,0,0
2.5171e+05,1.3093e+08,4,5388,5457,15.11,2.73,31,43,0,0
2.5216e+05,1.3104e+08,4,5464,5571,15.14,2.81,31,43,0,0
2.5257e+05,1.3115e+08,4,5567,5471,15.17,2.56,31,43,0,0
2.5302e+05,1.3126e+08,4,5470,5457,15.14,2.81,31,43,0,0
2.5347e+05,1.3137e+08,4,5455,5442,15.09,2.51,31,43,0,0
2.5391e+05,1.3148e+08,4,5449,5557,15.12,2.91,31,43,0,0
2.5436e+05,1.3159e+08,4,5549,5471,15.17,2.77,31,43,0,0
2.5525e+05,1.3181e+08,4,5472,5500,15.1,2.53,31,43,0,0
2.5569e+05,1.3192e+08,4,5498,5485,15.11,2.7,31,43,0,0
2.5614e+05,1.3203e+08,4,5492,5557,15.23,3.03,31,43,0,0
2.5654e+05,1.3213e+08,4,5548,5428,15.18,2.66,31,44,0,0
2.5703e+05,1.3225e+08,4,5439,5571,15.11,3.18,31,44,0,0
2.5744e+05,1.3235e+08,4,5575,5700,15.13,2.87,31,44,0,0
2.5788e+05,1.3245e+08,4,5698,5671,15.16,3.1,31,44,0,0
2.5832e+05,1.3256e+08,4,5653,5428,15.16,2.68,31,44,0,0
2.5877e+05,1.3267e+08,4,5441,5571,15.15,2.61,31,44,0,0
2.5917e+05,1.3277e+08,4,5577,5700,15.13,3.03,31,44,0,0
2.5966e+05,1.329e+08,4,5700,5700,15.1,2.94,31,44,0,0
2.6007e+05,1.3299e+08,4,5697,5528,15.15,2.48,31,44,0,0
2.61e+05,1.3322e+08,4,5520,5342,15.08,2.5,31,44,0,0
2.6144e+05,1.3332e+08,4,5342,5371,15.28,2.46,31,45,0,0
2.6189e+05,1.3343e+08,4,5371,5400,15.17,2.88,31,45,0,0
2.6238e+05,1.3356e+08,4,5386,5242,15.19,2.49,31,45,0,0
2.6278e+05,1.3365e+08,4,5243,5385,15.15,2.59,31,45,0,0
2.6327e+05,1.3377e+08,4,5390,5428,15.24,2.65,31,45,0,0
2.6371e+05,1.3388e+08,4,5409,5214,15.23,2.52,31,45,0,0
2.6411e+05,1.3398e+08,4,5215,5328,15.22,2.8,31,45,0,0
2.646e+05,1.341e+08,4,5324,5271,15.29,2.59,31,45,0,0
2.6546e+05,1.3431e+08,4,5269,5128,15.2,2.45,31,45,0,0
2.659e+05,1.3442e+08,4,5129,5142,15.19,2.19,31,45,0,0
2.6631e+05,1.3452e+08,4,5146,5228,15.27,2.6,31,45,0,0
2.6675e+05,1.3463e+08,4,5236,5314,15.34,2.29,31,45,0,0
2.672e+05,1.3474e+08,4,5322,5414,15.21,2.9,31,45,0,0
2.6768e+05,1.3485e+08,4,5435,5600,15.21,3.29,31,46,0,0
2.6808e+05,1.3496e+08,4,5600,5600,15.1,3.39,31,46,0,0
2.6898e+05,1.3518e+08,4,5590,5314,15.23,2.31,31,46,0,0
2.6943e+05,1.3529e+08,4,5314,5328,15.15,2.7,31,46,0,0
2.7032e+05,1.3551e+08,4,5334,5457,15.19,2.76,31,46,0,0
2.7073e+05,1.3561e+08,4,5462,5514,15.2,2.57,31,46,0,0
2.7118e+05,1.3573e+08,4,5489,5300,15.14,2.46,31,46,0,0
2.7162e+05,1.3583e+08,4,5300,5300,15.04,2.57,31,46,0,0
2.7207e+05,1.3595e+08,4,5311,5428,15.17,2.72,31,46,0,0
2.7252e+05,1.3605e+08,4,5420,5342,15.13,2.74,31,46,0,0
2.7296e+05,1.3616e+08,4,5348,5442,15.07,2.75,31,47,0,0
2.734e+05,1.3627e+08,4,5445,5500,15.1,2.81,31,47,0,0
2.7381e+05,1.3638e+08,4,5502,5571,15.16,2.83,31,47,0,0
2.7426e+05,1.3649e+08,4,5557,5357,15.23,2.94,31,47,0,0
2.7471e+05,1.366e+08,4,5368,5471,15.21,2.69,31,47,0,0
2.7515e+05,1.367e+08,4,5465,5414,15.22,2.44,31,47,0,0
2.7556e+05,1.3681e+08,4,5408,5357,15.2,1.98,31,47,0,0
2.7646e+05,1.3703e+08,4,5349,4928,15.18,1.82,31,47,0,0
2.7689e+05,1.3714e+08,4,4924,4757,15.21,2.33,31,47,0,0
2.7776e+05,1.3735e+08,4,4741,4428,15.18,1.68,31,47,0,0
2.7824e+05,1.3746e+08,4,4423,4371,14.98,2.44,31,47,0,0
2.7864e+05,1.3757e+08,4,4353,4114,15.14,1.1,31,47,0,0
2.7909e+05,1.3767e+08,4,4103,3871,14.98,2.47,31,47,0,0
2.7953e+05,1.3778e+08,4,3868,3785,15.13,2.09,31,48,0,0
2.7998e+05,1.3789e+08,4,3787,4000,14.88,2.85,31,48,0,0
2.8043e+05,1.3801e+08,4,3985,3842,14.95,1.19,31,48,0,0
2.8132e+05,1.3822e+08,4,3829,3514,14.98,2.21,31,48,0,0
2.8176e+05,1.3833e+08,4,3549,4257,15.03,2.29,31,48,0,0
2.8222e+05,1.3845e+08,4,4228,3800,14.9,2.42,31,48,0,0
2.8266e+05,1.3855e+08,4,3806,4042,14.96,1.74,31,48,0,0
2.8352e+05,1.3877e+08,4,4044,4142,15,1.83,31,48,0,0
2.8396e+05,1.3888e+08,4,4151,4271,14.99,1.98,31,48,0,0
2.8445e+05,1.39e+08,4,4264,4200,15.09,1.49,31,48,0,0
2.8486e+05,1.391e+08,4,4238,4485,15.09,1.95,31,48,0,0
2.853e+05,1.3921e+08,4,4507,4814,15.11,1.91,31,48,0,0
2.8571e+05,1.3931e+08,4,4815,4857,15.11,2.08,31,48,0,0
2.8616e+05,1.3943e+08,4,4866,5000,15.13,2.43,31,49,0,0
2.866e+05,1.3953e+08,4,5018,5285,15.17,3.23,31,49,0,0
2.879e+05,1.3985e+08,4,5284,5271,15.14,2.75,31,49,0,0
2.8832e+05,1.3996e+08,4,5273,5442,15.13,2.72,31,49,0,0
2.888e+05,1.4008e+08,4,5439,5414,15.15,2.49,31,49,0,0
2.8921e+05,1.4019e+08,4,5414,5414,15.12,2.51,31,49,0,0
2.901e+05,1.4041e+08,4,5411,5300,15.17,2.08,31,49,0,0
2.9059e+05,1.4053e+08,4,5283,5142,15.15,2.28,31,49,0,0
2.9099e+05,1.4062e+08,4,5137,5042,15.16,1.9,31,49,0,0
2.9144e+05,1.4074e+08,4,5038,5000,15,2.51,31,49,0,0
2.9184e+05,1.4083e+08,4,4995,4828,15.14,1.75,31,49,0,0
2.923e+05,1.4096e+08,4,4821,4757,15.11,2.19,31,50,0,0
2.9275e+05,1.4106e+08,4,4758,4771,15.18,2.32,31,50,0,0
2.9315e+05,1.4117e+08,4,4776,4842,15.04,2.87,31,50,0,0
2.936e+05,1.4128e+08,4,4849,4971,15.17,2.21,31,50,0,0
2.94e+05,1.4138e+08,4,4974,5085,15.13,2.42,31,50,0,0
2.9445e+05,1.4149e+08,4,5092,5200,15.1,2.69,31,50,0,0
2.9489e+05,1.416e+08,4,5223,5557,15.11,3.02,31,50,0,0
2.9534e+05,1.4171e+08,4,5544,5442,15.1,2.61,31,50,0,0
2.9579e+05,1.4182e+08,4,5451,5557,15.14,2.68,31,50,0,0
2.9619e+05,1.4192e+08,4,5558,5585,15.19,2.73,31,50,0,0
2.9664e+05,1.4203e+08,4,5595,5814,15.17,3.15,31,50,0,0
2.9709e+05,1.4214e+08,4,5784,5485,15.16,2.21,31,50,0,0
2.9753e+05,1.4225e+08,4,5470,5271,15.18,2.26,31,50,0,0
2.9798e+05,1.4236e+08,4,5260,5157,15.16,2.19,31,51,0,0
2.9842e+05,1.4247e+08,4,5161,5214,15.17,2.2,31,51,0,0
2.9883e+05,1.4257e+08,4,5213,5200,15.14,2.43,31,51,0,0
2.9928e+05,1.4268e+08,4,5190,5000,15.08,2.18,31,51,0,0
2.9976e+05,1.428e+08,4,4992,4914,15.13,1.91,31,51,0,0
3.0018e+05,1.429e+08,4,4886,4642,15.1,1.87,31,51,0,0
3.0058e+05,1.43e+08,4,4647,4714,15.17,1.94,31,51,0,0
3.0099e+05,1.4311e+08,4,4698,4357,15.1,1.52,31,51,0,0
3.0143e+05,1.4322e+08,4,4357,4371,15.11,1.46,31,51,0,0
3.0195e+05,1.4334e+08,4,4375,4414,15.13,1.41,31,51,0,0
3.0236e+05,1.4344e+08,4,4419,4528,15.12,1.91,31,51,0,0
3.0281e+05,1.4355e+08,4,4532,4600,15.13,2.07,31,51,0,0
3.0325e+05,1.4366e+08,4,4614,4785,15.2,2.09,31,51,0,0
3.037e+05,1.4377e+08,4,4788,4828,15.13,2.65,31,51,0,0
3.0414e+05,1.4388e+08,4,4830,4857,15.18,2.2,31,51,0,0
3.0459e+05,1.44e+08,4,4869,4985,15.07,2.68,31,51,0,0
3.0545e+05,1.4421e+08,4,4987,5057,15.17,2.41,31,52,0,0
3.0589e+05,1.4431e+08,4,5059,5171,15.16,2.65,31,52,0,0
3.0634e+05,1.4443e+08,4,5166,5128,15.17,2.34,31,52,0,0
3.0719e+05,1.4464e+08,4,5131,5200,15.16,2.52,31,52,0,0
3.0763e+05,1.4475e+08,4,5207,5328,15.16,2.28,31,52,0,0
3.0808e+05,1.4486e+08,4,5324,5271,15.13,2.58,31,52,0,0
3.0853e+05,1.4497e+08,4,5266,5200,15.11,2.6,31,52,0,0
3.0894e+05,1.4507e+08,4,5200,5200,15.16,2.47,31,52,0,0
3.0939e+05,1.4518e+08,4,5183,5042,15.08,2.54,31,52,0,0
3.0984e+05,1.4529e+08,4,5039,5014,15.13,2.5,31,52,0,0
3.1024e+05,1.4539e+08,4,5007,4842,15.18,2.55,31,52,0,0
3.1069e+05,1.455e+08,4,4842,4871,15.08,2.24,31,53,0,0
3.1113e+05,1.4561e+08,4,4877,5014,15.22,2.15,31,53,0,0
3.1159e+05,1.4573e+08,4,5010,4971,15.17,2.64,31,53,0,0
3.1204e+05,1.4584e+08,4,4987,5157,15.2,2.79,31,53,0,0
3.1244e+05,1.4594e+08,4,5163,5228,15.11,2.43,31,53,0,0
3.1289e+05,1.4605e+08,4,5230,5257,15.11,2.65,31,53,0,0
3.1333e+05,1.4616e+08,4,5255,5228,15.11,2.73,31,53,0,0
3.1378e+05,1.4627e+08,4,5235,5342,15.22,2.69,31,53,0,0
3.1419e+05,1.4637e+08,4,5340,5242,15.29,1.94,31,53,0,0
3.1464e+05,1.4648e+08,4,5238,5014,15.21,2.2,31,53,0,0
3.1504e+05,1.4659e+08,4,5015,5114,15.19,2.83,31,53,0,0
3.1553e+05,1.467e+08,4,5120,5214,15.13,2.89,31,53,0,0
3.1593e+05,1.4681e+08,4,5218,5485,15.19,2.88,31,53,0,0
3.1686e+05,1.4703e+08,4,5483,5385,15.21,2.65,31,54,0,0
3.173e+05,1.4714e+08,4,5405,5685,15.12,3.58,31,54,0,0
3.1775e+05,1.4724e+08,4,5683,5585,15.17,2.98,31,54,0,0
3.1819e+05,1.4735e+08,4,5585,5600,15.22,2.66,31,54,0,0
3.1864e+05,1.4746e+08,4,5597,5442,15.12,2.5,31,54,0,0
3.1908e+05,1.4757e+08,4,5444,5600,15.17,2.79,31,54,0,0
3.1953e+05,1.4768e+08,4,5601,5657,15.09,3.16,31,54,0,0
3.1998e+05,1.4779e+08,4,5675,5971,15.16,3.54,31,54,0,0
3.2043e+05,1.479e+08,4,5969,5928,15.15,3.32,31,54,0,0
3.2083e+05,1.48e+08,4,5924,5728,15.15,3.03,31,54,0,0
3.2132e+05,1.4812e+08,4,5735,5885,15.14,2.82,31,55,0,0
3.2176e+05,1.4823e+08,4,5875,5742,15.15,3,31,55,0,0
3.2217e+05,1.4833e+08,4,5731,5585,15.19,2.89,31,55,0,0
3.2262e+05,1.4844e+08,4,5590,5671,15.23,2.56,31,55,0,0
3.2302e+05,1.4854e+08,4,5667,5442,15.18,2.26,31,55,0,0
3.235e+05,1.4865e+08,4,5442,5442,15.2,2.28,31,55,0,0
3.2394e+05,1.4876e+08,4,5435,5342,15.22,2.45,31,55,0,0
3.2439e+05,1.4887e+08,4,5350,5457,15.14,2.81,31,55,0,0
3.248e+05,1.4897e+08,4,5453,5271,15.22,3.23,31,55,0,0
3.2529e+05,1.4909e+08,4,5287,5542,15.19,3.31,31,55,0,0
3.257e+05,1.4919e+08,4,5526,5328,15.04,2.7,31,55,0,0
3.2614e+05,1.493e+08,4,5325,5285,15.16,3.03,31,55,0,0
3.2658e+05,1.4941e+08,4,5298,5585,15.2,2.88,31,56,0,0
3.2699e+05,1.4952e+08,4,5585,5600,15.14,2.89,31,56,0,0
3.2744e+05,1.4962e+08,4,5599,5585,15.08,2.85,31,56,0,0
3.2836e+05,1.4985e+08,4,5571,5285,15.19,2.33,31,56,0,0
3.2881e+05,1.4996e+08,4,5282,5257,15.23,2.46,31,56,0,0
3.2926e+05,1.5007e+08,4,5249,5171,15.19,2.08,31,56,0,0
3.2971e+05,1.5017e+08,4,5174,5214,15.18,2.35,31,56,0,0
3.3016e+05,1.5028e+08,4,5200,5057,15.18,2.78,31,56,0,0
3.3056e+05,1.5039e+08,4,5060,5100,15.16,2.4,31,56,0,0
3.3101e+05,1.505e+08,4,5093,5000,15.11,2.98,31,56,0,0
3.3146e+05,1.5061e+08,4,5001,5028,15.14,2.57,31,56,0,0
3.319e+05,1.5072e+08,4,5048,5285,15.19,2.3,31,56,0,0
3.3235e+05,1.5083e+08,4,5278,5214,15.17,2.21,31,57,0,0
3.3321e+05,1.5104e+08,4,5223,5442,15.16,2.44,31,57,0,0
3.3365e+05,1.5115e+08,4,5437,5371,15.2,2.27,31,57,0,0
3.341e+05,1.5126e+08,4,5369,5342,15.13,2.63,31,57,0,0
3.345e+05,1.5137e+08,4,5335,5100,15.16,2,31,57,0,0
3.35e+05,1.5148e+08,4,5111,5228,15.11,2.86,31,57,0,0
3.354e+05,1.5159e+08,4,5228,5228,15.16,2.14,31,57,0,0
3.3585e+05,1.517e+08,4,5231,5271,15.09,2.78,31,57,0,0
3.3625e+05,1.518e+08,4,5271,5285,15.19,2.47,31,57,0,0
3.367e+05,1.5191e+08,4,5281,4985,15.08,1.77,31,57,0,0
3.3715e+05,1.5202e+08,4,4984,4971,15.22,2,31,57,0,0
3.376e+05,1.5214e+08,4,4955,4800,15.18,2.2,31,57,0,0
3.38e+05,1.5224e+08,4,4800,4857,15.18,2.49,31,57,0,0
3.3849e+05,1.5236e+08,4,4874,5100,15.15,2.38,31,58,0,0
3.3894e+05,1.5247e+08,4,5096,5057,15.19,2.62,31,58,0,0
3.3934e+05,1.5257e+08,4,5055,4985,15.14,2.47,31,58,0,0
3.3983e+05,1.5268e+08,4,4989,5042,15.11,3.07,31,58,0,0
3.4024e+05,1.5279e+08,4,5055,5342,15,3.47,31,58,0,0
3.4069e+05,1.529e+08,4,5370,5714,15.01,3.25,31,58,0,0
3.4113e+05,1.5301e+08,4,5707,5628,15.07,3.01,31,58,0,0
3.4158e+05,1.5312e+08,4,5651,5842,15.07,2.93,31,58,0,0
3.4202e+05,1.5322e+08,4,5830,5657,15.07,2.91,31,58,0,0
3.4247e+05,1.5333e+08,4,5644,5528,15.1,2.61,31,58,0,0
3.4332e+05,1.5355e+08,4,5532,5657,15.05,2.87,31,58,0,0
3.4377e+05,1.5366e+08,4,5634,5514,15.13,2.81,31,59,0,0
3.4421e+05,1.5376e+08,4,5518,5600,15.13,2.52,31,59,0,0
3.4466e+05,1.5388e+08,4,5579,5357,15.13,2.41,31,59,0,0
3.451e+05,1.5399e+08,4,5346,5171,15.16,2,31,59,0,0
3.4556e+05,1.5409e+08,4,5165,5028,15.08,2.35,31,59,0,0
3.46e+05,1.5421e+08,4,5029,5057,15.13,2.47,31,59,0,0
3.4736e+05,1.5453e+08,4,5058,5128,14.98,2.43,31,59,0,0
3.4825e+05,1.5475e+08,4,5123,5000,15.01,2.51,31,59,0,0
3.487e+05,1.5486e+08,4,5004,5071,14.97,2.44,31,59,0,0
3.4915e+05,1.5497e+08,4,5073,5100,15.07,2.4,31,59,0,0
3.496e+05,1.5508e+08,4,5093,5028,15.16,2.19,31,59,0,0
3.5049e+05,1.553e+08,4,5029,5057,15.01,2.73,31,60,0,0
3.509e+05,1.554e+08,4,5056,5042,15.08,2.19,31,60,0,0
3.5134e+05,1.5551e+08,4,5045,5128,15.11,2.22,31,60,0,0
3.5178e+05,1.5562e+08,4,5120,5028,15.07,2.53,31,60,0,0
3.5219e+05,1.5573e+08,4,5044,5200,15.02,3.01,31,60,0,0
3.5268e+05,1.5584e+08,4,5207,5314,15.14,2.37,31,60,0,0
3.5308e+05,1.5594e+08,4,5311,5200,15.13,2.57,31,60,0,0
3.5358e+05,1.5606e+08,4,5203,5242,15.12,2.58,31,60,0,0
3.5398e+05,1.5616e+08,4,5240,5200,15.13,2.5,31,60,0,0
3.5443e+05,1.5627e+08,4,5201,5242,15.1,2.53,31,60,0,0
3.5487e+05,1.5638e+08,4,5242,5257,15.07,2.34,31,60,0,0
3.5532e+05,1.5649e+08,4,5258,5314,15.12,2.64,31,61,0,0
3.5576e+05,1.566e+08,4,5311,5200,15.1,2.55,31,61,0,0
3.5622e+05,1.5671e+08,4,5198,5185,15.11,2.49,31,61,0,0
3.5667e+05,1.5682e+08,4,5186,5200,15.16,2.28,31,61,0,0
3.5707e+05,1.5692e+08,4,5197,5057,15.08,2.35,31,61,0,0
3.5756e+05,1.5704e+08,4,5055,5042,15.12,2.33,31,61,0,0
3.5796e+05,1.5714e+08,4,5037,4942,15.07,1.97,31,61,0,0
3.5846e+05,1.5726e+08,4,4924,4742,15.13,2.55,31,61,0,0
3.589e+05,1.5737e+08,4,4739,4714,15.07,2,31,61,0,0
3.5975e+05,1.5758e+08,4,4710,4628,15.1,2.04,31,61,0,0
3.6024e+05,1.5769e+08,4,4642,4785,15.07,2.28,31,61,0,0
3.6064e+05,1.5779e+08,4,4778,4700,15.07,2.17,31,61,0,0
3.6109e+05,1.579e+08,4,4704,4800,15.12,1.9,31,61,0,0
3.6153e+05,1.5801e+08,4,4798,4771,15.11,2.19,31,61,0,0
3.6239e+05,1.5823e+08,4,4786,5228,15.1,2.66,31,62,0,0
3.6279e+05,1.5833e+08,4,5226,5142,15.1,2.51,31,62,0,0
3.6328e+05,1.5844e+08,4,5139,5085,15.01,2.59,31,62,0,0
3.6373e+05,1.5856e+08,4,5104,5300,15.03,2.63,31,62,0,0
3.6418e+05,1.5867e+08,4,5307,5385,15.01,2.36,31,62,0,0
3.6458e+05,1.5876e+08,4,5383,5271,15.08,2.68,31,62,0,0
3.6547e+05,1.5898e+08,4,5265,5100,15.05,2.23,31,62,0,0
3.6592e+05,1.5909e+08,4,5102,5128,15.1,1.93,31,62,0,0
3.6632e+05,1.592e+08,4,5125,5000,15.11,2.26,31,62,0,0
3.6678e+05,1.5931e+08,4,4996,4957,15.05,2.51,31,62,0,0
3.6722e+05,1.5942e+08,4,4959,5000,14.92,2.64,31,62,0,0
3.6767e+05,1.5953e+08,4,5010,5157,15.1,2.44,31,62,0,0
3.6808e+05,1.5963e+08,4,5150,4828,15.13,1.96,31,63,0,0
3.6856e+05,1.5975e+08,4,4820,4657,14.96,2.1,31,63,0,0
3.6901e+05,1.5986e+08,4,4658,4685,15.06,2.16,31,63,0,0
3.6942e+05,1.5996e+08,4,4695,4842,14.97,2.43,31,63,0,0
3.6987e+05,1.6007e+08,4,4854,5014,15.07,2.45,31,63,0,0
3.7032e+05,1.6018e+08,4,5014,5028,15.08,2.37,31,63,0,0
3.708e+05,1.603e+08,4,5021,4957,15.07,2.43,31,63,0,0
3.712e+05,1.6039e+08,4,4969,5228,15.03,3.23,31,63,0,0
3.717e+05,1.6051e+08,4,5234,5300,15.04,2.42,31,63,0,0
3.7258e+05,1.6073e+08,4,5285,4957,15.17,1.98,31,63,0,0
3.7303e+05,1.6084e+08,4,4954,4942,15.01,2.54,31,63,0,0
3.7343e+05,1.6094e+08,4,4950,5114,15.11,2.28,31,63,0,0
3.7388e+05,1.6105e+08,4,5106,5000,15.13,2.43,31,63,0,0
3.7432e+05,1.6116e+08,4,5001,5057,15.14,2.3,31,64,0,0
3.7478e+05,1.6127e+08,4,5058,5100,15.12,2.23,31,64,0,0
3.7541e+05,1.615e+08,4,5029,5242,15.05,2.52,31,64,0,0
3.7578e+05,1.6159e+08,4,5241,5171,15.13,2.45,31,64,0,0
3.7627e+05,1.6171e+08,4,5155,5000,15.13,2.32,31,64,0,0
3.7667e+05,1.6181e+08,4,5005,5071,15.16,2.28,31,64,0,0
3.7708e+05,1.6192e+08,4,5071,5100,15.07,2.35,31,64,0,0
3.7752e+05,1.6203e+08,4,5100,5142,15.01,2.65,31,64,0,0
3.7797e+05,1.6214e+08,4,5145,5185,15.01,2.59,31,64,0,0
3.7842e+05,1.6225e+08,4,5177,5100,15.06,2.48,31,64,0,0
3.7883e+05,1.6236e+08,4,5103,5128,15.08,2.48,31,64,0,0
3.7924e+05,1.6246e+08,4,5131,5300,15.11,2.77,31,64,0,0
3.7968e+05,1.6257e+08,4,5315,5457,15.12,2.74,31,64,0,0
3.8013e+05,1.6268e+08,4,5455,5442,15.09,2.33,31,65,0,0
3.8057e+05,1.6279e+08,4,5442,5457,15.07,2.81,31,65,0,0
3.8098e+05,1.6289e+08,4,5446,5371,15.07,2.51,31,65,0,0
3.8142e+05,1.63e+08,4,5379,5457,15.11,2.53,31,65,0,0
3.8186e+05,1.6311e+08,4,5468,5557,15.09,2.79,31,65,0,0
3.8231e+05,1.6322e+08,4,5552,5485,15.13,2.7,31,65,0,0
3.8317e+05,1.6343e+08,4,5474,5228,15.1,2.52,31,65,0,0
3.8357e+05,1.6354e+08,4,5229,5300,15.07,2.2,31,65,0,0
3.8406e+05,1.6365e+08,4,5277,5042,15.05,2.24,31,65,0,0
3.845e+05,1.6376e+08,4,5038,5000,15.07,2.1,31,65,0,0
3.8495e+05,1.6387e+08,4,5008,5085,15.14,2.13,31,65,0,0
3.8536e+05,1.6398e+08,4,5086,5114,15.07,2.8,31,65,0,0
3.8581e+05,1.6409e+08,4,5117,5157,15.05,2.59,31,66,0,0
3.8625e+05,1.6419e+08,4,5159,5214,15.14,2.35,31,66,0,0
3.867e+05,1.643e+08,4,5220,5314,15.18,2.49,31,66,0,0
3.8759e+05,1.6452e+08,4,5316,5428,15.07,2.64,31,66,0,0
3.8847e+05,1.6473e+08,4,5418,5157,15.11,2.31,31,66,0,0
3.8932e+05,1.6494e+08,4,5159,5242,15.11,2.62,31,66,0,0
3.8977e+05,1.6505e+08,4,5238,5185,15.05,2.39,31,66,0,0
3.9018e+05,1.6516e+08,4,5189,5257,15.04,2.49,31,66,0,0
3.9063e+05,1.6527e+08,4,5246,5085,15.13,2.29,31,66,0,0
3.9108e+05,1.6538e+08,4,5085,5114,15.2,2.29,31,66,0,0
3.9153e+05,1.6549e+08,4,5108,4800,15.17,2.11,31,67,0,0
3.9198e+05,1.656e+08,4,4811,5071,15.04,2.92,31,67,0,0
3.9243e+05,1.6572e+08,4,5062,4985,15.15,2.42,31,67,0,0
3.9284e+05,1.6582e+08,4,4984,4971,15.05,2.28,31,67,0,0
3.9332e+05,1.6593e+08,4,4977,5114,15.13,2.24,31,67,0,0
3.9373e+05,1.6603e+08,4,5112,5042,15.14,2.1,30,67,0,0
3.942e+05,1.6615e+08,4,5051,5171,15.01,2.45,31,67,0,0
3.9466e+05,1.6626e+08,4,5167,5114,15.07,2.33,31,67,0,0
3.9511e+05,1.6637e+08,4,5123,5228,15.19,2.39,31,67,0,0
3.9599e+05,1.6659e+08,4,5219,5028,15.27,1.89,31,67,0,0
3.9644e+05,1.6669e+08,4,5004,4757,15.27,2.04,31,67,0,0
3.9688e+05,1.668e+08,4,4752,4642,15.26,1.83,31,67,0,0
3.9737e+05,1.6692e+08,4,4633,4557,15.32,1.85,31,67,0,0
3.9777e+05,1.6702e+08,4,4555,4442,15.36,1.57,31,67,0,0
3.9825e+05,1.6713e+08,4,4402,3885,15.44,1.65,31,68,0,0
3.9871e+05,1.6724e+08,4,3839,3185,15.66,0.52,31,68,0,0
3.991e+05,1.6734e+08,4,3168,2557,15.58,0.26,31,68,0,0
3.996e+05,1.6746e+08,4,2540,2314,15.56,0.26,31,68,0,0
3.9999e+05,1.6756e+08,4,2317,2385,15.55,0.31,31,68,0,0
4.0045e+05,1.6767e+08,4,2378,2285,15.56,0.3,31,68,0,0
4.0219e+05,1.681e+08,4,2285,2328,15.6,0.36,31,68,0,0
4.0263e+05,1.6821e+08,4,2325,2271,15.57,0.33,31,68,0,0
4.0307e+05,1.6832e+08,4,2274,2300,15.6,0.37,31,68,0,0
4.0352e+05,1.6843e+08,4,2302,2328,15.6,0.28,30,68,0,0
4.0393e+05,1.6853e+08,4,2329,2385,15.6,0.36,30,68,0,0
4.0442e+05,1.6864e+08,4,2397,2528,15.62,0.47,31,68,0,0
4.0486e+05,1.6874e+08,4,2531,2600,15.69,0.5,30,68,0,0
4.0575e+05,1.6896e+08,4,2601,2642,15.6,0.47,30,68,0,0
4.062e+05,1.6907e+08,4,2604,1885,15.68,0.01,30,68,0,0
4.0664e+05,1.6918e+08,4,1868,1485,15.67,0,30,68,0,0
4.0714e+05,1.6929e+08,4,1474,1328,15.66,0.09,30,68,0,0
4.0755e+05,1.694e+08,4,1326,1300,15.66,0.11,30,68,0,0
4.0799e+05,1.695e+08,4,1300,1300,15.67,0.11,30,68,0,0
4.0844e+05,1.6961e+08,4,1300,1300,15.67,0.11,30,68,0,0
4.0889e+05,1.6972e+08,4,1300,1300,15.67,0.11,30,68,0,0
4.0934e+05,1.6983e+08,4,1298,1285,15.68,0.11,30,68,0,0
4.0974e+05,1.6993e+08,4,1285,1285,15.68,0.11,30,68,0,0
4.102e+05,1.7004e+08,4,1285,1285,15.68,0.11,30,68,0,0
4.1064e+05,1.7015e+08,4,1285,1285,15.69,0.11,30,68,0,0
4.1113e+05,1.7027e+08,4,1285,1285,15.68,0.1,30,68,0,0
4.1154e+05,1.7037e+08,4,1285,1285,15.69,0.11,30,68,0,0
4.1199e+05,1.7048e+08,4,1286,1300,15.69,0.11,30,68,0,0
4.124e+05,1.7058e+08,4,1300,1300,15.69,0.1,30,68,0,0
4.1333e+05,1.708e+08,4,1300,1300,15.69,0.1,30,68,0,0
4.1381e+05,1.7092e+08,4,1300,1300,15.7,0.1,30,68,0,0
4.1422e+05,1.7101e+08,4,1300,1300,15.69,0.1,30,68,0,0
4.1466e+05,1.7112e+08,4,1300,1300,15.7,0.1,30,68,0,0
4.1516e+05,1.7124e+08,4,1301,1314,15.7,0.1,30,68,0,0
4.1556e+05,1.7134e+08,4,1313,1300,15.7,0.1,30,68,0,0
4.16e+05,1.7144e+08,4,1300,1300,15.71,0.1,30,68,0,0
4.1649e+05,1.7156e+08,4,1300,1300,15.71,0.1,30,68,0,0
4.169e+05,1.7166e+08,4,1300,1300,15.71,0.1,30,68,0,0
4.1739e+05,1.7178e+08,4,1300,1300,15.71,0.1,30,68,0,0
4.1784e+05,1.7189e+08,4,1300,1300,15.71,0.1,30,68,0,0
4.1824e+05,1.7198e+08,4,1300,1300,15.72,0.1,30,68,0,0
4.1914e+05,1.722e+08,4,1300,1300,15.72,0.1,30,68,0,0
4.1959e+05,1.7231e+08,4,1300,1300,15.73,0.1,30,68,0,0
4.2003e+05,1.7242e+08,4,1300,1300,15.72,0.1,30,68,0,0
4.2044e+05,1.7252e+08,4,1300,1300,15.72,0.1,30,68,0,0
4.2093e+05,1.7263e+08,4,1300,1300,15.72,0.1,30,68,0,0
4.2138e+05,1.7274e+08,4,1301,1314,15.72,0.1,30,68,0,0
4.2178e+05,1.7284e+08,4,1313,1300,15.73,0.1,30,68,0,0
4.2226e+05,1.7295e+08,4,1300,1300,15.73,0.11,30,68,0,0
4.2272e+05,1.7306e+08,4,1300,1300,15.73,0.1,30,68,0,0
4.232e+05,1.7317e+08,4,1300,1300,15.73,0.1,30,68,0,0
4.2364e+05,1.7328e+08,4,1300,1300,15.73,0.1,30,68,0,0
4.2409e+05,1.7338e+08,4,1300,1300,15.74,0.1,30,68,0,0
4.2458e+05,1.735e+08,4,1300,1300,15.74,0.1,30,68,0,0
4.2497e+05,1.736e+08,4,1300,1300,15.75,0.11,30,68,0,0
4.2542e+05,1.737e+08,4,1300,1300,15.74,0.1,30,68,0,0
4.259e+05,1.7381e+08,4,1300,1300,15.74,0.11,30,68,0,0
4.2631e+05,1.7392e+08,4,1300,1300,15.75,0.11,30,68,0,0
4.268e+05,1.7403e+08,4,1300,1300,15.75,0.11,30,68,0,0
4.272e+05,1.7413e+08,4,1300,1300,15.75,0.11,30,68,0,0
4.277e+05,1.7424e+08,4,1300,1314,15.75,0.1,30,68,0,0
4.2814e+05,1.7435e+08,4,1314,1314,15.75,0.1,30,68,0,0
4.2858e+05,1.7446e+08,4,1314,1314,15.75,0.1,30,68,0,0
4.2902e+05,1.7456e+08,4,1314,1314,15.75,0.1,30,68,0,0
4.2948e+05,1.7467e+08,4,1312,1300,15.75,0.1,30,68,0,0
4.2995e+05,1.7478e+08,4,1301,1314,15.76,0.1,30,68,0,0
4.3036e+05,1.7488e+08,4,1313,1300,15.75,0.1,30,68,0,0
4.3081e+05,1.7499e+08,4,1300,1300,15.76,0.1,30,68,0,0
4.3126e+05,1.751e+08,4,1300,1300,15.76,0.1,30,68,0,0
4.3174e+05,1.7521e+08,4,1300,1300,15.76,0.11,30,68,0,0
4.3219e+05,1.7532e+08,4,1300,1314,15.76,0.1,30,68,0,0
4.3263e+05,1.7543e+08,4,1312,1300,15.76,0.11,30,68,0,0
4.3308e+05,1.7554e+08,4,1300,1300,15.76,0.11,30,68,0,0
4.3353e+05,1.7564e+08,4,1300,1300,15.76,0.11,30,68,0,0
4.3397e+05,1.7575e+08,4,1300,1300,15.76,0.11,30,68,0,0
4.3442e+05,1.7586e+08,4,1300,1300,15.76,0.11,30,68,0,0
4.3486e+05,1.7596e+08,4,1300,1300,15.76,0.11,30,68,0,0
4.3527e+05,1.7607e+08,4,1300,1300,15.77,0.11,30,68,0,0
4.3572e+05,1.7617e+08,4,1300,1300,15.76,0.11,30,68,0,0
4.371e+05,1.765e+08,4,1300,1300,15.77,0.11,30,68,0,0
4.3755e+05,1.7661e+08,4,1300,1300,15.77,0.11,30,68,0,0
4.38e+05,1.7672e+08,4,1300,1300,15.77,0.11,30,68,0,0
4.3844e+05,1.7683e+08,4,1300,1300,15.77,0.11,30,68,0,0
4.3889e+05,1.7694e+08,4,1300,1300,15.77,0.11,30,68,0,0
4.3935e+05,1.7705e+08,4,1300,1300,15.77,0.11,30,68,0,0
4.3978e+05,1.7715e+08,4,1300,1300,15.77,0.11,30,68,0,0
4.4024e+05,1.7726e+08,4,1300,1300,15.77,0.11,30,68,0,0
4.4068e+05,1.7737e+08,4,1300,1300,15.78,0.11,30,68,0,0
4.4112e+05,1.7747e+08,4,1300,1300,15.78,0.11,30,68,0,0
4.4157e+05,1.7758e+08,4,1300,1300,15.78,0.11,30,68,0,0
4.4202e+05,1.7769e+08,4,1300,1300,15.78,0.11,30,68,0,0
4.4246e+05,1.778e+08,4,1300,1300,15.78,0.11,30,68,0,0
4.4291e+05,1.779e+08,4,1300,1300,15.79,0.11,30,68,0,0
4.4336e+05,1.7801e+08,4,1300,1300,15.79,0.11,30,68,0,0
4.4385e+05,1.7813e+08,4,1300,1300,15.78,0.11,30,68,0,0
4.4426e+05,1.7823e+08,4,1300,1300,15.79,0.11,30,68,0,0
4.447e+05,1.7833e+08,4,1300,1300,15.79,0.11,30,68,0,0
4.4515e+05,1.7844e+08,4,1300,1300,15.79,0.11,30,68,0,0
4.4556e+05,1.7854e+08,4,1300,1300,15.79,0.11,30,68,0,0
4.4601e+05,1.7865e+08,4,1300,1300,15.79,0.11,30,68,0,0
4.4649e+05,1.7876e+08,4,1300,1300,15.79,0.11,30,68,0,0
4.4693e+05,1.7887e+08,4,1300,1300,15.79,0.11,30,68,0,0
4.4738e+05,1.7897e+08,4,1300,1300,15.79,0.11,30,68,0,0
4.4786e+05,1.7909e+08,4,1278,1042,15.81,0.04,30,68,0,0
4.4831e+05,1.7919e+08,4,971,257,15.81,0.01,30,68,0,0
4.4876e+05,1.793e+08,4,239,0,15.81,0.03,30,68,0,0
4.4921e+05,1.794e+08,4,0,0,15.81,0.04,30,68,0,0
4.497e+05,1.7952e+08,4,0,0,15.81,0.04,30,68,0,0
4.5016e+05,1.7963e+08,4,0,0,15.81,0.04,30,68,0,0
4.5061e+05,1.7974e+08,4,0,0,15.82,0.04,30,68,0,0
4.5106e+05,1.7985e+08,4,0,0,15.82,0.04,30,68,0,0
4.5196e+05,1.8006e+08,4,0,0,15.82,0.04,30,68,0,0
4.5246e+05,1.8017e+08,4,0,0,15.82,0.04,30,68,0,0
4.5291e+05,1.8028e+08,4,0,0,15.82,0.04,30,68,0,0
4.5336e+05,1.8039e+08,4,0,0,15.82,0.04,30,68,0,0
4.5386e+05,1.8051e+08,4,0,0,15.82,0.04,30,68,0,0
4.5426e+05,1.8061e+08,4,0,0,15.82,0.04,30,68,0,0
4.5476e+05,1.8073e+08,4,0,0,15.82,0.04,30,68,0,0
4.5517e+05,1.8082e+08,4,0,0,15.82,0.04,30,68,0,0
4.5566e+05,1.8094e+08,4,0,0,15.82,0.04,30,68,0,0
4.5612e+05,1.8105e+08,4,0,0,15.82,0.04,30,68,0,0
4.5657e+05,1.8116e+08,4,0,0,15.82,0.04,30,68,0,0
4.5702e+05,1.8127e+08,4,0,0,15.83,0.04,30,68,0,0
4.5747e+05,1.8137e+08,4,0,0,15.82,0.04,30,68,0,0
4.5842e+05,1.816e+08,4,0,0,15.83,0.04,30,68,0,0
4.5888e+05,1.8171e+08,4,0,0,15.83,0.04,30,68,0,0
4.5933e+05,1.8182e+08,4,0,0,15.83,0.04,30,68,0,0
4.5977e+05,1.8192e+08,4,0,0,15.83,0.04,30,68,0,0
4.6027e+05,1.8204e+08,4,0,0,15.83,0.04,30,68,0,0
4.6121e+05,1.8226e+08,4,0,0,15.83,0.04,30,68,0,0
4.6166e+05,1.8236e+08,4,0,0,15.84,0.04,30,68,0,0
4.6211e+05,1.8247e+08,4,0,0,15.84,0.04,30,68,0,0
4.6256e+05,1.8257e+08,4,0,0,15.85,0.04,30,68,0,0
4.6306e+05,1.8269e+08,4,0,0,15.85,0.04,30,68,0,0
