LineNo,TimeUS,Instance,RPM,RawRPM,Volt,Curr,Temp,CTot,MotTemp,Err
2237,6.9631e+07,5,0,0,16.58,0.03,25,0,0,0
2736,6.9747e+07,5,0,0,16.57,0.04,25,0,0,0
3188,6.985e+07,5,0,0,16.58,0.04,25,0,0,0
3681,6.9961e+07,5,0,0,16.57,0.03,25,0,0,0
4137,7.0065e+07,5,0,0,16.58,0.03,25,0,0,0
4590,7.0171e+07,5,0,0,16.58,0.03,25,0,0,0
5085,7.0284e+07,5,0,0,16.58,0.03,25,0,0,0
5541,7.0392e+07,5,0,0,16.58,0.03,25,0,0,0
5995,7.0496e+07,5,0,0,16.58,0.03,25,0,0,0
6442,7.0597e+07,5,0,0,16.58,0.04,25,0,0,0
6932,7.0712e+07,5,0,0,16.57,0.03,25,0,0,0
7388,7.0816e+07,5,0,0,16.57,0.03,25,0,0,0
7850,7.0929e+07,5,0,0,16.58,0.02,25,0,0,0
8307,7.103e+07,5,121,3328,16.56,0.1,25,0,0,0
8759,7.1135e+07,5,3220,814,16.54,0.26,25,0,0,0
9252,7.1247e+07,5,835,1171,16.55,0.14,25,0,0,0
9704,7.1353e+07,5,1177,1271,16.55,0.11,25,0,0,0
10159,7.1457e+07,5,1272,1314,16.55,0.11,25,0,0,0
10612,7.1564e+07,5,1314,1328,16.56,0.11,25,0,0,0
11109,7.1678e+07,5,1328,1328,16.55,0.11,25,0,0,0
11560,7.1784e+07,5,1328,1342,16.55,0.11,25,0,0,0
13010,7.2124e+07,5,1341,1328,16.57,0.1,25,0,0,0
13666,7.2334e+07,5,1519,2142,16.42,0.89,25,0,0,0
14120,7.2439e+07,5,2216,2928,16.22,1.58,25,0,0,0
14567,7.2546e+07,5,2989,3600,16.37,1.84,25,0,0,0
15019,7.2651e+07,5,3628,4057,16.05,2.44,25,0,0,0
15470,7.276e+07,5,4091,4885,15.72,3.82,25,0,0,0
15966,7.2873e+07,5,4955,5685,15.55,4.83,25,0,0,0
16416,7.2978e+07,5,5713,6014,15.64,4.27,25,0,0,0
16867,7.3085e+07,5,6029,6228,15.77,4.24,25,0,0,0
17279,7.3188e+07,5,6230,6285,15.7,4.4,25,0,0,0
17777,7.3309e+07,5,6295,6371,15.72,4.77,25,1,0,0
18183,7.3403e+07,5,6376,6700,15.63,5.21,25,1,0,0
18680,7.3523e+07,5,6686,6528,15.7,4.94,25,1,0,0
19133,7.3628e+07,5,6538,6671,15.68,5.82,25,1,0,0
19581,7.3735e+07,5,6684,6857,15.63,6.22,25,1,0,0
20080,7.3851e+07,5,6871,7028,15.66,6.26,25,1,0,0
20985,7.4065e+07,5,7011,6557,15.69,4.61,25,2,0,0
21395,7.4166e+07,5,6555,6442,15.71,4.37,25,2,0,0
21886,7.4276e+07,5,6441,6428,15.73,4.22,25,2,0,0
22383,7.4394e+07,5,6417,6300,15.71,4.18,26,2,0,0
22835,7.45e+07,5,6310,6457,15.72,4.3,25,2,0,0
23287,7.461e+07,5,6442,6228,15.73,3.87,26,2,0,0
23741,7.4723e+07,5,6226,6214,15.64,4.22,26,3,0,0
24145,7.4823e+07,5,6217,6414,15.64,4.62,26,3,0,0
24589,7.4931e+07,5,6415,6500,15.72,4.23,26,3,0,0
25048,7.5045e+07,5,6486,6300,15.73,4.06,26,3,0,0
25494,7.5158e+07,5,6292,6214,15.73,3.92,26,3,0,0
25940,7.5267e+07,5,6204,6100,15.69,3.72,26,3,0,0
26347,7.5371e+07,5,6107,6214,15.75,3.64,26,3,0,0
26801,7.5481e+07,5,6196,6014,15.62,4,26,3,0,0
27241,7.5587e+07,5,6024,6257,15.63,4.23,26,3,0,0
27692,7.5696e+07,5,6258,6285,15.57,4.7,26,4,0,0
28139,7.5808e+07,5,6291,6457,15.55,4.89,26,4,0,0
28591,7.592e+07,5,6470,6557,15.61,4.63,26,4,0,0
28995,7.6021e+07,5,6555,6542,15.65,4.7,26,4,0,0
29437,7.6131e+07,5,6540,6514,15.7,4.45,26,4,0,0
29841,7.6229e+07,5,6508,6300,15.66,4.48,26,4,0,0
30285,7.634e+07,5,6301,6357,15.73,4.16,26,5,0,0
30785,7.6464e+07,5,6349,6271,15.77,3.9,26,5,0,0
31184,7.6565e+07,5,6268,6228,15.76,3.81,26,5,0,0
31633,7.6674e+07,5,6215,5957,15.75,3.59,26,5,0,0
32087,7.6788e+07,5,5962,6042,15.84,3.61,26,5,0,0
32539,7.6897e+07,5,6035,5971,15.85,3.44,26,5,0,0
33431,7.7118e+07,5,5967,5828,15.87,3.22,26,5,0,0
33876,7.7227e+07,5,5808,5614,15.82,2.86,26,5,0,0
34324,7.7338e+07,5,5602,5485,15.91,3.06,26,5,0,0
34777,7.7446e+07,5,5490,5542,15.93,2.99,26,6,0,0
35219,7.7555e+07,5,5541,5528,15.68,3.41,26,6,0,0
35666,7.7663e+07,5,5532,5600,15.88,3.37,26,6,0,0
36148,7.7779e+07,5,5598,5585,15.85,3.42,26,6,0,0
36599,7.7886e+07,5,5592,5671,15.8,3.19,27,6,0,0
36964,7.7982e+07,5,5671,5671,15.73,3.31,27,6,0,0
37896,7.8204e+07,5,5673,5728,15.83,3.22,26,6,0,0
38345,7.8314e+07,5,5738,5842,15.8,3.34,27,6,0,0
38745,7.8413e+07,5,5840,5800,15.77,3.55,27,6,0,0
39190,7.8525e+07,5,5800,5828,15.8,3.28,27,7,0,0
39636,7.8633e+07,5,5826,5800,15.81,3.1,27,7,0,0
40084,7.8744e+07,5,5783,5557,15.75,2.92,27,7,0,0
40492,7.8848e+07,5,5558,5585,15.77,2.7,27,7,0,0
41827,7.9172e+07,5,5584,5557,15.77,3.08,27,7,0,0
42328,7.9301e+07,5,5560,5585,15.72,2.92,27,7,0,0
42732,7.9401e+07,5,5586,5600,15.75,3.02,27,7,0,0
43177,7.9513e+07,5,5602,5642,15.79,3.02,27,7,0,0
43992,7.972e+07,5,5642,5771,15.79,3.22,27,8,0,0
44439,7.9826e+07,5,5771,5828,15.72,3.01,27,8,0,0
44884,7.9933e+07,5,5830,5857,15.67,3.37,27,8,0,0
45336,8.0044e+07,5,5851,5800,15.77,3.22,27,8,0,0
45742,8.0147e+07,5,5796,5742,15.69,3.36,27,8,0,0
46187,8.0254e+07,5,5740,5700,15.77,3.12,27,8,0,0
46637,8.0368e+07,5,5700,5714,15.75,2.98,27,8,0,0
47083,8.0475e+07,5,5707,5571,15.72,2.96,27,8,0,0
47531,8.0587e+07,5,5580,5671,15.72,3.14,27,8,0,0
47985,8.0696e+07,5,5670,5642,15.74,2.68,27,8,0,0
48882,8.0921e+07,5,5645,5714,15.73,3.26,27,9,0,0
49327,8.1029e+07,5,5714,5728,15.73,2.77,27,9,0,0
49735,8.1134e+07,5,5708,5457,15.69,2.76,27,9,0,0
50185,8.1243e+07,5,5461,5557,15.77,2.8,27,9,0,0
50631,8.1356e+07,5,5560,5642,15.77,3.24,27,9,0,0
51115,8.1467e+07,5,5632,5528,15.71,2.97,27,9,0,0
51560,8.1577e+07,5,5530,5557,15.75,2.84,27,9,0,0
52009,8.1689e+07,5,5562,5600,15.82,2.85,27,9,0,0
52374,8.1781e+07,5,5597,5457,15.75,2.4,27,9,0,0
52863,8.19e+07,5,5459,5485,15.79,3.04,27,9,0,0
53311,8.2013e+07,5,5496,5600,15.78,3.08,27,10,0,0
53716,8.211e+07,5,5594,5457,15.82,2.46,27,10,0,0
54204,8.223e+07,5,5457,5457,15.72,2.53,27,10,0,0
54607,8.233e+07,5,5455,5371,15.73,2.76,27,10,0,0
55058,8.2447e+07,5,5392,5528,15.67,3.05,27,10,0,0
55462,8.2546e+07,5,5528,5600,15.76,3.12,27,10,0,0
55951,8.2662e+07,5,5593,5542,15.75,2.94,27,10,0,0
56323,8.2758e+07,5,5542,5600,15.64,3.36,27,10,0,0
56774,8.2867e+07,5,5594,5442,15.75,2.63,27,10,0,0
57262,8.2987e+07,5,5440,5428,15.77,2.58,27,10,0,0
57711,8.3098e+07,5,5425,5400,15.77,2.32,27,10,0,0
58150,8.3208e+07,5,5370,5100,15.63,2.35,27,10,0,0
58596,8.3322e+07,5,5107,5171,15.78,2.38,27,11,0,0
59010,8.3425e+07,5,5182,5271,15.73,2.78,27,11,0,0
59895,8.3637e+07,5,5285,5642,15.69,3.45,27,11,0,0
60340,8.3751e+07,5,5647,5714,15.71,3.69,27,11,0,0
60791,8.3856e+07,5,5718,5857,15.7,3.82,27,11,0,0
61198,8.3963e+07,5,5856,5842,15.72,3.79,27,11,0,0
62098,8.4182e+07,5,5844,5971,15.73,3.7,27,11,0,0
62543,8.4288e+07,5,5966,5728,15.76,3.18,27,11,0,0
63475,8.4516e+07,5,5720,5600,15.72,2.86,27,12,0,0
63920,8.4628e+07,5,5585,5428,15.75,3.1,27,12,0,0
64767,8.4834e+07,5,5427,5314,15.61,2.65,27,12,0,0
65211,8.4945e+07,5,5317,5400,15.74,2.7,27,12,0,0
65662,8.5054e+07,5,5401,5442,15.73,2.68,27,12,0,0
66103,8.5161e+07,5,5448,5600,15.66,3.01,27,12,0,0
66546,8.5266e+07,5,5601,5700,15.73,3.22,27,12,0,0
66990,8.5371e+07,5,5701,5757,15.63,3.19,27,12,0,0
67442,8.5483e+07,5,5748,5571,15.64,3.06,27,12,0,0
67893,8.5598e+07,5,5588,5757,15.67,3.21,27,13,0,0
68339,8.5705e+07,5,5748,5657,15.73,3.1,27,13,0,0
68785,8.5815e+07,5,5670,5800,15.64,3.41,27,13,0,0
69234,8.5926e+07,5,5808,5885,15.66,3.49,27,13,0,0
69639,8.6025e+07,5,5885,5885,15.72,3.1,27,13,0,0
70128,8.6143e+07,5,5883,5857,15.68,3.25,27,13,0,0
70533,8.6242e+07,5,5850,5742,15.64,3.45,27,13,0,0
70990,8.636e+07,5,5754,5885,15.7,3.04,27,13,0,0
71395,8.6457e+07,5,5883,5800,15.64,2.99,27,13,0,0
71882,8.6576e+07,5,5801,5828,15.56,3.75,27,13,0,0
72293,8.668e+07,5,5828,5871,15.6,3.79,27,13,0,0
72738,8.679e+07,5,5872,5914,15.67,3.06,27,14,0,0
73190,8.6898e+07,5,5911,5771,15.7,3.39,27,14,0,0
73639,8.7012e+07,5,5774,5814,15.68,3.17,27,14,0,0
74083,8.7121e+07,5,5815,5885,15.71,3.38,27,14,0,0
74539,8.7233e+07,5,5887,5914,15.66,3.31,27,14,0,0
75423,8.7446e+07,5,5899,5457,15.75,2.58,27,14,0,0
75865,8.7555e+07,5,5457,5457,15.65,2.54,27,14,0,0
76315,8.7664e+07,5,5439,5228,15.74,2.58,27,14,0,0
76755,8.7771e+07,5,5228,5228,15.75,2.24,27,14,0,0
77207,8.7882e+07,5,5228,5228,15.66,2.42,27,14,0,0
77610,8.7981e+07,5,5228,5257,15.77,2.48,27,15,0,0
78103,8.81e+07,5,5290,5642,15.7,3.21,27,15,0,0
78555,8.8209e+07,5,5649,5728,15.62,3.28,27,15,0,0
79405,8.8418e+07,5,5731,5885,15.64,3.82,27,15,0,0
79822,8.8525e+07,5,5883,5828,15.6,3.23,27,15,0,0
80316,8.8642e+07,5,5851,6071,15.55,4.21,27,15,0,0
80710,8.874e+07,5,6067,5871,15.6,3.83,27,15,0,0
81160,8.885e+07,5,5881,6128,15.45,4.07,27,15,0,0
81645,8.8963e+07,5,6104,5871,15.61,3.78,27,16,0,0
82095,8.9072e+07,5,5873,5914,15.6,3.73,27,16,0,0
82989,8.9291e+07,5,5912,5885,15.52,3.77,27,16,0,0
83915,8.9516e+07,5,5881,5785,15.65,3.29,27,16,0,0
84326,8.9619e+07,5,5785,5828,15.67,2.82,27,16,0,0
84777,8.9733e+07,5,5818,5685,15.62,3.19,27,16,0,0
85228,8.9842e+07,5,5710,5971,15.67,3.63,27,16,0,0
85632,8.9945e+07,5,5968,5857,15.58,3.63,27,16,0,0
86120,9.0058e+07,5,5872,6085,15.58,3.86,27,17,0,0
86568,9.0171e+07,5,6090,6142,15.47,4.14,28,17,0,0
87015,9.0278e+07,5,6121,5914,15.57,3.65,27,17,0,0
87422,9.0377e+07,5,5912,5871,15.67,3.36,27,17,0,0
87914,9.0496e+07,5,5857,5714,15.57,3.24,27,17,0,0
88320,9.0598e+07,5,5718,5957,15.65,3.31,27,17,0,0
88805,9.0717e+07,5,5952,5900,15.61,3.36,27,17,0,0
89702,9.0936e+07,5,5906,6100,15.59,3.75,27,17,0,0
90150,9.1045e+07,5,6087,5942,15.61,3.51,27,18,0,0
90553,9.115e+07,5,5944,6000,15.63,3.61,27,18,0,0
91004,9.1258e+07,5,5999,5942,15.67,3.21,27,18,0,0
91495,9.1376e+07,5,5925,5714,15.71,2.82,27,18,0,0
91949,9.1485e+07,5,5701,5557,15.69,3.33,28,18,0,0
92354,9.1587e+07,5,5566,5971,15.58,4.15,28,18,0,0
92811,9.1704e+07,5,5974,6057,15.6,4.28,27,18,0,0
93262,9.182e+07,5,6042,5885,15.54,4.06,27,18,0,0
93699,9.1923e+07,5,5874,5771,15.51,3.94,28,18,0,0
94149,9.2033e+07,5,5792,6071,15.5,4.48,28,19,0,0
94555,9.2137e+07,5,6074,6300,15.45,4.29,28,19,0,0
95009,9.2248e+07,5,6289,6042,15.6,3.75,27,19,0,0
95454,9.2356e+07,5,6043,6100,15.61,3.92,27,19,0,0
95898,9.2463e+07,5,6097,5942,15.7,3.17,27,19,0,0
96345,9.2574e+07,5,5940,5871,15.55,3.51,27,19,0,0
96835,9.2691e+07,5,5873,5900,15.66,3.46,27,19,0,0
97284,9.2803e+07,5,5903,5942,15.61,3.22,27,19,0,0
97729,9.2915e+07,5,5937,5828,15.66,2.93,28,19,0,0
98138,9.3015e+07,5,5820,5757,15.69,3.1,28,20,0,0
98583,9.3127e+07,5,5746,5614,15.7,2.81,27,20,0,0
98985,9.3223e+07,5,5612,5542,15.64,3.01,27,20,0,0
99438,9.3338e+07,5,5548,5642,15.63,3.09,28,20,0,0
99886,9.3445e+07,5,5640,5585,15.76,2.7,28,20,0,0
1.0033e+05,9.3555e+07,5,5564,5300,15.77,2.22,27,20,0,0
1.0078e+05,9.3662e+07,5,5299,5285,15.64,3.07,27,20,0,0
1.0123e+05,9.3777e+07,5,5298,5442,15.67,2.95,28,20,0,0
1.0168e+05,9.3883e+07,5,5452,5585,15.68,3.14,28,20,0,0
1.0208e+05,9.3987e+07,5,5589,5785,15.55,2.98,28,20,0,0
1.0258e+05,9.411e+07,5,5794,5857,15.52,3.3,28,20,0,0
1.0298e+05,9.4205e+07,5,5851,5714,15.6,2.97,28,21,0,0
1.0347e+05,9.4326e+07,5,5737,5942,15.45,4.34,28,21,0,0
1.0388e+05,9.4429e+07,5,5965,6271,15.51,4.27,28,21,0,0
1.0477e+05,9.4648e+07,5,6270,6242,15.48,3.87,27,21,0,0
1.0518e+05,9.4756e+07,5,6241,6185,15.49,3.7,28,21,0,0
1.0563e+05,9.4864e+07,5,6185,6242,15.51,3.8,28,21,0,0
1.0608e+05,9.4977e+07,5,6232,6100,15.58,3.93,28,21,0,0
1.0653e+05,9.5085e+07,5,6109,6242,15.55,3.87,28,22,0,0
1.0698e+05,9.5196e+07,5,6214,5928,15.63,3.33,28,22,0,0
1.0739e+05,9.5298e+07,5,5932,6028,15.58,3.5,28,22,0,0
1.0783e+05,9.5406e+07,5,6025,5957,15.63,3.34,28,22,0,0
1.0828e+05,9.5521e+07,5,5962,6014,15.6,3.03,28,22,0,0
1.0873e+05,9.5629e+07,5,6001,5871,15.46,3.64,28,22,0,0
1.0913e+05,9.573e+07,5,5874,5957,15.45,3.71,28,22,0,0
1.0958e+05,9.5841e+07,5,5956,5942,15.54,3.63,28,22,0,0
1.1048e+05,9.6061e+07,5,5943,5971,15.51,4.04,28,22,0,0
1.1089e+05,9.6165e+07,5,5964,5885,15.51,3.41,28,23,0,0
1.1134e+05,9.6272e+07,5,5882,5842,15.55,3.33,28,23,0,0
1.1174e+05,9.6376e+07,5,5839,5742,15.64,2.92,28,23,0,0
1.1267e+05,9.6601e+07,5,5741,5700,15.68,2.84,28,23,0,0
1.1308e+05,9.6705e+07,5,5695,5500,15.6,2.83,28,23,0,0
1.1353e+05,9.6812e+07,5,5504,5600,15.66,2.91,28,23,0,0
1.1398e+05,9.6927e+07,5,5607,5714,15.66,2.93,28,23,0,0
1.1443e+05,9.7038e+07,5,5716,5742,15.54,3.48,28,23,0,0
1.1483e+05,9.7138e+07,5,5745,5814,15.54,3.27,28,23,0,0
1.1532e+05,9.7256e+07,5,5812,5800,15.62,3.52,28,24,0,0
1.1572e+05,9.7358e+07,5,5798,5757,15.57,3.05,28,24,0,0
1.1622e+05,9.7475e+07,5,5750,5685,15.66,3.15,28,24,0,0
1.1662e+05,9.7577e+07,5,5691,5828,15.52,3.49,28,24,0,0
1.1706e+05,9.7686e+07,5,5826,5800,15.47,3.54,28,24,0,0
1.1747e+05,9.7792e+07,5,5806,6114,15.52,3.69,28,24,0,0
1.1796e+05,9.7913e+07,5,6067,5685,15.52,3.29,28,24,0,0
1.184e+05,9.8016e+07,5,5692,5800,15.6,3.47,28,24,0,0
1.1934e+05,9.8244e+07,5,5805,5914,15.53,3.38,28,24,0,0
1.1974e+05,9.8348e+07,5,5896,5700,15.63,2.97,28,25,0,0
1.2019e+05,9.8458e+07,5,5702,5728,15.52,3.37,28,25,0,0
1.2064e+05,9.8568e+07,5,5742,5885,15.55,3.31,28,25,0,0
1.2108e+05,9.8675e+07,5,5876,5757,15.47,3.27,28,25,0,0
1.2152e+05,9.8782e+07,5,5759,5800,15.58,3.25,28,25,0,0
1.2197e+05,9.8893e+07,5,5791,5685,15.56,3.29,28,25,0,0
1.2242e+05,9.9002e+07,5,5688,5728,15.54,3.22,28,25,0,0
1.2372e+05,9.932e+07,5,5727,5657,15.58,3.19,28,25,0,0
1.2416e+05,9.9429e+07,5,5657,5657,15.57,3.3,28,26,0,0
1.2505e+05,9.9646e+07,5,5657,5671,15.53,3.11,28,26,0,0
1.2546e+05,9.9755e+07,5,5671,5685,15.51,3.42,28,26,0,0
1.2591e+05,9.9864e+07,5,5679,5600,15.57,3.07,28,26,0,0
1.2636e+05,9.9983e+07,5,5601,5614,15.59,2.82,28,26,0,0
1.2677e+05,1.0008e+08,5,5607,5485,15.57,2.79,28,26,0,0
1.2722e+05,1.002e+08,5,5497,5614,15.61,2.92,28,26,0,0
1.2767e+05,1.0031e+08,5,5608,5571,15.58,2.95,28,26,0,0
1.2807e+05,1.0041e+08,5,5570,5542,15.61,2.85,28,26,0,0
1.2852e+05,1.0051e+08,5,5546,5657,15.52,3.19,28,26,0,0
1.2896e+05,1.0062e+08,5,5653,5614,15.6,3.33,28,27,0,0
1.2941e+05,1.0074e+08,5,5626,5771,15.5,3.45,28,27,0,0
1.2982e+05,1.0084e+08,5,5768,5757,15.53,3.6,28,27,0,0
1.3076e+05,1.0106e+08,5,5761,5871,15.64,3.15,28,27,0,0
1.3113e+05,1.0116e+08,5,5867,5642,15.57,3.09,28,27,0,0
1.3162e+05,1.0128e+08,5,5647,5785,15.57,3.16,28,27,0,0
1.3251e+05,1.015e+08,5,5777,5614,15.55,2.87,28,27,0,0
1.3292e+05,1.016e+08,5,5616,5757,15.52,2.83,28,27,0,0
1.334e+05,1.0172e+08,5,5745,5642,15.61,2.98,28,28,0,0
1.3381e+05,1.0182e+08,5,5643,5700,15.56,3.08,28,28,0,0
1.3514e+05,1.0215e+08,5,5703,5971,15.49,3.48,28,28,0,0
1.3564e+05,1.0226e+08,5,5961,5871,15.58,3.19,28,28,0,0
1.3604e+05,1.0237e+08,5,5878,6014,15.55,3.42,28,28,0,0
1.3649e+05,1.0247e+08,5,6010,5942,15.54,3.64,28,28,0,0
1.3694e+05,1.0259e+08,5,5941,5928,15.48,3.59,28,28,0,0
1.3739e+05,1.0269e+08,5,5936,6057,15.5,3.58,28,28,0,0
1.378e+05,1.028e+08,5,6052,6000,15.42,3.54,28,29,0,0
1.3825e+05,1.0291e+08,5,5993,5928,15.5,3.63,28,29,0,0
1.3869e+05,1.0302e+08,5,5939,6057,15.54,3.48,28,29,0,0
1.3958e+05,1.0324e+08,5,6053,5942,15.55,3.15,28,29,0,0
1.4003e+05,1.0335e+08,5,5930,5814,15.51,3.2,28,29,0,0
1.4048e+05,1.0345e+08,5,5816,5871,15.48,3.38,28,29,0,0
1.4088e+05,1.0356e+08,5,5871,5871,15.51,3.2,28,29,0,0
1.4138e+05,1.0367e+08,5,5869,5857,15.45,3.26,28,29,0,0
1.4178e+05,1.0377e+08,5,5856,5814,15.57,3.11,28,29,0,0
1.4227e+05,1.0389e+08,5,5825,5942,15.51,3.17,28,30,0,0
1.4267e+05,1.0399e+08,5,5938,5728,15.55,2.74,28,30,0,0
1.4312e+05,1.0411e+08,5,5725,5700,15.48,3.31,28,30,0,0
1.4356e+05,1.0421e+08,5,5706,5828,15.52,3.23,28,30,0,0
1.4402e+05,1.0432e+08,5,5830,5885,15.47,3.56,28,30,0,0
1.4443e+05,1.0443e+08,5,5885,5885,15.44,3.85,28,30,0,0
1.4486e+05,1.0453e+08,5,5877,5800,15.51,3.32,28,30,0,0
1.4531e+05,1.0464e+08,5,5800,5814,15.44,3.23,28,30,0,0
1.4575e+05,1.0474e+08,5,5811,5728,15.53,3.22,28,30,0,0
1.462e+05,1.0485e+08,5,5735,5885,15.51,3.18,28,30,0,0
1.4665e+05,1.0497e+08,5,5877,5771,15.52,3.34,28,30,0,0
1.471e+05,1.0508e+08,5,5760,5657,15.53,3.2,28,31,0,0
1.475e+05,1.0518e+08,5,5660,5857,15.41,3.45,28,31,0,0
1.4799e+05,1.0529e+08,5,5847,5714,15.54,3.32,28,31,0,0
1.484e+05,1.054e+08,5,5723,5857,15.46,3.36,28,31,0,0
1.4885e+05,1.055e+08,5,5854,5728,15.44,3.65,28,31,0,0
1.4929e+05,1.0561e+08,5,5739,5885,15.44,3.72,28,31,0,0
1.497e+05,1.0572e+08,5,5890,6014,15.5,3.55,28,31,0,0
1.5015e+05,1.0583e+08,5,5997,5785,15.37,3.51,28,31,0,0
1.5059e+05,1.0594e+08,5,5791,5885,15.43,4.16,28,31,0,0
1.5104e+05,1.0605e+08,5,5892,6071,15.42,4.06,28,32,0,0
1.5149e+05,1.0616e+08,5,6067,6000,15.4,3.59,28,32,0,0
1.5198e+05,1.0627e+08,5,5996,5957,15.38,4.01,28,32,0,0
1.5239e+05,1.0638e+08,5,5967,6100,15.38,4.07,28,32,0,0
1.5284e+05,1.0649e+08,5,6098,6057,15.42,3.78,28,32,0,0
1.5329e+05,1.066e+08,5,6060,6157,15.48,3.78,28,32,0,0
1.5378e+05,1.0672e+08,5,6146,6057,15.39,3.71,28,32,0,0
1.5422e+05,1.0683e+08,5,6060,6100,15.47,3.92,28,32,0,0
1.5462e+05,1.0693e+08,5,6101,6171,15.41,4.16,28,33,0,0
1.5507e+05,1.0703e+08,5,6160,5957,15.37,3.29,28,33,0,0
1.5548e+05,1.0714e+08,5,5958,6042,15.38,3.53,28,33,0,0
1.5596e+05,1.0725e+08,5,6031,5814,15.5,2.89,28,33,0,0
1.5641e+05,1.0737e+08,5,5800,5614,15.54,2.76,28,33,0,0
1.5686e+05,1.0748e+08,5,5607,5457,15.54,2.5,28,33,0,0
1.573e+05,1.0758e+08,5,5460,5514,15.54,2.72,28,33,0,0
1.5819e+05,1.078e+08,5,5520,5714,15.45,3.11,28,33,0,0
1.5864e+05,1.0792e+08,5,5693,5514,15.48,3.09,28,33,0,0
1.5909e+05,1.0803e+08,5,5545,5742,15.54,3.08,28,33,0,0
1.595e+05,1.0813e+08,5,5729,5571,15.45,2.87,28,34,0,0
1.5995e+05,1.0824e+08,5,5557,5442,15.57,2.48,28,34,0,0
1.6036e+05,1.0835e+08,5,5443,5457,15.55,2.9,28,34,0,0
1.6077e+05,1.0845e+08,5,5462,5585,15.36,3,28,34,0,0
1.6122e+05,1.0856e+08,5,5596,5714,15.42,3.54,28,34,0,0
1.6167e+05,1.0867e+08,5,5705,5614,15.44,2.97,28,34,0,0
1.621e+05,1.0878e+08,5,5611,5571,15.48,2.78,28,34,0,0
1.6255e+05,1.0888e+08,5,5573,5628,15.43,3.4,28,34,0,0
1.63e+05,1.0899e+08,5,5625,5585,15.52,2.92,28,34,0,0
1.6344e+05,1.091e+08,5,5585,5585,15.47,2.57,28,34,0,0
1.639e+05,1.0921e+08,5,5575,5471,15.53,2.83,28,34,0,0
1.6434e+05,1.0932e+08,5,5498,5728,15.51,3.21,28,35,0,0
1.6475e+05,1.0942e+08,5,5731,5771,15.5,3.35,28,35,0,0
1.6519e+05,1.0953e+08,5,5775,5842,15.48,3.56,28,35,0,0
1.6568e+05,1.0966e+08,5,5850,5942,15.39,3.68,28,35,0,0
1.6654e+05,1.0986e+08,5,5945,6028,15.41,3.57,28,35,0,0
1.6698e+05,1.0998e+08,5,5995,5771,15.39,3.47,28,35,0,0
1.6739e+05,1.1007e+08,5,5784,6071,15.44,3.72,28,35,0,0
1.678e+05,1.1018e+08,5,6066,5857,15.44,3.39,28,35,0,0
1.6873e+05,1.1041e+08,5,5859,5885,15.41,3.2,28,36,0,0
1.6962e+05,1.1062e+08,5,5880,5771,15.47,3.2,28,36,0,0
1.7006e+05,1.1073e+08,5,5772,5785,15.41,3.84,28,36,0,0
1.714e+05,1.1106e+08,5,5796,6157,15.42,4.11,28,36,0,0
1.7185e+05,1.1117e+08,5,6161,6214,15.43,4.11,28,36,0,0
1.7274e+05,1.1139e+08,5,6214,6228,15.47,4.06,28,37,0,0
1.7319e+05,1.1149e+08,5,6226,6214,15.5,3.99,28,37,0,0
1.7359e+05,1.1159e+08,5,6207,6157,15.42,4.04,28,37,0,0
1.7404e+05,1.1171e+08,5,6155,6142,15.45,3.71,28,37,0,0
1.7448e+05,1.1181e+08,5,6120,5914,15.41,3.73,28,37,0,0
1.7533e+05,1.1202e+08,5,5914,5985,15.48,3.76,28,37,0,0
1.7578e+05,1.1214e+08,5,5999,6085,15.39,3.86,28,37,0,0
1.7623e+05,1.1224e+08,5,6076,5985,15.41,3.87,28,38,0,0
1.7668e+05,1.1235e+08,5,5992,6071,15.44,3.84,28,38,0,0
1.7708e+05,1.1245e+08,5,6058,5942,15.42,3.61,28,38,0,0
1.7753e+05,1.1256e+08,5,5939,5914,15.42,3.67,28,38,0,0
1.7797e+05,1.1266e+08,5,5911,5814,15.45,3.21,28,38,0,0
1.7846e+05,1.1279e+08,5,5816,5842,15.41,4.06,28,38,0,0
1.7887e+05,1.1288e+08,5,5841,5828,15.43,3.4,28,38,0,0
1.7931e+05,1.13e+08,5,5843,6057,15.36,3.88,28,38,0,0
1.8065e+05,1.1332e+08,5,6051,5914,15.45,3.58,28,39,0,0
1.8106e+05,1.1343e+08,5,5907,5800,15.51,3.62,28,39,0,0
1.8146e+05,1.1353e+08,5,5802,5928,15.5,3.93,28,39,0,0
1.8195e+05,1.1365e+08,5,5928,6000,15.48,3.7,28,39,0,0
1.8284e+05,1.1386e+08,5,5999,5985,15.44,3.76,28,39,0,0
1.8324e+05,1.1397e+08,5,5985,6014,15.44,4.11,28,39,0,0
1.8415e+05,1.142e+08,5,6015,6057,15.5,3.73,28,40,0,0
1.8463e+05,1.1431e+08,5,6049,5971,15.35,3.8,28,40,0,0
1.8504e+05,1.1441e+08,5,5969,5857,15.38,3.5,28,40,0,0
1.8593e+05,1.1463e+08,5,5861,5971,15.43,3.68,28,40,0,0
1.8637e+05,1.1474e+08,5,5960,5857,15.47,3.51,28,40,0,0
1.8682e+05,1.1485e+08,5,5854,5828,15.39,3.27,28,40,0,0
1.8722e+05,1.1495e+08,5,5829,5928,15.43,3.37,28,40,0,0
1.8772e+05,1.1507e+08,5,5915,5785,15.42,3.6,28,40,0,0
1.8811e+05,1.1517e+08,5,5783,5742,15.41,3.28,28,41,0,0
1.8861e+05,1.1529e+08,5,5746,5800,15.46,3.36,28,41,0,0
1.8901e+05,1.1539e+08,5,5797,5757,15.38,3.33,28,41,0,0
1.8946e+05,1.155e+08,5,5763,5928,15.39,3.84,28,41,0,0
1.899e+05,1.1561e+08,5,5927,5914,15.3,3.77,28,41,0,0
1.9035e+05,1.1572e+08,5,5921,6100,15.36,4.07,28,41,0,0
1.908e+05,1.1582e+08,5,6102,6157,15.34,4.09,28,41,0,0
1.9125e+05,1.1594e+08,5,6155,6128,15.42,3.72,28,41,0,0
1.9169e+05,1.1604e+08,5,6119,5957,15.41,3.69,28,41,0,0
1.9215e+05,1.1616e+08,5,5961,6171,15.34,4.05,28,42,0,0
1.926e+05,1.1626e+08,5,6167,6100,15.35,4.03,28,42,0,0
1.9308e+05,1.1638e+08,5,6106,6171,15.33,4.03,28,42,0,0
1.9353e+05,1.1649e+08,5,6172,6185,15.29,4.26,28,42,0,0
1.9393e+05,1.1659e+08,5,6184,6171,15.32,4.17,28,42,0,0
1.9438e+05,1.167e+08,5,6175,6257,15.32,4.21,28,42,0,0
1.9482e+05,1.1681e+08,5,6261,6328,15.3,4.61,28,42,0,0
1.9571e+05,1.1703e+08,5,6330,6385,15.35,4.29,28,43,0,0
1.9613e+05,1.1714e+08,5,6357,6085,15.33,4.47,28,43,0,0
1.9654e+05,1.1724e+08,5,6090,6200,15.34,4.26,28,43,0,0
1.9698e+05,1.1736e+08,5,6192,6085,15.35,3.63,28,43,0,0
1.9739e+05,1.1746e+08,5,6069,5871,15.39,3.8,28,43,0,0
1.9784e+05,1.1757e+08,5,5870,5857,15.34,3.25,28,43,0,0
1.9829e+05,1.1768e+08,5,5846,5742,15.39,2.74,28,43,0,0
1.9869e+05,1.1778e+08,5,5733,5557,15.49,2.6,28,43,0,0
1.9914e+05,1.1789e+08,5,5557,5585,15.41,3.14,28,43,0,0
1.9962e+05,1.1801e+08,5,5597,5728,15.36,3.19,28,44,0,0
2.0007e+05,1.1812e+08,5,5707,5414,15.42,2.68,28,44,0,0
2.0136e+05,1.1844e+08,5,5419,5742,15.45,3.37,28,44,0,0
2.018e+05,1.1854e+08,5,5743,5785,15.36,3.37,28,44,0,0
2.0229e+05,1.1866e+08,5,5792,5871,15.35,3.87,28,44,0,0
2.0269e+05,1.1876e+08,5,5866,5800,15.41,3.67,28,44,0,0
2.0314e+05,1.1887e+08,5,5802,5828,15.35,3.69,28,44,0,0
2.0359e+05,1.1898e+08,5,5845,6028,15.39,3.68,28,44,0,0
2.0404e+05,1.1909e+08,5,6025,6000,15.44,3.79,29,45,0,0
2.0448e+05,1.192e+08,5,5996,5957,15.45,3.42,28,45,0,0
2.0489e+05,1.1931e+08,5,5956,5942,15.43,3.33,28,45,0,0
2.0534e+05,1.1942e+08,5,5939,5900,15.36,3.9,28,45,0,0
2.0623e+05,1.1963e+08,5,5905,6057,15.33,3.77,28,45,0,0
2.0663e+05,1.1973e+08,5,6052,5814,15.39,3.67,28,45,0,0
2.0711e+05,1.1985e+08,5,5823,5942,15.36,3.63,28,45,0,0
2.0755e+05,1.1995e+08,5,5944,6028,15.39,3.65,28,46,0,0
2.0804e+05,1.2007e+08,5,6027,6014,15.36,3.59,28,46,0,0
2.0848e+05,1.2018e+08,5,6002,5857,15.36,3.62,28,46,0,0
2.0893e+05,1.2029e+08,5,5871,6014,15.35,3.83,28,46,0,0
2.0934e+05,1.2039e+08,5,6014,6028,15.35,3.98,28,46,0,0
2.0979e+05,1.205e+08,5,6030,6057,15.34,3.91,29,46,0,0
2.1024e+05,1.2061e+08,5,6046,5942,15.36,3.63,28,46,0,0
2.1064e+05,1.2072e+08,5,5941,5885,15.3,4.06,29,46,0,0
2.1108e+05,1.2083e+08,5,5887,6000,15.39,3.53,28,46,0,0
2.1157e+05,1.2095e+08,5,6000,6000,15.32,4.16,28,46,0,0
2.1197e+05,1.2104e+08,5,5999,5971,15.39,3.91,29,47,0,0
2.1246e+05,1.2116e+08,5,5980,6057,15.4,3.97,28,47,0,0
2.1286e+05,1.2126e+08,5,6055,5971,15.35,3.67,28,47,0,0
2.1331e+05,1.2138e+08,5,5973,6000,15.33,3.62,29,47,0,0
2.1417e+05,1.2159e+08,5,5998,5942,15.43,3.58,28,47,0,0
2.1465e+05,1.2171e+08,5,5948,6000,15.32,3.85,28,47,0,0
2.1506e+05,1.2181e+08,5,5989,5885,15.41,3.55,28,47,0,0
2.1554e+05,1.2193e+08,5,5889,5928,15.4,3.42,29,48,0,0
2.1594e+05,1.2203e+08,5,5926,5914,15.39,3.53,29,48,0,0
2.1639e+05,1.2214e+08,5,5904,5814,15.38,3.27,29,48,0,0
2.168e+05,1.2224e+08,5,5814,5828,15.36,3.33,29,48,0,0
2.1728e+05,1.2236e+08,5,5844,6028,15.32,4.04,28,48,0,0
2.1773e+05,1.2247e+08,5,6026,6014,15.35,3.76,29,48,0,0
2.1813e+05,1.2257e+08,5,6015,6071,15.35,4.06,29,48,0,0
2.1858e+05,1.2268e+08,5,6067,5985,15.28,3.77,29,48,0,0
2.1899e+05,1.2279e+08,5,5966,5728,15.39,3.06,29,48,0,0
2.1944e+05,1.229e+08,5,5728,5728,15.34,3.09,29,48,0,0
2.2081e+05,1.2323e+08,5,5729,5771,15.36,2.94,29,49,0,0
2.2121e+05,1.2333e+08,5,5761,5600,15.41,3.05,29,49,0,0
2.2166e+05,1.2344e+08,5,5598,5585,15.45,2.8,28,49,0,0
2.221e+05,1.2355e+08,5,5586,5628,15.35,3.18,29,49,0,0
2.2255e+05,1.2366e+08,5,5628,5628,15.43,3.04,28,49,0,0
2.2295e+05,1.2376e+08,5,5628,5628,15.42,2.78,28,49,0,0
2.2344e+05,1.2388e+08,5,5625,5585,15.46,2.91,29,49,0,0
2.2389e+05,1.2399e+08,5,5590,5642,15.42,3.19,29,49,0,0
2.2434e+05,1.241e+08,5,5646,5742,15.36,3.46,29,50,0,0
2.2479e+05,1.2421e+08,5,5745,5800,15.36,3.46,29,50,0,0
2.2519e+05,1.2431e+08,5,5796,5728,15.36,3.37,29,50,0,0
2.256e+05,1.2442e+08,5,5729,5800,15.36,3.64,29,50,0,0
2.2609e+05,1.2453e+08,5,5817,6000,15.33,3.68,29,50,0,0
2.2649e+05,1.2464e+08,5,5996,5814,15.31,3.41,29,50,0,0
2.2697e+05,1.2475e+08,5,5822,5985,15.33,4.44,29,50,0,0
2.2742e+05,1.2486e+08,5,5979,5900,15.39,3.13,29,50,0,0
2.2786e+05,1.2497e+08,5,5892,5728,15.34,3.26,29,50,0,0
2.2832e+05,1.2508e+08,5,5714,5585,15.35,3.05,29,51,0,0
2.2876e+05,1.2519e+08,5,5588,5628,15.36,3.04,29,51,0,0
2.2921e+05,1.253e+08,5,5626,5614,15.41,3.09,29,51,0,0
2.2961e+05,1.254e+08,5,5612,5528,15.39,2.95,29,51,0,0
2.3005e+05,1.2551e+08,5,5528,5542,15.41,2.86,29,51,0,0
2.3051e+05,1.2562e+08,5,5540,5500,15.44,2.83,29,51,0,0
2.3098e+05,1.2573e+08,5,5501,5528,15.38,2.78,29,51,0,0
2.3144e+05,1.2584e+08,5,5534,5600,15.41,3.04,29,51,0,0
2.3185e+05,1.2595e+08,5,5597,5571,15.37,2.95,29,51,0,0
2.3226e+05,1.2605e+08,5,5581,5800,15.38,3.3,29,51,0,0
2.327e+05,1.2616e+08,5,5799,5771,15.42,3.22,29,51,0,0
2.3319e+05,1.2627e+08,5,5769,5757,15.43,3.03,29,52,0,0
2.3363e+05,1.2639e+08,5,5747,5614,15.44,3.21,29,52,0,0
2.3496e+05,1.2672e+08,5,5618,5757,15.43,3.3,29,52,0,0
2.3537e+05,1.2682e+08,5,5759,5900,15.37,3.53,29,52,0,0
2.3631e+05,1.2705e+08,5,5890,5671,15.33,2.96,29,52,0,0
2.3676e+05,1.2716e+08,5,5678,5785,15.41,3.09,29,52,0,0
2.372e+05,1.2727e+08,5,5772,5600,15.37,3.36,29,52,0,0
2.3765e+05,1.2739e+08,5,5609,5714,15.36,3.36,29,53,0,0
2.3806e+05,1.2749e+08,5,5726,5885,15.44,3.2,29,53,0,0
2.385e+05,1.276e+08,5,5868,5700,15.41,3.41,29,53,0,0
2.3895e+05,1.2771e+08,5,5698,5685,15.4,3.18,29,53,0,0
2.3935e+05,1.2781e+08,5,5685,5728,15.34,3.38,29,53,0,0
2.398e+05,1.2792e+08,5,5715,5628,15.37,3.72,28,53,0,0
2.4025e+05,1.2803e+08,5,5640,5828,15.4,3.29,29,53,0,0
2.4065e+05,1.2813e+08,5,5824,5742,15.33,3.44,29,53,0,0
2.4114e+05,1.2825e+08,5,5731,5614,15.39,3.23,29,53,0,0
2.4199e+05,1.2846e+08,5,5616,5728,15.4,3.26,29,54,0,0
2.4244e+05,1.2857e+08,5,5725,5700,15.36,3.58,29,54,0,0
2.4288e+05,1.2868e+08,5,5709,5857,15.39,3.2,28,54,0,0
2.4333e+05,1.2879e+08,5,5857,5857,15.38,3.65,29,54,0,0
2.4378e+05,1.289e+08,5,5862,5942,15.33,3.59,29,54,0,0
2.4422e+05,1.2901e+08,5,5939,5885,15.33,3.5,29,54,0,0
2.4468e+05,1.2912e+08,5,5885,5885,15.27,3.84,29,54,0,0
2.4485e+05,1.2923e+08,5,5881,5857,15.38,3.51,29,54,0,0
2.4525e+05,1.2933e+08,5,5865,5928,15.41,3.15,29,54,0,0
2.457e+05,1.2944e+08,5,5929,5942,15.33,3.47,29,54,0,0
2.4615e+05,1.2956e+08,5,5957,6042,15.36,3.88,29,55,0,0
2.4656e+05,1.2965e+08,5,6035,5942,15.38,3.9,29,55,0,0
2.4696e+05,1.2976e+08,5,5940,5914,15.41,3.5,28,55,0,0
2.4741e+05,1.2987e+08,5,5914,5914,15.42,3.46,29,55,0,0
2.4785e+05,1.2998e+08,5,5914,5914,15.24,3.94,29,55,0,0
2.4831e+05,1.301e+08,5,5912,5900,15.32,4.18,29,55,0,0
2.4876e+05,1.302e+08,5,5901,5914,15.33,4.3,28,55,0,0
2.4964e+05,1.3041e+08,5,5916,5971,15.26,3.77,28,55,0,0
2.5009e+05,1.3053e+08,5,6005,6228,15.23,4.66,29,56,0,0
2.505e+05,1.3063e+08,5,6205,6085,15.32,3.89,29,56,0,0
2.509e+05,1.3073e+08,5,6082,5900,15.35,3.52,28,56,0,0
2.5135e+05,1.3084e+08,5,5899,5885,15.38,3.39,29,56,0,0
2.5179e+05,1.3096e+08,5,5888,5928,15.33,3.44,28,56,0,0
2.5225e+05,1.3107e+08,5,5914,5800,15.41,3.06,28,56,0,0
2.5266e+05,1.3117e+08,5,5804,5857,15.39,3.65,29,56,0,0
2.531e+05,1.3128e+08,5,5860,5900,15.3,3.34,29,56,0,0
2.5355e+05,1.314e+08,5,5896,5857,15.29,4.09,29,56,0,0
2.54e+05,1.315e+08,5,5875,6028,15.29,3.52,29,57,0,0
2.5444e+05,1.3161e+08,5,6026,6014,15.29,3.52,29,57,0,0
2.5489e+05,1.3172e+08,5,5997,5771,15.45,2.86,29,57,0,0
2.5574e+05,1.3193e+08,5,5770,5742,15.38,3.22,29,57,0,0
2.5618e+05,1.3204e+08,5,5741,5685,15.36,2.65,29,57,0,0
2.5662e+05,1.3215e+08,5,5685,5700,15.38,2.98,29,57,0,0
2.5707e+05,1.3226e+08,5,5701,5728,15.38,3.04,29,57,0,0
2.5752e+05,1.3237e+08,5,5739,5857,15.35,3.39,29,57,0,0
2.5792e+05,1.3247e+08,5,5855,5742,15.41,2.86,29,57,0,0
2.5836e+05,1.3258e+08,5,5742,5785,15.29,3.26,29,58,0,0
2.5881e+05,1.3269e+08,5,5797,5957,15.29,3.67,29,58,0,0
2.5926e+05,1.3279e+08,5,5951,5800,15.23,3.53,29,58,0,0
2.5971e+05,1.3291e+08,5,5817,5971,15.33,3.39,29,58,0,0
2.6015e+05,1.3302e+08,5,5957,5814,15.34,3.4,29,58,0,0
2.6064e+05,1.3313e+08,5,5819,5871,15.36,3.14,29,58,0,0
2.6108e+05,1.3324e+08,5,5855,5714,15.47,2.95,29,58,0,0
2.6148e+05,1.3334e+08,5,5711,5542,15.48,2.97,28,58,0,0
2.6197e+05,1.3346e+08,5,5531,5385,15.45,2.56,29,58,0,0
2.6238e+05,1.3356e+08,5,5388,5614,15.39,3.09,29,58,0,0
2.6287e+05,1.3367e+08,5,5612,5585,15.33,2.89,29,59,0,0
2.6331e+05,1.3379e+08,5,5579,5528,15.42,2.86,29,59,0,0
2.6376e+05,1.3389e+08,5,5526,5514,15.45,3.11,29,59,0,0
2.642e+05,1.34e+08,5,5505,5385,15.42,2.79,28,59,0,0
2.6465e+05,1.3411e+08,5,5398,5514,15.36,2.79,29,59,0,0
2.6554e+05,1.3433e+08,5,5514,5514,15.39,2.88,29,59,0,0
2.6599e+05,1.3444e+08,5,5523,5657,15.38,3.12,29,59,0,0
2.664e+05,1.3454e+08,5,5634,5428,15.49,2.44,29,59,0,0
2.6684e+05,1.3465e+08,5,5401,5157,15.48,2.17,29,59,0,0
2.6724e+05,1.3475e+08,5,5156,5142,15.42,2,29,59,0,0
2.6817e+05,1.3498e+08,5,5147,5314,15.26,3.01,29,60,0,0
2.6902e+05,1.3519e+08,5,5319,5771,15.3,3.82,29,60,0,0
2.6952e+05,1.3531e+08,5,5769,5757,15.35,3.32,29,60,0,0
2.6992e+05,1.3541e+08,5,5767,5900,15.36,3.58,28,60,0,0
2.7037e+05,1.3552e+08,5,5891,5800,15.37,3.28,29,60,0,0
2.7082e+05,1.3563e+08,5,5797,5771,15.35,3.3,29,60,0,0
2.7127e+05,1.3575e+08,5,5765,5714,15.33,3.86,28,60,0,0
2.7171e+05,1.3585e+08,5,5740,6014,15.22,4.02,29,60,0,0
2.7212e+05,1.3596e+08,5,6014,6057,15.33,3.91,29,61,0,0
2.7261e+05,1.3607e+08,5,6038,5842,15.32,3.72,29,61,0,0
2.7305e+05,1.3618e+08,5,5855,5985,15.32,3.57,29,61,0,0
2.735e+05,1.3629e+08,5,5974,5871,15.39,3.23,29,61,0,0
2.7386e+05,1.3639e+08,5,5870,5828,15.34,3.2,28,61,0,0
2.7435e+05,1.3651e+08,5,5818,5742,15.38,2.79,28,61,0,0
2.7475e+05,1.3661e+08,5,5743,5828,15.4,3.02,28,61,0,0
2.7524e+05,1.3673e+08,5,5812,5685,15.4,2.97,28,61,0,0
2.7565e+05,1.3683e+08,5,5718,6057,15.34,3.9,28,61,0,0
2.7605e+05,1.3693e+08,5,6058,6085,15.34,3.94,29,61,0,0
2.7654e+05,1.3705e+08,5,6101,6357,15.3,4.21,29,62,0,0
2.7699e+05,1.3716e+08,5,6354,6300,15.33,4.42,29,62,0,0
2.7743e+05,1.3726e+08,5,6314,6500,15.22,4.66,28,62,0,0
2.7785e+05,1.3737e+08,5,6519,6714,15.31,4.4,29,62,0,0
2.7829e+05,1.3747e+08,5,6705,6514,15.28,4.31,29,62,0,0
2.7874e+05,1.3759e+08,5,6526,6657,15.32,4.77,28,62,0,0
2.7963e+05,1.3781e+08,5,6660,6800,15.16,6.06,29,62,0,0
2.8007e+05,1.3792e+08,5,6795,6742,15.19,5.62,29,63,0,0
2.8048e+05,1.3802e+08,5,6751,7300,15.11,6.11,29,63,0,0
2.8096e+05,1.3813e+08,5,7262,6757,15.17,6.25,29,63,0,0
2.8141e+05,1.3825e+08,5,6765,6885,15.06,6.12,28,63,0,0
2.8186e+05,1.3835e+08,5,6868,6657,15.02,5.85,29,63,0,0
2.8231e+05,1.3847e+08,5,6664,6742,15.04,5.22,29,64,0,0
2.8275e+05,1.3858e+08,5,6762,7042,15.2,6.24,28,64,0,0
2.832e+05,1.3869e+08,5,7006,6628,14.83,5.7,29,64,0,0
2.8361e+05,1.3879e+08,5,6643,6857,15.13,6.3,29,64,0,0
2.8406e+05,1.389e+08,5,6857,6857,15.13,6.2,29,64,0,0
2.845e+05,1.3901e+08,5,6853,6800,15.19,5.26,29,64,0,0
2.849e+05,1.3912e+08,5,6793,6614,15.22,4.42,29,65,0,0
2.8539e+05,1.3923e+08,5,6607,6542,15.3,4.11,29,65,0,0
2.8579e+05,1.3933e+08,5,6534,6385,15.23,4.48,29,65,0,0
2.8625e+05,1.3945e+08,5,6365,6171,15.31,4.25,29,65,0,0
2.8669e+05,1.3955e+08,5,6157,6014,15.28,3.46,29,65,0,0
2.8714e+05,1.3966e+08,5,6042,6357,15.24,4.97,29,65,0,0
2.8754e+05,1.3976e+08,5,6345,6128,15.29,3.8,29,65,0,0
2.8799e+05,1.3988e+08,5,6118,5985,15.27,3.39,29,66,0,0
2.884e+05,1.3999e+08,5,5984,5942,15.33,3.52,29,66,0,0
2.8885e+05,1.4009e+08,5,5945,6042,15.35,3.83,29,66,0,0
2.893e+05,1.4021e+08,5,6032,5885,15.29,3.8,29,66,0,0
2.8975e+05,1.4031e+08,5,5895,6000,15.26,3.83,29,66,0,0
2.9019e+05,1.4043e+08,5,6009,6114,15.27,4.12,29,66,0,0
2.9063e+05,1.4054e+08,5,6114,6142,15.33,4.13,29,66,0,0
2.9108e+05,1.4065e+08,5,6150,6242,15.3,4.44,29,66,0,0
2.9148e+05,1.4075e+08,5,6244,6285,15.3,4.05,29,67,0,0
2.9193e+05,1.4086e+08,5,6291,6371,15.27,4.93,29,67,0,0
2.9234e+05,1.4097e+08,5,6369,6342,15.32,4.27,29,67,0,0
2.9279e+05,1.4107e+08,5,6338,6257,15.34,3.74,29,67,0,0
2.9324e+05,1.4119e+08,5,6236,6057,15.29,3.55,29,67,0,0
2.9368e+05,1.413e+08,5,6061,6100,15.24,3.91,29,67,0,0
2.9409e+05,1.414e+08,5,6083,5942,15.35,3.59,29,67,0,0
2.9454e+05,1.4151e+08,5,5929,5757,15.35,3.53,29,67,0,0
2.9498e+05,1.4162e+08,5,5751,5700,15.3,3.1,29,67,0,0
2.9538e+05,1.4172e+08,5,5699,5685,15.31,3.47,29,67,0,0
2.9583e+05,1.4183e+08,5,5685,5700,15.3,3.42,29,68,0,0
2.9628e+05,1.4194e+08,5,5703,5742,15.35,3.06,29,68,0,0
2.9673e+05,1.4205e+08,5,5724,5371,15.27,2.77,29,68,0,0
2.9717e+05,1.4216e+08,5,5396,5685,15.36,3.6,29,68,0,0
2.9762e+05,1.4227e+08,5,5699,5814,15.26,3.46,29,68,0,0
2.9806e+05,1.4238e+08,5,5811,5785,15.33,3.45,29,68,0,0
2.9847e+05,1.4248e+08,5,5786,5885,15.3,3.81,29,68,0,0
2.9936e+05,1.427e+08,5,5889,6057,15.29,4.42,29,68,0,0
2.9981e+05,1.4281e+08,5,6067,6185,15.29,4.45,29,69,0,0
3.0025e+05,1.4293e+08,5,6187,6214,15.32,4.79,29,69,0,0
3.0062e+05,1.4302e+08,5,6217,6371,15.22,4.93,29,69,0,0
3.0152e+05,1.4324e+08,5,6373,6485,15.27,4.92,29,69,0,0
3.02e+05,1.4335e+08,5,6487,6514,15.32,4.35,29,69,0,0
3.0245e+05,1.4346e+08,5,6494,6285,15.25,4.18,29,70,0,0
3.0289e+05,1.4357e+08,5,6278,6214,15.25,4.59,29,70,0,0
3.0334e+05,1.4368e+08,5,6215,6228,15.27,4.42,29,70,0,0
3.0374e+05,1.4378e+08,5,6225,6100,15.35,4,29,70,0,0
3.0419e+05,1.4389e+08,5,6097,6057,15.26,3.96,29,70,0,0
3.0464e+05,1.4401e+08,5,6045,5885,15.35,3.77,29,70,0,0
3.0549e+05,1.4422e+08,5,5884,5857,15.22,3.59,29,70,0,0
3.0598e+05,1.4434e+08,5,5850,5800,15.3,3.44,29,70,0,0
3.0638e+05,1.4444e+08,5,5806,5928,15.3,3.61,29,71,0,0
3.0679e+05,1.4454e+08,5,5925,5857,15.33,3.52,29,71,0,0
3.0724e+05,1.4465e+08,5,5857,5871,15.29,3.41,29,71,0,0
3.0772e+05,1.4477e+08,5,5861,5771,15.34,3.58,29,71,0,0
3.0817e+05,1.4488e+08,5,5773,5800,15.36,3.54,29,71,0,0
3.0858e+05,1.4498e+08,5,5808,5914,15.35,3.58,29,71,0,0
3.0903e+05,1.4509e+08,5,5914,5914,15.27,3.82,29,71,0,0
3.0943e+05,1.4519e+08,5,5913,5900,15.32,3.56,29,71,0,0
3.0992e+05,1.4532e+08,5,5908,6000,15.35,3.75,29,71,0,0
3.1082e+05,1.4553e+08,5,5992,5842,15.43,3.51,29,72,0,0
3.1122e+05,1.4563e+08,5,5827,5642,15.31,3.42,29,72,0,0
3.1167e+05,1.4575e+08,5,5642,5642,15.42,2.92,29,72,0,0
3.1212e+05,1.4586e+08,5,5650,5742,15.35,3.39,29,72,0,0
3.1249e+05,1.4596e+08,5,5740,5657,15.38,3.24,29,72,0,0
3.1294e+05,1.4606e+08,5,5655,5600,15.3,3.3,29,72,0,0
3.1342e+05,1.4618e+08,5,5598,5585,15.39,3.08,29,72,0,0
3.1387e+05,1.4629e+08,5,5577,5500,15.42,2.89,29,72,0,0
3.1472e+05,1.465e+08,5,5497,5442,15.45,2.67,29,72,0,0
3.1512e+05,1.4661e+08,5,5439,5385,15.44,2.84,29,73,0,0
3.1557e+05,1.4672e+08,5,5385,5400,15.36,2.58,29,73,0,0
3.1602e+05,1.4683e+08,5,5393,5042,15.41,2.6,29,73,0,0
3.1646e+05,1.4693e+08,5,5044,5214,15.39,2.92,29,73,0,0
3.1695e+05,1.4705e+08,5,5211,5171,15.38,2.61,29,73,0,0
3.174e+05,1.4716e+08,5,5161,5014,15.39,2.64,29,73,0,0
3.1784e+05,1.4727e+08,5,5020,5100,15.41,2.59,29,73,0,0
3.1829e+05,1.4738e+08,5,5106,5285,15.39,2.82,29,73,0,0
3.1873e+05,1.4748e+08,5,5287,5357,15.26,2.94,29,73,0,0
3.1918e+05,1.4759e+08,5,5362,5428,15.36,2.85,29,73,0,0
3.1963e+05,1.477e+08,5,5429,5442,15.32,2.83,29,73,0,0
3.2007e+05,1.4781e+08,5,5439,5414,15.36,2.32,29,73,0,0
3.2052e+05,1.4792e+08,5,5401,5285,15.4,2.4,29,74,0,0
3.2093e+05,1.4802e+08,5,5287,5457,15.36,2.51,29,74,0,0
3.2141e+05,1.4814e+08,5,5445,5328,15.38,2.68,29,74,0,0
3.2186e+05,1.4825e+08,5,5330,5357,15.33,2.75,29,74,0,0
3.2226e+05,1.4835e+08,5,5360,5400,15.42,2.78,29,74,0,0
3.2359e+05,1.4867e+08,5,5402,5500,15.36,3.01,29,74,0,0
3.2404e+05,1.4878e+08,5,5488,5300,15.45,2.21,29,74,0,0
3.2448e+05,1.4889e+08,5,5287,5171,15.35,2.68,29,74,0,0
3.2489e+05,1.4899e+08,5,5172,5285,15.37,2.79,29,74,0,0
3.2538e+05,1.4911e+08,5,5271,5142,15.4,2.89,29,74,0,0
3.2579e+05,1.4921e+08,5,5178,5542,15.27,3.62,29,75,0,0
3.2623e+05,1.4932e+08,5,5526,5371,15.34,2.58,29,75,0,0
3.2668e+05,1.4943e+08,5,5367,5328,15.38,2.61,29,75,0,0
3.2797e+05,1.4976e+08,5,5347,6000,15.3,3.99,29,75,0,0
3.2846e+05,1.4987e+08,5,6001,6028,15.38,3.26,29,75,0,0
3.2886e+05,1.4997e+08,5,6016,5628,15.32,2.74,29,75,0,0
3.2931e+05,1.5008e+08,5,5631,5814,15.31,3.54,29,75,0,0
3.2975e+05,1.5019e+08,5,5805,5628,15.28,3.26,29,75,0,0
3.302e+05,1.503e+08,5,5627,5614,15.3,3.11,29,76,0,0
3.3065e+05,1.5041e+08,5,5614,5614,15.33,3.29,29,76,0,0
3.311e+05,1.5052e+08,5,5621,5728,15.35,3.63,29,76,0,0
3.3194e+05,1.5073e+08,5,5728,5800,15.27,3.33,29,76,0,0
3.324e+05,1.5084e+08,5,5799,5785,15.33,3.59,29,76,0,0
3.3285e+05,1.5096e+08,5,5767,5585,15.35,3.11,29,76,0,0
3.333e+05,1.5107e+08,5,5609,5885,15.3,3.5,29,76,0,0
3.3374e+05,1.5118e+08,5,5865,5685,15.44,3.06,29,76,0,0
3.3419e+05,1.5129e+08,5,5683,5671,15.3,3.1,29,76,0,0
3.3459e+05,1.5139e+08,5,5674,5828,15.36,3.53,29,77,0,0
3.3504e+05,1.515e+08,5,5825,5771,15.33,3.35,29,77,0,0
3.3549e+05,1.5161e+08,5,5772,5785,15.42,3.51,29,77,0,0
3.3593e+05,1.5172e+08,5,5757,5542,15.29,2.78,29,77,0,0
3.3634e+05,1.5182e+08,5,5544,5600,15.38,3.18,29,77,0,0
3.3679e+05,1.5194e+08,5,5597,5571,15.33,3.43,29,77,0,0
3.3724e+05,1.5205e+08,5,5574,5614,15.42,3.18,29,77,0,0
3.3765e+05,1.5216e+08,5,5623,5728,15.3,4.17,29,77,0,0
3.3809e+05,1.5226e+08,5,5729,5757,15.38,3.83,29,77,0,0
3.3854e+05,1.5237e+08,5,5754,5714,15.33,2.97,29,77,0,0
3.3898e+05,1.5248e+08,5,5707,5600,15.26,3.39,29,78,0,0
3.3947e+05,1.526e+08,5,5602,5642,15.33,4.33,29,78,0,0
3.3988e+05,1.527e+08,5,5656,5800,15.11,4.16,29,78,0,0
3.4028e+05,1.528e+08,5,5806,6085,15.15,4.38,29,78,0,0
3.4081e+05,1.5293e+08,5,6076,6014,15.25,3.92,29,78,0,0
3.4117e+05,1.5302e+08,5,6015,6100,15.22,3.75,29,78,0,0
3.4162e+05,1.5313e+08,5,6101,6128,15.2,4.07,29,78,0,0
3.4207e+05,1.5323e+08,5,6128,6142,15.26,3.86,29,78,0,0
3.4252e+05,1.5335e+08,5,6146,6200,15.24,3.75,29,79,0,0
3.4292e+05,1.5345e+08,5,6195,5957,15.31,3.52,29,79,0,0
3.4336e+05,1.5356e+08,5,5958,6000,15.26,3.25,29,79,0,0
3.4429e+05,1.5379e+08,5,5996,5942,15.23,3.64,29,79,0,0
3.4475e+05,1.539e+08,5,5947,6000,15.29,3.69,29,79,0,0
3.4519e+05,1.5401e+08,5,5998,5985,15.23,4.17,29,79,0,0
3.4656e+05,1.5434e+08,5,5990,6242,15.29,3.77,29,80,0,0
3.4696e+05,1.5444e+08,5,6237,6157,15.33,3.78,29,80,0,0
3.474e+05,1.5454e+08,5,6148,6014,15.22,4.13,29,80,0,0
3.479e+05,1.5466e+08,5,6033,6242,15.25,3.77,29,80,0,0
3.483e+05,1.5476e+08,5,6241,6171,15.23,4.09,29,80,0,0
3.4875e+05,1.5487e+08,5,6169,6142,15.23,4.18,29,80,0,0
3.4919e+05,1.5498e+08,5,6146,6228,15.16,4.3,29,80,0,0
3.4964e+05,1.5509e+08,5,6222,6142,15.31,4.04,29,80,0,0
3.5009e+05,1.552e+08,5,6150,6342,15.3,3.87,29,80,0,0
3.5054e+05,1.5531e+08,5,6334,5914,15.27,3.57,29,81,0,0
3.5098e+05,1.5542e+08,5,5920,5985,15.26,3.75,29,81,0,0
3.5142e+05,1.5553e+08,5,5984,5971,15.29,3.56,29,81,0,0
3.5183e+05,1.5563e+08,5,5974,6114,15.21,4.05,29,81,0,0
3.5224e+05,1.5574e+08,5,6113,6085,15.25,3.46,29,81,0,0
3.5272e+05,1.5585e+08,5,6079,5871,15.26,3.48,29,81,0,0
3.5317e+05,1.5596e+08,5,5873,5928,15.26,3.43,29,81,0,0
3.5362e+05,1.5607e+08,5,5929,5971,15.27,3.43,29,81,0,0
3.5407e+05,1.5618e+08,5,5968,5914,15.3,3.48,29,81,0,0
3.5452e+05,1.5629e+08,5,5918,5985,15.26,3.6,29,82,0,0
3.5496e+05,1.564e+08,5,5991,6114,15.21,4.25,29,82,0,0
3.5542e+05,1.5651e+08,5,6112,6057,15.26,3.91,29,82,0,0
3.5586e+05,1.5662e+08,5,6058,6128,15.33,3.71,29,82,0,0
3.5631e+05,1.5673e+08,5,6119,6028,15.29,3.45,29,82,0,0
3.5672e+05,1.5683e+08,5,6028,6042,15.3,3.85,29,82,0,0
3.5716e+05,1.5694e+08,5,6039,6014,15.19,3.93,29,82,0,0
3.5761e+05,1.5705e+08,5,6014,6014,15.24,3.92,29,82,0,0
3.5806e+05,1.5716e+08,5,6027,6171,15.12,3.88,29,83,0,0
3.585e+05,1.5727e+08,5,6166,6071,15.23,4.16,29,83,0,0
3.5895e+05,1.5738e+08,5,6083,6342,15.29,4.92,29,83,0,0
3.5944e+05,1.5749e+08,5,6334,6257,15.2,4.72,29,83,0,0
3.5984e+05,1.576e+08,5,6269,6428,15.23,4.78,29,83,0,0
3.6028e+05,1.5771e+08,5,6422,6357,15.27,4.19,29,83,0,0
3.6073e+05,1.5781e+08,5,6356,6342,15.25,4.43,29,83,0,0
3.6162e+05,1.5803e+08,5,6327,6000,15.27,4.01,29,84,0,0
3.6248e+05,1.5825e+08,5,5997,5914,15.12,3.89,29,84,0,0
3.6288e+05,1.5835e+08,5,5917,6100,15.27,3.57,29,84,0,0
3.6337e+05,1.5846e+08,5,6094,6014,15.17,4.08,29,84,0,0
3.6377e+05,1.5857e+08,5,6011,5957,15.1,4.14,29,84,0,0
3.6422e+05,1.5867e+08,5,5962,6100,15.14,4.38,29,84,0,0
3.6467e+05,1.5879e+08,5,6093,6000,15.26,4.08,29,84,0,0
3.6512e+05,1.5889e+08,5,5999,5985,15.26,4.39,29,85,0,0
3.6556e+05,1.59e+08,5,5993,6085,15.19,4.21,29,85,0,0
3.6601e+05,1.5912e+08,5,6094,6200,15.16,4.65,29,85,0,0
3.6641e+05,1.5922e+08,5,6197,6142,15.16,4.27,29,85,0,0
3.6687e+05,1.5933e+08,5,6142,6142,15.23,4.08,29,85,0,0
3.6731e+05,1.5944e+08,5,6148,6214,15.19,4.51,29,85,0,0
3.6771e+05,1.5954e+08,5,6212,6171,15.21,4.49,29,85,0,0
3.6817e+05,1.5965e+08,5,6168,6100,15.3,4.18,29,86,0,0
3.6865e+05,1.5977e+08,5,6105,6214,15.17,4.44,29,86,0,0
3.691e+05,1.5988e+08,5,6206,6128,15.22,4.69,29,86,0,0
3.6951e+05,1.5998e+08,5,6138,6257,15.12,5.06,29,86,0,0
3.6996e+05,1.601e+08,5,6261,6300,15.13,4.4,29,86,0,0
3.704e+05,1.602e+08,5,6276,6071,15.11,3.88,29,86,0,0
3.7089e+05,1.6032e+08,5,6077,6142,15.25,4.3,29,86,0,0
3.7129e+05,1.6042e+08,5,6120,5885,15.14,3.75,29,86,0,0
3.7174e+05,1.6053e+08,5,5893,5985,15.26,4.36,29,87,0,0
3.7262e+05,1.6074e+08,5,5984,5957,15.27,3.4,30,87,0,0
3.7303e+05,1.6084e+08,5,5953,5685,15.26,3.77,29,87,0,0
3.7351e+05,1.6096e+08,5,5692,5785,15.21,3.74,29,87,0,0
3.7397e+05,1.6107e+08,5,5776,5657,15.23,3.35,29,87,0,0
3.7441e+05,1.6118e+08,5,5665,5785,15.27,3.05,29,87,0,0
3.7486e+05,1.6129e+08,5,5788,5828,15.33,3.28,29,87,0,0
3.7546e+05,1.6151e+08,5,5930,5771,15.29,3.65,29,88,0,0
3.7586e+05,1.6162e+08,5,5774,5828,15.3,3.77,29,88,0,0
3.7631e+05,1.6173e+08,5,5830,5885,15.2,3.91,29,88,0,0
3.7716e+05,1.6194e+08,5,5882,5828,15.27,3.66,29,88,0,0
3.7761e+05,1.6205e+08,5,5837,5971,15.22,4.37,29,88,0,0
3.7802e+05,1.6216e+08,5,5973,6028,15.28,3.53,29,88,0,0
3.7847e+05,1.6226e+08,5,6028,6028,15.3,3.84,29,88,0,0
3.7888e+05,1.6237e+08,5,6027,6014,15.25,3.84,30,88,0,0
3.7932e+05,1.6248e+08,5,6004,5885,15.25,3.39,29,89,0,0
3.7973e+05,1.6258e+08,5,5873,5642,15.29,3.27,29,89,0,0
3.8018e+05,1.6269e+08,5,5649,5800,15.18,3.29,29,89,0,0
3.8062e+05,1.628e+08,5,5771,5442,15.32,3.18,30,89,0,0
3.8102e+05,1.6291e+08,5,5444,5614,15.33,2.77,29,89,0,0
3.8151e+05,1.6302e+08,5,5612,5600,15.27,3.21,30,89,0,0
3.8191e+05,1.6312e+08,5,5591,5414,15.27,2.84,29,89,0,0
3.8236e+05,1.6323e+08,5,5411,5357,15.35,2.69,29,89,0,0
3.828e+05,1.6334e+08,5,5364,5471,15.33,2.76,29,89,0,0
3.8322e+05,1.6345e+08,5,5469,5414,15.24,3.22,29,89,0,0
3.8366e+05,1.6356e+08,5,5418,5685,15.3,3.51,30,89,0,0
3.8415e+05,1.6368e+08,5,5685,5685,15.34,3.4,29,90,0,0
3.8455e+05,1.6377e+08,5,5688,5771,15.24,3.55,29,90,0,0
3.8545e+05,1.64e+08,5,5768,5728,15.31,3.61,30,90,0,0
3.8586e+05,1.641e+08,5,5729,5785,15.23,3.73,30,90,0,0
3.8634e+05,1.6421e+08,5,5786,5814,15.33,3.61,30,90,0,0
3.8683e+05,1.6433e+08,5,5795,5585,15.32,3.4,29,90,0,0
3.8719e+05,1.6442e+08,5,5583,5528,15.22,3.16,30,90,0,0
3.8768e+05,1.6454e+08,5,5528,5528,15.27,3.17,29,90,0,0
3.8852e+05,1.6474e+08,5,5527,5500,15.28,3.78,29,91,0,0
3.8901e+05,1.6486e+08,5,5506,5585,15.26,3.4,30,91,0,0
3.8941e+05,1.6497e+08,5,5579,5528,15.35,3.24,30,91,0,0
3.8986e+05,1.6507e+08,5,5529,5557,15.26,3.3,30,91,0,0
3.9027e+05,1.6518e+08,5,5564,5700,15.26,3.42,30,91,0,0
3.9072e+05,1.6529e+08,5,5697,5657,15.31,3.28,30,91,0,0
3.9117e+05,1.654e+08,5,5645,5485,15.27,3.23,30,91,0,0
3.9162e+05,1.6551e+08,5,5500,5714,15.22,3.61,30,91,0,0
3.9207e+05,1.6562e+08,5,5701,5528,15.33,3.68,30,91,0,0
3.9247e+05,1.6573e+08,5,5528,5571,15.26,3.02,29,92,0,0
3.9292e+05,1.6584e+08,5,5579,5771,15.25,3.42,29,92,0,0
3.9341e+05,1.6595e+08,5,5774,5814,15.25,3.67,30,92,0,0
3.9382e+05,1.6606e+08,5,5813,5771,15.25,3.34,30,92,0,0
3.943e+05,1.6617e+08,5,5769,5757,15.23,3.48,29,92,0,0
3.9475e+05,1.6628e+08,5,5752,5685,15.35,3.22,30,92,0,0
3.9516e+05,1.6638e+08,5,5679,5457,15.33,2.91,30,92,0,0
3.9564e+05,1.665e+08,5,5436,5142,15.42,2.15,30,92,0,0
3.9604e+05,1.666e+08,5,5142,5157,15.45,2.29,30,92,0,0
3.965e+05,1.6671e+08,5,5155,5128,15.45,2.42,30,92,0,0
3.9697e+05,1.6682e+08,5,5126,5100,15.49,2.33,30,92,0,0
3.9741e+05,1.6693e+08,5,5097,5028,15.5,1.98,30,93,0,0
3.9786e+05,1.6704e+08,5,5023,4714,15.51,1.77,30,93,0,0
3.983e+05,1.6714e+08,5,4699,4157,15.72,1.79,29,93,0,0
3.988e+05,1.6726e+08,5,4083,3285,15.87,0.29,30,93,0,0
3.992e+05,1.6736e+08,5,3271,2685,15.8,0.31,30,93,0,0
3.9964e+05,1.6747e+08,5,2684,2671,15.79,0.37,30,93,0,0
4.0054e+05,1.6769e+08,5,2672,2700,15.77,0.48,30,93,0,0
4.0094e+05,1.6779e+08,5,2694,2614,15.81,0.32,30,93,0,0
4.0139e+05,1.679e+08,5,2615,2642,15.77,0.39,29,93,0,0
4.0183e+05,1.6801e+08,5,2642,2642,15.8,0.38,30,93,0,0
4.0223e+05,1.6811e+08,5,2640,2600,15.8,0.37,30,93,0,0
4.0272e+05,1.6823e+08,5,2603,2657,15.82,0.44,30,93,0,0
4.0312e+05,1.6833e+08,5,2656,2614,15.82,0.43,30,93,0,0
4.0361e+05,1.6844e+08,5,2612,2600,15.77,0.46,30,93,0,0
4.0402e+05,1.6855e+08,5,2597,2542,15.78,0.38,30,93,0,0
4.0446e+05,1.6865e+08,5,2540,2414,15.82,0.26,29,93,0,0
4.0495e+05,1.6876e+08,5,2409,2314,15.81,0.24,29,93,0,0
4.054e+05,1.6887e+08,5,2306,2228,15.88,0.32,30,93,0,0
4.0584e+05,1.6898e+08,5,2230,2271,15.92,0.3,30,93,0,0
4.0629e+05,1.6909e+08,5,2247,1757,15.9,0,29,93,0,0
4.0674e+05,1.692e+08,5,1736,1428,15.89,0,29,93,0,0
4.0718e+05,1.693e+08,5,1422,1314,15.89,0.06,29,93,0,0
4.0763e+05,1.6942e+08,5,1313,1300,15.88,0.08,29,93,0,0
4.0808e+05,1.6953e+08,5,1298,1285,15.89,0.08,29,93,0,0
4.0852e+05,1.6963e+08,5,1285,1285,15.89,0.08,29,93,0,0
4.0897e+05,1.6975e+08,5,1285,1285,15.89,0.08,29,93,0,0
4.0942e+05,1.6985e+08,5,1285,1285,15.89,0.08,29,93,0,0
4.1028e+05,1.7006e+08,5,1285,1285,15.89,0.08,29,93,0,0
4.1072e+05,1.7017e+08,5,1286,1300,15.9,0.09,29,93,0,0
4.1118e+05,1.7028e+08,5,1298,1285,15.9,0.08,29,93,0,0
4.1203e+05,1.7049e+08,5,1285,1285,15.9,0.08,29,93,0,0
4.1248e+05,1.706e+08,5,1285,1285,15.91,0.08,29,93,0,0
4.1292e+05,1.7071e+08,5,1285,1285,15.9,0.09,29,93,0,0
4.1342e+05,1.7083e+08,5,1285,1285,15.91,0.09,29,93,0,0
4.1386e+05,1.7093e+08,5,1285,1285,15.92,0.08,29,93,0,0
4.143e+05,1.7103e+08,5,1285,1285,15.92,0.08,29,93,0,0
4.1475e+05,1.7114e+08,5,1285,1285,15.92,0.08,29,93,0,0
4.152e+05,1.7125e+08,5,1285,1285,15.92,0.08,29,93,0,0
4.1564e+05,1.7136e+08,5,1285,1300,15.92,0.08,29,93,0,0
4.1609e+05,1.7147e+08,5,1300,1300,15.92,0.08,29,93,0,0
4.1653e+05,1.7157e+08,5,1299,1285,15.92,0.08,29,93,0,0
4.1699e+05,1.7168e+08,5,1285,1300,15.92,0.08,29,93,0,0
4.1744e+05,1.7179e+08,5,1299,1285,15.93,0.08,29,93,0,0
4.1789e+05,1.719e+08,5,1285,1285,15.94,0.08,29,93,0,0
4.1833e+05,1.72e+08,5,1285,1285,15.94,0.08,29,93,0,0
4.1878e+05,1.7211e+08,5,1285,1285,15.94,0.08,29,93,0,0
4.1923e+05,1.7222e+08,5,1286,1300,15.94,0.08,29,93,0,0
4.1971e+05,1.7233e+08,5,1300,1300,15.93,0.08,29,93,0,0
4.2012e+05,1.7244e+08,5,1298,1285,15.94,0.08,29,93,0,0
4.2053e+05,1.7254e+08,5,1286,1300,15.94,0.08,29,93,0,0
4.2098e+05,1.7264e+08,5,1300,1300,15.95,0.08,29,93,0,0
4.2142e+05,1.7275e+08,5,1300,1300,15.95,0.08,29,93,0,0
4.2187e+05,1.7286e+08,5,1300,1300,15.95,0.08,29,93,0,0
4.2235e+05,1.7297e+08,5,1300,1300,15.95,0.08,29,93,0,0
4.2281e+05,1.7308e+08,5,1300,1300,15.95,0.07,29,93,0,0
4.2328e+05,1.7319e+08,5,1300,1300,15.96,0.08,28,93,0,0
4.2373e+05,1.733e+08,5,1300,1300,15.95,0.08,29,93,0,0
4.2418e+05,1.734e+08,5,1300,1300,15.95,0.08,29,93,0,0
4.2506e+05,1.7362e+08,5,1300,1300,15.96,0.08,29,93,0,0
4.2551e+05,1.7372e+08,5,1300,1300,15.96,0.08,28,93,0,0
4.2599e+05,1.7383e+08,5,1300,1300,15.95,0.08,29,93,0,0
4.264e+05,1.7394e+08,5,1300,1300,15.97,0.08,29,93,0,0
4.2689e+05,1.7405e+08,5,1300,1300,15.96,0.08,29,93,0,0
4.2729e+05,1.7415e+08,5,1300,1300,15.97,0.08,28,93,0,0
4.2778e+05,1.7426e+08,5,1300,1300,15.97,0.08,29,93,0,0
4.2818e+05,1.7436e+08,5,1300,1300,15.97,0.08,28,93,0,0
4.2867e+05,1.7448e+08,5,1300,1300,15.97,0.08,29,93,0,0
4.2911e+05,1.7459e+08,5,1300,1300,15.97,0.08,28,93,0,0
4.2956e+05,1.7469e+08,5,1300,1300,15.97,0.08,28,93,0,0
4.3e+05,1.748e+08,5,1300,1300,15.97,0.09,28,93,0,0
4.3049e+05,1.7492e+08,5,1300,1300,15.97,0.08,28,93,0,0
4.3089e+05,1.7501e+08,5,1300,1300,15.98,0.08,28,93,0,0
4.3137e+05,1.7512e+08,5,1300,1300,15.97,0.08,28,93,0,0
4.3183e+05,1.7523e+08,5,1300,1300,15.98,0.08,28,93,0,0
4.3268e+05,1.7544e+08,5,1300,1300,15.97,0.08,28,93,0,0
4.3313e+05,1.7555e+08,5,1300,1300,15.98,0.08,28,93,0,0
4.3357e+05,1.7566e+08,5,1300,1300,15.98,0.08,28,93,0,0
4.3402e+05,1.7576e+08,5,1299,1285,15.98,0.09,28,93,0,0
4.345e+05,1.7588e+08,5,1285,1285,15.99,0.08,28,93,0,0
4.3491e+05,1.7598e+08,5,1285,1300,15.99,0.08,28,93,0,0
4.3536e+05,1.7609e+08,5,1300,1300,15.98,0.08,28,93,0,0
4.3581e+05,1.7619e+08,5,1299,1285,15.99,0.08,28,93,0,0
4.363e+05,1.7631e+08,5,1285,1285,16,0.08,28,93,0,0
4.367e+05,1.7641e+08,5,1285,1300,15.99,0.08,28,93,0,0
4.3719e+05,1.7652e+08,5,1300,1300,16,0.08,28,93,0,0
4.3764e+05,1.7663e+08,5,1300,1300,15.99,0.08,28,93,0,0
4.3804e+05,1.7673e+08,5,1300,1300,16,0.08,28,93,0,0
4.3854e+05,1.7685e+08,5,1298,1285,16,0.09,28,93,0,0
4.3899e+05,1.7696e+08,5,1286,1300,16,0.08,28,93,0,0
4.3939e+05,1.7706e+08,5,1300,1300,16,0.08,28,93,0,0
4.3988e+05,1.7717e+08,5,1299,1285,16,0.08,28,93,0,0
4.4033e+05,1.7728e+08,5,1286,1300,16,0.08,28,93,0,0
4.4077e+05,1.7739e+08,5,1300,1300,16.01,0.08,28,93,0,0
4.4122e+05,1.7749e+08,5,1298,1285,16,0.08,28,93,0,0
4.4166e+05,1.776e+08,5,1285,1300,16,0.08,28,93,0,0
4.4211e+05,1.7771e+08,5,1300,1300,16,0.08,28,93,0,0
4.4256e+05,1.7782e+08,5,1300,1300,16,0.09,28,93,0,0
4.43e+05,1.7792e+08,5,1300,1300,16.01,0.08,28,93,0,0
4.4344e+05,1.7803e+08,5,1299,1285,16.01,0.08,28,93,0,0
4.439e+05,1.7814e+08,5,1285,1300,16.01,0.08,28,93,0,0
4.4435e+05,1.7825e+08,5,1300,1300,16.01,0.08,28,93,0,0
4.4479e+05,1.7836e+08,5,1300,1300,16.01,0.08,28,93,0,0
4.4524e+05,1.7846e+08,5,1300,1300,16.01,0.08,28,93,0,0
4.4564e+05,1.7856e+08,5,1300,1300,16.01,0.08,28,93,0,0
4.461e+05,1.7867e+08,5,1300,1300,16.01,0.08,28,93,0,0
4.4653e+05,1.7877e+08,5,1300,1300,16.01,0.08,28,93,0,0
4.4702e+05,1.7889e+08,5,1300,1300,16.02,0.08,28,93,0,0
4.4747e+05,1.7899e+08,5,1300,1300,16.01,0.09,28,93,0,0
4.4791e+05,1.791e+08,5,1290,771,16.04,0.01,28,93,0,0
4.4835e+05,1.792e+08,5,765,285,16.04,0,28,93,0,0
4.493e+05,1.7942e+08,5,278,0,16.04,0.01,28,93,0,0
4.4975e+05,1.7953e+08,5,0,0,16.04,0.01,28,93,0,0
4.5025e+05,1.7965e+08,5,0,0,16.04,0.02,28,93,0,0
4.5065e+05,1.7975e+08,5,0,0,16.04,0.01,28,93,0,0
4.5115e+05,1.7987e+08,5,0,0,16.04,0.01,28,93,0,0
4.516e+05,1.7998e+08,5,0,0,16.04,0.01,28,93,0,0
4.5205e+05,1.8008e+08,5,0,0,16.04,0.01,28,93,0,0
4.5254e+05,1.802e+08,5,0,0,16.04,0.01,28,93,0,0
4.53e+05,1.803e+08,5,0,0,16.04,0.01,28,93,0,0
4.5345e+05,1.8041e+08,5,0,0,16.04,0.01,28,93,0,0
4.539e+05,1.8052e+08,5,0,0,16.04,0.01,28,93,0,0
4.5435e+05,1.8063e+08,5,0,0,16.05,0.01,28,93,0,0
4.548e+05,1.8074e+08,5,0,0,16.05,0.01,28,93,0,0
4.5526e+05,1.8084e+08,5,0,0,16.04,0.01,28,93,0,0
4.5571e+05,1.8095e+08,5,0,0,16.04,0.01,28,93,0,0
4.5616e+05,1.8106e+08,5,0,0,16.05,0.01,28,93,0,0
4.5662e+05,1.8117e+08,5,0,0,16.05,0.01,28,93,0,0
4.5756e+05,1.8139e+08,5,0,0,16.05,0.01,28,93,0,0
4.5802e+05,1.815e+08,5,0,0,16.05,0.01,27,93,0,0
4.5847e+05,1.8161e+08,5,0,0,16.05,0.01,28,93,0,0
4.5892e+05,1.8172e+08,5,0,0,16.05,0.01,28,93,0,0
4.5937e+05,1.8183e+08,5,0,0,16.06,0.01,28,93,0,0
4.5986e+05,1.8194e+08,5,0,0,16.06,0.01,28,93,0,0
4.6036e+05,1.8206e+08,5,0,0,16.06,0.01,27,93,0,0
4.6126e+05,1.8227e+08,5,0,0,16.06,0.01,27,93,0,0
4.6175e+05,1.8238e+08,5,0,0,16.06,0.01,27,93,0,0
4.622e+05,1.8249e+08,5,0,0,16.07,0.02,27,93,0,0
4.6265e+05,1.826e+08,5,0,0,16.06,0.01,27,93,0,0
