LineNo,TimeUS,Instance,RPM,RawRPM,Volt,Curr,Temp,CTot,MotTemp,Err
1697,69505549,4,0,0,16.34,0.05,28,0,0,0
2147,69611057,4,0,0,16.33,0.05,28,0,0,0
2640,69726255,4,0,0,16.34,0.05,28,0,0,0
3095,69829462,4,0,0,16.33,0.05,28,0,0,0
3585,69940106,4,0,0,16.34,0.05,28,0,0,0
4041,70043239,4,0,0,16.33,0.05,28,0,0,0
4500,70152034,4,0,0,16.34,0.05,28,0,0,0
4996,70263497,4,0,0,16.34,0.05,28,0,0,0
5451,70371511,4,0,0,16.33,0.05,28,0,0,0
5906,70473881,4,0,0,16.33,0.05,28,0,0,0
6397,70586684,4,0,0,16.33,0.05,28,0,0,0
6847,70688672,4,0,0,16.33,0.05,28,0,0,0
7299,70796560,4,0,0,16.33,0.05,28,0,0,0
7804,70918597,4,0,0,16.33,0.03,28,0,0,0
8217,71009784,4,3,157,16.32,0.06,28,0,0,0
9163,71227795,4,177,1114,16.31,0.17,28,0,0,0
9659,71342595,4,1131,1271,16.32,0.12,28,0,0,0
10113,71446524,4,1274,1314,16.31,0.12,28,0,0,0
11019,71656734,4,1314,1328,16.32,0.11,28,0,0,0
11469,71763555,4,1328,1342,16.31,0.11,28,0,0,0
12460,71991301,4,1342,1357,16.32,0.11,28,0,0,0
12912,72096572,4,1357,1357,16.31,0.11,28,0,0,0
13574,72308913,4,1436,1742,16.17,0.57,28,0,0,0
14025,72418040,4,1820,2785,16.11,1.21,28,0,0,0
14926,72630094,4,2795,3857,15.53,2.41,28,0,0,0
15377,72738524,4,3871,4700,15.61,3.43,28,0,0,0
15876,72852812,4,4784,5585,15.52,4.11,28,0,0,0
16327,72958256,4,5629,6014,15.5,4.51,28,0,0,0
16778,73064075,4,6031,6257,15.58,3.76,28,0,0,0
17234,73178795,4,6243,6114,15.58,3.52,28,0,0,0
17689,73284676,4,6108,6028,15.5,3.34,28,1,0,0
18138,73392318,4,6019,5914,15.53,2.71,28,1,0,0
18592,73497174,4,5902,5685,15.51,2.91,28,1,0,0
19043,73606500,4,5681,5500,15.53,2.24,28,1,0,0
19536,73724239,4,5459,5085,15.55,1.66,28,1,0,0
19987,73827472,4,5066,4900,15.45,2.43,28,1,0,0
20892,74040589,4,4911,5400,15.54,2.94,28,1,0,0
21350,74155277,4,5408,5600,15.57,2.71,28,1,0,0
21841,74266139,4,5598,5585,15.61,3.01,28,1,0,0
22292,74374704,4,5602,5828,15.6,2.96,28,1,0,0
22790,74489530,4,5822,5757,15.58,2.77,28,2,0,0
23196,74589037,4,5758,5771,15.55,3.24,28,2,0,0
23651,74696230,4,5769,5700,15.47,3.22,28,2,0,0
24103,74811120,4,5706,5785,15.49,3.07,28,2,0,0
24544,74920369,4,5781,5742,15.42,3.16,28,2,0,0
24959,75023569,4,5742,5757,15.5,3.19,28,2,0,0
25448,75146491,4,5758,5771,15.49,3.06,28,2,0,0
26302,75360043,4,5773,5828,15.53,3.05,29,2,0,0
26712,75460554,4,5827,5800,15.47,3.38,29,2,0,0
27152,75566592,4,5806,5914,15.49,3.24,28,2,0,0
27600,75674556,4,5912,5885,15.41,3.11,29,2,0,0
28048,75787688,4,5884,5857,15.41,3.41,29,3,0,0
28497,75894802,4,5858,5871,15.47,3.08,29,3,0,0
28947,76007917,4,5858,5685,15.47,2.88,29,3,0,0
29352,76107483,4,5689,5785,15.47,2.91,29,3,0,0
29794,76218285,4,5769,5600,15.52,2.63,29,3,0,0
30240,76330046,4,5595,5557,15.5,2.62,29,3,0,0
31544,76653305,4,5555,5328,15.54,2.43,29,3,0,0
31994,76765293,4,5325,5271,15.59,2.25,29,3,0,0
32447,76875767,4,5268,5242,15.64,2.44,29,3,0,0
32899,76986799,4,5243,5271,15.66,2.21,29,4,0,0
33383,77103808,4,5257,5114,15.67,2.04,29,4,0,0
33786,77205983,4,5117,5200,15.7,2.37,29,4,0,0
34681,77425482,4,5192,4985,15.69,2.66,29,4,0,0
35169,77544115,4,4983,4971,15.69,2.03,29,4,0,0
35571,77642745,4,4968,4871,15.65,2.23,29,4,0,0
36051,77754526,4,4873,4900,15.68,2.61,29,4,0,0
36503,77864812,4,4920,5128,15.52,2.78,29,4,0,0
36915,77971688,4,5139,5257,15.64,2.19,29,4,0,0
37803,78184020,4,5255,5200,15.63,2.08,29,4,0,0
38249,78292121,4,5195,5142,15.63,2.47,29,4,0,0
38695,78402662,4,5144,5171,15.64,2.55,29,4,0,0
39148,78514265,4,5180,5271,15.58,2.69,29,5,0,0
39591,78622136,4,5282,5400,15.61,2.82,29,5,0,0
39991,78723288,4,5399,5385,15.59,2.6,29,5,0,0
40399,78825888,4,5387,5542,15.64,2.58,29,5,0,0
40837,78931857,4,5542,5571,15.65,2.51,29,5,0,0
41290,79043001,4,5568,5428,15.62,2.8,29,5,0,0
41782,79161126,4,5430,5457,15.61,2.65,29,5,0,0
42236,79275055,4,5467,5585,15.48,2.95,29,5,0,0
42643,79379901,4,5580,5528,15.61,2.65,29,5,0,0
43092,79490466,4,5532,5585,15.58,2.45,29,5,0,0
43498,79593430,4,5579,5471,15.55,2.52,29,5,0,0
43945,79702301,4,5477,5557,15.59,2.59,29,5,0,0
44346,79805248,4,5555,5442,15.5,2.76,29,5,0,0
44838,79923135,4,5447,5528,15.57,2.45,29,6,0,0
45246,80023482,4,5523,5471,15.47,2.61,29,6,0,0
45648,80126151,4,5470,5414,15.57,2.54,29,6,0,0
46142,80244020,4,5431,5614,15.5,3,29,6,0,0
46994,80454023,4,5612,5528,15.57,2.7,29,6,0,0
47442,80565858,4,5522,5442,15.59,2.42,29,6,0,0
47894,80676080,4,5442,5442,15.55,2.79,29,6,0,0
48337,80785557,4,5437,5342,15.5,2.36,30,6,0,0
48791,80896597,4,5349,5457,15.55,2.48,29,6,0,0
49237,81007288,4,5457,5471,15.61,2.65,29,6,0,0
49687,81121019,4,5460,5342,15.58,2.71,30,6,0,0
50096,81222171,4,5337,5242,15.6,2.23,29,7,0,0
50543,81333491,4,5241,5228,15.54,2.44,29,7,0,0
50991,81438904,4,5227,5200,15.61,2.43,30,7,0,0
51474,81555295,4,5198,5171,15.63,2.48,29,7,0,0
51919,81663924,4,5174,5214,15.57,2.52,29,7,0,0
52329,81771291,4,5220,5285,15.5,3.02,29,7,0,0
52777,81877910,4,5270,5128,15.6,2.5,29,7,0,0
53224,81990058,4,5123,5071,15.62,2.69,30,7,0,0
53672,82098448,4,5099,5371,15.55,3,29,7,0,0
54116,82207803,4,5369,5357,15.62,2.46,30,7,0,0
54520,82306410,4,5360,5428,15.6,2.57,30,7,0,0
55013,82430130,4,5430,5457,15.55,2.69,30,7,0,0
55420,82534041,4,5444,5342,15.57,2.66,29,7,0,0
56278,82747758,4,5349,5500,15.49,2.81,30,8,0,0
56683,82845472,4,5499,5471,15.56,2.88,30,8,0,0
57175,82964757,4,5471,5471,15.57,2.72,30,8,0,0
57624,83075818,4,5491,5714,15.47,3.15,30,8,0,0
58514,83294124,4,5727,6100,15.59,3.3,30,8,0,0
58965,83408121,4,6065,5728,15.46,3.06,30,8,0,0
59373,83508800,4,5724,5671,15.56,2.64,30,8,0,0
60257,83728126,4,5666,5042,15.55,1.96,30,8,0,0
60705,83834590,4,5040,4971,15.52,2.47,30,8,0,0
61152,83952214,4,4962,4857,15.54,2.72,30,9,0,0
61609,84065716,4,4864,4914,15.46,2.45,30,9,0,0
62012,84160033,4,4916,4985,15.51,2.49,30,9,0,0
62498,84277301,4,4997,5114,15.52,2.55,30,9,0,0
62977,84391836,4,5133,5314,15.51,2.6,30,9,0,0
63433,84502239,4,5304,5200,15.58,2.58,30,9,0,0
63831,84603923,4,5223,5514,15.52,2.74,30,9,0,0
64676,84813882,4,5514,5642,15.46,3,30,9,0,0
65165,84933785,4,5628,5514,15.52,2.84,30,9,0,0
66014,85141070,4,5515,5571,15.55,2.54,30,9,0,0
66545,85265706,4,5571,5571,15.5,2.48,30,10,0,0
66948,85359267,4,5568,5528,15.48,2.67,30,10,0,0
67394,85470303,4,5526,5500,15.46,2.91,30,10,0,0
67806,85575500,4,5500,5500,15.48,2.75,30,10,0,0
68252,85683062,4,5497,5400,15.38,2.98,30,10,0,0
68735,85802056,4,5406,5471,15.5,2.38,30,10,0,0
69148,85899700,4,5465,5357,15.41,2.41,30,10,0,0
69594,86013825,4,5361,5414,15.48,2.61,30,10,0,0
70045,86120739,4,5394,5200,15.48,2.67,30,10,0,0
70488,86231710,4,5211,5328,15.48,2.66,30,10,0,0
70903,86336820,4,5328,5342,15.5,2.47,30,10,0,0
71350,86446813,4,5341,5257,15.52,2.35,30,10,0,0
71792,86554707,4,5255,5242,15.27,2.89,30,10,0,0
72247,86669259,4,5250,5328,15.51,2.71,30,11,0,0
72692,86779310,4,5319,5257,15.31,2.89,30,11,0,0
73144,86887292,4,5260,5300,15.53,2.43,30,11,0,0
73549,86987418,4,5293,5057,15.51,2.31,30,11,0,0
74038,87108910,4,5061,5157,15.55,2.06,30,11,0,0
74448,87212761,4,5150,5014,15.5,2.28,30,11,0,0
74926,87324568,4,5031,5200,15.5,2.36,30,11,0,0
75378,87435571,4,5210,5314,15.48,2.91,30,11,0,0
75776,87533707,4,5315,5385,15.5,2.63,30,11,0,0
76225,87642692,4,5397,5642,15.52,2.99,30,11,0,0
77117,87860081,4,5643,5685,15.51,3.01,30,11,0,0
77564,87970115,4,5689,5742,15.54,2.91,30,12,0,0
78014,88079998,4,5707,5371,15.48,1.99,30,12,0,0
78462,88188623,4,5360,5257,15.5,2.31,30,12,0,0
78909,88293044,4,5253,5157,15.48,2.25,30,12,0,0
79360,88407477,4,5158,5171,15.45,2.41,30,12,0,0
79777,88514760,4,5167,5128,15.41,2.64,30,12,0,0
80222,88621084,4,5118,5028,15.43,2.46,30,12,0,0
80620,88718992,4,5030,5142,15.42,3.18,30,12,0,0
81070,88827862,4,5142,5200,15.44,2.8,30,12,0,0
81551,88941539,4,5203,5257,15.45,2.7,30,12,0,0
82001,89050911,4,5253,5200,15.44,2.66,30,12,0,0
82447,89161737,4,5197,5171,15.42,2.53,30,12,0,0
83344,89381134,4,5173,5300,15.51,2.41,30,13,0,0
84232,89598566,4,5299,5214,15.38,2.54,30,13,0,0
84731,89722723,4,5224,5342,15.47,2.65,30,13,0,0
85139,89821590,4,5348,5428,15.44,2.46,30,13,0,0
85542,89923118,4,5427,5400,15.46,2.31,30,13,0,0
86031,90038234,4,5387,5214,15.47,1.97,30,13,0,0
86925,90258307,4,5210,5142,15.45,2.16,30,13,0,0
87377,90366970,4,5155,5300,15.43,2.34,30,13,0,0
87824,90474676,4,5308,5400,15.46,2.65,30,13,0,0
88274,90587492,4,5401,5414,15.45,2.4,30,13,0,0
88720,90694107,4,5413,5385,15.48,2.24,30,13,0,0
89168,90806693,4,5383,5342,15.42,2.24,30,13,0,0
90064,91023031,4,5338,5185,15.4,2.4,30,14,0,0
90511,91135048,4,5181,5128,15.46,2.1,30,14,0,0
90961,91242041,4,5139,5285,15.39,2.52,30,14,0,0
91408,91352414,4,5284,5271,15.5,2.22,30,14,0,0
91862,91462487,4,5269,5242,15.49,2.2,30,14,0,0
92309,91576734,4,5219,4985,15.38,2.46,30,14,0,0
92761,91690728,4,4967,4785,15.34,2.77,30,14,0,0
93216,91809418,4,4794,4900,15.41,2.47,30,14,0,0
93616,91900459,4,4906,5128,15.36,2.58,30,14,0,0
94063,92009785,4,5111,4771,15.42,2.58,30,14,0,0
94554,92137130,4,4768,4742,15.38,2.41,30,14,0,0
94919,92227047,4,4748,5214,15.35,2.82,30,14,0,0
95409,92345501,4,5202,5085,15.48,1.85,30,15,0,0
95897,92462601,4,5064,4828,15.5,1.96,30,15,0,0
96300,92562721,4,4838,4942,15.39,2.27,30,15,0,0
96749,92669774,4,4957,5100,15.42,2.68,30,15,0,0
97194,92782023,4,5105,5185,15.41,2.27,30,15,0,0
97644,92892898,4,5209,5442,15.47,2.4,30,15,0,0
98049,92995089,4,5423,5185,15.51,1.99,30,15,0,0
98496,93101292,4,5182,5128,15.51,1.95,30,15,0,0
98940,93212571,4,5126,5100,15.5,2.04,30,15,0,0
99392,93327416,4,5081,4914,15.5,1.96,30,15,0,0
99797,93425282,4,4914,4928,15.53,2.3,30,15,0,0
100242,93533772,4,4928,4957,15.58,2.17,30,15,0,0
100734,93651677,4,4962,5028,15.45,2.44,30,15,0,0
101140,93755778,4,5053,5414,15.44,2.7,30,15,0,0
101588,93861670,4,5413,5400,15.47,2.36,30,16,0,0
101992,93966148,4,5398,5314,15.32,2.55,30,16,0,0
102482,94080820,4,5328,5542,15.38,2.9,30,16,0,0
102930,94195314,4,5548,5614,15.45,2.7,30,16,0,0
103377,94300818,4,5599,5414,15.45,1.75,30,16,0,0
103784,94407276,4,5406,5228,15.29,2.42,30,16,0,0
104678,94627995,4,5228,5257,15.39,2.46,30,16,0,0
105088,94735007,4,5259,5457,15.33,2.69,30,16,0,0
105586,94854224,4,5454,5428,15.35,2.28,30,16,0,0
105982,94953369,4,5425,5357,15.39,2.27,30,16,0,0
106435,95064295,4,5351,5228,15.41,2.19,30,16,0,0
106889,95175760,4,5233,5300,15.34,2.9,30,16,0,0
107343,95286824,4,5303,5342,15.39,2.46,30,16,0,0
107786,95395794,4,5345,5385,15.36,2.56,30,17,0,0
108190,95495774,4,5384,5371,15.39,2.44,30,17,0,0
108637,95609067,4,5362,5285,15.4,2.36,30,17,0,0
109087,95718813,4,5283,5271,15.37,2.47,30,17,0,0
109488,95819063,4,5272,5300,15.38,2.58,30,17,0,0
109899,95924252,4,5302,5457,15.35,2.71,30,17,0,0
110393,96040892,4,5440,5200,15.39,2.2,30,17,0,0
110793,96143684,4,5199,5185,15.37,2.38,30,17,0,0
111243,96251100,4,5188,5257,15.38,2.26,30,17,0,0
111695,96365663,4,5254,5228,15.49,2.39,30,17,0,0
112582,96579912,4,5225,5128,15.51,2.47,30,17,0,0
113036,96694413,4,5134,5200,15.46,2.48,30,17,0,0
113486,96802231,4,5211,5385,15.41,2.62,30,17,0,0
113892,96905450,4,5384,5342,15.41,2.6,30,18,0,0
114341,97018000,4,5337,5242,15.33,2.31,30,18,0,0
114782,97125795,4,5248,5314,15.3,2.57,30,18,0,0
115235,97235495,4,5322,5442,15.41,2.44,30,18,0,0
115680,97347210,4,5438,5400,15.38,2.54,30,18,0,0
116126,97453297,4,5399,5385,15.41,2.56,30,18,0,0
116974,97665481,4,5382,5271,15.39,2.23,30,18,0,0
117425,97780556,4,5254,5085,15.41,2.07,30,18,0,0
117871,97885795,4,5095,5300,15.38,2.8,30,18,0,0
118314,97995024,4,5295,5200,15.35,2.31,30,18,0,0
118808,98119250,4,5202,5228,15.36,2.4,30,18,0,0
120142,98443752,4,5228,5228,15.39,2.4,30,19,0,0
120546,98546233,4,5229,5242,15.41,2.7,30,19,0,0
120991,98652601,4,5251,5385,15.3,2.89,30,19,0,0
121432,98760043,4,5386,5457,15.39,2.59,30,19,0,0
121880,98868097,4,5455,5385,15.3,2.77,30,19,0,0
122328,98980682,4,5378,5300,15.39,2.73,30,19,0,0
122775,99089784,4,5303,5357,15.32,2.57,30,19,0,0
123210,99193112,4,5358,5414,15.36,2.97,30,19,0,0
123668,99307447,4,5416,5485,15.35,2.74,30,19,0,0
124067,99408072,4,5485,5500,15.29,2.76,30,19,0,0
124518,99524442,4,5501,5514,15.41,2.57,30,19,0,0
124958,99625676,4,5513,5471,15.29,2.94,30,19,0,0
125369,99734265,4,5461,5342,15.33,2.54,30,20,0,0
125819,99843898,4,5348,5442,15.4,2.94,30,20,0,0
126268,99956155,4,5448,5542,15.36,2.74,30,20,0,0
126726,100068764,4,5536,5485,15.4,2.66,30,20,0,0
127174,100182056,4,5486,5500,15.36,2.61,30,20,0,0
127581,100280410,4,5495,5414,15.37,2.71,30,20,0,0
127987,100383563,4,5416,5585,15.37,2.76,30,20,0,0
128433,100489720,4,5581,5342,15.42,2.43,30,20,0,0
128875,100597464,4,5342,5357,15.4,2.33,30,20,0,0
129328,100709208,4,5350,5242,15.41,2.32,30,20,0,0
129733,100811073,4,5240,5214,15.36,2.28,30,20,0,0
130220,100927223,4,5209,5157,15.39,2.57,30,20,0,0
130672,101039314,4,5160,5200,15.35,2.38,30,20,0,0
131081,101145547,4,5197,5157,15.36,2.4,30,21,0,0
131531,101254456,4,5156,5142,15.39,2.76,30,21,0,0
131975,101364504,4,5144,5300,15.37,2.5,30,21,0,0
132464,101488452,4,5322,5442,15.41,2.72,30,21,0,0
132873,101587000,4,5437,5314,15.41,2.32,30,21,0,0
133319,101693815,4,5318,5442,15.42,2.72,30,21,0,0
134246,101919579,4,5445,5500,15.28,2.63,30,21,0,0
135099,102136778,4,5491,5328,15.38,2.35,30,21,0,0
135553,102241588,4,5321,5257,15.35,2.77,30,21,0,0
135955,102344792,4,5255,5171,15.34,2.57,30,21,0,0
136448,102463840,4,5160,5071,15.29,2.33,30,22,0,0
136850,102565889,4,5072,5157,15.25,2.65,30,22,0,0
137299,102673778,4,5158,5228,15.23,2.55,30,22,0,0
137711,102781738,4,5228,5242,15.22,2.42,30,22,0,0
138201,102900564,4,5246,5285,15.3,2.63,30,22,0,0
138649,103010781,4,5272,5185,15.3,2.56,30,22,0,0
139495,103214477,4,5186,5371,15.31,2.83,30,22,0,0
139940,103324894,4,5371,5385,15.33,2.52,30,22,0,0
140389,103428349,4,5384,5371,15.35,2.49,30,22,0,0
140840,103546504,4,5368,5328,15.29,2.78,30,22,0,0
141286,103653077,4,5337,5471,15.38,2.65,30,22,0,0
141731,103762668,4,5469,5457,15.24,2.68,30,22,0,0
142177,103869282,4,5450,5357,15.34,2.65,30,23,0,0
143033,104081245,4,5357,5385,15.29,2.57,30,23,0,0
143474,104186624,4,5385,5428,15.3,2.81,30,23,0,0
143970,104306671,4,5429,5442,15.32,2.56,30,23,0,0
144336,104404826,4,5441,5385,15.21,2.69,30,23,0,0
145225,104621226,4,5385,5385,15.29,2.65,30,23,0,0
145706,104734552,4,5385,5385,15.26,2.58,30,23,0,0
146157,104844097,4,5395,5500,15.35,2.54,30,23,0,0
146557,104945748,4,5490,5300,15.3,2.56,30,23,0,0
147011,105058604,4,5302,5371,15.29,2.63,30,23,0,0
147459,105170219,4,5365,5314,15.35,2.4,30,23,0,0
147901,105272921,4,5316,5342,15.36,2.47,30,24,0,0
148310,105375718,4,5342,5357,15.36,2.71,30,24,0,0
148756,105481098,4,5356,5328,15.29,2.78,30,24,0,0
149201,105592562,4,5333,5442,15.32,2.73,30,24,0,0
149655,105710781,4,5430,5357,15.26,2.58,30,24,0,0
150057,105806587,4,5357,5414,15.29,2.57,30,24,0,0
150506,105917674,4,5410,5157,15.27,2.39,30,24,0,0
150994,106037157,4,5166,5257,15.25,2.74,30,24,0,0
151441,106146456,4,5279,5500,15.3,2.98,30,24,0,0
151892,106254565,4,5496,5442,15.23,2.39,30,24,0,0
152296,106356787,4,5440,5385,15.2,2.69,30,24,0,0
152796,106476961,4,5382,5357,15.27,2.46,30,24,0,0
153195,106578093,4,5354,5214,15.27,2.5,30,25,0,0
153691,106694814,4,5226,5357,15.28,2.55,30,25,0,0
154132,106804160,4,5359,5385,15.26,2.43,30,25,0,0
154537,106905671,4,5381,5214,15.23,2.46,30,25,0,0
155025,107022750,4,5234,5528,15.23,3.39,30,25,0,0
155917,107242558,4,5540,5814,15.25,3.26,30,25,0,0
156319,107346711,4,5815,5942,15.29,3.03,30,25,0,0
156768,107454702,4,5939,5785,15.36,2.95,30,25,0,0
157255,107574587,4,5756,5442,15.36,2.58,30,25,0,0
157704,107681115,4,5444,5471,15.35,2.56,30,25,0,0
158148,107793397,4,5463,5385,15.24,2.77,30,25,0,0
158554,107892734,4,5391,5485,15.29,3.07,30,26,0,0
158957,107994801,4,5485,5571,15.3,2.87,30,26,0,0
159450,108118747,4,5564,5500,15.36,2.89,30,26,0,0
159857,108217234,4,5504,5585,15.36,2.77,30,26,0,0
160677,108428363,4,5582,5328,15.37,2.32,30,26,0,0
161128,108542540,4,5334,5428,15.26,2.69,30,26,0,0
162015,108754723,4,5431,5771,15.32,3.22,30,26,0,0
162505,108871124,4,5764,5671,15.3,2.69,30,26,0,0
163355,109082800,4,5671,5771,15.36,3.3,30,26,0,0
164253,109298593,4,5768,5671,15.3,2.86,30,27,0,0
165101,109508904,4,5666,5300,15.29,2.42,30,27,0,0
165597,109630287,4,5303,5342,15.29,2.54,30,27,0,0
166001,109731809,4,5343,5471,15.27,2.86,30,27,0,0
166448,109841653,4,5469,5371,15.26,2.54,30,27,0,0
166894,109952055,4,5377,5471,15.3,2.77,30,27,0,0
167347,110064133,4,5460,5357,15.2,2.56,30,27,0,0
167752,110167922,4,5355,5328,15.26,2.62,30,27,0,0
169050,110486766,4,5329,5557,15.26,2.96,30,28,0,0
169528,110599293,4,5558,5585,15.34,2.6,30,28,0,0
169977,110708841,4,5573,5357,15.22,2.29,30,28,0,0
170427,110818057,4,5348,5228,15.15,2.42,30,28,0,0
170835,110922213,4,5229,5314,15.24,2.6,30,28,0,0
171765,111143494,4,5308,5157,15.22,2.55,30,28,0,0
172209,111253076,4,5153,5128,15.22,2.67,30,28,0,0
172654,111361128,4,5133,5185,15.18,2.5,30,28,0,0
173102,111469297,4,5186,5200,15.33,2.33,30,28,0,0
173505,111571102,4,5180,4900,15.26,2.12,30,28,0,0
173955,111679888,4,4905,4985,15.3,2.45,30,28,0,0
174358,111781231,4,4984,4957,15.23,2.45,30,28,0,0
174848,111901842,4,4992,5228,15.25,2.82,30,29,0,0
175248,111996703,4,5229,5300,15.21,2.62,30,29,0,0
175742,112121340,4,5300,5300,15.18,2.5,30,29,0,0
176145,112219302,4,5300,5300,15.24,2.45,30,29,0,0
176554,112324273,4,5298,5257,15.22,2.65,30,29,0,0
176997,112427074,4,5263,5414,15.25,2.7,30,29,0,0
177485,112552236,4,5408,5357,15.24,2.42,30,29,0,0
177926,112649735,4,5361,5414,15.22,2.73,30,29,0,0
178373,112763459,4,5415,5428,15.26,2.4,30,29,0,0
178821,112871799,4,5420,5357,15.17,2.84,30,29,0,0
179676,113080910,4,5355,5300,15.3,2.5,30,29,0,0
180607,113309284,4,5300,5314,15.23,2.67,30,30,0,0
181015,113414755,4,5322,5400,15.26,2.57,31,30,0,0
181422,113521895,4,5389,5171,15.32,2.24,30,30,0,0
182794,113854136,4,5175,5300,15.27,2.55,30,30,0,0
183197,113956367,4,5288,5185,15.26,2.24,30,30,0,0
183648,114066570,4,5183,5157,15.15,2.53,31,30,0,0
184102,114184688,4,5178,5300,15.27,2.44,30,30,0,0
184550,114291331,4,5289,5128,15.29,2.34,30,30,0,0
184992,114401739,4,5132,5171,15.22,2.56,30,30,0,0
185433,114509237,4,5181,5271,15.26,2.43,31,30,0,0
185838,114608252,4,5274,5328,15.27,2.35,30,30,0,0
186325,114729161,4,5330,5342,15.29,2.58,30,30,0,0
186727,114827353,4,5345,5400,15.24,2.78,31,31,0,0
187174,114940588,4,5391,5300,15.28,2.58,30,31,0,0
187626,115047813,4,5308,5528,15.28,2.6,30,31,0,0
188069,115156985,4,5517,5385,15.25,2.84,30,31,0,0
188517,115265726,4,5385,5385,15.3,2.48,30,31,0,0
188922,115368273,4,5393,5571,15.18,2.92,30,31,0,0
189372,115478009,4,5565,5442,15.2,2.8,31,31,0,0
189856,115595492,4,5453,5585,15.21,2.77,31,31,0,0
190265,115696592,4,5586,5628,15.17,2.63,30,31,0,0
190706,115803911,4,5627,5614,15.14,2.7,30,31,0,0
191154,115915479,4,5612,5457,15.26,2.57,30,31,0,0
191601,116023090,4,5454,5357,15.23,2.59,31,32,0,0
192053,116135590,4,5355,5285,15.23,2.42,31,32,0,0
192501,116243074,4,5285,5342,15.24,2.66,31,32,0,0
192987,116361801,4,5339,5314,15.2,2.36,30,32,0,0
193433,116468318,4,5318,5385,15.22,2.45,30,32,0,0
193836,116570681,4,5381,5314,15.14,2.54,31,32,0,0
194283,116677757,4,5314,5328,15.22,2.58,30,32,0,0
194730,116791670,4,5323,5257,15.2,2.25,30,32,0,0
195179,116902478,4,5241,5028,15.22,2.04,31,32,0,0
195621,117012510,4,5020,4914,15.24,2.08,30,32,0,0
196081,117129568,4,4920,4985,15.27,2.58,31,32,0,0
196486,117231546,4,4966,4728,15.23,2.62,31,32,0,0
196889,117336039,4,4724,4657,15.15,2.8,31,32,0,0
197300,117439273,4,4678,5114,15.2,3.34,30,32,0,0
197745,117551525,4,5123,5257,15.2,2.91,31,33,0,0
198198,117663782,4,5276,5542,15.24,2.98,31,33,0,0
198639,117772527,4,5528,5400,15.27,2.63,31,33,0,0
199045,117872919,4,5398,5328,15.28,2.59,31,33,0,0
199521,117984752,4,5336,5500,15.23,2.74,31,33,0,0
199978,118097432,4,5500,5500,15.23,3,31,33,0,0
200420,118206029,4,5509,5685,15.25,3.16,31,33,0,0
200867,118316014,4,5677,5557,15.2,3.01,31,33,0,0
201312,118425818,4,5567,5714,15.22,2.91,31,33,0,0
201753,118533537,4,5702,5557,15.23,2.86,31,33,0,0
202204,118643512,4,5562,5628,15.23,2.59,31,33,0,0
202599,118743593,4,5626,5485,15.19,2.86,30,34,0,0
203051,118852257,4,5483,5471,15.25,2.95,31,34,0,0
203501,118962480,4,5465,5385,15.12,2.77,31,34,0,0
203949,119071229,4,5388,5428,15.26,2.62,31,34,0,0
204394,119182920,4,5428,5428,15.24,2.73,31,34,0,0
204842,119291577,4,5427,5414,15.29,2.46,31,34,0,0
205246,119394595,4,5412,5314,15.22,2.39,31,34,0,0
205694,119503269,4,5313,5300,15.21,2.43,31,34,0,0
206138,119612503,4,5302,5357,15.2,2.84,31,34,0,0
207022,119825738,4,5362,5571,15.16,2.88,31,34,0,0
207504,119942059,4,5571,5585,15.17,3.17,31,34,0,0
207950,120048989,4,5589,5642,15.2,2.85,31,34,0,0
208391,120156543,4,5639,5600,15.22,2.93,31,35,0,0
208839,120265588,4,5594,5457,15.23,2.5,31,35,0,0
209700,120481896,4,5456,5442,15.2,2.49,31,35,0,0
210145,120593049,4,5431,5300,15.18,2.63,31,35,0,0
210593,120707590,4,5311,5414,15.2,2.54,31,35,0,0
211038,120814587,4,5414,5414,15.24,2.8,31,35,0,0
211518,120927013,4,5415,5428,15.17,2.41,31,35,0,0
211929,121030585,4,5423,5385,15.22,2.53,31,35,0,0
212370,121137441,4,5376,5285,15.25,2.45,31,35,0,0
212820,121247857,4,5285,5300,15.23,2.59,31,35,0,0
213224,121353737,4,5311,5457,15.13,2.65,31,35,0,0
213672,121463089,4,5458,5485,15.19,2.86,31,36,0,0
214123,121577518,4,5483,5471,15.18,2.77,31,36,0,0
214528,121680055,4,5471,5514,15.13,2.63,30,36,0,0
215011,121801739,4,5505,5442,15.24,2.49,31,36,0,0
215458,121906712,4,5429,5300,15.22,2.54,31,36,0,0
215858,122005306,4,5304,5414,15.16,2.66,31,36,0,0
216308,122118541,4,5435,5614,15.21,3.06,31,36,0,0
216753,122226494,4,5603,5457,15.13,2.85,31,36,0,0
217156,122329121,4,5456,5442,15.1,2.47,31,36,0,0
217601,122434989,4,5441,5414,15.2,2.67,31,36,0,0
218089,122552676,4,5411,5385,15.19,2.58,31,36,0,0
218495,122654291,4,5387,5442,15.11,2.9,31,36,0,0
218943,122773777,4,5458,5600,15.17,2.99,31,36,0,0
219394,122881140,4,5602,5628,15.17,2.98,31,37,0,0
219796,122984313,4,5628,5628,15.22,2.71,31,37,0,0
220288,123103125,4,5625,5600,15.17,2.71,31,37,0,0
220721,123205072,4,5580,5357,15.22,2.9,31,37,0,0
221168,123316174,4,5388,5628,15.25,2.98,31,37,0,0
221572,123414675,4,5630,5800,15.19,2.93,31,37,0,0
222051,123535483,4,5775,5585,15.2,2.79,31,37,0,0
222459,123632387,4,5585,5628,15.16,3.06,31,37,0,0
222905,123747450,4,5624,5542,15.16,3.07,31,37,0,0
223354,123854244,4,5544,5714,15.16,2.97,31,37,0,0
223794,123963162,4,5706,5557,15.2,2.67,31,37,0,0
224249,124074729,4,5558,5614,15.22,2.78,31,38,0,0
224738,124197436,4,5595,5400,15.23,2.52,31,38,0,0
225145,124298263,4,5394,5342,15.2,2.69,31,38,0,0
226039,124521845,4,5347,5442,15.16,2.74,31,38,0,0
226448,124624846,4,5440,5428,15.07,3.02,31,38,0,0
226880,124725726,4,5426,5357,15.22,2.08,31,38,0,0
227328,124834754,4,5361,5457,15.15,3.07,31,38,0,0
227774,124946534,4,5458,5542,15.22,2.73,31,38,0,0
228224,125053919,4,5539,5500,15.22,3.06,31,38,0,0
228672,125165708,4,5507,5585,15.18,3.01,31,38,0,0
229120,125274817,4,5592,5700,15.21,3.09,31,38,0,0
229562,125385592,4,5693,5614,15.22,2.89,31,38,0,0
230010,125496309,4,5613,5600,15.2,2.78,31,39,0,0
230420,125599017,4,5592,5414,15.17,2.83,31,39,0,0
231346,125821156,4,5421,5585,15.24,2.6,31,39,0,0
231756,125928284,4,5577,5428,15.27,2.58,31,39,0,0
232610,126140273,4,5427,5400,15.16,2.62,31,39,0,0
233537,126363776,4,5399,5271,15.19,2.52,31,39,0,0
233985,126475538,4,5271,5271,15.15,2.77,31,39,0,0
234426,126585563,4,5270,5257,15.26,2.42,31,39,0,0
234874,126693781,4,5255,5200,15.19,2.21,31,39,0,0
235318,126808241,4,5208,5314,15.15,2.37,31,39,0,0
235774,126922078,4,5327,5457,15.22,2.94,31,40,0,0
236224,127032071,4,5458,5485,15.22,2.83,31,40,0,0
236666,127142888,4,5483,5457,15.2,2.68,31,40,0,0
237114,127252578,4,5458,5485,15.19,2.67,31,40,0,0
237562,127366022,4,5488,5528,15.19,2.8,31,40,0,0
237969,127467749,4,5525,5457,15.25,2.65,31,40,0,0
238413,127575040,4,5453,5400,15.2,2.62,31,40,0,0
238858,127684781,4,5396,5314,15.24,2.53,31,40,0,0
239261,127789016,4,5312,5214,15.17,2.65,31,40,0,0
239709,127897287,4,5216,5400,15.2,2.39,31,40,0,0
240606,128119912,4,5401,5442,15.21,2.6,31,41,0,0
241051,128226696,4,5438,5385,15.22,2.9,31,41,0,0
241498,128338717,4,5386,5400,15.27,2.55,31,41,0,0
241900,128437157,4,5401,5485,15.2,2.71,31,41,0,0
242351,128549730,4,5484,5471,15.2,2.45,31,41,0,0
242796,128656768,4,5469,5400,15.2,2.78,31,41,0,0
243243,128768259,4,5399,5385,15.12,2.49,31,41,0,0
243691,128877776,4,5390,5457,15.2,2.53,31,41,0,0
244132,128985072,4,5457,5457,15.14,2.81,31,41,0,0
244589,129095782,4,5450,5357,15.14,2.64,31,41,0,0
245174,129310460,4,5511,5285,15.14,2.62,31,41,0,0
245615,129416973,4,5287,5414,15.22,2.57,31,41,0,0
246062,129529178,4,5401,5242,15.14,2.35,31,42,0,0
246472,129633038,4,5244,5271,15.22,2.31,31,42,0,0
246919,129748420,4,5260,5157,15.21,2.66,31,42,0,0
247368,129857792,4,5152,5100,15.21,2.35,31,42,0,0
247765,129955815,4,5098,5071,15.14,3.08,31,42,0,0
248219,130067997,4,5081,5314,15.08,2.94,31,42,0,0
248666,130176297,4,5302,5028,15.23,3.19,31,42,0,0
249117,130287826,4,5033,5171,15.16,2.97,31,42,0,0
249555,130394768,4,5169,5142,14.94,3.49,31,42,0,0
250006,130502310,4,5137,5085,15.09,3.33,31,42,0,0
250411,130607456,4,5101,5314,15.16,2.57,31,42,0,0
250861,130719598,4,5323,5414,15.12,3.01,31,43,0,0
251302,130826221,4,5412,5385,15.2,2.57,31,43,0,0
251706,130930121,4,5388,5457,15.11,2.73,31,43,0,0
252161,131043244,4,5464,5571,15.14,2.81,31,43,0,0
252568,131150281,4,5567,5471,15.17,2.56,31,43,0,0
253019,131258333,4,5470,5457,15.14,2.81,31,43,0,0
253466,131374061,4,5455,5442,15.09,2.51,31,43,0,0
253913,131479076,4,5449,5557,15.12,2.91,31,43,0,0
254355,131587277,4,5549,5471,15.17,2.77,31,43,0,0
255247,131806600,4,5472,5500,15.1,2.53,31,43,0,0
255694,131920990,4,5498,5485,15.11,2.7,31,43,0,0
256138,132028136,4,5492,5557,15.23,3.03,31,43,0,0
256545,132130354,4,5548,5428,15.18,2.66,31,44,0,0
257032,132245292,4,5439,5571,15.11,3.18,31,44,0,0
257435,132346143,4,5575,5700,15.13,2.87,31,44,0,0
257880,132453116,4,5698,5671,15.16,3.1,31,44,0,0
258323,132563681,4,5653,5428,15.16,2.68,31,44,0,0
258771,132674139,4,5441,5571,15.15,2.61,31,44,0,0
259171,132774602,4,5577,5700,15.13,3.03,31,44,0,0
259661,132895580,4,5700,5700,15.1,2.94,31,44,0,0
260066,132993288,4,5697,5528,15.15,2.48,31,44,0,0
260998,133215596,4,5520,5342,15.08,2.5,31,44,0,0
261439,133324276,4,5342,5371,15.28,2.46,31,45,0,0
261886,133433991,4,5371,5400,15.17,2.88,31,45,0,0
262376,133557992,4,5386,5242,15.19,2.49,31,45,0,0
262777,133653181,4,5243,5385,15.15,2.59,31,45,0,0
263266,133774767,4,5390,5428,15.24,2.65,31,45,0,0
263714,133879005,4,5409,5214,15.23,2.52,31,45,0,0
264114,133979573,4,5215,5328,15.22,2.8,31,45,0,0
264602,134097416,4,5324,5271,15.29,2.59,31,45,0,0
265455,134306538,4,5269,5128,15.2,2.45,31,45,0,0
265905,134419894,4,5129,5142,15.19,2.19,31,45,0,0
266308,134523696,4,5146,5228,15.27,2.6,31,45,0,0
266754,134630301,4,5236,5314,15.34,2.29,31,45,0,0
267198,134742748,4,5322,5414,15.21,2.9,31,45,0,0
267681,134854420,4,5435,5600,15.21,3.29,31,46,0,0
268083,134956389,4,5600,5600,15.1,3.39,31,46,0,0
268977,135177767,4,5590,5314,15.23,2.31,31,46,0,0
269426,135287220,4,5314,5328,15.15,2.7,31,46,0,0
270322,135513018,4,5334,5457,15.19,2.76,31,46,0,0
270730,135614300,4,5462,5514,15.2,2.57,31,46,0,0
271177,135726150,4,5489,5300,15.14,2.46,31,46,0,0
271623,135833093,4,5300,5300,15.04,2.57,31,46,0,0
272074,135946845,4,5311,5428,15.17,2.72,31,46,0,0
272519,136054119,4,5420,5342,15.13,2.74,31,46,0,0
272957,136160591,4,5348,5442,15.07,2.75,31,47,0,0
273405,136270779,4,5445,5500,15.1,2.81,31,47,0,0
273812,136377402,4,5502,5571,15.16,2.83,31,47,0,0
274259,136485038,4,5557,5357,15.23,2.94,31,47,0,0
274706,136596739,4,5368,5471,15.21,2.69,31,47,0,0
275152,136703526,4,5465,5414,15.22,2.44,31,47,0,0
275558,136809907,4,5408,5357,15.2,1.98,31,47,0,0
276455,137026356,4,5349,4928,15.18,1.82,31,47,0,0
276894,137135098,4,4924,4757,15.21,2.33,31,47,0,0
277756,137352022,4,4741,4428,15.18,1.68,31,47,0,0
278242,137464723,4,4423,4371,14.98,2.44,31,47,0,0
278643,137567480,4,4353,4114,15.14,1.1,31,47,0,0
279091,137674752,4,4103,3871,14.98,2.47,31,47,0,0
279530,137782042,4,3868,3785,15.13,2.09,31,48,0,0
279982,137893806,4,3787,4000,14.88,2.85,31,48,0,0
280431,138007684,4,3985,3842,14.95,1.19,31,48,0,0
281320,138224164,4,3829,3514,14.98,2.21,31,48,0,0
281761,138333518,4,3549,4257,15.03,2.29,31,48,0,0
282218,138445307,4,4228,3800,14.9,2.42,31,48,0,0
282656,138552574,4,3806,4042,14.96,1.74,31,48,0,0
283515,138770907,4,4044,4142,15,1.83,31,48,0,0
283965,138880143,4,4151,4271,14.99,1.98,31,48,0,0
284453,138998253,4,4264,4200,15.09,1.49,31,48,0,0
284859,139104745,4,4238,4485,15.09,1.95,31,48,0,0
285302,139209705,4,4507,4814,15.11,1.91,31,48,0,0
285706,139310230,4,4815,4857,15.11,2.08,31,48,0,0
286162,139425894,4,4866,5000,15.13,2.43,31,49,0,0
286603,139534724,4,5018,5285,15.17,3.23,31,49,0,0
287903,139854784,4,5284,5271,15.14,2.75,31,49,0,0
288315,139963684,4,5273,5442,15.13,2.72,31,49,0,0
288804,140082139,4,5439,5414,15.15,2.49,31,49,0,0
289207,140186013,4,5414,5414,15.12,2.51,31,49,0,0
290101,140405062,4,5411,5300,15.17,2.08,31,49,0,0
290589,140526398,4,5283,5142,15.15,2.28,31,49,0,0
290991,140624580,4,5137,5042,15.16,1.9,31,49,0,0
291439,140737900,4,5038,5000,15,2.51,31,49,0,0
291840,140834293,4,4995,4828,15.14,1.75,31,49,0,0
292300,140955222,4,4821,4757,15.11,2.19,31,50,0,0
292747,141062915,4,4758,4771,15.18,2.32,31,50,0,0
293151,141166461,4,4776,4842,15.04,2.87,31,50,0,0
293598,141275541,4,4849,4971,15.17,2.21,31,50,0,0
293998,141376591,4,4974,5085,15.13,2.42,31,50,0,0
294451,141487187,4,5092,5200,15.1,2.69,31,50,0,0
294894,141598730,4,5223,5557,15.11,3.02,31,50,0,0
295337,141709073,4,5544,5442,15.1,2.61,31,50,0,0
295786,141816739,4,5451,5557,15.14,2.68,31,50,0,0
296194,141920722,4,5558,5585,15.19,2.73,31,50,0,0
296644,142029662,4,5595,5814,15.17,3.15,31,50,0,0
297092,142142946,4,5784,5485,15.16,2.21,31,50,0,0
297534,142247816,4,5470,5271,15.18,2.26,31,50,0,0
297981,142361124,4,5260,5157,15.16,2.19,31,51,0,0
298425,142465526,4,5161,5214,15.17,2.2,31,51,0,0
298832,142570754,4,5213,5200,15.14,2.43,31,51,0,0
299276,142677201,4,5190,5000,15.08,2.18,31,51,0,0
299765,142796965,4,4992,4914,15.13,1.91,31,51,0,0
300176,142899786,4,4886,4642,15.1,1.87,31,51,0,0
300575,143001241,4,4647,4714,15.17,1.94,31,51,0,0
300986,143109814,4,4698,4357,15.1,1.52,31,51,0,0
301431,143215487,4,4357,4371,15.11,1.46,31,51,0,0
301950,143341816,4,4375,4414,15.13,1.41,31,51,0,0
302363,143438096,4,4419,4528,15.12,1.91,31,51,0,0
302807,143548828,4,4532,4600,15.13,2.07,31,51,0,0
303253,143659660,4,4614,4785,15.2,2.09,31,51,0,0
303696,143766673,4,4788,4828,15.13,2.65,31,51,0,0
304141,143879092,4,4830,4857,15.18,2.2,31,51,0,0
304591,143995557,4,4869,4985,15.07,2.68,31,51,0,0
305447,144206295,4,4987,5057,15.17,2.41,31,52,0,0
305894,144314529,4,5059,5171,15.16,2.65,31,52,0,0
306338,144428681,4,5166,5128,15.17,2.34,31,52,0,0
307191,144640526,4,5131,5200,15.16,2.52,31,52,0,0
307633,144749054,4,5207,5328,15.16,2.28,31,52,0,0
308078,144858767,4,5324,5271,15.13,2.58,31,52,0,0
308528,144969443,4,5266,5200,15.11,2.6,31,52,0,0
308938,145072519,4,5200,5200,15.16,2.47,31,52,0,0
309388,145183253,4,5183,5042,15.08,2.54,31,52,0,0
309837,145292716,4,5039,5014,15.13,2.5,31,52,0,0
310243,145393602,4,5007,4842,15.18,2.55,31,52,0,0
310686,145499888,4,4842,4871,15.08,2.24,31,53,0,0
311133,145612139,4,4877,5014,15.22,2.15,31,53,0,0
311588,145727223,4,5010,4971,15.17,2.64,31,53,0,0
312036,145840563,4,4987,5157,15.2,2.79,31,53,0,0
312441,145944403,4,5163,5228,15.11,2.43,31,53,0,0
312892,146053775,4,5230,5257,15.11,2.65,31,53,0,0
313331,146160521,4,5255,5228,15.11,2.73,31,53,0,0
313784,146270784,4,5235,5342,15.22,2.69,31,53,0,0
314187,146373098,4,5340,5242,15.29,1.94,31,53,0,0
314636,146483253,4,5238,5014,15.21,2.2,31,53,0,0
315035,146585724,4,5015,5114,15.19,2.83,31,53,0,0
315530,146703694,4,5120,5214,15.13,2.89,31,53,0,0
315931,146805051,4,5218,5485,15.19,2.88,31,53,0,0
316856,147025530,4,5483,5385,15.21,2.65,31,54,0,0
317304,147138587,4,5405,5685,15.12,3.58,31,54,0,0
317748,147244555,4,5683,5585,15.17,2.98,31,54,0,0
318194,147354535,4,5585,5600,15.22,2.66,31,54,0,0
318641,147461791,4,5597,5442,15.12,2.5,31,54,0,0
319081,147568120,4,5444,5600,15.17,2.79,31,54,0,0
319530,147677200,4,5601,5657,15.09,3.16,31,54,0,0
319980,147790075,4,5675,5971,15.16,3.54,31,54,0,0
320428,147895739,4,5969,5928,15.15,3.32,31,54,0,0
320833,148001051,4,5924,5728,15.15,3.03,31,54,0,0
321318,148115579,4,5735,5885,15.14,2.82,31,55,0,0
321761,148227777,4,5875,5742,15.15,3,31,55,0,0
322166,148331904,4,5731,5585,15.19,2.89,31,55,0,0
322615,148438027,4,5590,5671,15.23,2.56,31,55,0,0
323017,148539502,4,5667,5442,15.18,2.26,31,55,0,0
323499,148649693,4,5442,5442,15.2,2.28,31,55,0,0
323944,148762442,4,5435,5342,15.22,2.45,31,55,0,0
324392,148868491,4,5350,5457,15.14,2.81,31,55,0,0
324799,148971762,4,5453,5271,15.22,3.23,31,55,0,0
325288,149086947,4,5287,5542,15.19,3.31,31,55,0,0
325695,149192339,4,5526,5328,15.04,2.7,31,55,0,0
326139,149299678,4,5325,5285,15.16,3.03,31,55,0,0
326584,149410601,4,5298,5585,15.2,2.88,31,56,0,0
326989,149515593,4,5585,5600,15.14,2.89,31,56,0,0
327436,149623883,4,5599,5585,15.08,2.85,31,56,0,0
328362,149847783,4,5571,5285,15.19,2.33,31,56,0,0
328807,149955089,4,5282,5257,15.23,2.46,31,56,0,0
329262,150065531,4,5249,5171,15.19,2.08,31,56,0,0
329707,150174598,4,5174,5214,15.18,2.35,31,56,0,0
330155,150284548,4,5200,5057,15.18,2.78,31,56,0,0
330562,150387673,4,5060,5100,15.16,2.4,31,56,0,0
331010,150495125,4,5093,5000,15.11,2.98,31,56,0,0
331456,150606283,4,5001,5028,15.14,2.57,31,56,0,0
331899,150716809,4,5048,5285,15.19,2.3,31,56,0,0
332352,150827047,4,5278,5214,15.17,2.21,31,57,0,0
333209,151044807,4,5223,5442,15.16,2.44,31,57,0,0
333651,151154261,4,5437,5371,15.2,2.27,31,57,0,0
334098,151262667,4,5369,5342,15.13,2.63,31,57,0,0
334503,151366089,4,5335,5100,15.16,2,31,57,0,0
334995,151484883,4,5111,5228,15.11,2.86,31,57,0,0
335398,151590480,4,5228,5228,15.16,2.14,31,57,0,0
335849,151699704,4,5231,5271,15.09,2.78,31,57,0,0
336253,151804017,4,5271,5285,15.19,2.47,31,57,0,0
336702,151914545,4,5281,4985,15.08,1.77,31,57,0,0
337151,152023498,4,4984,4971,15.22,2,31,57,0,0
337601,152140239,4,4955,4800,15.18,2.2,31,57,0,0
338005,152239877,4,4800,4857,15.18,2.49,31,57,0,0
338489,152356032,4,4874,5100,15.15,2.38,31,58,0,0
338941,152467070,4,5096,5057,15.19,2.62,31,58,0,0
339339,152566022,4,5055,4985,15.14,2.47,31,58,0,0
339831,152683819,4,4989,5042,15.11,3.07,31,58,0,0
340240,152788591,4,5055,5342,15,3.47,31,58,0,0
340690,152897349,4,5370,5714,15.01,3.25,31,58,0,0
341131,153007756,4,5707,5628,15.07,3.01,31,58,0,0
341578,153115124,4,5651,5842,15.07,2.93,31,58,0,0
342024,153222120,4,5830,5657,15.07,2.91,31,58,0,0
342470,153334289,4,5644,5528,15.1,2.61,31,58,0,0
343323,153547573,4,5532,5657,15.05,2.87,31,58,0,0
343768,153662137,4,5634,5514,15.13,2.81,31,59,0,0
344208,153761120,4,5518,5600,15.13,2.52,31,59,0,0
344662,153876796,4,5579,5357,15.13,2.41,31,59,0,0
345103,153985898,4,5346,5171,15.16,2,31,59,0,0
345555,154092229,4,5165,5028,15.08,2.35,31,59,0,0
345996,154205138,4,5029,5057,15.13,2.47,31,59,0,0
347363,154531031,4,5058,5128,14.98,2.43,31,59,0,0
348253,154748707,4,5123,5000,15.01,2.51,31,59,0,0
348702,154859789,4,5004,5071,14.97,2.44,31,59,0,0
349146,154970708,4,5073,5100,15.07,2.4,31,59,0,0
349595,155079903,4,5093,5028,15.16,2.19,31,59,0,0
350488,155296327,4,5029,5057,15.01,2.73,31,60,0,0
350895,155398843,4,5056,5042,15.08,2.19,31,60,0,0
351339,155505145,4,5045,5128,15.11,2.22,31,60,0,0
351782,155616092,4,5120,5028,15.07,2.53,31,60,0,0
352193,155726526,4,5044,5200,15.02,3.01,31,60,0,0
352676,155835563,4,5207,5314,15.14,2.37,31,60,0,0
353080,155935750,4,5311,5200,15.13,2.57,31,60,0,0
353576,156057486,4,5203,5242,15.12,2.58,31,60,0,0
353977,156158021,4,5240,5200,15.13,2.5,31,60,0,0
354426,156266268,4,5201,5242,15.1,2.53,31,60,0,0
354872,156376120,4,5242,5257,15.07,2.34,31,60,0,0
355322,156486564,4,5258,5314,15.12,2.64,31,61,0,0
355763,156595452,4,5311,5200,15.1,2.55,31,61,0,0
356216,156709798,4,5198,5185,15.11,2.49,31,61,0,0
356667,156821219,4,5186,5200,15.16,2.28,31,61,0,0
357066,156921512,4,5197,5057,15.08,2.35,31,61,0,0
357562,157038529,4,5055,5042,15.12,2.33,31,61,0,0
357964,157143268,4,5037,4942,15.07,1.97,31,61,0,0
358459,157260288,4,4924,4742,15.13,2.55,31,61,0,0
358903,157369052,4,4739,4714,15.07,2,31,61,0,0
359750,157577465,4,4710,4628,15.1,2.04,31,61,0,0
360241,157694510,4,4642,4785,15.07,2.28,31,61,0,0
360641,157794293,4,4778,4700,15.07,2.17,31,61,0,0
361086,157900824,4,4704,4800,15.12,1.9,31,61,0,0
361533,158013897,4,4798,4771,15.11,2.19,31,61,0,0
362389,158226444,4,4786,5228,15.1,2.66,31,62,0,0
362794,158328694,4,5226,5142,15.1,2.51,31,62,0,0
363280,158441822,4,5139,5085,15.01,2.59,31,62,0,0
363727,158556668,4,5104,5300,15.03,2.63,31,62,0,0
364175,158665034,4,5307,5385,15.01,2.36,31,62,0,0
364578,158764792,4,5383,5271,15.08,2.68,31,62,0,0
365470,158984063,4,5265,5100,15.05,2.23,31,62,0,0
365919,159093688,4,5102,5128,15.1,1.93,31,62,0,0
366324,159197692,4,5125,5000,15.11,2.26,31,62,0,0
366776,159311229,4,4996,4957,15.05,2.51,31,62,0,0
367221,159418423,4,4959,5000,14.92,2.64,31,62,0,0
367668,159528920,4,5010,5157,15.1,2.44,31,62,0,0
368078,159630596,4,5150,4828,15.13,1.96,31,63,0,0
368558,159745101,4,4820,4657,14.96,2.1,31,63,0,0
369013,159856306,4,4658,4685,15.06,2.16,31,63,0,0
369419,159962748,4,4695,4842,14.97,2.43,31,63,0,0
369867,160070682,4,4854,5014,15.07,2.45,31,63,0,0
370315,160183019,4,5014,5028,15.08,2.37,31,63,0,0
370802,160295005,4,5021,4957,15.07,2.43,31,63,0,0
371204,160394713,4,4969,5228,15.03,3.23,31,63,0,0
371696,160514470,4,5234,5300,15.04,2.42,31,63,0,0
372575,160728564,4,5285,4957,15.17,1.98,31,63,0,0
373026,160844772,4,4954,4942,15.01,2.54,31,63,0,0
373426,160937788,4,4950,5114,15.11,2.28,31,63,0,0
373880,161047726,4,5106,5000,15.13,2.43,31,63,0,0
374323,161157838,4,5001,5057,15.14,2.3,31,64,0,0
374776,161266097,4,5058,5100,15.12,2.23,31,64,0,0
375413,161500797,4,5029,5242,15.05,2.52,31,64,0,0
375778,161592997,4,5241,5171,15.13,2.45,31,64,0,0
376269,161714488,4,5155,5000,15.13,2.32,31,64,0,0
376673,161814730,4,5005,5071,15.16,2.28,31,64,0,0
377077,161917025,4,5071,5100,15.07,2.35,31,64,0,0
377522,162030282,4,5100,5142,15.01,2.65,31,64,0,0
377968,162143527,4,5145,5185,15.01,2.59,31,64,0,0
378425,162252695,4,5177,5100,15.06,2.48,31,64,0,0
378830,162360594,4,5103,5128,15.08,2.48,31,64,0,0
379235,162456827,4,5131,5300,15.11,2.77,31,64,0,0
379684,162571316,4,5315,5457,15.12,2.74,31,64,0,0
380131,162680516,4,5455,5442,15.09,2.33,31,65,0,0
380573,162788139,4,5442,5457,15.07,2.81,31,65,0,0
380982,162893725,4,5446,5371,15.07,2.51,31,65,0,0
381423,163002154,4,5379,5457,15.11,2.53,31,65,0,0
381863,163112857,4,5468,5557,15.09,2.79,31,65,0,0
382312,163220701,4,5552,5485,15.13,2.7,31,65,0,0
383170,163434997,4,5474,5228,15.1,2.52,31,65,0,0
383570,163538191,4,5229,5300,15.07,2.2,31,65,0,0
384058,163654673,4,5277,5042,15.05,2.24,31,65,0,0
384503,163763260,4,5038,5000,15.07,2.1,31,65,0,0
384953,163870161,4,5008,5085,15.14,2.13,31,65,0,0
385363,163977469,4,5086,5114,15.07,2.8,31,65,0,0
385808,164085806,4,5117,5157,15.05,2.59,31,66,0,0
386247,164189817,4,5159,5214,15.14,2.35,31,66,0,0
386700,164300922,4,5220,5314,15.18,2.49,31,66,0,0
387586,164517777,4,5316,5428,15.07,2.64,31,66,0,0
388473,164733085,4,5418,5157,15.11,2.31,31,66,0,0
389324,164944567,4,5159,5242,15.11,2.62,31,66,0,0
389769,165052287,4,5238,5185,15.05,2.39,31,66,0,0
390178,165159278,4,5189,5257,15.04,2.49,31,66,0,0
390632,165271066,4,5246,5085,15.13,2.29,31,66,0,0
391083,165381513,4,5085,5114,15.2,2.29,31,66,0,0
391531,165492301,4,5108,4800,15.17,2.11,31,67,0,0
391977,165600817,4,4811,5071,15.04,2.92,31,67,0,0
392430,165716162,4,5062,4985,15.15,2.42,31,67,0,0
392836,165817842,4,4984,4971,15.05,2.28,31,67,0,0
393316,165930802,4,4977,5114,15.13,2.24,31,67,0,0
393727,166033243,4,5112,5042,15.14,2.1,30,67,0,0
394205,166146476,4,5051,5171,15.01,2.45,31,67,0,0
394660,166258232,4,5167,5114,15.07,2.33,31,67,0,0
395106,166369912,4,5123,5228,15.19,2.39,31,67,0,0
395993,166585572,4,5219,5028,15.27,1.89,31,67,0,0
396444,166693906,4,5004,4757,15.27,2.04,31,67,0,0
396880,166797913,4,4752,4642,15.26,1.83,31,67,0,0
397369,166917678,4,4633,4557,15.32,1.85,31,67,0,0
397769,167015321,4,4555,4442,15.36,1.57,31,67,0,0
398249,167132055,4,4402,3885,15.44,1.65,31,68,0,0
398706,167242532,4,3839,3185,15.66,0.52,31,68,0,0
399103,167343302,4,3168,2557,15.58,0.26,31,68,0,0
399595,167460090,4,2540,2314,15.56,0.26,31,68,0,0
399991,167560063,4,2317,2385,15.55,0.31,31,68,0,0
400446,167671491,4,2378,2285,15.56,0.3,31,68,0,0
402186,168100026,4,2285,2328,15.6,0.36,31,68,0,0
402627,168206697,4,2325,2271,15.57,0.33,31,68,0,0
403074,168319093,4,2274,2300,15.6,0.37,31,68,0,0
403519,168425680,4,2302,2328,15.6,0.28,30,68,0,0
403926,168525554,4,2329,2385,15.6,0.36,30,68,0,0
404415,168639077,4,2397,2528,15.62,0.47,31,68,0,0
404856,168743732,4,2531,2600,15.69,0.5,30,68,0,0
405749,168961076,4,2601,2642,15.6,0.47,30,68,0,0
406197,169068001,4,2604,1885,15.68,0.01,30,68,0,0
406644,169176064,4,1868,1485,15.67,0,30,68,0,0
407136,169291822,4,1474,1328,15.66,0.09,30,68,0,0
407548,169396302,4,1326,1300,15.66,0.11,30,68,0,0
407992,169500280,4,1300,1300,15.67,0.11,30,68,0,0
408437,169610257,4,1300,1300,15.67,0.11,30,68,0,0
408887,169719791,4,1300,1300,15.67,0.11,30,68,0,0
409335,169828671,4,1298,1285,15.68,0.11,30,68,0,0
409744,169930301,4,1285,1285,15.68,0.11,30,68,0,0
410195,170039829,4,1285,1285,15.68,0.11,30,68,0,0
410639,170146211,4,1285,1285,15.69,0.11,30,68,0,0
411131,170268068,4,1285,1285,15.68,0.09999999,30,68,0,0
411542,170372539,4,1285,1285,15.69,0.11,30,68,0,0
411986,170478586,4,1286,1300,15.69,0.11,30,68,0,0
412395,170578766,4,1300,1300,15.69,0.09999999,30,68,0,0
413328,170803240,4,1300,1300,15.69,0.09999999,30,68,0,0
413813,170918305,4,1300,1300,15.7,0.09999999,30,68,0,0
414219,171011998,4,1300,1300,15.69,0.09999999,30,68,0,0
414660,171120299,4,1300,1300,15.7,0.09999999,30,68,0,0
415155,171238525,4,1301,1314,15.7,0.09999999,30,68,0,0
415555,171338512,4,1313,1300,15.7,0.09999999,30,68,0,0
415999,171444550,4,1300,1300,15.71,0.09999999,30,68,0,0
416487,171560103,4,1300,1300,15.71,0.09999999,30,68,0,0
416897,171661125,4,1300,1300,15.71,0.09999999,30,68,0,0
417391,171778406,4,1300,1300,15.71,0.09999999,30,68,0,0
417840,171885152,4,1300,1300,15.71,0.09999999,30,68,0,0
418244,171982784,4,1300,1300,15.72,0.09999999,30,68,0,0
419136,172198565,4,1300,1300,15.72,0.09999999,30,68,0,0
419587,172308007,4,1300,1300,15.73,0.09999999,30,68,0,0
420031,172415486,4,1300,1300,15.72,0.09999999,30,68,0,0
420437,172518212,4,1300,1300,15.72,0.09999999,30,68,0,0
420926,172633397,4,1300,1300,15.72,0.09999999,30,68,0,0
421375,172743247,4,1301,1314,15.72,0.09999999,30,68,0,0
421780,172840293,4,1313,1300,15.73,0.09999999,30,68,0,0
422260,172952187,4,1300,1300,15.73,0.11,30,68,0,0
422715,173060553,4,1300,1300,15.73,0.09999999,30,68,0,0
423195,173169825,4,1300,1300,15.73,0.09999999,30,68,0,0
423644,173276706,4,1300,1300,15.73,0.09999999,30,68,0,0
424086,173384994,4,1300,1300,15.74,0.09999999,30,68,0,0
424577,173502896,4,1300,1300,15.74,0.09999999,30,68,0,0
424974,173596674,4,1300,1300,15.75,0.11,30,68,0,0
425423,173703128,4,1300,1300,15.74,0.09999999,30,68,0,0
425905,173814486,4,1300,1300,15.74,0.11,30,68,0,0
426310,173915090,4,1300,1300,15.75,0.11,30,68,0,0
426800,174028784,4,1300,1300,15.75,0.11,30,68,0,0
427203,174128770,4,1300,1300,15.75,0.11,30,68,0,0
427695,174243034,4,1300,1314,15.75,0.09999999,30,68,0,0
428138,174350549,4,1314,1314,15.75,0.09999999,30,68,0,0
428584,174457831,4,1314,1314,15.75,0.09999999,30,68,0,0
429025,174562562,4,1314,1314,15.75,0.09999999,30,68,0,0
429477,174672056,4,1312,1300,15.75,0.09999999,30,68,0,0
429954,174784236,4,1301,1314,15.76,0.09999999,30,68,0,0
430362,174882715,4,1313,1300,15.75,0.09999999,30,68,0,0
430808,174989791,4,1300,1300,15.76,0.09999999,30,68,0,0
431258,175097243,4,1300,1300,15.76,0.09999999,30,68,0,0
431740,175206600,4,1300,1300,15.76,0.11,30,68,0,0
432187,175317269,4,1300,1314,15.76,0.09999999,30,68,0,0
432632,175427581,4,1312,1300,15.76,0.11,30,68,0,0
433082,175537462,4,1300,1300,15.76,0.11,30,68,0,0
433530,175643828,4,1300,1300,15.76,0.11,30,68,0,0
433970,175751074,4,1300,1300,15.76,0.11,30,68,0,0
434416,175856294,4,1300,1300,15.76,0.11,30,68,0,0
434862,175963933,4,1300,1300,15.76,0.11,30,68,0,0
435274,176065019,4,1300,1300,15.77,0.11,30,68,0,0
435725,176174457,4,1300,1300,15.76,0.11,30,68,0,0
437104,176503466,4,1300,1300,15.77,0.11,30,68,0,0
437548,176611214,4,1300,1300,15.77,0.11,30,68,0,0
438000,176724258,4,1300,1300,15.77,0.11,30,68,0,0
438445,176828355,4,1300,1300,15.77,0.11,30,68,0,0
438893,176938112,4,1300,1300,15.77,0.11,30,68,0,0
439346,177048488,4,1300,1300,15.77,0.11,30,68,0,0
439783,177152506,4,1300,1300,15.77,0.11,30,68,0,0
440239,177261476,4,1300,1300,15.77,0.11,30,68,0,0
440676,177365798,4,1300,1300,15.78,0.11,30,68,0,0
441124,177472713,4,1300,1300,15.78,0.11,30,68,0,0
441568,177580816,4,1300,1300,15.78,0.11,30,68,0,0
442018,177688468,4,1300,1300,15.78,0.11,30,68,0,0
442462,177795991,4,1300,1300,15.78,0.11,30,68,0,0
442912,177903252,4,1300,1300,15.79,0.11,30,68,0,0
443355,178008842,4,1300,1300,15.79,0.11,30,68,0,0
443850,178129528,4,1300,1300,15.78,0.11,30,68,0,0
444260,178227703,4,1300,1300,15.79,0.11,30,68,0,0
444702,178334349,4,1300,1300,15.79,0.11,30,68,0,0
445153,178441644,4,1300,1300,15.79,0.11,30,68,0,0
445556,178544293,4,1300,1300,15.79,0.11,30,68,0,0
446006,178649712,4,1300,1300,15.79,0.11,30,68,0,0
446488,178762286,4,1300,1300,15.79,0.11,30,68,0,0
446934,178865771,4,1300,1300,15.79,0.11,30,68,0,0
447378,178973020,4,1300,1300,15.79,0.11,30,68,0,0
447862,179088226,4,1278,1042,15.81,0.04,30,68,0,0
448308,179194326,4,971,257,15.81,0.01,30,68,0,0
448759,179298545,4,239,0,15.81,0.03,30,68,0,0
449207,179403265,4,0,0,15.81,0.04,30,68,0,0
449701,179523101,4,0,0,15.81,0.04,30,68,0,0
450155,179629921,4,0,0,15.81,0.04,30,68,0,0
450606,179739903,4,0,0,15.82,0.04,30,68,0,0
451060,179847805,4,0,0,15.82,0.04,30,68,0,0
451962,180058827,4,0,0,15.82,0.04,30,68,0,0
452456,180174120,4,0,0,15.82,0.04,30,68,0,0
452908,180281549,4,0,0,15.82,0.04,30,68,0,0
453362,180390375,4,0,0,15.82,0.04,30,68,0,0
453857,180505849,4,0,0,15.82,0.04,30,68,0,0
454263,180605589,4,0,0,15.82,0.04,30,68,0,0
454756,180725155,4,0,0,15.82,0.04,30,68,0,0
455169,180821855,4,0,0,15.82,0.04,30,68,0,0
455661,180940524,4,0,0,15.82,0.04,30,68,0,0
456118,181050527,4,0,0,15.82,0.04,30,68,0,0
456570,181160900,4,0,0,15.82,0.04,30,68,0,0
457022,181265131,4,0,0,15.83,0.04,30,68,0,0
457471,181373596,4,0,0,15.82,0.04,30,68,0,0
458421,181601767,4,0,0,15.83,0.04,30,68,0,0
458876,181712280,4,0,0,15.83,0.04,30,68,0,0
459326,181816690,4,0,0,15.83,0.04,30,68,0,0
459773,181920816,4,0,0,15.83,0.04,30,68,0,0
460269,182036671,4,0,0,15.83,0.04,30,68,0,0
461210,182255522,4,0,0,15.83,0.04,30,68,0,0
461660,182362465,4,0,0,15.84,0.04,30,68,0,0
462111,182468020,4,0,0,15.84,0.04,30,68,0,0
462565,182574862,4,0,0,15.85,0.04,30,68,0,0
463062,182689072,4,0,0,15.85,0.04,30,68,0,0
