LineNo,TimeUS,Instance,RPM,RawRPM,Volt,Curr,Temp,CTot,MotTemp,Err
2237,69631086,5,0,0,16.58,0.03,25,0,0,0
2736,69746733,5,0,0,16.57,0.04,25,0,0,0
3188,69849702,5,0,0,16.58,0.04,25,0,0,0
3681,69960987,5,0,0,16.57,0.03,25,0,0,0
4137,70064575,5,0,0,16.58,0.03,25,0,0,0
4590,70171297,5,0,0,16.58,0.03,25,0,0,0
5085,70284062,5,0,0,16.58,0.03,25,0,0,0
5541,70391544,5,0,0,16.58,0.03,25,0,0,0
5995,70495553,5,0,0,16.58,0.03,25,0,0,0
6442,70597391,5,0,0,16.58,0.04,25,0,0,0
6932,70712109,5,0,0,16.57,0.03,25,0,0,0
7388,70816257,5,0,0,16.57,0.03,25,0,0,0
7850,70928994,5,0,0,16.58,0.02,25,0,0,0
8307,71029722,5,121,3328,16.56,0.09999999,25,0,0,0
8759,71135288,5,3220,814,16.54,0.26,25,0,0,0
9252,71247194,5,835,1171,16.55,0.14,25,0,0,0
9704,71353421,5,1177,1271,16.55,0.11,25,0,0,0
10159,71457300,5,1272,1314,16.55,0.11,25,0,0,0
10612,71564074,5,1314,1328,16.56,0.11,25,0,0,0
11109,71677839,5,1328,1328,16.55,0.11,25,0,0,0
11560,71783879,5,1328,1342,16.55,0.11,25,0,0,0
13010,72124091,5,1341,1328,16.57,0.09999999,25,0,0,0
13666,72333914,5,1519,2142,16.42,0.89,25,0,0,0
14120,72438893,5,2216,2928,16.22,1.58,25,0,0,0
14567,72546117,5,2989,3600,16.37,1.84,25,0,0,0
15019,72650829,5,3628,4057,16.05,2.44,25,0,0,0
15470,72759880,5,4091,4885,15.72,3.82,25,0,0,0
15966,72872727,5,4955,5685,15.55,4.83,25,0,0,0
16416,72978335,5,5713,6014,15.64,4.27,25,0,0,0
16867,73085156,5,6029,6228,15.77,4.24,25,0,0,0
17279,73188221,5,6230,6285,15.7,4.4,25,0,0,0
17777,73308809,5,6295,6371,15.72,4.77,25,1,0,0
18183,73402700,5,6376,6700,15.63,5.21,25,1,0,0
18680,73522683,5,6686,6528,15.7,4.94,25,1,0,0
19133,73628095,5,6538,6671,15.68,5.82,25,1,0,0
19581,73735212,5,6684,6857,15.63,6.22,25,1,0,0
20080,73850946,5,6871,7028,15.66,6.26,25,1,0,0
20985,74064744,5,7011,6557,15.69,4.61,25,2,0,0
21395,74165879,5,6555,6442,15.71,4.37,25,2,0,0
21886,74276410,5,6441,6428,15.73,4.22,25,2,0,0
22383,74394483,5,6417,6300,15.71,4.18,26,2,0,0
22835,74499911,5,6310,6457,15.72,4.3,25,2,0,0
23287,74610270,5,6442,6228,15.73,3.87,26,2,0,0
23741,74723291,5,6226,6214,15.64,4.22,26,3,0,0
24145,74822809,5,6217,6414,15.64,4.62,26,3,0,0
24589,74930679,5,6415,6500,15.72,4.23,26,3,0,0
25048,75044527,5,6486,6300,15.73,4.06,26,3,0,0
25494,75157561,5,6292,6214,15.73,3.92,26,3,0,0
25940,75266967,5,6204,6100,15.69,3.72,26,3,0,0
26347,75370752,5,6107,6214,15.75,3.64,26,3,0,0
26801,75481065,5,6196,6014,15.62,4,26,3,0,0
27241,75587202,5,6024,6257,15.63,4.23,26,3,0,0
27692,75696329,5,6258,6285,15.57,4.7,26,4,0,0
28139,75808341,5,6291,6457,15.55,4.89,26,4,0,0
28591,75919672,5,6470,6557,15.61,4.63,26,4,0,0
28995,76020526,5,6555,6542,15.65,4.7,26,4,0,0
29437,76130672,5,6540,6514,15.7,4.45,26,4,0,0
29841,76228672,5,6508,6300,15.66,4.48,26,4,0,0
30285,76340284,5,6301,6357,15.73,4.16,26,5,0,0
30785,76463645,5,6349,6271,15.77,3.9,26,5,0,0
31184,76564571,5,6268,6228,15.76,3.81,26,5,0,0
31633,76673515,5,6215,5957,15.75,3.59,26,5,0,0
32087,76788063,5,5962,6042,15.84,3.61,26,5,0,0
32539,76897204,5,6035,5971,15.85,3.44,26,5,0,0
33431,77117736,5,5967,5828,15.87,3.22,26,5,0,0
33876,77226679,5,5808,5614,15.82,2.86,26,5,0,0
34324,77338102,5,5602,5485,15.91,3.06,26,5,0,0
34777,77446436,5,5490,5542,15.93,2.99,26,6,0,0
35219,77555008,5,5541,5528,15.68,3.41,26,6,0,0
35666,77663294,5,5532,5600,15.88,3.37,26,6,0,0
36148,77778585,5,5598,5585,15.85,3.42,26,6,0,0
36599,77886062,5,5592,5671,15.8,3.19,27,6,0,0
36964,77981994,5,5671,5671,15.73,3.31,27,6,0,0
37896,78204249,5,5673,5728,15.83,3.22,26,6,0,0
38345,78313590,5,5738,5842,15.8,3.34,27,6,0,0
38745,78413471,5,5840,5800,15.77,3.55,27,6,0,0
39190,78524750,5,5800,5828,15.8,3.28,27,7,0,0
39636,78632665,5,5826,5800,15.81,3.1,27,7,0,0
40084,78744110,5,5783,5557,15.75,2.92,27,7,0,0
40492,78847793,5,5558,5585,15.77,2.7,27,7,0,0
41827,79171767,5,5584,5557,15.77,3.08,27,7,0,0
42328,79300523,5,5560,5585,15.72,2.92,27,7,0,0
42732,79400787,5,5586,5600,15.75,3.02,27,7,0,0
43177,79513105,5,5602,5642,15.79,3.02,27,7,0,0
43992,79719735,5,5642,5771,15.79,3.22,27,8,0,0
44439,79825567,5,5771,5828,15.72,3.01,27,8,0,0
44884,79933453,5,5830,5857,15.67,3.37,27,8,0,0
45336,80044269,5,5851,5800,15.77,3.22,27,8,0,0
45742,80147414,5,5796,5742,15.69,3.36,27,8,0,0
46187,80253825,5,5740,5700,15.77,3.12,27,8,0,0
46637,80368034,5,5700,5714,15.75,2.98,27,8,0,0
47083,80475231,5,5707,5571,15.72,2.96,27,8,0,0
47531,80586546,5,5580,5671,15.72,3.14,27,8,0,0
47985,80696120,5,5670,5642,15.74,2.68,27,8,0,0
48882,80921057,5,5645,5714,15.73,3.26,27,9,0,0
49327,81028807,5,5714,5728,15.73,2.77,27,9,0,0
49735,81133704,5,5708,5457,15.69,2.76,27,9,0,0
50185,81242790,5,5461,5557,15.77,2.8,27,9,0,0
50631,81355680,5,5560,5642,15.77,3.24,27,9,0,0
51115,81467103,5,5632,5528,15.71,2.97,27,9,0,0
51560,81577431,5,5530,5557,15.75,2.84,27,9,0,0
52009,81689099,5,5562,5600,15.82,2.85,27,9,0,0
52374,81781247,5,5597,5457,15.75,2.4,27,9,0,0
52863,81900237,5,5459,5485,15.79,3.04,27,9,0,0
53311,82013006,5,5496,5600,15.78,3.08,27,10,0,0
53716,82109832,5,5594,5457,15.82,2.46,27,10,0,0
54204,82229799,5,5457,5457,15.72,2.53,27,10,0,0
54607,82330001,5,5455,5371,15.73,2.76,27,10,0,0
55058,82447233,5,5392,5528,15.67,3.05,27,10,0,0
55462,82545747,5,5528,5600,15.76,3.12,27,10,0,0
55951,82661534,5,5593,5542,15.75,2.94,27,10,0,0
56323,82758462,5,5542,5600,15.64,3.36,27,10,0,0
56774,82866726,5,5594,5442,15.75,2.63,27,10,0,0
57262,82987258,5,5440,5428,15.77,2.58,27,10,0,0
57711,83098356,5,5425,5400,15.77,2.32,27,10,0,0
58150,83207719,5,5370,5100,15.63,2.35,27,10,0,0
58596,83321767,5,5107,5171,15.78,2.38,27,11,0,0
59010,83425070,5,5182,5271,15.73,2.78,27,11,0,0
59895,83636738,5,5285,5642,15.69,3.45,27,11,0,0
60340,83750727,5,5647,5714,15.71,3.69,27,11,0,0
60791,83856243,5,5718,5857,15.7,3.82,27,11,0,0
61198,83962770,5,5856,5842,15.72,3.79,27,11,0,0
62098,84181906,5,5844,5971,15.73,3.7,27,11,0,0
62543,84287669,5,5966,5728,15.76,3.18,27,11,0,0
63475,84516374,5,5720,5600,15.72,2.86,27,12,0,0
63920,84628378,5,5585,5428,15.75,3.1,27,12,0,0
64767,84834464,5,5427,5314,15.61,2.65,27,12,0,0
65211,84944701,5,5317,5400,15.74,2.7,27,12,0,0
65662,85053591,5,5401,5442,15.73,2.68,27,12,0,0
66103,85161092,5,5448,5600,15.66,3.01,27,12,0,0
66546,85265720,5,5601,5700,15.73,3.22,27,12,0,0
66990,85371245,5,5701,5757,15.63,3.19,27,12,0,0
67442,85483102,5,5748,5571,15.64,3.06,27,12,0,0
67893,85597707,5,5588,5757,15.67,3.21,27,13,0,0
68339,85704529,5,5748,5657,15.73,3.1,27,13,0,0
68785,85815025,5,5670,5800,15.64,3.41,27,13,0,0
69234,85925562,5,5808,5885,15.66,3.49,27,13,0,0
69639,86024521,5,5885,5885,15.72,3.1,27,13,0,0
70128,86143235,5,5883,5857,15.68,3.25,27,13,0,0
70533,86242124,5,5850,5742,15.64,3.45,27,13,0,0
70990,86359774,5,5754,5885,15.7,3.04,27,13,0,0
71395,86457429,5,5883,5800,15.64,2.99,27,13,0,0
71882,86575524,5,5801,5828,15.56,3.75,27,13,0,0
72293,86680035,5,5828,5871,15.6,3.79,27,13,0,0
72738,86790258,5,5872,5914,15.67,3.06,27,14,0,0
73190,86897588,5,5911,5771,15.7,3.39,27,14,0,0
73639,87012091,5,5774,5814,15.68,3.17,27,14,0,0
74083,87120503,5,5815,5885,15.71,3.38,27,14,0,0
74539,87233220,5,5887,5914,15.66,3.31,27,14,0,0
75423,87445813,5,5899,5457,15.75,2.58,27,14,0,0
75865,87554790,5,5457,5457,15.65,2.54,27,14,0,0
76315,87664045,5,5439,5228,15.74,2.58,27,14,0,0
76755,87770749,5,5228,5228,15.75,2.24,27,14,0,0
77207,87881626,5,5228,5228,15.66,2.42,27,14,0,0
77610,87981015,5,5228,5257,15.77,2.48,27,15,0,0
78103,88100083,5,5290,5642,15.7,3.21,27,15,0,0
78555,88209105,5,5649,5728,15.62,3.28,27,15,0,0
79405,88417543,5,5731,5885,15.64,3.82,27,15,0,0
79822,88525005,5,5883,5828,15.6,3.23,27,15,0,0
80316,88641769,5,5851,6071,15.55,4.21,27,15,0,0
80710,88739699,5,6067,5871,15.6,3.83,27,15,0,0
81160,88849558,5,5881,6128,15.45,4.07,27,15,0,0
81645,88962812,5,6104,5871,15.61,3.78,27,16,0,0
82095,89071691,5,5873,5914,15.6,3.73,27,16,0,0
82989,89290535,5,5912,5885,15.52,3.77,27,16,0,0
83915,89515706,5,5881,5785,15.65,3.29,27,16,0,0
84326,89619188,5,5785,5828,15.67,2.82,27,16,0,0
84777,89733467,5,5818,5685,15.62,3.19,27,16,0,0
85228,89841537,5,5710,5971,15.67,3.63,27,16,0,0
85632,89944712,5,5968,5857,15.58,3.63,27,16,0,0
86120,90058287,5,5872,6085,15.58,3.86,27,17,0,0
86568,90171242,5,6090,6142,15.47,4.14,28,17,0,0
87015,90278231,5,6121,5914,15.57,3.65,27,17,0,0
87422,90377207,5,5912,5871,15.67,3.36,27,17,0,0
87914,90495579,5,5857,5714,15.57,3.24,27,17,0,0
88320,90598472,5,5718,5957,15.65,3.31,27,17,0,0
88805,90717004,5,5952,5900,15.61,3.36,27,17,0,0
89702,90936156,5,5906,6100,15.59,3.75,27,17,0,0
90150,91044519,5,6087,5942,15.61,3.51,27,18,0,0
90553,91149538,5,5944,6000,15.63,3.61,27,18,0,0
91004,91257725,5,5999,5942,15.67,3.21,27,18,0,0
91495,91375570,5,5925,5714,15.71,2.82,27,18,0,0
91949,91484557,5,5701,5557,15.69,3.33,28,18,0,0
92354,91587203,5,5566,5971,15.58,4.15,28,18,0,0
92811,91703564,5,5974,6057,15.6,4.28,27,18,0,0
93262,91819750,5,6042,5885,15.54,4.06,27,18,0,0
93699,91923353,5,5874,5771,15.51,3.94,28,18,0,0
94149,92032670,5,5792,6071,15.5,4.48,28,19,0,0
94555,92137144,5,6074,6300,15.45,4.29,28,19,0,0
95009,92247789,5,6289,6042,15.6,3.75,27,19,0,0
95454,92355895,5,6043,6100,15.61,3.92,27,19,0,0
95898,92462671,5,6097,5942,15.7,3.17,27,19,0,0
96345,92573769,5,5940,5871,15.55,3.51,27,19,0,0
96835,92691069,5,5873,5900,15.66,3.46,27,19,0,0
97284,92803028,5,5903,5942,15.61,3.22,27,19,0,0
97729,92914921,5,5937,5828,15.66,2.93,28,19,0,0
98138,93015126,5,5820,5757,15.69,3.1,28,20,0,0
98583,93126574,5,5746,5614,15.7,2.81,27,20,0,0
98985,93222890,5,5612,5542,15.64,3.01,27,20,0,0
99438,93337859,5,5548,5642,15.63,3.09,28,20,0,0
99886,93444727,5,5640,5585,15.76,2.7,28,20,0,0
100333,93555126,5,5564,5300,15.77,2.22,27,20,0,0
100780,93662263,5,5299,5285,15.64,3.07,27,20,0,0
101233,93776738,5,5298,5442,15.67,2.95,28,20,0,0
101678,93882591,5,5452,5585,15.68,3.14,28,20,0,0
102084,93987319,5,5589,5785,15.55,2.98,28,20,0,0
102577,94109689,5,5794,5857,15.52,3.3,28,20,0,0
102976,94205112,5,5851,5714,15.6,2.97,28,21,0,0
103470,94326167,5,5737,5942,15.45,4.34,28,21,0,0
103878,94429100,5,5965,6271,15.51,4.27,28,21,0,0
104771,94648493,5,6270,6242,15.48,3.87,27,21,0,0
105184,94755885,5,6241,6185,15.49,3.7,28,21,0,0
105631,94864025,5,6185,6242,15.51,3.8,28,21,0,0
106080,94977153,5,6232,6100,15.58,3.93,28,21,0,0
106529,95085145,5,6109,6242,15.55,3.87,28,22,0,0
106979,95195786,5,6214,5928,15.63,3.33,28,22,0,0
107388,95297821,5,5932,6028,15.58,3.5,28,22,0,0
107831,95406279,5,6025,5957,15.63,3.34,28,22,0,0
108280,95521082,5,5962,6014,15.6,3.03,28,22,0,0
108727,95628868,5,6001,5871,15.46,3.64,28,22,0,0
109129,95729857,5,5874,5957,15.45,3.71,28,22,0,0
109583,95840685,5,5956,5942,15.54,3.63,28,22,0,0
110483,96061003,5,5943,5971,15.51,4.04,28,22,0,0
110887,96165427,5,5964,5885,15.51,3.41,28,23,0,0
111337,96271520,5,5882,5842,15.55,3.33,28,23,0,0
111741,96375822,5,5839,5742,15.64,2.92,28,23,0,0
112671,96600725,5,5741,5700,15.68,2.84,28,23,0,0
113083,96704589,5,5695,5500,15.6,2.83,28,23,0,0
113532,96812352,5,5504,5600,15.66,2.91,28,23,0,0
113979,96927208,5,5607,5714,15.66,2.93,28,23,0,0
114431,97038222,5,5716,5742,15.54,3.48,28,23,0,0
114831,97138224,5,5745,5814,15.54,3.27,28,23,0,0
115324,97256267,5,5812,5800,15.62,3.52,28,24,0,0
115725,97357754,5,5798,5757,15.57,3.05,28,24,0,0
116215,97474506,5,5750,5685,15.66,3.15,28,24,0,0
116618,97577173,5,5691,5828,15.52,3.49,28,24,0,0
117064,97686074,5,5826,5800,15.47,3.54,28,24,0,0
117470,97791547,5,5806,6114,15.52,3.69,28,24,0,0
117962,97913305,5,6067,5685,15.52,3.29,28,24,0,0
118403,98016151,5,5692,5800,15.6,3.47,28,24,0,0
119335,98243531,5,5805,5914,15.53,3.38,28,24,0,0
119738,98347832,5,5896,5700,15.63,2.97,28,25,0,0
120187,98457563,5,5702,5728,15.52,3.37,28,25,0,0
120635,98567705,5,5742,5885,15.55,3.31,28,25,0,0
121081,98674587,5,5876,5757,15.47,3.27,28,25,0,0
121518,98782451,5,5759,5800,15.58,3.25,28,25,0,0
121970,98892666,5,5791,5685,15.56,3.29,28,25,0,0
122418,99001724,5,5688,5728,15.54,3.22,28,25,0,0
123715,99319710,5,5727,5657,15.58,3.19,28,25,0,0
124157,99428899,5,5657,5657,15.57,3.3,28,26,0,0
125047,99646098,5,5657,5671,15.53,3.11,28,26,0,0
125459,99754783,5,5671,5685,15.51,3.42,28,26,0,0
125908,99864051,5,5679,5600,15.57,3.07,28,26,0,0
126357,99983482,5,5601,5614,15.59,2.82,28,26,0,0
126771,100078767,5,5607,5485,15.57,2.79,28,26,0,0
127219,100195990,5,5497,5614,15.61,2.92,28,26,0,0
127671,100309065,5,5608,5571,15.58,2.95,28,26,0,0
128073,100405688,5,5570,5542,15.61,2.85,28,26,0,0
128522,100510681,5,5546,5657,15.52,3.19,28,26,0,0
128964,100618273,5,5653,5614,15.6,3.33,28,27,0,0
129411,100735670,5,5626,5771,15.5,3.45,28,27,0,0
129822,100839491,5,5768,5757,15.53,3.6,28,27,0,0
130755,101063098,5,5761,5871,15.64,3.15,28,27,0,0
131126,101159595,5,5867,5642,15.57,3.09,28,27,0,0
131615,101276562,5,5647,5785,15.57,3.16,28,27,0,0
132509,101498799,5,5777,5614,15.55,2.87,28,27,0,0
132915,101598695,5,5616,5757,15.52,2.83,28,27,0,0
133403,101717878,5,5745,5642,15.61,2.98,28,28,0,0
133806,101816716,5,5643,5700,15.56,3.08,28,28,0,0
135144,102147195,5,5703,5971,15.49,3.48,28,28,0,0
135639,102264333,5,5961,5871,15.58,3.19,28,28,0,0
136045,102365729,5,5878,6014,15.55,3.42,28,28,0,0
136493,102474565,5,6010,5942,15.54,3.64,28,28,0,0
136939,102586736,5,5941,5928,15.48,3.59,28,28,0,0
137390,102694575,5,5936,6057,15.5,3.58,28,28,0,0
137800,102802739,5,6052,6000,15.42,3.54,28,29,0,0
138248,102910529,5,5993,5928,15.5,3.63,28,29,0,0
138694,103021280,5,5939,6057,15.54,3.48,28,29,0,0
139584,103236304,5,6053,5942,15.55,3.15,28,29,0,0
140029,103345520,5,5930,5814,15.51,3.2,28,29,0,0
140478,103452142,5,5816,5871,15.48,3.38,28,29,0,0
140885,103557673,5,5871,5871,15.51,3.2,28,29,0,0
141376,103674225,5,5869,5857,15.45,3.26,28,29,0,0
141776,103772626,5,5856,5814,15.57,3.11,28,29,0,0
142266,103889808,5,5825,5942,15.51,3.17,28,30,0,0
142669,103991258,5,5938,5728,15.55,2.74,28,30,0,0
143123,104107013,5,5725,5700,15.48,3.31,28,30,0,0
143563,104207910,5,5706,5828,15.52,3.23,28,30,0,0
144017,104317886,5,5830,5885,15.47,3.56,28,30,0,0
144426,104425454,5,5885,5885,15.44,3.85,28,30,0,0
144865,104533257,5,5877,5800,15.51,3.32,28,30,0,0
145314,104641901,5,5800,5814,15.44,3.23,28,30,0,0
145751,104744676,5,5811,5728,15.53,3.22,28,30,0,0
146202,104854997,5,5735,5885,15.51,3.18,28,30,0,0
146647,104966537,5,5877,5771,15.52,3.34,28,30,0,0
147100,105079527,5,5760,5657,15.53,3.2,28,31,0,0
147504,105180463,5,5660,5857,15.41,3.45,28,31,0,0
147990,105293673,5,5847,5714,15.54,3.32,28,31,0,0
148399,105396807,5,5723,5857,15.46,3.36,28,31,0,0
148847,105501634,5,5854,5728,15.44,3.65,28,31,0,0
149290,105613542,5,5739,5885,15.44,3.72,28,31,0,0
149700,105720571,5,5890,6014,15.5,3.55,28,31,0,0
150146,105828132,5,5997,5785,15.37,3.51,28,31,0,0
150592,105939625,5,5791,5885,15.43,4.16,28,31,0,0
151040,106047096,5,5892,6071,15.42,4.06,28,32,0,0
151490,106157452,5,6067,6000,15.4,3.59,28,32,0,0
151985,106274921,5,5996,5957,15.38,4.01,28,32,0,0
152392,106380049,5,5967,6100,15.38,4.07,28,32,0,0
152841,106487233,5,6098,6057,15.42,3.78,28,32,0,0
153288,106599279,5,6060,6157,15.48,3.78,28,32,0,0
153776,106718109,5,6146,6057,15.39,3.71,28,32,0,0
154221,106826127,5,6060,6100,15.47,3.92,28,32,0,0
154623,106926711,5,6101,6171,15.41,4.16,28,33,0,0
155070,107033028,5,6160,5957,15.37,3.29,28,33,0,0
155475,107139151,5,5958,6042,15.38,3.53,28,33,0,0
155962,107253512,5,6031,5814,15.5,2.89,28,33,0,0
156408,107368072,5,5800,5614,15.54,2.76,28,33,0,0
156857,107475520,5,5607,5457,15.54,2.5,28,33,0,0
157300,107584576,5,5460,5514,15.54,2.72,28,33,0,0
158193,107804039,5,5520,5714,15.45,3.11,28,33,0,0
158643,107918546,5,5693,5514,15.48,3.09,28,33,0,0
159089,108031077,5,5545,5742,15.54,3.08,28,33,0,0
159498,108131526,5,5729,5571,15.45,2.87,28,34,0,0
159951,108244466,5,5557,5442,15.57,2.48,28,34,0,0
160358,108346783,5,5443,5457,15.55,2.9,28,34,0,0
160766,108448081,5,5462,5585,15.36,3,28,34,0,0
161217,108563386,5,5596,5714,15.42,3.54,28,34,0,0
161669,108673110,5,5705,5614,15.44,2.97,28,34,0,0
162104,108775482,5,5611,5571,15.48,2.78,28,34,0,0
162550,108881686,5,5573,5628,15.43,3.4,28,34,0,0
162995,108992523,5,5625,5585,15.52,2.92,28,34,0,0
163444,109104152,5,5585,5585,15.47,2.57,28,34,0,0
163895,109214410,5,5575,5471,15.53,2.83,28,34,0,0
164341,109323856,5,5498,5728,15.51,3.21,28,35,0,0
164749,109422496,5,5731,5771,15.5,3.35,28,35,0,0
165193,109532172,5,5775,5842,15.48,3.56,28,35,0,0
165685,109655707,5,5850,5942,15.39,3.68,28,35,0,0
166535,109863537,5,5945,6028,15.41,3.57,28,35,0,0
166983,109977035,5,5995,5771,15.39,3.47,28,35,0,0
167392,110074454,5,5784,6071,15.44,3.72,28,35,0,0
167797,110178513,5,6066,5857,15.44,3.39,28,35,0,0
168731,110412700,5,5859,5885,15.41,3.2,28,36,0,0
169615,110621826,5,5880,5771,15.47,3.2,28,36,0,0
170062,110731921,5,5772,5785,15.41,3.84,28,36,0,0
171400,111055007,5,5796,6157,15.42,4.11,28,36,0,0
171852,111168265,5,6161,6214,15.43,4.11,28,36,0,0
172740,111385546,5,6214,6228,15.47,4.06,28,37,0,0
173189,111494865,5,6226,6214,15.5,3.99,28,37,0,0
173588,111594262,5,6207,6157,15.42,4.04,28,37,0,0
174040,111709046,5,6155,6142,15.45,3.71,28,37,0,0
174479,111810080,5,6120,5914,15.41,3.73,28,37,0,0
175331,112019592,5,5914,5985,15.48,3.76,28,37,0,0
175784,112136979,5,5999,6085,15.39,3.86,28,37,0,0
176228,112243083,5,6076,5985,15.41,3.87,28,38,0,0
176678,112354784,5,5992,6071,15.44,3.84,28,38,0,0
177083,112452794,5,6058,5942,15.42,3.61,28,38,0,0
177530,112562293,5,5939,5914,15.42,3.67,28,38,0,0
177968,112660893,5,5911,5814,15.45,3.21,28,38,0,0
178463,112788052,5,5816,5842,15.41,4.06,28,38,0,0
178866,112883381,5,5841,5828,15.43,3.4,28,38,0,0
179310,112995146,5,5843,6057,15.36,3.88,28,38,0,0
180646,113322073,5,6051,5914,15.45,3.58,28,39,0,0
181058,113427233,5,5907,5800,15.51,3.62,28,39,0,0
181464,113533569,5,5802,5928,15.5,3.93,28,39,0,0
181954,113649799,5,5928,6000,15.48,3.7,28,39,0,0
182839,113864871,5,5999,5985,15.44,3.76,28,39,0,0
183244,113966983,5,5985,6014,15.44,4.11,28,39,0,0
184147,114195056,5,6015,6057,15.5,3.73,28,40,0,0
184629,114310986,5,6049,5971,15.35,3.8,28,40,0,0
185037,114411145,5,5969,5857,15.38,3.5,28,40,0,0
185928,114629230,5,5861,5971,15.43,3.68,28,40,0,0
186373,114741810,5,5960,5857,15.47,3.51,28,40,0,0
186816,114847795,5,5854,5828,15.39,3.27,28,40,0,0
187219,114950053,5,5829,5928,15.43,3.37,28,40,0,0
187715,115068569,5,5915,5785,15.42,3.6,28,40,0,0
188114,115167389,5,5783,5742,15.41,3.28,28,41,0,0
188607,115286793,5,5746,5800,15.46,3.36,28,41,0,0
189013,115388304,5,5797,5757,15.38,3.33,28,41,0,0
189461,115498319,5,5763,5928,15.39,3.84,28,41,0,0
189903,115606571,5,5927,5914,15.3,3.77,28,41,0,0
190350,115718294,5,5921,6100,15.36,4.07,28,41,0,0
190796,115824663,5,6102,6157,15.34,4.09,28,41,0,0
191246,115936054,5,6155,6128,15.42,3.72,28,41,0,0
191690,116043509,5,6119,5957,15.41,3.69,28,41,0,0
192146,116156158,5,5961,6171,15.34,4.05,28,42,0,0
192595,116263793,5,6167,6100,15.35,4.03,28,42,0,0
193080,116383505,5,6106,6171,15.33,4.03,28,42,0,0
193527,116489185,5,6172,6185,15.29,4.26,28,42,0,0
193931,116591579,5,6184,6171,15.32,4.17,28,42,0,0
194376,116698807,5,6175,6257,15.32,4.21,28,42,0,0
194823,116812830,5,6261,6328,15.3,4.61,28,42,0,0
195714,117033036,5,6330,6385,15.35,4.29,28,43,0,0
196126,117140219,5,6357,6085,15.33,4.47,28,43,0,0
196538,117244822,5,6090,6200,15.34,4.26,28,43,0,0
196982,117356283,5,6192,6085,15.35,3.63,28,43,0,0
197393,117460715,5,6069,5871,15.39,3.8,28,43,0,0
197838,117571831,5,5870,5857,15.34,3.25,28,43,0,0
198291,117684708,5,5846,5742,15.39,2.74,28,43,0,0
198688,117782913,5,5733,5557,15.49,2.6,28,43,0,0
199138,117894007,5,5557,5585,15.41,3.14,28,43,0,0
199618,118008263,5,5597,5728,15.36,3.19,28,44,0,0
200070,118117801,5,5707,5414,15.42,2.68,28,44,0,0
201357,118436716,5,5419,5742,15.45,3.37,28,44,0,0
201798,118544075,5,5743,5785,15.36,3.37,28,44,0,0
202293,118663994,5,5792,5871,15.35,3.87,28,44,0,0
202692,118764871,5,5866,5800,15.41,3.67,28,44,0,0
203140,118872993,5,5802,5828,15.35,3.69,28,44,0,0
203590,118983445,5,5845,6028,15.39,3.68,28,44,0,0
204040,119092740,5,6025,6000,15.44,3.79,29,45,0,0
204483,119204045,5,5996,5957,15.45,3.42,28,45,0,0
204889,119305455,5,5956,5942,15.43,3.33,28,45,0,0
205335,119415705,5,5939,5900,15.36,3.9,28,45,0,0
206228,119633508,5,5905,6057,15.33,3.77,28,45,0,0
206627,119734152,5,6052,5814,15.39,3.67,28,45,0,0
207112,119846939,5,5823,5942,15.36,3.63,28,45,0,0
207550,119952493,5,5944,6028,15.39,3.65,28,46,0,0
208040,120069897,5,6027,6014,15.36,3.59,28,46,0,0
208481,120177468,5,6002,5857,15.36,3.62,28,46,0,0
208928,120287004,5,5871,6014,15.35,3.83,28,46,0,0
209339,120393709,5,6014,6028,15.35,3.98,28,46,0,0
209790,120503712,5,6030,6057,15.34,3.91,29,46,0,0
210235,120614208,5,6046,5942,15.36,3.63,28,46,0,0
210635,120718808,5,5941,5885,15.3,4.06,29,46,0,0
211083,120825510,5,5887,6000,15.39,3.53,28,46,0,0
211566,120946456,5,6000,6000,15.32,4.16,28,46,0,0
211974,121041763,5,5999,5971,15.39,3.91,29,47,0,0
212456,121163328,5,5980,6057,15.4,3.97,28,47,0,0
212865,121258779,5,6055,5971,15.35,3.67,28,47,0,0
213310,121375601,5,5973,6000,15.33,3.62,29,47,0,0
214168,121588256,5,5998,5942,15.43,3.58,28,47,0,0
214649,121710265,5,5948,6000,15.32,3.85,28,47,0,0
215056,121811758,5,5989,5885,15.41,3.55,28,47,0,0
215544,121928811,5,5889,5928,15.4,3.42,29,48,0,0
215944,122031281,5,5926,5914,15.39,3.53,29,48,0,0
216391,122142290,5,5904,5814,15.38,3.27,29,48,0,0
216798,122241139,5,5814,5828,15.36,3.33,29,48,0,0
217283,122362527,5,5844,6028,15.32,4.04,28,48,0,0
217729,122468821,5,6026,6014,15.35,3.76,29,48,0,0
218130,122566069,5,6015,6071,15.35,4.06,29,48,0,0
218581,122679586,5,6067,5985,15.28,3.77,29,48,0,0
218991,122786513,5,5966,5728,15.39,3.06,29,48,0,0
219439,122895377,5,5728,5728,15.34,3.09,29,48,0,0
220807,123228145,5,5729,5771,15.36,2.94,29,49,0,0
221207,123328141,5,5761,5600,15.41,3.05,29,49,0,0
221658,123439755,5,5598,5585,15.45,2.8,28,49,0,0
222096,123545867,5,5586,5628,15.35,3.18,29,49,0,0
222547,123655258,5,5628,5628,15.43,3.04,28,49,0,0
222950,123757806,5,5628,5628,15.42,2.78,28,49,0,0
223440,123876706,5,5625,5585,15.46,2.91,29,49,0,0
223886,123990237,5,5590,5642,15.42,3.19,29,49,0,0
224336,124096304,5,5646,5742,15.36,3.46,29,50,0,0
224787,124209893,5,5745,5800,15.36,3.46,29,50,0,0
225194,124310586,5,5796,5728,15.36,3.37,29,50,0,0
225599,124416094,5,5729,5800,15.36,3.64,29,50,0,0
226087,124534318,5,5817,6000,15.33,3.68,29,50,0,0
226494,124635570,5,5996,5814,15.31,3.41,29,50,0,0
226969,124746261,5,5822,5985,15.33,4.44,29,50,0,0
227419,124855543,5,5979,5900,15.39,3.13,29,50,0,0
227864,124967214,5,5892,5728,15.34,3.26,29,50,0,0
228318,125076987,5,5714,5585,15.35,3.05,29,51,0,0
228762,125186684,5,5588,5628,15.36,3.04,29,51,0,0
229209,125296591,5,5626,5614,15.41,3.09,29,51,0,0
229607,125395781,5,5612,5528,15.39,2.95,29,51,0,0
230052,125507465,5,5528,5542,15.41,2.86,29,51,0,0
230510,125619476,5,5540,5500,15.44,2.83,29,51,0,0
230984,125730886,5,5501,5528,15.38,2.78,29,51,0,0
231440,125842711,5,5534,5600,15.41,3.04,29,51,0,0
231853,125952664,5,5597,5571,15.37,2.95,29,51,0,0
232256,126052700,5,5581,5800,15.38,3.3,29,51,0,0
232700,126160747,5,5799,5771,15.42,3.22,29,51,0,0
233186,126273776,5,5769,5757,15.43,3.03,29,52,0,0
233630,126386077,5,5747,5614,15.44,3.21,29,52,0,0
234964,126719245,5,5618,5757,15.43,3.3,29,52,0,0
235367,126819095,5,5759,5900,15.37,3.53,29,52,0,0
236313,127053130,5,5890,5671,15.33,2.96,29,52,0,0
236755,127164108,5,5678,5785,15.41,3.09,29,52,0,0
237203,127273244,5,5772,5600,15.37,3.36,29,52,0,0
237652,127386410,5,5609,5714,15.36,3.36,29,53,0,0
238058,127487993,5,5726,5885,15.44,3.2,29,53,0,0
238502,127595673,5,5868,5700,15.41,3.41,29,53,0,0
238946,127710096,5,5698,5685,15.4,3.18,29,53,0,0
239350,127809104,5,5685,5728,15.34,3.38,29,53,0,0
239800,127924784,5,5715,5628,15.37,3.72,28,53,0,0
240247,128028991,5,5640,5828,15.4,3.29,29,53,0,0
240651,128130078,5,5824,5742,15.33,3.44,29,53,0,0
241140,128246980,5,5731,5614,15.39,3.23,29,53,0,0
241990,128457095,5,5616,5728,15.4,3.26,29,54,0,0
242440,128570583,5,5725,5700,15.36,3.58,29,54,0,0
242885,128676756,5,5709,5857,15.39,3.2,28,54,0,0
243332,128789762,5,5857,5857,15.38,3.65,29,54,0,0
243782,128896995,5,5862,5942,15.33,3.59,29,54,0,0
244223,129005812,5,5939,5885,15.33,3.5,29,54,0,0
244677,129117486,5,5885,5885,15.27,3.84,29,54,0,0
244851,129227360,5,5881,5857,15.38,3.51,29,54,0,0
245254,129334909,5,5865,5928,15.41,3.15,29,54,0,0
245704,129438700,5,5929,5942,15.33,3.47,29,54,0,0
246151,129557764,5,5957,6042,15.36,3.88,29,55,0,0
246561,129654121,5,6035,5942,15.38,3.9,29,55,0,0
246964,129758844,5,5940,5914,15.41,3.5,28,55,0,0
247413,129867901,5,5914,5914,15.42,3.46,29,55,0,0
247854,129976945,5,5914,5914,15.24,3.94,29,55,0,0
248309,130095715,5,5912,5900,15.32,4.18,29,55,0,0
248755,130201602,5,5901,5914,15.33,4.3,28,55,0,0
249645,130414501,5,5916,5971,15.26,3.77,28,55,0,0
250094,130528770,5,6005,6228,15.23,4.66,29,56,0,0
250500,130634805,5,6205,6085,15.32,3.89,29,56,0,0
250903,130731450,5,6082,5900,15.35,3.52,28,56,0,0
251350,130838817,5,5899,5885,15.38,3.39,29,56,0,0
251794,130956240,5,5888,5928,15.33,3.44,28,56,0,0
252250,131068552,5,5914,5800,15.41,3.06,28,56,0,0
252655,131173103,5,5804,5857,15.39,3.65,29,56,0,0
253102,131282495,5,5860,5900,15.3,3.34,29,56,0,0
253549,131396683,5,5896,5857,15.29,4.09,29,56,0,0
254001,131501117,5,5875,6028,15.29,3.52,29,57,0,0
254438,131611307,5,6026,6014,15.29,3.52,29,57,0,0
254888,131720009,5,5997,5771,15.45,2.86,29,57,0,0
255736,131932001,5,5770,5742,15.38,3.22,29,57,0,0
256183,132042058,5,5741,5685,15.36,2.65,29,57,0,0
256622,132148459,5,5685,5700,15.38,2.98,29,57,0,0
257073,132258731,5,5701,5728,15.38,3.04,29,57,0,0
257518,132369055,5,5739,5857,15.35,3.39,29,57,0,0
257924,132465107,5,5855,5742,15.41,2.86,29,57,0,0
258365,132575253,5,5742,5785,15.29,3.26,29,58,0,0
258813,132689162,5,5797,5957,15.29,3.67,29,58,0,0
259261,132794789,5,5951,5800,15.23,3.53,29,58,0,0
259708,132910029,5,5817,5971,15.33,3.39,29,58,0,0
260152,133015025,5,5957,5814,15.34,3.4,29,58,0,0
260635,133133054,5,5819,5871,15.36,3.14,29,58,0,0
261081,133238552,5,5855,5714,15.47,2.95,29,58,0,0
261483,133340081,5,5711,5542,15.48,2.97,28,58,0,0
261974,133456030,5,5531,5385,15.45,2.56,29,58,0,0
262377,133558005,5,5388,5614,15.39,3.09,29,58,0,0
262866,133674717,5,5612,5585,15.33,2.89,29,59,0,0
263312,133785452,5,5579,5528,15.42,2.86,29,59,0,0
263756,133890528,5,5526,5514,15.45,3.11,29,59,0,0
264203,134001287,5,5505,5385,15.42,2.79,28,59,0,0
264653,134113378,5,5398,5514,15.36,2.79,29,59,0,0
265543,134329045,5,5514,5514,15.39,2.88,29,59,0,0
265991,134442138,5,5523,5657,15.38,3.12,29,59,0,0
266397,134544895,5,5634,5428,15.49,2.44,29,59,0,0
266844,134651700,5,5401,5157,15.48,2.17,29,59,0,0
267243,134752663,5,5156,5142,15.42,2,29,59,0,0
268172,134977135,5,5147,5314,15.26,3.01,29,60,0,0
269022,135188251,5,5319,5771,15.3,3.82,29,60,0,0
269515,135312730,5,5769,5757,15.35,3.32,29,60,0,0
269919,135411106,5,5767,5900,15.36,3.58,28,60,0,0
270367,135523294,5,5891,5800,15.37,3.28,29,60,0,0
270820,135633792,5,5797,5771,15.35,3.3,29,60,0,0
271266,135747422,5,5765,5714,15.33,3.86,28,60,0,0
271712,135853883,5,5740,6014,15.22,4.02,29,60,0,0
272119,135957518,5,6014,6057,15.33,3.91,29,61,0,0
272612,136074540,5,6038,5842,15.32,3.72,29,61,0,0
273047,136181561,5,5855,5985,15.32,3.57,29,61,0,0
273499,136293071,5,5974,5871,15.39,3.23,29,61,0,0
273858,136388006,5,5870,5828,15.34,3.2,28,61,0,0
274351,136510138,5,5818,5742,15.38,2.79,28,61,0,0
274752,136607252,5,5743,5828,15.4,3.02,28,61,0,0
275242,136726820,5,5812,5685,15.4,2.97,28,61,0,0
275647,136831479,5,5718,6057,15.34,3.9,28,61,0,0
276052,136931468,5,6058,6085,15.34,3.94,29,61,0,0
276545,137047713,5,6101,6357,15.3,4.21,29,62,0,0
276988,137155724,5,6354,6300,15.33,4.42,29,62,0,0
277434,137264040,5,6314,6500,15.22,4.66,28,62,0,0
277849,137373102,5,6519,6714,15.31,4.4,29,62,0,0
278291,137474513,5,6705,6514,15.28,4.31,29,62,0,0
278736,137588744,5,6526,6657,15.32,4.77,28,62,0,0
279626,137805244,5,6660,6800,15.16,6.06,29,62,0,0
280071,137916737,5,6795,6742,15.19,5.62,29,63,0,0
280480,138018244,5,6751,7300,15.11,6.11,29,63,0,0
280962,138134543,5,7262,6757,15.17,6.25,29,63,0,0
281414,138245521,5,6765,6885,15.06,6.12,28,63,0,0
281855,138354109,5,6868,6657,15.02,5.85,29,63,0,0
282308,138466785,5,6664,6742,15.04,5.22,29,64,0,0
282749,138575319,5,6762,7042,15.2,6.24,28,64,0,0
283200,138686566,5,7006,6628,14.83,5.7,29,64,0,0
283606,138792308,5,6643,6857,15.13,6.3,29,64,0,0
284057,138900917,5,6857,6857,15.13,6.2,29,64,0,0
284498,139008715,5,6853,6800,15.19,5.26,29,64,0,0
284904,139115466,5,6793,6614,15.22,4.42,29,65,0,0
285391,139231292,5,6607,6542,15.3,4.11,29,65,0,0
285794,139332453,5,6534,6385,15.23,4.48,29,65,0,0
286251,139447391,5,6365,6171,15.31,4.25,29,65,0,0
286692,139554787,5,6157,6014,15.28,3.46,29,65,0,0
287140,139663856,5,6042,6357,15.24,4.97,29,65,0,0
287539,139764033,5,6345,6128,15.29,3.8,29,65,0,0
287992,139875598,5,6118,5985,15.27,3.39,29,66,0,0
288404,139985750,5,5984,5942,15.33,3.52,29,66,0,0
288849,140092250,5,5945,6042,15.35,3.83,29,66,0,0
289296,140205298,5,6032,5885,15.29,3.8,29,66,0,0
289748,140314990,5,5895,6000,15.26,3.83,29,66,0,0
290192,140426018,5,6009,6114,15.27,4.12,29,66,0,0
290631,140538115,5,6114,6142,15.33,4.13,29,66,0,0
291078,140646564,5,6150,6242,15.3,4.44,29,66,0,0
291484,140749107,5,6244,6285,15.3,4.05,29,67,0,0
291932,140857821,5,6291,6371,15.27,4.93,29,67,0,0
292345,140965891,5,6369,6342,15.32,4.27,29,67,0,0
292792,141073573,5,6338,6257,15.34,3.74,29,67,0,0
293237,141188679,5,6236,6057,15.29,3.55,29,67,0,0
293681,141299236,5,6061,6100,15.24,3.91,29,67,0,0
294090,141403001,5,6083,5942,15.35,3.59,29,67,0,0
294540,141508514,5,5929,5757,15.35,3.53,29,67,0,0
294983,141619860,5,5751,5700,15.3,3.1,29,67,0,0
295382,141719509,5,5699,5685,15.31,3.47,29,67,0,0
295831,141827242,5,5685,5700,15.3,3.42,29,68,0,0
296277,141943885,5,5703,5742,15.35,3.06,29,68,0,0
296730,142052055,5,5724,5371,15.27,2.77,29,68,0,0
297172,142159266,5,5396,5685,15.36,3.6,29,68,0,0
297617,142271529,5,5699,5814,15.26,3.46,29,68,0,0
298058,142379059,5,5811,5785,15.33,3.45,29,68,0,0
298470,142479245,5,5786,5885,15.3,3.81,29,68,0,0
299362,142698549,5,5889,6057,15.29,4.42,29,68,0,0
299810,142811016,5,6067,6185,15.29,4.45,29,69,0,0
300253,142925139,5,6187,6214,15.32,4.79,29,69,0,0
300617,143017042,5,6217,6371,15.22,4.93,29,69,0,0
301517,143238062,5,6373,6485,15.27,4.92,29,69,0,0
301995,143352098,5,6487,6514,15.32,4.35,29,69,0,0
302449,143463779,5,6494,6285,15.25,4.18,29,70,0,0
302890,143572525,5,6278,6214,15.25,4.59,29,70,0,0
303342,143679163,5,6215,6228,15.27,4.42,29,70,0,0
303741,143778033,5,6225,6100,15.35,4,29,70,0,0
304189,143893119,5,6097,6057,15.26,3.96,29,70,0,0
304636,144005584,5,6045,5885,15.35,3.77,29,70,0,0
305489,144218028,5,5884,5857,15.22,3.59,29,70,0,0
305980,144342239,5,5850,5800,15.3,3.44,29,70,0,0
306383,144439226,5,5806,5928,15.3,3.61,29,71,0,0
306788,144544233,5,5925,5857,15.33,3.52,29,71,0,0
307237,144651097,5,5857,5871,15.29,3.41,29,71,0,0
307719,144772001,5,5861,5771,15.34,3.58,29,71,0,0
308171,144881881,5,5773,5800,15.36,3.54,29,71,0,0
308576,144982293,5,5808,5914,15.35,3.58,29,71,0,0
309027,145093220,5,5914,5914,15.27,3.82,29,71,0,0
309433,145193558,5,5913,5900,15.32,3.56,29,71,0,0
309925,145316825,5,5908,6000,15.35,3.75,29,71,0,0
310819,145534996,5,5992,5842,15.43,3.51,29,72,0,0
311225,145634218,5,5827,5642,15.31,3.42,29,72,0,0
311674,145749137,5,5642,5642,15.42,2.92,29,72,0,0
312125,145862128,5,5650,5742,15.35,3.39,29,72,0,0
312488,145955434,5,5740,5657,15.38,3.24,29,72,0,0
312937,146064464,5,5655,5600,15.3,3.3,29,72,0,0
313424,146183797,5,5598,5585,15.39,3.08,29,72,0,0
313873,146292042,5,5577,5500,15.42,2.89,29,72,0,0
314725,146504695,5,5497,5442,15.45,2.67,29,72,0,0
315124,146606748,5,5439,5385,15.44,2.84,29,73,0,0
315572,146718015,5,5385,5400,15.36,2.58,29,73,0,0
316020,146826038,5,5393,5042,15.41,2.6,29,73,0,0
316463,146933749,5,5044,5214,15.39,2.92,29,73,0,0
316946,147046325,5,5211,5171,15.38,2.61,29,73,0,0
317398,147159266,5,5161,5014,15.39,2.64,29,73,0,0
317841,147265626,5,5020,5100,15.41,2.59,29,73,0,0
318289,147375554,5,5106,5285,15.39,2.82,29,73,0,0
318734,147482065,5,5287,5357,15.26,2.94,29,73,0,0
319175,147589718,5,5362,5428,15.36,2.85,29,73,0,0
319626,147698078,5,5429,5442,15.32,2.83,29,73,0,0
320073,147810749,5,5439,5414,15.36,2.32,29,73,0,0
320523,147919784,5,5401,5285,15.4,2.4,29,74,0,0
320926,148022577,5,5287,5457,15.36,2.51,29,74,0,0
321408,148140889,5,5445,5328,15.38,2.68,29,74,0,0
321855,148250262,5,5330,5357,15.33,2.75,29,74,0,0
322259,148353248,5,5360,5400,15.42,2.78,29,74,0,0
323592,148671548,5,5402,5500,15.36,3.01,29,74,0,0
324037,148782282,5,5488,5300,15.45,2.21,29,74,0,0
324485,148889669,5,5287,5171,15.35,2.68,29,74,0,0
324892,148992262,5,5172,5285,15.37,2.79,29,74,0,0
325383,149108596,5,5271,5142,15.4,2.89,29,74,0,0
325788,149213318,5,5178,5542,15.27,3.62,29,75,0,0
326231,149324901,5,5526,5371,15.34,2.58,29,75,0,0
326680,149433915,5,5367,5328,15.38,2.61,29,75,0,0
327973,149756717,5,5347,6000,15.3,3.99,29,75,0,0
328459,149867603,5,6001,6028,15.38,3.26,29,75,0,0
328856,149965672,5,6016,5628,15.32,2.74,29,75,0,0
329307,150076547,5,5631,5814,15.31,3.54,29,75,0,0
329753,150185478,5,5805,5628,15.28,3.26,29,75,0,0
330203,150295519,5,5627,5614,15.3,3.11,29,76,0,0
330652,150407192,5,5614,5614,15.33,3.29,29,76,0,0
331099,150515726,5,5621,5728,15.35,3.63,29,76,0,0
331945,150727185,5,5728,5800,15.27,3.33,29,76,0,0
332398,150837781,5,5799,5785,15.33,3.59,29,76,0,0
332851,150955486,5,5767,5585,15.35,3.11,29,76,0,0
333298,151065112,5,5609,5885,15.3,3.5,29,76,0,0
333740,151179077,5,5865,5685,15.44,3.06,29,76,0,0
334190,151287768,5,5683,5671,15.3,3.1,29,76,0,0
334593,151386178,5,5674,5828,15.36,3.53,29,77,0,0
335040,151495730,5,5825,5771,15.33,3.35,29,77,0,0
335487,151614781,5,5772,5785,15.42,3.51,29,77,0,0
335932,151724587,5,5757,5542,15.29,2.78,29,77,0,0
336342,151823685,5,5544,5600,15.38,3.18,29,77,0,0
336788,151937076,5,5597,5571,15.33,3.43,29,77,0,0
337240,152045274,5,5574,5614,15.42,3.18,29,77,0,0
337646,152155017,5,5623,5728,15.3,4.17,29,77,0,0
338094,152263555,5,5729,5757,15.38,3.83,29,77,0,0
338535,152369596,5,5754,5714,15.33,2.97,29,77,0,0
338983,152478988,5,5707,5600,15.26,3.39,29,78,0,0
339466,152598763,5,5602,5642,15.33,4.33,29,78,0,0
339880,152698713,5,5656,5800,15.11,4.16,29,78,0,0
340279,152801696,5,5806,6085,15.15,4.38,29,78,0,0
340811,152929482,5,6076,6014,15.25,3.92,29,78,0,0
341173,153018757,5,6015,6100,15.22,3.75,29,78,0,0
341620,153127189,5,6101,6128,15.2,4.07,29,78,0,0
342066,153233596,5,6128,6142,15.26,3.86,29,78,0,0
342515,153348756,5,6146,6200,15.24,3.75,29,79,0,0
342921,153452583,5,6195,5957,15.31,3.52,29,79,0,0
343365,153559771,5,5958,6000,15.26,3.25,29,79,0,0
344294,153786737,5,5996,5942,15.23,3.64,29,79,0,0
344748,153898880,5,5947,6000,15.29,3.69,29,79,0,0
345192,154010461,5,5998,5985,15.23,4.17,29,79,0,0
346564,154339758,5,5990,6242,15.29,3.77,29,80,0,0
346964,154435574,5,6237,6157,15.33,3.78,29,80,0,0
347405,154542039,5,6148,6014,15.22,4.13,29,80,0,0
347895,154660584,5,6033,6242,15.25,3.77,29,80,0,0
348296,154760198,5,6241,6171,15.23,4.09,29,80,0,0
348750,154872090,5,6169,6142,15.23,4.18,29,80,0,0
349192,154982114,5,6146,6228,15.16,4.3,29,80,0,0
349641,155089739,5,6222,6142,15.31,4.04,29,80,0,0
350088,155200679,5,6150,6342,15.3,3.87,29,80,0,0
350535,155306997,5,6334,5914,15.27,3.57,29,81,0,0
350984,155420155,5,5920,5985,15.26,3.75,29,81,0,0
351423,155527770,5,5984,5971,15.29,3.56,29,81,0,0
351827,155626312,5,5974,6114,15.21,4.05,29,81,0,0
352239,155737019,5,6113,6085,15.25,3.46,29,81,0,0
352721,155846029,5,6079,5871,15.26,3.48,29,81,0,0
353172,155956822,5,5873,5928,15.26,3.43,29,81,0,0
353621,156067885,5,5929,5971,15.27,3.43,29,81,0,0
354068,156178846,5,5968,5914,15.3,3.48,29,81,0,0
354520,156286985,5,5918,5985,15.26,3.6,29,82,0,0
354965,156397119,5,5991,6114,15.21,4.25,29,82,0,0
355417,156507768,5,6112,6057,15.26,3.91,29,82,0,0
355856,156615772,5,6058,6128,15.33,3.71,29,82,0,0
356306,156732085,5,6119,6028,15.29,3.45,29,82,0,0
356717,156831760,5,6028,6042,15.3,3.85,29,82,0,0
357160,156943050,5,6039,6014,15.19,3.93,29,82,0,0
357607,157048725,5,6014,6014,15.24,3.92,29,82,0,0
358058,157164047,5,6027,6171,15.12,3.88,29,83,0,0
358504,157270775,5,6166,6071,15.23,4.16,29,83,0,0
358948,157379467,5,6083,6342,15.29,4.92,29,83,0,0
359436,157494295,5,6334,6257,15.2,4.72,29,83,0,0
359839,157599068,5,6269,6428,15.23,4.78,29,83,0,0
360283,157708851,5,6422,6357,15.27,4.19,29,83,0,0
360731,157814745,5,6356,6342,15.25,4.43,29,83,0,0
361623,158033316,5,6327,6000,15.27,4.01,29,84,0,0
362479,158247526,5,5997,5914,15.12,3.89,29,84,0,0
362884,158348698,5,5917,6100,15.27,3.57,29,84,0,0
363369,158462562,5,6094,6014,15.17,4.08,29,84,0,0
363773,158567025,5,6011,5957,15.1,4.14,29,84,0,0
364221,158674699,5,5962,6100,15.14,4.38,29,84,0,0
364671,158786506,5,6093,6000,15.26,4.08,29,84,0,0
365115,158893145,5,5999,5985,15.26,4.39,29,85,0,0
365559,159004496,5,5993,6085,15.19,4.21,29,85,0,0
366010,159120864,5,6094,6200,15.16,4.65,29,85,0,0
366414,159218567,5,6197,6142,15.16,4.27,29,85,0,0
366866,159331675,5,6142,6142,15.23,4.08,29,85,0,0
367311,159438795,5,6148,6214,15.19,4.51,29,85,0,0
367713,159539010,5,6212,6171,15.21,4.49,29,85,0,0
368168,159651256,5,6168,6100,15.3,4.18,29,86,0,0
368647,159765315,5,6105,6214,15.17,4.44,29,86,0,0
369103,159877233,5,6206,6128,15.22,4.69,29,86,0,0
369506,159984697,5,6138,6257,15.12,5.06,29,86,0,0
369959,160095474,5,6261,6300,15.13,4.4,29,86,0,0
370404,160204581,5,6276,6071,15.11,3.88,29,86,0,0
370893,160316160,5,6077,6142,15.25,4.3,29,86,0,0
371290,160416803,5,6120,5885,15.14,3.75,29,86,0,0
371743,160528722,5,5893,5985,15.26,4.36,29,87,0,0
372617,160741021,5,5984,5957,15.27,3.4,30,87,0,0
373027,160844786,5,5953,5685,15.26,3.77,29,87,0,0
373514,160960262,5,5692,5785,15.21,3.74,29,87,0,0
373966,161069421,5,5776,5657,15.23,3.35,29,87,0,0
374407,161180910,5,5665,5785,15.27,3.05,29,87,0,0
374859,161289809,5,5788,5828,15.33,3.28,29,87,0,0
375458,161510724,5,5930,5771,15.29,3.65,29,88,0,0
375864,161615583,5,5774,5828,15.3,3.77,29,88,0,0
376309,161726682,5,5830,5885,15.2,3.91,29,88,0,0
377160,161940076,5,5882,5828,15.27,3.66,29,88,0,0
377611,162050739,5,5837,5971,15.22,4.37,29,88,0,0
378016,162155814,5,5973,6028,15.28,3.53,29,88,0,0
378470,162263456,5,6028,6028,15.3,3.84,29,88,0,0
378875,162371109,5,6027,6014,15.25,3.84,30,88,0,0
379324,162481251,5,6004,5885,15.25,3.39,29,89,0,0
379729,162582216,5,5873,5642,15.29,3.27,29,89,0,0
380176,162694332,5,5649,5800,15.18,3.29,29,89,0,0
380618,162802244,5,5771,5442,15.32,3.18,30,89,0,0
381023,162906089,5,5444,5614,15.33,2.77,29,89,0,0
381512,163023670,5,5612,5600,15.27,3.21,30,89,0,0
381908,163123150,5,5591,5414,15.27,2.84,29,89,0,0
382359,163231036,5,5411,5357,15.35,2.69,29,89,0,0
382802,163342111,5,5364,5471,15.33,2.76,29,89,0,0
383215,163445837,5,5469,5414,15.24,3.22,29,89,0,0
383659,163558082,5,5418,5685,15.3,3.51,30,89,0,0
384147,163675310,5,5685,5685,15.34,3.4,29,90,0,0
384549,163773779,5,5688,5771,15.24,3.55,29,90,0,0
385450,163999769,5,5768,5728,15.31,3.61,30,90,0,0
385855,164097713,5,5729,5785,15.23,3.73,30,90,0,0
386337,164210785,5,5786,5814,15.33,3.61,30,90,0,0
386831,164333148,5,5795,5585,15.32,3.4,29,90,0,0
387187,164420593,5,5583,5528,15.22,3.16,30,90,0,0
387676,164538532,5,5528,5528,15.27,3.17,29,90,0,0
388518,164743530,5,5527,5500,15.28,3.78,29,91,0,0
389010,164861735,5,5506,5585,15.26,3.4,30,91,0,0
389414,164965518,5,5579,5528,15.35,3.24,30,91,0,0
389859,165073056,5,5529,5557,15.26,3.3,30,91,0,0
390267,165180006,5,5564,5700,15.26,3.42,30,91,0,0
390721,165291238,5,5697,5657,15.31,3.28,30,91,0,0
391172,165402996,5,5645,5485,15.27,3.23,30,91,0,0
391624,165513909,5,5500,5714,15.22,3.61,30,91,0,0
392067,165622235,5,5701,5528,15.33,3.68,30,91,0,0
392474,165727537,5,5528,5571,15.26,3.02,29,92,0,0
392925,165838041,5,5579,5771,15.25,3.42,29,92,0,0
393412,165953906,5,5774,5814,15.25,3.67,30,92,0,0
393817,166055477,5,5813,5771,15.25,3.34,30,92,0,0
394299,166166820,5,5769,5757,15.23,3.48,29,92,0,0
394753,166279539,5,5752,5685,15.35,3.22,30,92,0,0
395155,166381573,5,5679,5457,15.33,2.91,30,92,0,0
395642,166496031,5,5436,5142,15.42,2.15,30,92,0,0
396043,166595781,5,5142,5157,15.45,2.29,30,92,0,0
396495,166705288,5,5155,5128,15.45,2.42,30,92,0,0
396973,166819536,5,5126,5100,15.49,2.33,30,92,0,0
397414,166927412,5,5097,5028,15.5,1.98,30,93,0,0
397863,167037191,5,5023,4714,15.51,1.77,30,93,0,0
398298,167142515,5,4699,4157,15.72,1.79,29,93,0,0
398796,167263095,5,4083,3285,15.87,0.29,30,93,0,0
399196,167364105,5,3271,2685,15.8,0.31,30,93,0,0
399640,167470245,5,2684,2671,15.79,0.37,30,93,0,0
400536,167692453,5,2672,2700,15.77,0.48,30,93,0,0
400937,167792520,5,2694,2614,15.81,0.32,30,93,0,0
401387,167901569,5,2615,2642,15.77,0.39,29,93,0,0
401829,168012140,5,2642,2642,15.8,0.38,30,93,0,0
402233,168111539,5,2640,2600,15.8,0.37,30,93,0,0
402716,168227718,5,2603,2657,15.82,0.44,30,93,0,0
403119,168328907,5,2656,2614,15.82,0.43,30,93,0,0
403610,168444995,5,2612,2600,15.77,0.46,30,93,0,0
404015,168545740,5,2597,2542,15.78,0.38,30,93,0,0
404461,168649587,5,2540,2414,15.82,0.26,29,93,0,0
404946,168764472,5,2409,2314,15.81,0.24,29,93,0,0
405399,168874293,5,2306,2228,15.88,0.32,30,93,0,0
405839,168981565,5,2230,2271,15.92,0.3,30,93,0,0
406287,169088084,5,2247,1757,15.9,0,29,93,0,0
406736,169195700,5,1736,1428,15.89,0,29,93,0,0
407184,169304101,5,1422,1314,15.89,0.06,29,93,0,0
407631,169418672,5,1313,1300,15.88,0.08,29,93,0,0
408077,169525073,5,1298,1285,15.89,0.08,29,93,0,0
408520,169634002,5,1285,1285,15.89,0.08,29,93,0,0
408973,169745088,5,1285,1285,15.89,0.08,29,93,0,0
409420,169851909,5,1285,1285,15.89,0.08,29,93,0,0
410278,170062827,5,1285,1285,15.89,0.08,29,93,0,0
410725,170172075,5,1286,1300,15.9,0.09,29,93,0,0
411176,170278194,5,1298,1285,15.9,0.08,29,93,0,0
412031,170488773,5,1285,1285,15.9,0.08,29,93,0,0
412481,170601008,5,1285,1285,15.91,0.08,29,93,0,0
412925,170706716,5,1285,1285,15.9,0.09,29,93,0,0
413418,170826758,5,1285,1285,15.91,0.09,29,93,0,0
413859,170929211,5,1285,1285,15.92,0.08,29,93,0,0
414305,171033674,5,1285,1285,15.92,0.08,29,93,0,0
414749,171140822,5,1285,1285,15.92,0.08,29,93,0,0
415201,171248511,5,1285,1285,15.92,0.08,29,93,0,0
415645,171359519,5,1285,1300,15.92,0.08,29,93,0,0
416089,171465254,5,1300,1300,15.92,0.08,29,93,0,0
416532,171570454,5,1299,1285,15.92,0.08,29,93,0,0
416989,171681140,5,1285,1300,15.92,0.08,29,93,0,0
417437,171788988,5,1299,1285,15.93,0.08,29,93,0,0
417887,171895726,5,1285,1285,15.94,0.08,29,93,0,0
418333,172003246,5,1285,1285,15.94,0.08,29,93,0,0
418779,172109014,5,1285,1285,15.94,0.08,29,93,0,0
419229,172221081,5,1286,1300,15.94,0.08,29,93,0,0
419714,172334529,5,1300,1300,15.93,0.08,29,93,0,0
420125,172436680,5,1298,1285,15.94,0.08,29,93,0,0
420531,172538679,5,1286,1300,15.94,0.08,29,93,0,0
420975,172643774,5,1300,1300,15.95,0.08,29,93,0,0
421425,172754052,5,1300,1300,15.95,0.08,29,93,0,0
421874,172861549,5,1300,1300,15.95,0.08,29,93,0,0
422353,172972694,5,1300,1300,15.95,0.08,29,93,0,0
422808,173082232,5,1300,1300,15.95,0.07000000000000001,29,93,0,0
423284,173190060,5,1300,1300,15.96,0.08,28,93,0,0
423733,173296307,5,1300,1300,15.95,0.08,29,93,0,0
424176,173404764,5,1300,1300,15.95,0.08,29,93,0,0
425064,173617219,5,1300,1300,15.96,0.08,29,93,0,0
425508,173723903,5,1300,1300,15.96,0.08,28,93,0,0
425994,173834272,5,1300,1300,15.95,0.08,29,93,0,0
426400,173935576,5,1300,1300,15.97,0.08,29,93,0,0
426890,174052811,5,1300,1300,15.96,0.08,29,93,0,0
427292,174149534,5,1300,1300,15.97,0.08,28,93,0,0
427784,174263277,5,1300,1300,15.97,0.08,29,93,0,0
428183,174361271,5,1300,1300,15.97,0.08,28,93,0,0
428673,174478085,5,1300,1300,15.97,0.08,29,93,0,0
429114,174589904,5,1300,1300,15.97,0.08,28,93,0,0
429563,174693274,5,1300,1300,15.97,0.08,28,93,0,0
429999,174801021,5,1300,1300,15.97,0.09,28,93,0,0
430491,174919059,5,1300,1300,15.97,0.08,28,93,0,0
430894,175014741,5,1300,1300,15.98,0.08,28,93,0,0
431372,175123486,5,1300,1300,15.97,0.08,28,93,0,0
431826,175232259,5,1300,1300,15.98,0.08,28,93,0,0
432677,175438018,5,1300,1300,15.97,0.08,28,93,0,0
433127,175546762,5,1300,1300,15.98,0.08,28,93,0,0
433572,175655125,5,1300,1300,15.98,0.08,28,93,0,0
434015,175761149,5,1299,1285,15.98,0.09,28,93,0,0
434505,175876746,5,1285,1285,15.99,0.08,28,93,0,0
434912,175976139,5,1285,1300,15.99,0.08,28,93,0,0
435363,176085270,5,1300,1300,15.98,0.08,28,93,0,0
435814,176194134,5,1299,1285,15.99,0.08,28,93,0,0
436303,176309591,5,1285,1285,16,0.08,28,93,0,0
436704,176409513,5,1285,1300,15.99,0.08,28,93,0,0
437189,176523917,5,1300,1300,16,0.08,28,93,0,0
437637,176632524,5,1300,1300,15.99,0.08,28,93,0,0
438045,176734294,5,1300,1300,16,0.08,28,93,0,0
438538,176848502,5,1298,1285,16,0.09,28,93,0,0
438990,176960458,5,1286,1300,16,0.08,28,93,0,0
439391,177058686,5,1300,1300,16,0.08,28,93,0,0
439878,177172075,5,1299,1285,16,0.08,28,93,0,0
440332,177282274,5,1286,1300,16,0.08,28,93,0,0
440769,177385905,5,1300,1300,16.01,0.08,28,93,0,0
441217,177493590,5,1298,1285,16,0.08,28,93,0,0
441661,177601873,5,1285,1300,16,0.08,28,93,0,0
442113,177709054,5,1300,1300,16,0.08,28,93,0,0
442555,177816043,5,1300,1300,16,0.09,28,93,0,0
442998,177924471,5,1300,1300,16.01,0.08,28,93,0,0
443444,178029252,5,1299,1285,16.01,0.08,28,93,0,0
443895,178139677,5,1285,1300,16.01,0.08,28,93,0,0
444349,178248525,5,1300,1300,16.01,0.08,28,93,0,0
444791,178355029,5,1300,1300,16.01,0.08,28,93,0,0
445242,178462285,5,1300,1300,16.01,0.08,28,93,0,0
445645,178564852,5,1300,1300,16.01,0.08,28,93,0,0
446095,178669771,5,1300,1300,16.01,0.08,28,93,0,0
446533,178772026,5,1300,1300,16.01,0.08,28,93,0,0
447023,178885834,5,1300,1300,16.02,0.08,28,93,0,0
447467,178993497,5,1300,1300,16.01,0.09,28,93,0,0
447907,179098500,5,1290,771,16.04,0.01,28,93,0,0
448353,179204500,5,765,285,16.04,0,28,93,0,0
449296,179424101,5,278,0,16.04,0.01,28,93,0,0
449746,179533592,5,0,0,16.04,0.01,28,93,0,0
450246,179651585,5,0,0,16.04,0.02,28,93,0,0
450651,179750149,5,0,0,16.04,0.01,28,93,0,0
451149,179867515,5,0,0,16.04,0.01,28,93,0,0
451600,179975691,5,0,0,16.04,0.01,28,93,0,0
452051,180079746,5,0,0,16.04,0.01,28,93,0,0
452545,180195555,5,0,0,16.04,0.01,28,93,0,0
452999,180301910,5,0,0,16.04,0.01,28,93,0,0
453451,180411987,5,0,0,16.04,0.01,28,93,0,0
453904,180519598,5,0,0,16.04,0.01,28,93,0,0
454354,180625573,5,0,0,16.05,0.01,28,93,0,0
454804,180736997,5,0,0,16.05,0.01,28,93,0,0
455258,180843258,5,0,0,16.04,0.01,28,93,0,0
455709,180952763,5,0,0,16.04,0.01,28,93,0,0
456163,181060866,5,0,0,16.05,0.01,28,93,0,0
456615,181171699,5,0,0,16.05,0.01,28,93,0,0
457564,181393914,5,0,0,16.05,0.01,28,93,0,0
458019,181502810,5,0,0,16.05,0.01,27,93,0,0
458468,181613044,5,0,0,16.05,0.01,28,93,0,0
458921,181722234,5,0,0,16.05,0.01,28,93,0,0
459371,181826589,5,0,0,16.06,0.01,28,93,0,0
459862,181942135,5,0,0,16.06,0.01,28,93,0,0
460358,182057015,5,0,0,16.06,0.01,27,93,0,0
461255,182266566,5,0,0,16.06,0.01,27,93,0,0
461749,182384472,5,0,0,16.06,0.01,27,93,0,0
462202,182488164,5,0,0,16.07,0.02,27,93,0,0
462654,182595830,5,0,0,16.06,0.01,27,93,0,0
