LineNo,TimeUS,Instance,RPM,RawRPM,Volt,Curr,Temp,CTot,MotTemp,Err
1607,69484475,3,0,0,16.44,0.04,28,0,0,0
2102,69601554,3,0,0,16.45,0.05,28,0,0,0
2550,69706313,3,0,0,16.44,0.04,28,0,0,0
3006,69809196,3,0,0,16.44,0.05,28,0,0,0
3537,69927491,3,0,0,16.44,0.04,28,0,0,0
3994,70032800,3,0,0,16.44,0.05,28,0,0,0
4452,70141770,3,0,0,16.44,0.05,28,0,0,0
4902,70243010,3,0,0,16.45,0.05,28,0,0,0
5358,70350907,3,0,0,16.45,0.05,28,0,0,0
5813,70453819,3,0,0,16.45,0.05,28,0,0,0
6308,70567331,3,0,0,16.45,0.05,28,0,0,0
6758,70668780,3,0,0,16.44,0.05,28,0,0,0
7254,70786531,3,0,0,16.44,0.05,28,0,0,0
7713,70890542,3,0,0,16.44,0.04,28,0,0,0
8128,70989101,3,3,200,16.44,0.06,28,0,0,0
9074,71206732,3,218,1028,16.39,0.17,28,0,0,0
9572,71319009,3,1047,1242,16.43,0.13,28,0,0,0
10022,71426429,3,1246,1300,16.43,0.11,28,0,0,0
10479,71534058,3,1301,1314,16.42,0.11,28,0,0,0
10930,71635763,3,1314,1328,16.42,0.11,28,0,0,0
11424,71753113,3,1328,1328,16.42,0.11,28,0,0,0
11877,71858015,3,1328,1328,16.42,0.11,28,0,0,0
12367,71969991,3,1328,1342,16.42,0.11,28,0,0,0
12823,72077009,3,1342,1342,16.42,0.11,28,0,0,0
13277,72184917,3,1344,1371,16.4,0.15,28,0,0,0
13529,72298374,3,1397,1671,16.35,0.36,28,0,0,0
13935,72396801,3,1687,2600,16.05,1.37,28,0,0,0
14391,72503474,3,2631,3328,16.07,2.02,28,0,0,0
14836,72609477,3,3334,3742,15.8,3.04,28,0,0,0
15290,72717587,3,3752,4457,15.75,3.36,28,0,0,0
15783,72832659,3,4528,5500,15.53,4.26,28,0,0,0
16277,72946989,3,5541,5942,15.53,4.42,28,0,0,0
17140,73157979,3,5948,6114,15.58,3.38,28,0,0,0
17592,73261673,3,6101,5857,15.55,3.29,28,1,0,0
18049,73371304,3,5864,5957,15.58,3.07,28,1,0,0
18547,73486086,3,5936,5728,15.52,2.9,28,1,0,0
18953,73585099,3,5725,5528,15.58,2.47,28,1,0,0
19452,73701562,3,5511,5300,15.61,1.72,28,1,0,0
19897,73807001,3,5266,4828,15.58,1.64,28,1,0,0
20396,73925003,3,4840,4957,15.54,2.41,29,1,0,0
20847,74029704,3,5002,5457,15.54,3.33,29,1,0,0
21259,74133104,3,5461,5714,15.54,3.13,28,1,0,0
21752,74244548,3,5707,5614,15.64,3.17,29,1,0,0
22203,74353437,3,5623,5757,15.63,2.86,29,1,0,0
22701,74468704,3,5761,5814,15.57,3.58,29,2,0,0
23604,74683719,3,5820,6000,15.58,3.47,29,2,0,0
24058,74801912,3,6008,6071,15.49,3.44,29,2,0,0
24503,74907922,3,6092,6257,15.57,3.65,29,2,0,0
24913,75006060,3,6253,6185,15.57,3.48,29,2,0,0
25362,75120916,3,6186,6200,15.59,3.42,29,2,0,0
25803,75233339,3,6176,5985,15.64,3.23,29,2,0,0
26216,75334721,3,5979,5900,15.54,3.05,29,2,0,0
26667,75442794,3,5887,5714,15.51,2.91,29,2,0,0
27110,75554585,3,5718,5771,15.55,3.2,29,3,0,0
27555,75663834,3,5807,6100,15.44,3.49,29,3,0,0
28003,75777312,3,6083,5971,15.46,3.67,29,3,0,0
28408,75871764,3,5973,6142,15.49,3.35,29,3,0,0
28860,75985368,3,6135,5971,15.49,3.02,29,3,0,0
29307,76097226,3,5964,5900,15.52,2.82,29,3,0,0
29711,76194334,3,5887,5600,15.61,2.55,29,3,0,0
30160,76305823,3,5601,5671,15.48,2.69,29,3,0,0
31499,76643133,3,5659,5271,15.61,2.36,29,3,0,0
31948,76755277,3,5272,5285,15.66,2.45,29,4,0,0
32357,76854700,3,5284,5271,15.67,2.25,29,4,0,0
32809,76965531,3,5271,5300,15.72,2.51,29,4,0,0
33294,77082354,3,5297,5271,15.75,2.22,29,4,0,0
34189,77303088,3,5262,5085,15.76,2.28,29,4,0,0
34636,77414856,3,5078,5014,15.76,1.97,29,4,0,0
35042,77514010,3,5014,5014,15.68,2.28,29,4,0,0
35962,77734455,3,5017,5142,15.69,2.36,29,4,0,0
36414,77844101,3,5139,5100,15.69,2.33,29,4,0,0
36825,77951079,3,5102,5142,15.76,2.3,29,4,0,0
37274,78057117,3,5139,5085,15.64,2.16,29,4,0,0
37714,78163570,3,5084,5057,15.67,2.22,29,4,0,0
38160,78270222,3,5055,5028,15.6,2.33,29,4,0,0
38606,78382252,3,5034,5128,15.55,2.45,29,5,0,0
39054,78491722,3,5136,5257,15.58,2.35,29,5,0,0
39498,78601074,3,5254,5214,15.63,2.26,29,5,0,0
39906,78702489,3,5213,5200,15.56,2.41,29,5,0,0
40353,78814771,3,5198,5185,15.69,2.28,29,5,0,0
40791,78921130,3,5187,5214,15.67,2.16,29,5,0,0
41201,79021764,3,5213,5157,15.68,2.26,29,5,0,0
41688,79140242,3,5157,5157,15.69,2.25,29,5,0,0
42143,79254249,3,5158,5185,15.67,2.48,29,5,0,0
42547,79358663,3,5178,5100,15.62,2.3,29,5,0,0
42999,79469028,3,5105,5242,15.61,2.2,29,5,0,0
43449,79582597,3,5224,5057,15.61,1.94,29,5,0,0
43896,79691552,3,5064,5142,15.56,2.02,29,5,0,0
44300,79794768,3,5127,4985,15.58,2.02,29,5,0,0
44749,79900288,3,4974,4885,15.61,1.9,29,5,0,0
45149,79999729,3,4891,5028,15.64,2.1,29,5,0,0
45602,80116121,3,5019,4942,15.66,2.15,29,6,0,0
46049,80223687,3,4961,5185,15.58,1.97,29,6,0,0
46501,80331856,3,5166,4985,15.69,1.93,29,6,0,0
46945,80444023,3,4971,4842,15.6,1.79,29,6,0,0
47349,80545455,3,4844,4900,15.63,1.92,29,6,0,0
47845,80665764,3,4903,4942,15.61,1.89,29,6,0,0
48244,80765015,3,4946,5042,15.59,2.09,29,6,0,0
48696,80876034,3,5035,4885,15.63,2.03,29,6,0,0
49143,80987143,3,4890,5014,15.57,2,29,6,0,0
49602,81098203,3,5014,5014,15.69,1.82,29,6,0,0
50051,81211576,3,4989,4742,15.66,1.44,29,6,0,0
50498,81323923,3,4742,4742,15.57,2.06,29,6,0,0
50946,81429293,3,4743,4757,15.6,2,29,6,0,0
51385,81534719,3,4759,4942,15.68,2.28,29,6,0,0
51830,81642100,3,4942,4957,15.63,1.96,29,6,0,0
52238,81749799,3,4946,4814,15.69,1.57,29,6,0,0
52687,81857477,3,4804,4671,15.64,1.99,29,6,0,0
53135,81969096,3,4697,4957,15.54,2.09,29,7,0,0
53583,82076769,3,4943,4771,15.56,1.72,29,7,0,0
54027,82187171,3,4766,4685,15.6,1.86,29,7,0,0
54475,82296309,3,4663,4457,15.61,1.33,29,7,0,0
54923,82408159,3,4464,4542,15.6,1.96,29,7,0,0
55332,82509783,3,4544,4714,15.61,2.05,29,7,0,0
55777,82618798,3,4721,4814,15.51,2.08,29,7,0,0
56188,82726248,3,4812,4785,15.61,2.21,29,7,0,0
56636,82834595,3,4791,4971,15.63,2.19,29,7,0,0
57084,82944812,3,4971,4971,15.58,2.17,29,7,0,0
57976,83164914,3,4985,5571,15.57,3.4,29,7,0,0
58425,83272885,3,5583,5885,15.56,3.16,29,7,0,0
58875,83385899,3,5853,5385,15.58,2.21,29,7,0,0
59282,83488060,3,5381,5228,15.6,1.94,29,7,0,0
59765,83603664,3,5210,5028,15.63,1.68,29,8,0,0
60169,83703528,3,5024,4828,15.57,1.82,29,8,0,0
60614,83812906,3,4825,4628,15.61,1.62,29,8,0,0
61066,83926072,3,4620,4457,15.49,1.7,29,8,0,0
61516,84035596,3,4459,4500,15.59,1.63,29,8,0,0
61922,84140041,3,4499,4485,15.55,1.63,29,8,0,0
62412,84255246,3,4489,4614,15.57,1.75,29,8,0,0
62891,84366247,3,4623,4828,15.61,1.86,29,8,0,0
63342,84477843,3,4839,4985,15.61,2.25,29,8,0,0
64195,84690911,3,4985,5028,15.59,2.27,29,8,0,0
64637,84801559,3,5030,5157,15.57,2.29,29,8,0,0
65086,84908492,3,5160,5357,15.64,2.51,29,8,0,0
65530,85018460,3,5352,5271,15.54,2.72,29,8,0,0
65972,85129141,3,5277,5342,15.53,2.74,29,8,0,0
66453,85238624,3,5342,5342,15.52,2.57,29,8,0,0
66903,85348559,3,5350,5442,15.55,2.83,29,9,0,0
67310,85447031,3,5439,5300,15.55,2.58,29,9,0,0
67761,85564092,3,5312,5428,15.6,2.84,29,9,0,0
68210,85670483,3,5430,5457,15.55,2.42,29,9,0,0
68608,85767777,3,5457,5485,15.51,2.61,29,9,0,0
69103,85889069,3,5466,5300,15.57,2.34,29,9,0,0
69511,85991071,3,5285,5142,15.54,1.77,29,9,0,0
69959,86096362,3,5135,4971,15.48,2.14,29,9,0,0
70443,86221684,3,4987,5128,15.44,2.65,29,9,0,0
70856,86319261,3,5133,5200,15.55,2.5,29,9,0,0
71305,86432913,3,5203,5242,15.56,2.28,29,9,0,0
72202,86655573,3,5241,5228,15.42,2.39,29,9,0,0
72644,86766528,3,5222,5171,15.59,2.44,29,9,0,0
73055,86863454,3,5172,5300,15.6,2.65,29,10,0,0
73504,86976833,3,5287,5128,15.56,2.28,29,10,0,0
73950,87087823,3,5134,5214,15.55,2.32,29,10,0,0
74359,87192549,3,5208,5114,15.52,2.34,29,10,0,0
75285,87411794,3,5118,5285,15.51,2.71,29,10,0,0
75731,87523514,3,5307,5485,15.58,2.86,29,10,0,0
76180,87631672,3,5496,5628,15.51,3.24,29,10,0,0
76622,87739738,3,5643,5828,15.57,3.05,29,10,0,0
77072,87848699,3,5805,5585,15.51,2.87,29,10,0,0
77474,87950554,3,5586,5657,15.55,2.75,29,10,0,0
77969,88069046,3,5637,5428,15.58,2.29,29,10,0,0
78370,88167444,3,5409,5157,15.6,1.89,29,10,0,0
78817,88273015,3,5150,5014,15.52,2.01,29,11,0,0
79270,88386966,3,5004,4857,15.52,2,29,11,0,0
79717,88491463,3,4858,4900,15.55,1.76,29,11,0,0
80133,88599797,3,4900,4914,15.42,2.5,29,11,0,0
80575,88708018,3,4918,4957,15.42,2.34,29,11,0,0
81025,88818276,3,4958,4971,15.47,2.28,29,11,0,0
81465,88916997,3,4973,5071,15.4,2.23,29,11,0,0
81909,89027882,3,5071,5085,15.46,2.27,29,11,0,0
82358,89140095,3,5089,5185,15.48,2.56,29,11,0,0
82851,89257206,3,5196,5314,15.46,2.51,29,11,0,0
83254,89360592,3,5310,5100,15.55,2.34,29,11,0,0
84187,89587678,3,5106,5242,15.57,2.22,29,11,0,0
84636,89695541,3,5238,5185,15.54,2.59,29,11,0,0
85042,89798010,3,5192,5328,15.53,2.86,29,12,0,0
85494,89908736,3,5346,5600,15.48,3.1,29,12,0,0
85937,90016840,3,5605,5728,15.47,2.81,29,12,0,0
86384,90129490,3,5728,5771,15.41,3.11,29,12,0,0
86831,90236762,3,5765,5671,15.52,2.95,29,12,0,0
87282,90346512,3,5677,5771,15.45,3.02,30,12,0,0
87731,90454113,3,5764,5671,15.54,3.04,29,12,0,0
88184,90566353,3,5673,5728,15.5,2.99,29,12,0,0
88674,90683546,3,5725,5700,15.52,3.02,29,12,0,0
89571,90903092,3,5691,5514,15.51,2.98,29,12,0,0
90017,91012806,3,5515,5528,15.54,2.74,29,13,0,0
90466,91124590,3,5524,5500,15.52,2.61,29,13,0,0
90871,91220527,3,5500,5500,15.5,2.59,29,13,0,0
91366,91341080,3,5478,5257,15.52,2.06,29,13,0,0
91819,91450317,3,5229,4928,15.61,1.34,29,13,0,0
92265,91560880,3,4916,4800,15.46,2.04,29,13,0,0
92675,91664885,3,4810,5014,15.54,2.61,29,13,0,0
93127,91781761,3,5007,4942,15.5,2.16,29,13,0,0
93615,91900446,3,4923,4828,15.5,2.56,29,13,0,0
94018,91996167,3,4843,5185,15.32,2.93,30,13,0,0
94469,92106696,3,5217,5557,15.44,3.35,29,13,0,0
94874,92213231,3,5557,5557,15.42,2.69,29,13,0,0
95324,92322563,3,5562,5671,15.45,3.39,29,13,0,0
95770,92428751,3,5670,5614,15.55,2.6,29,14,0,0
96211,92542444,3,5613,5557,15.47,3.02,30,14,0,0
96663,92646505,3,5559,5728,15.49,3.08,30,14,0,0
97100,92758723,3,5727,5700,15.44,3.32,29,14,0,0
97554,92871576,3,5701,5714,15.52,2.77,30,14,0,0
98004,92984455,3,5700,5557,15.53,2.79,30,14,0,0
98449,93090502,3,5550,5485,15.58,2.37,29,14,0,0
98854,93190546,3,5483,5414,15.58,2.52,30,14,0,0
99307,93301314,3,5418,5471,15.54,2.64,30,14,0,0
99751,93415059,3,5457,5314,15.58,2.38,30,14,0,0
100197,93524018,3,5304,5228,15.69,1.98,29,14,0,0
100645,93630491,3,5229,5242,15.47,2.66,30,14,0,0
101095,93745154,3,5270,5571,15.51,3.2,30,15,0,0
101543,93851218,3,5572,5614,15.49,3.06,30,15,0,0
102391,94060144,3,5617,5771,15.37,3.32,30,15,0,0
102839,94174557,3,5771,5785,15.44,3.11,29,15,0,0
103288,94279946,3,5766,5471,15.45,2.71,30,15,0,0
103739,94397178,3,5482,5657,15.39,3.33,30,15,0,0
104630,94616761,3,5660,5742,15.42,3.1,30,15,0,0
105043,94724696,3,5744,5771,15.43,3.3,30,15,0,0
105493,94832542,3,5774,5814,15.37,3.14,30,15,0,0
105940,94943030,3,5809,5757,15.44,3.16,30,16,0,0
106346,95043447,3,5758,5785,15.47,3.16,30,16,0,0
106794,95153535,3,5779,5671,15.44,2.61,30,16,0,0
107246,95263717,3,5667,5614,15.41,3.08,30,16,0,0
107693,95374417,3,5616,5657,15.45,2.89,30,16,0,0
108142,95485086,3,5660,5700,15.49,2.78,29,16,0,0
108544,95587740,3,5682,5457,15.48,2.63,30,16,0,0
108995,95698115,3,5469,5642,15.48,3.05,30,16,0,0
109443,95809048,3,5625,5457,15.38,2.95,30,16,0,0
109854,95914089,3,5457,5542,15.45,2.75,30,16,0,0
110300,96020483,3,5547,5614,15.45,2.82,30,16,0,0
110748,96132694,3,5608,5557,15.41,2.87,30,17,0,0
111197,96240552,3,5550,5485,15.39,2.67,30,17,0,0
111602,96344268,3,5482,5428,15.52,2.53,30,17,0,0
112048,96451044,3,5427,5400,15.53,2.49,30,17,0,0
112487,96558602,3,5398,5342,15.52,2.42,30,17,0,0
112943,96673110,3,5339,5300,15.48,2.42,30,17,0,0
113391,96781681,3,5303,5342,15.52,2.42,30,17,0,0
113841,96891289,3,5350,5471,15.5,2.83,30,17,0,0
114247,96995923,3,5469,5342,15.46,2.68,30,17,0,0
114695,97103704,3,5348,5457,15.46,2.52,30,17,0,0
115138,97214137,3,5460,5542,15.45,2.62,30,17,0,0
115582,97323672,3,5538,5471,15.46,2.37,30,17,0,0
116032,97432808,3,5449,5142,15.54,1.99,30,18,0,0
116478,97544559,3,5129,4971,15.41,2.21,30,18,0,0
116929,97654538,3,4980,5071,15.42,2.25,30,18,0,0
117331,97758948,3,5070,5014,15.38,2.4,30,18,0,0
117776,97864076,3,5014,5042,15.45,2.38,30,18,0,0
118268,97984117,3,5044,5071,15.49,2.31,30,18,0,0
118719,98093920,3,5071,5085,15.37,2.52,30,18,0,0
119114,98194250,3,5086,5171,15.38,2.39,30,18,0,0
119609,98311038,3,5171,5185,15.51,2.33,30,18,0,0
120053,98423097,3,5171,4971,15.44,2.29,30,18,0,0
120501,98535320,3,4981,5085,15.36,2.88,30,18,0,0
120902,98631807,3,5091,5228,15.48,2.47,30,18,0,0
121386,98749695,3,5230,5271,15.45,2.59,30,18,0,0
121835,98857733,3,5272,5300,15.45,2.53,30,18,0,0
122238,98959570,3,5296,5228,15.5,2.45,30,18,0,0
122686,99068688,3,5227,5214,15.41,2.4,30,19,0,0
123116,99172559,3,5215,5271,15.38,2.43,30,19,0,0
123578,99286699,3,5266,5142,15.47,2.26,30,19,0,0
124022,99397288,3,5146,5185,15.42,2.29,30,19,0,0
124471,99507791,3,5182,5157,15.45,2.26,30,19,0,0
124864,99605047,3,5158,5214,15.46,2.23,30,19,0,0
125324,99723662,3,5204,5114,15.43,2.5,30,19,0,0
125725,99822414,3,5114,5157,15.5,2.01,30,19,0,0
126179,99935815,3,5158,5185,15.45,2.27,30,19,0,0
126636,100048582,3,5170,5028,15.44,1.93,30,19,0,0
127084,100160846,3,5029,5042,15.42,2.17,30,19,0,0
127536,100269791,3,5048,5114,15.47,2.11,30,19,0,0
127942,100372694,3,5116,5142,15.44,2.27,30,19,0,0
128388,100479871,3,5144,5214,15.46,2.09,30,19,0,0
128830,100587766,3,5210,5157,15.41,2.16,30,19,0,0
129235,100685662,3,5158,5214,15.41,2.02,30,20,0,0
129687,100800578,3,5194,4985,15.39,2.09,30,20,0,0
130099,100901740,3,4983,4900,15.46,1.69,30,20,0,0
130582,101017882,3,4903,4942,15.49,1.75,30,20,0,0
131033,101132901,3,4932,4800,15.45,1.75,30,20,0,0
131486,101244135,3,4802,4828,15.4,1.96,30,20,0,0
132375,101459899,3,4833,5000,15.46,2.01,30,20,0,0
132784,101565293,3,5001,5042,15.49,2.26,30,20,0,0
133230,101673238,3,5043,5114,15.45,2.09,30,20,0,0
133677,101783046,3,5114,5128,15.42,2.21,30,20,0,0
134123,101890254,3,5130,5200,15.44,2.06,30,20,0,0
134608,102004923,3,5198,5185,15.41,2.15,30,20,0,0
135467,102220492,3,5180,5057,15.44,1.76,30,20,0,0
135916,102331279,3,5048,4928,15.44,1.74,30,20,0,0
136365,102441250,3,4927,4914,15.39,1.82,30,20,0,0
136808,102554451,3,4910,4885,15.41,1.91,29,21,0,0
137260,102660842,3,4890,4957,15.4,1.9,30,21,0,0
137666,102767014,3,4944,4842,15.44,2.1,30,21,0,0
138560,102985007,3,4846,4942,15.41,1.9,29,21,0,0
139006,103097795,3,4945,4971,15.42,2.2,30,21,0,0
139408,103192143,3,4973,5100,15.47,2.26,30,21,0,0
139860,103301115,3,5098,5014,15.4,2.03,29,21,0,0
140344,103417760,3,5018,5071,15.35,2.17,29,21,0,0
140754,103525275,3,5073,5114,15.41,2.04,29,21,0,0
141200,103631285,3,5114,5114,15.45,2.09,30,21,0,0
141686,103752556,3,5115,5128,15.42,2.25,30,21,0,0
142091,103846573,3,5128,5157,15.35,2.3,29,21,0,0
142988,104072051,3,5164,5328,15.36,2.41,29,21,0,0
143426,104174228,3,5326,5242,15.45,2.31,30,22,0,0
143875,104283597,3,5241,5228,15.4,2.29,30,22,0,0
144291,104394065,3,5233,5285,15.37,2.41,30,22,0,0
144691,104491234,3,5284,5214,15.44,2.19,29,22,0,0
145180,104610740,3,5224,5328,15.39,2.37,29,22,0,0
145661,104724254,3,5311,5171,15.42,2.33,29,22,0,0
146509,104933077,3,5171,5171,15.35,2.22,30,22,0,0
146921,105036987,3,5170,5142,15.4,2.13,30,22,0,0
147412,105159597,3,5136,5071,15.41,2.2,29,22,0,0
147812,105251137,3,5070,5000,15.39,2.18,29,22,0,0
148263,105365148,3,5017,5171,15.41,2.28,30,22,0,0
148711,105470550,3,5164,5100,15.37,2.48,29,22,0,0
149156,105582122,3,5125,5342,15.32,2.79,29,22,0,0
149968,105785678,3,5341,5314,15.39,2.59,30,23,0,0
151350,106124771,3,5312,5228,15.36,1.87,29,23,0,0
151802,106233245,3,5218,5085,15.33,2.39,29,23,0,0
153106,106557835,3,5085,5142,15.36,2.48,29,23,0,0
153598,106674096,3,5143,5171,15.35,2.38,29,23,0,0
154038,106783566,3,5179,5300,15.35,2.61,30,23,0,0
154485,106890725,3,5303,5385,15.29,2.62,29,23,0,0
154931,107001568,3,5383,5371,15.29,2.81,29,23,0,0
155338,107104107,3,5370,5357,15.29,2.83,29,23,0,0
155824,107221494,3,5362,5442,15.28,2.59,29,24,0,0
156723,107444676,3,5434,5271,15.35,2.37,29,24,0,0
157118,107543134,3,5269,5200,15.48,2.13,29,24,0,0
157614,107661141,3,5191,5085,15.41,2.13,30,24,0,0
158059,107772092,3,5074,4971,15.36,1.96,29,24,0,0
158461,107872901,3,4965,4842,15.35,1.98,29,24,0,0
159367,108095828,3,4847,5000,15.39,2.07,29,24,0,0
159764,108196805,3,4998,4942,15.39,2.03,29,24,0,0
160223,108314993,3,4945,4971,15.42,1.98,29,24,0,0
160628,108417207,3,4974,5028,15.46,2.32,29,24,0,0
161083,108532308,3,5028,5028,15.33,2.4,29,24,0,0
161486,108631555,3,5032,5314,15.26,2.7,30,24,0,0
161965,108744527,3,5311,5285,15.38,2.44,29,24,0,0
162412,108850273,3,5289,5357,15.36,2.71,29,25,0,0
162812,108950502,3,5358,5442,15.36,2.81,29,25,0,0
163310,109071782,3,5414,5142,15.33,1.88,29,25,0,0
163714,109173807,3,5143,5185,15.32,2.04,29,25,0,0
164159,109277811,3,5176,4985,15.35,2.05,29,25,0,0
164615,109392071,3,4987,5014,15.39,2.02,29,25,0,0
165022,109492238,3,5013,4985,15.36,1.91,29,25,0,0
165508,109608624,3,4987,5014,15.36,2,29,25,0,0
165916,109709715,3,5014,5014,15.39,2.11,29,25,0,0
166359,109820235,3,5015,5085,15.32,2.05,29,25,0,0
166805,109931569,3,5077,4928,15.27,2.12,29,25,0,0
167663,110147205,3,4935,5257,15.35,2.24,29,25,0,0
168110,110254664,3,5257,5271,15.26,2.19,29,25,0,0
168554,110364805,3,5265,5157,15.3,2.21,29,25,0,0
169005,110475724,3,5152,5042,15.29,1.99,29,26,0,0
169483,110589579,3,5043,5071,15.3,2.33,29,26,0,0
169935,110697511,3,5087,5257,15.3,2.62,29,26,0,0
170382,110807414,3,5267,5371,15.25,2.84,29,26,0,0
170785,110905078,3,5371,5385,15.31,2.79,29,26,0,0
171234,111016716,3,5392,5585,15.25,2.79,29,26,0,0
171720,111133289,3,5556,5314,15.22,2.36,29,26,0,0
172123,111231105,3,5309,5200,15.22,2.23,29,26,0,0
172564,111339672,3,5185,5042,15.33,2.01,29,26,0,0
173013,111448596,3,5031,4928,15.29,1.93,29,26,0,0
173416,111550663,3,4929,5028,15.38,2.2,29,26,0,0
173866,111659108,3,5021,4885,15.28,1.99,29,26,0,0
174313,111771041,3,4875,4785,15.36,1.93,29,26,0,0
174757,111873754,3,4796,4957,15.2,2.39,29,26,0,0
175203,111986747,3,4968,5242,15.29,2.59,29,27,0,0
175649,112093500,3,5246,5300,15.35,2.82,29,27,0,0
176509,112314025,3,5312,5542,15.35,2.66,29,27,0,0
176952,112416670,3,5536,5485,15.31,2.65,29,27,0,0
177358,112514543,3,5483,5385,15.36,2.62,29,27,0,0
177804,112624518,3,5382,5328,15.36,2.5,29,27,0,0
178280,112736286,3,5328,5328,15.3,2.64,29,27,0,0
178735,112850527,3,5331,5385,15.32,2.71,29,27,0,0
179183,112962266,3,5383,5371,15.28,2.81,29,27,0,0
179631,113071107,3,5355,5214,15.26,2.59,29,27,0,0
180073,113178057,3,5214,5214,15.28,2.51,29,27,0,0
180515,113283916,3,5227,5357,15.41,2.62,29,27,0,0
180923,113387762,3,5354,5314,15.36,2.36,29,28,0,0
181378,113502571,3,5309,5242,15.21,2.49,29,28,0,0
181824,113617763,3,5227,5085,15.4,2.36,29,28,0,0
182229,113717772,3,5085,5100,15.36,2.36,29,28,0,0
182709,113830496,3,5104,5171,15.32,2.28,29,28,0,0
183152,113945886,3,5172,5185,15.33,2.46,29,28,0,0
183565,114042950,3,5191,5328,15.36,2.3,29,28,0,0
184010,114157739,3,5320,5228,15.33,2.26,29,28,0,0
184461,114270742,3,5216,5114,15.33,2.52,29,28,0,0
184905,114375996,3,5116,5171,15.38,2.31,29,28,0,0
185351,114491338,3,5180,5271,15.35,2.56,29,28,0,0
185794,114596086,3,5271,5271,15.27,2.59,29,28,0,0
186248,114711799,3,5280,5385,15.36,2.71,29,28,0,0
186682,114816720,3,5368,5242,15.25,2.61,29,28,0,0
187129,114930253,3,5254,5371,15.3,2.6,29,29,0,0
187537,115022724,3,5370,5357,15.29,2.74,29,29,0,0
187983,115135087,3,5360,5428,15.33,3.04,29,29,0,0
188475,115253793,3,5434,5514,15.33,3.03,29,29,0,0
188874,115355781,3,5508,5442,15.35,2.69,29,29,0,0
189282,115457757,3,5445,5628,15.28,3.2,29,29,0,0
189767,115575569,3,5630,5771,15.25,3.14,29,29,0,0
190220,115686122,3,5771,5771,15.23,3.18,29,29,0,0
190661,115793574,3,5767,5728,15.26,3.08,29,29,0,0
191108,115905580,3,5730,5757,15.25,2.85,29,29,0,0
191556,116012600,3,5744,5585,15.32,2.76,29,29,0,0
191970,116113044,3,5583,5485,15.25,2.89,29,30,0,0
192412,116222786,3,5483,5414,15.23,2.76,29,30,0,0
192897,116340691,3,5423,5542,15.27,2.65,29,30,0,0
193343,116447028,3,5539,5500,15.28,2.57,29,30,0,0
193791,116560074,3,5495,5428,15.23,2.62,29,30,0,0
194238,116667372,3,5418,5300,15.22,2.32,29,30,0,0
194685,116781067,3,5321,5485,15.26,2.55,29,30,0,0
195087,116878799,3,5478,5228,15.26,2.19,29,30,0,0
195529,116990033,3,5219,5042,15.27,1.97,29,30,0,0
195986,117103585,3,5020,4714,15.2,1.6,29,30,0,0
196397,117210708,3,4706,4571,15.32,1.96,29,30,0,0
196844,117325546,3,4571,4571,15.33,1.99,29,30,0,0
197255,117428596,3,4593,4900,15.19,2.64,29,30,0,0
197656,117530546,3,4909,5100,15.28,2.48,29,30,0,0
198106,117640626,3,5108,5285,15.3,2.61,29,31,0,0
198549,117750969,3,5279,5228,15.35,2.5,29,31,0,0
199000,117862546,3,5235,5314,15.32,2.43,29,31,0,0
199431,117964215,3,5312,5271,15.29,2.57,29,31,0,0
199927,118086260,3,5285,5428,15.36,2.53,29,31,0,0
200326,118184826,3,5429,5485,15.34,2.8,29,31,0,0
200772,118291774,3,5485,5500,15.32,2.99,29,31,0,0
201218,118404816,3,5504,5571,15.26,3.21,29,31,0,0
201660,118513219,3,5587,5757,15.26,3.28,29,31,0,0
202111,118621564,3,5751,5671,15.19,2.88,29,31,0,0
202554,118732737,3,5662,5600,15.3,2.65,29,31,0,0
202957,118830890,3,5600,5600,15.3,2.66,29,31,0,0
203408,118941744,3,5583,5357,15.27,2.66,29,32,0,0
203855,119050075,3,5357,5400,15.27,2.56,29,32,0,0
204301,119161490,3,5392,5228,15.26,2.28,29,32,0,0
204746,119268766,3,5228,5228,15.3,2.34,29,32,0,0
206093,119602288,3,5236,5642,15.22,3.22,30,32,0,0
206972,119815273,3,5637,5542,15.19,3.02,29,32,0,0
207411,119921081,3,5547,5657,15.18,3.13,29,32,0,0
207856,120027840,3,5659,5742,15.2,3.24,30,32,0,0
208746,120245250,3,5736,5528,15.23,2.77,29,33,0,0
209205,120361883,3,5529,5542,15.25,2.77,29,33,0,0
209607,120461338,3,5537,5442,15.27,2.51,29,33,0,0
210050,120572020,3,5436,5357,15.26,2.62,29,33,0,0
210498,120679818,3,5358,5385,15.25,2.94,29,33,0,0
210949,120793498,3,5397,5528,15.27,2.89,29,33,0,0
211396,120901715,3,5532,5585,15.19,3.09,29,33,0,0
211840,121009266,3,5589,5628,15.25,3.21,29,33,0,0
212291,121119552,3,5624,5585,15.15,3.01,29,33,0,0
213135,121332856,3,5584,5557,15.31,2.75,29,33,0,0
214031,121556711,3,5557,5585,15.22,2.9,29,34,0,0
214483,121668806,3,5586,5600,15.26,2.9,29,34,0,0
214921,121776946,3,5604,5671,15.26,2.85,30,34,0,0
215813,121995672,3,5661,5457,15.26,2.83,29,34,0,0
216220,122094238,3,5458,5528,15.23,2.82,29,34,0,0
216664,122205452,3,5532,5614,15.29,2.67,30,34,0,0
217111,122318243,3,5607,5514,15.16,3.07,29,34,0,0
217556,122424525,3,5532,5714,15.22,3.17,30,34,0,0
217997,122532046,3,5724,5828,15.24,3.39,29,34,0,0
218450,122643495,3,5824,5785,15.23,3.24,29,35,0,0
218852,122746109,3,5784,5771,15.23,3.04,29,35,0,0
219308,122859776,3,5764,5671,15.27,3,29,35,0,0
219751,122969269,3,5671,5671,15.21,3.17,29,35,0,0
220200,123077460,3,5677,5742,15.26,3.15,29,35,0,0
220635,123183064,3,5737,5671,15.3,3.27,29,35,0,0
221083,123292534,3,5680,5800,15.29,3.25,29,35,0,0
221527,123403744,3,5806,5885,15.33,3.15,29,35,0,0
222010,123522717,3,5866,5771,15.31,3.11,29,35,0,0
222416,123620665,3,5760,5614,15.31,2.83,29,35,0,0
222863,123732048,3,5604,5500,15.28,2.61,29,35,0,0
223312,123842328,3,5482,5314,15.26,2.34,30,36,0,0
224203,124064558,3,5313,5300,15.32,2.39,29,36,0,0
224652,124175284,3,5293,5228,15.26,2.48,30,36,0,0
225100,124287917,3,5212,5114,15.25,2.16,29,36,0,0
225509,124395312,3,5117,5157,15.27,2.53,29,36,0,0
225991,124508266,3,5157,5157,15.29,2.13,29,36,0,0
226403,124614724,3,5153,5128,15.29,2.06,29,36,0,0
227283,124824277,3,5123,5042,15.19,1.98,29,36,0,0
227732,124934882,3,5033,4957,15.24,1.87,29,36,0,0
228135,125033601,3,4958,5042,15.28,1.9,29,36,0,0
228583,125144593,3,5043,5071,15.26,2.27,29,36,0,0
229075,125264286,3,5072,5157,15.28,2.42,29,36,0,0
229921,125474119,3,5157,5157,15.36,2.11,29,37,0,0
230331,125578594,3,5163,5285,15.32,2.22,29,37,0,0
230776,125684882,3,5280,5000,15.3,1.94,29,37,0,0
231709,125917924,3,4997,4957,15.31,1.84,29,37,0,0
232123,126021237,3,4959,4985,15.29,1.84,29,37,0,0
233045,126239795,3,4977,4785,15.34,1.74,29,37,0,0
233895,126454717,3,4784,4757,15.31,1.56,29,37,0,0
234337,126564272,3,4757,4828,15.26,1.81,29,37,0,0
235228,126787297,3,4833,5000,15.31,2.05,29,37,0,0
235674,126895476,3,4999,4971,15.29,1.66,29,37,0,0
236130,127010015,3,4968,4928,15.29,1.84,29,37,0,0
236617,127132224,3,4936,5028,15.3,2.12,29,37,0,0
237021,127231515,3,5032,5128,15.29,2.23,29,38,0,0
237469,127345019,3,5137,5271,15.23,2.39,29,38,0,0
237876,127446307,3,5271,5271,15.3,2.28,29,38,0,0
238364,127564895,3,5263,5185,15.32,2.29,30,38,0,0
238809,127673725,3,5194,5285,15.26,2.17,29,38,0,0
239212,127778559,3,5274,5142,15.33,2.38,29,38,0,0
239660,127886974,3,5151,5285,15.33,2.35,29,38,0,0
240064,127987814,3,5278,5128,15.23,2.37,29,38,0,0
240514,128095891,3,5127,5114,15.33,2.34,29,38,0,0
240958,128206098,3,5118,5185,15.28,2.45,30,38,0,0
241402,128311098,3,5186,5271,15.28,2.61,29,38,0,0
241807,128415747,3,5270,5242,15.2,2.52,29,38,0,0
242257,128529276,3,5246,5342,15.23,2.99,29,38,0,0
242751,128646027,3,5344,5371,15.26,2.71,29,38,0,0
243149,128747318,3,5373,5428,15.23,2.65,29,39,0,0
243597,128856359,3,5427,5385,15.3,2.75,29,39,0,0
244038,128964572,3,5386,5442,15.2,2.88,29,39,0,0
244499,129075059,3,5439,5400,15.19,2.91,29,39,0,0
245127,129296260,3,5457,5314,15.29,2.45,29,39,0,0
245526,129396702,3,5312,5214,15.22,2.47,29,39,0,0
245972,129508118,3,5216,5300,15.27,2.42,29,39,0,0
246379,129612024,3,5300,5300,15.16,2.75,29,39,0,0
246830,129726043,3,5290,5200,15.29,2.25,29,39,0,0
247279,129837475,3,5193,5100,15.25,1.86,29,39,0,0
247672,129934885,3,5096,4928,15.25,1.91,29,39,0,0
248174,130057760,3,4924,4885,15.23,2.01,29,40,0,0
248621,130166809,3,4883,4871,15.1,2.17,29,40,0,0
249028,130266952,3,4877,5042,15.19,2.39,29,40,0,0
249466,130373302,3,5043,5071,15.24,2.27,29,40,0,0
249961,130492464,3,5082,5200,15.11,2.76,29,40,0,0
250366,130596286,3,5210,5314,15.17,2.67,29,40,0,0
250773,130697901,3,5318,5442,15.22,2.53,29,40,0,0
251213,130806123,3,5434,5300,15.18,2.71,29,40,0,0
251659,130919677,3,5307,5385,15.19,2.45,29,40,0,0
252115,131032278,3,5374,5257,15.25,2.53,29,40,0,0
252479,131129571,3,5259,5314,15.28,2.55,29,40,0,0
252929,131238024,3,5315,5342,15.2,2.57,29,40,0,0
253377,131352707,3,5343,5357,15.19,2.67,29,40,0,0
253822,131457899,3,5373,5600,15.15,3.02,29,41,0,0
254266,131566367,3,5605,5757,15.17,3.16,29,41,0,0
254715,131677067,3,5753,5714,15.25,3.06,29,41,0,0
255158,131786899,3,5701,5528,15.31,2.46,29,41,0,0
255606,131895514,3,5528,5528,15.3,3.05,29,41,0,0
256052,132005050,3,5539,5657,15.26,2.78,29,41,0,0
256500,132119554,3,5644,5528,15.28,2.98,29,41,0,0
256943,132225161,3,5521,5457,15.2,2.99,29,41,0,0
257345,132325487,3,5461,5742,15.16,3.14,29,41,0,0
257791,132431782,3,5747,5857,15.21,3.07,29,41,0,0
258233,132541842,3,5855,5728,15.27,3,29,41,0,0
258682,132652696,3,5726,5714,15.2,2.98,29,42,0,0
259126,132764011,3,5720,5785,15.2,3.09,29,42,0,0
259572,132870918,3,5781,5742,15.2,3.04,29,42,0,0
259977,132972560,3,5740,5671,15.22,2.7,29,42,0,0
260467,133088891,3,5662,5571,15.3,2.7,29,42,0,0
260908,133195720,3,5559,5414,15.28,2.35,29,42,0,0
261400,133312894,3,5412,5400,15.28,2.62,29,42,0,0
261844,133422890,3,5400,5400,15.33,2.44,29,42,0,0
262293,133534803,3,5398,5385,15.26,2.65,29,42,0,0
263141,133743567,3,5385,5385,15.3,2.56,29,42,0,0
263628,133857796,3,5378,5314,15.32,2.35,29,42,0,0
264031,133957204,3,5315,5371,15.35,2.2,29,42,0,0
264519,134073559,3,5368,5328,15.26,2.38,29,43,0,0
264964,134190001,3,5317,5228,15.29,2.48,29,43,0,0
265816,134399703,3,5233,5342,15.31,2.68,29,43,0,0
266266,134505677,3,5337,5257,15.3,2.57,30,43,0,0
266709,134619993,3,5238,5071,15.43,1.9,29,43,0,0
267112,134720080,3,5058,4800,15.38,1.68,29,43,0,0
267560,134825274,3,4802,4857,15.26,2.13,29,43,0,0
267998,134932576,3,4860,5128,15.25,2.66,29,43,0,0
268489,135052247,3,5128,5128,15.21,2.44,29,43,0,0
268891,135155256,3,5131,5371,15.26,3.04,29,43,0,0
269380,135276534,3,5365,5314,15.31,2.35,29,43,0,0
269786,135377240,3,5311,5285,15.16,2.8,29,43,0,0
270237,135485555,3,5300,5514,15.2,2.85,30,43,0,0
270644,135592483,3,5508,5442,15.26,2.54,29,44,0,0
271135,135713093,3,5424,5242,15.27,2.4,29,44,0,0
271534,135812141,3,5243,5342,15.16,2.78,29,44,0,0
271984,135924109,3,5338,5242,15.22,2.63,29,44,0,0
272430,136033070,3,5248,5400,15.21,2.65,29,44,0,0
272865,136136953,3,5394,5185,15.19,2.49,29,44,0,0
273360,136259839,3,5192,5271,15.14,2.67,29,44,0,0
273723,136357234,3,5268,5228,15.26,2.18,29,44,0,0
274214,136475041,3,5221,5157,15.29,2.28,29,44,0,0
274616,136574761,3,5151,5085,15.23,2.44,29,44,0,0
275063,136682535,3,5087,5114,15.31,2,29,44,0,0
275469,136789047,3,5106,5014,15.18,2.12,29,44,0,0
275914,136896305,3,5006,4857,15.2,1.55,29,44,0,0
276366,137005997,3,4849,4657,15.26,1.51,29,45,0,0
276808,137113133,3,4655,4528,15.26,1.42,29,45,0,0
277253,137223313,3,4527,4514,15.23,1.32,29,45,0,0
277667,137332004,3,4506,4371,15.26,1.26,29,45,0,0
278150,137441774,3,4356,4071,15.24,1.1,29,45,0,0
278598,137557399,3,4047,3814,15.29,1.11,29,45,0,0
279002,137654004,3,3803,3428,15.1,2.15,30,45,0,0
279485,137771705,3,3419,3314,15.13,2.04,29,45,0,0
279937,137883085,3,3315,3328,15.17,1.85,29,45,0,0
280342,137986709,3,3314,3014,15.16,1.53,29,45,0,0
280827,138102498,3,3071,3600,14.9,2.65,29,45,0,0
281228,138200406,3,3587,3128,15.15,1.54,29,45,0,0
281716,138323042,3,3123,3085,15.01,2.31,30,45,0,0
282125,138425505,3,3097,3257,14.91,2.17,29,45,0,0
282563,138531541,3,3259,3357,15.04,1.93,29,45,0,0
283018,138645784,3,3367,3514,15.07,3.1,30,45,0,0
283422,138749237,3,3513,3471,15.07,1.42,30,45,0,0
283869,138857152,3,3472,3542,15.03,1.99,29,45,0,0
284359,138976820,3,3549,3628,14.94,2.18,30,45,0,0
284763,139077279,3,3646,4014,15.02,1.97,29,46,0,0
285205,139186510,3,4012,3971,15.17,1.2,30,46,0,0
285656,139299775,3,3964,3885,15.14,1.35,30,46,0,0
286066,139405040,3,3901,4128,15.13,1.6,30,46,0,0
286512,139513036,3,4129,4257,15.13,1.53,30,46,0,0
286958,139622538,3,4276,4528,15.16,2.18,30,46,0,0
287402,139732914,3,4546,4800,15.23,1.83,30,46,0,0
287858,139845285,3,4796,4757,15.22,1.92,30,46,0,0
288269,139953139,3,4766,5000,15.19,2.11,30,46,0,0
288715,140062712,3,5002,5028,15.22,2.36,30,46,0,0
289113,140164446,3,5039,5257,15.15,2.25,30,46,0,0
289563,140274009,3,5257,5257,15.25,2.27,30,46,0,0
290012,140385245,3,5257,5257,15.22,2.22,30,46,0,0
290504,140502104,3,5244,5114,15.26,2.28,30,46,0,0
290902,140604143,3,5109,5014,15.1,2.54,29,46,0,0
291350,140717581,3,5022,5214,15.17,2.33,30,46,0,0
291795,140823764,3,5204,5085,15.23,2.35,30,47,0,0
292208,140933915,3,5093,5200,15.15,2,30,47,0,0
292658,141042923,3,5193,5100,15.23,2.06,30,47,0,0
293054,141143064,3,5097,5014,15.16,2.16,30,47,0,0
293509,141255222,3,5015,5042,15.23,2.49,30,47,0,0
293953,141366017,3,5045,5085,15.2,2.58,30,47,0,0
294362,141467041,3,5099,5400,15.24,3.05,30,47,0,0
294805,141577206,3,5400,5414,15.2,3.04,30,47,0,0
295252,141686229,3,5428,5700,15.17,3.46,30,47,0,0
295696,141796226,3,5713,5857,15.22,3.45,30,47,0,0
296150,141906978,3,5861,5928,15.2,3.29,30,47,0,0
296599,142019105,3,5900,5614,15.2,2.8,30,47,0,0
297002,142122265,3,5611,5557,15.15,3.35,30,48,0,0
297445,142226557,3,5557,5614,15.18,3.36,30,48,0,0
297892,142340311,3,5615,5628,15.23,3.17,30,48,0,0
298336,142444257,3,5628,5628,15.14,2.9,30,48,0,0
298742,142549875,3,5619,5457,15.14,2.58,30,48,0,0
299231,142666221,3,5436,5228,15.25,2.5,30,48,0,0
299675,142775550,3,5231,5271,15.2,2.57,30,48,0,0
300083,142878128,3,5264,5200,15.19,2.55,30,48,0,0
300530,142990672,3,5189,5085,15.15,2.38,30,48,0,0
300938,143092822,3,5078,5000,15.2,2.07,30,48,0,0
301385,143205570,3,5003,5042,15.14,2.26,30,48,0,0
301830,143311106,3,5038,4942,15.22,2.43,30,48,0,0
302314,143425296,3,4946,5000,15.17,2.24,30,48,0,0
302717,143528724,3,4999,4971,15.12,2.29,30,49,0,0
303207,143645075,3,4974,5014,15.2,2.12,30,49,0,0
303606,143746507,3,5013,5000,15.27,2.03,30,49,0,0
304054,143855690,3,5005,5085,15.13,2.52,30,49,0,0
304508,143972259,3,5080,5028,15.24,2.42,30,49,0,0
304956,144082096,3,5046,5242,15.25,2.59,30,49,0,0
305401,144195368,3,5243,5257,15.22,2.74,30,49,0,0
305849,144302044,3,5267,5371,15.15,2.8,30,49,0,0
306255,144404567,3,5368,5314,15.17,2.94,30,49,0,0
306705,144520832,3,5324,5400,15.22,2.95,30,49,0,0
307105,144618525,3,5404,5500,15.15,3.08,30,49,0,0
307588,144739221,3,5501,5514,15.25,2.79,30,49,0,0
308033,144848350,3,5508,5471,15.09,2.58,30,50,0,0
308441,144947428,3,5471,5471,15.26,2.83,30,50,0,0
308889,145058815,3,5459,5342,15.19,2.62,30,50,0,0
309344,145171580,3,5333,5257,15.16,2.12,30,50,0,0
309753,145268791,3,5243,4971,15.22,2.05,30,50,0,0
310201,145382443,3,4965,4914,15.2,2.2,30,50,0,0
310644,145488445,3,4910,4871,15.31,2.03,29,50,0,0
311088,145601764,3,4863,4785,15.3,2,30,50,0,0
311546,145715728,3,4810,5000,15.28,2.26,30,50,0,0
311947,145819774,3,5000,5000,15.19,2.31,30,50,0,0
312355,145922510,3,5008,5157,15.26,2.19,29,50,0,0
312803,146033051,3,5156,5085,15.29,2.28,30,50,0,0
313286,146150544,3,5090,5142,15.23,2.11,29,50,0,0
313736,146258093,3,5139,5100,15.27,2.43,30,50,0,0
314142,146362988,3,5113,5228,15.27,2.18,30,51,0,0
314591,146472482,3,5207,4985,15.3,2.01,30,51,0,0
315434,146680702,3,4984,4971,15.34,1.74,30,51,0,0
316336,146901578,3,4964,4614,15.28,1.78,30,51,0,0
316811,147015004,3,4626,4742,15.28,1.92,30,51,0,0
317220,147116031,3,4739,4585,15.27,1.64,30,51,0,0
318149,147344037,3,4602,4985,15.29,2.62,30,51,0,0
318551,147441312,3,4988,5185,15.15,2.95,30,51,0,0
318992,147548184,3,5188,5342,15.25,2.81,29,51,0,0
319484,147666749,3,5362,5571,15.23,3.06,30,51,0,0
319890,147768717,3,5570,5557,15.22,2.92,30,51,0,0
320338,147875031,3,5552,5457,15.25,2.92,30,51,0,0
320787,147990599,3,5465,5557,15.26,2.92,29,52,0,0
321268,148102703,3,5562,5628,15.24,2.93,29,52,0,0
321675,148205282,3,5617,5400,15.22,2.48,29,52,0,0
322080,148310024,3,5400,5414,15.25,2.55,29,52,0,0
322526,148416718,3,5412,5371,15.34,2.26,29,52,0,0
322972,148529038,3,5356,5214,15.22,2.44,30,52,0,0
323454,148639462,3,5234,5442,15.25,3.36,30,52,0,0
323855,148740924,3,5447,5557,15.35,2.55,30,52,0,0
324301,148847185,3,5538,5142,15.3,1.6,30,52,0,0
324709,148950911,3,5144,5314,15.19,2.9,29,52,0,0
325199,149066742,3,5314,5328,15.29,2.66,30,52,0,0
325606,149171602,3,5328,5342,15.23,2.98,30,52,0,0
326495,149390122,3,5346,5528,15.3,2.46,29,53,0,0
326947,149503836,3,5513,5342,15.22,2.55,29,53,0,0
327388,149610698,3,5359,5585,15.07,3.15,30,53,0,0
328270,149824083,3,5588,5714,15.17,2.71,30,53,0,0
328718,149934479,3,5688,5342,15.27,1.8,30,53,0,0
329169,150044736,3,5319,5100,15.23,2.41,29,53,0,0
329610,150151549,3,5105,5214,15.23,2.55,30,53,0,0
330062,150264317,3,5203,5100,15.17,2.39,30,53,0,0
330469,150366045,3,5104,5200,15.28,2.34,30,53,0,0
330914,150472171,3,5200,5214,15.23,2.68,29,53,0,0
331363,150585751,3,5219,5342,15.23,2.98,30,53,0,0
331810,150693758,3,5350,5528,15.22,3.17,29,54,0,0
332258,150806307,3,5531,5585,15.23,3.26,30,54,0,0
333556,151133089,3,5587,5785,15.23,3.05,30,54,0,0
334053,151252517,3,5791,5857,15.23,3.1,30,54,0,0
334458,151355713,3,5844,5685,15.25,3.19,30,54,0,0
334906,151463883,3,5695,5842,15.26,2.97,30,54,0,0
335309,151569078,3,5829,5671,15.29,2.9,30,54,0,0
335760,151679030,3,5676,5728,15.2,2.8,30,54,0,0
336208,151793830,3,5708,5442,15.27,2.59,30,54,0,0
336660,151902778,3,5445,5500,15.3,2.76,30,55,0,0
337106,152013770,3,5486,5357,15.25,2.39,30,55,0,0
337509,152116821,3,5357,5357,15.19,2.81,30,55,0,0
337960,152229120,3,5357,5357,15.16,2.78,30,55,0,0
338400,152335568,3,5359,5414,15.25,2.4,30,55,0,0
338852,152446409,3,5400,5214,15.23,2.4,29,55,0,0
339294,152555677,3,5210,5142,15.26,2.54,30,55,0,0
339742,152663735,3,5169,5442,15.15,3.2,30,55,0,0
340148,152765585,3,5441,5428,15.05,3.42,30,55,0,0
340601,152875513,3,5448,5742,15.13,3.26,30,55,0,0
341041,152983258,3,5743,5785,15.07,3.24,30,55,0,0
341490,153090033,3,5785,5828,15.13,3.41,30,55,0,0
341935,153201798,3,5829,5842,15.04,3.22,30,56,0,0
342375,153311091,3,5832,5728,15.07,3.16,30,56,0,0
342832,153424913,3,5734,5800,15.17,3.25,30,56,0,0
343233,153527748,3,5793,5714,15.14,3.07,30,56,0,0
343678,153634252,3,5706,5614,15.17,2.76,30,56,0,0
344115,153740050,3,5608,5385,15.19,2.61,30,56,0,0
344572,153856149,3,5389,5442,15.14,2.75,30,56,0,0
345016,153964157,3,5443,5571,15.2,2.71,29,56,0,0
345466,154072325,3,5562,5357,15.16,2.76,30,56,0,0
345954,154193540,3,5385,5600,15.22,2.8,30,56,0,0
346398,154303827,3,5557,5271,15.09,2.68,30,56,0,0
346836,154402045,3,5270,5257,15.1,2.27,30,57,0,0
347283,154507374,3,5257,5257,15.2,2.4,30,57,0,0
348167,154727178,3,5257,5342,15.21,2.47,30,57,0,0
348657,154849290,3,5339,5314,15.09,2.57,30,57,0,0
349057,154946125,3,5315,5342,15.22,2.52,30,57,0,0
349506,155060084,3,5342,5342,15.08,2.51,29,57,0,0
349955,155169311,3,5329,5214,15.12,2.29,30,57,0,0
350399,155275032,3,5205,5071,15.19,2.3,30,57,0,0
350850,155388692,3,5067,5042,15.19,2.33,30,57,0,0
351292,155494278,3,5039,5014,15.19,2.54,30,57,0,0
351695,155594085,3,5020,5157,15.16,2.54,30,57,0,0
352148,155715591,3,5168,5257,15.16,2.63,30,57,0,0
352590,155814150,3,5255,5171,15.11,2.65,30,58,0,0
353035,155925602,3,5170,5157,15.2,2.37,30,58,0,0
353487,156032533,3,5152,5085,15.2,2.25,30,58,0,0
353888,156136983,3,5086,5228,15.19,2.48,30,58,0,0
354381,156256001,3,5225,5200,15.19,2.47,30,58,0,0
354826,156365820,3,5217,5457,15.05,3.1,30,58,0,0
355232,156466241,3,5458,5514,15.14,2.99,30,58,0,0
355718,156583924,3,5520,5585,15.16,2.83,30,58,0,0
356124,156685719,3,5576,5400,15.19,2.24,29,58,0,0
356577,156800538,3,5377,5171,15.14,2.18,30,58,0,0
357468,157017147,3,5157,4742,15.2,1.79,30,58,0,0
357874,157122593,3,4738,4500,15.2,1.64,30,58,0,0
358368,157239007,3,4494,4442,15.13,1.52,30,58,0,0
358808,157348457,3,4446,4500,15.07,2.05,30,58,0,0
359254,157453804,3,4510,4642,15.12,1.91,30,59,0,0
359700,157566815,3,4649,4728,15.18,1.97,30,59,0,0
360101,157662516,3,4729,4857,15.14,2.42,30,59,0,0
360546,157772797,3,4859,5000,15.17,2.37,30,59,0,0
361037,157890532,3,4988,4871,15.11,2.26,30,59,0,0
361440,157993056,3,4866,4800,15.21,1.98,30,59,0,0
361895,158103895,3,4813,4942,15.18,2.44,30,59,0,0
362295,158204678,3,4944,5000,15.15,2.32,30,59,0,0
362751,158316749,3,5005,5142,15.2,2.52,30,59,0,0
363187,158421625,3,5151,5342,15.04,3.05,30,59,0,0
363634,158535453,3,5348,5442,14.98,2.82,30,59,0,0
364082,158644695,3,5444,5471,15.16,2.8,30,59,0,0
364485,158743753,3,5468,5257,15.16,2.23,30,59,0,0
364933,158852862,3,5254,5100,15.1,2.37,30,59,0,0
365377,158963056,3,5102,5142,15.13,2.42,30,60,0,0
365825,159071744,3,5139,5100,15.12,2.35,30,60,0,0
366231,159175823,3,5098,5014,14.99,2.28,30,60,0,0
367128,159397243,3,5016,5342,15.11,2.23,30,60,0,0
367623,159518735,3,5321,5028,15.09,2.48,30,60,0,0
367985,159609888,3,5029,5114,15.14,2.43,30,60,0,0
368465,159724498,3,5116,5171,15.1,2.7,30,60,0,0
368923,159834947,3,5169,5142,15.07,2.44,29,60,0,0
369330,159941984,3,5147,5257,15.1,2.6,30,60,0,0
369778,160049865,3,5256,5242,15.11,2.26,30,60,0,0
370225,160162849,3,5238,5085,15.22,2.27,30,60,0,0
370713,160273682,3,5078,4985,15.07,2.26,29,60,0,0
371159,160383857,3,4993,5057,15.1,2.48,30,61,0,0
371607,160492594,3,5063,5128,15.15,2.53,30,61,0,0
372044,160599037,3,5133,5200,15.17,2.51,30,61,0,0
372492,160706132,3,5189,5071,15.13,2.46,30,61,0,0
372937,160816264,3,5072,5100,15.13,2.59,30,61,0,0
373378,160925066,3,5110,5242,15.19,2.84,29,61,0,0
373791,161027334,3,5243,5285,15.22,2.63,29,61,0,0
374234,161137037,3,5286,5371,15.16,2.77,30,61,0,0
374729,161255670,3,5363,5285,15.19,2.6,29,61,0,0
375327,161474476,3,5388,5271,15.13,2.4,30,61,0,0
375733,161579715,3,5276,5328,15.16,2.59,30,61,0,0
376181,161688765,3,5308,5100,15.16,1.89,30,61,0,0
376586,161792740,3,5108,5271,15.22,2.71,30,62,0,0
377034,161902897,3,5275,5371,15.1,2.67,30,62,0,0
377480,162014681,3,5369,5342,15.05,3.01,29,62,0,0
377885,162120176,3,5335,5242,15.17,2.11,29,62,0,0
378331,162229709,3,5226,5042,15.23,1.95,30,62,0,0
378785,162345574,3,5052,5128,15.13,2.64,30,62,0,0
379193,162445682,3,5132,5171,15.18,2.51,30,62,0,0
379592,162544783,3,5171,5200,15.23,2.32,30,62,0,0
380042,162656038,3,5206,5300,15.08,2.78,29,62,0,0
380484,162767172,3,5309,5400,15.17,2.8,29,62,0,0
380937,162875753,3,5401,5414,15.22,2.66,29,62,0,0
381340,162978922,3,5412,5385,15.14,2.78,30,62,0,0
381784,163086797,3,5392,5500,15.17,2.68,30,62,0,0
382226,163195220,3,5496,5428,15.22,2.76,29,63,0,0
382681,163307379,3,5418,5300,15.18,2.46,29,63,0,0
383078,163407032,3,5301,5342,15.18,2.67,29,63,0,0
383524,163526978,3,5342,5342,15.13,2.44,30,63,0,0
384417,163742048,3,5336,5200,15.22,2.35,30,63,0,0
384863,163849290,3,5206,5314,15.14,2.8,29,63,0,0
385317,163967380,3,5319,5357,15.03,2.76,29,63,0,0
385763,164076063,3,5366,5428,15.15,2.53,29,63,0,0
386201,164179479,3,5429,5442,15.17,2.41,29,63,0,0
386655,164290260,3,5443,5457,15.21,2.47,30,63,0,0
387057,164388396,3,5449,5314,15.18,2.43,30,63,0,0
387547,164505689,3,5307,5257,15.17,2.53,29,63,0,0
388388,164710532,3,5261,5514,15.16,2.93,30,64,0,0
389285,164931774,3,5512,5414,15.15,2.53,30,64,0,0
389683,165030182,3,5415,5485,15.22,2.5,29,64,0,0
390136,165147054,3,5453,5142,15.17,2.14,29,64,0,0
390587,165260597,3,5146,5185,15.2,2.35,30,64,0,0
390997,165360580,3,5181,5028,15.24,2.02,29,64,0,0
391486,165481224,3,5018,4914,15.22,2.29,30,64,0,0
391932,165590625,3,4915,4928,15.22,2.19,30,64,0,0
392380,165700098,3,4935,5014,15.22,2.24,30,64,0,0
393271,165920572,3,5022,5171,15.19,2.67,30,64,0,0
394119,166124477,3,5170,5114,15.22,2.41,29,65,0,0
394570,166237496,3,5107,4985,15.25,2.05,30,65,0,0
395016,166349759,3,4981,4942,15.23,2.24,29,65,0,0
395461,166455048,3,4938,4842,15.33,1.71,30,65,0,0
395904,166564693,3,4829,4642,15.33,1.49,30,65,0,0
396355,166673080,3,4637,4357,15.37,1.29,30,65,0,0
396835,166787260,3,4338,4157,15.32,1.14,30,65,0,0
397679,166995090,3,4154,3871,15.5,1.06,30,65,0,0
398127,167106766,3,3857,3500,15.5,1.6,30,65,0,0
398613,167222348,3,3473,3071,15.73,0.77,30,65,0,0
399057,167333032,3,3003,2385,15.72,0.16,30,65,0,0
399501,167438987,3,2360,2042,15.67,0.09999999,30,65,0,0
399902,167539069,3,2038,1900,15.68,0.14,30,65,0,0
400350,167648808,3,1899,1885,15.69,0.18,29,65,0,0
400797,167759023,3,1891,1971,15.67,0.26,30,65,0,0
401248,167871263,3,1968,1942,15.68,0.21,30,65,0,0
401692,167981228,3,1943,1957,15.69,0.23,30,65,0,0
402093,168079078,3,1956,1928,15.71,0.21,29,65,0,0
402531,168185573,3,1930,1971,15.7,0.19,29,65,0,0
402979,168291915,3,1969,1900,15.7,0.16,30,65,0,0
403426,168404151,3,1904,1971,15.7,0.2,29,65,0,0
403877,168514781,3,1972,1985,15.71,0.25,29,65,0,0
404322,168619076,3,1989,2042,15.72,0.3,30,65,0,0
404807,168733290,3,2053,2214,15.68,0.37,30,65,0,0
405213,168830754,3,2218,2300,15.7,0.45,29,65,0,0
405656,168940126,3,2302,2357,15.72,0.43,29,65,0,0
406104,169047009,3,2347,1928,15.8,0.03,29,65,0,0
406599,169166281,3,1889,1485,15.79,0,29,65,0,0
407047,169271026,3,1473,1328,15.78,0.07000000000000001,29,65,0,0
407459,169375570,3,1326,1300,15.77,0.09999999,29,65,0,0
408348,169590815,3,1299,1285,15.79,0.09999999,29,65,0,0
408801,169698097,3,1285,1285,15.78,0.09999999,29,65,0,0
409246,169808034,3,1285,1285,15.79,0.09999999,29,65,0,0
409696,169913733,3,1285,1285,15.79,0.09999999,29,65,0,0
410106,170019810,3,1285,1285,15.79,0.09999999,29,65,0,0
410594,170136059,3,1285,1285,15.8,0.09999999,29,65,0,0
411045,170243582,3,1285,1285,15.79,0.09999999,29,65,0,0
411456,170347275,3,1285,1285,15.79,0.09999999,29,65,0,0
411903,170454452,3,1285,1285,15.8,0.09999999,29,65,0,0
412350,170565266,3,1285,1285,15.8,0.09999999,29,65,0,0
412796,170673054,3,1285,1285,15.8,0.09999999,29,65,0,0
413239,170779803,3,1285,1285,15.8,0.09999999,29,65,0,0
413691,170888784,3,1285,1285,15.8,0.09999999,29,65,0,0
414174,171001814,3,1285,1285,15.8,0.09999999,29,65,0,0
414621,171108069,3,1285,1285,15.8,0.09999999,29,65,0,0
415066,171217721,3,1285,1285,15.82,0.09999999,29,65,0,0
415513,171327466,3,1285,1285,15.82,0.09999999,29,65,0,0
416401,171538508,3,1285,1300,15.82,0.09999999,29,65,0,0
416852,171650868,3,1300,1300,15.82,0.09999999,29,65,0,0
417304,171756772,3,1300,1300,15.82,0.09999999,29,65,0,0
417751,171864127,3,1300,1300,15.81,0.09,29,65,0,0
418152,171962144,3,1300,1300,15.82,0.09,29,65,0,0
419090,172188243,3,1300,1300,15.83,0.09,29,65,0,0
419542,172297739,3,1298,1285,15.83,0.09999999,29,65,0,0
419939,172392731,3,1285,1285,15.84,0.09999999,29,65,0,0
420393,172504736,3,1285,1285,15.83,0.09999999,29,65,0,0
420837,172612759,3,1285,1285,15.83,0.09999999,29,65,0,0
421286,172722911,3,1286,1300,15.83,0.09999999,29,65,0,0
421735,172829751,3,1300,1300,15.83,0.09,29,65,0,0
422215,172941534,3,1300,1300,15.84,0.09999999,29,65,0,0
422625,173040527,3,1300,1300,15.85,0.09999999,29,65,0,0
423100,173149484,3,1300,1300,15.84,0.09999999,29,65,0,0
423551,173255132,3,1300,1300,15.85,0.09999999,29,65,0,0
423993,173363520,3,1300,1300,15.85,0.09999999,29,65,0,0
424482,173478570,3,1300,1300,15.85,0.09999999,29,65,0,0
424925,173586503,3,1300,1300,15.85,0.09999999,29,65,0,0
425378,173693821,3,1300,1300,15.85,0.09999999,29,65,0,0
425812,173794504,3,1300,1300,15.85,0.09999999,29,65,0,0
426267,173904459,3,1300,1300,15.85,0.09999999,29,65,0,0
426711,174009239,3,1300,1300,15.86,0.09999999,29,65,0,0
427158,174118325,3,1300,1300,15.85,0.09999999,29,65,0,0
427606,174222465,3,1300,1300,15.86,0.09999999,29,65,0,0
428049,174330017,3,1300,1300,15.86,0.09999999,29,65,0,0
428495,174437843,3,1300,1300,15.86,0.09999999,29,65,0,0
428936,174541910,3,1300,1300,15.86,0.09999999,29,65,0,0
429386,174651054,3,1300,1314,15.86,0.09999999,29,65,0,0
429865,174763533,3,1313,1300,15.86,0.09999999,29,65,0,0
430273,174862595,3,1300,1300,15.86,0.09999999,29,65,0,0
430763,174979317,3,1300,1300,15.86,0.09999999,29,65,0,0
431167,175076236,3,1300,1300,15.86,0.09999999,29,65,0,0
431694,175195911,3,1300,1300,15.87,0.09999999,29,65,0,0
432102,175294767,3,1300,1300,15.88,0.09999999,29,65,0,0
432549,175404092,3,1300,1300,15.87,0.09999999,29,65,0,0
432993,175513287,3,1300,1300,15.87,0.09999999,29,65,0,0
433444,175622271,3,1300,1300,15.87,0.09999999,29,65,0,0
433884,175729522,3,1299,1285,15.87,0.09999999,29,65,0,0
434333,175833274,3,1285,1285,15.87,0.09999999,29,65,0,0
434816,175950012,3,1285,1285,15.88,0.09999999,29,65,0,0
435229,176047405,3,1285,1285,15.88,0.09999999,29,65,0,0
435677,176161996,3,1285,1285,15.88,0.09999999,29,65,0,0
436129,176267726,3,1285,1285,15.88,0.11,29,65,0,0
437059,176493584,3,1285,1300,15.88,0.09999999,29,65,0,0
437500,176599002,3,1300,1300,15.88,0.09999999,29,65,0,0
437911,176701030,3,1300,1300,15.89,0.11,29,65,0,0
438356,176807247,3,1300,1300,15.88,0.11,29,65,0,0
438847,176927707,3,1300,1300,15.88,0.09999999,29,65,0,0
439257,177027816,3,1298,1285,15.89,0.09999999,29,65,0,0
440150,177240986,3,1285,1285,15.89,0.11,29,65,0,0
440631,177355776,3,1285,1285,15.89,0.11,29,65,0,0
441079,177462502,3,1285,1285,15.89,0.11,29,65,0,0
441523,177570020,3,1286,1300,15.89,0.09999999,29,65,0,0
441929,177668413,3,1299,1285,15.89,0.09999999,29,65,0,0
442373,177775676,3,1285,1285,15.9,0.11,29,65,0,0
442864,177891909,3,1285,1285,15.89,0.09999999,29,65,0,0
443306,177998492,3,1285,1285,15.89,0.09999999,29,65,0,0
443755,178104748,3,1285,1300,15.9,0.11,29,65,0,0
444208,178215561,3,1298,1285,15.9,0.09999999,29,65,0,0
445059,178422278,3,1285,1300,15.9,0.11,29,65,0,0
445507,178533883,3,1298,1285,15.9,0.11,29,65,0,0
445911,178630051,3,1285,1300,15.9,0.11,29,65,0,0
446395,178742057,3,1300,1300,15.9,0.11,29,65,0,0
446841,178845592,3,1299,1285,15.9,0.09999999,29,65,0,0
447281,178950066,3,1285,1285,15.9,0.11,28,65,0,0
447776,179067417,3,1281,1228,15.92,0.06,28,65,0,0
448670,179277827,3,1198,0,15.92,0,28,65,0,0
449162,179392569,3,0,0,15.92,0.03,28,65,0,0
449615,179498291,3,0,0,15.92,0.04,28,65,0,0
450066,179608694,3,0,0,15.92,0.04,28,65,0,0
450561,179729042,3,0,0,15.92,0.03,28,65,0,0
450971,179824829,3,0,0,15.93,0.04,28,65,0,0
451421,179934067,3,0,0,15.94,0.04,28,65,0,0
451917,180048223,3,0,0,15.93,0.04,28,65,0,0
452367,180154671,3,0,0,15.93,0.04,28,65,0,0
452863,180270884,3,0,0,15.93,0.04,28,65,0,0
453316,180379250,3,0,0,15.93,0.04,29,65,0,0
453768,180484522,3,0,0,15.94,0.04,28,65,0,0
454174,180584471,3,0,0,15.93,0.04,28,65,0,0
454671,180702342,3,0,0,15.94,0.04,28,65,0,0
455124,180812138,3,0,0,15.94,0.04,29,65,0,0
455578,180917768,3,0,0,15.94,0.04,28,65,0,0
456029,181029485,3,0,0,15.94,0.04,28,65,0,0
456481,181139134,3,0,0,15.94,0.04,28,65,0,0
456933,181243301,3,0,0,15.94,0.04,28,65,0,0
457426,181363502,3,0,0,15.94,0.04,28,65,0,0
457882,181471234,3,0,0,15.94,0.04,28,65,0,0
458781,181685805,3,0,0,15.94,0.04,28,65,0,0
459233,181795747,3,0,0,15.95,0.04,28,65,0,0
459684,181899750,3,0,0,15.95,0.04,28,65,0,0
460180,182016277,3,0,0,15.95,0.04,28,65,0,0
460672,182130712,3,0,0,15.95,0.04,28,65,0,0
461568,182339515,3,0,0,15.94,0.04,28,65,0,0
462022,182448042,3,0,0,15.95,0.04,28,65,0,0
462476,182555087,3,0,0,15.95,0.04,28,65,0,0
462973,182667774,3,0,0,15.95,0.04,28,65,0,0
