LineNo,TimeUS,Instance,RPM,RawRPM,Volt,Curr,Temp,CTot,MotTemp,Err
2012,6.9581e+07,2,0,0,16.36,0.03,27,0,0,0
2507,6.9693e+07,2,0,0,16.36,0.03,27,0,0,0
2961,6.9798e+07,2,0,0,16.37,0.03,27,0,0,0
4359,7.0119e+07,2,0,0,16.36,0.03,27,0,0,0
5265,7.0328e+07,2,0,0,16.36,0.03,27,0,0,0
5766,7.0443e+07,2,0,0,16.36,0.03,27,0,0,0
6214,7.0547e+07,2,0,0,16.36,0.03,27,0,0,0
6709,7.0658e+07,2,0,0,16.36,0.03,27,0,0,0
7158,7.0765e+07,2,0,0,16.36,0.03,27,0,0,0
7623,7.087e+07,2,0,0,16.36,0.02,27,0,0,0
8082,7.0979e+07,2,16,171,16.36,0.04,27,0,0,0
8537,7.1082e+07,2,178,571,16.33,0.09,27,0,0,0
9029,7.1196e+07,2,606,1000,16.33,0.15,27,0,0,0
9481,7.1298e+07,2,1014,1214,16.33,0.12,27,0,0,0
9932,7.1405e+07,2,1218,1285,16.34,0.11,27,0,0,0
10388,7.1513e+07,2,1286,1314,16.34,0.11,27,0,0,0
10885,7.1626e+07,2,1316,1342,16.34,0.11,27,0,0,0
11335,7.1733e+07,2,1342,1342,16.35,0.1,27,0,0,0
11788,7.1836e+07,2,1342,1342,16.35,0.1,27,0,0,0
12278,7.1949e+07,2,1342,1342,16.35,0.1,27,0,0,0
12778,7.2066e+07,2,1342,1342,16.35,0.1,27,0,0,0
13440,7.2277e+07,2,1356,1642,16.29,0.26,27,0,0,0
13846,7.2376e+07,2,1657,2457,16.04,1.22,27,0,0,0
14344,7.249e+07,2,2524,3214,16.14,1.6,27,0,0,0
15243,7.2704e+07,2,3221,4200,15.76,3.13,27,0,0,0
15693,7.2812e+07,2,4221,5257,15.5,3.62,27,0,0,0
16186,7.2925e+07,2,5317,5957,15.48,4.5,27,0,0,0
16640,7.3034e+07,2,5968,6085,15.6,4.28,27,0,0,0
17049,7.3136e+07,2,6095,6328,15.53,4.38,27,0,0,0
17502,7.3241e+07,2,6333,6542,15.55,4.63,27,1,0,0
17955,7.335e+07,2,6541,6500,15.58,4.74,27,1,0,0
18453,7.3465e+07,2,6504,6571,15.51,4.93,27,1,0,0
18904,7.3575e+07,2,6582,6700,15.54,5.06,27,1,0,0
19357,7.368e+07,2,6701,6771,15.54,5.74,27,1,0,0
19804,7.3786e+07,2,6773,6971,15.52,6.05,27,1,0,0
20309,7.3903e+07,2,6972,6985,15.55,5.57,27,1,0,0
20757,7.4009e+07,2,6967,6728,15.58,4.32,28,2,0,0
21214,7.4123e+07,2,6715,6514,15.59,4.15,28,2,0,0
21707,7.4234e+07,2,6491,6257,15.61,3.87,28,2,0,0
22158,7.4342e+07,2,6255,6242,15.6,4.15,28,2,0,0
22612,7.4449e+07,2,6231,6100,15.53,3.61,28,2,0,0
23063,7.4558e+07,2,6089,5985,15.64,3.42,28,2,0,0
23514,7.4663e+07,2,5995,6142,15.53,3.68,28,2,0,0
23969,7.4777e+07,2,6139,6100,15.47,3.77,28,2,0,0
24417,7.4885e+07,2,6114,6271,15.55,3.87,28,3,0,0
24867,7.4995e+07,2,6255,6100,15.54,3.73,28,3,0,0
25277,7.5097e+07,2,6093,5942,15.54,3.61,28,3,0,0
26169,7.5325e+07,2,5947,6085,15.64,3.68,28,3,0,0
26578,7.5423e+07,2,6086,6171,15.54,4.03,28,3,0,0
27030,7.5538e+07,2,6165,6071,15.48,4.04,28,3,0,0
27472,7.5641e+07,2,6087,6300,15.49,3.94,28,3,0,0
27917,7.5752e+07,2,6301,6328,15.37,4.48,28,4,0,0
28366,7.586e+07,2,6333,6471,15.5,4.32,28,4,0,0
28773,7.5963e+07,2,6471,6528,15.56,4.29,28,4,0,0
29224,7.6074e+07,2,6519,6342,15.52,4.24,28,4,0,0
29666,7.6185e+07,2,6351,6442,15.54,4.31,28,4,0,0
30115,7.6294e+07,2,6438,6400,15.54,4.23,28,4,0,0
30562,7.6404e+07,2,6400,6400,15.58,3.95,28,4,0,0
31008,7.6521e+07,2,6385,6271,15.57,3.82,28,4,0,0
31416,7.662e+07,2,6263,6128,15.63,3.66,28,5,0,0
31906,7.674e+07,2,6114,5971,15.61,3.41,28,5,0,0
32315,7.6843e+07,2,5972,5985,15.67,3.29,28,5,0,0
32764,7.6956e+07,2,5963,5771,15.6,2.91,28,5,0,0
33246,7.7066e+07,2,5770,5757,15.64,3.17,28,5,0,0
33652,7.7171e+07,2,5749,5557,15.74,2.93,28,5,0,0
34101,7.7281e+07,2,5557,5571,15.73,2.36,28,5,0,0
34550,7.7393e+07,2,5548,5314,15.76,2.54,28,5,0,0
35000,7.7503e+07,2,5315,5328,15.68,2.86,29,5,0,0
35917,7.7724e+07,2,5345,5600,15.57,2.96,29,5,0,0
36369,7.7834e+07,2,5592,5542,15.61,3.16,28,6,0,0
37183,7.8036e+07,2,5543,5757,15.58,3.25,28,6,0,0
37625,7.8143e+07,2,5757,5785,15.63,3.05,29,6,0,0
38115,7.8259e+07,2,5797,5914,15.67,3.22,29,6,0,0
38512,7.8359e+07,2,5909,5828,15.67,3.18,29,6,0,0
39009,7.8481e+07,2,5821,5771,15.64,3.15,29,6,0,0
39453,7.859e+07,2,5777,5842,15.58,3.09,29,6,0,0
39817,7.8682e+07,2,5843,5928,15.64,3.14,29,6,0,0
40264,7.8795e+07,2,5926,5885,15.58,3.07,29,6,0,0
40717,7.8902e+07,2,5886,5914,15.68,2.85,29,6,0,0
41156,7.9012e+07,2,5916,5942,15.61,3,29,7,0,0
41602,7.9119e+07,2,5939,5885,15.61,3.03,29,7,0,0
42051,7.9231e+07,2,5897,6157,15.56,3.26,29,7,0,0
42499,7.9346e+07,2,6147,6014,15.57,3.34,29,7,0,0
42905,7.9446e+07,2,6017,6142,15.61,3.29,29,7,0,0
43355,7.9559e+07,2,6144,6185,15.6,3.57,29,7,0,0
43807,7.967e+07,2,6186,6214,15.63,3.64,29,7,0,0
44211,7.9775e+07,2,6215,6228,15.61,3.75,29,7,0,0
45559,8.0102e+07,2,6230,6300,15.57,3.58,29,8,0,0
46410,8.0312e+07,2,6299,6228,15.61,3.75,29,8,0,0
46855,8.0423e+07,2,6232,6285,15.58,3.82,29,8,0,0
47306,8.0535e+07,2,6291,6342,15.63,3.69,29,8,0,0
47752,8.0645e+07,2,6340,6314,15.57,3.62,29,8,0,0
48199,8.0755e+07,2,6301,6185,15.57,3.58,29,8,0,0
48650,8.0866e+07,2,6190,6242,15.58,3.83,29,8,0,0
49098,8.0977e+07,2,6225,6057,15.6,3.33,29,8,0,0
49508,8.1078e+07,2,6055,6014,15.58,3.19,29,9,0,0
49955,8.1189e+07,2,6016,6057,15.67,3.39,29,9,0,0
50853,8.1409e+07,2,6057,6100,15.63,3.01,29,9,0,0
51342,8.1523e+07,2,6078,5857,15.6,2.69,29,9,0,0
51781,8.1632e+07,2,5864,5942,15.62,2.91,29,9,0,0
52145,8.1729e+07,2,5944,6000,15.63,3.12,29,9,0,0
52591,8.1836e+07,2,6000,6000,15.55,3.05,29,9,0,0
53041,8.1947e+07,2,6005,6085,15.55,3.06,29,9,0,0
53488,8.2055e+07,2,6082,5928,15.54,3.39,29,9,0,0
53934,8.2167e+07,2,5943,6157,15.65,2.96,29,10,0,0
54382,8.2275e+07,2,6176,6357,15.62,3.49,29,10,0,0
54826,8.2385e+07,2,6360,6428,15.57,3.14,29,10,0,0
55281,8.2499e+07,2,6411,6242,15.55,2.95,29,10,0,0
55682,8.2598e+07,2,6243,6271,15.57,3.3,29,10,0,0
56128,8.2705e+07,2,6271,6300,15.5,3.37,29,10,0,0
56543,8.2814e+07,2,6292,6114,15.59,3.15,29,10,0,0
56991,8.2923e+07,2,6113,6085,15.6,2.97,29,10,0,0
57441,8.3034e+07,2,6084,6071,15.57,2.64,29,10,0,0
57931,8.3154e+07,2,6022,5571,15.6,1.95,29,10,0,0
58327,8.325e+07,2,5565,5385,15.55,2.04,29,10,0,0
58780,8.3366e+07,2,5400,5757,15.51,3.23,29,11,0,0
59237,8.3478e+07,2,5780,5985,15.51,3.68,29,11,0,0
59675,8.3584e+07,2,5991,6057,15.55,3.62,29,11,0,0
60124,8.3693e+07,2,6072,6228,15.55,3.51,30,11,0,0
60569,8.3803e+07,2,6226,6214,15.47,3.92,29,11,0,0
61017,8.3913e+07,2,6228,6357,15.54,3.96,29,11,0,0
61471,8.4025e+07,2,6355,6328,15.5,3.79,29,11,0,0
61877,8.413e+07,2,6333,6442,15.56,3.89,29,11,0,0
62322,8.4234e+07,2,6439,6271,15.51,4.02,30,11,0,0
62801,8.4346e+07,2,6271,6271,15.57,3.62,29,11,0,0
63252,8.4457e+07,2,6259,5985,15.57,2.96,29,12,0,0
63700,8.4571e+07,2,5985,5985,15.55,3.35,29,12,0,0
64148,8.4681e+07,2,5995,6100,15.56,2.77,29,12,0,0
64547,8.4781e+07,2,6097,5971,15.55,3,29,12,0,0
64996,8.4888e+07,2,5969,5900,15.58,2.61,30,12,0,0
65441,8.4997e+07,2,5897,5757,15.57,2.63,29,12,0,0
65890,8.5105e+07,2,5757,5785,15.51,2.65,29,12,0,0
66332,8.5213e+07,2,5785,5842,15.53,2.87,30,12,0,0
66781,8.5323e+07,2,5835,5685,15.54,2.58,30,12,0,0
67265,8.5436e+07,2,5697,5828,15.56,2.85,29,12,0,0
67675,8.5541e+07,2,5831,5871,15.51,2.96,30,12,0,0
68121,8.565e+07,2,5873,5900,15.48,2.91,30,13,0,0
68563,8.5758e+07,2,5902,5942,15.5,2.95,30,13,0,0
69015,8.5868e+07,2,5943,5971,15.57,3.42,30,13,0,0
69422,8.597e+07,2,5975,6057,15.49,3.7,30,13,0,0
69914,8.6087e+07,2,6059,6085,15.53,3.38,30,13,0,0
70313,8.6186e+07,2,6085,6100,15.49,3.01,30,13,0,0
70765,8.6298e+07,2,6088,5928,15.52,2.94,30,13,0,0
71219,8.6412e+07,2,5935,6014,15.58,2.94,29,13,0,0
71620,8.6511e+07,2,6011,5828,15.55,2.65,30,13,0,0
72109,8.6628e+07,2,5831,5900,15.51,3.41,30,13,0,0
72555,8.6739e+07,2,5902,5942,15.52,2.99,30,13,0,0
73013,8.6851e+07,2,5942,5942,15.55,2.76,30,14,0,0
73417,8.6954e+07,2,5927,5742,15.55,2.68,30,14,0,0
73867,8.7064e+07,2,5740,5714,15.49,2.86,30,14,0,0
74314,8.7179e+07,2,5726,5871,15.55,3.15,30,14,0,0
74763,8.7288e+07,2,5873,5971,15.55,2.35,30,14,0,0
75243,8.74e+07,2,5924,5542,15.54,2.54,30,14,0,0
75649,8.7499e+07,2,5539,5514,15.53,1.98,30,14,0,0
76135,8.7622e+07,2,5483,5185,15.57,1.8,30,14,0,0
76503,8.7713e+07,2,5186,5285,15.55,1.97,30,14,0,0
76989,8.7826e+07,2,5288,5342,15.57,2.42,30,14,0,0
77429,8.7941e+07,2,5353,5428,15.58,2.34,30,14,0,0
77880,8.8045e+07,2,5435,5500,15.53,2.73,30,14,0,0
78284,8.8146e+07,2,5502,5714,15.5,3.15,30,15,0,0
78772,8.8263e+07,2,5747,6000,15.47,3.5,30,15,0,0
79225,8.8376e+07,2,6010,6128,15.5,3.48,30,15,0,0
79672,8.8481e+07,2,6108,5957,15.51,3.51,30,15,0,0
80044,8.8579e+07,2,5966,6142,15.44,3.14,30,15,0,0
80492,8.8684e+07,2,6139,6085,15.4,3.86,30,15,0,0
80938,8.8796e+07,2,6106,6314,15.47,3.61,30,15,0,0
81421,8.8905e+07,2,6302,6185,15.47,3.62,30,15,0,0
81864,8.9017e+07,2,6202,6371,15.44,3.43,30,15,0,0
82315,8.9129e+07,2,6343,6085,15.47,3.22,30,16,0,0
82761,8.9236e+07,2,6081,6028,15.47,2.73,30,16,0,0
83209,8.9351e+07,2,6032,6085,15.47,3.12,30,16,0,0
83657,8.9455e+07,2,6069,5857,15.51,2.58,30,16,0,0
84097,8.9567e+07,2,5864,5971,15.52,2.53,30,16,0,0
84544,8.9673e+07,2,5971,5971,15.51,2.88,30,16,0,0
85405,8.9888e+07,2,5969,5771,15.41,2.36,30,16,0,0
85892,9.0007e+07,2,5760,5657,15.44,2.5,30,16,0,0
86301,9.0107e+07,2,5650,5500,15.44,2.52,30,16,0,0
86786,9.0226e+07,2,5503,5542,15.45,2.59,30,16,0,0
87188,9.0323e+07,2,5539,5457,15.52,2.42,30,16,0,0
87642,9.0434e+07,2,5457,5457,15.46,2.38,30,17,0,0
88091,9.0546e+07,2,5455,5428,15.52,2.46,30,17,0,0
88581,9.0663e+07,2,5437,5528,15.5,2.53,30,17,0,0
89029,9.0775e+07,2,5540,5671,15.48,2.62,30,17,0,0
89476,9.0883e+07,2,5662,5542,15.5,2.57,30,17,0,0
89921,9.099e+07,2,5548,5628,15.45,2.68,30,17,0,0
90378,9.11e+07,2,5628,5628,15.52,2.8,30,17,0,0
90778,9.1201e+07,2,5626,5542,15.47,2.56,30,17,0,0
91277,9.132e+07,2,5582,5985,15.55,2.83,30,17,0,0
91728,9.143e+07,2,5992,6100,15.47,3.33,30,17,0,0
92172,9.1538e+07,2,6101,6128,15.39,3.19,30,17,0,0
92629,9.1654e+07,2,6124,6085,15.46,2.95,30,17,0,0
93036,9.176e+07,2,6094,6228,15.47,3.31,30,17,0,0
93492,9.1872e+07,2,6234,6300,15.4,3.07,30,18,0,0
93926,9.1976e+07,2,6278,5857,15.37,2.72,30,18,0,0
94380,9.2087e+07,2,5848,5742,15.38,2.71,30,18,0,0
94784,9.2189e+07,2,5743,5771,15.46,2.78,30,18,0,0
95238,9.23e+07,2,5771,5771,15.49,2.4,30,18,0,0
95681,9.2409e+07,2,5767,5585,15.47,2.31,30,18,0,0
96127,9.2519e+07,2,5582,5385,15.42,2.41,30,18,0,0
96574,9.2626e+07,2,5385,5385,15.42,2.42,30,18,0,0
97016,9.2736e+07,2,5387,5485,15.41,2.52,30,18,0,0
97512,9.286e+07,2,5489,5528,15.45,2.63,30,18,0,0
97917,9.2959e+07,2,5523,5428,15.54,2.22,30,18,0,0
98365,9.3067e+07,2,5428,5428,15.54,2.15,30,18,0,0
98767,9.3169e+07,2,5426,5371,15.55,2.27,30,19,0,0
99262,9.3287e+07,2,5371,5371,15.45,2.13,30,19,0,0
99665,9.339e+07,2,5378,5471,15.54,2.28,30,19,0,0
1.0012e+05,9.3497e+07,2,5464,5128,15.62,1.76,30,19,0,0
1.0056e+05,9.3606e+07,2,5129,5271,15.56,2.06,30,19,0,0
1.0101e+05,9.372e+07,2,5273,5300,15.44,2.3,30,19,0,0
1.0146e+05,9.3829e+07,2,5304,5357,15.47,2.45,30,19,0,0
1.019e+05,9.3945e+07,2,5371,5514,15.45,2.28,30,19,0,0
1.0234e+05,9.4047e+07,2,5533,5728,15.46,2.7,30,19,0,0
1.0279e+05,9.4164e+07,2,5726,5714,15.44,2.43,30,19,0,0
1.0325e+05,9.4268e+07,2,5743,6000,15.49,2.71,30,19,0,0
1.0365e+05,9.4372e+07,2,5993,5871,15.33,2.71,30,19,0,0
1.041e+05,9.4487e+07,2,5865,5814,15.38,3.04,30,19,0,0
1.0496e+05,9.4703e+07,2,5815,5857,15.39,2.7,30,20,0,0
1.0545e+05,9.4822e+07,2,5847,5771,15.42,2.68,30,20,0,0
1.0585e+05,9.4919e+07,2,5772,5800,15.39,2.49,30,20,0,0
1.063e+05,9.5031e+07,2,5794,5714,15.41,2.67,30,20,0,0
1.067e+05,9.5133e+07,2,5715,5800,15.43,2.82,30,20,0,0
1.0716e+05,9.5243e+07,2,5795,5714,15.44,2.56,30,20,0,0
1.076e+05,9.5352e+07,2,5718,5800,15.44,2.65,30,20,0,0
1.0805e+05,9.5465e+07,2,5792,5714,15.49,2.6,30,20,0,0
1.085e+05,9.5577e+07,2,5710,5671,15.44,2.79,30,20,0,0
1.089e+05,9.5677e+07,2,5668,5628,15.39,2.76,30,20,0,0
1.0935e+05,9.5786e+07,2,5632,5728,15.33,2.77,30,20,0,0
1.0981e+05,9.5898e+07,2,5735,5828,15.44,3.11,30,21,0,0
1.1021e+05,9.6e+07,2,5823,5614,15.39,2.99,30,21,0,0
1.1066e+05,9.6112e+07,2,5614,5671,15.38,2.84,30,21,0,0
1.1111e+05,9.6219e+07,2,5671,5671,15.46,2.73,30,21,0,0
1.1156e+05,9.6334e+07,2,5664,5600,15.5,2.47,30,21,0,0
1.12e+05,9.6441e+07,2,5603,5657,15.5,2.61,30,21,0,0
1.1244e+05,9.6548e+07,2,5655,5642,15.45,2.34,30,21,0,0
1.1285e+05,9.6652e+07,2,5641,5628,15.44,2.34,30,21,0,0
1.133e+05,9.676e+07,2,5622,5514,15.51,2.5,30,21,0,0
1.1375e+05,9.687e+07,2,5516,5557,15.45,2.51,30,21,0,0
1.1416e+05,9.6975e+07,2,5560,5785,15.44,2.98,30,21,0,0
1.1465e+05,9.7093e+07,2,5780,5714,15.47,2.83,30,21,0,0
1.1505e+05,9.7193e+07,2,5709,5628,15.46,2.62,30,21,0,0
1.1554e+05,9.7313e+07,2,5653,5871,15.43,2.77,30,22,0,0
1.1594e+05,9.7412e+07,2,5873,5928,15.42,3.14,30,22,0,0
1.1639e+05,9.7524e+07,2,5942,6214,15.39,3.33,30,22,0,0
1.1729e+05,9.7748e+07,2,6212,6171,15.36,3.01,30,22,0,0
1.1773e+05,9.7853e+07,2,6168,6128,15.39,3.3,30,22,0,0
1.1817e+05,9.7961e+07,2,6116,5900,15.43,3.13,30,22,0,0
1.1863e+05,9.8072e+07,2,5903,5957,15.42,3.1,30,22,0,0
1.1907e+05,9.8184e+07,2,5964,6042,15.39,3.2,30,22,0,0
1.1952e+05,9.829e+07,2,6042,6057,15.42,3.24,30,22,0,0
1.1996e+05,9.8402e+07,2,6047,5914,15.44,3.11,30,23,0,0
1.2041e+05,9.8511e+07,2,5922,6042,15.37,3.11,30,23,0,0
1.2085e+05,9.8621e+07,2,6030,5914,15.38,3.32,30,23,0,0
1.2129e+05,9.8729e+07,2,5918,6014,15.43,3.34,30,23,0,0
1.2174e+05,9.8837e+07,2,6001,5842,15.4,3.11,30,23,0,0
1.2219e+05,9.8949e+07,2,5847,5900,15.41,3.07,30,23,0,0
1.2259e+05,9.9048e+07,2,5902,6057,15.4,3.41,30,23,0,0
1.2307e+05,9.9162e+07,2,6043,5871,15.42,3.38,30,23,0,0
1.2348e+05,9.9266e+07,2,5874,6071,15.41,3.42,30,23,0,0
1.2438e+05,9.9486e+07,2,6070,6057,15.4,3.4,30,24,0,0
1.2482e+05,9.9595e+07,2,6043,5871,15.35,3.45,30,24,0,0
1.2523e+05,9.9699e+07,2,5867,5828,15.36,3.33,30,24,0,0
1.2568e+05,9.9812e+07,2,5844,6014,15.43,3.78,30,24,0,0
1.2613e+05,9.9925e+07,2,6004,5928,15.43,3.27,30,24,0,0
1.2654e+05,1.0003e+08,2,5933,6000,15.44,3.65,30,24,0,0
1.2699e+05,1.0014e+08,2,6000,6014,15.41,3.29,30,24,0,0
1.2744e+05,1.0025e+08,2,6010,5957,15.39,3.37,30,24,0,0
1.2785e+05,1.0035e+08,2,5949,5771,15.4,3.07,30,24,0,0
1.283e+05,1.0046e+08,2,5775,5885,15.45,3.28,30,25,0,0
1.2874e+05,1.0057e+08,2,5881,5828,15.35,3.36,30,25,0,0
1.2918e+05,1.0068e+08,2,5835,5928,15.38,3.65,30,25,0,0
1.2959e+05,1.0078e+08,2,5925,5885,15.41,3.65,30,25,0,0
1.3e+05,1.0088e+08,2,5888,6057,15.37,4,30,25,0,0
1.3049e+05,1.01e+08,2,6057,6085,15.4,3.67,30,25,0,0
1.3094e+05,1.0111e+08,2,6092,6171,15.39,3.91,30,25,0,0
1.314e+05,1.0122e+08,2,6137,5800,15.44,3.55,30,25,0,0
1.3229e+05,1.0144e+08,2,5803,5914,15.38,3.56,30,25,0,0
1.3274e+05,1.0156e+08,2,5894,5685,15.41,3.14,30,26,0,0
1.3318e+05,1.0166e+08,2,5708,5928,15.34,3.7,30,26,0,0
1.3359e+05,1.0176e+08,2,5928,5971,15.41,3.5,30,26,0,0
1.3403e+05,1.0187e+08,2,5970,5914,15.38,3.8,30,26,0,0
1.3452e+05,1.0198e+08,2,5922,6085,15.38,3.71,30,26,0,0
1.3497e+05,1.021e+08,2,6082,6071,15.42,3.82,30,26,0,0
1.3538e+05,1.022e+08,2,6070,6028,15.3,4.11,30,26,0,0
1.3587e+05,1.0232e+08,2,6024,6000,15.37,3.86,30,26,0,0
1.3627e+05,1.0242e+08,2,6000,6014,15.3,4,30,26,0,0
1.3672e+05,1.0253e+08,2,6023,6157,15.36,4.07,30,27,0,0
1.3717e+05,1.0264e+08,2,6173,6328,15.32,4.2,30,27,0,0
1.3758e+05,1.0274e+08,2,6323,6228,15.32,4.08,30,27,0,0
1.3847e+05,1.0296e+08,2,6223,6100,15.31,4.14,30,27,0,0
1.3892e+05,1.0307e+08,2,6114,6314,15.32,4.09,30,27,0,0
1.3936e+05,1.0318e+08,2,6294,6042,15.3,3.89,30,27,0,0
1.3981e+05,1.0329e+08,2,6047,6128,15.36,3.78,30,27,0,0
1.4026e+05,1.034e+08,2,6122,6028,15.35,3.8,30,28,0,0
1.4071e+05,1.0351e+08,2,6033,6100,15.3,4.02,30,28,0,0
1.4116e+05,1.0362e+08,2,6103,6142,15.35,3.89,30,28,0,0
1.42e+05,1.0382e+08,2,6140,5885,15.39,3.65,30,28,0,0
1.4294e+05,1.0406e+08,2,5880,5814,15.4,3.22,30,28,0,0
1.4383e+05,1.0427e+08,2,5816,5857,15.32,3.64,30,28,0,0
1.4425e+05,1.0438e+08,2,5878,6028,15.3,3.91,30,29,0,0
1.4465e+05,1.0448e+08,2,6031,6285,15.32,3.85,30,29,0,0
1.4509e+05,1.0459e+08,2,6269,6071,15.36,3.43,30,29,0,0
1.4602e+05,1.0481e+08,2,6062,5914,15.38,3.33,30,29,0,0
1.4688e+05,1.0503e+08,2,5918,6000,15.36,3.4,30,29,0,0
1.4732e+05,1.0514e+08,2,6000,6000,15.35,3.42,30,29,0,0
1.4822e+05,1.0535e+08,2,6001,6028,15.36,3.32,30,30,0,0
1.4862e+05,1.0545e+08,2,6026,5914,15.33,3.38,30,30,0,0
1.4907e+05,1.0556e+08,2,5920,6000,15.29,3.42,30,30,0,0
1.4948e+05,1.0566e+08,2,5999,5942,15.31,3.29,30,30,0,0
1.4993e+05,1.0577e+08,2,5938,5871,15.32,3.42,30,30,0,0
1.5038e+05,1.0588e+08,2,5871,5885,15.26,3.48,30,30,0,0
1.5086e+05,1.06e+08,2,5899,6057,15.33,3.57,30,30,0,0
1.513e+05,1.0611e+08,2,6067,6257,15.32,4.37,30,30,0,0
1.5175e+05,1.0622e+08,2,6284,6557,15.26,4.25,30,30,0,0
1.5216e+05,1.0632e+08,2,6552,6385,15.25,4.56,30,31,0,0
1.5351e+05,1.0665e+08,2,6382,6085,15.32,3.9,30,31,0,0
1.5395e+05,1.0676e+08,2,6087,6157,15.28,3.73,30,31,0,0
1.5444e+05,1.0688e+08,2,6148,6057,15.35,3.84,30,31,0,0
1.5484e+05,1.0698e+08,2,6058,6085,15.27,3.74,30,31,0,0
1.5529e+05,1.0709e+08,2,6091,6185,15.22,4.11,30,31,0,0
1.5574e+05,1.072e+08,2,6183,6142,15.25,3.97,30,31,0,0
1.5663e+05,1.0742e+08,2,6136,5857,15.29,3.35,30,32,0,0
1.5707e+05,1.0753e+08,2,5859,5900,15.42,3.17,30,32,0,0
1.5752e+05,1.0764e+08,2,5893,5800,15.32,3.33,30,32,0,0
1.5796e+05,1.0775e+08,2,5804,5871,15.32,3.87,30,32,0,0
1.5842e+05,1.0786e+08,2,5907,6271,15.3,4.22,30,32,0,0
1.5882e+05,1.0796e+08,2,6266,6214,15.33,4.07,30,32,0,0
1.5927e+05,1.0808e+08,2,6204,6085,15.3,3.59,30,32,0,0
1.5972e+05,1.0819e+08,2,6083,6071,15.38,3.41,30,32,0,0
1.6013e+05,1.0829e+08,2,6068,6014,15.38,3.32,30,33,0,0
1.6054e+05,1.084e+08,2,6012,5985,15.32,3.17,30,33,0,0
1.6099e+05,1.0851e+08,2,5981,5928,15.34,3.63,30,33,0,0
1.6144e+05,1.0862e+08,2,5930,5957,15.27,3.75,30,33,0,0
1.6232e+05,1.0883e+08,2,5958,6000,15.32,3.32,30,33,0,0
1.6277e+05,1.0894e+08,2,5981,5728,15.3,3.09,30,33,0,0
1.6322e+05,1.0905e+08,2,5743,5971,15.3,4.2,30,33,0,0
1.6362e+05,1.0915e+08,2,5977,6228,15.28,3.82,30,33,0,0
1.6411e+05,1.0927e+08,2,6213,6057,15.35,3.95,30,34,0,0
1.6452e+05,1.0937e+08,2,6060,6114,15.31,3.82,30,34,0,0
1.6493e+05,1.0947e+08,2,6117,6328,15.31,4.03,30,34,0,0
1.6542e+05,1.0959e+08,2,6318,6057,15.3,3.94,30,34,0,0
1.6587e+05,1.097e+08,2,6079,6300,15.27,3.94,30,34,0,0
1.6631e+05,1.0981e+08,2,6292,6214,15.32,3.98,30,34,0,0
1.6676e+05,1.0992e+08,2,6215,6242,15.27,4.19,30,34,0,0
1.6716e+05,1.1002e+08,2,6245,6285,15.32,3.63,30,34,0,0
1.6761e+05,1.1014e+08,2,6267,6100,15.33,3.81,30,35,0,0
1.6806e+05,1.1024e+08,2,6100,6100,15.23,3.93,30,35,0,0
1.685e+05,1.1035e+08,2,6116,6285,15.28,3.92,30,35,0,0
1.6891e+05,1.1045e+08,2,6285,6300,15.31,4.36,30,35,0,0
1.6939e+05,1.1057e+08,2,6287,6114,15.28,3.86,30,35,0,0
1.6984e+05,1.1068e+08,2,6111,6085,15.26,3.41,30,35,0,0
1.7029e+05,1.1079e+08,2,6064,5842,15.3,3.35,30,35,0,0
1.7074e+05,1.1089e+08,2,5836,5785,15.22,3.54,30,35,0,0
1.7114e+05,1.11e+08,2,5787,5957,15.26,3.42,30,36,0,0
1.7163e+05,1.1111e+08,2,5965,6042,15.29,3.75,30,36,0,0
1.7203e+05,1.1121e+08,2,6044,6228,15.23,4.29,30,36,0,0
1.7252e+05,1.1133e+08,2,6250,6457,15.21,4.52,30,36,0,0
1.7292e+05,1.1143e+08,2,6456,6428,15.32,4.18,30,36,0,0
1.7332e+05,1.1153e+08,2,6422,6071,15.26,3.85,30,36,0,0
1.7382e+05,1.1165e+08,2,6081,6185,15.36,3.75,30,36,0,0
1.7422e+05,1.1175e+08,2,6185,6200,15.23,4.14,30,36,0,0
1.7471e+05,1.1186e+08,2,6193,6128,15.23,4,30,36,0,0
1.7511e+05,1.1197e+08,2,6118,6028,15.29,3.69,30,37,0,0
1.7556e+05,1.1207e+08,2,6030,6071,15.23,3.58,30,37,0,0
1.7597e+05,1.1218e+08,2,6074,6257,15.25,3.4,30,37,0,0
1.7642e+05,1.1229e+08,2,6240,5914,15.29,3.52,30,37,0,0
1.7731e+05,1.125e+08,2,5918,6014,15.32,3.57,30,37,0,0
1.7771e+05,1.126e+08,2,6013,5971,15.32,3.52,30,37,0,0
1.7824e+05,1.1273e+08,2,5980,6071,15.32,3.33,30,37,0,0
1.7869e+05,1.1284e+08,2,6054,5871,15.29,3.5,30,37,0,0
1.7909e+05,1.1294e+08,2,5871,5871,15.27,3.37,30,38,0,0
1.7954e+05,1.1305e+08,2,5873,5914,15.26,3.48,30,38,0,0
1.7998e+05,1.1316e+08,2,5917,5971,15.25,3.54,30,38,0,0
1.8047e+05,1.1327e+08,2,5967,5928,15.31,3.12,30,38,0,0
1.8088e+05,1.1338e+08,2,5912,5771,15.27,3.23,30,38,0,0
1.8129e+05,1.1348e+08,2,5783,5957,15.32,3.29,30,38,0,0
1.8174e+05,1.136e+08,2,5954,5928,15.35,3.39,30,38,0,0
1.8218e+05,1.137e+08,2,5933,6014,15.28,3.46,30,38,0,0
1.8262e+05,1.1381e+08,2,6005,5885,15.33,3.62,30,38,0,0
1.8306e+05,1.1392e+08,2,5891,6000,15.25,3.59,30,38,0,0
1.8352e+05,1.1403e+08,2,6005,6057,15.25,3.61,30,39,0,0
1.8392e+05,1.1413e+08,2,6057,6071,15.27,3.51,30,39,0,0
1.8438e+05,1.1425e+08,2,6070,6057,15.27,3.46,30,39,0,0
1.8486e+05,1.1437e+08,2,6054,6028,15.24,3.65,30,39,0,0
1.8526e+05,1.1447e+08,2,6027,5985,15.28,3.4,30,39,0,0
1.8571e+05,1.1457e+08,2,5985,5985,15.25,3.1,30,39,0,0
1.8616e+05,1.1468e+08,2,5983,5971,15.29,3.14,30,39,0,0
1.8705e+05,1.149e+08,2,5969,5928,15.33,2.93,30,39,0,0
1.8745e+05,1.15e+08,2,5924,5700,15.29,3.01,30,39,0,0
1.8794e+05,1.1512e+08,2,5714,5842,15.26,2.96,30,40,0,0
1.8839e+05,1.1523e+08,2,5843,5857,15.3,2.81,30,40,0,0
1.8883e+05,1.1534e+08,2,5843,5728,15.22,3.2,30,40,0,0
1.8924e+05,1.1545e+08,2,5729,5742,15.28,3.05,30,40,0,0
1.9013e+05,1.1566e+08,2,5742,5785,15.27,3.42,30,40,0,0
1.9058e+05,1.1577e+08,2,5786,5828,15.19,3.63,30,40,0,0
1.9107e+05,1.1589e+08,2,5833,5871,15.22,3.47,30,40,0,0
1.9151e+05,1.16e+08,2,5874,5914,15.22,3.45,30,40,0,0
1.9192e+05,1.161e+08,2,5912,5900,15.26,3.46,30,40,0,0
1.9237e+05,1.1621e+08,2,5906,6071,15.22,3.59,30,41,0,0
1.9282e+05,1.1632e+08,2,6068,6014,15.27,3.52,30,41,0,0
1.933e+05,1.1644e+08,2,6009,5957,15.27,3.76,30,41,0,0
1.937e+05,1.1654e+08,2,5962,6014,15.19,3.84,30,41,0,0
1.9415e+05,1.1665e+08,2,6026,6200,15.17,4.27,30,41,0,0
1.9459e+05,1.1676e+08,2,6204,6257,15.22,3.85,30,41,0,0
1.9504e+05,1.1687e+08,2,6262,6328,15.25,4.17,30,41,0,0
1.9548e+05,1.1698e+08,2,6324,6285,15.2,4.43,30,41,0,0
1.9589e+05,1.1708e+08,2,6292,6442,15.23,4.77,30,42,0,0
1.9631e+05,1.1719e+08,2,6446,6542,15.25,4.22,30,42,0,0
1.9676e+05,1.173e+08,2,6531,6414,15.29,3.8,30,42,0,0
1.9716e+05,1.1741e+08,2,6407,6114,15.21,3.45,30,42,0,0
1.9761e+05,1.1752e+08,2,6113,6100,15.27,3.19,30,42,0,0
1.9806e+05,1.1763e+08,2,6079,5814,15.24,3,30,42,0,0
1.9846e+05,1.1773e+08,2,5815,5971,15.36,2.99,30,42,0,0
1.9939e+05,1.1795e+08,2,5966,5842,15.26,2.87,30,42,0,0
1.9984e+05,1.1806e+08,2,5831,5714,15.3,2.82,30,42,0,0
2.0028e+05,1.1817e+08,2,5719,5785,15.26,2.8,31,43,0,0
2.0073e+05,1.1828e+08,2,5786,5800,15.22,3.02,30,43,0,0
2.0113e+05,1.1838e+08,2,5792,5685,15.23,2.82,30,43,0,0
2.0158e+05,1.1849e+08,2,5687,5771,15.24,2.68,30,43,0,0
2.0202e+05,1.186e+08,2,5771,5771,15.26,3.33,30,43,0,0
2.0246e+05,1.1871e+08,2,5773,5871,15.25,3.64,30,43,0,0
2.0287e+05,1.1881e+08,2,5871,5885,15.2,3.58,30,43,0,0
2.0336e+05,1.1893e+08,2,5889,5957,15.24,3.75,30,43,0,0
2.0376e+05,1.1903e+08,2,5958,6042,15.27,3.55,30,43,0,0
2.0466e+05,1.1925e+08,2,6041,6028,15.26,3.52,31,44,0,0
2.0511e+05,1.1936e+08,2,6021,5957,15.23,3.6,30,44,0,0
2.0556e+05,1.1947e+08,2,5948,5828,15.22,3.14,30,44,0,0
2.06e+05,1.1958e+08,2,5822,5771,15.19,3.24,30,44,0,0
2.0688e+05,1.1979e+08,2,5778,5985,15.17,3.41,30,44,0,0
2.0737e+05,1.1991e+08,2,5967,5771,15.13,3.48,30,44,0,0
2.0781e+05,1.2002e+08,2,5774,5814,15.25,3.23,30,44,0,0
2.0821e+05,1.2012e+08,2,5817,5942,15.2,3.62,30,44,0,0
2.087e+05,1.2023e+08,2,5944,5971,15.2,3.54,30,44,0,0
2.0911e+05,1.2034e+08,2,5971,5971,15.14,3.39,31,45,0,0
2.0956e+05,1.2045e+08,2,5975,6014,15.14,3.81,30,45,0,0
2.0996e+05,1.2055e+08,2,6012,5971,15.16,3.68,30,45,0,0
2.1045e+05,1.2067e+08,2,5962,5871,15.22,3.54,30,45,0,0
2.1086e+05,1.2077e+08,2,5875,5942,15.25,3.17,30,45,0,0
2.113e+05,1.2088e+08,2,5937,5828,15.22,3.3,30,45,0,0
2.1175e+05,1.2099e+08,2,5828,5842,15.16,3.25,30,45,0,0
2.122e+05,1.211e+08,2,5838,5742,15.25,3.11,30,45,0,0
2.1264e+05,1.2121e+08,2,5739,5685,15.22,3.16,30,45,0,0
2.1353e+05,1.2143e+08,2,5686,5714,15.22,3.04,30,46,0,0
2.1399e+05,1.2155e+08,2,5731,5914,15.23,3.28,30,46,0,0
2.1439e+05,1.2165e+08,2,5902,5657,15.24,3.1,30,46,0,0
2.1483e+05,1.2175e+08,2,5660,5742,15.22,2.98,30,46,0,0
2.1528e+05,1.2187e+08,2,5738,5685,15.21,3.06,30,46,0,0
2.1572e+05,1.2197e+08,2,5686,5700,15.25,3.02,30,46,0,0
2.1613e+05,1.2207e+08,2,5700,5700,15.22,3.08,30,46,0,0
2.1662e+05,1.222e+08,2,5715,5885,15.22,3.23,30,46,0,0
2.1702e+05,1.2229e+08,2,5885,5928,15.22,3.17,30,46,0,0
2.1747e+05,1.224e+08,2,5923,5814,15.22,3.09,31,46,0,0
2.1795e+05,1.2252e+08,2,5809,5757,15.26,2.82,30,46,0,0
2.1836e+05,1.2262e+08,2,5741,5557,15.2,2.88,30,47,0,0
2.1876e+05,1.2273e+08,2,5562,5757,15.22,3.18,30,47,0,0
2.1922e+05,1.2284e+08,2,5755,5728,15.2,3.05,30,47,0,0
2.1966e+05,1.2295e+08,2,5725,5685,15.22,2.91,30,47,0,0
2.2011e+05,1.2306e+08,2,5675,5557,15.22,2.8,30,47,0,0
2.2099e+05,1.2327e+08,2,5553,5471,15.2,2.73,30,47,0,0
2.2144e+05,1.2338e+08,2,5480,5614,15.23,2.58,30,47,0,0
2.2189e+05,1.2349e+08,2,5600,5414,15.24,2.47,30,47,0,0
2.2232e+05,1.236e+08,2,5419,5614,15.27,2.84,31,47,0,0
2.2278e+05,1.2371e+08,2,5609,5542,15.25,3.01,30,47,0,0
2.2322e+05,1.2382e+08,2,5582,5971,15.26,3.38,30,48,0,0
2.2366e+05,1.2393e+08,2,5965,5842,15.21,3.22,31,48,0,0
2.2412e+05,1.2404e+08,2,5853,6014,15.22,3.4,30,48,0,0
2.2457e+05,1.2415e+08,2,6005,5871,15.19,3.4,30,48,0,0
2.2501e+05,1.2426e+08,2,5887,6128,15.23,3.65,30,48,0,0
2.2542e+05,1.2437e+08,2,6120,6028,15.23,3.6,30,48,0,0
2.2587e+05,1.2448e+08,2,6031,6071,15.25,4.03,30,48,0,0
2.2631e+05,1.2459e+08,2,6071,6085,15.25,3.84,30,48,0,0
2.2672e+05,1.2469e+08,2,6087,6271,15.22,4.03,30,48,0,0
2.272e+05,1.248e+08,2,6246,6000,15.18,3.88,30,48,0,0
2.2765e+05,1.2491e+08,2,6008,6171,15.25,4.2,30,49,0,0
2.281e+05,1.2502e+08,2,6166,6100,15.25,4.04,30,49,0,0
2.2854e+05,1.2513e+08,2,6098,6085,15.2,3.7,30,49,0,0
2.2899e+05,1.2524e+08,2,6095,6185,15.25,3.5,30,49,0,0
2.2943e+05,1.2535e+08,2,6163,5900,15.23,3.47,30,49,0,0
2.2988e+05,1.2546e+08,2,5908,5971,15.33,3.02,30,49,0,0
2.3029e+05,1.2557e+08,2,5953,5757,15.26,3.04,31,49,0,0
2.3073e+05,1.2567e+08,2,5758,5857,15.32,3.79,31,49,0,0
2.3166e+05,1.259e+08,2,5859,5900,15.3,3.57,30,50,0,0
2.3203e+05,1.26e+08,2,5901,5971,15.27,3.63,30,50,0,0
2.3296e+05,1.2622e+08,2,5972,6057,15.23,3.77,30,50,0,0
2.3385e+05,1.2644e+08,2,6061,6171,15.26,3.97,30,50,0,0
2.3429e+05,1.2655e+08,2,6165,6114,15.28,3.74,30,50,0,0
2.3514e+05,1.2677e+08,2,6114,6128,15.21,3.63,30,51,0,0
2.3563e+05,1.2688e+08,2,6129,6142,15.26,4.08,31,51,0,0
2.3698e+05,1.2722e+08,2,6139,6042,15.26,3.49,30,51,0,0
2.3738e+05,1.2732e+08,2,6046,6114,15.25,3.34,30,51,0,0
2.3779e+05,1.2743e+08,2,6112,6028,15.29,3.48,31,51,0,0
2.3827e+05,1.2754e+08,2,6017,5914,15.28,3.25,30,51,0,0
2.3872e+05,1.2765e+08,2,5915,5928,15.25,3.47,31,51,0,0
2.3917e+05,1.2777e+08,2,5929,5942,15.19,3.25,30,52,0,0
2.3957e+05,1.2786e+08,2,5951,6142,15.26,3.57,30,52,0,0
2.3997e+05,1.2796e+08,2,6136,5942,15.23,3.45,31,52,0,0
2.4042e+05,1.2807e+08,2,5947,6100,15.2,3.33,31,52,0,0
2.4087e+05,1.2818e+08,2,6096,5885,15.18,3.4,30,52,0,0
2.4136e+05,1.283e+08,2,5883,5857,15.22,3.29,31,52,0,0
2.4176e+05,1.2841e+08,2,5865,5971,15.2,3.36,30,52,0,0
2.4222e+05,1.2852e+08,2,5960,5857,15.27,2.89,30,52,0,0
2.4266e+05,1.2862e+08,2,5860,5900,15.27,3.18,30,52,0,0
2.431e+05,1.2874e+08,2,5891,5800,15.23,3.32,30,52,0,0
2.4351e+05,1.2884e+08,2,5800,5842,15.2,3.33,31,53,0,0
2.4399e+05,1.2895e+08,2,5843,5857,15.19,3.35,30,53,0,0
2.444e+05,1.2905e+08,2,5855,5800,15.17,3.21,31,53,0,0
2.4503e+05,1.2928e+08,2,5881,5842,15.19,3.12,31,53,0,0
2.4548e+05,1.2939e+08,2,5849,5928,15.27,3.34,31,53,0,0
2.4593e+05,1.295e+08,2,5936,6028,15.22,3.45,31,53,0,0
2.4633e+05,1.296e+08,2,6024,5971,15.19,3.48,30,53,0,0
2.4673e+05,1.297e+08,2,5972,6042,15.23,3.55,31,53,0,0
2.4718e+05,1.2981e+08,2,6042,6071,15.26,3.2,31,53,0,0
2.4763e+05,1.2993e+08,2,6071,6114,15.13,3.71,31,54,0,0
2.4808e+05,1.3004e+08,2,6110,6057,15.19,3.38,31,54,0,0
2.4853e+05,1.3015e+08,2,6063,6157,15.17,3.83,30,54,0,0
2.4894e+05,1.3025e+08,2,6153,6085,15.17,3.61,31,54,0,0
2.4942e+05,1.3036e+08,2,6083,6071,15.19,3.53,31,54,0,0
2.4986e+05,1.3047e+08,2,6080,6214,15.05,3.57,31,54,0,0
2.5027e+05,1.3057e+08,2,6208,6100,15.06,3.52,30,54,0,0
2.5068e+05,1.3068e+08,2,6100,6114,15.14,3.76,31,54,0,0
2.5112e+05,1.3079e+08,2,6114,6114,15.17,3.34,31,54,0,0
2.5157e+05,1.309e+08,2,6110,6057,15.17,3.52,31,54,0,0
2.5202e+05,1.3101e+08,2,6051,5971,15.2,3.47,31,55,0,0
2.5248e+05,1.3113e+08,2,5971,5971,15.23,3.24,31,55,0,0
2.5288e+05,1.3123e+08,2,5971,5971,15.25,3.45,31,55,0,0
2.5328e+05,1.3133e+08,2,5963,5857,15.19,3.6,31,55,0,0
2.5373e+05,1.3144e+08,2,5866,6085,15.19,3.49,31,55,0,0
2.5417e+05,1.3155e+08,2,6074,5857,15.16,3.09,31,55,0,0
2.5462e+05,1.3166e+08,2,5860,5928,15.28,2.75,31,55,0,0
2.5506e+05,1.3177e+08,2,5913,5700,15.25,2.88,31,55,0,0
2.5551e+05,1.3187e+08,2,5699,5657,15.23,2.91,31,55,0,0
2.5596e+05,1.3199e+08,2,5648,5528,15.24,3.03,31,55,0,0
2.5641e+05,1.3209e+08,2,5537,5685,15.23,2.62,30,56,0,0
2.5685e+05,1.322e+08,2,5681,5642,15.17,2.85,31,56,0,0
2.573e+05,1.3232e+08,2,5650,5728,15.22,2.96,31,56,0,0
2.5775e+05,1.3242e+08,2,5726,5714,15.2,2.88,31,56,0,0
2.5859e+05,1.3263e+08,2,5713,5614,15.22,2.89,31,56,0,0
2.5903e+05,1.3274e+08,2,5620,5685,15.22,3.22,31,56,0,0
2.5948e+05,1.3285e+08,2,5690,5800,15.16,3.21,31,56,0,0
2.5993e+05,1.3296e+08,2,5810,5928,15.16,3.21,31,56,0,0
2.6038e+05,1.3307e+08,2,5913,5714,15.25,3,31,56,0,0
2.6082e+05,1.3317e+08,2,5714,5728,15.3,2.98,31,56,0,0
2.6131e+05,1.3329e+08,2,5720,5614,15.27,2.51,31,56,0,0
2.6176e+05,1.334e+08,2,5606,5528,15.32,2.6,31,57,0,0
2.622e+05,1.3351e+08,2,5528,5542,15.27,2.41,30,57,0,0
2.6265e+05,1.3362e+08,2,5550,5642,15.28,2.7,31,57,0,0
2.6305e+05,1.3372e+08,2,5638,5557,15.22,2.54,31,57,0,0
2.6354e+05,1.3384e+08,2,5560,5600,15.27,2.71,31,57,0,0
2.6398e+05,1.3395e+08,2,5584,5442,15.3,2.75,30,57,0,0
2.6443e+05,1.3405e+08,2,5451,5657,15.26,2.68,30,57,0,0
2.6488e+05,1.3417e+08,2,5650,5557,15.24,2.63,30,57,0,0
2.6532e+05,1.3427e+08,2,5561,5600,15.28,2.42,31,57,0,0
2.6572e+05,1.3437e+08,2,5600,5600,15.26,2.7,31,57,0,0
2.6618e+05,1.3448e+08,2,5599,5528,15.27,2.62,30,57,0,0
2.6658e+05,1.3459e+08,2,5528,5571,15.35,2.38,30,57,0,0
2.6707e+05,1.3471e+08,2,5572,5585,15.23,2.94,30,57,0,0
2.6747e+05,1.348e+08,2,5588,5814,15.25,2.91,30,58,0,0
2.6795e+05,1.3492e+08,2,5816,5842,15.26,2.32,30,58,0,0
2.684e+05,1.3503e+08,2,5859,6028,15.16,3.16,31,58,0,0
2.6884e+05,1.3514e+08,2,6021,5942,15.26,2.32,30,58,0,0
2.693e+05,1.3525e+08,2,5944,5985,15.2,2.97,30,58,0,0
2.697e+05,1.3536e+08,2,5974,5800,15.2,2.8,30,58,0,0
2.7019e+05,1.3547e+08,2,5802,5828,15.2,2.96,30,58,0,0
2.706e+05,1.3558e+08,2,5840,5942,15.27,3.07,31,58,0,0
2.7105e+05,1.3569e+08,2,5960,6085,15.14,3.5,31,58,0,0
2.7149e+05,1.358e+08,2,6082,6057,15.13,3.47,30,58,0,0
2.7194e+05,1.3591e+08,2,6058,6071,15.14,3.9,30,59,0,0
2.7235e+05,1.3601e+08,2,6071,6085,15.22,3.63,31,59,0,0
2.7327e+05,1.3624e+08,2,6083,6057,15.22,3.66,30,59,0,0
2.7368e+05,1.3635e+08,2,6061,6100,15.23,3.62,31,59,0,0
2.7413e+05,1.3645e+08,2,6102,6128,15.2,3.53,31,59,0,0
2.7457e+05,1.3656e+08,2,6123,6085,15.22,3.3,30,59,0,0
2.7502e+05,1.3667e+08,2,6073,5971,15.25,3.7,30,59,0,0
2.7542e+05,1.3678e+08,2,5991,6142,15.23,3.67,30,59,0,0
2.7587e+05,1.3689e+08,2,6152,6257,15.19,4.25,30,60,0,0
2.7632e+05,1.37e+08,2,6268,6371,15.21,4.57,30,60,0,0
2.7677e+05,1.371e+08,2,6371,6385,15.16,4.55,30,60,0,0
2.7721e+05,1.3721e+08,2,6396,6542,15.19,4.77,30,60,0,0
2.7762e+05,1.3732e+08,2,6551,6628,15.11,5.16,31,60,0,0
2.781e+05,1.3743e+08,2,6628,6628,15.14,4.98,30,60,0,0
2.7896e+05,1.3764e+08,2,6637,6814,15.11,6.17,30,61,0,0
2.7985e+05,1.3786e+08,2,6821,7014,15.18,5.1,30,61,0,0
2.8025e+05,1.3797e+08,2,7016,7171,14.92,7.29,30,61,0,0
2.8074e+05,1.3808e+08,2,7133,6757,14.93,5.11,30,61,0,0
2.8118e+05,1.3819e+08,2,6807,7500,14.95,7.24,31,61,0,0
2.8163e+05,1.383e+08,2,7476,7142,15.13,6.48,31,62,0,0
2.8252e+05,1.3852e+08,2,7137,7042,14.97,6.28,31,62,0,0
2.8293e+05,1.3863e+08,2,7049,7214,15.01,5.71,30,62,0,0
2.8338e+05,1.3874e+08,2,7199,6971,15.01,6.84,30,63,0,0
2.8382e+05,1.3885e+08,2,6990,7257,15.05,5.99,31,63,0,0
2.8427e+05,1.3896e+08,2,7264,7371,15.05,5.56,31,63,0,0
2.8472e+05,1.3907e+08,2,7328,6900,15.05,5.13,31,63,0,0
2.8516e+05,1.3918e+08,2,6893,6800,15.12,5.37,31,63,0,0
2.8557e+05,1.3928e+08,2,6814,7071,15.14,5.32,31,63,0,0
2.8598e+05,1.3938e+08,2,7071,7100,15.07,4.94,31,63,0,0
2.8646e+05,1.395e+08,2,7092,6942,15.11,4.83,31,64,0,0
2.8686e+05,1.396e+08,2,6935,6671,15.16,4.14,31,64,0,0
2.8732e+05,1.3971e+08,2,6653,6342,15.14,3.68,31,64,0,0
2.8776e+05,1.3982e+08,2,6345,6400,15.15,3.9,31,64,0,0
2.8818e+05,1.3993e+08,2,6395,6285,15.17,3.65,31,64,0,0
2.8862e+05,1.4004e+08,2,6285,6300,15.17,3.77,31,64,0,0
2.8906e+05,1.4015e+08,2,6294,6214,15.1,3.83,31,64,0,0
2.8947e+05,1.4025e+08,2,6212,6157,15.17,3.89,31,64,0,0
2.8996e+05,1.4037e+08,2,6158,6171,15.13,3.72,31,65,0,0
2.9041e+05,1.4048e+08,2,6173,6214,15.16,3.78,31,65,0,0
2.9085e+05,1.4059e+08,2,6207,6114,15.1,3.5,31,65,0,0
2.913e+05,1.407e+08,2,6110,6071,15.11,3.75,31,65,0,0
2.917e+05,1.408e+08,2,6075,6128,15.19,3.66,31,65,0,0
2.9211e+05,1.4091e+08,2,6127,6100,15.14,3.87,31,65,0,0
2.9256e+05,1.4102e+08,2,6090,5957,15.14,3.54,31,65,0,0
2.9301e+05,1.4113e+08,2,5967,6071,15.23,3.63,31,65,0,0
2.9342e+05,1.4123e+08,2,6073,6114,15.14,3.68,31,66,0,0
2.9386e+05,1.4135e+08,2,6107,5971,15.15,3.22,31,66,0,0
2.9431e+05,1.4146e+08,2,5958,5828,15.11,3.08,31,66,0,0
2.952e+05,1.4168e+08,2,5809,5428,15.13,2.54,31,66,0,0
2.956e+05,1.4178e+08,2,5424,5371,15.13,2.71,31,66,0,0
2.9606e+05,1.4189e+08,2,5369,5328,15.15,2.52,31,66,0,0
2.9651e+05,1.42e+08,2,5344,5571,15.16,3.28,31,66,0,0
2.9695e+05,1.4211e+08,2,5559,5457,15.19,2.51,31,66,0,0
2.974e+05,1.4222e+08,2,5450,5385,15.22,2.32,31,66,0,0
2.978e+05,1.4232e+08,2,5382,5328,15.2,2.3,31,66,0,0
2.9828e+05,1.4243e+08,2,5325,5300,15.18,2.68,31,66,0,0
2.9869e+05,1.4254e+08,2,5323,5557,15.2,3.27,31,66,0,0
2.9959e+05,1.4276e+08,2,5562,5728,15.19,3.49,31,67,0,0
2.9999e+05,1.4286e+08,2,5729,5842,15.12,3.33,31,67,0,0
3.0044e+05,1.4297e+08,2,5845,5900,15.12,3.9,31,67,0,0
3.0084e+05,1.4307e+08,2,5901,5928,15.14,3.65,31,67,0,0
3.0129e+05,1.4318e+08,2,5934,6100,15.1,3.85,31,67,0,0
3.0174e+05,1.4329e+08,2,6102,6228,15.17,3.49,31,67,0,0
3.0222e+05,1.434e+08,2,6229,6257,15.13,3.59,31,67,0,0
3.0268e+05,1.4352e+08,2,6227,5971,15.14,3.5,31,67,0,0
3.0352e+05,1.4373e+08,2,5972,6157,15.17,3.4,31,68,0,0
3.0401e+05,1.4385e+08,2,6146,6042,15.19,3.15,31,68,0,0
3.0442e+05,1.4395e+08,2,6022,5828,15.23,3.14,31,68,0,0
3.0487e+05,1.4406e+08,2,5826,5814,15.18,2.96,31,68,0,0
3.0531e+05,1.4417e+08,2,5812,5785,15.16,2.98,31,68,0,0
3.0576e+05,1.4428e+08,2,5786,5814,15.17,2.94,31,68,0,0
3.0616e+05,1.4438e+08,2,5809,5714,15.17,2.92,31,68,0,0
3.0661e+05,1.4449e+08,2,5718,5785,15.16,2.99,31,68,0,0
3.0702e+05,1.446e+08,2,5783,5714,15.17,2.83,31,68,0,0
3.0795e+05,1.4482e+08,2,5714,5714,15.16,3.1,31,69,0,0
3.084e+05,1.4493e+08,2,5717,5757,15.16,2.97,31,69,0,0
3.088e+05,1.4503e+08,2,5768,6014,15.16,3.31,31,69,0,0
3.0926e+05,1.4515e+08,2,5999,5857,15.13,3.45,31,69,0,0
3.0971e+05,1.4526e+08,2,5883,6142,15.13,3.7,31,69,0,0
3.1011e+05,1.4536e+08,2,6138,6071,15.1,3.56,31,69,0,0
3.1056e+05,1.4547e+08,2,6072,6100,15.19,3.38,31,69,0,0
3.11e+05,1.4558e+08,2,6082,5828,15.17,3.32,31,69,0,0
3.1146e+05,1.4569e+08,2,5829,5842,15.22,3.03,31,69,0,0
3.119e+05,1.458e+08,2,5848,5928,15.19,3.11,31,70,0,0
3.1235e+05,1.4592e+08,2,5916,5857,15.19,3.24,31,70,0,0
3.1276e+05,1.4602e+08,2,5844,5742,15.23,3.15,31,70,0,0
3.132e+05,1.4612e+08,2,5737,5685,15.2,3.15,31,70,0,0
3.1365e+05,1.4624e+08,2,5685,5714,15.23,2.86,31,70,0,0
3.1406e+05,1.4634e+08,2,5714,5714,15.29,2.74,31,70,0,0
3.1455e+05,1.4646e+08,2,5692,5528,15.26,2.48,31,70,0,0
3.1495e+05,1.4656e+08,2,5531,5557,15.26,2.86,31,70,0,0
3.1539e+05,1.4667e+08,2,5560,5600,15.23,3.02,31,70,0,0
3.158e+05,1.4677e+08,2,5607,5957,15.21,3.26,31,70,0,0
3.1629e+05,1.4689e+08,2,5974,6157,15.25,2.94,31,70,0,0
3.1677e+05,1.47e+08,2,6139,6028,15.29,2.69,31,70,0,0
3.1722e+05,1.4712e+08,2,6038,6114,15.19,3.19,31,71,0,0
3.1806e+05,1.4732e+08,2,6113,5971,15.23,2.26,31,71,0,0
3.1855e+05,1.4744e+08,2,5957,5814,15.24,2.29,31,71,0,0
3.1895e+05,1.4754e+08,2,5813,5785,15.17,2.56,31,71,0,0
3.194e+05,1.4765e+08,2,5780,5742,15.17,2.2,31,71,0,0
3.198e+05,1.4775e+08,2,5742,5757,15.2,2.34,31,71,0,0
3.2029e+05,1.4786e+08,2,5749,5685,15.17,2.39,31,71,0,0
3.207e+05,1.4797e+08,2,5688,5771,15.23,2.43,31,71,0,0
3.2163e+05,1.4819e+08,2,5766,5657,15.19,2.49,31,71,0,0
3.2248e+05,1.4841e+08,2,5664,5828,15.27,2.56,31,71,0,0
3.2289e+05,1.485e+08,2,5827,5800,15.18,2.55,31,72,0,0
3.2341e+05,1.4863e+08,2,5795,5742,15.2,1.95,31,72,0,0
3.2381e+05,1.4873e+08,2,5703,5328,15.32,1.89,31,72,0,0
3.2421e+05,1.4883e+08,2,5328,5357,15.37,2.19,31,72,0,0
3.2471e+05,1.4895e+08,2,5354,5328,15.19,2.05,31,72,0,0
3.2511e+05,1.4905e+08,2,5329,5442,15.21,2.53,31,72,0,0
3.2552e+05,1.4915e+08,2,5441,5385,15.1,2.16,31,72,0,0
3.2601e+05,1.4927e+08,2,5382,5328,15.13,2.61,31,72,0,0
3.269e+05,1.4949e+08,2,5339,5585,15.19,2.91,31,72,0,0
3.273e+05,1.4959e+08,2,5591,5728,15.08,3.18,31,72,0,0
3.2818e+05,1.498e+08,2,5727,5671,15.2,2.85,31,72,0,0
3.2867e+05,1.4992e+08,2,5679,5757,15.17,3.04,31,72,0,0
3.2912e+05,1.5003e+08,2,5763,5828,15.17,3.27,31,73,0,0
3.2952e+05,1.5013e+08,2,5831,5914,15.18,2.82,30,73,0,0
3.3002e+05,1.5025e+08,2,5904,5800,15.25,2.69,31,73,0,0
3.3042e+05,1.5035e+08,2,5791,5685,15.22,2.29,31,73,0,0
3.3087e+05,1.5046e+08,2,5685,5685,15.1,2.76,30,73,0,0
3.3132e+05,1.5057e+08,2,5679,5614,15.22,2.85,30,73,0,0
3.3172e+05,1.5067e+08,2,5610,5471,15.13,2.54,31,73,0,0
3.3217e+05,1.5079e+08,2,5466,5400,15.26,2.48,30,73,0,0
3.3262e+05,1.509e+08,2,5393,5300,15.26,2.52,31,73,0,0
3.3303e+05,1.51e+08,2,5298,5242,15.23,2.12,30,73,0,0
3.3351e+05,1.5112e+08,2,5258,5414,15.23,2.6,31,73,0,0
3.3396e+05,1.5123e+08,2,5403,5271,15.16,2.27,30,73,0,0
3.3436e+05,1.5133e+08,2,5269,5257,15.23,2.12,30,74,0,0
3.3481e+05,1.5144e+08,2,5255,5228,15.21,2.27,30,74,0,0
3.3526e+05,1.5156e+08,2,5239,5357,15.2,2.22,31,74,0,0
3.3571e+05,1.5167e+08,2,5351,5300,15.2,2.41,30,74,0,0
3.3611e+05,1.5177e+08,2,5315,5600,15.25,2.46,31,74,0,0
3.3656e+05,1.5188e+08,2,5585,5400,15.27,1.74,30,74,0,0
3.3701e+05,1.5199e+08,2,5401,5442,15.19,2.18,30,74,0,0
3.3746e+05,1.5211e+08,2,5451,5571,15.17,2.16,30,74,0,0
3.3835e+05,1.5233e+08,2,5575,5657,15.25,2.28,30,74,0,0
3.3876e+05,1.5243e+08,2,5661,5771,15.21,2.5,31,74,0,0
3.3965e+05,1.5264e+08,2,5765,5628,15.05,2.55,30,74,0,0
3.401e+05,1.5276e+08,2,5659,6085,15.04,3.25,30,74,0,0
3.4051e+05,1.5286e+08,2,6087,6142,15.04,3.32,31,75,0,0
3.4099e+05,1.5297e+08,2,6144,6171,15.11,3.06,30,75,0,0
3.4144e+05,1.5308e+08,2,6158,6028,15.05,3.16,30,75,0,0
3.4189e+05,1.5319e+08,2,6034,6100,15.07,3.17,30,75,0,0
3.4234e+05,1.533e+08,2,6079,5885,15.13,3.16,30,75,0,0
3.4274e+05,1.534e+08,2,5895,6100,15.14,2.98,30,75,0,0
3.4314e+05,1.5351e+08,2,6089,5871,15.14,3.04,30,75,0,0
3.4359e+05,1.5361e+08,2,5870,5857,15.11,3.12,30,75,0,0
3.4407e+05,1.5373e+08,2,5866,5957,15.14,3.11,31,75,0,0
3.4453e+05,1.5384e+08,2,5961,6014,15.14,3.11,30,75,0,0
3.4497e+05,1.5395e+08,2,6001,5871,15.11,2.75,30,76,0,0
3.4538e+05,1.5405e+08,2,5871,5914,15.13,3.07,30,76,0,0
3.4586e+05,1.5417e+08,2,5917,5957,15.17,3.23,30,76,0,0
3.4631e+05,1.5428e+08,2,5963,6028,15.14,3.59,30,76,0,0
3.4675e+05,1.5438e+08,2,6032,6114,15.14,3.69,31,76,0,0
3.4719e+05,1.5449e+08,2,6115,6171,15.12,3.46,30,76,0,0
3.4764e+05,1.546e+08,2,6171,6185,15.14,3.59,30,76,0,0
3.4812e+05,1.5472e+08,2,6172,6042,15.1,3.46,30,76,0,0
3.4857e+05,1.5482e+08,2,6041,6028,15.14,3.45,30,76,0,0
3.4898e+05,1.5493e+08,2,6037,6128,15.1,3.58,30,76,0,0
3.4942e+05,1.5503e+08,2,6126,6085,15.08,3.42,30,77,0,0
3.4987e+05,1.5514e+08,2,6088,6142,15.13,3.54,30,77,0,0
3.5032e+05,1.5525e+08,2,6140,6028,15.14,3.7,30,77,0,0
3.5076e+05,1.5536e+08,2,6030,6085,15.1,3.56,30,77,0,0
3.5121e+05,1.5547e+08,2,6083,6057,15.1,3.41,30,77,0,0
3.5165e+05,1.5558e+08,2,6061,6100,15.11,3.36,30,77,0,0
3.521e+05,1.557e+08,2,6100,6100,15.05,3.6,30,77,0,0
3.5247e+05,1.5579e+08,2,6099,6085,15.16,3.06,30,77,0,0
3.53e+05,1.5591e+08,2,6082,6042,15.12,3.38,30,77,0,0
3.5389e+05,1.5614e+08,2,6041,6028,15.11,3.3,30,78,0,0
3.5429e+05,1.5623e+08,2,6026,5971,15.13,3.33,30,78,0,0
3.5563e+05,1.5656e+08,2,5968,5842,15.11,2.93,30,78,0,0
3.5608e+05,1.5668e+08,2,5849,5928,15.16,3.46,30,78,0,0
3.5648e+05,1.5677e+08,2,5929,5985,15.14,3.45,30,78,0,0
3.5693e+05,1.5689e+08,2,5988,6257,15.14,4,30,78,0,0
3.5738e+05,1.57e+08,2,6256,6214,15.11,3.97,30,78,0,0
3.5783e+05,1.5711e+08,2,6233,6414,15.11,4.11,30,78,0,0
3.5828e+05,1.5722e+08,2,6414,6414,15.04,4.21,30,79,0,0
3.5872e+05,1.5733e+08,2,6416,6500,15.09,4.01,30,79,0,0
3.5916e+05,1.5743e+08,2,6493,6342,15.13,4.11,30,79,0,0
3.5961e+05,1.5755e+08,2,6343,6371,15.12,4.15,30,79,0,0
3.6006e+05,1.5765e+08,2,6359,6200,15,3.91,30,79,0,0
3.605e+05,1.5776e+08,2,6202,6228,15.06,3.94,30,79,0,0
3.6095e+05,1.5787e+08,2,6234,6328,15.1,3.96,30,79,0,0
3.6135e+05,1.5797e+08,2,6328,6328,15.08,4.18,30,79,0,0
3.618e+05,1.5808e+08,2,6326,6300,15.03,4.02,30,80,0,0
3.6225e+05,1.5819e+08,2,6271,5957,15.11,3.94,30,80,0,0
3.6266e+05,1.583e+08,2,5959,6071,15.08,3.52,30,80,0,0
3.6314e+05,1.5841e+08,2,6054,5871,15.11,3.29,30,80,0,0
3.6359e+05,1.5852e+08,2,5873,5900,15.06,3.95,30,80,0,0
3.6399e+05,1.5862e+08,2,5910,6114,15.06,3.83,30,80,0,0
3.6444e+05,1.5873e+08,2,6106,6042,15,3.93,30,80,0,0
3.6489e+05,1.5884e+08,2,6047,6100,15.07,3.87,30,80,0,0
3.6529e+05,1.5894e+08,2,6101,6142,15.05,4.13,30,81,0,0
3.6574e+05,1.5905e+08,2,6141,6128,15.1,3.89,30,81,0,0
3.6618e+05,1.5917e+08,2,6129,6142,15.11,3.93,30,81,0,0
3.6667e+05,1.5928e+08,2,6142,6142,15.15,3.6,30,81,0,0
3.6704e+05,1.5938e+08,2,6141,6114,14.97,4,30,81,0,0
3.6753e+05,1.5949e+08,2,6128,6314,15.04,4.23,30,81,0,0
3.6794e+05,1.596e+08,2,6305,6114,15.14,3.26,30,81,0,0
3.6842e+05,1.5971e+08,2,6094,5914,15.08,3.45,30,81,0,0
3.6883e+05,1.5981e+08,2,5913,5900,15.04,3.82,31,82,0,0
3.6928e+05,1.5993e+08,2,5913,6042,15.09,3.83,30,82,0,0
3.6973e+05,1.6004e+08,2,6036,5957,15.08,3.92,30,82,0,0
3.7018e+05,1.6015e+08,2,5980,6228,15.05,4.18,31,82,0,0
3.7066e+05,1.6026e+08,2,6221,6128,15.14,3.93,30,82,0,0
3.7151e+05,1.6047e+08,2,6127,6100,15,4.14,30,82,0,0
3.724e+05,1.6069e+08,2,6093,5785,15.14,2.94,30,82,0,0
3.7285e+05,1.608e+08,2,5771,5585,15.13,2.86,31,82,0,0
3.7329e+05,1.609e+08,2,5585,5585,15.15,2.92,31,83,0,0
3.737e+05,1.6101e+08,2,5584,5571,15.11,2.93,30,83,0,0
3.7464e+05,1.6124e+08,2,5568,5514,15.19,2.78,30,83,0,0
3.7504e+05,1.6134e+08,2,5514,5585,15.13,2.95,30,83,0,0
3.7524e+05,1.6145e+08,2,5595,5700,15.14,3.55,30,83,0,0
3.7564e+05,1.6156e+08,2,5695,5585,15.18,3.28,30,83,0,0
3.7609e+05,1.6167e+08,2,5600,5828,15.1,3.99,31,83,0,0
3.7654e+05,1.6178e+08,2,5828,5828,15.18,2.76,30,83,0,0
3.7699e+05,1.6189e+08,2,5803,5557,15.14,3.15,30,83,0,0
3.7739e+05,1.6199e+08,2,5567,5785,15.02,3.76,30,84,0,0
3.7824e+05,1.6221e+08,2,5790,6071,15.11,4.01,31,84,0,0
3.7869e+05,1.6232e+08,2,6074,6142,15.04,3.42,30,84,0,0
3.791e+05,1.6242e+08,2,6125,5900,15.09,3.58,30,84,0,0
3.7955e+05,1.6253e+08,2,5898,5885,15.16,3.38,31,84,0,0
3.7995e+05,1.6264e+08,2,5883,5785,15.15,3.12,30,84,0,0
3.8085e+05,1.6286e+08,2,5769,5442,15.16,2.87,31,84,0,0
3.8125e+05,1.6296e+08,2,5441,5400,15.13,2.79,31,84,0,0
3.8169e+05,1.6307e+08,2,5400,5428,15.13,2.8,31,85,0,0
3.8214e+05,1.6317e+08,2,5424,5271,15.15,2.7,30,85,0,0
3.8259e+05,1.6329e+08,2,5281,5428,15.14,2.87,30,85,0,0
3.8303e+05,1.634e+08,2,5409,5228,15.12,2.53,30,85,0,0
3.8344e+05,1.635e+08,2,5232,5542,15.1,3.19,30,85,0,0
3.8389e+05,1.6361e+08,2,5540,5457,15.2,2.91,30,85,0,0
3.8437e+05,1.6373e+08,2,5451,5400,15.13,3.35,31,85,0,0
3.8482e+05,1.6384e+08,2,5424,5657,15.05,2.95,30,85,0,0
3.8522e+05,1.6394e+08,2,5649,5500,15.1,2.8,31,85,0,0
3.8568e+05,1.6405e+08,2,5504,5571,15.11,3.16,30,85,0,0
3.8608e+05,1.6415e+08,2,5571,5600,15.06,3.45,31,85,0,0
3.8657e+05,1.6427e+08,2,5591,5471,15.14,3.02,31,86,0,0
3.8701e+05,1.6437e+08,2,5477,5542,15.17,3,31,86,0,0
3.8746e+05,1.6448e+08,2,5543,5571,15.16,3.05,31,86,0,0
3.879e+05,1.6459e+08,2,5576,5628,15.14,3.15,30,86,0,0
3.8835e+05,1.647e+08,2,5602,5357,15.13,2.6,31,86,0,0
3.8879e+05,1.6481e+08,2,5362,5414,15.11,2.94,31,86,0,0
3.892e+05,1.6491e+08,2,5426,5728,15.12,2.98,31,86,0,0
3.8964e+05,1.6502e+08,2,5709,5471,15.14,2.82,31,86,0,0
3.9005e+05,1.6512e+08,2,5484,5728,15.13,3.52,30,86,0,0
3.905e+05,1.6523e+08,2,5729,5785,15.16,3.22,31,86,0,0
3.9095e+05,1.6535e+08,2,5772,5614,15.19,3.17,30,86,0,0
3.914e+05,1.6546e+08,2,5614,5642,15.2,2.89,30,87,0,0
3.9188e+05,1.6558e+08,2,5645,5671,15.14,3.59,31,87,0,0
3.9229e+05,1.6568e+08,2,5668,5628,15.14,2.98,31,87,0,0
3.927e+05,1.6579e+08,2,5625,5457,15.1,3.1,30,87,0,0
3.9323e+05,1.6591e+08,2,5464,5542,15.13,3.23,31,87,0,0
3.9359e+05,1.66e+08,2,5540,5514,15.12,3.23,31,87,0,0
3.9407e+05,1.6611e+08,2,5522,5642,15.16,3.38,30,87,0,0
3.9452e+05,1.6622e+08,2,5643,5657,15.13,3.61,31,87,0,0
3.9542e+05,1.6644e+08,2,5654,5600,15.23,2.93,30,87,0,0
3.9581e+05,1.6654e+08,2,5593,5414,15.3,2.79,30,87,0,0
3.9627e+05,1.6665e+08,2,5414,5414,15.3,2.58,30,88,0,0
3.9674e+05,1.6676e+08,2,5422,5585,15.28,2.87,31,88,0,0
3.9763e+05,1.6698e+08,2,5575,5285,15.3,2.42,31,88,0,0
3.9808e+05,1.6709e+08,2,5256,4985,15.42,2.02,31,88,0,0
3.9852e+05,1.672e+08,2,4962,3985,15.55,1.01,30,88,0,0
3.9897e+05,1.6731e+08,2,3939,3071,15.61,0.29,31,88,0,0
3.9986e+05,1.6753e+08,2,3069,3000,15.6,0.53,31,88,0,0
4.003e+05,1.6764e+08,2,2997,2971,15.6,0.49,31,88,0,0
4.0071e+05,1.6774e+08,2,2969,2928,15.58,0.46,31,88,0,0
4.0116e+05,1.6785e+08,2,2926,2900,15.6,0.51,31,88,0,0
4.016e+05,1.6796e+08,2,2901,2914,15.6,0.49,31,88,0,0
4.0244e+05,1.6817e+08,2,2914,2942,15.61,0.44,30,88,0,0
4.0293e+05,1.6828e+08,2,2943,2957,15.6,0.51,31,88,0,0
4.0334e+05,1.6838e+08,2,2956,2942,15.61,0.47,31,88,0,0
4.0379e+05,1.6849e+08,2,2941,2914,15.61,0.46,31,88,0,0
4.0423e+05,1.686e+08,2,2909,2857,15.61,0.42,31,88,0,0
4.0472e+05,1.6871e+08,2,2842,2700,15.65,0.34,30,88,0,0
4.0512e+05,1.6881e+08,2,2696,2557,15.63,0.39,30,88,0,0
4.0606e+05,1.6904e+08,2,2543,2157,15.71,0.04,30,88,0,0
4.0651e+05,1.6915e+08,2,2107,1600,15.69,0,30,88,0,0
4.0695e+05,1.6925e+08,2,1588,1371,15.68,0.03,30,88,0,0
4.0737e+05,1.6936e+08,2,1369,1314,15.68,0.07,30,88,0,0
4.0786e+05,1.6947e+08,2,1313,1300,15.69,0.08,30,88,0,0
4.083e+05,1.6958e+08,2,1300,1300,15.69,0.08,30,88,0,0
4.0875e+05,1.6969e+08,2,1300,1300,15.69,0.09,30,88,0,0
4.0915e+05,1.6979e+08,2,1300,1300,15.69,0.08,30,88,0,0
4.096e+05,1.6989e+08,2,1300,1300,15.69,0.08,30,88,0,0
4.1001e+05,1.7e+08,2,1300,1300,15.7,0.08,30,88,0,0
4.1055e+05,1.7013e+08,2,1300,1300,15.69,0.09,30,88,0,0
4.1096e+05,1.7022e+08,2,1300,1300,15.7,0.08,30,88,0,0
4.1137e+05,1.7033e+08,2,1300,1300,15.69,0.08,30,88,0,0
4.1181e+05,1.7043e+08,2,1300,1300,15.7,0.08,30,88,0,0
4.1226e+05,1.7054e+08,2,1300,1300,15.7,0.09,30,88,0,0
4.1271e+05,1.7065e+08,2,1300,1300,15.72,0.09,30,88,0,0
4.1319e+05,1.7077e+08,2,1300,1300,15.7,0.08,30,88,0,0
4.1364e+05,1.7088e+08,2,1300,1300,15.71,0.09,30,88,0,0
4.1409e+05,1.7098e+08,2,1300,1300,15.72,0.09,30,88,0,0
4.1453e+05,1.7109e+08,2,1300,1300,15.72,0.09,30,88,0,0
4.1498e+05,1.712e+08,2,1300,1300,15.72,0.09,30,88,0,0
4.1547e+05,1.7131e+08,2,1300,1300,15.72,0.09,30,88,0,0
4.1587e+05,1.7141e+08,2,1300,1300,15.72,0.09,30,88,0,0
4.1636e+05,1.7153e+08,2,1298,1285,15.73,0.09,30,88,0,0
4.1681e+05,1.7164e+08,2,1285,1285,15.72,0.09,30,88,0,0
4.1722e+05,1.7173e+08,2,1285,1300,15.73,0.09,30,88,0,0
4.177e+05,1.7185e+08,2,1298,1285,15.73,0.09,30,88,0,0
4.1811e+05,1.7195e+08,2,1286,1300,15.73,0.09,30,88,0,0
4.1856e+05,1.7206e+08,2,1300,1300,15.72,0.09,30,88,0,0
4.19e+05,1.7217e+08,2,1300,1300,15.73,0.09,30,88,0,0
4.1945e+05,1.7227e+08,2,1300,1300,15.74,0.09,30,88,0,0
4.1989e+05,1.7238e+08,2,1300,1300,15.73,0.09,30,88,0,0
4.2035e+05,1.7249e+08,2,1300,1300,15.74,0.09,30,88,0,0
4.2079e+05,1.726e+08,2,1300,1300,15.74,0.09,30,88,0,0
4.2124e+05,1.7271e+08,2,1300,1300,15.74,0.08,30,88,0,0
4.2164e+05,1.7281e+08,2,1300,1300,15.75,0.08,30,88,0,0
4.2217e+05,1.7293e+08,2,1300,1300,15.74,0.09,30,88,0,0
4.2254e+05,1.7302e+08,2,1300,1300,15.75,0.09,30,88,0,0
4.2351e+05,1.7324e+08,2,1300,1300,15.75,0.09,30,88,0,0
4.2439e+05,1.7346e+08,2,1300,1300,15.75,0.09,30,88,0,0
4.2484e+05,1.7357e+08,2,1300,1300,15.76,0.08,30,88,0,0
4.2528e+05,1.7367e+08,2,1300,1300,15.76,0.09,30,88,0,0
4.2572e+05,1.7377e+08,2,1300,1300,15.76,0.09,30,88,0,0
4.2617e+05,1.7388e+08,2,1300,1300,15.76,0.09,30,88,0,0
4.2662e+05,1.7399e+08,2,1300,1300,15.76,0.08,30,88,0,0
4.2707e+05,1.7409e+08,2,1300,1314,15.76,0.08,30,88,0,0
4.2751e+05,1.742e+08,2,1313,1300,15.76,0.08,30,88,0,0
4.2796e+05,1.7431e+08,2,1300,1314,15.76,0.08,30,88,0,0
4.284e+05,1.7442e+08,2,1313,1300,15.76,0.09,30,88,0,0
4.2888e+05,1.7453e+08,2,1300,1300,15.77,0.09,30,88,0,0
4.2929e+05,1.7463e+08,2,1300,1300,15.77,0.09,30,88,0,0
4.2977e+05,1.7474e+08,2,1300,1300,15.77,0.09,30,88,0,0
4.3023e+05,1.7485e+08,2,1300,1300,15.77,0.09,30,88,0,0
4.3067e+05,1.7496e+08,2,1301,1314,15.76,0.09,30,88,0,0
4.3112e+05,1.7507e+08,2,1312,1300,15.77,0.09,30,88,0,0
4.316e+05,1.7518e+08,2,1300,1300,15.77,0.09,30,88,0,0
4.3206e+05,1.7529e+08,2,1300,1300,15.77,0.09,30,88,0,0
4.3246e+05,1.7538e+08,2,1300,1314,15.78,0.09,30,88,0,0
4.3291e+05,1.7549e+08,2,1313,1300,15.77,0.09,30,88,0,0
4.3336e+05,1.756e+08,2,1300,1300,15.78,0.09,30,88,0,0
4.338e+05,1.7571e+08,2,1300,1314,15.78,0.09,30,88,0,0
4.3429e+05,1.7582e+08,2,1312,1300,15.78,0.09,30,88,0,0
4.3473e+05,1.7593e+08,2,1300,1300,15.78,0.09,30,88,0,0
4.3518e+05,1.7604e+08,2,1300,1300,15.79,0.09,30,88,0,0
4.3559e+05,1.7614e+08,2,1300,1314,15.79,0.09,30,88,0,0
4.3604e+05,1.7625e+08,2,1313,1300,15.78,0.09,30,88,0,0
4.3649e+05,1.7635e+08,2,1300,1300,15.79,0.09,30,88,0,0
4.3697e+05,1.7647e+08,2,1300,1300,15.79,0.09,30,88,0,0
4.3741e+05,1.7658e+08,2,1300,1300,15.79,0.09,30,88,0,0
4.3786e+05,1.7669e+08,2,1300,1300,15.79,0.09,30,88,0,0
4.3831e+05,1.768e+08,2,1300,1300,15.79,0.09,30,88,0,0
4.3876e+05,1.769e+08,2,1300,1300,15.79,0.09,30,88,0,0
4.3917e+05,1.7701e+08,2,1300,1300,15.79,0.09,30,88,0,0
4.401e+05,1.7723e+08,2,1300,1300,15.79,0.09,30,88,0,0
4.4054e+05,1.7733e+08,2,1300,1300,15.79,0.09,30,88,0,0
4.4099e+05,1.7744e+08,2,1300,1300,15.79,0.09,30,88,0,0
4.4143e+05,1.7755e+08,2,1300,1300,15.79,0.09,30,88,0,0
4.4184e+05,1.7765e+08,2,1300,1300,15.8,0.09,30,88,0,0
4.4233e+05,1.7777e+08,2,1300,1300,15.8,0.09,30,88,0,0
4.4322e+05,1.7798e+08,2,1300,1314,15.8,0.09,30,88,0,0
4.4367e+05,1.7808e+08,2,1313,1300,15.79,0.09,30,88,0,0
4.4412e+05,1.782e+08,2,1300,1300,15.8,0.09,30,88,0,0
4.4457e+05,1.783e+08,2,1300,1300,15.8,0.09,30,88,0,0
4.4501e+05,1.7841e+08,2,1300,1300,15.8,0.09,30,88,0,0
4.4542e+05,1.7851e+08,2,1300,1314,15.8,0.09,30,88,0,0
4.4586e+05,1.7862e+08,2,1313,1300,15.81,0.09,30,88,0,0
4.463e+05,1.7872e+08,2,1300,1314,15.81,0.09,30,88,0,0
4.4675e+05,1.7882e+08,2,1313,1300,15.8,0.09,30,88,0,0
4.4724e+05,1.7894e+08,2,1300,1300,15.81,0.09,30,88,0,0
4.4768e+05,1.7905e+08,2,1300,1314,15.82,0.09,30,88,0,0
4.4813e+05,1.7915e+08,2,1251,400,15.82,0,30,88,0,0
4.4862e+05,1.7927e+08,2,380,171,15.82,0.01,30,88,0,0
4.4907e+05,1.7937e+08,2,160,0,15.83,0.02,30,88,0,0
4.4952e+05,1.7948e+08,2,0,0,15.83,0.02,30,88,0,0
4.4998e+05,1.7959e+08,2,0,0,15.83,0.02,30,88,0,0
4.5047e+05,1.797e+08,2,0,0,15.83,0.02,30,88,0,0
4.5093e+05,1.7981e+08,2,0,0,15.83,0.02,30,88,0,0
4.5138e+05,1.7992e+08,2,0,0,15.83,0.02,30,88,0,0
4.5183e+05,1.8003e+08,2,0,0,15.84,0.02,30,88,0,0
4.5228e+05,1.8013e+08,2,0,0,15.83,0.02,30,88,0,0
4.5277e+05,1.8025e+08,2,0,0,15.83,0.02,30,88,0,0
4.5322e+05,1.8036e+08,2,0,0,15.83,0.02,30,88,0,0
4.5368e+05,1.8046e+08,2,0,0,15.83,0.02,30,88,0,0
4.5413e+05,1.8057e+08,2,0,0,15.84,0.02,30,88,0,0
4.5458e+05,1.8068e+08,2,0,0,15.85,0.02,30,88,0,0
4.5503e+05,1.8079e+08,2,0,0,15.85,0.02,30,88,0,0
4.5549e+05,1.809e+08,2,0,0,15.84,0.02,30,88,0,0
4.5594e+05,1.8101e+08,2,0,0,15.85,0.02,30,88,0,0
4.5644e+05,1.8113e+08,2,0,0,15.84,0.02,30,88,0,0
4.5689e+05,1.8123e+08,2,0,0,15.84,0.02,30,88,0,0
4.5734e+05,1.8134e+08,2,0,0,15.84,0.02,30,88,0,0
4.5779e+05,1.8145e+08,2,0,0,15.84,0.02,30,88,0,0
4.5869e+05,1.8166e+08,2,0,0,15.84,0.02,30,88,0,0
4.5964e+05,1.8189e+08,2,0,0,15.85,0.02,30,88,0,0
4.6009e+05,1.8199e+08,2,0,0,15.85,0.02,30,88,0,0
4.6153e+05,1.8233e+08,2,0,0,15.85,0.03,30,88,0,0
4.6198e+05,1.8244e+08,2,0,0,15.85,0.02,30,88,0,0
4.6243e+05,1.8254e+08,2,0,0,15.85,0.02,30,88,0,0
4.6288e+05,1.8265e+08,2,0,0,15.85,0.02,30,88,0,0
