LineNo,TimeUS,Instance,RPM,RawRPM,Volt,Curr,Temp,CTot,MotTemp,Err
1607,6.9484e+07,3,0,0,16.44,0.04,28,0,0,0
2102,6.9602e+07,3,0,0,16.45,0.05,28,0,0,0
2550,6.9706e+07,3,0,0,16.44,0.04,28,0,0,0
3006,6.9809e+07,3,0,0,16.44,0.05,28,0,0,0
3537,6.9927e+07,3,0,0,16.44,0.04,28,0,0,0
3994,7.0033e+07,3,0,0,16.44,0.05,28,0,0,0
4452,7.0142e+07,3,0,0,16.44,0.05,28,0,0,0
4902,7.0243e+07,3,0,0,16.45,0.05,28,0,0,0
5358,7.0351e+07,3,0,0,16.45,0.05,28,0,0,0
5813,7.0454e+07,3,0,0,16.45,0.05,28,0,0,0
6308,7.0567e+07,3,0,0,16.45,0.05,28,0,0,0
6758,7.0669e+07,3,0,0,16.44,0.05,28,0,0,0
7254,7.0787e+07,3,0,0,16.44,0.05,28,0,0,0
7713,7.0891e+07,3,0,0,16.44,0.04,28,0,0,0
8128,7.0989e+07,3,3,200,16.44,0.06,28,0,0,0
9074,7.1207e+07,3,218,1028,16.39,0.17,28,0,0,0
9572,7.1319e+07,3,1047,1242,16.43,0.13,28,0,0,0
10022,7.1426e+07,3,1246,1300,16.43,0.11,28,0,0,0
10479,7.1534e+07,3,1301,1314,16.42,0.11,28,0,0,0
10930,7.1636e+07,3,1314,1328,16.42,0.11,28,0,0,0
11424,7.1753e+07,3,1328,1328,16.42,0.11,28,0,0,0
11877,7.1858e+07,3,1328,1328,16.42,0.11,28,0,0,0
12367,7.197e+07,3,1328,1342,16.42,0.11,28,0,0,0
12823,7.2077e+07,3,1342,1342,16.42,0.11,28,0,0,0
13277,7.2185e+07,3,1344,1371,16.4,0.15,28,0,0,0
13529,7.2298e+07,3,1397,1671,16.35,0.36,28,0,0,0
13935,7.2397e+07,3,1687,2600,16.05,1.37,28,0,0,0
14391,7.2503e+07,3,2631,3328,16.07,2.02,28,0,0,0
14836,7.2609e+07,3,3334,3742,15.8,3.04,28,0,0,0
15290,7.2718e+07,3,3752,4457,15.75,3.36,28,0,0,0
15783,7.2833e+07,3,4528,5500,15.53,4.26,28,0,0,0
16277,7.2947e+07,3,5541,5942,15.53,4.42,28,0,0,0
17140,7.3158e+07,3,5948,6114,15.58,3.38,28,0,0,0
17592,7.3262e+07,3,6101,5857,15.55,3.29,28,1,0,0
18049,7.3371e+07,3,5864,5957,15.58,3.07,28,1,0,0
18547,7.3486e+07,3,5936,5728,15.52,2.9,28,1,0,0
18953,7.3585e+07,3,5725,5528,15.58,2.47,28,1,0,0
19452,7.3702e+07,3,5511,5300,15.61,1.72,28,1,0,0
19897,7.3807e+07,3,5266,4828,15.58,1.64,28,1,0,0
20396,7.3925e+07,3,4840,4957,15.54,2.41,29,1,0,0
20847,7.403e+07,3,5002,5457,15.54,3.33,29,1,0,0
21259,7.4133e+07,3,5461,5714,15.54,3.13,28,1,0,0
21752,7.4245e+07,3,5707,5614,15.64,3.17,29,1,0,0
22203,7.4353e+07,3,5623,5757,15.63,2.86,29,1,0,0
22701,7.4469e+07,3,5761,5814,15.57,3.58,29,2,0,0
23604,7.4684e+07,3,5820,6000,15.58,3.47,29,2,0,0
24058,7.4802e+07,3,6008,6071,15.49,3.44,29,2,0,0
24503,7.4908e+07,3,6092,6257,15.57,3.65,29,2,0,0
24913,7.5006e+07,3,6253,6185,15.57,3.48,29,2,0,0
25362,7.5121e+07,3,6186,6200,15.59,3.42,29,2,0,0
25803,7.5233e+07,3,6176,5985,15.64,3.23,29,2,0,0
26216,7.5335e+07,3,5979,5900,15.54,3.05,29,2,0,0
26667,7.5443e+07,3,5887,5714,15.51,2.91,29,2,0,0
27110,7.5555e+07,3,5718,5771,15.55,3.2,29,3,0,0
27555,7.5664e+07,3,5807,6100,15.44,3.49,29,3,0,0
28003,7.5777e+07,3,6083,5971,15.46,3.67,29,3,0,0
28408,7.5872e+07,3,5973,6142,15.49,3.35,29,3,0,0
28860,7.5985e+07,3,6135,5971,15.49,3.02,29,3,0,0
29307,7.6097e+07,3,5964,5900,15.52,2.82,29,3,0,0
29711,7.6194e+07,3,5887,5600,15.61,2.55,29,3,0,0
30160,7.6306e+07,3,5601,5671,15.48,2.69,29,3,0,0
31499,7.6643e+07,3,5659,5271,15.61,2.36,29,3,0,0
31948,7.6755e+07,3,5272,5285,15.66,2.45,29,4,0,0
32357,7.6855e+07,3,5284,5271,15.67,2.25,29,4,0,0
32809,7.6966e+07,3,5271,5300,15.72,2.51,29,4,0,0
33294,7.7082e+07,3,5297,5271,15.75,2.22,29,4,0,0
34189,7.7303e+07,3,5262,5085,15.76,2.28,29,4,0,0
34636,7.7415e+07,3,5078,5014,15.76,1.97,29,4,0,0
35042,7.7514e+07,3,5014,5014,15.68,2.28,29,4,0,0
35962,7.7734e+07,3,5017,5142,15.69,2.36,29,4,0,0
36414,7.7844e+07,3,5139,5100,15.69,2.33,29,4,0,0
36825,7.7951e+07,3,5102,5142,15.76,2.3,29,4,0,0
37274,7.8057e+07,3,5139,5085,15.64,2.16,29,4,0,0
37714,7.8164e+07,3,5084,5057,15.67,2.22,29,4,0,0
38160,7.827e+07,3,5055,5028,15.6,2.33,29,4,0,0
38606,7.8382e+07,3,5034,5128,15.55,2.45,29,5,0,0
39054,7.8492e+07,3,5136,5257,15.58,2.35,29,5,0,0
39498,7.8601e+07,3,5254,5214,15.63,2.26,29,5,0,0
39906,7.8702e+07,3,5213,5200,15.56,2.41,29,5,0,0
40353,7.8815e+07,3,5198,5185,15.69,2.28,29,5,0,0
40791,7.8921e+07,3,5187,5214,15.67,2.16,29,5,0,0
41201,7.9022e+07,3,5213,5157,15.68,2.26,29,5,0,0
41688,7.914e+07,3,5157,5157,15.69,2.25,29,5,0,0
42143,7.9254e+07,3,5158,5185,15.67,2.48,29,5,0,0
42547,7.9359e+07,3,5178,5100,15.62,2.3,29,5,0,0
42999,7.9469e+07,3,5105,5242,15.61,2.2,29,5,0,0
43449,7.9583e+07,3,5224,5057,15.61,1.94,29,5,0,0
43896,7.9692e+07,3,5064,5142,15.56,2.02,29,5,0,0
44300,7.9795e+07,3,5127,4985,15.58,2.02,29,5,0,0
44749,7.99e+07,3,4974,4885,15.61,1.9,29,5,0,0
45149,8e+07,3,4891,5028,15.64,2.1,29,5,0,0
45602,8.0116e+07,3,5019,4942,15.66,2.15,29,6,0,0
46049,8.0224e+07,3,4961,5185,15.58,1.97,29,6,0,0
46501,8.0332e+07,3,5166,4985,15.69,1.93,29,6,0,0
46945,8.0444e+07,3,4971,4842,15.6,1.79,29,6,0,0
47349,8.0545e+07,3,4844,4900,15.63,1.92,29,6,0,0
47845,8.0666e+07,3,4903,4942,15.61,1.89,29,6,0,0
48244,8.0765e+07,3,4946,5042,15.59,2.09,29,6,0,0
48696,8.0876e+07,3,5035,4885,15.63,2.03,29,6,0,0
49143,8.0987e+07,3,4890,5014,15.57,2,29,6,0,0
49602,8.1098e+07,3,5014,5014,15.69,1.82,29,6,0,0
50051,8.1212e+07,3,4989,4742,15.66,1.44,29,6,0,0
50498,8.1324e+07,3,4742,4742,15.57,2.06,29,6,0,0
50946,8.1429e+07,3,4743,4757,15.6,2,29,6,0,0
51385,8.1535e+07,3,4759,4942,15.68,2.28,29,6,0,0
51830,8.1642e+07,3,4942,4957,15.63,1.96,29,6,0,0
52238,8.175e+07,3,4946,4814,15.69,1.57,29,6,0,0
52687,8.1857e+07,3,4804,4671,15.64,1.99,29,6,0,0
53135,8.1969e+07,3,4697,4957,15.54,2.09,29,7,0,0
53583,8.2077e+07,3,4943,4771,15.56,1.72,29,7,0,0
54027,8.2187e+07,3,4766,4685,15.6,1.86,29,7,0,0
54475,8.2296e+07,3,4663,4457,15.61,1.33,29,7,0,0
54923,8.2408e+07,3,4464,4542,15.6,1.96,29,7,0,0
55332,8.251e+07,3,4544,4714,15.61,2.05,29,7,0,0
55777,8.2619e+07,3,4721,4814,15.51,2.08,29,7,0,0
56188,8.2726e+07,3,4812,4785,15.61,2.21,29,7,0,0
56636,8.2835e+07,3,4791,4971,15.63,2.19,29,7,0,0
57084,8.2945e+07,3,4971,4971,15.58,2.17,29,7,0,0
57976,8.3165e+07,3,4985,5571,15.57,3.4,29,7,0,0
58425,8.3273e+07,3,5583,5885,15.56,3.16,29,7,0,0
58875,8.3386e+07,3,5853,5385,15.58,2.21,29,7,0,0
59282,8.3488e+07,3,5381,5228,15.6,1.94,29,7,0,0
59765,8.3604e+07,3,5210,5028,15.63,1.68,29,8,0,0
60169,8.3704e+07,3,5024,4828,15.57,1.82,29,8,0,0
60614,8.3813e+07,3,4825,4628,15.61,1.62,29,8,0,0
61066,8.3926e+07,3,4620,4457,15.49,1.7,29,8,0,0
61516,8.4036e+07,3,4459,4500,15.59,1.63,29,8,0,0
61922,8.414e+07,3,4499,4485,15.55,1.63,29,8,0,0
62412,8.4255e+07,3,4489,4614,15.57,1.75,29,8,0,0
62891,8.4366e+07,3,4623,4828,15.61,1.86,29,8,0,0
63342,8.4478e+07,3,4839,4985,15.61,2.25,29,8,0,0
64195,8.4691e+07,3,4985,5028,15.59,2.27,29,8,0,0
64637,8.4802e+07,3,5030,5157,15.57,2.29,29,8,0,0
65086,8.4908e+07,3,5160,5357,15.64,2.51,29,8,0,0
65530,8.5018e+07,3,5352,5271,15.54,2.72,29,8,0,0
65972,8.5129e+07,3,5277,5342,15.53,2.74,29,8,0,0
66453,8.5239e+07,3,5342,5342,15.52,2.57,29,8,0,0
66903,8.5349e+07,3,5350,5442,15.55,2.83,29,9,0,0
67310,8.5447e+07,3,5439,5300,15.55,2.58,29,9,0,0
67761,8.5564e+07,3,5312,5428,15.6,2.84,29,9,0,0
68210,8.567e+07,3,5430,5457,15.55,2.42,29,9,0,0
68608,8.5768e+07,3,5457,5485,15.51,2.61,29,9,0,0
69103,8.5889e+07,3,5466,5300,15.57,2.34,29,9,0,0
69511,8.5991e+07,3,5285,5142,15.54,1.77,29,9,0,0
69959,8.6096e+07,3,5135,4971,15.48,2.14,29,9,0,0
70443,8.6222e+07,3,4987,5128,15.44,2.65,29,9,0,0
70856,8.6319e+07,3,5133,5200,15.55,2.5,29,9,0,0
71305,8.6433e+07,3,5203,5242,15.56,2.28,29,9,0,0
72202,8.6656e+07,3,5241,5228,15.42,2.39,29,9,0,0
72644,8.6767e+07,3,5222,5171,15.59,2.44,29,9,0,0
73055,8.6863e+07,3,5172,5300,15.6,2.65,29,10,0,0
73504,8.6977e+07,3,5287,5128,15.56,2.28,29,10,0,0
73950,8.7088e+07,3,5134,5214,15.55,2.32,29,10,0,0
74359,8.7193e+07,3,5208,5114,15.52,2.34,29,10,0,0
75285,8.7412e+07,3,5118,5285,15.51,2.71,29,10,0,0
75731,8.7524e+07,3,5307,5485,15.58,2.86,29,10,0,0
76180,8.7632e+07,3,5496,5628,15.51,3.24,29,10,0,0
76622,8.774e+07,3,5643,5828,15.57,3.05,29,10,0,0
77072,8.7849e+07,3,5805,5585,15.51,2.87,29,10,0,0
77474,8.7951e+07,3,5586,5657,15.55,2.75,29,10,0,0
77969,8.8069e+07,3,5637,5428,15.58,2.29,29,10,0,0
78370,8.8167e+07,3,5409,5157,15.6,1.89,29,10,0,0
78817,8.8273e+07,3,5150,5014,15.52,2.01,29,11,0,0
79270,8.8387e+07,3,5004,4857,15.52,2,29,11,0,0
79717,8.8491e+07,3,4858,4900,15.55,1.76,29,11,0,0
80133,8.86e+07,3,4900,4914,15.42,2.5,29,11,0,0
80575,8.8708e+07,3,4918,4957,15.42,2.34,29,11,0,0
81025,8.8818e+07,3,4958,4971,15.47,2.28,29,11,0,0
81465,8.8917e+07,3,4973,5071,15.4,2.23,29,11,0,0
81909,8.9028e+07,3,5071,5085,15.46,2.27,29,11,0,0
82358,8.914e+07,3,5089,5185,15.48,2.56,29,11,0,0
82851,8.9257e+07,3,5196,5314,15.46,2.51,29,11,0,0
83254,8.9361e+07,3,5310,5100,15.55,2.34,29,11,0,0
84187,8.9588e+07,3,5106,5242,15.57,2.22,29,11,0,0
84636,8.9696e+07,3,5238,5185,15.54,2.59,29,11,0,0
85042,8.9798e+07,3,5192,5328,15.53,2.86,29,12,0,0
85494,8.9909e+07,3,5346,5600,15.48,3.1,29,12,0,0
85937,9.0017e+07,3,5605,5728,15.47,2.81,29,12,0,0
86384,9.0129e+07,3,5728,5771,15.41,3.11,29,12,0,0
86831,9.0237e+07,3,5765,5671,15.52,2.95,29,12,0,0
87282,9.0347e+07,3,5677,5771,15.45,3.02,30,12,0,0
87731,9.0454e+07,3,5764,5671,15.54,3.04,29,12,0,0
88184,9.0566e+07,3,5673,5728,15.5,2.99,29,12,0,0
88674,9.0684e+07,3,5725,5700,15.52,3.02,29,12,0,0
89571,9.0903e+07,3,5691,5514,15.51,2.98,29,12,0,0
90017,9.1013e+07,3,5515,5528,15.54,2.74,29,13,0,0
90466,9.1125e+07,3,5524,5500,15.52,2.61,29,13,0,0
90871,9.1221e+07,3,5500,5500,15.5,2.59,29,13,0,0
91366,9.1341e+07,3,5478,5257,15.52,2.06,29,13,0,0
91819,9.145e+07,3,5229,4928,15.61,1.34,29,13,0,0
92265,9.1561e+07,3,4916,4800,15.46,2.04,29,13,0,0
92675,9.1665e+07,3,4810,5014,15.54,2.61,29,13,0,0
93127,9.1782e+07,3,5007,4942,15.5,2.16,29,13,0,0
93615,9.19e+07,3,4923,4828,15.5,2.56,29,13,0,0
94018,9.1996e+07,3,4843,5185,15.32,2.93,30,13,0,0
94469,9.2107e+07,3,5217,5557,15.44,3.35,29,13,0,0
94874,9.2213e+07,3,5557,5557,15.42,2.69,29,13,0,0
95324,9.2323e+07,3,5562,5671,15.45,3.39,29,13,0,0
95770,9.2429e+07,3,5670,5614,15.55,2.6,29,14,0,0
96211,9.2542e+07,3,5613,5557,15.47,3.02,30,14,0,0
96663,9.2647e+07,3,5559,5728,15.49,3.08,30,14,0,0
97100,9.2759e+07,3,5727,5700,15.44,3.32,29,14,0,0
97554,9.2872e+07,3,5701,5714,15.52,2.77,30,14,0,0
98004,9.2984e+07,3,5700,5557,15.53,2.79,30,14,0,0
98449,9.3091e+07,3,5550,5485,15.58,2.37,29,14,0,0
98854,9.3191e+07,3,5483,5414,15.58,2.52,30,14,0,0
99307,9.3301e+07,3,5418,5471,15.54,2.64,30,14,0,0
99751,9.3415e+07,3,5457,5314,15.58,2.38,30,14,0,0
1.002e+05,9.3524e+07,3,5304,5228,15.69,1.98,29,14,0,0
1.0064e+05,9.363e+07,3,5229,5242,15.47,2.66,30,14,0,0
1.011e+05,9.3745e+07,3,5270,5571,15.51,3.2,30,15,0,0
1.0154e+05,9.3851e+07,3,5572,5614,15.49,3.06,30,15,0,0
1.0239e+05,9.406e+07,3,5617,5771,15.37,3.32,30,15,0,0
1.0284e+05,9.4175e+07,3,5771,5785,15.44,3.11,29,15,0,0
1.0329e+05,9.428e+07,3,5766,5471,15.45,2.71,30,15,0,0
1.0374e+05,9.4397e+07,3,5482,5657,15.39,3.33,30,15,0,0
1.0463e+05,9.4617e+07,3,5660,5742,15.42,3.1,30,15,0,0
1.0504e+05,9.4725e+07,3,5744,5771,15.43,3.3,30,15,0,0
1.0549e+05,9.4833e+07,3,5774,5814,15.37,3.14,30,15,0,0
1.0594e+05,9.4943e+07,3,5809,5757,15.44,3.16,30,16,0,0
1.0635e+05,9.5043e+07,3,5758,5785,15.47,3.16,30,16,0,0
1.0679e+05,9.5154e+07,3,5779,5671,15.44,2.61,30,16,0,0
1.0725e+05,9.5264e+07,3,5667,5614,15.41,3.08,30,16,0,0
1.0769e+05,9.5374e+07,3,5616,5657,15.45,2.89,30,16,0,0
1.0814e+05,9.5485e+07,3,5660,5700,15.49,2.78,29,16,0,0
1.0854e+05,9.5588e+07,3,5682,5457,15.48,2.63,30,16,0,0
1.09e+05,9.5698e+07,3,5469,5642,15.48,3.05,30,16,0,0
1.0944e+05,9.5809e+07,3,5625,5457,15.38,2.95,30,16,0,0
1.0985e+05,9.5914e+07,3,5457,5542,15.45,2.75,30,16,0,0
1.103e+05,9.602e+07,3,5547,5614,15.45,2.82,30,16,0,0
1.1075e+05,9.6133e+07,3,5608,5557,15.41,2.87,30,17,0,0
1.112e+05,9.6241e+07,3,5550,5485,15.39,2.67,30,17,0,0
1.116e+05,9.6344e+07,3,5482,5428,15.52,2.53,30,17,0,0
1.1205e+05,9.6451e+07,3,5427,5400,15.53,2.49,30,17,0,0
1.1249e+05,9.6559e+07,3,5398,5342,15.52,2.42,30,17,0,0
1.1294e+05,9.6673e+07,3,5339,5300,15.48,2.42,30,17,0,0
1.1339e+05,9.6782e+07,3,5303,5342,15.52,2.42,30,17,0,0
1.1384e+05,9.6891e+07,3,5350,5471,15.5,2.83,30,17,0,0
1.1425e+05,9.6996e+07,3,5469,5342,15.46,2.68,30,17,0,0
1.147e+05,9.7104e+07,3,5348,5457,15.46,2.52,30,17,0,0
1.1514e+05,9.7214e+07,3,5460,5542,15.45,2.62,30,17,0,0
1.1558e+05,9.7324e+07,3,5538,5471,15.46,2.37,30,17,0,0
1.1603e+05,9.7433e+07,3,5449,5142,15.54,1.99,30,18,0,0
1.1648e+05,9.7545e+07,3,5129,4971,15.41,2.21,30,18,0,0
1.1693e+05,9.7655e+07,3,4980,5071,15.42,2.25,30,18,0,0
1.1733e+05,9.7759e+07,3,5070,5014,15.38,2.4,30,18,0,0
1.1778e+05,9.7864e+07,3,5014,5042,15.45,2.38,30,18,0,0
1.1827e+05,9.7984e+07,3,5044,5071,15.49,2.31,30,18,0,0
1.1872e+05,9.8094e+07,3,5071,5085,15.37,2.52,30,18,0,0
1.1911e+05,9.8194e+07,3,5086,5171,15.38,2.39,30,18,0,0
1.1961e+05,9.8311e+07,3,5171,5185,15.51,2.33,30,18,0,0
1.2005e+05,9.8423e+07,3,5171,4971,15.44,2.29,30,18,0,0
1.205e+05,9.8535e+07,3,4981,5085,15.36,2.88,30,18,0,0
1.209e+05,9.8632e+07,3,5091,5228,15.48,2.47,30,18,0,0
1.2139e+05,9.875e+07,3,5230,5271,15.45,2.59,30,18,0,0
1.2184e+05,9.8858e+07,3,5272,5300,15.45,2.53,30,18,0,0
1.2224e+05,9.896e+07,3,5296,5228,15.5,2.45,30,18,0,0
1.2269e+05,9.9069e+07,3,5227,5214,15.41,2.4,30,19,0,0
1.2312e+05,9.9173e+07,3,5215,5271,15.38,2.43,30,19,0,0
1.2358e+05,9.9287e+07,3,5266,5142,15.47,2.26,30,19,0,0
1.2402e+05,9.9397e+07,3,5146,5185,15.42,2.29,30,19,0,0
1.2447e+05,9.9508e+07,3,5182,5157,15.45,2.26,30,19,0,0
1.2486e+05,9.9605e+07,3,5158,5214,15.46,2.23,30,19,0,0
1.2532e+05,9.9724e+07,3,5204,5114,15.43,2.5,30,19,0,0
1.2572e+05,9.9822e+07,3,5114,5157,15.5,2.01,30,19,0,0
1.2618e+05,9.9936e+07,3,5158,5185,15.45,2.27,30,19,0,0
1.2664e+05,1.0005e+08,3,5170,5028,15.44,1.93,30,19,0,0
1.2708e+05,1.0016e+08,3,5029,5042,15.42,2.17,30,19,0,0
1.2754e+05,1.0027e+08,3,5048,5114,15.47,2.11,30,19,0,0
1.2794e+05,1.0037e+08,3,5116,5142,15.44,2.27,30,19,0,0
1.2839e+05,1.0048e+08,3,5144,5214,15.46,2.09,30,19,0,0
1.2883e+05,1.0059e+08,3,5210,5157,15.41,2.16,30,19,0,0
1.2924e+05,1.0069e+08,3,5158,5214,15.41,2.02,30,20,0,0
1.2969e+05,1.008e+08,3,5194,4985,15.39,2.09,30,20,0,0
1.301e+05,1.009e+08,3,4983,4900,15.46,1.69,30,20,0,0
1.3058e+05,1.0102e+08,3,4903,4942,15.49,1.75,30,20,0,0
1.3103e+05,1.0113e+08,3,4932,4800,15.45,1.75,30,20,0,0
1.3149e+05,1.0124e+08,3,4802,4828,15.4,1.96,30,20,0,0
1.3238e+05,1.0146e+08,3,4833,5000,15.46,2.01,30,20,0,0
1.3278e+05,1.0157e+08,3,5001,5042,15.49,2.26,30,20,0,0
1.3323e+05,1.0167e+08,3,5043,5114,15.45,2.09,30,20,0,0
1.3368e+05,1.0178e+08,3,5114,5128,15.42,2.21,30,20,0,0
1.3412e+05,1.0189e+08,3,5130,5200,15.44,2.06,30,20,0,0
1.3461e+05,1.02e+08,3,5198,5185,15.41,2.15,30,20,0,0
1.3547e+05,1.0222e+08,3,5180,5057,15.44,1.76,30,20,0,0
1.3592e+05,1.0233e+08,3,5048,4928,15.44,1.74,30,20,0,0
1.3636e+05,1.0244e+08,3,4927,4914,15.39,1.82,30,20,0,0
1.3681e+05,1.0255e+08,3,4910,4885,15.41,1.91,29,21,0,0
1.3726e+05,1.0266e+08,3,4890,4957,15.4,1.9,30,21,0,0
1.3767e+05,1.0277e+08,3,4944,4842,15.44,2.1,30,21,0,0
1.3856e+05,1.0299e+08,3,4846,4942,15.41,1.9,29,21,0,0
1.3901e+05,1.031e+08,3,4945,4971,15.42,2.2,30,21,0,0
1.3941e+05,1.0319e+08,3,4973,5100,15.47,2.26,30,21,0,0
1.3986e+05,1.033e+08,3,5098,5014,15.4,2.03,29,21,0,0
1.4034e+05,1.0342e+08,3,5018,5071,15.35,2.17,29,21,0,0
1.4075e+05,1.0353e+08,3,5073,5114,15.41,2.04,29,21,0,0
1.412e+05,1.0363e+08,3,5114,5114,15.45,2.09,30,21,0,0
1.4169e+05,1.0375e+08,3,5115,5128,15.42,2.25,30,21,0,0
1.4209e+05,1.0385e+08,3,5128,5157,15.35,2.3,29,21,0,0
1.4299e+05,1.0407e+08,3,5164,5328,15.36,2.41,29,21,0,0
1.4343e+05,1.0417e+08,3,5326,5242,15.45,2.31,30,22,0,0
1.4388e+05,1.0428e+08,3,5241,5228,15.4,2.29,30,22,0,0
1.4429e+05,1.0439e+08,3,5233,5285,15.37,2.41,30,22,0,0
1.4469e+05,1.0449e+08,3,5284,5214,15.44,2.19,29,22,0,0
1.4518e+05,1.0461e+08,3,5224,5328,15.39,2.37,29,22,0,0
1.4566e+05,1.0472e+08,3,5311,5171,15.42,2.33,29,22,0,0
1.4651e+05,1.0493e+08,3,5171,5171,15.35,2.22,30,22,0,0
1.4692e+05,1.0504e+08,3,5170,5142,15.4,2.13,30,22,0,0
1.4741e+05,1.0516e+08,3,5136,5071,15.41,2.2,29,22,0,0
1.4781e+05,1.0525e+08,3,5070,5000,15.39,2.18,29,22,0,0
1.4826e+05,1.0537e+08,3,5017,5171,15.41,2.28,30,22,0,0
1.4871e+05,1.0547e+08,3,5164,5100,15.37,2.48,29,22,0,0
1.4916e+05,1.0558e+08,3,5125,5342,15.32,2.79,29,22,0,0
1.4997e+05,1.0579e+08,3,5341,5314,15.39,2.59,30,23,0,0
1.5135e+05,1.0612e+08,3,5312,5228,15.36,1.87,29,23,0,0
1.518e+05,1.0623e+08,3,5218,5085,15.33,2.39,29,23,0,0
1.5311e+05,1.0656e+08,3,5085,5142,15.36,2.48,29,23,0,0
1.536e+05,1.0667e+08,3,5143,5171,15.35,2.38,29,23,0,0
1.5404e+05,1.0678e+08,3,5179,5300,15.35,2.61,30,23,0,0
1.5448e+05,1.0689e+08,3,5303,5385,15.29,2.62,29,23,0,0
1.5493e+05,1.07e+08,3,5383,5371,15.29,2.81,29,23,0,0
1.5534e+05,1.071e+08,3,5370,5357,15.29,2.83,29,23,0,0
1.5582e+05,1.0722e+08,3,5362,5442,15.28,2.59,29,24,0,0
1.5672e+05,1.0744e+08,3,5434,5271,15.35,2.37,29,24,0,0
1.5712e+05,1.0754e+08,3,5269,5200,15.48,2.13,29,24,0,0
1.5761e+05,1.0766e+08,3,5191,5085,15.41,2.13,30,24,0,0
1.5806e+05,1.0777e+08,3,5074,4971,15.36,1.96,29,24,0,0
1.5846e+05,1.0787e+08,3,4965,4842,15.35,1.98,29,24,0,0
1.5937e+05,1.081e+08,3,4847,5000,15.39,2.07,29,24,0,0
1.5976e+05,1.082e+08,3,4998,4942,15.39,2.03,29,24,0,0
1.6022e+05,1.0831e+08,3,4945,4971,15.42,1.98,29,24,0,0
1.6063e+05,1.0842e+08,3,4974,5028,15.46,2.32,29,24,0,0
1.6108e+05,1.0853e+08,3,5028,5028,15.33,2.4,29,24,0,0
1.6149e+05,1.0863e+08,3,5032,5314,15.26,2.7,30,24,0,0
1.6196e+05,1.0874e+08,3,5311,5285,15.38,2.44,29,24,0,0
1.6241e+05,1.0885e+08,3,5289,5357,15.36,2.71,29,25,0,0
1.6281e+05,1.0895e+08,3,5358,5442,15.36,2.81,29,25,0,0
1.6331e+05,1.0907e+08,3,5414,5142,15.33,1.88,29,25,0,0
1.6371e+05,1.0917e+08,3,5143,5185,15.32,2.04,29,25,0,0
1.6416e+05,1.0928e+08,3,5176,4985,15.35,2.05,29,25,0,0
1.6462e+05,1.0939e+08,3,4987,5014,15.39,2.02,29,25,0,0
1.6502e+05,1.0949e+08,3,5013,4985,15.36,1.91,29,25,0,0
1.6551e+05,1.0961e+08,3,4987,5014,15.36,2,29,25,0,0
1.6592e+05,1.0971e+08,3,5014,5014,15.39,2.11,29,25,0,0
1.6636e+05,1.0982e+08,3,5015,5085,15.32,2.05,29,25,0,0
1.668e+05,1.0993e+08,3,5077,4928,15.27,2.12,29,25,0,0
1.6766e+05,1.1015e+08,3,4935,5257,15.35,2.24,29,25,0,0
1.6811e+05,1.1025e+08,3,5257,5271,15.26,2.19,29,25,0,0
1.6855e+05,1.1036e+08,3,5265,5157,15.3,2.21,29,25,0,0
1.69e+05,1.1048e+08,3,5152,5042,15.29,1.99,29,26,0,0
1.6948e+05,1.1059e+08,3,5043,5071,15.3,2.33,29,26,0,0
1.6994e+05,1.107e+08,3,5087,5257,15.3,2.62,29,26,0,0
1.7038e+05,1.1081e+08,3,5267,5371,15.25,2.84,29,26,0,0
1.7078e+05,1.1091e+08,3,5371,5385,15.31,2.79,29,26,0,0
1.7123e+05,1.1102e+08,3,5392,5585,15.25,2.79,29,26,0,0
1.7172e+05,1.1113e+08,3,5556,5314,15.22,2.36,29,26,0,0
1.7212e+05,1.1123e+08,3,5309,5200,15.22,2.23,29,26,0,0
1.7256e+05,1.1134e+08,3,5185,5042,15.33,2.01,29,26,0,0
1.7301e+05,1.1145e+08,3,5031,4928,15.29,1.93,29,26,0,0
1.7342e+05,1.1155e+08,3,4929,5028,15.38,2.2,29,26,0,0
1.7387e+05,1.1166e+08,3,5021,4885,15.28,1.99,29,26,0,0
1.7431e+05,1.1177e+08,3,4875,4785,15.36,1.93,29,26,0,0
1.7476e+05,1.1187e+08,3,4796,4957,15.2,2.39,29,26,0,0
1.752e+05,1.1199e+08,3,4968,5242,15.29,2.59,29,27,0,0
1.7565e+05,1.1209e+08,3,5246,5300,15.35,2.82,29,27,0,0
1.7651e+05,1.1231e+08,3,5312,5542,15.35,2.66,29,27,0,0
1.7695e+05,1.1242e+08,3,5536,5485,15.31,2.65,29,27,0,0
1.7736e+05,1.1251e+08,3,5483,5385,15.36,2.62,29,27,0,0
1.778e+05,1.1262e+08,3,5382,5328,15.36,2.5,29,27,0,0
1.7828e+05,1.1274e+08,3,5328,5328,15.3,2.64,29,27,0,0
1.7874e+05,1.1285e+08,3,5331,5385,15.32,2.71,29,27,0,0
1.7918e+05,1.1296e+08,3,5383,5371,15.28,2.81,29,27,0,0
1.7963e+05,1.1307e+08,3,5355,5214,15.26,2.59,29,27,0,0
1.8007e+05,1.1318e+08,3,5214,5214,15.28,2.51,29,27,0,0
1.8052e+05,1.1328e+08,3,5227,5357,15.41,2.62,29,27,0,0
1.8092e+05,1.1339e+08,3,5354,5314,15.36,2.36,29,28,0,0
1.8138e+05,1.135e+08,3,5309,5242,15.21,2.49,29,28,0,0
1.8182e+05,1.1362e+08,3,5227,5085,15.4,2.36,29,28,0,0
1.8223e+05,1.1372e+08,3,5085,5100,15.36,2.36,29,28,0,0
1.8271e+05,1.1383e+08,3,5104,5171,15.32,2.28,29,28,0,0
1.8315e+05,1.1395e+08,3,5172,5185,15.33,2.46,29,28,0,0
1.8356e+05,1.1404e+08,3,5191,5328,15.36,2.3,29,28,0,0
1.8401e+05,1.1416e+08,3,5320,5228,15.33,2.26,29,28,0,0
1.8446e+05,1.1427e+08,3,5216,5114,15.33,2.52,29,28,0,0
1.849e+05,1.1438e+08,3,5116,5171,15.38,2.31,29,28,0,0
1.8535e+05,1.1449e+08,3,5180,5271,15.35,2.56,29,28,0,0
1.8579e+05,1.146e+08,3,5271,5271,15.27,2.59,29,28,0,0
1.8625e+05,1.1471e+08,3,5280,5385,15.36,2.71,29,28,0,0
1.8668e+05,1.1482e+08,3,5368,5242,15.25,2.61,29,28,0,0
1.8713e+05,1.1493e+08,3,5254,5371,15.3,2.6,29,29,0,0
1.8754e+05,1.1502e+08,3,5370,5357,15.29,2.74,29,29,0,0
1.8798e+05,1.1514e+08,3,5360,5428,15.33,3.04,29,29,0,0
1.8848e+05,1.1525e+08,3,5434,5514,15.33,3.03,29,29,0,0
1.8887e+05,1.1536e+08,3,5508,5442,15.35,2.69,29,29,0,0
1.8928e+05,1.1546e+08,3,5445,5628,15.28,3.2,29,29,0,0
1.8977e+05,1.1558e+08,3,5630,5771,15.25,3.14,29,29,0,0
1.9022e+05,1.1569e+08,3,5771,5771,15.23,3.18,29,29,0,0
1.9066e+05,1.1579e+08,3,5767,5728,15.26,3.08,29,29,0,0
1.9111e+05,1.1591e+08,3,5730,5757,15.25,2.85,29,29,0,0
1.9156e+05,1.1601e+08,3,5744,5585,15.32,2.76,29,29,0,0
1.9197e+05,1.1611e+08,3,5583,5485,15.25,2.89,29,30,0,0
1.9241e+05,1.1622e+08,3,5483,5414,15.23,2.76,29,30,0,0
1.929e+05,1.1634e+08,3,5423,5542,15.27,2.65,29,30,0,0
1.9334e+05,1.1645e+08,3,5539,5500,15.28,2.57,29,30,0,0
1.9379e+05,1.1656e+08,3,5495,5428,15.23,2.62,29,30,0,0
1.9424e+05,1.1667e+08,3,5418,5300,15.22,2.32,29,30,0,0
1.9468e+05,1.1678e+08,3,5321,5485,15.26,2.55,29,30,0,0
1.9509e+05,1.1688e+08,3,5478,5228,15.26,2.19,29,30,0,0
1.9553e+05,1.1699e+08,3,5219,5042,15.27,1.97,29,30,0,0
1.9599e+05,1.171e+08,3,5020,4714,15.2,1.6,29,30,0,0
1.964e+05,1.1721e+08,3,4706,4571,15.32,1.96,29,30,0,0
1.9684e+05,1.1733e+08,3,4571,4571,15.33,1.99,29,30,0,0
1.9726e+05,1.1743e+08,3,4593,4900,15.19,2.64,29,30,0,0
1.9766e+05,1.1753e+08,3,4909,5100,15.28,2.48,29,30,0,0
1.9811e+05,1.1764e+08,3,5108,5285,15.3,2.61,29,31,0,0
1.9855e+05,1.1775e+08,3,5279,5228,15.35,2.5,29,31,0,0
1.99e+05,1.1786e+08,3,5235,5314,15.32,2.43,29,31,0,0
1.9943e+05,1.1796e+08,3,5312,5271,15.29,2.57,29,31,0,0
1.9993e+05,1.1809e+08,3,5285,5428,15.36,2.53,29,31,0,0
2.0033e+05,1.1818e+08,3,5429,5485,15.34,2.8,29,31,0,0
2.0077e+05,1.1829e+08,3,5485,5500,15.32,2.99,29,31,0,0
2.0122e+05,1.184e+08,3,5504,5571,15.26,3.21,29,31,0,0
2.0166e+05,1.1851e+08,3,5587,5757,15.26,3.28,29,31,0,0
2.0211e+05,1.1862e+08,3,5751,5671,15.19,2.88,29,31,0,0
2.0255e+05,1.1873e+08,3,5662,5600,15.3,2.65,29,31,0,0
2.0296e+05,1.1883e+08,3,5600,5600,15.3,2.66,29,31,0,0
2.0341e+05,1.1894e+08,3,5583,5357,15.27,2.66,29,32,0,0
2.0386e+05,1.1905e+08,3,5357,5400,15.27,2.56,29,32,0,0
2.043e+05,1.1916e+08,3,5392,5228,15.26,2.28,29,32,0,0
2.0475e+05,1.1927e+08,3,5228,5228,15.3,2.34,29,32,0,0
2.0609e+05,1.196e+08,3,5236,5642,15.22,3.22,30,32,0,0
2.0697e+05,1.1982e+08,3,5637,5542,15.19,3.02,29,32,0,0
2.0741e+05,1.1992e+08,3,5547,5657,15.18,3.13,29,32,0,0
2.0786e+05,1.2003e+08,3,5659,5742,15.2,3.24,30,32,0,0
2.0875e+05,1.2025e+08,3,5736,5528,15.23,2.77,29,33,0,0
2.092e+05,1.2036e+08,3,5529,5542,15.25,2.77,29,33,0,0
2.0961e+05,1.2046e+08,3,5537,5442,15.27,2.51,29,33,0,0
2.1005e+05,1.2057e+08,3,5436,5357,15.26,2.62,29,33,0,0
2.105e+05,1.2068e+08,3,5358,5385,15.25,2.94,29,33,0,0
2.1095e+05,1.2079e+08,3,5397,5528,15.27,2.89,29,33,0,0
2.114e+05,1.209e+08,3,5532,5585,15.19,3.09,29,33,0,0
2.1184e+05,1.2101e+08,3,5589,5628,15.25,3.21,29,33,0,0
2.1229e+05,1.2112e+08,3,5624,5585,15.15,3.01,29,33,0,0
2.1314e+05,1.2133e+08,3,5584,5557,15.31,2.75,29,33,0,0
2.1403e+05,1.2156e+08,3,5557,5585,15.22,2.9,29,34,0,0
2.1448e+05,1.2167e+08,3,5586,5600,15.26,2.9,29,34,0,0
2.1492e+05,1.2178e+08,3,5604,5671,15.26,2.85,30,34,0,0
2.1581e+05,1.22e+08,3,5661,5457,15.26,2.83,29,34,0,0
2.1622e+05,1.2209e+08,3,5458,5528,15.23,2.82,29,34,0,0
2.1666e+05,1.2221e+08,3,5532,5614,15.29,2.67,30,34,0,0
2.1711e+05,1.2232e+08,3,5607,5514,15.16,3.07,29,34,0,0
2.1756e+05,1.2242e+08,3,5532,5714,15.22,3.17,30,34,0,0
2.18e+05,1.2253e+08,3,5724,5828,15.24,3.39,29,34,0,0
2.1845e+05,1.2264e+08,3,5824,5785,15.23,3.24,29,35,0,0
2.1885e+05,1.2275e+08,3,5784,5771,15.23,3.04,29,35,0,0
2.1931e+05,1.2286e+08,3,5764,5671,15.27,3,29,35,0,0
2.1975e+05,1.2297e+08,3,5671,5671,15.21,3.17,29,35,0,0
2.202e+05,1.2308e+08,3,5677,5742,15.26,3.15,29,35,0,0
2.2064e+05,1.2318e+08,3,5737,5671,15.3,3.27,29,35,0,0
2.2108e+05,1.2329e+08,3,5680,5800,15.29,3.25,29,35,0,0
2.2153e+05,1.234e+08,3,5806,5885,15.33,3.15,29,35,0,0
2.2201e+05,1.2352e+08,3,5866,5771,15.31,3.11,29,35,0,0
2.2242e+05,1.2362e+08,3,5760,5614,15.31,2.83,29,35,0,0
2.2286e+05,1.2373e+08,3,5604,5500,15.28,2.61,29,35,0,0
2.2331e+05,1.2384e+08,3,5482,5314,15.26,2.34,30,36,0,0
2.242e+05,1.2406e+08,3,5313,5300,15.32,2.39,29,36,0,0
2.2465e+05,1.2418e+08,3,5293,5228,15.26,2.48,30,36,0,0
2.251e+05,1.2429e+08,3,5212,5114,15.25,2.16,29,36,0,0
2.2551e+05,1.244e+08,3,5117,5157,15.27,2.53,29,36,0,0
2.2599e+05,1.2451e+08,3,5157,5157,15.29,2.13,29,36,0,0
2.264e+05,1.2461e+08,3,5153,5128,15.29,2.06,29,36,0,0
2.2728e+05,1.2482e+08,3,5123,5042,15.19,1.98,29,36,0,0
2.2773e+05,1.2493e+08,3,5033,4957,15.24,1.87,29,36,0,0
2.2814e+05,1.2503e+08,3,4958,5042,15.28,1.9,29,36,0,0
2.2858e+05,1.2514e+08,3,5043,5071,15.26,2.27,29,36,0,0
2.2908e+05,1.2526e+08,3,5072,5157,15.28,2.42,29,36,0,0
2.2992e+05,1.2547e+08,3,5157,5157,15.36,2.11,29,37,0,0
2.3033e+05,1.2558e+08,3,5163,5285,15.32,2.22,29,37,0,0
2.3078e+05,1.2568e+08,3,5280,5000,15.3,1.94,29,37,0,0
2.3171e+05,1.2592e+08,3,4997,4957,15.31,1.84,29,37,0,0
2.3212e+05,1.2602e+08,3,4959,4985,15.29,1.84,29,37,0,0
2.3304e+05,1.2624e+08,3,4977,4785,15.34,1.74,29,37,0,0
2.339e+05,1.2645e+08,3,4784,4757,15.31,1.56,29,37,0,0
2.3434e+05,1.2656e+08,3,4757,4828,15.26,1.81,29,37,0,0
2.3523e+05,1.2679e+08,3,4833,5000,15.31,2.05,29,37,0,0
2.3567e+05,1.269e+08,3,4999,4971,15.29,1.66,29,37,0,0
2.3613e+05,1.2701e+08,3,4968,4928,15.29,1.84,29,37,0,0
2.3662e+05,1.2713e+08,3,4936,5028,15.3,2.12,29,37,0,0
2.3702e+05,1.2723e+08,3,5032,5128,15.29,2.23,29,38,0,0
2.3747e+05,1.2735e+08,3,5137,5271,15.23,2.39,29,38,0,0
2.3788e+05,1.2745e+08,3,5271,5271,15.3,2.28,29,38,0,0
2.3836e+05,1.2756e+08,3,5263,5185,15.32,2.29,30,38,0,0
2.3881e+05,1.2767e+08,3,5194,5285,15.26,2.17,29,38,0,0
2.3921e+05,1.2778e+08,3,5274,5142,15.33,2.38,29,38,0,0
2.3966e+05,1.2789e+08,3,5151,5285,15.33,2.35,29,38,0,0
2.4006e+05,1.2799e+08,3,5278,5128,15.23,2.37,29,38,0,0
2.4051e+05,1.281e+08,3,5127,5114,15.33,2.34,29,38,0,0
2.4096e+05,1.2821e+08,3,5118,5185,15.28,2.45,30,38,0,0
2.414e+05,1.2831e+08,3,5186,5271,15.28,2.61,29,38,0,0
2.4181e+05,1.2842e+08,3,5270,5242,15.2,2.52,29,38,0,0
2.4226e+05,1.2853e+08,3,5246,5342,15.23,2.99,29,38,0,0
2.4275e+05,1.2865e+08,3,5344,5371,15.26,2.71,29,38,0,0
2.4315e+05,1.2875e+08,3,5373,5428,15.23,2.65,29,39,0,0
2.436e+05,1.2886e+08,3,5427,5385,15.3,2.75,29,39,0,0
2.4404e+05,1.2896e+08,3,5386,5442,15.2,2.88,29,39,0,0
2.445e+05,1.2908e+08,3,5439,5400,15.19,2.91,29,39,0,0
2.4513e+05,1.293e+08,3,5457,5314,15.29,2.45,29,39,0,0
2.4553e+05,1.294e+08,3,5312,5214,15.22,2.47,29,39,0,0
2.4597e+05,1.2951e+08,3,5216,5300,15.27,2.42,29,39,0,0
2.4638e+05,1.2961e+08,3,5300,5300,15.16,2.75,29,39,0,0
2.4683e+05,1.2973e+08,3,5290,5200,15.29,2.25,29,39,0,0
2.4728e+05,1.2984e+08,3,5193,5100,15.25,1.86,29,39,0,0
2.4767e+05,1.2993e+08,3,5096,4928,15.25,1.91,29,39,0,0
2.4817e+05,1.3006e+08,3,4924,4885,15.23,2.01,29,40,0,0
2.4862e+05,1.3017e+08,3,4883,4871,15.1,2.17,29,40,0,0
2.4903e+05,1.3027e+08,3,4877,5042,15.19,2.39,29,40,0,0
2.4947e+05,1.3037e+08,3,5043,5071,15.24,2.27,29,40,0,0
2.4996e+05,1.3049e+08,3,5082,5200,15.11,2.76,29,40,0,0
2.5037e+05,1.306e+08,3,5210,5314,15.17,2.67,29,40,0,0
2.5077e+05,1.307e+08,3,5318,5442,15.22,2.53,29,40,0,0
2.5121e+05,1.3081e+08,3,5434,5300,15.18,2.71,29,40,0,0
2.5166e+05,1.3092e+08,3,5307,5385,15.19,2.45,29,40,0,0
2.5212e+05,1.3103e+08,3,5374,5257,15.25,2.53,29,40,0,0
2.5248e+05,1.3113e+08,3,5259,5314,15.28,2.55,29,40,0,0
2.5293e+05,1.3124e+08,3,5315,5342,15.2,2.57,29,40,0,0
2.5338e+05,1.3135e+08,3,5343,5357,15.19,2.67,29,40,0,0
2.5382e+05,1.3146e+08,3,5373,5600,15.15,3.02,29,41,0,0
2.5427e+05,1.3157e+08,3,5605,5757,15.17,3.16,29,41,0,0
2.5472e+05,1.3168e+08,3,5753,5714,15.25,3.06,29,41,0,0
2.5516e+05,1.3179e+08,3,5701,5528,15.31,2.46,29,41,0,0
2.5561e+05,1.319e+08,3,5528,5528,15.3,3.05,29,41,0,0
2.5605e+05,1.3201e+08,3,5539,5657,15.26,2.78,29,41,0,0
2.565e+05,1.3212e+08,3,5644,5528,15.28,2.98,29,41,0,0
2.5694e+05,1.3223e+08,3,5521,5457,15.2,2.99,29,41,0,0
2.5734e+05,1.3233e+08,3,5461,5742,15.16,3.14,29,41,0,0
2.5779e+05,1.3243e+08,3,5747,5857,15.21,3.07,29,41,0,0
2.5823e+05,1.3254e+08,3,5855,5728,15.27,3,29,41,0,0
2.5868e+05,1.3265e+08,3,5726,5714,15.2,2.98,29,42,0,0
2.5913e+05,1.3276e+08,3,5720,5785,15.2,3.09,29,42,0,0
2.5957e+05,1.3287e+08,3,5781,5742,15.2,3.04,29,42,0,0
2.5998e+05,1.3297e+08,3,5740,5671,15.22,2.7,29,42,0,0
2.6047e+05,1.3309e+08,3,5662,5571,15.3,2.7,29,42,0,0
2.6091e+05,1.332e+08,3,5559,5414,15.28,2.35,29,42,0,0
2.614e+05,1.3331e+08,3,5412,5400,15.28,2.62,29,42,0,0
2.6184e+05,1.3342e+08,3,5400,5400,15.33,2.44,29,42,0,0
2.6229e+05,1.3353e+08,3,5398,5385,15.26,2.65,29,42,0,0
2.6314e+05,1.3374e+08,3,5385,5385,15.3,2.56,29,42,0,0
2.6363e+05,1.3386e+08,3,5378,5314,15.32,2.35,29,42,0,0
2.6403e+05,1.3396e+08,3,5315,5371,15.35,2.2,29,42,0,0
2.6452e+05,1.3407e+08,3,5368,5328,15.26,2.38,29,43,0,0
2.6496e+05,1.3419e+08,3,5317,5228,15.29,2.48,29,43,0,0
2.6582e+05,1.344e+08,3,5233,5342,15.31,2.68,29,43,0,0
2.6627e+05,1.3451e+08,3,5337,5257,15.3,2.57,30,43,0,0
2.6671e+05,1.3462e+08,3,5238,5071,15.43,1.9,29,43,0,0
2.6711e+05,1.3472e+08,3,5058,4800,15.38,1.68,29,43,0,0
2.6756e+05,1.3483e+08,3,4802,4857,15.26,2.13,29,43,0,0
2.68e+05,1.3493e+08,3,4860,5128,15.25,2.66,29,43,0,0
2.6849e+05,1.3505e+08,3,5128,5128,15.21,2.44,29,43,0,0
2.6889e+05,1.3516e+08,3,5131,5371,15.26,3.04,29,43,0,0
2.6938e+05,1.3528e+08,3,5365,5314,15.31,2.35,29,43,0,0
2.6979e+05,1.3538e+08,3,5311,5285,15.16,2.8,29,43,0,0
2.7024e+05,1.3549e+08,3,5300,5514,15.2,2.85,30,43,0,0
2.7064e+05,1.3559e+08,3,5508,5442,15.26,2.54,29,44,0,0
2.7114e+05,1.3571e+08,3,5424,5242,15.27,2.4,29,44,0,0
2.7153e+05,1.3581e+08,3,5243,5342,15.16,2.78,29,44,0,0
2.7198e+05,1.3592e+08,3,5338,5242,15.22,2.63,29,44,0,0
2.7243e+05,1.3603e+08,3,5248,5400,15.21,2.65,29,44,0,0
2.7286e+05,1.3614e+08,3,5394,5185,15.19,2.49,29,44,0,0
2.7336e+05,1.3626e+08,3,5192,5271,15.14,2.67,29,44,0,0
2.7372e+05,1.3636e+08,3,5268,5228,15.26,2.18,29,44,0,0
2.7421e+05,1.3648e+08,3,5221,5157,15.29,2.28,29,44,0,0
2.7462e+05,1.3657e+08,3,5151,5085,15.23,2.44,29,44,0,0
2.7506e+05,1.3668e+08,3,5087,5114,15.31,2,29,44,0,0
2.7547e+05,1.3679e+08,3,5106,5014,15.18,2.12,29,44,0,0
2.7591e+05,1.369e+08,3,5006,4857,15.2,1.55,29,44,0,0
2.7637e+05,1.3701e+08,3,4849,4657,15.26,1.51,29,45,0,0
2.7681e+05,1.3711e+08,3,4655,4528,15.26,1.42,29,45,0,0
2.7725e+05,1.3722e+08,3,4527,4514,15.23,1.32,29,45,0,0
2.7767e+05,1.3733e+08,3,4506,4371,15.26,1.26,29,45,0,0
2.7815e+05,1.3744e+08,3,4356,4071,15.24,1.1,29,45,0,0
2.786e+05,1.3756e+08,3,4047,3814,15.29,1.11,29,45,0,0
2.79e+05,1.3765e+08,3,3803,3428,15.1,2.15,30,45,0,0
2.7948e+05,1.3777e+08,3,3419,3314,15.13,2.04,29,45,0,0
2.7994e+05,1.3788e+08,3,3315,3328,15.17,1.85,29,45,0,0
2.8034e+05,1.3799e+08,3,3314,3014,15.16,1.53,29,45,0,0
2.8083e+05,1.381e+08,3,3071,3600,14.9,2.65,29,45,0,0
2.8123e+05,1.382e+08,3,3587,3128,15.15,1.54,29,45,0,0
2.8172e+05,1.3832e+08,3,3123,3085,15.01,2.31,30,45,0,0
2.8212e+05,1.3843e+08,3,3097,3257,14.91,2.17,29,45,0,0
2.8256e+05,1.3853e+08,3,3259,3357,15.04,1.93,29,45,0,0
2.8302e+05,1.3865e+08,3,3367,3514,15.07,3.1,30,45,0,0
2.8342e+05,1.3875e+08,3,3513,3471,15.07,1.42,30,45,0,0
2.8387e+05,1.3886e+08,3,3472,3542,15.03,1.99,29,45,0,0
2.8436e+05,1.3898e+08,3,3549,3628,14.94,2.18,30,45,0,0
2.8476e+05,1.3908e+08,3,3646,4014,15.02,1.97,29,46,0,0
2.852e+05,1.3919e+08,3,4012,3971,15.17,1.2,30,46,0,0
2.8566e+05,1.393e+08,3,3964,3885,15.14,1.35,30,46,0,0
2.8607e+05,1.3941e+08,3,3901,4128,15.13,1.6,30,46,0,0
2.8651e+05,1.3951e+08,3,4129,4257,15.13,1.53,30,46,0,0
2.8696e+05,1.3962e+08,3,4276,4528,15.16,2.18,30,46,0,0
2.874e+05,1.3973e+08,3,4546,4800,15.23,1.83,30,46,0,0
2.8786e+05,1.3985e+08,3,4796,4757,15.22,1.92,30,46,0,0
2.8827e+05,1.3995e+08,3,4766,5000,15.19,2.11,30,46,0,0
2.8872e+05,1.4006e+08,3,5002,5028,15.22,2.36,30,46,0,0
2.8911e+05,1.4016e+08,3,5039,5257,15.15,2.25,30,46,0,0
2.8956e+05,1.4027e+08,3,5257,5257,15.25,2.27,30,46,0,0
2.9001e+05,1.4039e+08,3,5257,5257,15.22,2.22,30,46,0,0
2.905e+05,1.405e+08,3,5244,5114,15.26,2.28,30,46,0,0
2.909e+05,1.406e+08,3,5109,5014,15.1,2.54,29,46,0,0
2.9135e+05,1.4072e+08,3,5022,5214,15.17,2.33,30,46,0,0
2.918e+05,1.4082e+08,3,5204,5085,15.23,2.35,30,47,0,0
2.9221e+05,1.4093e+08,3,5093,5200,15.15,2,30,47,0,0
2.9266e+05,1.4104e+08,3,5193,5100,15.23,2.06,30,47,0,0
2.9305e+05,1.4114e+08,3,5097,5014,15.16,2.16,30,47,0,0
2.9351e+05,1.4126e+08,3,5015,5042,15.23,2.49,30,47,0,0
2.9395e+05,1.4137e+08,3,5045,5085,15.2,2.58,30,47,0,0
2.9436e+05,1.4147e+08,3,5099,5400,15.24,3.05,30,47,0,0
2.948e+05,1.4158e+08,3,5400,5414,15.2,3.04,30,47,0,0
2.9525e+05,1.4169e+08,3,5428,5700,15.17,3.46,30,47,0,0
2.957e+05,1.418e+08,3,5713,5857,15.22,3.45,30,47,0,0
2.9615e+05,1.4191e+08,3,5861,5928,15.2,3.29,30,47,0,0
2.966e+05,1.4202e+08,3,5900,5614,15.2,2.8,30,47,0,0
2.97e+05,1.4212e+08,3,5611,5557,15.15,3.35,30,48,0,0
2.9744e+05,1.4223e+08,3,5557,5614,15.18,3.36,30,48,0,0
2.9789e+05,1.4234e+08,3,5615,5628,15.23,3.17,30,48,0,0
2.9834e+05,1.4244e+08,3,5628,5628,15.14,2.9,30,48,0,0
2.9874e+05,1.4255e+08,3,5619,5457,15.14,2.58,30,48,0,0
2.9923e+05,1.4267e+08,3,5436,5228,15.25,2.5,30,48,0,0
2.9968e+05,1.4278e+08,3,5231,5271,15.2,2.57,30,48,0,0
3.0008e+05,1.4288e+08,3,5264,5200,15.19,2.55,30,48,0,0
3.0053e+05,1.4299e+08,3,5189,5085,15.15,2.38,30,48,0,0
3.0094e+05,1.4309e+08,3,5078,5000,15.2,2.07,30,48,0,0
3.0138e+05,1.4321e+08,3,5003,5042,15.14,2.26,30,48,0,0
3.0183e+05,1.4331e+08,3,5038,4942,15.22,2.43,30,48,0,0
3.0231e+05,1.4343e+08,3,4946,5000,15.17,2.24,30,48,0,0
3.0272e+05,1.4353e+08,3,4999,4971,15.12,2.29,30,49,0,0
3.0321e+05,1.4365e+08,3,4974,5014,15.2,2.12,30,49,0,0
3.0361e+05,1.4375e+08,3,5013,5000,15.27,2.03,30,49,0,0
3.0405e+05,1.4386e+08,3,5005,5085,15.13,2.52,30,49,0,0
3.0451e+05,1.4397e+08,3,5080,5028,15.24,2.42,30,49,0,0
3.0496e+05,1.4408e+08,3,5046,5242,15.25,2.59,30,49,0,0
3.054e+05,1.442e+08,3,5243,5257,15.22,2.74,30,49,0,0
3.0585e+05,1.443e+08,3,5267,5371,15.15,2.8,30,49,0,0
3.0626e+05,1.444e+08,3,5368,5314,15.17,2.94,30,49,0,0
3.067e+05,1.4452e+08,3,5324,5400,15.22,2.95,30,49,0,0
3.071e+05,1.4462e+08,3,5404,5500,15.15,3.08,30,49,0,0
3.0759e+05,1.4474e+08,3,5501,5514,15.25,2.79,30,49,0,0
3.0803e+05,1.4485e+08,3,5508,5471,15.09,2.58,30,50,0,0
3.0844e+05,1.4495e+08,3,5471,5471,15.26,2.83,30,50,0,0
3.0889e+05,1.4506e+08,3,5459,5342,15.19,2.62,30,50,0,0
3.0934e+05,1.4517e+08,3,5333,5257,15.16,2.12,30,50,0,0
3.0975e+05,1.4527e+08,3,5243,4971,15.22,2.05,30,50,0,0
3.102e+05,1.4538e+08,3,4965,4914,15.2,2.2,30,50,0,0
3.1064e+05,1.4549e+08,3,4910,4871,15.31,2.03,29,50,0,0
3.1109e+05,1.456e+08,3,4863,4785,15.3,2,30,50,0,0
3.1155e+05,1.4572e+08,3,4810,5000,15.28,2.26,30,50,0,0
3.1195e+05,1.4582e+08,3,5000,5000,15.19,2.31,30,50,0,0
3.1236e+05,1.4592e+08,3,5008,5157,15.26,2.19,29,50,0,0
3.128e+05,1.4603e+08,3,5156,5085,15.29,2.28,30,50,0,0
3.1329e+05,1.4615e+08,3,5090,5142,15.23,2.11,29,50,0,0
3.1374e+05,1.4626e+08,3,5139,5100,15.27,2.43,30,50,0,0
3.1414e+05,1.4636e+08,3,5113,5228,15.27,2.18,30,51,0,0
3.1459e+05,1.4647e+08,3,5207,4985,15.3,2.01,30,51,0,0
3.1543e+05,1.4668e+08,3,4984,4971,15.34,1.74,30,51,0,0
3.1634e+05,1.469e+08,3,4964,4614,15.28,1.78,30,51,0,0
3.1681e+05,1.4702e+08,3,4626,4742,15.28,1.92,30,51,0,0
3.1722e+05,1.4712e+08,3,4739,4585,15.27,1.64,30,51,0,0
3.1815e+05,1.4734e+08,3,4602,4985,15.29,2.62,30,51,0,0
3.1855e+05,1.4744e+08,3,4988,5185,15.15,2.95,30,51,0,0
3.1899e+05,1.4755e+08,3,5188,5342,15.25,2.81,29,51,0,0
3.1948e+05,1.4767e+08,3,5362,5571,15.23,3.06,30,51,0,0
3.1989e+05,1.4777e+08,3,5570,5557,15.22,2.92,30,51,0,0
3.2034e+05,1.4788e+08,3,5552,5457,15.25,2.92,30,51,0,0
3.2079e+05,1.4799e+08,3,5465,5557,15.26,2.92,29,52,0,0
3.2127e+05,1.481e+08,3,5562,5628,15.24,2.93,29,52,0,0
3.2168e+05,1.4821e+08,3,5617,5400,15.22,2.48,29,52,0,0
3.2208e+05,1.4831e+08,3,5400,5414,15.25,2.55,29,52,0,0
3.2253e+05,1.4842e+08,3,5412,5371,15.34,2.26,29,52,0,0
3.2297e+05,1.4853e+08,3,5356,5214,15.22,2.44,30,52,0,0
3.2345e+05,1.4864e+08,3,5234,5442,15.25,3.36,30,52,0,0
3.2386e+05,1.4874e+08,3,5447,5557,15.35,2.55,30,52,0,0
3.243e+05,1.4885e+08,3,5538,5142,15.3,1.6,30,52,0,0
3.2471e+05,1.4895e+08,3,5144,5314,15.19,2.9,29,52,0,0
3.252e+05,1.4907e+08,3,5314,5328,15.29,2.66,30,52,0,0
3.2561e+05,1.4917e+08,3,5328,5342,15.23,2.98,30,52,0,0
3.265e+05,1.4939e+08,3,5346,5528,15.3,2.46,29,53,0,0
3.2695e+05,1.495e+08,3,5513,5342,15.22,2.55,29,53,0,0
3.2739e+05,1.4961e+08,3,5359,5585,15.07,3.15,30,53,0,0
3.2827e+05,1.4982e+08,3,5588,5714,15.17,2.71,30,53,0,0
3.2872e+05,1.4993e+08,3,5688,5342,15.27,1.8,30,53,0,0
3.2917e+05,1.5004e+08,3,5319,5100,15.23,2.41,29,53,0,0
3.2961e+05,1.5015e+08,3,5105,5214,15.23,2.55,30,53,0,0
3.3006e+05,1.5026e+08,3,5203,5100,15.17,2.39,30,53,0,0
3.3047e+05,1.5037e+08,3,5104,5200,15.28,2.34,30,53,0,0
3.3091e+05,1.5047e+08,3,5200,5214,15.23,2.68,29,53,0,0
3.3136e+05,1.5059e+08,3,5219,5342,15.23,2.98,30,53,0,0
3.3181e+05,1.5069e+08,3,5350,5528,15.22,3.17,29,54,0,0
3.3226e+05,1.5081e+08,3,5531,5585,15.23,3.26,30,54,0,0
3.3356e+05,1.5113e+08,3,5587,5785,15.23,3.05,30,54,0,0
3.3405e+05,1.5125e+08,3,5791,5857,15.23,3.1,30,54,0,0
3.3446e+05,1.5136e+08,3,5844,5685,15.25,3.19,30,54,0,0
3.3491e+05,1.5146e+08,3,5695,5842,15.26,2.97,30,54,0,0
3.3531e+05,1.5157e+08,3,5829,5671,15.29,2.9,30,54,0,0
3.3576e+05,1.5168e+08,3,5676,5728,15.2,2.8,30,54,0,0
3.3621e+05,1.5179e+08,3,5708,5442,15.27,2.59,30,54,0,0
3.3666e+05,1.519e+08,3,5445,5500,15.3,2.76,30,55,0,0
3.3711e+05,1.5201e+08,3,5486,5357,15.25,2.39,30,55,0,0
3.3751e+05,1.5212e+08,3,5357,5357,15.19,2.81,30,55,0,0
3.3796e+05,1.5223e+08,3,5357,5357,15.16,2.78,30,55,0,0
3.384e+05,1.5234e+08,3,5359,5414,15.25,2.4,30,55,0,0
3.3885e+05,1.5245e+08,3,5400,5214,15.23,2.4,29,55,0,0
3.3929e+05,1.5256e+08,3,5210,5142,15.26,2.54,30,55,0,0
3.3974e+05,1.5266e+08,3,5169,5442,15.15,3.2,30,55,0,0
3.4015e+05,1.5277e+08,3,5441,5428,15.05,3.42,30,55,0,0
3.406e+05,1.5288e+08,3,5448,5742,15.13,3.26,30,55,0,0
3.4104e+05,1.5298e+08,3,5743,5785,15.07,3.24,30,55,0,0
3.4149e+05,1.5309e+08,3,5785,5828,15.13,3.41,30,55,0,0
3.4194e+05,1.532e+08,3,5829,5842,15.04,3.22,30,56,0,0
3.4238e+05,1.5331e+08,3,5832,5728,15.07,3.16,30,56,0,0
3.4283e+05,1.5342e+08,3,5734,5800,15.17,3.25,30,56,0,0
3.4323e+05,1.5353e+08,3,5793,5714,15.14,3.07,30,56,0,0
3.4368e+05,1.5363e+08,3,5706,5614,15.17,2.76,30,56,0,0
3.4412e+05,1.5374e+08,3,5608,5385,15.19,2.61,30,56,0,0
3.4457e+05,1.5386e+08,3,5389,5442,15.14,2.75,30,56,0,0
3.4502e+05,1.5396e+08,3,5443,5571,15.2,2.71,29,56,0,0
3.4547e+05,1.5407e+08,3,5562,5357,15.16,2.76,30,56,0,0
3.4595e+05,1.5419e+08,3,5385,5600,15.22,2.8,30,56,0,0
3.464e+05,1.543e+08,3,5557,5271,15.09,2.68,30,56,0,0
3.4684e+05,1.544e+08,3,5270,5257,15.1,2.27,30,57,0,0
3.4728e+05,1.5451e+08,3,5257,5257,15.2,2.4,30,57,0,0
3.4817e+05,1.5473e+08,3,5257,5342,15.21,2.47,30,57,0,0
3.4866e+05,1.5485e+08,3,5339,5314,15.09,2.57,30,57,0,0
3.4906e+05,1.5495e+08,3,5315,5342,15.22,2.52,30,57,0,0
3.4951e+05,1.5506e+08,3,5342,5342,15.08,2.51,29,57,0,0
3.4996e+05,1.5517e+08,3,5329,5214,15.12,2.29,30,57,0,0
3.504e+05,1.5528e+08,3,5205,5071,15.19,2.3,30,57,0,0
3.5085e+05,1.5539e+08,3,5067,5042,15.19,2.33,30,57,0,0
3.5129e+05,1.5549e+08,3,5039,5014,15.19,2.54,30,57,0,0
3.517e+05,1.5559e+08,3,5020,5157,15.16,2.54,30,57,0,0
3.5215e+05,1.5572e+08,3,5168,5257,15.16,2.63,30,57,0,0
3.5259e+05,1.5581e+08,3,5255,5171,15.11,2.65,30,58,0,0
3.5304e+05,1.5593e+08,3,5170,5157,15.2,2.37,30,58,0,0
3.5349e+05,1.5603e+08,3,5152,5085,15.2,2.25,30,58,0,0
3.5389e+05,1.5614e+08,3,5086,5228,15.19,2.48,30,58,0,0
3.5438e+05,1.5626e+08,3,5225,5200,15.19,2.47,30,58,0,0
3.5483e+05,1.5637e+08,3,5217,5457,15.05,3.1,30,58,0,0
3.5523e+05,1.5647e+08,3,5458,5514,15.14,2.99,30,58,0,0
3.5572e+05,1.5658e+08,3,5520,5585,15.16,2.83,30,58,0,0
3.5612e+05,1.5669e+08,3,5576,5400,15.19,2.24,29,58,0,0
3.5658e+05,1.568e+08,3,5377,5171,15.14,2.18,30,58,0,0
3.5747e+05,1.5702e+08,3,5157,4742,15.2,1.79,30,58,0,0
3.5787e+05,1.5712e+08,3,4738,4500,15.2,1.64,30,58,0,0
3.5837e+05,1.5724e+08,3,4494,4442,15.13,1.52,30,58,0,0
3.5881e+05,1.5735e+08,3,4446,4500,15.07,2.05,30,58,0,0
3.5925e+05,1.5745e+08,3,4510,4642,15.12,1.91,30,59,0,0
3.597e+05,1.5757e+08,3,4649,4728,15.18,1.97,30,59,0,0
3.601e+05,1.5766e+08,3,4729,4857,15.14,2.42,30,59,0,0
3.6055e+05,1.5777e+08,3,4859,5000,15.17,2.37,30,59,0,0
3.6104e+05,1.5789e+08,3,4988,4871,15.11,2.26,30,59,0,0
3.6144e+05,1.5799e+08,3,4866,4800,15.21,1.98,30,59,0,0
3.619e+05,1.581e+08,3,4813,4942,15.18,2.44,30,59,0,0
3.623e+05,1.582e+08,3,4944,5000,15.15,2.32,30,59,0,0
3.6275e+05,1.5832e+08,3,5005,5142,15.2,2.52,30,59,0,0
3.6319e+05,1.5842e+08,3,5151,5342,15.04,3.05,30,59,0,0
3.6363e+05,1.5854e+08,3,5348,5442,14.98,2.82,30,59,0,0
3.6408e+05,1.5864e+08,3,5444,5471,15.16,2.8,30,59,0,0
3.6448e+05,1.5874e+08,3,5468,5257,15.16,2.23,30,59,0,0
3.6493e+05,1.5885e+08,3,5254,5100,15.1,2.37,30,59,0,0
3.6538e+05,1.5896e+08,3,5102,5142,15.13,2.42,30,60,0,0
3.6582e+05,1.5907e+08,3,5139,5100,15.12,2.35,30,60,0,0
3.6623e+05,1.5918e+08,3,5098,5014,14.99,2.28,30,60,0,0
3.6713e+05,1.594e+08,3,5016,5342,15.11,2.23,30,60,0,0
3.6762e+05,1.5952e+08,3,5321,5028,15.09,2.48,30,60,0,0
3.6798e+05,1.5961e+08,3,5029,5114,15.14,2.43,30,60,0,0
3.6846e+05,1.5972e+08,3,5116,5171,15.1,2.7,30,60,0,0
3.6892e+05,1.5983e+08,3,5169,5142,15.07,2.44,29,60,0,0
3.6933e+05,1.5994e+08,3,5147,5257,15.1,2.6,30,60,0,0
3.6978e+05,1.6005e+08,3,5256,5242,15.11,2.26,30,60,0,0
3.7022e+05,1.6016e+08,3,5238,5085,15.22,2.27,30,60,0,0
3.7071e+05,1.6027e+08,3,5078,4985,15.07,2.26,29,60,0,0
3.7116e+05,1.6038e+08,3,4993,5057,15.1,2.48,30,61,0,0
3.7161e+05,1.6049e+08,3,5063,5128,15.15,2.53,30,61,0,0
3.7204e+05,1.606e+08,3,5133,5200,15.17,2.51,30,61,0,0
3.7249e+05,1.6071e+08,3,5189,5071,15.13,2.46,30,61,0,0
3.7294e+05,1.6082e+08,3,5072,5100,15.13,2.59,30,61,0,0
3.7338e+05,1.6093e+08,3,5110,5242,15.19,2.84,29,61,0,0
3.7379e+05,1.6103e+08,3,5243,5285,15.22,2.63,29,61,0,0
3.7423e+05,1.6114e+08,3,5286,5371,15.16,2.77,30,61,0,0
3.7473e+05,1.6126e+08,3,5363,5285,15.19,2.6,29,61,0,0
3.7533e+05,1.6147e+08,3,5388,5271,15.13,2.4,30,61,0,0
3.7573e+05,1.6158e+08,3,5276,5328,15.16,2.59,30,61,0,0
3.7618e+05,1.6169e+08,3,5308,5100,15.16,1.89,30,61,0,0
3.7659e+05,1.6179e+08,3,5108,5271,15.22,2.71,30,62,0,0
3.7703e+05,1.619e+08,3,5275,5371,15.1,2.67,30,62,0,0
3.7748e+05,1.6201e+08,3,5369,5342,15.05,3.01,29,62,0,0
3.7788e+05,1.6212e+08,3,5335,5242,15.17,2.11,29,62,0,0
3.7833e+05,1.6223e+08,3,5226,5042,15.23,1.95,30,62,0,0
3.7878e+05,1.6235e+08,3,5052,5128,15.13,2.64,30,62,0,0
3.7919e+05,1.6245e+08,3,5132,5171,15.18,2.51,30,62,0,0
3.7959e+05,1.6254e+08,3,5171,5200,15.23,2.32,30,62,0,0
3.8004e+05,1.6266e+08,3,5206,5300,15.08,2.78,29,62,0,0
3.8048e+05,1.6277e+08,3,5309,5400,15.17,2.8,29,62,0,0
3.8094e+05,1.6288e+08,3,5401,5414,15.22,2.66,29,62,0,0
3.8134e+05,1.6298e+08,3,5412,5385,15.14,2.78,30,62,0,0
3.8178e+05,1.6309e+08,3,5392,5500,15.17,2.68,30,62,0,0
3.8223e+05,1.632e+08,3,5496,5428,15.22,2.76,29,63,0,0
3.8268e+05,1.6331e+08,3,5418,5300,15.18,2.46,29,63,0,0
3.8308e+05,1.6341e+08,3,5301,5342,15.18,2.67,29,63,0,0
3.8352e+05,1.6353e+08,3,5342,5342,15.13,2.44,30,63,0,0
3.8442e+05,1.6374e+08,3,5336,5200,15.22,2.35,30,63,0,0
3.8486e+05,1.6385e+08,3,5206,5314,15.14,2.8,29,63,0,0
3.8532e+05,1.6397e+08,3,5319,5357,15.03,2.76,29,63,0,0
3.8576e+05,1.6408e+08,3,5366,5428,15.15,2.53,29,63,0,0
3.862e+05,1.6418e+08,3,5429,5442,15.17,2.41,29,63,0,0
3.8666e+05,1.6429e+08,3,5443,5457,15.21,2.47,30,63,0,0
3.8706e+05,1.6439e+08,3,5449,5314,15.18,2.43,30,63,0,0
3.8755e+05,1.6451e+08,3,5307,5257,15.17,2.53,29,63,0,0
3.8839e+05,1.6471e+08,3,5261,5514,15.16,2.93,30,64,0,0
3.8928e+05,1.6493e+08,3,5512,5414,15.15,2.53,30,64,0,0
3.8968e+05,1.6503e+08,3,5415,5485,15.22,2.5,29,64,0,0
3.9014e+05,1.6515e+08,3,5453,5142,15.17,2.14,29,64,0,0
3.9059e+05,1.6526e+08,3,5146,5185,15.2,2.35,30,64,0,0
3.91e+05,1.6536e+08,3,5181,5028,15.24,2.02,29,64,0,0
3.9149e+05,1.6548e+08,3,5018,4914,15.22,2.29,30,64,0,0
3.9193e+05,1.6559e+08,3,4915,4928,15.22,2.19,30,64,0,0
3.9238e+05,1.657e+08,3,4935,5014,15.22,2.24,30,64,0,0
3.9327e+05,1.6592e+08,3,5022,5171,15.19,2.67,30,64,0,0
3.9412e+05,1.6612e+08,3,5170,5114,15.22,2.41,29,65,0,0
3.9457e+05,1.6624e+08,3,5107,4985,15.25,2.05,30,65,0,0
3.9502e+05,1.6635e+08,3,4981,4942,15.23,2.24,29,65,0,0
3.9546e+05,1.6646e+08,3,4938,4842,15.33,1.71,30,65,0,0
3.959e+05,1.6656e+08,3,4829,4642,15.33,1.49,30,65,0,0
3.9636e+05,1.6667e+08,3,4637,4357,15.37,1.29,30,65,0,0
3.9684e+05,1.6679e+08,3,4338,4157,15.32,1.14,30,65,0,0
3.9768e+05,1.67e+08,3,4154,3871,15.5,1.06,30,65,0,0
3.9813e+05,1.6711e+08,3,3857,3500,15.5,1.6,30,65,0,0
3.9861e+05,1.6722e+08,3,3473,3071,15.73,0.77,30,65,0,0
3.9906e+05,1.6733e+08,3,3003,2385,15.72,0.16,30,65,0,0
3.995e+05,1.6744e+08,3,2360,2042,15.67,0.1,30,65,0,0
3.999e+05,1.6754e+08,3,2038,1900,15.68,0.14,30,65,0,0
4.0035e+05,1.6765e+08,3,1899,1885,15.69,0.18,29,65,0,0
4.008e+05,1.6776e+08,3,1891,1971,15.67,0.26,30,65,0,0
4.0125e+05,1.6787e+08,3,1968,1942,15.68,0.21,30,65,0,0
4.0169e+05,1.6798e+08,3,1943,1957,15.69,0.23,30,65,0,0
4.0209e+05,1.6808e+08,3,1956,1928,15.71,0.21,29,65,0,0
4.0253e+05,1.6819e+08,3,1930,1971,15.7,0.19,29,65,0,0
4.0298e+05,1.6829e+08,3,1969,1900,15.7,0.16,30,65,0,0
4.0343e+05,1.684e+08,3,1904,1971,15.7,0.2,29,65,0,0
4.0388e+05,1.6851e+08,3,1972,1985,15.71,0.25,29,65,0,0
4.0432e+05,1.6862e+08,3,1989,2042,15.72,0.3,30,65,0,0
4.0481e+05,1.6873e+08,3,2053,2214,15.68,0.37,30,65,0,0
4.0521e+05,1.6883e+08,3,2218,2300,15.7,0.45,29,65,0,0
4.0566e+05,1.6894e+08,3,2302,2357,15.72,0.43,29,65,0,0
4.061e+05,1.6905e+08,3,2347,1928,15.8,0.03,29,65,0,0
4.066e+05,1.6917e+08,3,1889,1485,15.79,0,29,65,0,0
4.0705e+05,1.6927e+08,3,1473,1328,15.78,0.07,29,65,0,0
4.0746e+05,1.6938e+08,3,1326,1300,15.77,0.1,29,65,0,0
4.0835e+05,1.6959e+08,3,1299,1285,15.79,0.1,29,65,0,0
4.088e+05,1.697e+08,3,1285,1285,15.78,0.1,29,65,0,0
4.0925e+05,1.6981e+08,3,1285,1285,15.79,0.1,29,65,0,0
4.097e+05,1.6991e+08,3,1285,1285,15.79,0.1,29,65,0,0
4.1011e+05,1.7002e+08,3,1285,1285,15.79,0.1,29,65,0,0
4.1059e+05,1.7014e+08,3,1285,1285,15.8,0.1,29,65,0,0
4.1104e+05,1.7024e+08,3,1285,1285,15.79,0.1,29,65,0,0
4.1146e+05,1.7035e+08,3,1285,1285,15.79,0.1,29,65,0,0
4.119e+05,1.7045e+08,3,1285,1285,15.8,0.1,29,65,0,0
4.1235e+05,1.7057e+08,3,1285,1285,15.8,0.1,29,65,0,0
4.128e+05,1.7067e+08,3,1285,1285,15.8,0.1,29,65,0,0
4.1324e+05,1.7078e+08,3,1285,1285,15.8,0.1,29,65,0,0
4.1369e+05,1.7089e+08,3,1285,1285,15.8,0.1,29,65,0,0
4.1417e+05,1.71e+08,3,1285,1285,15.8,0.1,29,65,0,0
4.1462e+05,1.7111e+08,3,1285,1285,15.8,0.1,29,65,0,0
4.1507e+05,1.7122e+08,3,1285,1285,15.82,0.1,29,65,0,0
4.1551e+05,1.7133e+08,3,1285,1285,15.82,0.1,29,65,0,0
4.164e+05,1.7154e+08,3,1285,1300,15.82,0.1,29,65,0,0
4.1685e+05,1.7165e+08,3,1300,1300,15.82,0.1,29,65,0,0
4.173e+05,1.7176e+08,3,1300,1300,15.82,0.1,29,65,0,0
4.1775e+05,1.7186e+08,3,1300,1300,15.81,0.09,29,65,0,0
4.1815e+05,1.7196e+08,3,1300,1300,15.82,0.09,29,65,0,0
4.1909e+05,1.7219e+08,3,1300,1300,15.83,0.09,29,65,0,0
4.1954e+05,1.723e+08,3,1298,1285,15.83,0.1,29,65,0,0
4.1994e+05,1.7239e+08,3,1285,1285,15.84,0.1,29,65,0,0
4.2039e+05,1.725e+08,3,1285,1285,15.83,0.1,29,65,0,0
4.2084e+05,1.7261e+08,3,1285,1285,15.83,0.1,29,65,0,0
4.2129e+05,1.7272e+08,3,1286,1300,15.83,0.1,29,65,0,0
4.2174e+05,1.7283e+08,3,1300,1300,15.83,0.09,29,65,0,0
4.2222e+05,1.7294e+08,3,1300,1300,15.84,0.1,29,65,0,0
4.2262e+05,1.7304e+08,3,1300,1300,15.85,0.1,29,65,0,0
4.231e+05,1.7315e+08,3,1300,1300,15.84,0.1,29,65,0,0
4.2355e+05,1.7326e+08,3,1300,1300,15.85,0.1,29,65,0,0
4.2399e+05,1.7336e+08,3,1300,1300,15.85,0.1,29,65,0,0
4.2448e+05,1.7348e+08,3,1300,1300,15.85,0.1,29,65,0,0
4.2492e+05,1.7359e+08,3,1300,1300,15.85,0.1,29,65,0,0
4.2538e+05,1.7369e+08,3,1300,1300,15.85,0.1,29,65,0,0
4.2581e+05,1.7379e+08,3,1300,1300,15.85,0.1,29,65,0,0
4.2627e+05,1.739e+08,3,1300,1300,15.85,0.1,29,65,0,0
4.2671e+05,1.7401e+08,3,1300,1300,15.86,0.1,29,65,0,0
4.2716e+05,1.7412e+08,3,1300,1300,15.85,0.1,29,65,0,0
4.2761e+05,1.7422e+08,3,1300,1300,15.86,0.1,29,65,0,0
4.2805e+05,1.7433e+08,3,1300,1300,15.86,0.1,29,65,0,0
4.285e+05,1.7444e+08,3,1300,1300,15.86,0.1,29,65,0,0
4.2894e+05,1.7454e+08,3,1300,1300,15.86,0.1,29,65,0,0
4.2939e+05,1.7465e+08,3,1300,1314,15.86,0.1,29,65,0,0
4.2986e+05,1.7476e+08,3,1313,1300,15.86,0.1,29,65,0,0
4.3027e+05,1.7486e+08,3,1300,1300,15.86,0.1,29,65,0,0
4.3076e+05,1.7498e+08,3,1300,1300,15.86,0.1,29,65,0,0
4.3117e+05,1.7508e+08,3,1300,1300,15.86,0.1,29,65,0,0
4.3169e+05,1.752e+08,3,1300,1300,15.87,0.1,29,65,0,0
4.321e+05,1.7529e+08,3,1300,1300,15.88,0.1,29,65,0,0
4.3255e+05,1.754e+08,3,1300,1300,15.87,0.1,29,65,0,0
4.3299e+05,1.7551e+08,3,1300,1300,15.87,0.1,29,65,0,0
4.3344e+05,1.7562e+08,3,1300,1300,15.87,0.1,29,65,0,0
4.3388e+05,1.7573e+08,3,1299,1285,15.87,0.1,29,65,0,0
4.3433e+05,1.7583e+08,3,1285,1285,15.87,0.1,29,65,0,0
4.3482e+05,1.7595e+08,3,1285,1285,15.88,0.1,29,65,0,0
4.3523e+05,1.7605e+08,3,1285,1285,15.88,0.1,29,65,0,0
4.3568e+05,1.7616e+08,3,1285,1285,15.88,0.1,29,65,0,0
4.3613e+05,1.7627e+08,3,1285,1285,15.88,0.11,29,65,0,0
4.3706e+05,1.7649e+08,3,1285,1300,15.88,0.1,29,65,0,0
4.375e+05,1.766e+08,3,1300,1300,15.88,0.1,29,65,0,0
4.3791e+05,1.767e+08,3,1300,1300,15.89,0.11,29,65,0,0
4.3836e+05,1.7681e+08,3,1300,1300,15.88,0.11,29,65,0,0
4.3885e+05,1.7693e+08,3,1300,1300,15.88,0.1,29,65,0,0
4.3926e+05,1.7703e+08,3,1298,1285,15.89,0.1,29,65,0,0
4.4015e+05,1.7724e+08,3,1285,1285,15.89,0.11,29,65,0,0
4.4063e+05,1.7736e+08,3,1285,1285,15.89,0.11,29,65,0,0
4.4108e+05,1.7746e+08,3,1285,1285,15.89,0.11,29,65,0,0
4.4152e+05,1.7757e+08,3,1286,1300,15.89,0.1,29,65,0,0
4.4193e+05,1.7767e+08,3,1299,1285,15.89,0.1,29,65,0,0
4.4237e+05,1.7778e+08,3,1285,1285,15.9,0.11,29,65,0,0
4.4286e+05,1.7789e+08,3,1285,1285,15.89,0.1,29,65,0,0
4.4331e+05,1.78e+08,3,1285,1285,15.89,0.1,29,65,0,0
4.4376e+05,1.781e+08,3,1285,1300,15.9,0.11,29,65,0,0
4.4421e+05,1.7822e+08,3,1298,1285,15.9,0.1,29,65,0,0
4.4506e+05,1.7842e+08,3,1285,1300,15.9,0.11,29,65,0,0
4.4551e+05,1.7853e+08,3,1298,1285,15.9,0.11,29,65,0,0
4.4591e+05,1.7863e+08,3,1285,1300,15.9,0.11,29,65,0,0
4.464e+05,1.7874e+08,3,1300,1300,15.9,0.11,29,65,0,0
4.4684e+05,1.7885e+08,3,1299,1285,15.9,0.1,29,65,0,0
4.4728e+05,1.7895e+08,3,1285,1285,15.9,0.11,28,65,0,0
4.4778e+05,1.7907e+08,3,1281,1228,15.92,0.06,28,65,0,0
4.4867e+05,1.7928e+08,3,1198,0,15.92,0,28,65,0,0
4.4916e+05,1.7939e+08,3,0,0,15.92,0.03,28,65,0,0
4.4962e+05,1.795e+08,3,0,0,15.92,0.04,28,65,0,0
4.5007e+05,1.7961e+08,3,0,0,15.92,0.04,28,65,0,0
4.5056e+05,1.7973e+08,3,0,0,15.92,0.03,28,65,0,0
4.5097e+05,1.7982e+08,3,0,0,15.93,0.04,28,65,0,0
4.5142e+05,1.7993e+08,3,0,0,15.94,0.04,28,65,0,0
4.5192e+05,1.8005e+08,3,0,0,15.93,0.04,28,65,0,0
4.5237e+05,1.8015e+08,3,0,0,15.93,0.04,28,65,0,0
4.5286e+05,1.8027e+08,3,0,0,15.93,0.04,28,65,0,0
4.5332e+05,1.8038e+08,3,0,0,15.93,0.04,29,65,0,0
4.5377e+05,1.8048e+08,3,0,0,15.94,0.04,28,65,0,0
4.5417e+05,1.8058e+08,3,0,0,15.93,0.04,28,65,0,0
4.5467e+05,1.807e+08,3,0,0,15.94,0.04,28,65,0,0
4.5512e+05,1.8081e+08,3,0,0,15.94,0.04,29,65,0,0
4.5558e+05,1.8092e+08,3,0,0,15.94,0.04,28,65,0,0
4.5603e+05,1.8103e+08,3,0,0,15.94,0.04,28,65,0,0
4.5648e+05,1.8114e+08,3,0,0,15.94,0.04,28,65,0,0
4.5693e+05,1.8124e+08,3,0,0,15.94,0.04,28,65,0,0
4.5743e+05,1.8136e+08,3,0,0,15.94,0.04,28,65,0,0
4.5788e+05,1.8147e+08,3,0,0,15.94,0.04,28,65,0,0
4.5878e+05,1.8169e+08,3,0,0,15.94,0.04,28,65,0,0
4.5923e+05,1.818e+08,3,0,0,15.95,0.04,28,65,0,0
4.5968e+05,1.819e+08,3,0,0,15.95,0.04,28,65,0,0
4.6018e+05,1.8202e+08,3,0,0,15.95,0.04,28,65,0,0
4.6067e+05,1.8213e+08,3,0,0,15.95,0.04,28,65,0,0
4.6157e+05,1.8234e+08,3,0,0,15.94,0.04,28,65,0,0
4.6202e+05,1.8245e+08,3,0,0,15.95,0.04,28,65,0,0
4.6248e+05,1.8256e+08,3,0,0,15.95,0.04,28,65,0,0
4.6297e+05,1.8267e+08,3,0,0,15.95,0.04,28,65,0,0
