LineNo,TimeUS,C1,C2,C3,C4,C5,C6,C7,C8,C9,C10,C11,C12,C13,C14
668,69156307,0,0,0,0,0,0,0,0,1000,1000,1000,1000,1000,1000
1008,69230037,0,0,0,0,0,0,0,0,1000,1000,1000,1000,1000,1000
1408,69445043,0,0,0,0,0,0,0,0,1000,1000,1000,1000,1000,1000
1556,69467728,0,0,0,0,0,0,0,0,1000,1000,1000,1000,1000,1000
1595,69479995,0,0,0,0,0,0,0,0,1000,1000,1000,1000,1000,1000
1640,69490698,0,0,0,0,0,0,0,0,1000,1000,1000,1000,1000,1000
1685,69501184,0,0,0,0,0,0,0,0,1000,1000,1000,1000,1000,1000
1732,69511297,0,0,0,0,0,0,0,0,1000,1000,1000,1000,1000,1000
1770,69522722,0,0,0,0,0,0,0,0,1000,1000,1000,1000,1000,1000
1814,69532572,0,0,0,0,0,0,0,0,1000,1000,1000,1000,1000,1000
1862,69542549,0,0,0,0,0,0,0,0,1000,1000,1000,1000,1000,1000
1907,69552885,0,0,0,0,0,0,0,0,1000,1000,1000,1000,1000,1000
1953,69563423,0,0,0,0,0,0,0,0,1000,1000,1000,1000,1000,1000
1997,69573148,0,0,0,0,0,0,0,0,1000,1000,1000,1000,1000,1000
2042,69583807,0,0,0,0,0,0,0,0,1000,1000,1000,1000,1000,1000
2086,69594263,0,0,0,0,0,0,0,0,1000,1000,1000,1000,1000,1000
2132,69604290,0,0,0,0,0,0,0,0,1000,1000,1000,1000,1000,1000
2177,69614545,0,0,0,0,0,0,0,0,1000,1000,1000,1000,1000,1000
2222,69624071,0,0,0,0,0,0,0,0,1000,1000,1000,1000,1000,1000
2267,69634029,0,0,0,0,0,0,0,0,1000,1000,1000,1000,1000,1000
2315,69644094,0,0,0,0,0,0,0,0,1000,1000,1000,1000,1000,1000
2360,69654601,0,0,0,0,0,0,0,0,1000,1000,1000,1000,1000,1000
2404,69664729,0,0,0,0,0,0,0,0,1000,1000,1000,1000,1000,1000
2452,69677183,0,0,0,0,0,0,0,0,1000,1000,1000,1000,1000,1000
2493,69688250,0,0,0,0,0,0,0,0,1000,1000,1000,1000,1000,1000
2541,69698579,0,0,0,0,0,0,0,0,1000,1000,1000,1000,1000,1000
2580,69709686,0,0,0,0,0,0,0,0,1000,1000,1000,1000,1000,1000
2625,69719745,0,0,0,0,0,0,0,0,1000,1000,1000,1000,1000,1000
2670,69729732,0,0,0,0,0,0,0,0,1000,1000,1000,1000,1000,1000
2720,69740031,0,0,0,0,0,0,0,0,1000,1000,1000,1000,1000,1000
2766,69750270,0,0,0,0,0,0,0,0,1000,1000,1000,1000,1000,1000
2811,69760514,0,0,0,0,0,0,0,0,1000,1000,1000,1000,1000,1000
2855,69770226,0,0,0,0,0,0,0,0,1000,1000,1000,1000,1000,1000
2901,69781072,0,0,0,0,0,0,0,0,1000,1000,1000,1000,1000,1000
2945,69791085,0,0,0,0,0,0,0,0,1000,1000,1000,1000,1000,1000
2991,69801829,0,0,0,0,0,0,0,0,1000,1000,1000,1000,1000,1000
3036,69812260,0,0,0,0,0,0,0,0,1000,1000,1000,1000,1000,1000
3080,69822681,0,0,0,0,0,0,0,0,1000,1000,1000,1000,1000,1000
3125,69832271,0,0,0,0,0,0,0,0,1000,1000,1000,1000,1000,1000
3172,69842211,0,0,0,0,0,0,0,0,1000,1000,1000,1000,1000,1000
3218,69852500,0,0,0,0,0,0,0,0,1000,1000,1000,1000,1000,1000
3262,69862758,0,0,0,0,0,0,0,0,1000,1000,1000,1000,1000,1000
3308,69873279,0,0,0,0,0,0,0,0,1000,1000,1000,1000,1000,1000
3353,69883987,0,0,0,0,0,0,0,0,1000,1000,1000,1000,1000,1000
3397,69893744,0,0,0,0,0,0,0,0,1000,1000,1000,1000,1000,1000
3443,69904039,0,0,0,0,0,0,0,0,1000,1000,1000,1000,1000,1000
3485,69917475,0,0,0,0,0,0,0,0,1000,1000,1000,1000,1000,1000
3531,69927277,0,0,0,0,0,0,0,0,1000,1000,1000,1000,1000,1000
3576,69937890,0,0,0,0,0,0,0,0,1000,1000,1000,1000,1000,1000
3628,69948543,0,0,0,0,0,0,0,0,1000,1000,1000,1000,1000,1000
3672,69958607,0,0,0,0,0,0,0,0,1000,1000,1000,1000,1000,1000
3717,69968739,0,0,0,0,0,0,0,0,1000,1000,1000,1000,1000,1000
3764,69979044,0,0,0,0,0,0,0,0,1000,1000,1000,1000,1000,1000
3809,69989720,0,0,0,0,0,0,0,0,1000,1000,1000,1000,1000,1000
3853,70000783,0,0,0,0,0,0,0,0,1000,1000,1000,1000,1000,1000
3897,70011003,0,0,0,0,0,0,0,0,1000,1000,1000,1000,1000,1000
3941,70020795,0,0,0,0,0,0,0,0,1000,1000,1000,1000,1000,1000
3985,70030591,0,0,0,0,0,0,0,0,1000,1000,1000,1000,1000,1000
4032,70041217,0,0,0,0,0,0,0,0,1000,1000,1000,1000,1000,1000
4084,70052030,0,0,0,0,0,0,0,0,1000,1000,1000,1000,1000,1000
4128,70062493,0,0,0,0,0,0,0,0,1000,1000,1000,1000,1000,1000
4173,70072251,0,0,0,0,0,0,0,0,1000,1000,1000,1000,1000,1000
4218,70082294,0,0,0,0,0,0,0,0,1000,1000,1000,1000,1000,1000
4262,70092621,0,0,0,0,0,0,0,0,1000,1000,1000,1000,1000,1000
4307,70102891,0,0,0,0,0,0,0,0,1000,1000,1000,1000,1000,1000
4353,70118907,0,0,0,0,0,0,0,0,1000,1000,1000,1000,1000,1000
4399,70129533,0,0,0,0,0,0,0,0,1000,1000,1000,1000,1000,1000
4443,70139671,0,0,0,0,0,0,0,0,1000,1000,1000,1000,1000,1000
4488,70149760,0,0,0,0,0,0,0,0,1000,1000,1000,1000,1000,1000
4537,70159602,0,0,0,0,0,0,0,0,1000,1000,1000,1000,1000,1000
4581,70169698,0,0,0,0,0,0,0,0,1000,1000,1000,1000,1000,1000
4626,70179517,0,0,0,0,0,0,0,0,1000,1000,1000,1000,1000,1000
4670,70189849,0,0,0,0,0,0,0,0,1000,1000,1000,1000,1000,1000
4715,70200156,0,0,0,0,0,0,0,0,1000,1000,1000,1000,1000,1000
4759,70210250,0,0,0,0,0,0,0,0,1000,1000,1000,1000,1000,1000
4804,70220712,0,0,0,0,0,0,0,0,1000,1000,1000,1000,1000,1000
4849,70230503,0,0,0,0,0,0,0,0,1000,1000,1000,1000,1000,1000
4893,70240743,0,0,0,0,0,0,0,0,1000,1000,1000,1000,1000,1000
4939,70251095,0,0,0,0,0,0,0,0,1000,1000,1000,1000,1000,1000
4987,70261233,0,0,0,0,0,0,0,0,1000,1000,1000,1000,1000,1000
5032,70271696,0,0,0,0,0,0,0,0,1000,1000,1000,1000,1000,1000
5076,70281929,0,0,0,0,0,0,0,0,1000,1000,1000,1000,1000,1000
5121,70291732,0,0,0,0,0,0,0,0,1000,1000,1000,1000,1000,1000
5169,70304251,0,0,0,0,0,0,0,0,1000,1000,1000,1000,1000,1000
5217,70316787,0,0,0,0,0,0,0,0,1000,1000,1000,1000,1000,1000
5259,70327218,0,0,0,0,0,0,0,0,1000,1000,1000,1000,1000,1000
5305,70338182,0,0,0,0,0,0,0,0,1000,1000,1000,1000,1000,1000
5349,70348794,0,0,0,0,0,0,0,0,1000,1000,1000,1000,1000,1000
5398,70359547,0,0,0,0,0,0,0,0,1000,1000,1000,1000,1000,1000
5442,70369788,0,0,0,0,0,0,0,0,1000,1000,1000,1000,1000,1000
5487,70379692,0,0,0,0,0,0,0,0,1000,1000,1000,1000,1000,1000
5532,70389698,0,0,0,0,0,0,0,0,1000,1000,1000,1000,1000,1000
5577,70400527,0,0,0,0,0,0,0,0,1000,1000,1000,1000,1000,1000
5622,70410904,0,0,0,0,0,0,0,0,1000,1000,1000,1000,1000,1000
5666,70421277,0,0,0,0,0,0,0,0,1000,1000,1000,1000,1000,1000
5711,70431236,0,0,0,0,0,0,0,0,1000,1000,1000,1000,1000,1000
5757,70441788,0,0,0,0,0,0,0,0,1000,1000,1000,1000,1000,1000
5804,70451739,0,0,0,0,0,0,0,0,1000,1000,1000,1000,1000,1000
5853,70461920,0,0,0,0,0,0,0,0,1000,1000,1000,1000,1000,1000
5897,70472169,0,0,0,0,0,0,0,0,1000,1000,1000,1000,1000,1000
5942,70482869,0,0,0,0,0,0,0,0,1000,1000,1000,1000,1000,1000
5986,70493233,0,0,0,0,0,0,0,0,1000,1000,1000,1000,1000,1000
6031,70503118,0,0,0,0,0,0,0,0,1000,1000,1000,1000,1000,1000
6075,70513140,0,0,0,0,0,0,0,0,1000,1000,1000,1000,1000,1000
6116,70524698,0,0,0,0,0,0,0,0,1000,1000,1000,1000,1000,1000
6161,70535120,0,0,0,0,0,0,0,0,1000,1000,1000,1000,1000,1000
6205,70544712,0,0,0,0,0,0,0,0,1000,1000,1000,1000,1000,1000
6250,70555090,0,0,0,0,0,0,0,0,1000,1000,1000,1000,1000,1000
6299,70564742,0,0,0,0,0,0,0,0,1000,1000,1000,1000,1000,1000
6344,70574668,0,0,0,0,0,0,0,0,1000,1000,1000,1000,1000,1000
6388,70585070,0,0,0,0,0,0,0,0,1000,1000,1000,1000,1000,1000
6433,70595245,0,0,0,0,0,0,0,0,1000,1000,1000,1000,1000,1000
6479,70605041,0,0,0,0,0,0,0,0,1000,1000,1000,1000,1000,1000
6520,70615282,0,0,0,0,0,0,0,0,1000,1000,1000,1000,1000,1000
6565,70625135,0,0,0,0,0,0,0,0,1000,1000,1000,1000,1000,1000
6609,70635297,0,0,0,0,0,0,0,0,1000,1000,1000,1000,1000,1000
6654,70645721,0,0,0,0,0,0,0,0,1000,1000,1000,1000,1000,1000
6700,70656127,0,0,0,0,0,0,0,0,1000,1000,1000,1000,1000,1000
6749,70666271,0,0,0,0,0,0,0,0,1000,1000,1000,1000,1000,1000
6794,70676576,0,0,0,0,0,0,0,0,1000,1000,1000,1000,1000,1000
6838,70686976,0,0,0,0,0,0,0,0,1000,1000,1000,1000,1000,1000
6883,70697419,0,0,0,0,0,0,0,0,1000,1000,1000,1000,1000,1000
6926,70711824,0,0,0,0,0,0,0,0,1000,1000,1000,1000,1000,1000
6971,70722098,0,0,0,0,0,0,0,0,1000,1000,1000,1000,1000,1000
7015,70732717,0,0,0,0,0,0,0,0,1000,1000,1000,1000,1000,1000
7060,70743256,0,0,0,0,0,0,0,0,1000,1000,1000,1000,1000,1000
7105,70753115,0,0,0,0,0,0,0,0,1000,1000,1000,1000,1000,1000
7149,70763289,0,0,0,0,0,0,0,0,1000,1000,1000,1000,1000,1000
7200,70773332,0,0,0,0,0,0,0,0,1000,1000,1000,1000,1000,1000
7245,70784239,0,0,0,0,0,0,0,0,1000,1000,1000,1000,1000,1000
7290,70794445,0,0,0,0,0,0,0,0,1000,1000,1000,1000,1000,1000
7335,70804282,0,0,0,0,0,0,0,0,1000,1000,1000,1000,1000,1000
7379,70814145,0,0,0,0,0,0,0,0,1000,1000,1000,1000,1000,1000
7424,70824729,0,0,0,0,0,0,0,0,1000,1000,1000,1000,1000,1000
7473,70837692,0,0,0,0,0,0,0,0,1000,1000,1000,1000,1000,1000
7519,70848131,0,0,0,0,0,0,0,0,1000,1000,1000,1000,1000,1000
7565,70858393,0,0,0,0,0,0,0,0,1003,1003,1003,1003,1003,1003
7611,70868246,0,0,0,0,0,0,0,0,1006,1006,1006,1006,1006,1006
7660,70878226,0,0,0,0,0,0,0,0,1009,1009,1009,1009,1009,1009
7704,70888783,0,0,0,0,0,0,0,0,1012,1012,1012,1012,1012,1012
7749,70899288,0,0,0,0,0,0,0,0,1015,1015,1015,1015,1015,1015
7795,70909582,0,0,0,0,0,0,0,0,1018,1018,1018,1018,1018,1018
7834,70921723,0,0,0,0,0,0,0,0,1021,1021,1021,1021,1021,1021
7880,70931786,0,0,0,0,0,0,0,0,1024,1024,1024,1024,1024,1024
7928,70941769,0,0,0,0,0,0,0,0,1027,1027,1027,1027,1027,1027
7972,70951773,0,0,0,0,0,0,0,0,1030,1030,1030,1030,1030,1030
8018,70961748,0,0,0,0,0,0,0,0,1033,1033,1033,1033,1033,1033
8063,70972139,0,0,0,0,0,0,0,0,1036,1036,1036,1036,1036,1036
8113,70982146,0,0,0,0,0,0,0,0,1039,1039,1039,1039,1039,1039
8158,70992254,0,0,0,0,0,0,0,0,1042,1042,1042,1042,1042,1042
8202,71002044,0,0,0,0,0,0,0,0,1045,1045,1045,1045,1045,1045
8247,71011921,0,0,0,0,0,0,0,0,1048,1048,1048,1048,1048,1048
8292,71022986,0,0,0,0,0,0,0,0,1051,1051,1051,1051,1051,1051
8337,71033310,0,0,0,0,0,0,0,0,1054,1054,1054,1054,1054,1054
8384,71046148,0,0,0,0,0,0,0,0,1057,1057,1057,1057,1057,1057
8429,71056013,0,0,0,0,0,0,0,0,1060,1060,1060,1060,1060,1060
8475,71066735,0,0,0,0,0,0,0,0,1063,1063,1063,1063,1063,1063
8524,71076977,0,0,0,0,0,0,0,0,1066,1066,1066,1066,1066,1066
8570,71086548,0,0,0,0,0,0,0,0,1069,1069,1069,1069,1069,1069
8617,71099745,0,0,0,0,0,0,0,0,1073,1073,1073,1073,1073,1073
8658,71109787,0,0,0,0,0,0,0,0,1076,1076,1076,1076,1076,1076
8705,71122993,0,0,0,0,0,0,0,0,1080,1080,1080,1080,1080,1080
8750,71133148,0,0,0,0,0,0,0,0,1083,1083,1083,1083,1083,1083
8792,71143560,0,0,0,0,0,0,0,0,1086,1086,1086,1086,1086,1086
8836,71153131,0,0,0,0,0,0,0,0,1089,1089,1089,1089,1089,1089
8881,71163743,0,0,0,0,0,0,0,0,1092,1092,1092,1092,1092,1092
8925,71174154,0,0,0,0,0,0,0,0,1095,1095,1095,1095,1095,1095
8976,71184090,0,0,0,0,0,0,0,0,1098,1098,1098,1098,1098,1098
9020,71194349,0,0,0,0,0,0,0,0,1100,1100,1100,1100,1100,1100
9065,71204759,0,0,0,0,0,0,0,0,1100,1100,1100,1100,1100,1100
9110,71215259,0,0,0,0,0,0,0,0,1100,1100,1100,1100,1100,1100
9154,71225533,0,0,0,0,0,0,0,0,1100,1100,1100,1100,1100,1100
9199,71235090,0,0,0,0,0,0,0,0,1100,1100,1100,1100,1100,1100
9243,71245267,0,0,0,0,0,0,0,0,1100,1100,1100,1100,1100,1100
9288,71255755,0,0,0,0,0,0,0,0,1100,1100,1100,1100,1100,1100
9333,71266073,0,0,0,0,0,0,0,0,1100,1100,1100,1100,1100,1100
9378,71275720,0,0,0,0,0,0,0,0,1100,1100,1100,1100,1100,1100
9428,71285538,0,0,0,0,0,0,0,0,1100,1100,1100,1100,1100,1100
9472,71296168,0,0,0,0,0,0,0,0,1100,1100,1100,1100,1100,1100
9517,71306065,0,0,0,0,0,0,0,0,1100,1100,1100,1100,1100,1100
9566,71318765,0,0,0,0,0,0,0,0,1100,1100,1100,1100,1100,1100
9606,71330107,0,0,0,0,0,0,0,0,1100,1100,1100,1100,1100,1100
9650,71340920,0,0,0,0,0,0,0,0,1100,1100,1100,1100,1100,1100
9695,71351551,0,0,0,0,0,0,0,0,1100,1100,1100,1100,1100,1100
9740,71362110,0,0,0,0,0,0,0,0,1100,1100,1100,1100,1100,1100
9784,71372564,0,0,0,0,0,0,0,0,1100,1100,1100,1100,1100,1100
9829,71382719,0,0,0,0,0,0,0,0,1100,1100,1100,1100,1100,1100
9878,71392567,0,0,0,0,0,0,0,0,1100,1100,1100,1100,1100,1100
9923,71403010,0,0,0,0,0,0,0,0,1100,1100,1100,1100,1100,1100
9969,71413521,0,0,0,0,0,0,0,0,1100,1100,1100,1100,1100,1100
10013,71423717,0,0,0,0,0,0,0,0,1100,1100,1100,1100,1100,1100
10060,71433781,0,0,0,0,0,0,0,0,1100,1100,1100,1100,1100,1100
10104,71444539,0,0,0,0,0,0,0,0,1100,1100,1100,1100,1100,1100
10150,71454705,0,0,0,0,0,0,0,0,1100,1100,1100,1100,1100,1100
10195,71464987,0,0,0,0,0,0,0,0,1100,1100,1100,1100,1100,1100
10239,71475276,0,0,0,0,0,0,0,0,1100,1100,1100,1100,1100,1100
10284,71485083,0,0,0,0,0,0,0,0,1100,1100,1100,1100,1100,1100
10332,71495290,0,0,0,0,0,0,0,0,1100,1100,1100,1100,1100,1100
10379,71508295,0,0,0,0,0,0,0,0,1100,1100,1100,1100,1100,1100
10422,71518528,0,0,0,0,0,0,0,0,1100,1100,1100,1100,1100,1100
10467,71528920,0,0,0,0,0,0,0,0,1100,1100,1100,1100,1100,1100
10512,71539009,0,0,0,0,0,0,0,0,1100,1100,1100,1100,1100,1100
10556,71549030,0,0,0,0,0,0,0,0,1100,1100,1100,1100,1100,1100
10600,71559723,0,0,0,0,0,0,0,0,1100,1100,1100,1100,1100,1100
10645,71570270,0,0,0,0,0,0,0,0,1100,1100,1100,1100,1100,1100
10689,71580534,0,0,0,0,0,0,0,0,1100,1100,1100,1100,1100,1100
10737,71590515,0,0,0,0,0,0,0,0,1100,1100,1100,1100,1100,1100
10782,71600321,0,0,0,0,0,0,0,0,1100,1100,1100,1100,1100,1100
10827,71610665,0,0,0,0,0,0,0,0,1100,1100,1100,1100,1100,1100
10873,71621097,0,0,0,0,0,0,0,0,1100,1100,1100,1100,1100,1100
10918,71631080,0,0,0,0,0,0,0,0,1100,1100,1100,1100,1100,1100
10963,71641808,0,0,0,0,0,0,0,0,1100,1100,1100,1100,1100,1100
11007,71652442,0,0,0,0,0,0,0,0,1100,1100,1100,1100,1100,1100
11052,71662297,0,0,0,0,0,0,0,0,1100,1100,1100,1100,1100,1100
11097,71672817,0,0,0,0,0,0,0,0,1100,1100,1100,1100,1100,1100
11142,71683374,0,0,0,0,0,0,0,0,1100,1100,1100,1100,1100,1100
11190,71693687,0,0,0,0,0,0,0,0,1100,1100,1100,1100,1100,1100
11235,71703776,0,0,0,0,0,0,0,0,1100,1100,1100,1100,1100,1100
11282,71714026,0,0,0,0,0,0,0,0,1100,1100,1100,1100,1100,1100
11320,71725209,0,0,0,0,0,0,0,0,1100,1100,1100,1100,1100,1100
11365,71735250,0,0,0,0,0,0,0,0,1100,1100,1100,1100,1100,1100
11409,71746306,0,0,0,0,0,0,0,0,1100,1100,1100,1100,1100,1100
11454,71756031,0,0,0,0,0,0,0,0,1100,1100,1100,1100,1100,1100
11499,71766418,0,0,0,0,0,0,0,0,1100,1100,1100,1100,1100,1100
11544,71776960,0,0,0,0,0,0,0,0,1100,1100,1100,1100,1100,1100
11590,71787583,0,0,0,0,0,0,0,0,1100,1100,1100,1100,1100,1100
11637,71798513,0,0,0,0,0,0,0,0,1100,1100,1100,1100,1100,1100
11683,71808692,0,0,0,0,0,0,0,0,1100,1100,1100,1100,1100,1100
11729,71818992,0,0,0,0,0,0,0,0,1100,1100,1100,1100,1100,1100
11773,71828759,0,0,0,0,0,0,0,0,1100,1100,1100,1100,1100,1100
11818,71839823,0,0,0,0,0,0,0,0,1100,1100,1100,1100,1100,1100
11862,71850593,0,0,0,0,0,0,0,0,1100,1100,1100,1100,1100,1100
11907,71860557,0,0,0,0,0,0,0,0,1100,1100,1100,1100,1100,1100
11952,71871112,0,0,0,0,0,0,0,0,1100,1100,1100,1100,1100,1100
11996,71881581,0,0,0,0,0,0,0,0,1100,1100,1100,1100,1100,1100
12041,71891578,0,0,0,0,0,0,0,0,1100,1100,1100,1100,1100,1100
12090,71901870,0,0,0,0,0,0,0,0,1100,1100,1100,1100,1100,1100
12132,71915578,0,0,0,0,0,0,0,0,1100,1100,1100,1100,1100,1100
12178,71926274,0,0,0,0,0,0,0,0,1100,1100,1100,1100,1100,1100
12224,71936050,0,0,0,0,0,0,0,0,1100,1100,1100,1100,1100,1100
12269,71947120,0,0,0,0,0,0,0,0,1100,1100,1100,1100,1100,1100
12314,71957511,0,0,0,0,0,0,0,0,1100,1100,1100,1100,1100,1100
12358,71968214,0,0,0,0,0,0,0,0,1100,1100,1100,1100,1100,1100
12405,71978703,0,0,0,0,0,0,0,0,1100,1100,1100,1100,1100,1100
12451,71989070,0,0,0,0,0,0,0,0,1100,1100,1100,1100,1100,1100
12496,71999007,0,0,0,0,0,0,0,0,1100,1100,1100,1100,1100,1100
12544,72009578,0,0,0,0,0,0,0,0,1100,1100,1100,1100,1100,1100
12588,72019912,0,0,0,0,0,0,0,0,1100,1100,1100,1100,1100,1100
12633,72030770,0,0,0,0,0,0,0,0,1100,1100,1100,1100,1100,1100
12677,72041554,0,0,0,0,0,0,0,0,1100,1100,1100,1100,1100,1100
12725,72053994,0,0,0,0,0,0,0,0,1100,1100,1100,1100,1100,1100
12769,72064584,0,0,0,0,0,0,0,0,1100,1100,1100,1100,1100,1100
12814,72074780,0,0,0,0,0,0,0,0,1100,1100,1100,1100,1100,1100
12859,72084773,0,0,0,0,0,0,0,0,1100,1100,1100,1100,1100,1100
12903,72094547,0,0,0,0,0,0,0,0,1100,1100,1100,1100,1100,1100
12951,72105286,0,0,0,0,0,0,0,0,1100,1100,1100,1100,1100,1100
13001,72118698,0,0,0,0,0,0,0,0,1104,1104,1104,1104,1104,1104
13043,72129801,0,0,0,0,0,0,0,0,1107,1107,1107,1107,1107,1107
13088,72139921,0,0,0,0,0,0,0,0,1110,1110,1110,1110,1110,1110
13133,72149670,0,0,0,0,0,0,0,0,1113,1113,1113,1113,1113,1113
13177,72159779,0,0,0,0,0,0,0,0,1116,1116,1116,1116,1116,1116
13221,72170594,0,0,0,0,0,0,0,0,1119,1119,1119,1119,1119,1119
13265,72180564,0,0,0,0,0,0,0,0,1122,1122,1122,1122,1122,1122
13339,72251146,0,0,0,0,0,0,0,0,1143,1143,1143,1143,1143,1143
13384,72261712,0,0,0,0,0,0,0,0,1146,1146,1146,1146,1146,1146
13428,72272280,0,0,0,0,0,0,0,0,1149,1149,1149,1149,1149,1149
13473,72283033,0,0,0,0,0,0,0,0,1188,1169,1196,1159,1205,1150
13517,72293625,0,0,0,0,0,0,0,0,1150,1275,1244,1191,1181,1252
13562,72304489,0,0,0,0,0,0,0,0,1169,1238,1190,1220,1150,1252
13609,72314721,0,0,0,0,0,0,0,0,1283,1150,1171,1268,1240,1206
13651,72326192,0,0,0,0,0,0,0,0,1254,1159,1220,1201,1261,1150
13696,72336836,0,0,0,0,0,0,0,0,1205,1164,1150,1217,1170,1199
13741,72347039,0,0,0,0,0,0,0,0,1150,1316,1245,1241,1151,1315
13785,72357845,0,0,0,0,0,0,0,0,1150,1350,1302,1222,1201,1318
13834,72371091,0,0,0,0,0,0,0,0,1150,1365,1316,1225,1209,1328
13879,72381547,0,0,0,0,0,0,0,0,1150,1376,1312,1246,1194,1350
13923,72392080,0,0,0,0,0,0,0,0,1323,1150,1195,1293,1282,1210
13969,72402138,0,0,0,0,0,0,0,0,1399,1150,1214,1361,1337,1247
14013,72412800,0,0,0,0,0,0,0,0,1204,1228,1266,1158,1255,1173
14060,72423555,0,0,0,0,0,0,0,0,1150,1358,1272,1266,1152,1357
14108,72434185,0,0,0,0,0,0,0,0,1150,1430,1419,1172,1300,1329
14153,72444142,0,0,0,0,0,0,0,0,1275,1241,1150,1341,1170,1329
14197,72454708,0,0,0,0,0,0,0,0,1445,1150,1289,1356,1417,1203
14243,72464735,0,0,0,0,0,0,0,0,1321,1172,1222,1284,1291,1214
14288,72475132,0,0,0,0,0,0,0,0,1150,1377,1302,1259,1176,1362
14332,72485697,0,0,0,0,0,0,0,0,1189,1392,1412,1150,1325,1279
14377,72496104,0,0,0,0,0,0,0,0,1342,1259,1150,1411,1205,1381
14421,72506705,0,0,0,0,0,0,0,0,1410,1150,1254,1345,1372,1217
14459,72518256,0,0,0,0,0,0,0,0,1338,1240,1338,1239,1377,1181
14503,72528548,0,0,0,0,0,0,0,0,1310,1287,1214,1368,1228,1359
14552,72539063,0,0,0,0,0,0,0,0,1188,1397,1346,1262,1240,1362
14597,72549842,0,0,0,0,0,0,0,0,1150,1435,1416,1187,1292,1342
14642,72560120,0,0,0,0,0,0,0,0,1400,1220,1214,1404,1315,1325
14686,72570119,0,0,0,0,0,0,0,0,1489,1150,1192,1469,1377,1326
14732,72580655,0,0,0,0,0,0,0,0,1269,1499,1558,1150,1467,1317
14776,72591586,0,0,0,0,0,0,0,0,1247,1417,1307,1372,1202,1445
14821,72602287,0,0,0,0,0,0,0,0,1493,1311,1150,1577,1292,1506
14866,72612724,0,0,0,0,0,0,0,0,1283,1446,1518,1150,1452,1273
14911,72622892,0,0,0,0,0,0,0,0,1294,1446,1525,1150,1463,1269
14956,72632863,0,0,0,0,0,0,0,0,1561,1210,1150,1586,1379,1451
15004,72643372,0,0,0,0,0,0,0,0,1319,1449,1281,1476,1181,1531
15049,72653600,0,0,0,0,0,0,0,0,1162,1560,1542,1204,1375,1428
15093,72664114,0,0,0,0,0,0,0,0,1458,1367,1481,1338,1518,1284
15141,72677270,0,0,0,0,0,0,0,0,1378,1475,1499,1348,1452,1405
15185,72688148,0,0,0,0,0,0,0,0,1574,1261,1466,1414,1593,1224
15230,72699573,0,0,0,0,0,0,0,0,1608,1230,1464,1441,1615,1214
15276,72710075,0,0,0,0,0,0,0,0,1580,1313,1396,1523,1524,1394
15320,72720687,0,0,0,0,0,0,0,0,1542,1391,1459,1484,1528,1408
15361,72731556,0,0,0,0,0,0,0,0,1415,1540,1494,1466,1428,1529
15407,72741603,0,0,0,0,0,0,0,0,1472,1506,1414,1556,1393,1572
15455,72752252,0,0,0,0,0,0,0,0,1524,1471,1426,1562,1454,1539
15500,72762572,0,0,0,0,0,0,0,0,1495,1518,1476,1535,1461,1549
15544,72772913,0,0,0,0,0,0,0,0,1513,1517,1474,1554,1468,1559
15592,72785597,0,0,0,0,0,0,0,0,1630,1407,1535,1521,1632,1403
15636,72796065,0,0,0,0,0,0,0,0,1580,1494,1572,1503,1607,1461
15681,72806696,0,0,0,0,0,0,0,0,1598,1495,1566,1531,1608,1482
15726,72817405,0,0,0,0,0,0,0,0,1608,1503,1564,1552,1606,1505
15771,72827499,0,0,0,0,0,0,0,0,1613,1516,1559,1573,1598,1533
15816,72837706,0,0,0,0,0,0,0,0,1583,1565,1567,1581,1565,1582
15867,72849825,0,0,0,0,0,0,0,0,1571,1594,1562,1602,1536,1625
15912,72860487,0,0,0,0,0,0,0,0,1585,1590,1587,1589,1569,1606
15957,72870924,0,0,0,0,0,0,0,0,1621,1563,1590,1595,1602,1583
16002,72881164,0,0,0,0,0,0,0,0,1649,1541,1596,1598,1631,1562
16046,72891533,0,0,0,0,0,0,0,0,1649,1548,1585,1615,1615,1585
16092,72901828,0,0,0,0,0,0,0,0,1610,1595,1590,1614,1574,1629
16130,72913302,0,0,0,0,0,0,0,0,1607,1600,1611,1597,1588,1619
16177,72923485,0,0,0,0,0,0,0,0,1637,1570,1603,1605,1608,1600
16224,72933724,0,0,0,0,0,0,0,0,1663,1542,1609,1601,1636,1572
16268,72944641,0,0,0,0,0,0,0,0,1649,1557,1591,1618,1603,1607
16318,72955233,0,0,0,0,0,0,0,0,1653,1552,1601,1607,1614,1594
16363,72966108,0,0,0,0,0,0,0,0,1651,1556,1620,1590,1627,1583
16407,72976265,0,0,0,0,0,0,0,0,1640,1569,1607,1603,1600,1611
16452,72986487,0,0,0,0,0,0,0,0,1660,1545,1588,1622,1600,1610
16498,72999589,0,0,0,0,0,0,0,0,1645,1564,1627,1584,1617,1593
16542,73010189,0,0,0,0,0,0,0,0,1647,1559,1598,1610,1589,1619
16587,73020797,0,0,0,0,0,0,0,0,1668,1534,1587,1620,1597,1610
16631,73031123,0,0,0,0,0,0,0,0,1677,1522,1609,1598,1625,1581
16676,73041096,0,0,0,0,0,0,0,0,1672,1525,1607,1598,1617,1588
16720,73051071,0,0,0,0,0,0,0,0,1677,1517,1588,1615,1601,1603
16769,73061589,0,0,0,0,0,0,0,0,1674,1520,1593,1609,1598,1604
16814,73072089,0,0,0,0,0,0,0,0,1660,1535,1622,1578,1609,1591
16858,73082735,0,0,0,0,0,0,0,0,1655,1539,1611,1588,1590,1609
16903,73095742,0,0,0,0,0,0,0,0,1675,1513,1606,1591,1603,1594
16947,73106294,0,0,0,0,0,0,0,0,1654,1539,1640,1555,1610,1587
16995,73123919,0,0,0,0,0,0,0,0,1653,1539,1619,1577,1582,1615
17040,73134668,0,0,0,0,0,0,0,0,1645,1549,1627,1569,1576,1620
17085,73144789,0,0,0,0,0,0,0,0,1670,1520,1616,1582,1588,1609
17131,73155293,0,0,0,0,0,0,0,0,1666,1525,1624,1573,1588,1610
17181,73165553,0,0,0,0,0,0,0,0,1666,1527,1631,1566,1591,1608
17225,73176066,0,0,0,0,0,0,0,0,1666,1528,1617,1583,1571,1629
17270,73186252,0,0,0,0,0,0,0,0,1674,1519,1622,1578,1582,1619
17318,73199052,0,0,0,0,0,0,0,0,1634,1568,1642,1558,1552,1647
17362,73209841,0,0,0,0,0,0,0,0,1663,1536,1611,1593,1547,1654
17407,73220284,0,0,0,0,0,0,0,0,1682,1514,1628,1576,1582,1622
17451,73230550,0,0,0,0,0,0,0,0,1684,1513,1651,1553,1604,1603
17496,73241075,0,0,0,0,0,0,0,0,1698,1494,1616,1591,1580,1626
17541,73251269,0,0,0,0,0,0,0,0,1694,1500,1612,1595,1566,1639
17586,73261504,0,0,0,0,0,0,0,0,1683,1515,1637,1569,1577,1630
17635,73271799,0,0,0,0,0,0,0,0,1678,1521,1659,1543,1592,1616
17680,73282295,0,0,0,0,0,0,0,0,1659,1543,1646,1559,1552,1651
17725,73292532,0,0,0,0,0,0,0,0,1658,1544,1627,1578,1526,1673
17768,73303322,0,0,0,0,0,0,0,0,1690,1502,1626,1578,1560,1643
17810,73314125,0,0,0,0,0,0,0,0,1703,1484,1647,1554,1595,1609
17855,73324700,0,0,0,0,0,0,0,0,1689,1501,1644,1557,1572,1630
17899,73335240,0,0,0,0,0,0,0,0,1682,1510,1632,1569,1548,1651
17943,73345481,0,0,0,0,0,0,0,0,1680,1511,1637,1563,1548,1650
17989,73355714,0,0,0,0,0,0,0,0,1675,1517,1643,1555,1545,1651
18033,73366147,0,0,0,0,0,0,0,0,1673,1519,1660,1535,1559,1639
18082,73376566,0,0,0,0,0,0,0,0,1670,1522,1648,1548,1540,1655
18126,73387119,0,0,0,0,0,0,0,0,1666,1526,1627,1571,1508,1681
18171,73397987,0,0,0,0,0,0,0,0,1694,1491,1630,1568,1542,1653
18219,73410724,0,0,0,0,0,0,0,0,1695,1490,1667,1526,1581,1618
18266,73421308,0,0,0,0,0,0,0,0,1701,1482,1642,1555,1559,1639
18310,73431740,0,0,0,0,0,0,0,0,1660,1535,1655,1541,1520,1672
18354,73442542,0,0,0,0,0,0,0,0,1635,1564,1662,1533,1496,1691
18399,73452766,0,0,0,0,0,0,0,0,1677,1514,1657,1538,1540,1656
18444,73462721,0,0,0,0,0,0,0,0,1690,1496,1659,1535,1557,1640
18489,73473092,0,0,0,0,0,0,0,0,1711,1466,1657,1536,1578,1620
18538,73483826,0,0,0,0,0,0,0,0,1699,1482,1653,1540,1556,1639
18583,73494595,0,0,0,0,0,0,0,0,1689,1494,1641,1552,1526,1664
18628,73505019,0,0,0,0,0,0,0,0,1698,1481,1654,1535,1548,1644
18671,73516086,0,0,0,0,0,0,0,0,1675,1508,1680,1502,1546,1644
18713,73528105,0,0,0,0,0,0,0,0,1645,1544,1659,1528,1474,1701
18758,73538523,0,0,0,0,0,0,0,0,1669,1514,1647,1541,1481,1694
18802,73548898,0,0,0,0,0,0,0,0,1675,1506,1645,1541,1478,1696
18847,73559690,0,0,0,0,0,0,0,0,1708,1459,1650,1535,1518,1664
18892,73570269,0,0,0,0,0,0,0,0,1738,1412,1659,1523,1557,1630
18937,73580493,0,0,0,0,0,0,0,0,1715,1447,1673,1504,1533,1649
18987,73590815,0,0,0,0,0,0,0,0,1696,1473,1677,1498,1502,1674
19031,73601580,0,0,0,0,0,0,0,0,1697,1471,1668,1509,1479,1692
19076,73612267,0,0,0,0,0,0,0,0,1700,1466,1664,1513,1464,1702
19121,73623259,0,0,0,0,0,0,0,0,1737,1410,1658,1521,1494,1679
19166,73633723,0,0,0,0,0,0,0,0,1733,1416,1690,1479,1516,1662
19210,73644152,0,0,0,0,0,0,0,0,1736,1410,1704,1460,1524,1654
19255,73654055,0,0,0,0,0,0,0,0,1738,1408,1711,1449,1524,1654
19299,73664730,0,0,0,0,0,0,0,0,1716,1440,1739,1404,1521,1656
19344,73675260,0,0,0,0,0,0,0,0,1682,1488,1736,1409,1460,1702
19390,73685591,0,0,0,0,0,0,0,0,1696,1468,1715,1441,1439,1716
19438,73696338,0,0,0,0,0,0,0,0,1699,1463,1697,1466,1408,1736
19486,73707223,0,0,0,0,0,0,0,0,1673,1498,1700,1462,1363,1762
19527,73718518,0,0,0,0,0,0,0,0,1729,1418,1663,1511,1390,1747
19569,73730039,0,0,0,0,0,0,0,0,1754,1377,1677,1493,1445,1712
19614,73740244,0,0,0,0,0,0,0,0,1748,1387,1686,1481,1446,1711
19658,73750289,0,0,0,0,0,0,0,0,1746,1391,1695,1469,1453,1706
19703,73760826,0,0,0,0,0,0,0,0,1775,1337,1683,1484,1481,1686
19747,73771597,0,0,0,0,0,0,0,0,1754,1376,1707,1452,1483,1684
19792,73781817,0,0,0,0,0,0,0,0,1774,1338,1713,1441,1522,1653
19837,73791780,0,0,0,0,0,0,0,0,1792,1301,1697,1464,1528,1647
19885,73801859,0,0,0,0,0,0,0,0,1778,1328,1700,1459,1517,1655
19930,73812133,0,0,0,0,0,0,0,0,1801,1280,1656,1516,1499,1670
19975,73822223,0,0,0,0,0,0,0,0,1763,1356,1677,1490,1477,1686
20020,73832668,0,0,0,0,0,0,0,0,1731,1413,1661,1510,1411,1732
20065,73843741,0,0,0,0,0,0,0,0,1748,1383,1686,1477,1482,1682
20110,73853906,0,0,0,0,0,0,0,0,1754,1371,1696,1463,1512,1658
20155,73864272,0,0,0,0,0,0,0,0,1758,1363,1684,1478,1511,1658
20199,73874254,0,0,0,0,0,0,0,0,1735,1401,1685,1476,1490,1674
20245,73884779,0,0,0,0,0,0,0,0,1720,1424,1665,1501,1454,1700
20289,73895532,0,0,0,0,0,0,0,0,1731,1406,1687,1471,1510,1657
20339,73905748,0,0,0,0,0,0,0,0,1731,1405,1684,1474,1519,1649
20387,73916288,0,0,0,0,0,0,0,0,1754,1365,1688,1468,1565,1607
20426,73928306,0,0,0,0,0,0,0,0,1699,1453,1708,1439,1533,1636
20471,73939277,0,0,0,0,0,0,0,0,1724,1414,1700,1451,1568,1604
20516,73950039,0,0,0,0,0,0,0,0,1677,1482,1705,1443,1529,1639
20563,73963075,0,0,0,0,0,0,0,0,1665,1497,1619,1551,1420,1720
20608,73973575,0,0,0,0,0,0,0,0,1656,1508,1600,1571,1396,1734
20652,73983808,0,0,0,0,0,0,0,0,1655,1508,1595,1576,1403,1730
20696,73993770,0,0,0,0,0,0,0,0,1660,1501,1621,1548,1458,1693
20748,74006666,0,0,0,0,0,0,0,0,1703,1441,1655,1506,1566,1602
20794,74017144,0,0,0,0,0,0,0,0,1712,1426,1637,1526,1566,1601
20838,74027717,0,0,0,0,0,0,0,0,1704,1437,1646,1515,1574,1593
20886,74040253,0,0,0,0,0,0,0,0,1647,1513,1631,1532,1496,1660
20931,74051747,0,0,0,0,0,0,0,0,1652,1506,1603,1563,1476,1676
20976,74062671,0,0,0,0,0,0,0,0,1656,1501,1633,1530,1521,1640
21021,74073221,0,0,0,0,0,0,0,0,1666,1488,1632,1530,1538,1625
21065,74083500,0,0,0,0,0,0,0,0,1672,1480,1632,1530,1550,1614
21110,74093710,0,0,0,0,0,0,0,0,1662,1494,1659,1497,1573,1592
21157,74103748,0,0,0,0,0,0,0,0,1649,1508,1638,1522,1539,1623
21199,74115530,0,0,0,0,0,0,0,0,1628,1533,1590,1573,1461,1685
21244,74126033,0,0,0,0,0,0,0,0,1634,1523,1594,1567,1479,1670
21290,74136569,0,0,0,0,0,0,0,0,1656,1495,1572,1589,1485,1664
21335,74147388,0,0,0,0,0,0,0,0,1691,1448,1610,1548,1573,1587
21380,74158700,0,0,0,0,0,0,0,0,1670,1475,1634,1520,1578,1580
21425,74169252,0,0,0,0,0,0,0,0,1638,1515,1634,1519,1545,1611
21469,74179832,0,0,0,0,0,0,0,0,1617,1538,1627,1527,1516,1636
21514,74190225,0,0,0,0,0,0,0,0,1596,1559,1608,1546,1474,1669
21559,74200556,0,0,0,0,0,0,0,0,1622,1530,1585,1570,1481,1662
21606,74210439,0,0,0,0,0,0,0,0,1632,1518,1585,1569,1496,1650
21654,74221511,0,0,0,0,0,0,0,0,1656,1487,1610,1541,1556,1597
21698,74231759,0,0,0,0,0,0,0,0,1680,1455,1598,1554,1573,1580
21743,74242488,0,0,0,0,0,0,0,0,1669,1469,1601,1551,1567,1586
21788,74252693,0,0,0,0,0,0,0,0,1629,1518,1625,1523,1551,1601
21832,74263466,0,0,0,0,0,0,0,0,1615,1535,1603,1548,1512,1635
21877,74274063,0,0,0,0,0,0,0,0,1615,1534,1595,1557,1505,1641
21922,74284117,0,0,0,0,0,0,0,0,1619,1530,1617,1532,1537,1613
21967,74294124,0,0,0,0,0,0,0,0,1646,1498,1616,1533,1567,1584
22013,74304626,0,0,0,0,0,0,0,0,1657,1484,1617,1532,1583,1568
22059,74318721,0,0,0,0,0,0,0,0,1620,1528,1595,1555,1521,1626
22105,74330115,0,0,0,0,0,0,0,0,1648,1494,1605,1545,1565,1586
22149,74340574,0,0,0,0,0,0,0,0,1647,1496,1621,1526,1582,1568
22194,74351324,0,0,0,0,0,0,0,0,1619,1530,1611,1539,1542,1608
22239,74361577,0,0,0,0,0,0,0,0,1609,1542,1590,1562,1508,1638
22283,74371830,0,0,0,0,0,0,0,0,1603,1549,1582,1571,1494,1650
22328,74382722,0,0,0,0,0,0,0,0,1640,1508,1580,1574,1535,1617
22374,74392565,0,0,0,0,0,0,0,0,1656,1489,1586,1569,1561,1594
22419,74403140,0,0,0,0,0,0,0,0,1667,1475,1582,1574,1571,1585
22465,74413902,0,0,0,0,0,0,0,0,1636,1516,1613,1542,1569,1588
22509,74424593,0,0,0,0,0,0,0,0,1592,1566,1600,1557,1507,1644
22559,74435114,0,0,0,0,0,0,0,0,1604,1554,1574,1585,1492,1657
22603,74446493,0,0,0,0,0,0,0,0,1640,1514,1591,1568,1553,1605
22648,74456670,0,0,0,0,0,0,0,0,1645,1507,1590,1569,1560,1599
22692,74466247,0,0,0,0,0,0,0,0,1646,1506,1581,1578,1553,1605
22737,74477203,0,0,0,0,0,0,0,0,1641,1511,1569,1589,1537,1619
22781,74487414,0,0,0,0,0,0,0,0,1629,1526,1576,1582,1532,1623
22826,74498033,0,0,0,0,0,0,0,0,1615,1541,1561,1596,1502,1648
22871,74512821,0,0,0,0,0,0,0,0,1635,1517,1578,1579,1545,1610
22916,74523522,0,0,0,0,0,0,0,0,1615,1540,1560,1596,1505,1645
22961,74534600,0,0,0,0,0,0,0,0,1633,1517,1566,1589,1535,1618
23010,74544760,0,0,0,0,0,0,0,0,1648,1498,1575,1580,1562,1592
23054,74555309,0,0,0,0,0,0,0,0,1634,1515,1603,1550,1577,1578
23099,74565217,0,0,0,0,0,0,0,0,1627,1523,1593,1560,1559,1594
23143,74575503,0,0,0,0,0,0,0,0,1625,1524,1595,1558,1560,1593
23187,74586925,0,0,0,0,0,0,0,0,1614,1537,1575,1578,1527,1623
23234,74597799,0,0,0,0,0,0,0,0,1656,1487,1582,1572,1581,1573
23278,74608403,0,0,0,0,0,0,0,0,1654,1490,1594,1560,1591,1563
23323,74618731,0,0,0,0,0,0,0,0,1628,1524,1596,1559,1565,1590
23367,74629495,0,0,0,0,0,0,0,0,1602,1556,1575,1583,1512,1640
23412,74639593,0,0,0,0,0,0,0,0,1604,1555,1576,1584,1516,1639
23461,74649547,0,0,0,0,0,0,0,0,1609,1553,1593,1570,1537,1623
23505,74660275,0,0,0,0,0,0,0,0,1641,1518,1592,1573,1571,1593
23550,74670747,0,0,0,0,0,0,0,0,1650,1510,1587,1580,1575,1591
23595,74681710,0,0,0,0,0,0,0,0,1633,1532,1587,1582,1556,1611
23638,74692828,0,0,0,0,0,0,0,0,1632,1534,1577,1592,1545,1623
23688,74710601,0,0,0,0,0,0,0,0,1631,1538,1578,1594,1543,1626
23732,74721261,0,0,0,0,0,0,0,0,1647,1519,1595,1577,1580,1593
23777,74731626,0,0,0,0,0,0,0,0,1637,1533,1614,1559,1587,1587
23822,74742138,0,0,0,0,0,0,0,0,1616,1558,1608,1566,1558,1615
23870,74753035,0,0,0,0,0,0,0,0,1617,1558,1565,1610,1512,1656
23915,74763783,0,0,0,0,0,0,0,0,1647,1525,1579,1598,1562,1614
23960,74774518,0,0,0,0,0,0,0,0,1642,1532,1623,1553,1600,1577
24005,74785526,0,0,0,0,0,0,0,0,1619,1559,1605,1574,1557,1621
24049,74795576,0,0,0,0,0,0,0,0,1617,1563,1588,1593,1536,1641
24091,74807004,0,0,0,0,0,0,0,0,1633,1547,1578,1604,1541,1638
24133,74818101,0,0,0,0,0,0,0,0,1644,1535,1599,1584,1575,1607
24178,74828547,0,0,0,0,0,0,0,0,1640,1540,1599,1584,1571,1612
24223,74838823,0,0,0,0,0,0,0,0,1598,1587,1599,1585,1524,1654
24268,74849479,0,0,0,0,0,0,0,0,1598,1586,1589,1595,1513,1663
24316,74859985,0,0,0,0,0,0,0,0,1625,1558,1581,1603,1535,1645
24361,74870282,0,0,0,0,0,0,0,0,1668,1507,1582,1602,1585,1599
24405,74880527,0,0,0,0,0,0,0,0,1658,1519,1598,1585,1590,1593
24451,74890550,0,0,0,0,0,0,0,0,1641,1539,1603,1580,1577,1606
24497,74907812,0,0,0,0,0,0,0,0,1655,1521,1598,1584,1588,1594
24538,74920137,0,0,0,0,0,0,0,0,1602,1580,1570,1611,1499,1673
24583,74930505,0,0,0,0,0,0,0,0,1620,1560,1577,1604,1527,1649
24630,74941007,0,0,0,0,0,0,0,0,1648,1527,1584,1596,1567,1612
24675,74951552,0,0,0,0,0,0,0,0,1655,1516,1604,1574,1596,1582
24720,74962106,0,0,0,0,0,0,0,0,1620,1555,1589,1587,1543,1631
24768,74972511,0,0,0,0,0,0,0,0,1607,1567,1585,1589,1524,1645
24813,74982791,0,0,0,0,0,0,0,0,1609,1562,1581,1591,1524,1643
24857,74993442,0,0,0,0,0,0,0,0,1630,1536,1579,1590,1545,1622
24904,75004073,0,0,0,0,0,0,0,0,1647,1514,1587,1580,1574,1593
24950,75021762,0,0,0,0,0,0,0,0,1650,1507,1588,1577,1578,1586
24995,75032132,0,0,0,0,0,0,0,0,1627,1533,1599,1565,1564,1600
25039,75042523,0,0,0,0,0,0,0,0,1612,1550,1589,1574,1536,1625
25085,75053101,0,0,0,0,0,0,0,0,1613,1548,1579,1584,1526,1632
25129,75063729,0,0,0,0,0,0,0,0,1633,1524,1577,1584,1547,1613
25179,75074540,0,0,0,0,0,0,0,0,1640,1515,1594,1567,1571,1590
25224,75084728,0,0,0,0,0,0,0,0,1632,1523,1590,1569,1559,1599
25268,75094684,0,0,0,0,0,0,0,0,1628,1527,1581,1577,1545,1612
25315,75105513,0,0,0,0,0,0,0,0,1633,1518,1560,1596,1529,1624
25356,75120756,0,0,0,0,0,0,0,0,1623,1527,1585,1569,1545,1608
25395,75133531,0,0,0,0,0,0,0,0,1637,1509,1568,1584,1542,1608
25439,75144470,0,0,0,0,0,0,0,0,1651,1488,1590,1559,1582,1567
25485,75155029,0,0,0,0,0,0,0,0,1647,1491,1593,1554,1582,1566
25530,75165550,0,0,0,0,0,0,0,0,1616,1527,1576,1569,1529,1614
25575,75175810,0,0,0,0,0,0,0,0,1610,1532,1562,1582,1507,1632
25624,75186015,0,0,0,0,0,0,0,0,1639,1496,1567,1576,1546,1596
25668,75196326,0,0,0,0,0,0,0,0,1651,1479,1571,1570,1564,1577
25712,75207236,0,0,0,0,0,0,0,0,1655,1473,1575,1566,1571,1569
25756,75218250,0,0,0,0,0,0,0,0,1650,1479,1575,1565,1565,1575
25797,75233136,0,0,0,0,0,0,0,0,1649,1480,1585,1555,1573,1567
25842,75243760,0,0,0,0,0,0,0,0,1629,1505,1583,1557,1547,1591
25886,75254555,0,0,0,0,0,0,0,0,1626,1508,1561,1578,1522,1614
25931,75264775,0,0,0,0,0,0,0,0,1648,1480,1551,1588,1535,1602
25976,75275047,0,0,0,0,0,0,0,0,1672,1447,1546,1591,1557,1580
26024,75285562,0,0,0,0,0,0,0,0,1665,1455,1589,1546,1593,1542
26072,75296118,0,0,0,0,0,0,0,0,1640,1487,1607,1526,1583,1553
26119,75313780,0,0,0,0,0,0,0,0,1675,1442,1579,1557,1590,1546
26163,75324483,0,0,0,0,0,0,0,0,1643,1485,1566,1571,1540,1596
26210,75334530,0,0,0,0,0,0,0,0,1634,1497,1573,1565,1536,1601
26249,75347055,0,0,0,0,0,0,0,0,1644,1486,1601,1536,1576,1563
26293,75358074,0,0,0,0,0,0,0,0,1635,1498,1607,1530,1571,1568
26338,75368740,0,0,0,0,0,0,0,0,1617,1521,1592,1548,1535,1605
26383,75379046,0,0,0,0,0,0,0,0,1628,1510,1576,1566,1529,1611
26427,75389230,0,0,0,0,0,0,0,0,1650,1483,1573,1570,1552,1591
26479,75399557,0,0,0,0,0,0,0,0,1658,1474,1587,1558,1575,1570
26524,75409780,0,0,0,0,0,0,0,0,1654,1481,1597,1549,1580,1566
26569,75419826,0,0,0,0,0,0,0,0,1642,1499,1597,1550,1566,1582
26614,75430098,0,0,0,0,0,0,0,0,1635,1510,1596,1554,1556,1594
26658,75440801,0,0,0,0,0,0,0,0,1647,1497,1591,1561,1565,1587
26703,75451093,0,0,0,0,0,0,0,0,1669,1471,1589,1565,1587,1568
26742,75463750,0,0,0,0,0,0,0,0,1635,1518,1613,1543,1572,1585
26786,75474086,0,0,0,0,0,0,0,0,1620,1537,1594,1565,1535,1621
26831,75484041,0,0,0,0,0,0,0,0,1627,1530,1578,1583,1525,1631
26877,75494023,0,0,0,0,0,0,0,0,1633,1525,1595,1566,1550,1610
26926,75505034,0,0,0,0,0,0,0,0,1649,1507,1614,1547,1587,1575
26972,75515373,0,0,0,0,0,0,0,0,1660,1494,1590,1574,1575,1589
27018,75529692,0,0,0,0,0,0,0,0,1631,1530,1624,1539,1578,1588
27060,75540780,0,0,0,0,0,0,0,0,1630,1533,1586,1580,1535,1628
27101,75552691,0,0,0,0,0,0,0,0,1633,1530,1574,1593,1526,1637
27146,75566264,0,0,0,0,0,0,0,0,1622,1544,1602,1566,1542,1624
27191,75576963,0,0,0,0,0,0,0,0,1614,1555,1599,1571,1529,1637
27235,75587036,0,0,0,0,0,0,0,0,1631,1538,1597,1575,1544,1626
27280,75597195,0,0,0,0,0,0,0,0,1647,1522,1595,1579,1557,1616
27324,75607546,0,0,0,0,0,0,0,0,1652,1519,1594,1583,1560,1616
27374,75618278,0,0,0,0,0,0,0,0,1640,1537,1603,1578,1553,1626
27419,75628273,0,0,0,0,0,0,0,0,1637,1544,1603,1581,1548,1634
27463,75638778,0,0,0,0,0,0,0,0,1648,1536,1596,1592,1549,1637
27508,75649283,0,0,0,0,0,0,0,0,1648,1541,1607,1586,1557,1634
27546,75661877,0,0,0,0,0,0,0,0,1655,1537,1622,1574,1578,1618
27591,75672602,0,0,0,0,0,0,0,0,1656,1540,1608,1593,1561,1638
27637,75683276,0,0,0,0,0,0,0,0,1655,1547,1604,1602,1551,1651
27681,75693743,0,0,0,0,0,0,0,0,1656,1549,1628,1581,1575,1632
27725,75705039,0,0,0,0,0,0,0,0,1667,1539,1631,1580,1589,1623
27766,75715796,0,0,0,0,0,0,0,0,1648,1565,1612,1604,1543,1667
27815,75726537,0,0,0,0,0,0,0,0,1665,1548,1625,1591,1574,1641
27860,75736956,0,0,0,0,0,0,0,0,1693,1515,1624,1594,1602,1616
27904,75747523,0,0,0,0,0,0,0,0,1672,1542,1636,1582,1589,1629
27950,75757851,0,0,0,0,0,0,0,0,1648,1570,1639,1579,1564,1653
27994,75768064,0,0,0,0,0,0,0,0,1647,1570,1616,1604,1536,1677
28033,75780597,0,0,0,0,0,0,0,0,1681,1530,1625,1594,1582,1636
28078,75790989,0,0,0,0,0,0,0,0,1688,1522,1641,1577,1605,1614
28122,75801046,0,0,0,0,0,0,0,0,1653,1562,1627,1589,1550,1663
28169,75811126,0,0,0,0,0,0,0,0,1646,1567,1615,1600,1527,1680
28213,75821589,0,0,0,0,0,0,0,0,1656,1554,1615,1598,1538,1670
28262,75832084,0,0,0,0,0,0,0,0,1662,1544,1629,1582,1559,1650
28307,75842662,0,0,0,0,0,0,0,0,1691,1507,1624,1585,1586,1623
28351,75853253,0,0,0,0,0,0,0,0,1674,1528,1626,1582,1567,1640
28396,75863763,0,0,0,0,0,0,0,0,1661,1541,1619,1588,1543,1659
28441,75879267,0,0,0,0,0,0,0,0,1672,1523,1631,1571,1569,1633
28485,75890240,0,0,0,0,0,0,0,0,1673,1520,1604,1597,1541,1656
28532,75900900,0,0,0,0,0,0,0,0,1675,1514,1625,1573,1565,1632
28576,75911593,0,0,0,0,0,0,0,0,1680,1506,1639,1556,1584,1613
28621,75926291,0,0,0,0,0,0,0,0,1662,1527,1623,1572,1545,1647
28670,75937196,0,0,0,0,0,0,0,0,1675,1508,1621,1571,1557,1634
28716,75947592,0,0,0,0,0,0,0,0,1654,1533,1644,1544,1556,1633
28761,75958752,0,0,0,0,0,0,0,0,1627,1561,1633,1554,1513,1668
28806,75972709,0,0,0,0,0,0,0,0,1674,1502,1637,1546,1571,1615
28850,75983396,0,0,0,0,0,0,0,0,1667,1510,1635,1547,1559,1625
28896,75997444,0,0,0,0,0,0,0,0,1665,1510,1615,1567,1532,1646
28941,76007808,0,0,0,0,0,0,0,0,1698,1465,1615,1566,1571,1611
28986,76018516,0,0,0,0,0,0,0,0,1690,1474,1631,1547,1578,1603
29033,76029289,0,0,0,0,0,0,0,0,1672,1497,1630,1547,1554,1624
29077,76040067,0,0,0,0,0,0,0,0,1651,1521,1612,1565,1508,1662
29126,76050666,0,0,0,0,0,0,0,0,1663,1505,1607,1569,1516,1654
29170,76061143,0,0,0,0,0,0,0,0,1663,1503,1637,1535,1550,1623
29215,76071534,0,0,0,0,0,0,0,0,1663,1501,1635,1535,1548,1624
29260,76081889,0,0,0,0,0,0,0,0,1660,1503,1631,1538,1540,1630
29301,76097110,0,0,0,0,0,0,0,0,1683,1471,1631,1536,1566,1604
29346,76107284,0,0,0,0,0,0,0,0,1653,1508,1645,1518,1548,1619
29390,76119146,0,0,0,0,0,0,0,0,1635,1528,1617,1548,1493,1664
29431,76130502,0,0,0,0,0,0,0,0,1641,1520,1609,1555,1490,1665
29476,76140527,0,0,0,0,0,0,0,0,1664,1489,1608,1554,1518,1640
29521,76150986,0,0,0,0,0,0,0,0,1693,1447,1602,1560,1547,1613
29569,76161557,0,0,0,0,0,0,0,0,1707,1424,1626,1531,1590,1570
29613,76172219,0,0,0,0,0,0,0,0,1655,1494,1646,1505,1553,1605
29657,76182495,0,0,0,0,0,0,0,0,1648,1503,1639,1514,1535,1621
29702,76192554,0,0,0,0,0,0,0,0,1649,1501,1622,1532,1517,1635
29744,76204070,0,0,0,0,0,0,0,0,1650,1498,1607,1548,1502,1647
29788,76218108,0,0,0,0,0,0,0,0,1676,1464,1616,1538,1544,1610
29835,76228496,0,0,0,0,0,0,0,0,1644,1505,1613,1541,1501,1647
29880,76239100,0,0,0,0,0,0,0,0,1621,1531,1611,1541,1473,1668
29924,76249820,0,0,0,0,0,0,0,0,1636,1512,1610,1542,1490,1654
29973,76260835,0,0,0,0,0,0,0,0,1624,1524,1646,1497,1522,1626
30017,76271090,0,0,0,0,0,0,0,0,1682,1449,1630,1516,1572,1579
30062,76281730,0,0,0,0,0,0,0,0,1688,1438,1625,1520,1575,1574
30106,76291745,0,0,0,0,0,0,0,0,1634,1507,1638,1503,1528,1616
30154,76305711,0,0,0,0,0,0,0,0,1690,1431,1584,1562,1537,1607
30193,76318304,0,0,0,0,0,0,0,0,1680,1444,1628,1512,1573,1571
30234,76329830,0,0,0,0,0,0,0,0,1628,1510,1626,1512,1512,1626
30279,76340122,0,0,0,0,0,0,0,0,1617,1521,1596,1545,1464,1663
30326,76350267,0,0,0,0,0,0,0,0,1609,1528,1594,1545,1455,1668
30372,76360728,0,0,0,0,0,0,0,0,1636,1494,1592,1545,1488,1641
30421,76371509,0,0,0,0,0,0,0,0,1663,1457,1597,1537,1530,1604
30465,76382267,0,0,0,0,0,0,0,0,1671,1443,1606,1525,1551,1582
30512,76393111,0,0,0,0,0,0,0,0,1647,1472,1614,1513,1534,1595
30556,76403695,0,0,0,0,0,0,0,0,1621,1502,1607,1518,1497,1625
30598,76418757,0,0,0,0,0,0,0,0,1644,1468,1623,1495,1546,1578
30642,76429738,0,0,0,0,0,0,0,0,1622,1494,1619,1496,1519,1600
30688,76440539,0,0,0,0,0,0,0,0,1627,1483,1593,1524,1497,1616
30732,76450747,0,0,0,0,0,0,0,0,1641,1463,1572,1543,1492,1617
30776,76461129,0,0,0,0,0,0,0,0,1636,1465,1577,1535,1495,1612
30821,76471288,0,0,0,0,0,0,0,0,1640,1457,1572,1537,1497,1608
30870,76481240,0,0,0,0,0,0,0,0,1647,1445,1583,1523,1520,1585
30914,76491775,0,0,0,0,0,0,0,0,1656,1428,1586,1517,1536,1568
30961,76502768,0,0,0,0,0,0,0,0,1660,1421,1611,1485,1569,1533
31002,76521239,0,0,0,0,0,0,0,0,1627,1462,1606,1488,1529,1570
31047,76532046,0,0,0,0,0,0,0,0,1594,1502,1615,1477,1501,1594
31089,76543624,0,0,0,0,0,0,0,0,1583,1512,1606,1486,1481,1610
31133,76553767,0,0,0,0,0,0,0,0,1620,1468,1590,1503,1506,1588
31178,76564471,0,0,0,0,0,0,0,0,1617,1470,1569,1526,1480,1609
31223,76574521,0,0,0,0,0,0,0,0,1594,1496,1581,1511,1467,1618
31272,76585135,0,0,0,0,0,0,0,0,1579,1511,1590,1500,1461,1622
31317,76595734,0,0,0,0,0,0,0,0,1622,1457,1580,1508,1502,1585
31362,76606746,0,0,0,0,0,0,0,0,1629,1445,1603,1477,1539,1547
31407,76617960,0,0,0,0,0,0,0,0,1620,1454,1608,1468,1536,1548
31449,76632828,0,0,0,0,0,0,0,0,1617,1454,1593,1484,1518,1563
31493,76643022,0,0,0,0,0,0,0,0,1653,1403,1592,1483,1559,1521
31538,76653143,0,0,0,0,0,0,0,0,1666,1383,1584,1492,1566,1512
31583,76663115,0,0,0,0,0,0,0,0,1631,1431,1604,1466,1549,1528
31627,76673318,0,0,0,0,0,0,0,0,1612,1454,1616,1448,1542,1532
31673,76683559,0,0,0,0,0,0,0,0,1615,1448,1614,1448,1545,1528
31721,76693642,0,0,0,0,0,0,0,0,1626,1432,1590,1476,1533,1539
31764,76705568,0,0,0,0,0,0,0,0,1592,1472,1560,1509,1461,1601
31808,76716661,0,0,0,0,0,0,0,0,1602,1459,1547,1522,1459,1602
31853,76727135,0,0,0,0,0,0,0,0,1609,1448,1545,1522,1469,1593
31897,76737419,0,0,0,0,0,0,0,0,1601,1458,1556,1509,1471,1590
31942,76755112,0,0,0,0,0,0,0,0,1633,1412,1521,1543,1475,1584
31988,76765089,0,0,0,0,0,0,0,0,1621,1427,1532,1530,1474,1584
32034,76775764,0,0,0,0,0,0,0,0,1614,1434,1540,1520,1476,1580
32078,76785798,0,0,0,0,0,0,0,0,1629,1411,1560,1497,1518,1540
32123,76796191,0,0,0,0,0,0,0,0,1665,1355,1556,1499,1558,1498
32171,76806306,0,0,0,0,0,0,0,0,1665,1352,1559,1494,1563,1490
32216,76816802,0,0,0,0,0,0,0,0,1647,1379,1562,1490,1547,1507
32261,76827158,0,0,0,0,0,0,0,0,1613,1426,1610,1431,1561,1491
32305,76837464,0,0,0,0,0,0,0,0,1621,1415,1597,1447,1557,1494
32345,76850073,0,0,0,0,0,0,0,0,1539,1513,1552,1499,1411,1624
32391,76860224,0,0,0,0,0,0,0,0,1560,1489,1557,1493,1446,1597
32435,76871059,0,0,0,0,0,0,0,0,1586,1457,1537,1513,1456,1587
32481,76881571,0,0,0,0,0,0,0,0,1591,1450,1518,1531,1443,1597
32527,76892484,0,0,0,0,0,0,0,0,1594,1444,1524,1524,1456,1585
32572,76903196,0,0,0,0,0,0,0,0,1610,1422,1547,1498,1502,1543
32622,76914005,0,0,0,0,0,0,0,0,1633,1388,1559,1483,1543,1501
32661,76925813,0,0,0,0,0,0,0,0,1550,1491,1566,1473,1458,1579
32706,76936703,0,0,0,0,0,0,0,0,1548,1492,1561,1477,1451,1583
32752,76947000,0,0,0,0,0,0,0,0,1538,1500,1534,1504,1409,1613
32794,76958542,0,0,0,0,0,0,0,0,1552,1481,1502,1533,1390,1623
32839,76969319,0,0,0,0,0,0,0,0,1551,1479,1500,1532,1390,1621
32883,76979901,0,0,0,0,0,0,0,0,1569,1455,1489,1539,1402,1610
32929,76990566,0,0,0,0,0,0,0,0,1612,1396,1481,1544,1452,1569
32970,77002539,0,0,0,0,0,0,0,0,1615,1388,1564,1456,1544,1478
33014,77012738,0,0,0,0,0,0,0,0,1603,1403,1569,1447,1538,1483
33063,77023002,0,0,0,0,0,0,0,0,1584,1425,1571,1442,1521,1498
33109,77033687,0,0,0,0,0,0,0,0,1559,1455,1578,1431,1502,1516
33154,77044188,0,0,0,0,0,0,0,0,1532,1484,1574,1435,1470,1544
33199,77054416,0,0,0,0,0,0,0,0,1524,1490,1575,1431,1466,1547
33240,77065700,0,0,0,0,0,0,0,0,1497,1516,1549,1461,1405,1594
33285,77076591,0,0,0,0,0,0,0,0,1497,1513,1511,1498,1358,1623
33327,77088720,0,0,0,0,0,0,0,0,1589,1405,1466,1539,1427,1573
33371,77099008,0,0,0,0,0,0,0,0,1630,1342,1468,1535,1484,1521
33419,77109817,0,0,0,0,0,0,0,0,1586,1404,1484,1519,1447,1551
33465,77124236,0,0,0,0,0,0,0,0,1568,1424,1580,1409,1533,1466
33510,77134491,0,0,0,0,0,0,0,0,1517,1480,1567,1423,1468,1529
33554,77144902,0,0,0,0,0,0,0,0,1572,1413,1563,1425,1526,1469
33599,77155241,0,0,0,0,0,0,0,0,1561,1425,1545,1445,1496,1498
33640,77166486,0,0,0,0,0,0,0,0,1561,1422,1526,1465,1478,1513
33685,77176748,0,0,0,0,0,0,0,0,1546,1438,1502,1488,1438,1547
33727,77188286,0,0,0,0,0,0,0,0,1569,1409,1450,1536,1411,1568
33771,77198863,0,0,0,0,0,0,0,0,1551,1429,1474,1511,1418,1560
33816,77209506,0,0,0,0,0,0,0,0,1597,1364,1484,1500,1486,1498
33861,77219800,0,0,0,0,0,0,0,0,1617,1332,1463,1518,1492,1490
33910,77230304,0,0,0,0,0,0,0,0,1617,1328,1480,1499,1511,1468
33955,77240902,0,0,0,0,0,0,0,0,1596,1360,1504,1475,1511,1467
33999,77251276,0,0,0,0,0,0,0,0,1587,1372,1524,1452,1522,1453
34045,77261753,0,0,0,0,0,0,0,0,1601,1349,1520,1455,1536,1437
34089,77275998,0,0,0,0,0,0,0,0,1521,1452,1512,1463,1439,1532
34134,77290408,0,0,0,0,0,0,0,0,1544,1425,1460,1513,1409,1556
34178,77300896,0,0,0,0,0,0,0,0,1588,1365,1499,1475,1503,1471
34222,77312023,0,0,0,0,0,0,0,0,1593,1357,1515,1457,1525,1446
34264,77322859,0,0,0,0,0,0,0,0,1518,1453,1548,1418,1478,1495
34308,77333069,0,0,0,0,0,0,0,0,1529,1439,1557,1405,1501,1471
34357,77343551,0,0,0,0,0,0,0,0,1561,1397,1539,1426,1515,1453
34402,77354131,0,0,0,0,0,0,0,0,1542,1421,1538,1426,1493,1476
34447,77364359,0,0,0,0,0,0,0,0,1560,1397,1548,1412,1524,1442
34492,77374418,0,0,0,0,0,0,0,0,1587,1358,1548,1411,1550,1408
34535,77385865,0,0,0,0,0,0,0,0,1523,1442,1558,1398,1493,1474
34580,77399798,0,0,0,0,0,0,0,0,1481,1485,1462,1504,1328,1605
34624,77410112,0,0,0,0,0,0,0,0,1482,1483,1472,1493,1342,1596
34669,77420693,0,0,0,0,0,0,0,0,1494,1471,1478,1488,1363,1582
34717,77431080,0,0,0,0,0,0,0,0,1496,1469,1466,1499,1349,1592
34761,77441796,0,0,0,0,0,0,0,0,1480,1486,1476,1490,1338,1599
34810,77452666,0,0,0,0,0,0,0,0,1513,1453,1440,1525,1334,1603
34854,77463267,0,0,0,0,0,0,0,0,1564,1392,1422,1541,1382,1572
34899,77473758,0,0,0,0,0,0,0,0,1582,1368,1434,1531,1416,1546
34944,77483994,0,0,0,0,0,0,0,0,1577,1377,1446,1523,1420,1545
34985,77495286,0,0,0,0,0,0,0,0,1589,1361,1459,1511,1446,1523
35030,77509494,0,0,0,0,0,0,0,0,1563,1398,1573,1385,1533,1435
35077,77519814,0,0,0,0,0,0,0,0,1578,1381,1564,1400,1536,1434
35115,77531217,0,0,0,0,0,0,0,0,1527,1447,1578,1382,1496,1480
35160,77542115,0,0,0,0,0,0,0,0,1589,1367,1562,1405,1542,1430
35210,77552708,0,0,0,0,0,0,0,0,1584,1377,1560,1410,1532,1443
35255,77563024,0,0,0,0,0,0,0,0,1551,1422,1564,1404,1500,1479
35299,77573167,0,0,0,0,0,0,0,0,1541,1436,1571,1399,1495,1487
35344,77583522,0,0,0,0,0,0,0,0,1561,1413,1570,1401,1512,1470
35385,77594545,0,0,0,0,0,0,0,0,1566,1406,1547,1430,1492,1490
35427,77606298,0,0,0,0,0,0,0,0,1522,1460,1508,1476,1394,1576
35471,77616143,0,0,0,0,0,0,0,0,1513,1470,1520,1463,1397,1574
35515,77626766,0,0,0,0,0,0,0,0,1510,1475,1530,1453,1405,1569
35559,77637724,0,0,0,0,0,0,0,0,1481,1506,1518,1469,1351,1609
35604,77647872,0,0,0,0,0,0,0,0,1456,1529,1495,1492,1284,1648
35654,77658819,0,0,0,0,0,0,0,0,1477,1512,1506,1483,1327,1625
35699,77668828,0,0,0,0,0,0,0,0,1491,1500,1495,1496,1330,1625
35743,77679543,0,0,0,0,0,0,0,0,1479,1512,1525,1465,1356,1609
35788,77689802,0,0,0,0,0,0,0,0,1464,1528,1539,1452,1353,1613
35833,77700111,0,0,0,0,0,0,0,0,1469,1526,1511,1485,1319,1636
35873,77712554,0,0,0,0,0,0,0,0,1509,1489,1477,1521,1326,1633
35911,77724032,0,0,0,0,0,0,0,0,1548,1448,1502,1498,1409,1579
35956,77734226,0,0,0,0,0,0,0,0,1544,1454,1474,1527,1369,1609
36001,77744549,0,0,0,0,0,0,0,0,1553,1446,1462,1540,1367,1612
36045,77754307,0,0,0,0,0,0,0,0,1533,1472,1485,1521,1366,1615
36094,77765130,0,0,0,0,0,0,0,0,1513,1495,1498,1510,1356,1623
36139,77775849,0,0,0,0,0,0,0,0,1555,1451,1485,1524,1394,1599
36184,77786483,0,0,0,0,0,0,0,0,1605,1388,1471,1539,1443,1564
36230,77796289,0,0,0,0,0,0,0,0,1609,1384,1470,1541,1447,1562
36274,77806535,0,0,0,0,0,0,0,0,1591,1411,1472,1541,1425,1581
36316,77818044,0,0,0,0,0,0,0,0,1623,1365,1511,1504,1506,1509
36360,77828256,0,0,0,0,0,0,0,0,1611,1384,1513,1503,1493,1522
36402,77839788,0,0,0,0,0,0,0,0,1642,1336,1528,1487,1545,1469
36447,77849877,0,0,0,0,0,0,0,0,1654,1312,1495,1519,1529,1485
36491,77860551,0,0,0,0,0,0,0,0,1635,1345,1532,1481,1543,1470
36540,77871282,0,0,0,0,0,0,0,0,1625,1360,1571,1436,1570,1437
36586,77881716,0,0,0,0,0,0,0,0,1633,1347,1561,1447,1569,1437
36632,77891917,0,0,0,0,0,0,0,0,1622,1365,1553,1458,1549,1462
36679,77905428,0,0,0,0,0,0,0,0,1555,1454,1526,1487,1443,1565
36721,77916776,0,0,0,0,0,0,0,0,1571,1436,1505,1510,1438,1569
36762,77930769,0,0,0,0,0,0,0,0,1586,1416,1565,1443,1520,1493
36809,77944106,0,0,0,0,0,0,0,0,1513,1502,1557,1454,1428,1578
36855,77954583,0,0,0,0,0,0,0,0,1512,1503,1550,1462,1419,1585
36900,77964808,0,0,0,0,0,0,0,0,1540,1474,1522,1494,1417,1587
36945,77974719,0,0,0,0,0,0,0,0,1549,1465,1539,1477,1445,1566
36994,77985148,0,0,0,0,0,0,0,0,1566,1445,1512,1504,1435,1574
37039,77995666,0,0,0,0,0,0,0,0,1530,1487,1517,1501,1393,1607
37085,78006062,0,0,0,0,0,0,0,0,1524,1494,1513,1505,1379,1616
37129,78016114,0,0,0,0,0,0,0,0,1592,1413,1504,1513,1454,1559
37171,78027477,0,0,0,0,0,0,0,0,1638,1345,1531,1486,1535,1482
37214,78039303,0,0,0,0,0,0,0,0,1625,1366,1567,1444,1555,1459
37259,78049754,0,0,0,0,0,0,0,0,1597,1406,1579,1430,1535,1481
37304,78059711,0,0,0,0,0,0,0,0,1605,1396,1577,1433,1541,1476
37348,78069791,0,0,0,0,0,0,0,0,1608,1393,1581,1430,1546,1471
37393,78079890,0,0,0,0,0,0,0,0,1619,1377,1566,1449,1541,1478
37441,78090533,0,0,0,0,0,0,0,0,1616,1383,1573,1441,1543,1476
37485,78101106,0,0,0,0,0,0,0,0,1583,1429,1579,1433,1512,1509
37530,78111257,0,0,0,0,0,0,0,0,1573,1441,1576,1438,1497,1524
37576,78121985,0,0,0,0,0,0,0,0,1571,1444,1574,1440,1491,1530
37616,78133901,0,0,0,0,0,0,0,0,1567,1450,1516,1506,1417,1593
37655,78145826,0,0,0,0,0,0,0,0,1616,1384,1534,1488,1497,1525
37699,78156000,0,0,0,0,0,0,0,0,1613,1388,1546,1474,1506,1516
37744,78166015,0,0,0,0,0,0,0,0,1639,1350,1523,1499,1512,1511
37788,78176260,0,0,0,0,0,0,0,0,1636,1355,1514,1509,1498,1525
37833,78186546,0,0,0,0,0,0,0,0,1612,1391,1533,1489,1490,1533
37881,78197174,0,0,0,0,0,0,0,0,1627,1371,1563,1458,1537,1487
37926,78207706,0,0,0,0,0,0,0,0,1646,1343,1558,1464,1553,1470
37971,78218025,0,0,0,0,0,0,0,0,1641,1351,1585,1431,1576,1444
38017,78228712,0,0,0,0,0,0,0,0,1631,1369,1573,1449,1550,1475
38062,78242774,0,0,0,0,0,0,0,0,1547,1479,1530,1497,1402,1608
38106,78257094,0,0,0,0,0,0,0,0,1653,1336,1564,1461,1566,1459
38151,78268242,0,0,0,0,0,0,0,0,1634,1367,1564,1462,1545,1483
38196,78279011,0,0,0,0,0,0,0,0,1591,1429,1590,1430,1525,1506
38240,78289702,0,0,0,0,0,0,0,0,1550,1479,1591,1430,1479,1550
38289,78300468,0,0,0,0,0,0,0,0,1550,1480,1587,1437,1475,1555
38334,78311044,0,0,0,0,0,0,0,0,1542,1491,1557,1474,1428,1594
38378,78325209,0,0,0,0,0,0,0,0,1633,1375,1532,1503,1510,1525
38419,78336732,0,0,0,0,0,0,0,0,1651,1349,1566,1466,1565,1467
38463,78347243,0,0,0,0,0,0,0,0,1650,1353,1583,1448,1580,1451
38506,78358909,0,0,0,0,0,0,0,0,1607,1418,1599,1428,1550,1487
38551,78369540,0,0,0,0,0,0,0,0,1561,1475,1584,1448,1483,1554
38597,78380065,0,0,0,0,0,0,0,0,1590,1441,1560,1477,1490,1548
38642,78390157,0,0,0,0,0,0,0,0,1570,1467,1555,1484,1460,1576
38686,78400723,0,0,0,0,0,0,0,0,1576,1461,1572,1466,1486,1554
38736,78411075,0,0,0,0,0,0,0,0,1564,1476,1541,1502,1435,1598
38781,78421332,0,0,0,0,0,0,0,0,1577,1462,1525,1519,1434,1600
38826,78432136,0,0,0,0,0,0,0,0,1583,1456,1522,1523,1437,1598
38871,78442537,0,0,0,0,0,0,0,0,1586,1452,1515,1530,1433,1601
38915,78453010,0,0,0,0,0,0,0,0,1618,1410,1510,1535,1468,1572
38956,78464734,0,0,0,0,0,0,0,0,1646,1368,1517,1528,1511,1533
39000,78475312,0,0,0,0,0,0,0,0,1653,1356,1568,1472,1571,1468
39042,78487222,0,0,0,0,0,0,0,0,1602,1428,1601,1429,1552,1489
39087,78497817,0,0,0,0,0,0,0,0,1596,1434,1587,1445,1531,1510
39135,78508784,0,0,0,0,0,0,0,0,1564,1472,1583,1449,1492,1546
39178,78520279,0,0,0,0,0,0,0,0,1540,1499,1536,1503,1408,1615
39224,78531250,0,0,0,0,0,0,0,0,1549,1488,1516,1523,1397,1622
39268,78541783,0,0,0,0,0,0,0,0,1555,1481,1539,1499,1433,1596
39314,78552137,0,0,0,0,0,0,0,0,1612,1409,1548,1488,1513,1525
39355,78563271,0,0,0,0,0,0,0,0,1644,1363,1553,1483,1556,1480
39400,78577408,0,0,0,0,0,0,0,0,1547,1489,1566,1468,1461,1572
39444,78588482,0,0,0,0,0,0,0,0,1539,1498,1544,1492,1426,1599
39489,78598836,0,0,0,0,0,0,0,0,1532,1505,1518,1519,1388,1626
39534,78609529,0,0,0,0,0,0,0,0,1585,1444,1503,1534,1440,1589
39578,78620055,0,0,0,0,0,0,0,0,1583,1448,1532,1506,1470,1565
39627,78630707,0,0,0,0,0,0,0,0,1621,1397,1538,1499,1523,1515
39674,78641298,0,0,0,0,0,0,0,0,1644,1363,1556,1480,1568,1466
39721,78654113,0,0,0,0,0,0,0,0,1600,1427,1560,1475,1526,1512
39766,78668037,0,0,0,0,0,0,0,0,1622,1396,1532,1507,1522,1516
39807,78679538,0,0,0,0,0,0,0,0,1626,1392,1564,1472,1560,1476
39853,78689791,0,0,0,0,0,0,0,0,1593,1437,1583,1449,1545,1493
39897,78700113,0,0,0,0,0,0,0,0,1575,1458,1581,1452,1525,1514
39944,78709915,0,0,0,0,0,0,0,0,1597,1431,1568,1467,1536,1502
39982,78721318,0,0,0,0,0,0,0,0,1594,1435,1538,1499,1502,1536
40031,78731761,0,0,0,0,0,0,0,0,1566,1468,1549,1488,1483,1553
40075,78742114,0,0,0,0,0,0,0,0,1567,1466,1544,1493,1479,1556
40120,78752790,0,0,0,0,0,0,0,0,1598,1425,1539,1496,1511,1525
40165,78763729,0,0,0,0,0,0,0,0,1637,1370,1553,1480,1568,1462
40210,78774181,0,0,0,0,0,0,0,0,1632,1375,1572,1456,1582,1444
40249,78786975,0,0,0,0,0,0,0,0,1571,1456,1543,1488,1485,1546
40294,78797218,0,0,0,0,0,0,0,0,1579,1446,1528,1503,1478,1551
40338,78808035,0,0,0,0,0,0,0,0,1550,1479,1545,1485,1463,1564
40383,78818999,0,0,0,0,0,0,0,0,1565,1462,1545,1485,1479,1550
40429,78829887,0,0,0,0,0,0,0,0,1588,1433,1565,1461,1527,1504
40477,78840714,0,0,0,0,0,0,0,0,1609,1405,1569,1457,1551,1477
40522,78851256,0,0,0,0,0,0,0,0,1596,1422,1550,1479,1517,1514
40566,78861587,0,0,0,0,0,0,0,0,1587,1435,1549,1479,1504,1526
40613,78871909,0,0,0,0,0,0,0,0,1566,1461,1556,1472,1486,1544
40655,78883551,0,0,0,0,0,0,0,0,1589,1433,1545,1486,1498,1533
40700,78894478,0,0,0,0,0,0,0,0,1593,1429,1551,1479,1508,1524
40747,78904839,0,0,0,0,0,0,0,0,1585,1439,1572,1455,1520,1512
40785,78920892,0,0,0,0,0,0,0,0,1575,1453,1536,1498,1466,1564
40831,78931723,0,0,0,0,0,0,0,0,1609,1410,1552,1481,1522,1513
40877,78941829,0,0,0,0,0,0,0,0,1619,1398,1561,1471,1540,1495
40926,78951790,0,0,0,0,0,0,0,0,1588,1439,1580,1449,1525,1511
40970,78962338,0,0,0,0,0,0,0,0,1569,1463,1550,1485,1468,1564
41015,78973493,0,0,0,0,0,0,0,0,1546,1489,1544,1491,1434,1593
41061,78983809,0,0,0,0,0,0,0,0,1560,1472,1541,1493,1447,1581
41099,78995890,0,0,0,0,0,0,0,0,1634,1376,1555,1478,1547,1487
41144,79006671,0,0,0,0,0,0,0,0,1649,1351,1555,1478,1563,1469
41189,79017179,0,0,0,0,0,0,0,0,1622,1391,1569,1461,1547,1486
41234,79027743,0,0,0,0,0,0,0,0,1577,1452,1578,1451,1506,1529
41278,79038254,0,0,0,0,0,0,0,0,1532,1503,1585,1442,1463,1568
41324,79048797,0,0,0,0,0,0,0,0,1563,1470,1577,1453,1487,1548
41372,79059733,0,0,0,0,0,0,0,0,1578,1454,1551,1485,1474,1561
41416,79070067,0,0,0,0,0,0,0,0,1596,1432,1556,1481,1499,1539
41463,79080749,0,0,0,0,0,0,0,0,1624,1397,1555,1484,1529,1512
41508,79091017,0,0,0,0,0,0,0,0,1614,1414,1578,1461,1540,1504
41551,79105500,0,0,0,0,0,0,0,0,1570,1471,1562,1480,1473,1568
41593,79116592,0,0,0,0,0,0,0,0,1580,1461,1554,1490,1473,1570
41638,79129719,0,0,0,0,0,0,0,0,1612,1420,1581,1459,1538,1507
41682,79140079,0,0,0,0,0,0,0,0,1587,1454,1556,1490,1482,1563
41728,79150324,0,0,0,0,0,0,0,0,1562,1484,1548,1500,1441,1598
41776,79161017,0,0,0,0,0,0,0,0,1592,1449,1529,1521,1456,1587
41821,79171670,0,0,0,0,0,0,0,0,1607,1434,1537,1516,1481,1569
41866,79182280,0,0,0,0,0,0,0,0,1637,1394,1543,1511,1522,1532
41911,79192753,0,0,0,0,0,0,0,0,1615,1427,1564,1489,1519,1537
41956,79210274,0,0,0,0,0,0,0,0,1662,1361,1527,1532,1533,1526
42000,79220586,0,0,0,0,0,0,0,0,1655,1375,1560,1500,1556,1504
42045,79231011,0,0,0,0,0,0,0,0,1640,1400,1558,1503,1535,1527
42090,79241720,0,0,0,0,0,0,0,0,1642,1397,1572,1488,1552,1510
42134,79252150,0,0,0,0,0,0,0,0,1614,1437,1587,1470,1536,1527
42179,79262795,0,0,0,0,0,0,0,0,1621,1427,1573,1487,1527,1536
42227,79273236,0,0,0,0,0,0,0,0,1622,1424,1547,1515,1501,1559
42273,79283782,0,0,0,0,0,0,0,0,1628,1416,1541,1520,1500,1559
42319,79294718,0,0,0,0,0,0,0,0,1648,1385,1573,1484,1559,1500
42362,79309688,0,0,0,0,0,0,0,0,1629,1413,1555,1505,1516,1544
42404,79325156,0,0,0,0,0,0,0,0,1599,1452,1592,1461,1522,1537
42449,79335469,0,0,0,0,0,0,0,0,1582,1472,1575,1480,1482,1573
42493,79345793,0,0,0,0,0,0,0,0,1569,1487,1568,1488,1459,1592
42538,79356663,0,0,0,0,0,0,0,0,1592,1460,1545,1514,1457,1595
42586,79366967,0,0,0,0,0,0,0,0,1629,1411,1575,1480,1534,1524
42634,79377709,0,0,0,0,0,0,0,0,1655,1373,1572,1484,1558,1499
42679,79388150,0,0,0,0,0,0,0,0,1618,1427,1606,1442,1551,1506
42723,79398701,0,0,0,0,0,0,0,0,1629,1410,1605,1443,1561,1494
42768,79409818,0,0,0,0,0,0,0,0,1610,1436,1576,1478,1506,1551
42810,79425034,0,0,0,0,0,0,0,0,1631,1406,1585,1467,1539,1518
42854,79435486,0,0,0,0,0,0,0,0,1603,1445,1582,1472,1501,1556
42899,79445781,0,0,0,0,0,0,0,0,1564,1492,1598,1452,1472,1581
42945,79456515,0,0,0,0,0,0,0,0,1584,1470,1552,1506,1439,1609
42990,79466727,0,0,0,0,0,0,0,0,1604,1447,1559,1499,1469,1586
43035,79477197,0,0,0,0,0,0,0,0,1624,1420,1573,1484,1507,1552
43083,79488132,0,0,0,0,0,0,0,0,1652,1379,1598,1454,1563,1495
43130,79501587,0,0,0,0,0,0,0,0,1576,1481,1601,1451,1477,1579
43171,79512991,0,0,0,0,0,0,0,0,1598,1453,1568,1489,1463,1590
43217,79523278,0,0,0,0,0,0,0,0,1619,1426,1561,1497,1480,1576
43259,79534285,0,0,0,0,0,0,0,0,1638,1401,1589,1466,1531,1530
43304,79548406,0,0,0,0,0,0,0,0,1618,1428,1587,1468,1502,1557
43349,79558790,0,0,0,0,0,0,0,0,1615,1433,1581,1475,1489,1569
43394,79569147,0,0,0,0,0,0,0,0,1634,1406,1556,1504,1484,1574
43440,79580235,0,0,0,0,0,0,0,0,1640,1399,1582,1475,1518,1544
43485,79591065,0,0,0,0,0,0,0,0,1630,1415,1618,1431,1542,1520
43534,79601185,0,0,0,0,0,0,0,0,1612,1439,1618,1431,1521,1541
43578,79611119,0,0,0,0,0,0,0,0,1615,1436,1619,1430,1524,1539
43622,79621914,0,0,0,0,0,0,0,0,1642,1399,1603,1452,1536,1528
43667,79635667,0,0,0,0,0,0,0,0,1619,1431,1590,1469,1492,1570
43711,79645843,0,0,0,0,0,0,0,0,1639,1405,1613,1441,1539,1526
43753,79657684,0,0,0,0,0,0,0,0,1639,1406,1611,1444,1536,1530
43798,79667880,0,0,0,0,0,0,0,0,1602,1457,1619,1435,1500,1565
43843,79678522,0,0,0,0,0,0,0,0,1594,1468,1621,1433,1491,1574
43887,79689264,0,0,0,0,0,0,0,0,1638,1410,1567,1499,1480,1584
43936,79699829,0,0,0,0,0,0,0,0,1645,1401,1579,1487,1499,1567
43983,79710688,0,0,0,0,0,0,0,0,1669,1363,1602,1459,1554,1514
44022,79722829,0,0,0,0,0,0,0,0,1638,1411,1620,1435,1536,1533
44066,79733078,0,0,0,0,0,0,0,0,1642,1405,1592,1472,1509,1560
44108,79748481,0,0,0,0,0,0,0,0,1653,1390,1579,1487,1506,1562
44155,79759306,0,0,0,0,0,0,0,0,1622,1433,1635,1416,1533,1537
44199,79769801,0,0,0,0,0,0,0,0,1642,1406,1622,1434,1539,1530
44244,79780110,0,0,0,0,0,0,0,0,1655,1387,1619,1437,1551,1518
44288,79790126,0,0,0,0,0,0,0,0,1642,1405,1618,1438,1535,1534
44334,79800536,0,0,0,0,0,0,0,0,1606,1454,1616,1441,1490,1576
44383,79810688,0,0,0,0,0,0,0,0,1642,1404,1583,1481,1494,1572
44427,79821107,0,0,0,0,0,0,0,0,1669,1361,1578,1486,1523,1544
44472,79831250,0,0,0,0,0,0,0,0,1666,1365,1581,1482,1522,1544
44517,79842053,0,0,0,0,0,0,0,0,1672,1357,1616,1439,1565,1500
44563,79852082,0,0,0,0,0,0,0,0,1649,1392,1626,1426,1551,1516
44610,79862562,0,0,0,0,0,0,0,0,1632,1416,1638,1409,1545,1522
44652,79874041,0,0,0,0,0,0,0,0,1590,1471,1619,1435,1474,1588
44696,79884152,0,0,0,0,0,0,0,0,1621,1434,1597,1463,1484,1580
44740,79898486,0,0,0,0,0,0,0,0,1645,1401,1616,1440,1534,1535
44784,79912891,0,0,0,0,0,0,0,0,1614,1442,1596,1466,1474,1589
44832,79922918,0,0,0,0,0,0,0,0,1656,1382,1567,1499,1494,1571
44878,79933217,0,0,0,0,0,0,0,0,1653,1387,1564,1502,1488,1577
44923,79943451,0,0,0,0,0,0,0,0,1616,1441,1597,1465,1478,1585
44968,79953791,0,0,0,0,0,0,0,0,1612,1445,1627,1424,1509,1557
45010,79968744,0,0,0,0,0,0,0,0,1615,1442,1593,1469,1473,1590
45055,79979118,0,0,0,0,0,0,0,0,1577,1488,1598,1463,1434,1621
45099,79989287,0,0,0,0,0,0,0,0,1611,1448,1553,1515,1420,1631
45143,79999549,0,0,0,0,0,0,0,0,1634,1417,1578,1488,1481,1584
45188,80009827,0,0,0,0,0,0,0,0,1646,1400,1593,1471,1513,1556
45237,80020797,0,0,0,0,0,0,0,0,1641,1407,1633,1418,1554,1515
45282,80031303,0,0,0,0,0,0,0,0,1636,1414,1622,1433,1537,1532
45327,80042063,0,0,0,0,0,0,0,0,1596,1466,1635,1414,1508,1560
45372,80052623,0,0,0,0,0,0,0,0,1633,1415,1603,1455,1514,1552
45415,80064269,0,0,0,0,0,0,0,0,1675,1347,1560,1503,1521,1544
45459,80074557,0,0,0,0,0,0,0,0,1679,1340,1576,1484,1543,1521
45501,80086146,0,0,0,0,0,0,0,0,1681,1334,1610,1441,1582,1475
45547,80097015,0,0,0,0,0,0,0,0,1682,1332,1596,1459,1570,1490
45593,80107235,0,0,0,0,0,0,0,0,1645,1391,1594,1461,1526,1535
45632,80119208,0,0,0,0,0,0,0,0,1659,1368,1551,1509,1498,1561
45686,80132488,0,0,0,0,0,0,0,0,1642,1394,1591,1463,1522,1538
45730,80142595,0,0,0,0,0,0,0,0,1658,1368,1596,1456,1547,1512
