LineNo,TimeUS,C1,C2,C3,C4,C5,C6,C7,C8,C9,C10,C11,C12,C13,C14
668,6.9156e+07,0,0,0,0,0,0,0,0,1000,1000,1000,1000,1000,1000
1008,6.923e+07,0,0,0,0,0,0,0,0,1000,1000,1000,1000,1000,1000
1408,6.9445e+07,0,0,0,0,0,0,0,0,1000,1000,1000,1000,1000,1000
1556,6.9468e+07,0,0,0,0,0,0,0,0,1000,1000,1000,1000,1000,1000
1595,6.948e+07,0,0,0,0,0,0,0,0,1000,1000,1000,1000,1000,1000
1640,6.9491e+07,0,0,0,0,0,0,0,0,1000,1000,1000,1000,1000,1000
1685,6.9501e+07,0,0,0,0,0,0,0,0,1000,1000,1000,1000,1000,1000
1732,6.9511e+07,0,0,0,0,0,0,0,0,1000,1000,1000,1000,1000,1000
1770,6.9523e+07,0,0,0,0,0,0,0,0,1000,1000,1000,1000,1000,1000
1814,6.9533e+07,0,0,0,0,0,0,0,0,1000,1000,1000,1000,1000,1000
1862,6.9543e+07,0,0,0,0,0,0,0,0,1000,1000,1000,1000,1000,1000
1907,6.9553e+07,0,0,0,0,0,0,0,0,1000,1000,1000,1000,1000,1000
1953,6.9563e+07,0,0,0,0,0,0,0,0,1000,1000,1000,1000,1000,1000
1997,6.9573e+07,0,0,0,0,0,0,0,0,1000,1000,1000,1000,1000,1000
2042,6.9584e+07,0,0,0,0,0,0,0,0,1000,1000,1000,1000,1000,1000
2086,6.9594e+07,0,0,0,0,0,0,0,0,1000,1000,1000,1000,1000,1000
2132,6.9604e+07,0,0,0,0,0,0,0,0,1000,1000,1000,1000,1000,1000
2177,6.9615e+07,0,0,0,0,0,0,0,0,1000,1000,1000,1000,1000,1000
2222,6.9624e+07,0,0,0,0,0,0,0,0,1000,1000,1000,1000,1000,1000
2267,6.9634e+07,0,0,0,0,0,0,0,0,1000,1000,1000,1000,1000,1000
2315,6.9644e+07,0,0,0,0,0,0,0,0,1000,1000,1000,1000,1000,1000
2360,6.9655e+07,0,0,0,0,0,0,0,0,1000,1000,1000,1000,1000,1000
2404,6.9665e+07,0,0,0,0,0,0,0,0,1000,1000,1000,1000,1000,1000
2452,6.9677e+07,0,0,0,0,0,0,0,0,1000,1000,1000,1000,1000,1000
2493,6.9688e+07,0,0,0,0,0,0,0,0,1000,1000,1000,1000,1000,1000
2541,6.9699e+07,0,0,0,0,0,0,0,0,1000,1000,1000,1000,1000,1000
2580,6.971e+07,0,0,0,0,0,0,0,0,1000,1000,1000,1000,1000,1000
2625,6.972e+07,0,0,0,0,0,0,0,0,1000,1000,1000,1000,1000,1000
2670,6.973e+07,0,0,0,0,0,0,0,0,1000,1000,1000,1000,1000,1000
2720,6.974e+07,0,0,0,0,0,0,0,0,1000,1000,1000,1000,1000,1000
2766,6.975e+07,0,0,0,0,0,0,0,0,1000,1000,1000,1000,1000,1000
2811,6.9761e+07,0,0,0,0,0,0,0,0,1000,1000,1000,1000,1000,1000
2855,6.977e+07,0,0,0,0,0,0,0,0,1000,1000,1000,1000,1000,1000
2901,6.9781e+07,0,0,0,0,0,0,0,0,1000,1000,1000,1000,1000,1000
2945,6.9791e+07,0,0,0,0,0,0,0,0,1000,1000,1000,1000,1000,1000
2991,6.9802e+07,0,0,0,0,0,0,0,0,1000,1000,1000,1000,1000,1000
3036,6.9812e+07,0,0,0,0,0,0,0,0,1000,1000,1000,1000,1000,1000
3080,6.9823e+07,0,0,0,0,0,0,0,0,1000,1000,1000,1000,1000,1000
3125,6.9832e+07,0,0,0,0,0,0,0,0,1000,1000,1000,1000,1000,1000
3172,6.9842e+07,0,0,0,0,0,0,0,0,1000,1000,1000,1000,1000,1000
3218,6.9852e+07,0,0,0,0,0,0,0,0,1000,1000,1000,1000,1000,1000
3262,6.9863e+07,0,0,0,0,0,0,0,0,1000,1000,1000,1000,1000,1000
3308,6.9873e+07,0,0,0,0,0,0,0,0,1000,1000,1000,1000,1000,1000
3353,6.9884e+07,0,0,0,0,0,0,0,0,1000,1000,1000,1000,1000,1000
3397,6.9894e+07,0,0,0,0,0,0,0,0,1000,1000,1000,1000,1000,1000
3443,6.9904e+07,0,0,0,0,0,0,0,0,1000,1000,1000,1000,1000,1000
3485,6.9917e+07,0,0,0,0,0,0,0,0,1000,1000,1000,1000,1000,1000
3531,6.9927e+07,0,0,0,0,0,0,0,0,1000,1000,1000,1000,1000,1000
3576,6.9938e+07,0,0,0,0,0,0,0,0,1000,1000,1000,1000,1000,1000
3628,6.9949e+07,0,0,0,0,0,0,0,0,1000,1000,1000,1000,1000,1000
3672,6.9959e+07,0,0,0,0,0,0,0,0,1000,1000,1000,1000,1000,1000
3717,6.9969e+07,0,0,0,0,0,0,0,0,1000,1000,1000,1000,1000,1000
3764,6.9979e+07,0,0,0,0,0,0,0,0,1000,1000,1000,1000,1000,1000
3809,6.999e+07,0,0,0,0,0,0,0,0,1000,1000,1000,1000,1000,1000
3853,7.0001e+07,0,0,0,0,0,0,0,0,1000,1000,1000,1000,1000,1000
3897,7.0011e+07,0,0,0,0,0,0,0,0,1000,1000,1000,1000,1000,1000
3941,7.0021e+07,0,0,0,0,0,0,0,0,1000,1000,1000,1000,1000,1000
3985,7.0031e+07,0,0,0,0,0,0,0,0,1000,1000,1000,1000,1000,1000
4032,7.0041e+07,0,0,0,0,0,0,0,0,1000,1000,1000,1000,1000,1000
4084,7.0052e+07,0,0,0,0,0,0,0,0,1000,1000,1000,1000,1000,1000
4128,7.0062e+07,0,0,0,0,0,0,0,0,1000,1000,1000,1000,1000,1000
4173,7.0072e+07,0,0,0,0,0,0,0,0,1000,1000,1000,1000,1000,1000
4218,7.0082e+07,0,0,0,0,0,0,0,0,1000,1000,1000,1000,1000,1000
4262,7.0093e+07,0,0,0,0,0,0,0,0,1000,1000,1000,1000,1000,1000
4307,7.0103e+07,0,0,0,0,0,0,0,0,1000,1000,1000,1000,1000,1000
4353,7.0119e+07,0,0,0,0,0,0,0,0,1000,1000,1000,1000,1000,1000
4399,7.013e+07,0,0,0,0,0,0,0,0,1000,1000,1000,1000,1000,1000
4443,7.014e+07,0,0,0,0,0,0,0,0,1000,1000,1000,1000,1000,1000
4488,7.015e+07,0,0,0,0,0,0,0,0,1000,1000,1000,1000,1000,1000
4537,7.016e+07,0,0,0,0,0,0,0,0,1000,1000,1000,1000,1000,1000
4581,7.017e+07,0,0,0,0,0,0,0,0,1000,1000,1000,1000,1000,1000
4626,7.018e+07,0,0,0,0,0,0,0,0,1000,1000,1000,1000,1000,1000
4670,7.019e+07,0,0,0,0,0,0,0,0,1000,1000,1000,1000,1000,1000
4715,7.02e+07,0,0,0,0,0,0,0,0,1000,1000,1000,1000,1000,1000
4759,7.021e+07,0,0,0,0,0,0,0,0,1000,1000,1000,1000,1000,1000
4804,7.0221e+07,0,0,0,0,0,0,0,0,1000,1000,1000,1000,1000,1000
4849,7.0231e+07,0,0,0,0,0,0,0,0,1000,1000,1000,1000,1000,1000
4893,7.0241e+07,0,0,0,0,0,0,0,0,1000,1000,1000,1000,1000,1000
4939,7.0251e+07,0,0,0,0,0,0,0,0,1000,1000,1000,1000,1000,1000
4987,7.0261e+07,0,0,0,0,0,0,0,0,1000,1000,1000,1000,1000,1000
5032,7.0272e+07,0,0,0,0,0,0,0,0,1000,1000,1000,1000,1000,1000
5076,7.0282e+07,0,0,0,0,0,0,0,0,1000,1000,1000,1000,1000,1000
5121,7.0292e+07,0,0,0,0,0,0,0,0,1000,1000,1000,1000,1000,1000
5169,7.0304e+07,0,0,0,0,0,0,0,0,1000,1000,1000,1000,1000,1000
5217,7.0317e+07,0,0,0,0,0,0,0,0,1000,1000,1000,1000,1000,1000
5259,7.0327e+07,0,0,0,0,0,0,0,0,1000,1000,1000,1000,1000,1000
5305,7.0338e+07,0,0,0,0,0,0,0,0,1000,1000,1000,1000,1000,1000
5349,7.0349e+07,0,0,0,0,0,0,0,0,1000,1000,1000,1000,1000,1000
5398,7.036e+07,0,0,0,0,0,0,0,0,1000,1000,1000,1000,1000,1000
5442,7.037e+07,0,0,0,0,0,0,0,0,1000,1000,1000,1000,1000,1000
5487,7.038e+07,0,0,0,0,0,0,0,0,1000,1000,1000,1000,1000,1000
5532,7.039e+07,0,0,0,0,0,0,0,0,1000,1000,1000,1000,1000,1000
5577,7.0401e+07,0,0,0,0,0,0,0,0,1000,1000,1000,1000,1000,1000
5622,7.0411e+07,0,0,0,0,0,0,0,0,1000,1000,1000,1000,1000,1000
5666,7.0421e+07,0,0,0,0,0,0,0,0,1000,1000,1000,1000,1000,1000
5711,7.0431e+07,0,0,0,0,0,0,0,0,1000,1000,1000,1000,1000,1000
5757,7.0442e+07,0,0,0,0,0,0,0,0,1000,1000,1000,1000,1000,1000
5804,7.0452e+07,0,0,0,0,0,0,0,0,1000,1000,1000,1000,1000,1000
5853,7.0462e+07,0,0,0,0,0,0,0,0,1000,1000,1000,1000,1000,1000
5897,7.0472e+07,0,0,0,0,0,0,0,0,1000,1000,1000,1000,1000,1000
5942,7.0483e+07,0,0,0,0,0,0,0,0,1000,1000,1000,1000,1000,1000
5986,7.0493e+07,0,0,0,0,0,0,0,0,1000,1000,1000,1000,1000,1000
6031,7.0503e+07,0,0,0,0,0,0,0,0,1000,1000,1000,1000,1000,1000
6075,7.0513e+07,0,0,0,0,0,0,0,0,1000,1000,1000,1000,1000,1000
6116,7.0525e+07,0,0,0,0,0,0,0,0,1000,1000,1000,1000,1000,1000
6161,7.0535e+07,0,0,0,0,0,0,0,0,1000,1000,1000,1000,1000,1000
6205,7.0545e+07,0,0,0,0,0,0,0,0,1000,1000,1000,1000,1000,1000
6250,7.0555e+07,0,0,0,0,0,0,0,0,1000,1000,1000,1000,1000,1000
6299,7.0565e+07,0,0,0,0,0,0,0,0,1000,1000,1000,1000,1000,1000
6344,7.0575e+07,0,0,0,0,0,0,0,0,1000,1000,1000,1000,1000,1000
6388,7.0585e+07,0,0,0,0,0,0,0,0,1000,1000,1000,1000,1000,1000
6433,7.0595e+07,0,0,0,0,0,0,0,0,1000,1000,1000,1000,1000,1000
6479,7.0605e+07,0,0,0,0,0,0,0,0,1000,1000,1000,1000,1000,1000
6520,7.0615e+07,0,0,0,0,0,0,0,0,1000,1000,1000,1000,1000,1000
6565,7.0625e+07,0,0,0,0,0,0,0,0,1000,1000,1000,1000,1000,1000
6609,7.0635e+07,0,0,0,0,0,0,0,0,1000,1000,1000,1000,1000,1000
6654,7.0646e+07,0,0,0,0,0,0,0,0,1000,1000,1000,1000,1000,1000
6700,7.0656e+07,0,0,0,0,0,0,0,0,1000,1000,1000,1000,1000,1000
6749,7.0666e+07,0,0,0,0,0,0,0,0,1000,1000,1000,1000,1000,1000
6794,7.0677e+07,0,0,0,0,0,0,0,0,1000,1000,1000,1000,1000,1000
6838,7.0687e+07,0,0,0,0,0,0,0,0,1000,1000,1000,1000,1000,1000
6883,7.0697e+07,0,0,0,0,0,0,0,0,1000,1000,1000,1000,1000,1000
6926,7.0712e+07,0,0,0,0,0,0,0,0,1000,1000,1000,1000,1000,1000
6971,7.0722e+07,0,0,0,0,0,0,0,0,1000,1000,1000,1000,1000,1000
7015,7.0733e+07,0,0,0,0,0,0,0,0,1000,1000,1000,1000,1000,1000
7060,7.0743e+07,0,0,0,0,0,0,0,0,1000,1000,1000,1000,1000,1000
7105,7.0753e+07,0,0,0,0,0,0,0,0,1000,1000,1000,1000,1000,1000
7149,7.0763e+07,0,0,0,0,0,0,0,0,1000,1000,1000,1000,1000,1000
7200,7.0773e+07,0,0,0,0,0,0,0,0,1000,1000,1000,1000,1000,1000
7245,7.0784e+07,0,0,0,0,0,0,0,0,1000,1000,1000,1000,1000,1000
7290,7.0794e+07,0,0,0,0,0,0,0,0,1000,1000,1000,1000,1000,1000
7335,7.0804e+07,0,0,0,0,0,0,0,0,1000,1000,1000,1000,1000,1000
7379,7.0814e+07,0,0,0,0,0,0,0,0,1000,1000,1000,1000,1000,1000
7424,7.0825e+07,0,0,0,0,0,0,0,0,1000,1000,1000,1000,1000,1000
7473,7.0838e+07,0,0,0,0,0,0,0,0,1000,1000,1000,1000,1000,1000
7519,7.0848e+07,0,0,0,0,0,0,0,0,1000,1000,1000,1000,1000,1000
7565,7.0858e+07,0,0,0,0,0,0,0,0,1003,1003,1003,1003,1003,1003
7611,7.0868e+07,0,0,0,0,0,0,0,0,1006,1006,1006,1006,1006,1006
7660,7.0878e+07,0,0,0,0,0,0,0,0,1009,1009,1009,1009,1009,1009
7704,7.0889e+07,0,0,0,0,0,0,0,0,1012,1012,1012,1012,1012,1012
7749,7.0899e+07,0,0,0,0,0,0,0,0,1015,1015,1015,1015,1015,1015
7795,7.091e+07,0,0,0,0,0,0,0,0,1018,1018,1018,1018,1018,1018
7834,7.0922e+07,0,0,0,0,0,0,0,0,1021,1021,1021,1021,1021,1021
7880,7.0932e+07,0,0,0,0,0,0,0,0,1024,1024,1024,1024,1024,1024
7928,7.0942e+07,0,0,0,0,0,0,0,0,1027,1027,1027,1027,1027,1027
7972,7.0952e+07,0,0,0,0,0,0,0,0,1030,1030,1030,1030,1030,1030
8018,7.0962e+07,0,0,0,0,0,0,0,0,1033,1033,1033,1033,1033,1033
8063,7.0972e+07,0,0,0,0,0,0,0,0,1036,1036,1036,1036,1036,1036
8113,7.0982e+07,0,0,0,0,0,0,0,0,1039,1039,1039,1039,1039,1039
8158,7.0992e+07,0,0,0,0,0,0,0,0,1042,1042,1042,1042,1042,1042
8202,7.1002e+07,0,0,0,0,0,0,0,0,1045,1045,1045,1045,1045,1045
8247,7.1012e+07,0,0,0,0,0,0,0,0,1048,1048,1048,1048,1048,1048
8292,7.1023e+07,0,0,0,0,0,0,0,0,1051,1051,1051,1051,1051,1051
8337,7.1033e+07,0,0,0,0,0,0,0,0,1054,1054,1054,1054,1054,1054
8384,7.1046e+07,0,0,0,0,0,0,0,0,1057,1057,1057,1057,1057,1057
8429,7.1056e+07,0,0,0,0,0,0,0,0,1060,1060,1060,1060,1060,1060
8475,7.1067e+07,0,0,0,0,0,0,0,0,1063,1063,1063,1063,1063,1063
8524,7.1077e+07,0,0,0,0,0,0,0,0,1066,1066,1066,1066,1066,1066
8570,7.1087e+07,0,0,0,0,0,0,0,0,1069,1069,1069,1069,1069,1069
8617,7.11e+07,0,0,0,0,0,0,0,0,1073,1073,1073,1073,1073,1073
8658,7.111e+07,0,0,0,0,0,0,0,0,1076,1076,1076,1076,1076,1076
8705,7.1123e+07,0,0,0,0,0,0,0,0,1080,1080,1080,1080,1080,1080
8750,7.1133e+07,0,0,0,0,0,0,0,0,1083,1083,1083,1083,1083,1083
8792,7.1144e+07,0,0,0,0,0,0,0,0,1086,1086,1086,1086,1086,1086
8836,7.1153e+07,0,0,0,0,0,0,0,0,1089,1089,1089,1089,1089,1089
8881,7.1164e+07,0,0,0,0,0,0,0,0,1092,1092,1092,1092,1092,1092
8925,7.1174e+07,0,0,0,0,0,0,0,0,1095,1095,1095,1095,1095,1095
8976,7.1184e+07,0,0,0,0,0,0,0,0,1098,1098,1098,1098,1098,1098
9020,7.1194e+07,0,0,0,0,0,0,0,0,1100,1100,1100,1100,1100,1100
9065,7.1205e+07,0,0,0,0,0,0,0,0,1100,1100,1100,1100,1100,1100
9110,7.1215e+07,0,0,0,0,0,0,0,0,1100,1100,1100,1100,1100,1100
9154,7.1226e+07,0,0,0,0,0,0,0,0,1100,1100,1100,1100,1100,1100
9199,7.1235e+07,0,0,0,0,0,0,0,0,1100,1100,1100,1100,1100,1100
9243,7.1245e+07,0,0,0,0,0,0,0,0,1100,1100,1100,1100,1100,1100
9288,7.1256e+07,0,0,0,0,0,0,0,0,1100,1100,1100,1100,1100,1100
9333,7.1266e+07,0,0,0,0,0,0,0,0,1100,1100,1100,1100,1100,1100
9378,7.1276e+07,0,0,0,0,0,0,0,0,1100,1100,1100,1100,1100,1100
9428,7.1286e+07,0,0,0,0,0,0,0,0,1100,1100,1100,1100,1100,1100
9472,7.1296e+07,0,0,0,0,0,0,0,0,1100,1100,1100,1100,1100,1100
9517,7.1306e+07,0,0,0,0,0,0,0,0,1100,1100,1100,1100,1100,1100
9566,7.1319e+07,0,0,0,0,0,0,0,0,1100,1100,1100,1100,1100,1100
9606,7.133e+07,0,0,0,0,0,0,0,0,1100,1100,1100,1100,1100,1100
9650,7.1341e+07,0,0,0,0,0,0,0,0,1100,1100,1100,1100,1100,1100
9695,7.1352e+07,0,0,0,0,0,0,0,0,1100,1100,1100,1100,1100,1100
9740,7.1362e+07,0,0,0,0,0,0,0,0,1100,1100,1100,1100,1100,1100
9784,7.1373e+07,0,0,0,0,0,0,0,0,1100,1100,1100,1100,1100,1100
9829,7.1383e+07,0,0,0,0,0,0,0,0,1100,1100,1100,1100,1100,1100
9878,7.1393e+07,0,0,0,0,0,0,0,0,1100,1100,1100,1100,1100,1100
9923,7.1403e+07,0,0,0,0,0,0,0,0,1100,1100,1100,1100,1100,1100
9969,7.1414e+07,0,0,0,0,0,0,0,0,1100,1100,1100,1100,1100,1100
10013,7.1424e+07,0,0,0,0,0,0,0,0,1100,1100,1100,1100,1100,1100
10060,7.1434e+07,0,0,0,0,0,0,0,0,1100,1100,1100,1100,1100,1100
10104,7.1445e+07,0,0,0,0,0,0,0,0,1100,1100,1100,1100,1100,1100
10150,7.1455e+07,0,0,0,0,0,0,0,0,1100,1100,1100,1100,1100,1100
10195,7.1465e+07,0,0,0,0,0,0,0,0,1100,1100,1100,1100,1100,1100
10239,7.1475e+07,0,0,0,0,0,0,0,0,1100,1100,1100,1100,1100,1100
10284,7.1485e+07,0,0,0,0,0,0,0,0,1100,1100,1100,1100,1100,1100
10332,7.1495e+07,0,0,0,0,0,0,0,0,1100,1100,1100,1100,1100,1100
10379,7.1508e+07,0,0,0,0,0,0,0,0,1100,1100,1100,1100,1100,1100
10422,7.1519e+07,0,0,0,0,0,0,0,0,1100,1100,1100,1100,1100,1100
10467,7.1529e+07,0,0,0,0,0,0,0,0,1100,1100,1100,1100,1100,1100
10512,7.1539e+07,0,0,0,0,0,0,0,0,1100,1100,1100,1100,1100,1100
10556,7.1549e+07,0,0,0,0,0,0,0,0,1100,1100,1100,1100,1100,1100
10600,7.156e+07,0,0,0,0,0,0,0,0,1100,1100,1100,1100,1100,1100
10645,7.157e+07,0,0,0,0,0,0,0,0,1100,1100,1100,1100,1100,1100
10689,7.1581e+07,0,0,0,0,0,0,0,0,1100,1100,1100,1100,1100,1100
10737,7.1591e+07,0,0,0,0,0,0,0,0,1100,1100,1100,1100,1100,1100
10782,7.16e+07,0,0,0,0,0,0,0,0,1100,1100,1100,1100,1100,1100
10827,7.1611e+07,0,0,0,0,0,0,0,0,1100,1100,1100,1100,1100,1100
10873,7.1621e+07,0,0,0,0,0,0,0,0,1100,1100,1100,1100,1100,1100
10918,7.1631e+07,0,0,0,0,0,0,0,0,1100,1100,1100,1100,1100,1100
10963,7.1642e+07,0,0,0,0,0,0,0,0,1100,1100,1100,1100,1100,1100
11007,7.1652e+07,0,0,0,0,0,0,0,0,1100,1100,1100,1100,1100,1100
11052,7.1662e+07,0,0,0,0,0,0,0,0,1100,1100,1100,1100,1100,1100
11097,7.1673e+07,0,0,0,0,0,0,0,0,1100,1100,1100,1100,1100,1100
11142,7.1683e+07,0,0,0,0,0,0,0,0,1100,1100,1100,1100,1100,1100
11190,7.1694e+07,0,0,0,0,0,0,0,0,1100,1100,1100,1100,1100,1100
11235,7.1704e+07,0,0,0,0,0,0,0,0,1100,1100,1100,1100,1100,1100
11282,7.1714e+07,0,0,0,0,0,0,0,0,1100,1100,1100,1100,1100,1100
11320,7.1725e+07,0,0,0,0,0,0,0,0,1100,1100,1100,1100,1100,1100
11365,7.1735e+07,0,0,0,0,0,0,0,0,1100,1100,1100,1100,1100,1100
11409,7.1746e+07,0,0,0,0,0,0,0,0,1100,1100,1100,1100,1100,1100
11454,7.1756e+07,0,0,0,0,0,0,0,0,1100,1100,1100,1100,1100,1100
11499,7.1766e+07,0,0,0,0,0,0,0,0,1100,1100,1100,1100,1100,1100
11544,7.1777e+07,0,0,0,0,0,0,0,0,1100,1100,1100,1100,1100,1100
11590,7.1788e+07,0,0,0,0,0,0,0,0,1100,1100,1100,1100,1100,1100
11637,7.1799e+07,0,0,0,0,0,0,0,0,1100,1100,1100,1100,1100,1100
11683,7.1809e+07,0,0,0,0,0,0,0,0,1100,1100,1100,1100,1100,1100
11729,7.1819e+07,0,0,0,0,0,0,0,0,1100,1100,1100,1100,1100,1100
11773,7.1829e+07,0,0,0,0,0,0,0,0,1100,1100,1100,1100,1100,1100
11818,7.184e+07,0,0,0,0,0,0,0,0,1100,1100,1100,1100,1100,1100
11862,7.1851e+07,0,0,0,0,0,0,0,0,1100,1100,1100,1100,1100,1100
11907,7.1861e+07,0,0,0,0,0,0,0,0,1100,1100,1100,1100,1100,1100
11952,7.1871e+07,0,0,0,0,0,0,0,0,1100,1100,1100,1100,1100,1100
11996,7.1882e+07,0,0,0,0,0,0,0,0,1100,1100,1100,1100,1100,1100
12041,7.1892e+07,0,0,0,0,0,0,0,0,1100,1100,1100,1100,1100,1100
12090,7.1902e+07,0,0,0,0,0,0,0,0,1100,1100,1100,1100,1100,1100
12132,7.1916e+07,0,0,0,0,0,0,0,0,1100,1100,1100,1100,1100,1100
12178,7.1926e+07,0,0,0,0,0,0,0,0,1100,1100,1100,1100,1100,1100
12224,7.1936e+07,0,0,0,0,0,0,0,0,1100,1100,1100,1100,1100,1100
12269,7.1947e+07,0,0,0,0,0,0,0,0,1100,1100,1100,1100,1100,1100
12314,7.1958e+07,0,0,0,0,0,0,0,0,1100,1100,1100,1100,1100,1100
12358,7.1968e+07,0,0,0,0,0,0,0,0,1100,1100,1100,1100,1100,1100
12405,7.1979e+07,0,0,0,0,0,0,0,0,1100,1100,1100,1100,1100,1100
12451,7.1989e+07,0,0,0,0,0,0,0,0,1100,1100,1100,1100,1100,1100
12496,7.1999e+07,0,0,0,0,0,0,0,0,1100,1100,1100,1100,1100,1100
12544,7.201e+07,0,0,0,0,0,0,0,0,1100,1100,1100,1100,1100,1100
12588,7.202e+07,0,0,0,0,0,0,0,0,1100,1100,1100,1100,1100,1100
12633,7.2031e+07,0,0,0,0,0,0,0,0,1100,1100,1100,1100,1100,1100
12677,7.2042e+07,0,0,0,0,0,0,0,0,1100,1100,1100,1100,1100,1100
12725,7.2054e+07,0,0,0,0,0,0,0,0,1100,1100,1100,1100,1100,1100
12769,7.2065e+07,0,0,0,0,0,0,0,0,1100,1100,1100,1100,1100,1100
12814,7.2075e+07,0,0,0,0,0,0,0,0,1100,1100,1100,1100,1100,1100
12859,7.2085e+07,0,0,0,0,0,0,0,0,1100,1100,1100,1100,1100,1100
12903,7.2095e+07,0,0,0,0,0,0,0,0,1100,1100,1100,1100,1100,1100
12951,7.2105e+07,0,0,0,0,0,0,0,0,1100,1100,1100,1100,1100,1100
13001,7.2119e+07,0,0,0,0,0,0,0,0,1104,1104,1104,1104,1104,1104
13043,7.213e+07,0,0,0,0,0,0,0,0,1107,1107,1107,1107,1107,1107
13088,7.214e+07,0,0,0,0,0,0,0,0,1110,1110,1110,1110,1110,1110
13133,7.215e+07,0,0,0,0,0,0,0,0,1113,1113,1113,1113,1113,1113
13177,7.216e+07,0,0,0,0,0,0,0,0,1116,1116,1116,1116,1116,1116
13221,7.2171e+07,0,0,0,0,0,0,0,0,1119,1119,1119,1119,1119,1119
13265,7.2181e+07,0,0,0,0,0,0,0,0,1122,1122,1122,1122,1122,1122
13339,7.2251e+07,0,0,0,0,0,0,0,0,1143,1143,1143,1143,1143,1143
13384,7.2262e+07,0,0,0,0,0,0,0,0,1146,1146,1146,1146,1146,1146
13428,7.2272e+07,0,0,0,0,0,0,0,0,1149,1149,1149,1149,1149,1149
13473,7.2283e+07,0,0,0,0,0,0,0,0,1188,1169,1196,1159,1205,1150
13517,7.2294e+07,0,0,0,0,0,0,0,0,1150,1275,1244,1191,1181,1252
13562,7.2304e+07,0,0,0,0,0,0,0,0,1169,1238,1190,1220,1150,1252
13609,7.2315e+07,0,0,0,0,0,0,0,0,1283,1150,1171,1268,1240,1206
13651,7.2326e+07,0,0,0,0,0,0,0,0,1254,1159,1220,1201,1261,1150
13696,7.2337e+07,0,0,0,0,0,0,0,0,1205,1164,1150,1217,1170,1199
13741,7.2347e+07,0,0,0,0,0,0,0,0,1150,1316,1245,1241,1151,1315
13785,7.2358e+07,0,0,0,0,0,0,0,0,1150,1350,1302,1222,1201,1318
13834,7.2371e+07,0,0,0,0,0,0,0,0,1150,1365,1316,1225,1209,1328
13879,7.2382e+07,0,0,0,0,0,0,0,0,1150,1376,1312,1246,1194,1350
13923,7.2392e+07,0,0,0,0,0,0,0,0,1323,1150,1195,1293,1282,1210
13969,7.2402e+07,0,0,0,0,0,0,0,0,1399,1150,1214,1361,1337,1247
14013,7.2413e+07,0,0,0,0,0,0,0,0,1204,1228,1266,1158,1255,1173
14060,7.2424e+07,0,0,0,0,0,0,0,0,1150,1358,1272,1266,1152,1357
14108,7.2434e+07,0,0,0,0,0,0,0,0,1150,1430,1419,1172,1300,1329
14153,7.2444e+07,0,0,0,0,0,0,0,0,1275,1241,1150,1341,1170,1329
14197,7.2455e+07,0,0,0,0,0,0,0,0,1445,1150,1289,1356,1417,1203
14243,7.2465e+07,0,0,0,0,0,0,0,0,1321,1172,1222,1284,1291,1214
14288,7.2475e+07,0,0,0,0,0,0,0,0,1150,1377,1302,1259,1176,1362
14332,7.2486e+07,0,0,0,0,0,0,0,0,1189,1392,1412,1150,1325,1279
14377,7.2496e+07,0,0,0,0,0,0,0,0,1342,1259,1150,1411,1205,1381
14421,7.2507e+07,0,0,0,0,0,0,0,0,1410,1150,1254,1345,1372,1217
14459,7.2518e+07,0,0,0,0,0,0,0,0,1338,1240,1338,1239,1377,1181
14503,7.2529e+07,0,0,0,0,0,0,0,0,1310,1287,1214,1368,1228,1359
14552,7.2539e+07,0,0,0,0,0,0,0,0,1188,1397,1346,1262,1240,1362
14597,7.255e+07,0,0,0,0,0,0,0,0,1150,1435,1416,1187,1292,1342
14642,7.256e+07,0,0,0,0,0,0,0,0,1400,1220,1214,1404,1315,1325
14686,7.257e+07,0,0,0,0,0,0,0,0,1489,1150,1192,1469,1377,1326
14732,7.2581e+07,0,0,0,0,0,0,0,0,1269,1499,1558,1150,1467,1317
14776,7.2592e+07,0,0,0,0,0,0,0,0,1247,1417,1307,1372,1202,1445
14821,7.2602e+07,0,0,0,0,0,0,0,0,1493,1311,1150,1577,1292,1506
14866,7.2613e+07,0,0,0,0,0,0,0,0,1283,1446,1518,1150,1452,1273
14911,7.2623e+07,0,0,0,0,0,0,0,0,1294,1446,1525,1150,1463,1269
14956,7.2633e+07,0,0,0,0,0,0,0,0,1561,1210,1150,1586,1379,1451
15004,7.2643e+07,0,0,0,0,0,0,0,0,1319,1449,1281,1476,1181,1531
15049,7.2654e+07,0,0,0,0,0,0,0,0,1162,1560,1542,1204,1375,1428
15093,7.2664e+07,0,0,0,0,0,0,0,0,1458,1367,1481,1338,1518,1284
15141,7.2677e+07,0,0,0,0,0,0,0,0,1378,1475,1499,1348,1452,1405
15185,7.2688e+07,0,0,0,0,0,0,0,0,1574,1261,1466,1414,1593,1224
15230,7.27e+07,0,0,0,0,0,0,0,0,1608,1230,1464,1441,1615,1214
15276,7.271e+07,0,0,0,0,0,0,0,0,1580,1313,1396,1523,1524,1394
15320,7.2721e+07,0,0,0,0,0,0,0,0,1542,1391,1459,1484,1528,1408
15361,7.2732e+07,0,0,0,0,0,0,0,0,1415,1540,1494,1466,1428,1529
15407,7.2742e+07,0,0,0,0,0,0,0,0,1472,1506,1414,1556,1393,1572
15455,7.2752e+07,0,0,0,0,0,0,0,0,1524,1471,1426,1562,1454,1539
15500,7.2763e+07,0,0,0,0,0,0,0,0,1495,1518,1476,1535,1461,1549
15544,7.2773e+07,0,0,0,0,0,0,0,0,1513,1517,1474,1554,1468,1559
15592,7.2786e+07,0,0,0,0,0,0,0,0,1630,1407,1535,1521,1632,1403
15636,7.2796e+07,0,0,0,0,0,0,0,0,1580,1494,1572,1503,1607,1461
15681,7.2807e+07,0,0,0,0,0,0,0,0,1598,1495,1566,1531,1608,1482
15726,7.2817e+07,0,0,0,0,0,0,0,0,1608,1503,1564,1552,1606,1505
15771,7.2827e+07,0,0,0,0,0,0,0,0,1613,1516,1559,1573,1598,1533
15816,7.2838e+07,0,0,0,0,0,0,0,0,1583,1565,1567,1581,1565,1582
15867,7.285e+07,0,0,0,0,0,0,0,0,1571,1594,1562,1602,1536,1625
15912,7.286e+07,0,0,0,0,0,0,0,0,1585,1590,1587,1589,1569,1606
15957,7.2871e+07,0,0,0,0,0,0,0,0,1621,1563,1590,1595,1602,1583
16002,7.2881e+07,0,0,0,0,0,0,0,0,1649,1541,1596,1598,1631,1562
16046,7.2892e+07,0,0,0,0,0,0,0,0,1649,1548,1585,1615,1615,1585
16092,7.2902e+07,0,0,0,0,0,0,0,0,1610,1595,1590,1614,1574,1629
16130,7.2913e+07,0,0,0,0,0,0,0,0,1607,1600,1611,1597,1588,1619
16177,7.2923e+07,0,0,0,0,0,0,0,0,1637,1570,1603,1605,1608,1600
16224,7.2934e+07,0,0,0,0,0,0,0,0,1663,1542,1609,1601,1636,1572
16268,7.2945e+07,0,0,0,0,0,0,0,0,1649,1557,1591,1618,1603,1607
16318,7.2955e+07,0,0,0,0,0,0,0,0,1653,1552,1601,1607,1614,1594
16363,7.2966e+07,0,0,0,0,0,0,0,0,1651,1556,1620,1590,1627,1583
16407,7.2976e+07,0,0,0,0,0,0,0,0,1640,1569,1607,1603,1600,1611
16452,7.2986e+07,0,0,0,0,0,0,0,0,1660,1545,1588,1622,1600,1610
16498,7.3e+07,0,0,0,0,0,0,0,0,1645,1564,1627,1584,1617,1593
16542,7.301e+07,0,0,0,0,0,0,0,0,1647,1559,1598,1610,1589,1619
16587,7.3021e+07,0,0,0,0,0,0,0,0,1668,1534,1587,1620,1597,1610
16631,7.3031e+07,0,0,0,0,0,0,0,0,1677,1522,1609,1598,1625,1581
16676,7.3041e+07,0,0,0,0,0,0,0,0,1672,1525,1607,1598,1617,1588
16720,7.3051e+07,0,0,0,0,0,0,0,0,1677,1517,1588,1615,1601,1603
16769,7.3062e+07,0,0,0,0,0,0,0,0,1674,1520,1593,1609,1598,1604
16814,7.3072e+07,0,0,0,0,0,0,0,0,1660,1535,1622,1578,1609,1591
16858,7.3083e+07,0,0,0,0,0,0,0,0,1655,1539,1611,1588,1590,1609
16903,7.3096e+07,0,0,0,0,0,0,0,0,1675,1513,1606,1591,1603,1594
16947,7.3106e+07,0,0,0,0,0,0,0,0,1654,1539,1640,1555,1610,1587
16995,7.3124e+07,0,0,0,0,0,0,0,0,1653,1539,1619,1577,1582,1615
17040,7.3135e+07,0,0,0,0,0,0,0,0,1645,1549,1627,1569,1576,1620
17085,7.3145e+07,0,0,0,0,0,0,0,0,1670,1520,1616,1582,1588,1609
17131,7.3155e+07,0,0,0,0,0,0,0,0,1666,1525,1624,1573,1588,1610
17181,7.3166e+07,0,0,0,0,0,0,0,0,1666,1527,1631,1566,1591,1608
17225,7.3176e+07,0,0,0,0,0,0,0,0,1666,1528,1617,1583,1571,1629
17270,7.3186e+07,0,0,0,0,0,0,0,0,1674,1519,1622,1578,1582,1619
17318,7.3199e+07,0,0,0,0,0,0,0,0,1634,1568,1642,1558,1552,1647
17362,7.321e+07,0,0,0,0,0,0,0,0,1663,1536,1611,1593,1547,1654
17407,7.322e+07,0,0,0,0,0,0,0,0,1682,1514,1628,1576,1582,1622
17451,7.3231e+07,0,0,0,0,0,0,0,0,1684,1513,1651,1553,1604,1603
17496,7.3241e+07,0,0,0,0,0,0,0,0,1698,1494,1616,1591,1580,1626
17541,7.3251e+07,0,0,0,0,0,0,0,0,1694,1500,1612,1595,1566,1639
17586,7.3262e+07,0,0,0,0,0,0,0,0,1683,1515,1637,1569,1577,1630
17635,7.3272e+07,0,0,0,0,0,0,0,0,1678,1521,1659,1543,1592,1616
17680,7.3282e+07,0,0,0,0,0,0,0,0,1659,1543,1646,1559,1552,1651
17725,7.3293e+07,0,0,0,0,0,0,0,0,1658,1544,1627,1578,1526,1673
17768,7.3303e+07,0,0,0,0,0,0,0,0,1690,1502,1626,1578,1560,1643
17810,7.3314e+07,0,0,0,0,0,0,0,0,1703,1484,1647,1554,1595,1609
17855,7.3325e+07,0,0,0,0,0,0,0,0,1689,1501,1644,1557,1572,1630
17899,7.3335e+07,0,0,0,0,0,0,0,0,1682,1510,1632,1569,1548,1651
17943,7.3345e+07,0,0,0,0,0,0,0,0,1680,1511,1637,1563,1548,1650
17989,7.3356e+07,0,0,0,0,0,0,0,0,1675,1517,1643,1555,1545,1651
18033,7.3366e+07,0,0,0,0,0,0,0,0,1673,1519,1660,1535,1559,1639
18082,7.3377e+07,0,0,0,0,0,0,0,0,1670,1522,1648,1548,1540,1655
18126,7.3387e+07,0,0,0,0,0,0,0,0,1666,1526,1627,1571,1508,1681
18171,7.3398e+07,0,0,0,0,0,0,0,0,1694,1491,1630,1568,1542,1653
18219,7.3411e+07,0,0,0,0,0,0,0,0,1695,1490,1667,1526,1581,1618
18266,7.3421e+07,0,0,0,0,0,0,0,0,1701,1482,1642,1555,1559,1639
18310,7.3432e+07,0,0,0,0,0,0,0,0,1660,1535,1655,1541,1520,1672
18354,7.3443e+07,0,0,0,0,0,0,0,0,1635,1564,1662,1533,1496,1691
18399,7.3453e+07,0,0,0,0,0,0,0,0,1677,1514,1657,1538,1540,1656
18444,7.3463e+07,0,0,0,0,0,0,0,0,1690,1496,1659,1535,1557,1640
18489,7.3473e+07,0,0,0,0,0,0,0,0,1711,1466,1657,1536,1578,1620
18538,7.3484e+07,0,0,0,0,0,0,0,0,1699,1482,1653,1540,1556,1639
18583,7.3495e+07,0,0,0,0,0,0,0,0,1689,1494,1641,1552,1526,1664
18628,7.3505e+07,0,0,0,0,0,0,0,0,1698,1481,1654,1535,1548,1644
18671,7.3516e+07,0,0,0,0,0,0,0,0,1675,1508,1680,1502,1546,1644
18713,7.3528e+07,0,0,0,0,0,0,0,0,1645,1544,1659,1528,1474,1701
18758,7.3539e+07,0,0,0,0,0,0,0,0,1669,1514,1647,1541,1481,1694
18802,7.3549e+07,0,0,0,0,0,0,0,0,1675,1506,1645,1541,1478,1696
18847,7.356e+07,0,0,0,0,0,0,0,0,1708,1459,1650,1535,1518,1664
18892,7.357e+07,0,0,0,0,0,0,0,0,1738,1412,1659,1523,1557,1630
18937,7.358e+07,0,0,0,0,0,0,0,0,1715,1447,1673,1504,1533,1649
18987,7.3591e+07,0,0,0,0,0,0,0,0,1696,1473,1677,1498,1502,1674
19031,7.3602e+07,0,0,0,0,0,0,0,0,1697,1471,1668,1509,1479,1692
19076,7.3612e+07,0,0,0,0,0,0,0,0,1700,1466,1664,1513,1464,1702
19121,7.3623e+07,0,0,0,0,0,0,0,0,1737,1410,1658,1521,1494,1679
19166,7.3634e+07,0,0,0,0,0,0,0,0,1733,1416,1690,1479,1516,1662
19210,7.3644e+07,0,0,0,0,0,0,0,0,1736,1410,1704,1460,1524,1654
19255,7.3654e+07,0,0,0,0,0,0,0,0,1738,1408,1711,1449,1524,1654
19299,7.3665e+07,0,0,0,0,0,0,0,0,1716,1440,1739,1404,1521,1656
19344,7.3675e+07,0,0,0,0,0,0,0,0,1682,1488,1736,1409,1460,1702
19390,7.3686e+07,0,0,0,0,0,0,0,0,1696,1468,1715,1441,1439,1716
19438,7.3696e+07,0,0,0,0,0,0,0,0,1699,1463,1697,1466,1408,1736
19486,7.3707e+07,0,0,0,0,0,0,0,0,1673,1498,1700,1462,1363,1762
19527,7.3719e+07,0,0,0,0,0,0,0,0,1729,1418,1663,1511,1390,1747
19569,7.373e+07,0,0,0,0,0,0,0,0,1754,1377,1677,1493,1445,1712
19614,7.374e+07,0,0,0,0,0,0,0,0,1748,1387,1686,1481,1446,1711
19658,7.375e+07,0,0,0,0,0,0,0,0,1746,1391,1695,1469,1453,1706
19703,7.3761e+07,0,0,0,0,0,0,0,0,1775,1337,1683,1484,1481,1686
19747,7.3772e+07,0,0,0,0,0,0,0,0,1754,1376,1707,1452,1483,1684
19792,7.3782e+07,0,0,0,0,0,0,0,0,1774,1338,1713,1441,1522,1653
19837,7.3792e+07,0,0,0,0,0,0,0,0,1792,1301,1697,1464,1528,1647
19885,7.3802e+07,0,0,0,0,0,0,0,0,1778,1328,1700,1459,1517,1655
19930,7.3812e+07,0,0,0,0,0,0,0,0,1801,1280,1656,1516,1499,1670
19975,7.3822e+07,0,0,0,0,0,0,0,0,1763,1356,1677,1490,1477,1686
20020,7.3833e+07,0,0,0,0,0,0,0,0,1731,1413,1661,1510,1411,1732
20065,7.3844e+07,0,0,0,0,0,0,0,0,1748,1383,1686,1477,1482,1682
20110,7.3854e+07,0,0,0,0,0,0,0,0,1754,1371,1696,1463,1512,1658
20155,7.3864e+07,0,0,0,0,0,0,0,0,1758,1363,1684,1478,1511,1658
20199,7.3874e+07,0,0,0,0,0,0,0,0,1735,1401,1685,1476,1490,1674
20245,7.3885e+07,0,0,0,0,0,0,0,0,1720,1424,1665,1501,1454,1700
20289,7.3896e+07,0,0,0,0,0,0,0,0,1731,1406,1687,1471,1510,1657
20339,7.3906e+07,0,0,0,0,0,0,0,0,1731,1405,1684,1474,1519,1649
20387,7.3916e+07,0,0,0,0,0,0,0,0,1754,1365,1688,1468,1565,1607
20426,7.3928e+07,0,0,0,0,0,0,0,0,1699,1453,1708,1439,1533,1636
20471,7.3939e+07,0,0,0,0,0,0,0,0,1724,1414,1700,1451,1568,1604
20516,7.395e+07,0,0,0,0,0,0,0,0,1677,1482,1705,1443,1529,1639
20563,7.3963e+07,0,0,0,0,0,0,0,0,1665,1497,1619,1551,1420,1720
20608,7.3974e+07,0,0,0,0,0,0,0,0,1656,1508,1600,1571,1396,1734
20652,7.3984e+07,0,0,0,0,0,0,0,0,1655,1508,1595,1576,1403,1730
20696,7.3994e+07,0,0,0,0,0,0,0,0,1660,1501,1621,1548,1458,1693
20748,7.4007e+07,0,0,0,0,0,0,0,0,1703,1441,1655,1506,1566,1602
20794,7.4017e+07,0,0,0,0,0,0,0,0,1712,1426,1637,1526,1566,1601
20838,7.4028e+07,0,0,0,0,0,0,0,0,1704,1437,1646,1515,1574,1593
20886,7.404e+07,0,0,0,0,0,0,0,0,1647,1513,1631,1532,1496,1660
20931,7.4052e+07,0,0,0,0,0,0,0,0,1652,1506,1603,1563,1476,1676
20976,7.4063e+07,0,0,0,0,0,0,0,0,1656,1501,1633,1530,1521,1640
21021,7.4073e+07,0,0,0,0,0,0,0,0,1666,1488,1632,1530,1538,1625
21065,7.4084e+07,0,0,0,0,0,0,0,0,1672,1480,1632,1530,1550,1614
21110,7.4094e+07,0,0,0,0,0,0,0,0,1662,1494,1659,1497,1573,1592
21157,7.4104e+07,0,0,0,0,0,0,0,0,1649,1508,1638,1522,1539,1623
21199,7.4116e+07,0,0,0,0,0,0,0,0,1628,1533,1590,1573,1461,1685
21244,7.4126e+07,0,0,0,0,0,0,0,0,1634,1523,1594,1567,1479,1670
21290,7.4137e+07,0,0,0,0,0,0,0,0,1656,1495,1572,1589,1485,1664
21335,7.4147e+07,0,0,0,0,0,0,0,0,1691,1448,1610,1548,1573,1587
21380,7.4159e+07,0,0,0,0,0,0,0,0,1670,1475,1634,1520,1578,1580
21425,7.4169e+07,0,0,0,0,0,0,0,0,1638,1515,1634,1519,1545,1611
21469,7.418e+07,0,0,0,0,0,0,0,0,1617,1538,1627,1527,1516,1636
21514,7.419e+07,0,0,0,0,0,0,0,0,1596,1559,1608,1546,1474,1669
21559,7.4201e+07,0,0,0,0,0,0,0,0,1622,1530,1585,1570,1481,1662
21606,7.421e+07,0,0,0,0,0,0,0,0,1632,1518,1585,1569,1496,1650
21654,7.4222e+07,0,0,0,0,0,0,0,0,1656,1487,1610,1541,1556,1597
21698,7.4232e+07,0,0,0,0,0,0,0,0,1680,1455,1598,1554,1573,1580
21743,7.4242e+07,0,0,0,0,0,0,0,0,1669,1469,1601,1551,1567,1586
21788,7.4253e+07,0,0,0,0,0,0,0,0,1629,1518,1625,1523,1551,1601
21832,7.4263e+07,0,0,0,0,0,0,0,0,1615,1535,1603,1548,1512,1635
21877,7.4274e+07,0,0,0,0,0,0,0,0,1615,1534,1595,1557,1505,1641
21922,7.4284e+07,0,0,0,0,0,0,0,0,1619,1530,1617,1532,1537,1613
21967,7.4294e+07,0,0,0,0,0,0,0,0,1646,1498,1616,1533,1567,1584
22013,7.4305e+07,0,0,0,0,0,0,0,0,1657,1484,1617,1532,1583,1568
22059,7.4319e+07,0,0,0,0,0,0,0,0,1620,1528,1595,1555,1521,1626
22105,7.433e+07,0,0,0,0,0,0,0,0,1648,1494,1605,1545,1565,1586
22149,7.4341e+07,0,0,0,0,0,0,0,0,1647,1496,1621,1526,1582,1568
22194,7.4351e+07,0,0,0,0,0,0,0,0,1619,1530,1611,1539,1542,1608
22239,7.4362e+07,0,0,0,0,0,0,0,0,1609,1542,1590,1562,1508,1638
22283,7.4372e+07,0,0,0,0,0,0,0,0,1603,1549,1582,1571,1494,1650
22328,7.4383e+07,0,0,0,0,0,0,0,0,1640,1508,1580,1574,1535,1617
22374,7.4393e+07,0,0,0,0,0,0,0,0,1656,1489,1586,1569,1561,1594
22419,7.4403e+07,0,0,0,0,0,0,0,0,1667,1475,1582,1574,1571,1585
22465,7.4414e+07,0,0,0,0,0,0,0,0,1636,1516,1613,1542,1569,1588
22509,7.4425e+07,0,0,0,0,0,0,0,0,1592,1566,1600,1557,1507,1644
22559,7.4435e+07,0,0,0,0,0,0,0,0,1604,1554,1574,1585,1492,1657
22603,7.4446e+07,0,0,0,0,0,0,0,0,1640,1514,1591,1568,1553,1605
22648,7.4457e+07,0,0,0,0,0,0,0,0,1645,1507,1590,1569,1560,1599
22692,7.4466e+07,0,0,0,0,0,0,0,0,1646,1506,1581,1578,1553,1605
22737,7.4477e+07,0,0,0,0,0,0,0,0,1641,1511,1569,1589,1537,1619
22781,7.4487e+07,0,0,0,0,0,0,0,0,1629,1526,1576,1582,1532,1623
22826,7.4498e+07,0,0,0,0,0,0,0,0,1615,1541,1561,1596,1502,1648
22871,7.4513e+07,0,0,0,0,0,0,0,0,1635,1517,1578,1579,1545,1610
22916,7.4524e+07,0,0,0,0,0,0,0,0,1615,1540,1560,1596,1505,1645
22961,7.4535e+07,0,0,0,0,0,0,0,0,1633,1517,1566,1589,1535,1618
23010,7.4545e+07,0,0,0,0,0,0,0,0,1648,1498,1575,1580,1562,1592
23054,7.4555e+07,0,0,0,0,0,0,0,0,1634,1515,1603,1550,1577,1578
23099,7.4565e+07,0,0,0,0,0,0,0,0,1627,1523,1593,1560,1559,1594
23143,7.4576e+07,0,0,0,0,0,0,0,0,1625,1524,1595,1558,1560,1593
23187,7.4587e+07,0,0,0,0,0,0,0,0,1614,1537,1575,1578,1527,1623
23234,7.4598e+07,0,0,0,0,0,0,0,0,1656,1487,1582,1572,1581,1573
23278,7.4608e+07,0,0,0,0,0,0,0,0,1654,1490,1594,1560,1591,1563
23323,7.4619e+07,0,0,0,0,0,0,0,0,1628,1524,1596,1559,1565,1590
23367,7.4629e+07,0,0,0,0,0,0,0,0,1602,1556,1575,1583,1512,1640
23412,7.464e+07,0,0,0,0,0,0,0,0,1604,1555,1576,1584,1516,1639
23461,7.465e+07,0,0,0,0,0,0,0,0,1609,1553,1593,1570,1537,1623
23505,7.466e+07,0,0,0,0,0,0,0,0,1641,1518,1592,1573,1571,1593
23550,7.4671e+07,0,0,0,0,0,0,0,0,1650,1510,1587,1580,1575,1591
23595,7.4682e+07,0,0,0,0,0,0,0,0,1633,1532,1587,1582,1556,1611
23638,7.4693e+07,0,0,0,0,0,0,0,0,1632,1534,1577,1592,1545,1623
23688,7.4711e+07,0,0,0,0,0,0,0,0,1631,1538,1578,1594,1543,1626
23732,7.4721e+07,0,0,0,0,0,0,0,0,1647,1519,1595,1577,1580,1593
23777,7.4732e+07,0,0,0,0,0,0,0,0,1637,1533,1614,1559,1587,1587
23822,7.4742e+07,0,0,0,0,0,0,0,0,1616,1558,1608,1566,1558,1615
23870,7.4753e+07,0,0,0,0,0,0,0,0,1617,1558,1565,1610,1512,1656
23915,7.4764e+07,0,0,0,0,0,0,0,0,1647,1525,1579,1598,1562,1614
23960,7.4775e+07,0,0,0,0,0,0,0,0,1642,1532,1623,1553,1600,1577
24005,7.4786e+07,0,0,0,0,0,0,0,0,1619,1559,1605,1574,1557,1621
24049,7.4796e+07,0,0,0,0,0,0,0,0,1617,1563,1588,1593,1536,1641
24091,7.4807e+07,0,0,0,0,0,0,0,0,1633,1547,1578,1604,1541,1638
24133,7.4818e+07,0,0,0,0,0,0,0,0,1644,1535,1599,1584,1575,1607
24178,7.4829e+07,0,0,0,0,0,0,0,0,1640,1540,1599,1584,1571,1612
24223,7.4839e+07,0,0,0,0,0,0,0,0,1598,1587,1599,1585,1524,1654
24268,7.4849e+07,0,0,0,0,0,0,0,0,1598,1586,1589,1595,1513,1663
24316,7.486e+07,0,0,0,0,0,0,0,0,1625,1558,1581,1603,1535,1645
24361,7.487e+07,0,0,0,0,0,0,0,0,1668,1507,1582,1602,1585,1599
24405,7.4881e+07,0,0,0,0,0,0,0,0,1658,1519,1598,1585,1590,1593
24451,7.4891e+07,0,0,0,0,0,0,0,0,1641,1539,1603,1580,1577,1606
24497,7.4908e+07,0,0,0,0,0,0,0,0,1655,1521,1598,1584,1588,1594
24538,7.492e+07,0,0,0,0,0,0,0,0,1602,1580,1570,1611,1499,1673
24583,7.4931e+07,0,0,0,0,0,0,0,0,1620,1560,1577,1604,1527,1649
24630,7.4941e+07,0,0,0,0,0,0,0,0,1648,1527,1584,1596,1567,1612
24675,7.4952e+07,0,0,0,0,0,0,0,0,1655,1516,1604,1574,1596,1582
24720,7.4962e+07,0,0,0,0,0,0,0,0,1620,1555,1589,1587,1543,1631
24768,7.4973e+07,0,0,0,0,0,0,0,0,1607,1567,1585,1589,1524,1645
24813,7.4983e+07,0,0,0,0,0,0,0,0,1609,1562,1581,1591,1524,1643
24857,7.4993e+07,0,0,0,0,0,0,0,0,1630,1536,1579,1590,1545,1622
24904,7.5004e+07,0,0,0,0,0,0,0,0,1647,1514,1587,1580,1574,1593
24950,7.5022e+07,0,0,0,0,0,0,0,0,1650,1507,1588,1577,1578,1586
24995,7.5032e+07,0,0,0,0,0,0,0,0,1627,1533,1599,1565,1564,1600
25039,7.5043e+07,0,0,0,0,0,0,0,0,1612,1550,1589,1574,1536,1625
25085,7.5053e+07,0,0,0,0,0,0,0,0,1613,1548,1579,1584,1526,1632
25129,7.5064e+07,0,0,0,0,0,0,0,0,1633,1524,1577,1584,1547,1613
25179,7.5075e+07,0,0,0,0,0,0,0,0,1640,1515,1594,1567,1571,1590
25224,7.5085e+07,0,0,0,0,0,0,0,0,1632,1523,1590,1569,1559,1599
25268,7.5095e+07,0,0,0,0,0,0,0,0,1628,1527,1581,1577,1545,1612
25315,7.5106e+07,0,0,0,0,0,0,0,0,1633,1518,1560,1596,1529,1624
25356,7.5121e+07,0,0,0,0,0,0,0,0,1623,1527,1585,1569,1545,1608
25395,7.5134e+07,0,0,0,0,0,0,0,0,1637,1509,1568,1584,1542,1608
25439,7.5144e+07,0,0,0,0,0,0,0,0,1651,1488,1590,1559,1582,1567
25485,7.5155e+07,0,0,0,0,0,0,0,0,1647,1491,1593,1554,1582,1566
25530,7.5166e+07,0,0,0,0,0,0,0,0,1616,1527,1576,1569,1529,1614
25575,7.5176e+07,0,0,0,0,0,0,0,0,1610,1532,1562,1582,1507,1632
25624,7.5186e+07,0,0,0,0,0,0,0,0,1639,1496,1567,1576,1546,1596
25668,7.5196e+07,0,0,0,0,0,0,0,0,1651,1479,1571,1570,1564,1577
25712,7.5207e+07,0,0,0,0,0,0,0,0,1655,1473,1575,1566,1571,1569
25756,7.5218e+07,0,0,0,0,0,0,0,0,1650,1479,1575,1565,1565,1575
25797,7.5233e+07,0,0,0,0,0,0,0,0,1649,1480,1585,1555,1573,1567
25842,7.5244e+07,0,0,0,0,0,0,0,0,1629,1505,1583,1557,1547,1591
25886,7.5255e+07,0,0,0,0,0,0,0,0,1626,1508,1561,1578,1522,1614
25931,7.5265e+07,0,0,0,0,0,0,0,0,1648,1480,1551,1588,1535,1602
25976,7.5275e+07,0,0,0,0,0,0,0,0,1672,1447,1546,1591,1557,1580
26024,7.5286e+07,0,0,0,0,0,0,0,0,1665,1455,1589,1546,1593,1542
26072,7.5296e+07,0,0,0,0,0,0,0,0,1640,1487,1607,1526,1583,1553
26119,7.5314e+07,0,0,0,0,0,0,0,0,1675,1442,1579,1557,1590,1546
26163,7.5324e+07,0,0,0,0,0,0,0,0,1643,1485,1566,1571,1540,1596
26210,7.5335e+07,0,0,0,0,0,0,0,0,1634,1497,1573,1565,1536,1601
26249,7.5347e+07,0,0,0,0,0,0,0,0,1644,1486,1601,1536,1576,1563
26293,7.5358e+07,0,0,0,0,0,0,0,0,1635,1498,1607,1530,1571,1568
26338,7.5369e+07,0,0,0,0,0,0,0,0,1617,1521,1592,1548,1535,1605
26383,7.5379e+07,0,0,0,0,0,0,0,0,1628,1510,1576,1566,1529,1611
26427,7.5389e+07,0,0,0,0,0,0,0,0,1650,1483,1573,1570,1552,1591
26479,7.54e+07,0,0,0,0,0,0,0,0,1658,1474,1587,1558,1575,1570
26524,7.541e+07,0,0,0,0,0,0,0,0,1654,1481,1597,1549,1580,1566
26569,7.542e+07,0,0,0,0,0,0,0,0,1642,1499,1597,1550,1566,1582
26614,7.543e+07,0,0,0,0,0,0,0,0,1635,1510,1596,1554,1556,1594
26658,7.5441e+07,0,0,0,0,0,0,0,0,1647,1497,1591,1561,1565,1587
26703,7.5451e+07,0,0,0,0,0,0,0,0,1669,1471,1589,1565,1587,1568
26742,7.5464e+07,0,0,0,0,0,0,0,0,1635,1518,1613,1543,1572,1585
26786,7.5474e+07,0,0,0,0,0,0,0,0,1620,1537,1594,1565,1535,1621
26831,7.5484e+07,0,0,0,0,0,0,0,0,1627,1530,1578,1583,1525,1631
26877,7.5494e+07,0,0,0,0,0,0,0,0,1633,1525,1595,1566,1550,1610
26926,7.5505e+07,0,0,0,0,0,0,0,0,1649,1507,1614,1547,1587,1575
26972,7.5515e+07,0,0,0,0,0,0,0,0,1660,1494,1590,1574,1575,1589
27018,7.553e+07,0,0,0,0,0,0,0,0,1631,1530,1624,1539,1578,1588
27060,7.5541e+07,0,0,0,0,0,0,0,0,1630,1533,1586,1580,1535,1628
27101,7.5553e+07,0,0,0,0,0,0,0,0,1633,1530,1574,1593,1526,1637
27146,7.5566e+07,0,0,0,0,0,0,0,0,1622,1544,1602,1566,1542,1624
27191,7.5577e+07,0,0,0,0,0,0,0,0,1614,1555,1599,1571,1529,1637
27235,7.5587e+07,0,0,0,0,0,0,0,0,1631,1538,1597,1575,1544,1626
27280,7.5597e+07,0,0,0,0,0,0,0,0,1647,1522,1595,1579,1557,1616
27324,7.5608e+07,0,0,0,0,0,0,0,0,1652,1519,1594,1583,1560,1616
27374,7.5618e+07,0,0,0,0,0,0,0,0,1640,1537,1603,1578,1553,1626
27419,7.5628e+07,0,0,0,0,0,0,0,0,1637,1544,1603,1581,1548,1634
27463,7.5639e+07,0,0,0,0,0,0,0,0,1648,1536,1596,1592,1549,1637
27508,7.5649e+07,0,0,0,0,0,0,0,0,1648,1541,1607,1586,1557,1634
27546,7.5662e+07,0,0,0,0,0,0,0,0,1655,1537,1622,1574,1578,1618
27591,7.5673e+07,0,0,0,0,0,0,0,0,1656,1540,1608,1593,1561,1638
27637,7.5683e+07,0,0,0,0,0,0,0,0,1655,1547,1604,1602,1551,1651
27681,7.5694e+07,0,0,0,0,0,0,0,0,1656,1549,1628,1581,1575,1632
27725,7.5705e+07,0,0,0,0,0,0,0,0,1667,1539,1631,1580,1589,1623
27766,7.5716e+07,0,0,0,0,0,0,0,0,1648,1565,1612,1604,1543,1667
27815,7.5727e+07,0,0,0,0,0,0,0,0,1665,1548,1625,1591,1574,1641
27860,7.5737e+07,0,0,0,0,0,0,0,0,1693,1515,1624,1594,1602,1616
27904,7.5748e+07,0,0,0,0,0,0,0,0,1672,1542,1636,1582,1589,1629
27950,7.5758e+07,0,0,0,0,0,0,0,0,1648,1570,1639,1579,1564,1653
27994,7.5768e+07,0,0,0,0,0,0,0,0,1647,1570,1616,1604,1536,1677
28033,7.5781e+07,0,0,0,0,0,0,0,0,1681,1530,1625,1594,1582,1636
28078,7.5791e+07,0,0,0,0,0,0,0,0,1688,1522,1641,1577,1605,1614
28122,7.5801e+07,0,0,0,0,0,0,0,0,1653,1562,1627,1589,1550,1663
28169,7.5811e+07,0,0,0,0,0,0,0,0,1646,1567,1615,1600,1527,1680
28213,7.5822e+07,0,0,0,0,0,0,0,0,1656,1554,1615,1598,1538,1670
28262,7.5832e+07,0,0,0,0,0,0,0,0,1662,1544,1629,1582,1559,1650
28307,7.5843e+07,0,0,0,0,0,0,0,0,1691,1507,1624,1585,1586,1623
28351,7.5853e+07,0,0,0,0,0,0,0,0,1674,1528,1626,1582,1567,1640
28396,7.5864e+07,0,0,0,0,0,0,0,0,1661,1541,1619,1588,1543,1659
28441,7.5879e+07,0,0,0,0,0,0,0,0,1672,1523,1631,1571,1569,1633
28485,7.589e+07,0,0,0,0,0,0,0,0,1673,1520,1604,1597,1541,1656
28532,7.5901e+07,0,0,0,0,0,0,0,0,1675,1514,1625,1573,1565,1632
28576,7.5912e+07,0,0,0,0,0,0,0,0,1680,1506,1639,1556,1584,1613
28621,7.5926e+07,0,0,0,0,0,0,0,0,1662,1527,1623,1572,1545,1647
28670,7.5937e+07,0,0,0,0,0,0,0,0,1675,1508,1621,1571,1557,1634
28716,7.5948e+07,0,0,0,0,0,0,0,0,1654,1533,1644,1544,1556,1633
28761,7.5959e+07,0,0,0,0,0,0,0,0,1627,1561,1633,1554,1513,1668
28806,7.5973e+07,0,0,0,0,0,0,0,0,1674,1502,1637,1546,1571,1615
28850,7.5983e+07,0,0,0,0,0,0,0,0,1667,1510,1635,1547,1559,1625
28896,7.5997e+07,0,0,0,0,0,0,0,0,1665,1510,1615,1567,1532,1646
28941,7.6008e+07,0,0,0,0,0,0,0,0,1698,1465,1615,1566,1571,1611
28986,7.6019e+07,0,0,0,0,0,0,0,0,1690,1474,1631,1547,1578,1603
29033,7.6029e+07,0,0,0,0,0,0,0,0,1672,1497,1630,1547,1554,1624
29077,7.604e+07,0,0,0,0,0,0,0,0,1651,1521,1612,1565,1508,1662
29126,7.6051e+07,0,0,0,0,0,0,0,0,1663,1505,1607,1569,1516,1654
29170,7.6061e+07,0,0,0,0,0,0,0,0,1663,1503,1637,1535,1550,1623
29215,7.6072e+07,0,0,0,0,0,0,0,0,1663,1501,1635,1535,1548,1624
29260,7.6082e+07,0,0,0,0,0,0,0,0,1660,1503,1631,1538,1540,1630
29301,7.6097e+07,0,0,0,0,0,0,0,0,1683,1471,1631,1536,1566,1604
29346,7.6107e+07,0,0,0,0,0,0,0,0,1653,1508,1645,1518,1548,1619
29390,7.6119e+07,0,0,0,0,0,0,0,0,1635,1528,1617,1548,1493,1664
29431,7.6131e+07,0,0,0,0,0,0,0,0,1641,1520,1609,1555,1490,1665
29476,7.6141e+07,0,0,0,0,0,0,0,0,1664,1489,1608,1554,1518,1640
29521,7.6151e+07,0,0,0,0,0,0,0,0,1693,1447,1602,1560,1547,1613
29569,7.6162e+07,0,0,0,0,0,0,0,0,1707,1424,1626,1531,1590,1570
29613,7.6172e+07,0,0,0,0,0,0,0,0,1655,1494,1646,1505,1553,1605
29657,7.6182e+07,0,0,0,0,0,0,0,0,1648,1503,1639,1514,1535,1621
29702,7.6193e+07,0,0,0,0,0,0,0,0,1649,1501,1622,1532,1517,1635
29744,7.6204e+07,0,0,0,0,0,0,0,0,1650,1498,1607,1548,1502,1647
29788,7.6218e+07,0,0,0,0,0,0,0,0,1676,1464,1616,1538,1544,1610
29835,7.6228e+07,0,0,0,0,0,0,0,0,1644,1505,1613,1541,1501,1647
29880,7.6239e+07,0,0,0,0,0,0,0,0,1621,1531,1611,1541,1473,1668
29924,7.625e+07,0,0,0,0,0,0,0,0,1636,1512,1610,1542,1490,1654
29973,7.6261e+07,0,0,0,0,0,0,0,0,1624,1524,1646,1497,1522,1626
30017,7.6271e+07,0,0,0,0,0,0,0,0,1682,1449,1630,1516,1572,1579
30062,7.6282e+07,0,0,0,0,0,0,0,0,1688,1438,1625,1520,1575,1574
30106,7.6292e+07,0,0,0,0,0,0,0,0,1634,1507,1638,1503,1528,1616
30154,7.6306e+07,0,0,0,0,0,0,0,0,1690,1431,1584,1562,1537,1607
30193,7.6318e+07,0,0,0,0,0,0,0,0,1680,1444,1628,1512,1573,1571
30234,7.633e+07,0,0,0,0,0,0,0,0,1628,1510,1626,1512,1512,1626
30279,7.634e+07,0,0,0,0,0,0,0,0,1617,1521,1596,1545,1464,1663
30326,7.635e+07,0,0,0,0,0,0,0,0,1609,1528,1594,1545,1455,1668
30372,7.6361e+07,0,0,0,0,0,0,0,0,1636,1494,1592,1545,1488,1641
30421,7.6372e+07,0,0,0,0,0,0,0,0,1663,1457,1597,1537,1530,1604
30465,7.6382e+07,0,0,0,0,0,0,0,0,1671,1443,1606,1525,1551,1582
30512,7.6393e+07,0,0,0,0,0,0,0,0,1647,1472,1614,1513,1534,1595
30556,7.6404e+07,0,0,0,0,0,0,0,0,1621,1502,1607,1518,1497,1625
30598,7.6419e+07,0,0,0,0,0,0,0,0,1644,1468,1623,1495,1546,1578
30642,7.643e+07,0,0,0,0,0,0,0,0,1622,1494,1619,1496,1519,1600
30688,7.6441e+07,0,0,0,0,0,0,0,0,1627,1483,1593,1524,1497,1616
30732,7.6451e+07,0,0,0,0,0,0,0,0,1641,1463,1572,1543,1492,1617
30776,7.6461e+07,0,0,0,0,0,0,0,0,1636,1465,1577,1535,1495,1612
30821,7.6471e+07,0,0,0,0,0,0,0,0,1640,1457,1572,1537,1497,1608
30870,7.6481e+07,0,0,0,0,0,0,0,0,1647,1445,1583,1523,1520,1585
30914,7.6492e+07,0,0,0,0,0,0,0,0,1656,1428,1586,1517,1536,1568
30961,7.6503e+07,0,0,0,0,0,0,0,0,1660,1421,1611,1485,1569,1533
31002,7.6521e+07,0,0,0,0,0,0,0,0,1627,1462,1606,1488,1529,1570
31047,7.6532e+07,0,0,0,0,0,0,0,0,1594,1502,1615,1477,1501,1594
31089,7.6544e+07,0,0,0,0,0,0,0,0,1583,1512,1606,1486,1481,1610
31133,7.6554e+07,0,0,0,0,0,0,0,0,1620,1468,1590,1503,1506,1588
31178,7.6564e+07,0,0,0,0,0,0,0,0,1617,1470,1569,1526,1480,1609
31223,7.6575e+07,0,0,0,0,0,0,0,0,1594,1496,1581,1511,1467,1618
31272,7.6585e+07,0,0,0,0,0,0,0,0,1579,1511,1590,1500,1461,1622
31317,7.6596e+07,0,0,0,0,0,0,0,0,1622,1457,1580,1508,1502,1585
31362,7.6607e+07,0,0,0,0,0,0,0,0,1629,1445,1603,1477,1539,1547
31407,7.6618e+07,0,0,0,0,0,0,0,0,1620,1454,1608,1468,1536,1548
31449,7.6633e+07,0,0,0,0,0,0,0,0,1617,1454,1593,1484,1518,1563
31493,7.6643e+07,0,0,0,0,0,0,0,0,1653,1403,1592,1483,1559,1521
31538,7.6653e+07,0,0,0,0,0,0,0,0,1666,1383,1584,1492,1566,1512
31583,7.6663e+07,0,0,0,0,0,0,0,0,1631,1431,1604,1466,1549,1528
31627,7.6673e+07,0,0,0,0,0,0,0,0,1612,1454,1616,1448,1542,1532
31673,7.6684e+07,0,0,0,0,0,0,0,0,1615,1448,1614,1448,1545,1528
31721,7.6694e+07,0,0,0,0,0,0,0,0,1626,1432,1590,1476,1533,1539
31764,7.6706e+07,0,0,0,0,0,0,0,0,1592,1472,1560,1509,1461,1601
31808,7.6717e+07,0,0,0,0,0,0,0,0,1602,1459,1547,1522,1459,1602
31853,7.6727e+07,0,0,0,0,0,0,0,0,1609,1448,1545,1522,1469,1593
31897,7.6737e+07,0,0,0,0,0,0,0,0,1601,1458,1556,1509,1471,1590
31942,7.6755e+07,0,0,0,0,0,0,0,0,1633,1412,1521,1543,1475,1584
31988,7.6765e+07,0,0,0,0,0,0,0,0,1621,1427,1532,1530,1474,1584
32034,7.6776e+07,0,0,0,0,0,0,0,0,1614,1434,1540,1520,1476,1580
32078,7.6786e+07,0,0,0,0,0,0,0,0,1629,1411,1560,1497,1518,1540
32123,7.6796e+07,0,0,0,0,0,0,0,0,1665,1355,1556,1499,1558,1498
32171,7.6806e+07,0,0,0,0,0,0,0,0,1665,1352,1559,1494,1563,1490
32216,7.6817e+07,0,0,0,0,0,0,0,0,1647,1379,1562,1490,1547,1507
32261,7.6827e+07,0,0,0,0,0,0,0,0,1613,1426,1610,1431,1561,1491
32305,7.6837e+07,0,0,0,0,0,0,0,0,1621,1415,1597,1447,1557,1494
32345,7.685e+07,0,0,0,0,0,0,0,0,1539,1513,1552,1499,1411,1624
32391,7.686e+07,0,0,0,0,0,0,0,0,1560,1489,1557,1493,1446,1597
32435,7.6871e+07,0,0,0,0,0,0,0,0,1586,1457,1537,1513,1456,1587
32481,7.6882e+07,0,0,0,0,0,0,0,0,1591,1450,1518,1531,1443,1597
32527,7.6892e+07,0,0,0,0,0,0,0,0,1594,1444,1524,1524,1456,1585
32572,7.6903e+07,0,0,0,0,0,0,0,0,1610,1422,1547,1498,1502,1543
32622,7.6914e+07,0,0,0,0,0,0,0,0,1633,1388,1559,1483,1543,1501
32661,7.6926e+07,0,0,0,0,0,0,0,0,1550,1491,1566,1473,1458,1579
32706,7.6937e+07,0,0,0,0,0,0,0,0,1548,1492,1561,1477,1451,1583
32752,7.6947e+07,0,0,0,0,0,0,0,0,1538,1500,1534,1504,1409,1613
32794,7.6959e+07,0,0,0,0,0,0,0,0,1552,1481,1502,1533,1390,1623
32839,7.6969e+07,0,0,0,0,0,0,0,0,1551,1479,1500,1532,1390,1621
32883,7.698e+07,0,0,0,0,0,0,0,0,1569,1455,1489,1539,1402,1610
32929,7.6991e+07,0,0,0,0,0,0,0,0,1612,1396,1481,1544,1452,1569
32970,7.7003e+07,0,0,0,0,0,0,0,0,1615,1388,1564,1456,1544,1478
33014,7.7013e+07,0,0,0,0,0,0,0,0,1603,1403,1569,1447,1538,1483
33063,7.7023e+07,0,0,0,0,0,0,0,0,1584,1425,1571,1442,1521,1498
33109,7.7034e+07,0,0,0,0,0,0,0,0,1559,1455,1578,1431,1502,1516
33154,7.7044e+07,0,0,0,0,0,0,0,0,1532,1484,1574,1435,1470,1544
33199,7.7054e+07,0,0,0,0,0,0,0,0,1524,1490,1575,1431,1466,1547
33240,7.7066e+07,0,0,0,0,0,0,0,0,1497,1516,1549,1461,1405,1594
33285,7.7077e+07,0,0,0,0,0,0,0,0,1497,1513,1511,1498,1358,1623
33327,7.7089e+07,0,0,0,0,0,0,0,0,1589,1405,1466,1539,1427,1573
33371,7.7099e+07,0,0,0,0,0,0,0,0,1630,1342,1468,1535,1484,1521
33419,7.711e+07,0,0,0,0,0,0,0,0,1586,1404,1484,1519,1447,1551
33465,7.7124e+07,0,0,0,0,0,0,0,0,1568,1424,1580,1409,1533,1466
33510,7.7134e+07,0,0,0,0,0,0,0,0,1517,1480,1567,1423,1468,1529
33554,7.7145e+07,0,0,0,0,0,0,0,0,1572,1413,1563,1425,1526,1469
33599,7.7155e+07,0,0,0,0,0,0,0,0,1561,1425,1545,1445,1496,1498
33640,7.7166e+07,0,0,0,0,0,0,0,0,1561,1422,1526,1465,1478,1513
33685,7.7177e+07,0,0,0,0,0,0,0,0,1546,1438,1502,1488,1438,1547
33727,7.7188e+07,0,0,0,0,0,0,0,0,1569,1409,1450,1536,1411,1568
33771,7.7199e+07,0,0,0,0,0,0,0,0,1551,1429,1474,1511,1418,1560
33816,7.721e+07,0,0,0,0,0,0,0,0,1597,1364,1484,1500,1486,1498
33861,7.722e+07,0,0,0,0,0,0,0,0,1617,1332,1463,1518,1492,1490
33910,7.723e+07,0,0,0,0,0,0,0,0,1617,1328,1480,1499,1511,1468
33955,7.7241e+07,0,0,0,0,0,0,0,0,1596,1360,1504,1475,1511,1467
33999,7.7251e+07,0,0,0,0,0,0,0,0,1587,1372,1524,1452,1522,1453
34045,7.7262e+07,0,0,0,0,0,0,0,0,1601,1349,1520,1455,1536,1437
34089,7.7276e+07,0,0,0,0,0,0,0,0,1521,1452,1512,1463,1439,1532
34134,7.729e+07,0,0,0,0,0,0,0,0,1544,1425,1460,1513,1409,1556
34178,7.7301e+07,0,0,0,0,0,0,0,0,1588,1365,1499,1475,1503,1471
34222,7.7312e+07,0,0,0,0,0,0,0,0,1593,1357,1515,1457,1525,1446
34264,7.7323e+07,0,0,0,0,0,0,0,0,1518,1453,1548,1418,1478,1495
34308,7.7333e+07,0,0,0,0,0,0,0,0,1529,1439,1557,1405,1501,1471
34357,7.7344e+07,0,0,0,0,0,0,0,0,1561,1397,1539,1426,1515,1453
34402,7.7354e+07,0,0,0,0,0,0,0,0,1542,1421,1538,1426,1493,1476
34447,7.7364e+07,0,0,0,0,0,0,0,0,1560,1397,1548,1412,1524,1442
34492,7.7374e+07,0,0,0,0,0,0,0,0,1587,1358,1548,1411,1550,1408
34535,7.7386e+07,0,0,0,0,0,0,0,0,1523,1442,1558,1398,1493,1474
34580,7.74e+07,0,0,0,0,0,0,0,0,1481,1485,1462,1504,1328,1605
34624,7.741e+07,0,0,0,0,0,0,0,0,1482,1483,1472,1493,1342,1596
34669,7.7421e+07,0,0,0,0,0,0,0,0,1494,1471,1478,1488,1363,1582
34717,7.7431e+07,0,0,0,0,0,0,0,0,1496,1469,1466,1499,1349,1592
34761,7.7442e+07,0,0,0,0,0,0,0,0,1480,1486,1476,1490,1338,1599
34810,7.7453e+07,0,0,0,0,0,0,0,0,1513,1453,1440,1525,1334,1603
34854,7.7463e+07,0,0,0,0,0,0,0,0,1564,1392,1422,1541,1382,1572
34899,7.7474e+07,0,0,0,0,0,0,0,0,1582,1368,1434,1531,1416,1546
34944,7.7484e+07,0,0,0,0,0,0,0,0,1577,1377,1446,1523,1420,1545
34985,7.7495e+07,0,0,0,0,0,0,0,0,1589,1361,1459,1511,1446,1523
35030,7.7509e+07,0,0,0,0,0,0,0,0,1563,1398,1573,1385,1533,1435
35077,7.752e+07,0,0,0,0,0,0,0,0,1578,1381,1564,1400,1536,1434
35115,7.7531e+07,0,0,0,0,0,0,0,0,1527,1447,1578,1382,1496,1480
35160,7.7542e+07,0,0,0,0,0,0,0,0,1589,1367,1562,1405,1542,1430
35210,7.7553e+07,0,0,0,0,0,0,0,0,1584,1377,1560,1410,1532,1443
35255,7.7563e+07,0,0,0,0,0,0,0,0,1551,1422,1564,1404,1500,1479
35299,7.7573e+07,0,0,0,0,0,0,0,0,1541,1436,1571,1399,1495,1487
35344,7.7584e+07,0,0,0,0,0,0,0,0,1561,1413,1570,1401,1512,1470
35385,7.7595e+07,0,0,0,0,0,0,0,0,1566,1406,1547,1430,1492,1490
35427,7.7606e+07,0,0,0,0,0,0,0,0,1522,1460,1508,1476,1394,1576
35471,7.7616e+07,0,0,0,0,0,0,0,0,1513,1470,1520,1463,1397,1574
35515,7.7627e+07,0,0,0,0,0,0,0,0,1510,1475,1530,1453,1405,1569
35559,7.7638e+07,0,0,0,0,0,0,0,0,1481,1506,1518,1469,1351,1609
35604,7.7648e+07,0,0,0,0,0,0,0,0,1456,1529,1495,1492,1284,1648
35654,7.7659e+07,0,0,0,0,0,0,0,0,1477,1512,1506,1483,1327,1625
35699,7.7669e+07,0,0,0,0,0,0,0,0,1491,1500,1495,1496,1330,1625
35743,7.768e+07,0,0,0,0,0,0,0,0,1479,1512,1525,1465,1356,1609
35788,7.769e+07,0,0,0,0,0,0,0,0,1464,1528,1539,1452,1353,1613
35833,7.77e+07,0,0,0,0,0,0,0,0,1469,1526,1511,1485,1319,1636
35873,7.7713e+07,0,0,0,0,0,0,0,0,1509,1489,1477,1521,1326,1633
35911,7.7724e+07,0,0,0,0,0,0,0,0,1548,1448,1502,1498,1409,1579
35956,7.7734e+07,0,0,0,0,0,0,0,0,1544,1454,1474,1527,1369,1609
36001,7.7745e+07,0,0,0,0,0,0,0,0,1553,1446,1462,1540,1367,1612
36045,7.7754e+07,0,0,0,0,0,0,0,0,1533,1472,1485,1521,1366,1615
36094,7.7765e+07,0,0,0,0,0,0,0,0,1513,1495,1498,1510,1356,1623
36139,7.7776e+07,0,0,0,0,0,0,0,0,1555,1451,1485,1524,1394,1599
36184,7.7786e+07,0,0,0,0,0,0,0,0,1605,1388,1471,1539,1443,1564
36230,7.7796e+07,0,0,0,0,0,0,0,0,1609,1384,1470,1541,1447,1562
36274,7.7807e+07,0,0,0,0,0,0,0,0,1591,1411,1472,1541,1425,1581
36316,7.7818e+07,0,0,0,0,0,0,0,0,1623,1365,1511,1504,1506,1509
36360,7.7828e+07,0,0,0,0,0,0,0,0,1611,1384,1513,1503,1493,1522
36402,7.784e+07,0,0,0,0,0,0,0,0,1642,1336,1528,1487,1545,1469
36447,7.785e+07,0,0,0,0,0,0,0,0,1654,1312,1495,1519,1529,1485
36491,7.7861e+07,0,0,0,0,0,0,0,0,1635,1345,1532,1481,1543,1470
36540,7.7871e+07,0,0,0,0,0,0,0,0,1625,1360,1571,1436,1570,1437
36586,7.7882e+07,0,0,0,0,0,0,0,0,1633,1347,1561,1447,1569,1437
36632,7.7892e+07,0,0,0,0,0,0,0,0,1622,1365,1553,1458,1549,1462
36679,7.7905e+07,0,0,0,0,0,0,0,0,1555,1454,1526,1487,1443,1565
36721,7.7917e+07,0,0,0,0,0,0,0,0,1571,1436,1505,1510,1438,1569
36762,7.7931e+07,0,0,0,0,0,0,0,0,1586,1416,1565,1443,1520,1493
36809,7.7944e+07,0,0,0,0,0,0,0,0,1513,1502,1557,1454,1428,1578
36855,7.7955e+07,0,0,0,0,0,0,0,0,1512,1503,1550,1462,1419,1585
36900,7.7965e+07,0,0,0,0,0,0,0,0,1540,1474,1522,1494,1417,1587
36945,7.7975e+07,0,0,0,0,0,0,0,0,1549,1465,1539,1477,1445,1566
36994,7.7985e+07,0,0,0,0,0,0,0,0,1566,1445,1512,1504,1435,1574
37039,7.7996e+07,0,0,0,0,0,0,0,0,1530,1487,1517,1501,1393,1607
37085,7.8006e+07,0,0,0,0,0,0,0,0,1524,1494,1513,1505,1379,1616
37129,7.8016e+07,0,0,0,0,0,0,0,0,1592,1413,1504,1513,1454,1559
37171,7.8027e+07,0,0,0,0,0,0,0,0,1638,1345,1531,1486,1535,1482
37214,7.8039e+07,0,0,0,0,0,0,0,0,1625,1366,1567,1444,1555,1459
37259,7.805e+07,0,0,0,0,0,0,0,0,1597,1406,1579,1430,1535,1481
37304,7.806e+07,0,0,0,0,0,0,0,0,1605,1396,1577,1433,1541,1476
37348,7.807e+07,0,0,0,0,0,0,0,0,1608,1393,1581,1430,1546,1471
37393,7.808e+07,0,0,0,0,0,0,0,0,1619,1377,1566,1449,1541,1478
37441,7.8091e+07,0,0,0,0,0,0,0,0,1616,1383,1573,1441,1543,1476
37485,7.8101e+07,0,0,0,0,0,0,0,0,1583,1429,1579,1433,1512,1509
37530,7.8111e+07,0,0,0,0,0,0,0,0,1573,1441,1576,1438,1497,1524
37576,7.8122e+07,0,0,0,0,0,0,0,0,1571,1444,1574,1440,1491,1530
37616,7.8134e+07,0,0,0,0,0,0,0,0,1567,1450,1516,1506,1417,1593
37655,7.8146e+07,0,0,0,0,0,0,0,0,1616,1384,1534,1488,1497,1525
37699,7.8156e+07,0,0,0,0,0,0,0,0,1613,1388,1546,1474,1506,1516
37744,7.8166e+07,0,0,0,0,0,0,0,0,1639,1350,1523,1499,1512,1511
37788,7.8176e+07,0,0,0,0,0,0,0,0,1636,1355,1514,1509,1498,1525
37833,7.8187e+07,0,0,0,0,0,0,0,0,1612,1391,1533,1489,1490,1533
37881,7.8197e+07,0,0,0,0,0,0,0,0,1627,1371,1563,1458,1537,1487
37926,7.8208e+07,0,0,0,0,0,0,0,0,1646,1343,1558,1464,1553,1470
37971,7.8218e+07,0,0,0,0,0,0,0,0,1641,1351,1585,1431,1576,1444
38017,7.8229e+07,0,0,0,0,0,0,0,0,1631,1369,1573,1449,1550,1475
38062,7.8243e+07,0,0,0,0,0,0,0,0,1547,1479,1530,1497,1402,1608
38106,7.8257e+07,0,0,0,0,0,0,0,0,1653,1336,1564,1461,1566,1459
38151,7.8268e+07,0,0,0,0,0,0,0,0,1634,1367,1564,1462,1545,1483
38196,7.8279e+07,0,0,0,0,0,0,0,0,1591,1429,1590,1430,1525,1506
38240,7.829e+07,0,0,0,0,0,0,0,0,1550,1479,1591,1430,1479,1550
38289,7.83e+07,0,0,0,0,0,0,0,0,1550,1480,1587,1437,1475,1555
38334,7.8311e+07,0,0,0,0,0,0,0,0,1542,1491,1557,1474,1428,1594
38378,7.8325e+07,0,0,0,0,0,0,0,0,1633,1375,1532,1503,1510,1525
38419,7.8337e+07,0,0,0,0,0,0,0,0,1651,1349,1566,1466,1565,1467
38463,7.8347e+07,0,0,0,0,0,0,0,0,1650,1353,1583,1448,1580,1451
38506,7.8359e+07,0,0,0,0,0,0,0,0,1607,1418,1599,1428,1550,1487
38551,7.837e+07,0,0,0,0,0,0,0,0,1561,1475,1584,1448,1483,1554
38597,7.838e+07,0,0,0,0,0,0,0,0,1590,1441,1560,1477,1490,1548
38642,7.839e+07,0,0,0,0,0,0,0,0,1570,1467,1555,1484,1460,1576
38686,7.8401e+07,0,0,0,0,0,0,0,0,1576,1461,1572,1466,1486,1554
38736,7.8411e+07,0,0,0,0,0,0,0,0,1564,1476,1541,1502,1435,1598
38781,7.8421e+07,0,0,0,0,0,0,0,0,1577,1462,1525,1519,1434,1600
38826,7.8432e+07,0,0,0,0,0,0,0,0,1583,1456,1522,1523,1437,1598
38871,7.8443e+07,0,0,0,0,0,0,0,0,1586,1452,1515,1530,1433,1601
38915,7.8453e+07,0,0,0,0,0,0,0,0,1618,1410,1510,1535,1468,1572
38956,7.8465e+07,0,0,0,0,0,0,0,0,1646,1368,1517,1528,1511,1533
39000,7.8475e+07,0,0,0,0,0,0,0,0,1653,1356,1568,1472,1571,1468
39042,7.8487e+07,0,0,0,0,0,0,0,0,1602,1428,1601,1429,1552,1489
39087,7.8498e+07,0,0,0,0,0,0,0,0,1596,1434,1587,1445,1531,1510
39135,7.8509e+07,0,0,0,0,0,0,0,0,1564,1472,1583,1449,1492,1546
39178,7.852e+07,0,0,0,0,0,0,0,0,1540,1499,1536,1503,1408,1615
39224,7.8531e+07,0,0,0,0,0,0,0,0,1549,1488,1516,1523,1397,1622
39268,7.8542e+07,0,0,0,0,0,0,0,0,1555,1481,1539,1499,1433,1596
39314,7.8552e+07,0,0,0,0,0,0,0,0,1612,1409,1548,1488,1513,1525
39355,7.8563e+07,0,0,0,0,0,0,0,0,1644,1363,1553,1483,1556,1480
39400,7.8577e+07,0,0,0,0,0,0,0,0,1547,1489,1566,1468,1461,1572
39444,7.8588e+07,0,0,0,0,0,0,0,0,1539,1498,1544,1492,1426,1599
39489,7.8599e+07,0,0,0,0,0,0,0,0,1532,1505,1518,1519,1388,1626
39534,7.861e+07,0,0,0,0,0,0,0,0,1585,1444,1503,1534,1440,1589
39578,7.862e+07,0,0,0,0,0,0,0,0,1583,1448,1532,1506,1470,1565
39627,7.8631e+07,0,0,0,0,0,0,0,0,1621,1397,1538,1499,1523,1515
39674,7.8641e+07,0,0,0,0,0,0,0,0,1644,1363,1556,1480,1568,1466
39721,7.8654e+07,0,0,0,0,0,0,0,0,1600,1427,1560,1475,1526,1512
39766,7.8668e+07,0,0,0,0,0,0,0,0,1622,1396,1532,1507,1522,1516
39807,7.868e+07,0,0,0,0,0,0,0,0,1626,1392,1564,1472,1560,1476
39853,7.869e+07,0,0,0,0,0,0,0,0,1593,1437,1583,1449,1545,1493
39897,7.87e+07,0,0,0,0,0,0,0,0,1575,1458,1581,1452,1525,1514
39944,7.871e+07,0,0,0,0,0,0,0,0,1597,1431,1568,1467,1536,1502
39982,7.8721e+07,0,0,0,0,0,0,0,0,1594,1435,1538,1499,1502,1536
40031,7.8732e+07,0,0,0,0,0,0,0,0,1566,1468,1549,1488,1483,1553
40075,7.8742e+07,0,0,0,0,0,0,0,0,1567,1466,1544,1493,1479,1556
40120,7.8753e+07,0,0,0,0,0,0,0,0,1598,1425,1539,1496,1511,1525
40165,7.8764e+07,0,0,0,0,0,0,0,0,1637,1370,1553,1480,1568,1462
40210,7.8774e+07,0,0,0,0,0,0,0,0,1632,1375,1572,1456,1582,1444
40249,7.8787e+07,0,0,0,0,0,0,0,0,1571,1456,1543,1488,1485,1546
40294,7.8797e+07,0,0,0,0,0,0,0,0,1579,1446,1528,1503,1478,1551
40338,7.8808e+07,0,0,0,0,0,0,0,0,1550,1479,1545,1485,1463,1564
40383,7.8819e+07,0,0,0,0,0,0,0,0,1565,1462,1545,1485,1479,1550
40429,7.883e+07,0,0,0,0,0,0,0,0,1588,1433,1565,1461,1527,1504
40477,7.8841e+07,0,0,0,0,0,0,0,0,1609,1405,1569,1457,1551,1477
40522,7.8851e+07,0,0,0,0,0,0,0,0,1596,1422,1550,1479,1517,1514
40566,7.8862e+07,0,0,0,0,0,0,0,0,1587,1435,1549,1479,1504,1526
40613,7.8872e+07,0,0,0,0,0,0,0,0,1566,1461,1556,1472,1486,1544
40655,7.8884e+07,0,0,0,0,0,0,0,0,1589,1433,1545,1486,1498,1533
40700,7.8894e+07,0,0,0,0,0,0,0,0,1593,1429,1551,1479,1508,1524
40747,7.8905e+07,0,0,0,0,0,0,0,0,1585,1439,1572,1455,1520,1512
40785,7.8921e+07,0,0,0,0,0,0,0,0,1575,1453,1536,1498,1466,1564
40831,7.8932e+07,0,0,0,0,0,0,0,0,1609,1410,1552,1481,1522,1513
40877,7.8942e+07,0,0,0,0,0,0,0,0,1619,1398,1561,1471,1540,1495
40926,7.8952e+07,0,0,0,0,0,0,0,0,1588,1439,1580,1449,1525,1511
40970,7.8962e+07,0,0,0,0,0,0,0,0,1569,1463,1550,1485,1468,1564
41015,7.8973e+07,0,0,0,0,0,0,0,0,1546,1489,1544,1491,1434,1593
41061,7.8984e+07,0,0,0,0,0,0,0,0,1560,1472,1541,1493,1447,1581
41099,7.8996e+07,0,0,0,0,0,0,0,0,1634,1376,1555,1478,1547,1487
41144,7.9007e+07,0,0,0,0,0,0,0,0,1649,1351,1555,1478,1563,1469
41189,7.9017e+07,0,0,0,0,0,0,0,0,1622,1391,1569,1461,1547,1486
41234,7.9028e+07,0,0,0,0,0,0,0,0,1577,1452,1578,1451,1506,1529
41278,7.9038e+07,0,0,0,0,0,0,0,0,1532,1503,1585,1442,1463,1568
41324,7.9049e+07,0,0,0,0,0,0,0,0,1563,1470,1577,1453,1487,1548
41372,7.906e+07,0,0,0,0,0,0,0,0,1578,1454,1551,1485,1474,1561
41416,7.907e+07,0,0,0,0,0,0,0,0,1596,1432,1556,1481,1499,1539
41463,7.9081e+07,0,0,0,0,0,0,0,0,1624,1397,1555,1484,1529,1512
41508,7.9091e+07,0,0,0,0,0,0,0,0,1614,1414,1578,1461,1540,1504
41551,7.9106e+07,0,0,0,0,0,0,0,0,1570,1471,1562,1480,1473,1568
41593,7.9117e+07,0,0,0,0,0,0,0,0,1580,1461,1554,1490,1473,1570
41638,7.913e+07,0,0,0,0,0,0,0,0,1612,1420,1581,1459,1538,1507
41682,7.914e+07,0,0,0,0,0,0,0,0,1587,1454,1556,1490,1482,1563
41728,7.915e+07,0,0,0,0,0,0,0,0,1562,1484,1548,1500,1441,1598
41776,7.9161e+07,0,0,0,0,0,0,0,0,1592,1449,1529,1521,1456,1587
41821,7.9172e+07,0,0,0,0,0,0,0,0,1607,1434,1537,1516,1481,1569
41866,7.9182e+07,0,0,0,0,0,0,0,0,1637,1394,1543,1511,1522,1532
41911,7.9193e+07,0,0,0,0,0,0,0,0,1615,1427,1564,1489,1519,1537
41956,7.921e+07,0,0,0,0,0,0,0,0,1662,1361,1527,1532,1533,1526
42000,7.9221e+07,0,0,0,0,0,0,0,0,1655,1375,1560,1500,1556,1504
42045,7.9231e+07,0,0,0,0,0,0,0,0,1640,1400,1558,1503,1535,1527
42090,7.9242e+07,0,0,0,0,0,0,0,0,1642,1397,1572,1488,1552,1510
42134,7.9252e+07,0,0,0,0,0,0,0,0,1614,1437,1587,1470,1536,1527
42179,7.9263e+07,0,0,0,0,0,0,0,0,1621,1427,1573,1487,1527,1536
42227,7.9273e+07,0,0,0,0,0,0,0,0,1622,1424,1547,1515,1501,1559
42273,7.9284e+07,0,0,0,0,0,0,0,0,1628,1416,1541,1520,1500,1559
42319,7.9295e+07,0,0,0,0,0,0,0,0,1648,1385,1573,1484,1559,1500
42362,7.931e+07,0,0,0,0,0,0,0,0,1629,1413,1555,1505,1516,1544
42404,7.9325e+07,0,0,0,0,0,0,0,0,1599,1452,1592,1461,1522,1537
42449,7.9335e+07,0,0,0,0,0,0,0,0,1582,1472,1575,1480,1482,1573
42493,7.9346e+07,0,0,0,0,0,0,0,0,1569,1487,1568,1488,1459,1592
42538,7.9357e+07,0,0,0,0,0,0,0,0,1592,1460,1545,1514,1457,1595
42586,7.9367e+07,0,0,0,0,0,0,0,0,1629,1411,1575,1480,1534,1524
42634,7.9378e+07,0,0,0,0,0,0,0,0,1655,1373,1572,1484,1558,1499
42679,7.9388e+07,0,0,0,0,0,0,0,0,1618,1427,1606,1442,1551,1506
42723,7.9399e+07,0,0,0,0,0,0,0,0,1629,1410,1605,1443,1561,1494
42768,7.941e+07,0,0,0,0,0,0,0,0,1610,1436,1576,1478,1506,1551
42810,7.9425e+07,0,0,0,0,0,0,0,0,1631,1406,1585,1467,1539,1518
42854,7.9435e+07,0,0,0,0,0,0,0,0,1603,1445,1582,1472,1501,1556
42899,7.9446e+07,0,0,0,0,0,0,0,0,1564,1492,1598,1452,1472,1581
42945,7.9457e+07,0,0,0,0,0,0,0,0,1584,1470,1552,1506,1439,1609
42990,7.9467e+07,0,0,0,0,0,0,0,0,1604,1447,1559,1499,1469,1586
43035,7.9477e+07,0,0,0,0,0,0,0,0,1624,1420,1573,1484,1507,1552
43083,7.9488e+07,0,0,0,0,0,0,0,0,1652,1379,1598,1454,1563,1495
43130,7.9502e+07,0,0,0,0,0,0,0,0,1576,1481,1601,1451,1477,1579
43171,7.9513e+07,0,0,0,0,0,0,0,0,1598,1453,1568,1489,1463,1590
43217,7.9523e+07,0,0,0,0,0,0,0,0,1619,1426,1561,1497,1480,1576
43259,7.9534e+07,0,0,0,0,0,0,0,0,1638,1401,1589,1466,1531,1530
43304,7.9548e+07,0,0,0,0,0,0,0,0,1618,1428,1587,1468,1502,1557
43349,7.9559e+07,0,0,0,0,0,0,0,0,1615,1433,1581,1475,1489,1569
43394,7.9569e+07,0,0,0,0,0,0,0,0,1634,1406,1556,1504,1484,1574
43440,7.958e+07,0,0,0,0,0,0,0,0,1640,1399,1582,1475,1518,1544
43485,7.9591e+07,0,0,0,0,0,0,0,0,1630,1415,1618,1431,1542,1520
43534,7.9601e+07,0,0,0,0,0,0,0,0,1612,1439,1618,1431,1521,1541
43578,7.9611e+07,0,0,0,0,0,0,0,0,1615,1436,1619,1430,1524,1539
43622,7.9622e+07,0,0,0,0,0,0,0,0,1642,1399,1603,1452,1536,1528
43667,7.9636e+07,0,0,0,0,0,0,0,0,1619,1431,1590,1469,1492,1570
43711,7.9646e+07,0,0,0,0,0,0,0,0,1639,1405,1613,1441,1539,1526
43753,7.9658e+07,0,0,0,0,0,0,0,0,1639,1406,1611,1444,1536,1530
43798,7.9668e+07,0,0,0,0,0,0,0,0,1602,1457,1619,1435,1500,1565
43843,7.9679e+07,0,0,0,0,0,0,0,0,1594,1468,1621,1433,1491,1574
43887,7.9689e+07,0,0,0,0,0,0,0,0,1638,1410,1567,1499,1480,1584
43936,7.97e+07,0,0,0,0,0,0,0,0,1645,1401,1579,1487,1499,1567
43983,7.9711e+07,0,0,0,0,0,0,0,0,1669,1363,1602,1459,1554,1514
44022,7.9723e+07,0,0,0,0,0,0,0,0,1638,1411,1620,1435,1536,1533
44066,7.9733e+07,0,0,0,0,0,0,0,0,1642,1405,1592,1472,1509,1560
44108,7.9748e+07,0,0,0,0,0,0,0,0,1653,1390,1579,1487,1506,1562
44155,7.9759e+07,0,0,0,0,0,0,0,0,1622,1433,1635,1416,1533,1537
44199,7.977e+07,0,0,0,0,0,0,0,0,1642,1406,1622,1434,1539,1530
44244,7.978e+07,0,0,0,0,0,0,0,0,1655,1387,1619,1437,1551,1518
44288,7.979e+07,0,0,0,0,0,0,0,0,1642,1405,1618,1438,1535,1534
44334,7.9801e+07,0,0,0,0,0,0,0,0,1606,1454,1616,1441,1490,1576
44383,7.9811e+07,0,0,0,0,0,0,0,0,1642,1404,1583,1481,1494,1572
44427,7.9821e+07,0,0,0,0,0,0,0,0,1669,1361,1578,1486,1523,1544
