LineNo,TimeUS,C,Roll,Pitch,Yaw,VN,VE,VD,dPD,PN,PE,PD,GX,GY,GZ,OH
651,69154003,0,-0.97,0.71,2.36,0.02789569,0.0001474334,0.03116926,0.04535213,-0.05725997,-0.417818,1.507362,0.02,0,0,91.31999999999999
991,69228121,0,-0.96,0.71,2.37,0.02659896,0.0004630481,0.03173824,0.04178604,-0.05602185,-0.4183501,1.510343,0.02,0,0,91.31999999999999
1391,69442746,0,-0.95,0.72,2.36,0.02210701,-0.00118861,-0.4169642,-0.3574224,-0.05301261,-0.4193996,1.465832,0.02,0,0,91.31999999999999
1539,69464911,0,-0.96,0.72,2.36,0.02195832,-0.0009972946999999999,-0.4165149,-0.3647128,-0.05261119,-0.4194742,1.457334,0.02,0,0,91.31999999999999
1578,69478297,0,-0.96,0.72,2.36,0.02176822,-0.0007872579,-0.4163882,-0.3682546,-0.05237558,-0.4195078,1.452276,0.02,0,0,91.31999999999999
1623,69488531,0,-0.96,0.72,2.36,0.02176494,-0.0005242775,-0.4159694,-0.370643,-0.05220985,-0.4195351,1.448455,0.02,0,0,91.31999999999999
1668,69498900,0,-0.96,0.71,2.36,0.02186072,-0.0004469742,-0.4156521,-0.3729636,-0.05202798,-0.4195595,1.444211,0.02,0,0,91.31999999999999
1715,69509527,0,-0.96,0.71,2.36,0.02207626,-0.000322309,-0.4160398,-0.3753805,-0.05180856,-0.4195635,1.440057,0.02,0,0,91.31999999999999
1753,69520860,0,-0.96,0.72,2.36,0.02210906,-0.0002040451,-0.4151319,-0.3692296,-0.05121765,-0.4194044,1.438288,0.02,0,0,91.31999999999999
1797,69530803,0,-0.96,0.72,2.36,0.02228936,-0.0002569706,-0.4140698,-0.356137,-0.05066729,-0.4192522,1.436815,0.02,0,0,91.31999999999999
1845,69540740,0,-0.96,0.72,2.36,0.02248177,-0.0002566238,-0.4128175,-0.3392681,-0.05011068,-0.4191064,1.434821,0.02,0,0,91.31999999999999
1890,69550742,0,-0.96,0.72,2.36,0.02267067,6.489336e-05,-0.4118014,-0.3227484,-0.04959074,-0.418964,1.433136,0.02,0,0,91.31999999999999
1936,69560907,0,-0.96,0.72,2.36,0.02290622,0.0001875531,-0.4107872,-0.3074382,-0.0490846,-0.4188257,1.431354,0.02,0,0,91.31999999999999
1980,69571519,0,-0.96,0.71,2.36,0.02290572,0.0002682863,-0.4107476,-0.2905133,-0.04885571,-0.4188233,1.427251,0.02,0,0,91.31999999999999
2025,69582062,0,-0.95,0.71,2.36,0.02281508,0.0003938139,-0.4098745,-0.2746818,-0.04833815,-0.4186875,1.424913,0.02,0,0,91.31999999999999
2069,69592043,0,-0.96,0.71,2.36,0.0226327,0.0003630297,-0.4089004,-0.2625339,-0.04785857,-0.418556,1.422902,0.02,0,0,91.31999999999999
2115,69602339,0,-0.96,0.71,2.36,0.0226532,0.0003768354,-0.4081685,-0.2531986,-0.04739321,-0.4184292,1.420808,0.02,0,0,91.31999999999999
2160,69612349,0,-0.96,0.71,2.36,0.02256039,0.000171762,-0.4074177,-0.2453594,-0.04694073,-0.4183083,1.418637,0.02,0,0,91.31999999999999
2205,69622291,0,-0.96,0.71,2.36,0.02228897,0.0001867555,-0.407353,-0.2373012,-0.04671677,-0.4183065,1.414568,0.02,0,0,91.31999999999999
2250,69632323,0,-0.96,0.71,2.36,0.02237185,0.0003838071,-0.4065775,-0.2317337,-0.04627693,-0.4181885,1.412331,0.02,0,0,91.31999999999999
2298,69642491,0,-0.96,0.71,2.36,0.02232428,0.0005270026,-0.4059169,-0.227777,-0.04584903,-0.4180735,1.410023,0.02,0,0,91.31999999999999
2343,69652335,0,-0.96,0.71,2.36,0.02249536,0.0004258975,-0.4053032,-0.2261607,-0.04543053,-0.4179614,1.407647,0.02,0,0,91.31999999999999
2387,69662331,0,-0.96,0.72,2.37,0.02247872,0.0007222513,-0.4044356,-0.225481,-0.04502241,-0.4178528,1.405206,0.02,0,0,91.31999999999999
2435,69675330,0,-0.96,0.72,2.37,0.02272995,0.001190717,-0.4040465,-0.2244222,-0.04455617,-0.4177397,1.401609,0.02,0,0,91.31999999999999
2476,69685849,0,-0.96,0.72,2.37,0.02319635,0.001512897,-0.403724,-0.2258779,-0.04413931,-0.4176285,1.398756,0.02,0,0,91.31999999999999
2524,69696798,0,-0.96,0.72,2.37,0.02346061,0.001670759,-0.403737,-0.2266448,-0.04390655,-0.4176124,1.394723,0.02,0,0,91.31999999999999
2563,69707746,0,-0.96,0.72,2.37,0.02368233,0.002301385,-0.402075,-0.2197692,-0.0434165,-0.417307,1.39448,0.02,0,0,91.31999999999999
2608,69717971,0,-0.96,0.72,2.37,0.02393898,0.002557381,-0.4003527,-0.2057092,-0.04296232,-0.4170106,1.394465,0.02,0,0,91.31999999999999
2653,69727727,0,-0.96,0.72,2.37,0.0241624,0.002699538,-0.3987098,-0.1911836,-0.04251747,-0.416723,1.394297,0.02,0,0,91.31999999999999
2703,69737958,0,-0.96,0.72,2.37,0.02435578,0.002862819,-0.3971915,-0.1757895,-0.04208286,-0.4164445,1.393974,0.02,0,0,91.31999999999999
2749,69748033,0,-0.95,0.72,2.37,0.02451049,0.00320924,-0.3958393,-0.1601056,-0.04163288,-0.4161696,1.393116,0.02,0,0,91.31999999999999
2794,69758666,0,-0.95,0.72,2.37,0.02468896,0.003401916,-0.3960497,-0.1446035,-0.04138727,-0.4161367,1.389161,0.02,0,0,91.31999999999999
2838,69768535,0,-0.95,0.72,2.37,0.0248934,0.003460033,-0.394596,-0.1318182,-0.0409683,-0.4158688,1.388575,0.02,0,0,91.31999999999999
2884,69778318,0,-0.95,0.72,2.38,0.02494522,0.0034572,-0.3934363,-0.1210859,-0.04055864,-0.4156095,1.387853,0.02,0,0,91.31999999999999
2928,69789554,0,-0.96,0.72,2.38,0.02479522,0.003532459,-0.3923728,-0.1126825,-0.04013485,-0.4153545,1.386525,0.02,0,0,91.31999999999999
2974,69799536,0,-0.96,0.72,2.38,0.02492508,0.003758447,-0.3912172,-0.1091836,-0.03974565,-0.4151087,1.385475,0.02,0,0,91.31999999999999
3019,69809852,0,-0.96,0.71,2.38,0.02482337,0.003722055,-0.3900476,-0.1047267,-0.03934084,-0.414867,1.383916,0.02,0,0,91.31999999999999
3063,69820307,0,-0.96,0.71,2.38,0.02470667,0.00351145,-0.390118,-0.1013333,-0.03909358,-0.4148313,1.380021,0.02,0,0,91.31999999999999
3108,69830281,0,-0.96,0.71,2.38,0.02473885,0.003793216,-0.3891962,-0.1011513,-0.03872349,-0.414601,1.378759,0.02,0,0,91.31999999999999
3155,69840313,0,-0.96,0.71,2.38,0.02442157,0.004158556,-0.388044,-0.1023983,-0.0383637,-0.4143741,1.377394,0.02,0,0,91.31999999999999
3201,69850270,0,-0.96,0.71,2.38,0.02389086,0.004258782,-0.3869883,-0.1064736,-0.03801642,-0.4141518,1.375933,0.02,0,0,91.31999999999999
3245,69860365,0,-0.96,0.71,2.38,0.02375454,0.004033796,-0.3859782,-0.1116967,-0.03768034,-0.4139371,1.37438,0.02,0,0,91.31999999999999
3291,69870830,0,-0.96,0.71,2.38,0.02348095,0.004354716,-0.3850217,-0.1166323,-0.03733124,-0.4137249,1.372348,0.02,0,0,91.31999999999999
3336,69881310,0,-0.96,0.71,2.38,0.02323491,0.004825367,-0.3851042,-0.1211829,-0.03709803,-0.4136791,1.368502,0.02,0,0,91.31999999999999
3380,69892023,0,-0.95,0.72,2.38,0.02285002,0.004904187,-0.3840461,-0.1278045,-0.03676147,-0.4134633,1.366498,0.02,0,0,91.31999999999999
3426,69902097,0,-0.95,0.72,2.38,0.02264513,0.00492459,-0.3834748,-0.1354351,-0.03645646,-0.4132585,1.364793,0.02,0,0,91.31999999999999
3468,69915431,0,-0.95,0.72,2.38,0.02231976,0.005221992,-0.3820662,-0.1392704,-0.03606809,-0.4128425,1.364027,0.02,0,0,91.31999999999999
3514,69925317,0,-0.95,0.72,2.37,0.02227325,0.005392778,-0.3806366,-0.1341706,-0.03575842,-0.4124524,1.364235,0.02,0,0,91.31999999999999
3559,69935340,0,-0.95,0.72,2.37,0.02232312,0.00572276,-0.379117,-0.1285845,-0.03545566,-0.4120729,1.364286,0.02,0,0,91.31999999999999
3609,69946042,0,-0.95,0.72,2.37,0.02220312,0.005838996,-0.3778376,-0.1182284,-0.03513978,-0.4116977,1.363802,0.02,0,0,91.31999999999999
3655,69956881,0,-0.95,0.72,2.37,0.02232883,0.005813831,-0.3776304,-0.1099127,-0.03491728,-0.4116397,1.360029,0.02,0,0,91.31999999999999
3700,69966438,0,-0.95,0.72,2.37,0.02256734,0.005976612,-0.3761048,-0.1027627,-0.0346063,-0.4112728,1.359431,0.02,0,0,91.31999999999999
3747,69976449,0,-0.96,0.72,2.37,0.0225034,0.006230538,-0.3746777,-0.1008412,-0.03432152,-0.4109208,1.35908,0.02,0,0,91.31999999999999
3792,69986999,0,-0.96,0.72,2.37,0.02252435,0.006386593,-0.3734431,-0.1006496,-0.03404346,-0.4105774,1.358755,0.02,0,0,91.31999999999999
3836,69998230,0,-0.96,0.72,2.37,0.02261377,0.006503291,-0.3725093,-0.09708843,-0.03374894,-0.4102372,1.357918,0.02,0,0,91.31999999999999
3880,70008881,0,-0.96,0.72,2.37,0.02258628,0.006701414,-0.3726149,-0.09243216,-0.0335008,-0.4101649,1.353825,0.02,0,0,91.31999999999999
3924,70018816,0,-0.96,0.72,2.37,0.02231237,0.006970519,-0.3717239,-0.09009496,-0.03323672,-0.4098351,1.353242,0.02,0,0,91.31999999999999
3968,70028739,0,-0.96,0.72,2.37,0.02208869,0.007269236,-0.3708902,-0.0902269,-0.03298042,-0.4095128,1.352531,0.02,0,0,91.31999999999999
4015,70038867,0,-0.96,0.72,2.37,0.02179707,0.00754991,-0.37005,-0.08883753,-0.03273353,-0.4091977,1.351691,0.02,0,0,91.31999999999999
4067,70049624,0,-0.96,0.72,2.37,0.02140696,0.007845268000000001,-0.3691527,-0.09056670999999999,-0.03249504,-0.4088885,1.350737,0.02,0,0,91.31999999999999
4111,70060076,0,-0.96,0.72,2.37,0.02127693,0.008031541,-0.3681967,-0.09441934,-0.03224257,-0.4085777,1.349312,0.02,0,0,91.31999999999999
4156,70070712,0,-0.96,0.71,2.37,0.02119551,0.008205960999999999,-0.3679763,-0.09671061,-0.0320298,-0.4084965,1.345635,0.02,0,0,91.31999999999999
4201,70080566,0,-0.95,0.71,2.37,0.02086139,0.008633191,-0.3669965,-0.1012059,-0.03180714,-0.4081948,1.344488,0.02,0,0,91.31999999999999
4245,70090737,0,-0.95,0.71,2.37,0.02058079,0.008677054,-0.3660429,-0.1070027,-0.03157113,-0.4078902,1.34287,0.02,0,0,91.31999999999999
4290,70100594,0,-0.95,0.71,2.37,0.02041817,0.008596355999999999,-0.3650284,-0.1147978,-0.03138176,-0.4076114,1.341888,0.02,0,0,91.31999999999999
4336,70117028,0,-0.95,0.71,2.37,0.01985809,0.008808593999999999,-0.363273,-0.1194193,-0.03102886,-0.4071409,1.340398,0.02,0,0,91.31999999999999
4382,70127113,0,-0.95,0.71,2.37,0.0197778,0.008988644,-0.361671,-0.112415,-0.03082697,-0.4067433,1.341266,0.02,0,0,91.31999999999999
4426,70137873,0,-0.95,0.71,2.37,0.01943482,0.009198469000000001,-0.3600874,-0.104556,-0.03063178,-0.4063568,1.341952,0.02,0,0,91.31999999999999
4471,70147656,0,-0.95,0.71,2.37,0.01944133,0.009222252,-0.3603309,-0.09545077,-0.03041874,-0.4062555,1.337995,0.02,0,0,91.31999999999999
4520,70157550,0,-0.96,0.71,2.37,0.01888691,0.009231312,-0.3591322,-0.08840955,-0.03023265,-0.4058785,1.338542,0.02,0,0,91.31999999999999
4564,70167550,0,-0.96,0.72,2.37,0.0185972,0.009440274,-0.3576896,-0.08024431,-0.03005634,-0.4055111,1.338923,0.02,0,0,91.31999999999999
4609,70177845,0,-0.96,0.72,2.37,0.01844941,0.009589647999999999,-0.3562123,-0.07412544,-0.02988642,-0.4051536,1.339147,0.02,0,0,91.31999999999999
4653,70187741,0,-0.96,0.72,2.37,0.01848182,0.009686551,-0.355829,-0.06830057,-0.02970215,-0.4050573,1.335591,0.02,0,0,91.31999999999999
4698,70198024,0,-0.96,0.72,2.37,0.01822843,0.009878859,-0.3544525,-0.06415099,-0.02951987,-0.404697,1.33534,0.02,0,0,91.31999999999999
4742,70208470,0,-0.96,0.72,2.37,0.01819852,0.01021403,-0.3529737,-0.05872527,-0.02936359,-0.4043548,1.33538,0.02,0,0,91.31999999999999
4787,70218353,0,-0.95,0.72,2.37,0.01799252,0.01028438,-0.3516089,-0.05458791,-0.02921236,-0.4040207,1.335276,0.02,0,0,91.31999999999999
4832,70228859,0,-0.95,0.72,2.37,0.01792775,0.01008676,-0.350596,-0.05029751,-0.02904853,-0.4036881,1.334675,0.02,0,0,91.31999999999999
4876,70238852,0,-0.95,0.72,2.37,0.01765237,0.01018123,-0.3500733,-0.04916347,-0.02890808,-0.4033754,1.334292,0.02,0,0,91.31999999999999
4922,70248758,0,-0.95,0.72,2.37,0.01762087,0.01032777,-0.3494155,-0.05149467,-0.02877256,-0.4030704,1.333785,0.02,0,0,91.31999999999999
4970,70259255,0,-0.95,0.72,2.37,0.01784226,0.01029231,-0.3495444,-0.05218063,-0.02859535,-0.4029676,1.330295,0.02,0,0,91.31999999999999
5015,70269201,0,-0.95,0.72,2.37,0.01766977,0.01012163,-0.3485636,-0.05544287,-0.02846237,-0.4026709,1.329676,0.02,0,0,91.31999999999999
5059,70279955,0,-0.95,0.71,2.37,0.01744048,0.01025137,-0.3477214,-0.06141707,-0.02831571,-0.4023721,1.328597,0.02,0,0,91.31999999999999
5104,70289821,0,-0.95,0.72,2.37,0.01722216,0.01049566,-0.3465027,-0.06706775,-0.02819243,-0.4020892,1.32792,0.02,0,0,91.31999999999999
5152,70302308,0,-0.95,0.72,2.37,0.01728481,0.01046705,-0.3451742,-0.07449143,-0.02803627,-0.4017929,1.326444,0.02,0,0,91.31999999999999
5200,70315078,0,-0.95,0.72,2.37,0.0164696,0.01036334,-0.3428841,-0.07786564999999999,-0.02804235,-0.4015721,1.327223,0.02,0,0,91.31999999999999
5242,70325540,0,-0.95,0.72,2.37,0.01577086,0.01038186,-0.3408899,-0.07109720999999999,-0.02810461,-0.4013898,1.328817,0.02,0,0,91.31999999999999
5288,70335329,0,-0.96,0.71,2.37,0.01493942,0.01032542,-0.3388942,-0.06088692,-0.02817295,-0.4012138,1.330208,0.02,0,0,91.31999999999999
5332,70346191,0,-0.96,0.71,2.37,0.01439103,0.009902632,-0.3371114,-0.04393769,-0.02823269,-0.4010368,1.331067,0.02,0,0,91.31999999999999
5381,70356928,0,-0.96,0.71,2.37,0.01420379,0.009740865,-0.3372761,-0.02608022,-0.02807623,-0.4009292,1.327363,0.02,0,0,91.31999999999999
5425,70367593,0,-0.96,0.71,2.37,0.01349202,0.009572842,-0.3357376,-0.01416959,-0.02816221,-0.4007756,1.328405,0.02,0,0,91.31999999999999
5470,70377808,0,-0.96,0.72,2.37,0.01299895,0.009250412,-0.3343453,-0.003850372,-0.02825295,-0.4006301,1.32927,0.02,0,0,91.31999999999999
5515,70387770,0,-0.96,0.72,2.37,0.01253167,0.009093921,-0.3328411,0.007998996,-0.0283472,-0.4004932,1.329956,0.02,0,0,91.31999999999999
5560,70398064,0,-0.95,0.72,2.37,0.01178071,0.008945503,-0.3312091,0.01630063,-0.02843376,-0.4003544,1.330255,0.02,0,0,91.31999999999999
5605,70408860,0,-0.95,0.72,2.37,0.01108689,0.008743391,-0.3296084,0.02379753,-0.02852752,-0.4002237,1.330394,0.02,0,0,91.31999999999999
5649,70418919,0,-0.95,0.72,2.37,0.01060183,0.008381414,-0.3280087,0.02514671,-0.02863575,-0.400108,1.33072,0.02,0,0,91.31999999999999
5694,70429669,0,-0.9399999999999999,0.72,2.37,0.0105169,0.008324048000000001,-0.3275151,0.02782422,-0.02853014,-0.4000249,1.327446,0.02,0,0,91.31999999999999
5738,70439683,0,-0.95,0.72,2.37,0.01010913,0.008181839999999999,-0.3261357,0.02650606,-0.02864438,-0.3999185,1.32765,0.02,0,0,91.31999999999999
5787,70449924,0,-0.9399999999999999,0.72,2.37,0.009452553000000001,0.008140704,-0.3250807,0.02155526,-0.02875129,-0.3998087,1.327394,0.02,0,0,91.31999999999999
5836,70459792,0,-0.95,0.72,2.37,0.009102617,0.007812568000000001,-0.3243779,0.01538015,-0.02887075,-0.399713,1.327327,0.02,0,0,91.31999999999999
5880,70469898,0,-0.95,0.72,2.37,0.008484268999999999,0.007551878,-0.3235625,0.006514334,-0.02899184,-0.3996232,1.327132,0.02,0,0,91.31999999999999
5925,70480318,0,-0.95,0.72,2.37,0.008278735000000001,0.007302312,-0.3236166,2.023089e-05,-0.02890844,-0.3995491,1.323899,0.02,0,0,91.31999999999999
5969,70490873,0,-0.95,0.72,2.37,0.007799389,0.007089427,-0.3228515,-0.009618478999999999,-0.02902759,-0.3994611,1.323266,0.02,0,0,91.31999999999999
6014,70501129,0,-0.96,0.72,2.37,0.007081788,0.0068073,-0.3219448,-0.01739268,-0.0291582,-0.3993866,1.322822,0.02,0,0,91.31999999999999
6058,70511312,0,-0.96,0.72,2.37,0.006676701,0.006973953,-0.3207676,-0.02575312,-0.02929072,-0.3993143,1.322264,0.02,0,0,91.31999999999999
6099,70522801,0,-0.96,0.72,2.37,0.006342341,0.006662923,-0.3185796,-0.03448677,-0.0293311,-0.3993528,1.323668,0.02,0,0,91.31999999999999
6144,70532888,0,-0.96,0.72,2.37,0.005911247,0.006048108,-0.3166788,-0.03694793,-0.02938762,-0.399411,1.325513,0.02,0,0,91.31999999999999
6188,70542784,0,-0.96,0.72,2.37,0.005731101,0.005897324,-0.3164477,-0.02913349,-0.02932929,-0.3993512,1.322351,0.02,0,0,91.31999999999999
6233,70552811,0,-0.96,0.72,2.37,0.005630709,0.005412018,-0.3144344,-0.01860742,-0.02939311,-0.3994219,1.324016,0.02,0,0,91.31999999999999
6282,70562846,0,-0.95,0.72,2.37,0.005565346,0.005059313,-0.3129513,-0.006063262,-0.02945757,-0.3994965,1.325478,0.02,0,0,91.31999999999999
6327,70572830,0,-0.95,0.72,2.37,0.005229656,0.004533995,-0.3111532,0.005869636,-0.02952356,-0.3995762,1.326756,0.02,0,0,91.31999999999999
6371,70582822,0,-0.95,0.71,2.37,0.004846015,0.00392743,-0.3097255,0.01574591,-0.02959277,-0.3996617,1.327861,0.02,0,0,91.31999999999999
6416,70592889,0,-0.95,0.71,2.37,0.004569064,0.003346948,-0.3084338,0.02123027,-0.02966354,-0.3997518,1.328799,0.02,0,0,91.31999999999999
6462,70603304,0,-0.95,0.71,2.37,0.004351195,0.003298562,-0.3082155,0.02911485,-0.029619,-0.3997186,1.325719,0.02,0,0,91.31999999999999
6503,70613314,0,-0.9399999999999999,0.71,2.37,0.003822874,0.002727285,-0.3066418,0.03344741,-0.02969697,-0.3998189,1.326581,0.02,0,0,91.31999999999999
6548,70623278,0,-0.9399999999999999,0.71,2.37,0.003418357,0.002067602,-0.3051035,0.03611715,-0.02977811,-0.3999259,1.32729,0.02,0,0,91.31999999999999
6592,70633266,0,-0.9399999999999999,0.71,2.37,0.003123408,0.001839728,-0.3038689,0.03493043,-0.02986219,-0.4000371,1.327853,0.02,0,0,91.31999999999999
6637,70643304,0,-0.95,0.71,2.37,0.002711254,0.001645966,-0.3023221,0.03269103,-0.0299478,-0.4001492,1.328272,0.02,0,0,91.31999999999999
6683,70653891,0,-0.95,0.71,2.37,0.002361311,0.001289939,-0.3007395,0.03163762,-0.03003305,-0.4002607,1.328245,0.02,0,0,91.31999999999999
6732,70664249,0,-0.95,0.71,2.37,0.002127009,0.001162605,-0.3005507,0.03059085,-0.03001077,-0.4002484,1.325243,0.02,0,0,91.31999999999999
6777,70674120,0,-0.95,0.72,2.37,0.001843787,0.0008823703,-0.2996185,0.02601654,-0.03010346,-0.4003688,1.325402,0.02,0,0,91.31999999999999
6821,70684593,0,-0.95,0.72,2.37,0.001271543,0.0007451886999999999,-0.2980756,0.01899256,-0.03019772,-0.4004878,1.325141,0.02,0,0,91.31999999999999
6866,70694890,0,-0.95,0.72,2.37,0.001120284,0.0007042462,-0.296902,0.01136079,-0.03029558,-0.4006081,1.325058,0.02,0,0,91.31999999999999
6909,70709914,0,-0.95,0.71,2.37,0.0006552873000000001,0.0004516048,-0.2950321,0.00874958,-0.03043679,-0.4005292,1.325667,0.02,0,0,91.31999999999999
6954,70720234,0,-0.95,0.71,2.37,8.946049999999999e-05,0.0004547528,-0.2932772,0.01304336,-0.03058701,-0.4004609,1.327555,0.02,0,0,91.31999999999999
6998,70730292,0,-0.95,0.71,2.37,-0.0004070308,0.0003637627,-0.2912557,0.01750955,-0.03074006,-0.4003975,1.32926,0.02,0,0,91.31999999999999
7043,70740851,0,-0.95,0.71,2.37,-0.0007327069000000001,0.000125444,-0.2896204,0.02263801,-0.03089548,-0.4003398,1.330497,0.02,0,0,91.31999999999999
7088,70751307,0,-0.95,0.72,2.37,-0.0006917432,8.446532999999999e-05,-0.2894638,0.03101944,-0.03090234,-0.4003387,1.327606,0.02,0,0,91.31999999999999
7132,70761315,0,-0.95,0.71,2.37,-0.001012648,-5.596181e-05,-0.2876115,0.03731295,-0.03105967,-0.4002888,1.328978,0.02,0,0,91.31999999999999
7183,70771284,0,-0.95,0.72,2.37,-0.001407752,-9.27771e-05,-0.2863787,0.042241,-0.03121831,-0.4002436,1.33018,0.02,0,0,91.31999999999999
7228,70781841,0,-0.95,0.71,2.37,-0.001842147,-0.0001656017,-0.2849368,0.03962938,-0.03138042,-0.4002016,1.330958,0.02,0,0,91.31999999999999
7273,70792323,0,-0.95,0.71,2.37,-0.001867073,-0.0002510008,-0.2848794,0.04053333,-0.03139836,-0.4002039,1.328113,0.02,0,0,91.31999999999999
7318,70802309,0,-0.95,0.71,2.37,-0.002119916,-0.0004953237,-0.2835017,0.03965962,-0.03156225,-0.4001692,1.329036,0.02,0,0,91.31999999999999
7362,70812582,0,-0.95,0.71,2.37,-0.002154602,-0.000597713,-0.2820335,0.0385505,-0.03172504,-0.4001387,1.329803,0.02,0,0,91.31999999999999
7407,70822305,0,-0.95,0.71,2.37,-0.002554405,-0.000687173,-0.2807633,0.03491617,-0.0318877,-0.4001118,1.330554,0.02,0,0,91.31999999999999
7456,70835311,0,-0.95,0.71,2.37,-0.002894713,-0.0009629881000000001,-0.2794613,0.03081169,-0.03206093,-0.4000919,1.330327,0.02,0,0,91.31999999999999
7502,70845723,0,-0.95,0.71,2.37,-0.003374356,-0.001009768,-0.2782808,0.0249101,-0.03223029,-0.4000739,1.330527,0.02,0,0,91.31999999999999
7548,70856297,0,-0.95,0.71,2.37,-0.003614713,-0.001197882,-0.2778902,0.02200185,-0.03226534,-0.4000852,1.32775,0.02,0,0,91.31999999999999
7592,70866127,0,-0.95,0.71,2.37,-0.004035456,-0.001239084,-0.2767614,0.01702085,-0.03243832,-0.400071,1.328112,0.02,0,0,91.31999999999999
7643,70876120,0,-0.96,0.71,2.38,-0.004100705,-0.001339735,-0.2758176,0.01152538,-0.03261061,-0.4000609,1.328342,0.02,0,0,91.31999999999999
7687,70886183,0,-0.96,0.71,2.38,-0.004575372,-0.001395237,-0.2753312,0.003651124,-0.03278406,-0.4000539,1.328452,0.02,0,0,91.31999999999999
7732,70896837,0,-0.95,0.71,2.39,-0.00509462,-0.001335306,-0.2741044,-0.004968995,-0.03296488,-0.4000506,1.32817,0.02,0,0,91.31999999999999
7778,70907444,0,-0.95,0.71,2.4,-0.005762438,-0.001560356,-0.2737549,-0.01087169,-0.03301976,-0.4000661,1.325432,0.02,0,0,91.31999999999999
7817,70919830,0,-0.95,0.71,2.4,-0.006354569,-0.001649843,-0.2723837,-0.01207416,-0.03310633,-0.3999786,1.326706,0.02,0,0,91.31999999999999
7863,70929861,0,-0.95,0.71,2.4,-0.006826377,-0.001838423,-0.2710561,-0.005901257,-0.03318014,-0.3998911,1.328595,0.02,0,0,91.31999999999999
7909,70939846,0,-0.95,0.72,2.4,-0.007136543,-0.002780345,-0.268606,0.001665296,-0.03325564,-0.3998094,1.330303,0.02,0,0,91.31999999999999
7955,70949846,0,-0.96,0.72,2.39,-0.008007350999999999,-0.003584915,-0.2672121,0.01293547,-0.03333725,-0.3997369,1.331812,0.02,0,0,91.31999999999999
8001,70959829,0,-0.95,0.72,2.39,-0.008922104,-0.00433711,-0.2662761,0.02256235,-0.03342235,-0.3996695,1.333146,0.02,0,0,91.31999999999999
8046,70969850,0,-0.9399999999999999,0.71,2.39,-0.008933376999999999,-0.004447823,-0.2653023,0.02844894,-0.03351194,-0.3996061,1.33432,0.02,0,0,91.31999999999999
8096,70980301,0,-0.93,0.71,2.39,-0.007923381,-0.002988611,-0.2662891,0.03577951,-0.03358649,-0.3996246,1.331667,0.02,0,0,91.31999999999999
8141,70990216,0,-0.93,0.71,2.39,-0.007634935,-0.001873589,-0.2646533,0.04105214,-0.03367893,-0.3995726,1.332706,0.02,0,0,91.31999999999999
8185,71000301,0,-0.95,0.72,2.39,-0.007821163000000001,-0.00262579,-0.261959,0.04572712,-0.03377759,-0.3995267,1.333587,0.02,0,0,91.31999999999999
8230,71010249,0,-0.95,0.71,2.39,-0.00797111,-0.003986748,-0.2614979,0.04473346,-0.03387798,-0.3994873,1.334352,0.02,0,0,91.31999999999999
8275,71020253,0,-0.9399999999999999,0.71,2.39,-0.007340351,-0.003563559,-0.2614951,0.04195563,-0.0339806,-0.3994565,1.334974,0.02,0,0,91.31999999999999
8320,71031027,0,-0.95,0.71,2.39,-0.008123923,-0.003665374,-0.2605375,0.04122898,-0.03409497,-0.3994389,1.33519,0.02,0,0,91.31999999999999
8367,71044045,0,-0.97,0.72,2.4,-0.01034535,-0.003742584,-0.2596367,0.03816171,-0.03423589,-0.3994349,1.334751,0.02,0,0,91.31999999999999
8412,71054342,0,-0.99,0.73,2.4,-0.009965385,-0.0035649,-0.2592854,0.03432596,-0.03433782,-0.3994803,1.3319,0.02,0,0,91.31999999999999
8458,71064325,0,-0.99,0.73,2.39,-0.009683361,-0.003551095,-0.2569771,0.02905058,-0.03444799,-0.3994571,1.332136,0.02,0,0,91.31999999999999
8507,71074688,0,-0.98,0.72,2.38,-0.008798729999999999,-0.003784745,-0.2554581,0.0207381,-0.03456409,-0.3994348,1.332012,0.02,0,0,91.31999999999999
8553,71084708,0,-0.97,0.72,2.36,-0.008549167,-0.003458298,-0.2567741,0.01014264,-0.03467255,-0.399416,1.332023,0.02,0,0,91.31999999999999
8600,71098146,0,-0.97,0.71,2.35,-0.008191006000000001,-0.001997433,-0.2548839,0.002000135,-0.03440033,-0.3992402,1.333063,0.02,0,0,91.31999999999999
8641,71107916,0,-0.97,0.71,2.34,-0.007597329,-0.001739029,-0.2517649,0.004122114,-0.03411061,-0.3990624,1.334687,0.02,0,0,91.31999999999999
8688,71120713,0,-0.97,0.71,2.34,-0.00753156,-0.003241325,-0.2511115,0.009030986,-0.03384418,-0.3989093,1.33567,0.02,0,0,91.31999999999999
8733,71131144,0,-0.97,0.71,2.36,-0.007878138,-0.002906544,-0.2512618,0.01347249,-0.03392943,-0.3989484,1.332909,0.02,0,0,91.31999999999999
8775,71141413,0,-0.95,0.6899999999999999,2.37,-0.006245373,-0.002424088,-0.2483341,0.01810851,-0.03364789,-0.398784,1.334269,0.02,0,0,91.31999999999999
8819,71151295,0,-0.93,0.6899999999999999,2.39,-0.005195347,-0.002951292,-0.2482876,0.02059731,-0.03336566,-0.3986253,1.335469,0.02,0,0,91.31999999999999
8864,71161297,0,-0.93,0.6899999999999999,2.4,-0.005336693,-0.00351968,-0.2478339,0.02162269,-0.03309219,-0.3984876,1.336518,0.02,0,0,91.31999999999999
8908,71171850,0,-0.9399999999999999,0.6899999999999999,2.42,-0.006218018,-0.00420364,-0.2448842,0.02442544,-0.03284186,-0.3983688,1.337168,0.02,0,0,91.31999999999999
8959,71182249,0,-0.9399999999999999,0.7,2.43,-0.007374553,-0.004359811,-0.2452807,0.02686429,-0.03291355,-0.3984132,1.334723,0.02,0,0,91.31999999999999
9003,71192254,0,-0.9399999999999999,0.6899999999999999,2.45,-0.005491696,-0.003610297,-0.2449558,0.0267481,-0.03266524,-0.3982943,1.335508,0.02,0,0,91.31999999999999
9048,71202302,0,-0.95,0.7,2.45,-0.004281461,-0.004546855,-0.2402537,0.02316612,-0.03240666,-0.3981791,1.336194,0.02,0,0,91.31999999999999
9093,71212891,0,-0.95,0.6899999999999999,2.44,-0.005950032,-0.005883475,-0.2410507,0.01747022,-0.03216978,-0.3980783,1.336498,0.02,0,0,91.31999999999999
9137,71223354,0,-0.9399999999999999,0.7,2.43,-0.009119354,-0.007277714,-0.2394781,0.01749582,-0.03225067,-0.398129,1.334083,0.02,0,0,91.31999999999999
9182,71233315,0,-0.9399999999999999,0.7,2.42,-0.00829651,-0.005218353,-0.2401649,0.01291546,-0.03206075,-0.3980451,1.334605,0.02,0,0,91.31999999999999
9226,71243507,0,-0.96,0.7,2.41,-0.003445606,-0.003618544,-0.2371932,0.01183859,-0.03184538,-0.3979561,1.334994,0.02,0,0,91.31999999999999
9271,71253318,0,-0.95,0.7,2.38,-0.003880003,-0.003420633,-0.2372991,0.005930759,-0.03161913,-0.3978606,1.335275,0.02,0,0,91.31999999999999
9316,71263840,0,-0.9399999999999999,0.6899999999999999,2.37,-0.009586823,-0.005707823,-0.2364408,-0.0002310304,-0.03144682,-0.3977806,1.335185,0.02,0,0,91.31999999999999
9361,71273872,0,-0.9399999999999999,0.7,2.36,-0.009724178999999999,-0.005137657,-0.2360904,-0.003905208,-0.03156268,-0.397839,1.332837,0.02,0,0,91.31999999999999
9411,71283712,0,-0.96,0.7,2.37,-0.002941745,-0.00316368,-0.2357951,-0.008806865000000001,-0.0313828,-0.3977707,1.332888,0.02,0,0,91.31999999999999
9455,71293825,0,-0.9399999999999999,0.7,2.36,-0.003191292,-0.001602295,-0.2337823,-0.01349246,-0.03117145,-0.397686,1.332852,0.02,0,0,91.31999999999999
9500,71304243,0,-0.92,0.7,2.37,-0.0101398,-0.003321969,-0.2356187,-0.02331957,-0.03100832,-0.3976051,1.332699,0.02,0,0,91.31999999999999
9549,71317042,0,-0.91,0.71,2.39,-0.00733645,-0.007626057,-0.2321946,-0.02857685,-0.03092154,-0.3975818,1.331773,0.02,0,0,91.31999999999999
9589,71328510,0,-0.93,0.7,2.41,0.0009293917,-0.004586507,-0.2301571,-0.0320662,-0.03039817,-0.3971332,1.332522,0.02,0,0,91.31999999999999
9633,71338697,0,-0.91,0.6899999999999999,2.41,-0.001751466,-0.002770165,-0.2300711,-0.03564631,-0.02986125,-0.3966636,1.333375,0.02,0,0,91.31999999999999
9678,71348900,0,-0.91,0.71,2.42,-0.01043793,-0.007772204,-0.2269323,-0.03107326,-0.02941778,-0.3962278,1.33384,0.02,0,0,91.31999999999999
9723,71359776,0,-0.92,0.72,2.44,-0.004527068,-0.008297924999999999,-0.2276626,-0.02794231,-0.02900583,-0.395849,1.334187,0.02,0,0,91.31999999999999
9767,71370257,0,-0.9399999999999999,0.71,2.44,0.003022827,-0.004469469,-0.2266164,-0.02128239,-0.02899963,-0.3959026,1.331914,0.02,0,0,91.31999999999999
9812,71380858,0,-0.93,0.6899999999999999,2.41,-0.001382402,-0.002293692,-0.2278407,-0.02001671,-0.02848325,-0.3954739,1.33237,0.02,0,0,91.31999999999999
9861,71390806,0,-0.92,0.71,2.4,-0.009098475999999999,-0.006824866,-0.2231275,-0.01494721,-0.02806187,-0.3950711,1.332711,0.02,0,0,91.31999999999999
9906,71400799,0,-0.93,0.71,2.41,-0.002747756,-0.008616031999999999,-0.225147,-0.0174218,-0.02767085,-0.3947227,1.332946,0.02,0,0,91.31999999999999
9952,71411053,0,-0.95,0.7,2.38,0.005180971,-0.002901986,-0.2220028,-0.01623274,-0.0271994,-0.3943764,1.332851,0.02,0,0,91.31999999999999
9996,71421785,0,-0.9399999999999999,0.6899999999999999,2.36,-0.001795773,-0.0002029644,-0.2258689,-0.02031743,-0.02716506,-0.3943795,1.33061,0.02,0,0,91.31999999999999
10041,71431866,0,-0.93,0.7,2.35,-0.009303973,-0.004093254,-0.2201803,-0.01700168,-0.02679799,-0.3940063,1.330651,0.02,0,0,91.31999999999999
10087,71441906,0,-0.93,0.72,2.37,-0.0007960438,-0.005916966,-0.2231494,-0.02509846,-0.02642567,-0.3936894,1.330812,0.02,0,0,91.31999999999999
10133,71452836,0,-0.9399999999999999,0.6899999999999999,2.35,0.005639062,-0.001025324,-0.2192566,-0.02485883,-0.02597532,-0.3933698,1.330873,0.02,0,0,91.31999999999999
10178,71462790,0,-0.92,0.7,2.36,-0.003602126,0.00247056,-0.2223858,-0.03187098,-0.02555907,-0.3930174,1.330809,0.02,0,0,91.31999999999999
10222,71473083,0,-0.91,0.7,2.37,-0.008418404000000001,-0.003170358,-0.2173533,-0.02966337,-0.02526115,-0.3926933,1.330453,0.02,0,0,91.31999999999999
10267,71483333,0,-0.92,0.72,2.4,0.001524782,-0.005184241,-0.2205553,-0.03440017,-0.02529425,-0.3927527,1.328257,0.02,0,0,91.31999999999999
10315,71493302,0,-0.92,0.68,2.39,0.005502324,-0.0004414454,-0.2181619,-0.03587538,-0.02487845,-0.3924654,1.328035,0.02,0,0,91.31999999999999
10362,71506223,0,-0.92,0.71,2.4,-0.007940967,-0.00155772,-0.2132424,-0.03679553,-0.02454278,-0.3921387,1.327032,0.02,0,0,91.31999999999999
10405,71516343,0,-0.9,0.7,2.42,-0.005405614,-0.00689284,-0.2166827,-0.03914506,-0.02408532,-0.3916448,1.328573,0.02,0,0,91.31999999999999
10450,71526714,0,-0.9399999999999999,0.72,2.42,0.005349893,-0.006952168,-0.2105941,-0.02822378,-0.02356355,-0.3912009,1.329933,0.02,0,0,91.31999999999999
10495,71536984,0,-0.9399999999999999,0.7,2.4,-0.001251154,0.001317724,-0.2173371,-0.0255444,-0.02301029,-0.3907352,1.330941,0.02,0,0,91.31999999999999
10539,71546937,0,-0.9399999999999999,0.71,2.39,-0.01059125,0.001109695,-0.2064715,-0.007731628,-0.02258123,-0.3902498,1.332019,0.02,0,0,91.31999999999999
10583,71557052,0,-0.93,0.73,2.4,-0.003555578,-0.003545525,-0.2141392,-0.008815778999999999,-0.02218464,-0.3898206,1.332975,0.02,0,0,91.31999999999999
10628,71567881,0,-0.95,0.71,2.38,0.007996388,-0.0002629292,-0.2065145,0.007790534,-0.02168917,-0.3894355,1.33357,0.02,0,0,91.31999999999999
10672,71578357,0,-0.9399999999999999,0.72,2.36,-0.001296235,0.004877209,-0.2151163,0.008206616999999999,-0.02164105,-0.3894331,1.331464,0.02,0,0,91.31999999999999
10720,71588365,0,-0.93,0.71,2.36,-0.007226538,0.003261349,-0.2046645,0.02354077,-0.02126399,-0.3889929,1.332177,0.02,0,0,91.31999999999999
10765,71598420,0,-0.92,0.74,2.37,0.003841263,-0.00148875,-0.2125276,0.01881123,-0.02088395,-0.3886064,1.332744,0.02,0,0,91.31999999999999
10810,71608292,0,-0.9399999999999999,0.7,2.35,0.01235484,-0.0002797903,-0.2047108,0.02674845,-0.0204042,-0.3882523,1.333217,0.02,0,0,91.31999999999999
10856,71618797,0,-0.93,0.71,2.36,0.002301643,0.001829336,-0.2065026,0.02320443,-0.01996356,-0.3878627,1.333341,0.02,0,0,91.31999999999999
10901,71629558,0,-0.9,0.7,2.36,-0.001349094,-0.0007994114,-0.2044833,0.02489114,-0.02000807,-0.3878339,1.331311,0.02,0,0,91.31999999999999
10946,71639593,0,-0.93,0.72,2.39,0.01113162,-0.005263503,-0.2053972,0.0205158,-0.019615,-0.3874832,1.331439,0.02,0,0,91.31999999999999
10990,71650056,0,-0.9399999999999999,0.68,2.37,0.007942632999999999,-0.001912686,-0.2062086,0.0139453,-0.01913239,-0.387157,1.33131,0.02,0,0,91.31999999999999
11035,71660521,0,-0.95,0.6899999999999999,2.39,-0.004926764,0.001994856,-0.1992869,0.01385965,-0.01875474,-0.3867961,1.331262,0.02,0,0,91.31999999999999
11080,71670591,0,-0.91,0.7,2.4,-0.003568239,0.0001415678,-0.203338,0.002367996,-0.01846114,-0.3864422,1.331166,0.02,0,0,91.31999999999999
11125,71681026,0,-0.9399999999999999,0.72,2.41,0.008650145,0.0004955815,-0.198495,0.0003343816,-0.01807425,-0.3861398,1.330749,0.02,0,0,91.31999999999999
11173,71691732,0,-0.9399999999999999,0.7,2.39,0.002317575,0.004093453,-0.2058405,-0.01223271,-0.01796799,-0.3861385,1.328739,0.02,0,0,91.31999999999999
11218,71701597,0,-0.9399999999999999,0.71,2.39,-0.007892688,0.005635102,-0.1963677,-0.009901500000000001,-0.01766027,-0.3858057,1.328461,0.02,0,0,91.31999999999999
11265,71712090,0,-0.92,0.74,2.4,0.003609853,0.001234606,-0.2023788,-0.02470005,-0.01739226,-0.3854927,1.327913,0.02,0,0,91.31999999999999
11303,71723696,0,-0.91,0.7,2.37,0.01485376,-0.000201093,-0.1975508,-0.02433004,-0.01709137,-0.385223,1.329127,0.02,0,0,91.31999999999999
11348,71733696,0,-0.93,0.7,2.36,0.001818106,0.002037117,-0.1965366,-0.02323791,-0.01683871,-0.3849408,1.330229,0.02,0,0.01,91.31999999999999
11392,71744090,0,-0.9,0.68,2.35,-0.002857656,0.001563005,-0.1953475,-0.02086238,-0.01670907,-0.3846555,1.331452,0.02,0,0.01,91.31999999999999
11437,71754327,0,-0.93,0.71,2.35,0.009411803999999999,-0.002467029,-0.1932744,-0.01152786,-0.01670404,-0.3846507,1.329483,0.02,0,0.01,91.31999999999999
11482,71764339,0,-0.92,0.67,2.32,0.008494161,-0.0004129446,-0.1975555,-0.0101859,-0.01643169,-0.3844175,1.330576,0.02,0,0.01,91.31999999999999
11527,71774360,0,-0.9399999999999999,0.68,2.32,-0.005637652,0.00244455,-0.1882282,0.004922552,-0.01625014,-0.3841694,1.331511,0.02,0,0.01,91.31999999999999
11573,71784869,0,-0.91,0.71,2.34,-0.007521381,0.002098808,-0.1954712,-0.001328045,-0.01616621,-0.3839209,1.332192,0.02,0,0.01,91.31999999999999
11620,71795798,0,-0.92,0.7,2.33,0.007780778,-0.000919461,-0.1868733,0.01062759,-0.01598266,-0.3837162,1.332734,0.02,0,0.01,91.31999999999999
11666,71806395,0,-0.92,0.72,2.33,0.001555107,0.001591143,-0.1940124,0.008528017000000001,-0.0159058,-0.3837175,1.330812,0.02,0,0.01,91.31999999999999
11712,71816859,0,-0.9,0.7,2.33,-0.006651161,0.001716448,-0.1873247,0.01751835,-0.0158062,-0.3834943,1.331275,0.02,0,0.01,91.31999999999999
11756,71826761,0,-0.92,0.74,2.36,0.003332774,-0.002147524,-0.1881348,0.01702946,-0.01572193,-0.3832972,1.331781,0.02,0,0.01,91.31999999999999
11801,71836751,0,-0.91,0.7,2.33,0.01226685,-0.001848236,-0.1878304,0.01682257,-0.01552439,-0.3831318,1.332215,0.02,0,0.01,91.31999999999999
11845,71848237,0,-0.93,0.7,2.32,-0.0003546765,0.001546125,-0.184187,0.02059457,-0.01535374,-0.3829546,1.33242,0.02,0,0.01,91.31999999999999
11890,71858886,0,-0.88,0.72,2.34,-0.006989658,0.001515933,-0.1893931,0.01549482,-0.01531187,-0.3827638,1.332576,0.02,0,0.01,91.31999999999999
11935,71868880,0,-0.9,0.72,2.32,0.006886728,-0.0009252238,-0.1822073,0.01994411,-0.01520325,-0.382612,1.332793,0.02,0,0.01,91.31999999999999
11979,71879201,0,-0.89,0.71,2.3,0.006308619,0.0001477339,-0.1907005,0.01036405,-0.01510341,-0.3826229,1.330951,0.02,0,0.01,91.31999999999999
12024,71889791,0,-0.9,0.7,2.29,-0.006952074,0.002385023,-0.1771421,0.01996537,-0.01499225,-0.3824561,1.330915,0.02,0,0.01,91.31999999999999
12073,71899889,0,-0.89,0.72,2.31,-0.002396334,-0.0009143816,-0.1858528,0.006236754,-0.0149568,-0.3822925,1.330982,0.02,0,0.01,91.31999999999999
12115,71913886,0,-0.91,0.67,2.27,0.01275181,-0.0005617427,-0.1826382,0.005776596,-0.01461872,-0.3821494,1.331431,0.02,0,0.01,91.31999999999999
12159,71923848,0,-0.9399999999999999,0.68,2.26,0.000874914,0.00270424,-0.1778609,0.01085866,-0.01433901,-0.3819929,1.332425,0.02,0,0.01,91.31999999999999
12207,71934298,0,-0.9,0.6899999999999999,2.27,-0.005988565,0.002993735,-0.1828587,0.005890573,-0.01417677,-0.3818247,1.333363,0.02,0,0.01,91.31999999999999
12252,71944340,0,-0.9399999999999999,0.7,2.27,0.006976799,-7.032213e-06,-0.1751355,0.01426035,-0.01397126,-0.3816927,1.334444,0.02,0,0.01,91.31999999999999
12297,71955055,0,-0.91,0.6899999999999999,2.26,0.003732215,0.002669455,-0.1844995,0.009388471000000001,-0.01366073,-0.3815732,1.33505,0.02,0,0.01,91.31999999999999
12341,71966029,0,-0.91,0.6899999999999999,2.26,-0.007927124000000001,0.003607602,-0.1716471,0.02711625,-0.01347461,-0.3814306,1.335715,0.02,0,0.01,91.31999999999999
12388,71976346,0,-0.89,0.74,2.3,-0.001740586,0.0008761263,-0.1804076,0.0240983,-0.01353422,-0.3814051,1.333938,0.02,0,0.01,91.31999999999999
12434,71986887,0,-0.9,0.7,2.28,0.01332483,-0.002480109,-0.1732997,0.03400927,-0.01329385,-0.3813006,1.334525,0.02,0,0.01,91.31999999999999
12479,71997216,0,-0.92,0.71,2.28,0.004405366,-0.0004583447,-0.1741477,0.03556815,-0.01306144,-0.3811942,1.335114,0.02,0,0.01,91.31999999999999
12527,72007237,0,-0.88,0.6899999999999999,2.28,-0.00500981,0.0001391489,-0.1707563,0.03973234,-0.01294804,-0.3810717,1.335678,0.02,0,0.01,91.31999999999999
12571,72018013,0,-0.9,0.72,2.3,0.005665394,-0.003262156,-0.169863,0.0388549,-0.01284174,-0.3809718,1.336088,0.02,0,0.01,91.31999999999999
12616,72028178,0,-0.89,0.68,2.27,0.008624194,-0.001437799,-0.1753662,0.02978935,-0.01261298,-0.3809029,1.336277,0.02,0,0.01,91.31999999999999
12660,72038911,0,-0.92,0.68,2.26,-0.007701166,0.002832879,-0.1638847,0.03799073,-0.01245575,-0.3808244,1.336524,0.02,0,0.01,91.31999999999999
12708,72052333,0,-0.89,0.74,2.29,-0.002713773,-0.001721011,-0.1723963,0.02731936,-0.01243026,-0.380733,1.336351,0.02,0,0.01,91.31999999999999
12752,72062180,0,-0.89,0.71,2.26,0.01103996,-0.004287506,-0.1664188,0.02954422,-0.01227237,-0.3806887,1.336615,0.02,0,0.01,91.31999999999999
12797,72072889,0,-0.93,0.71,2.25,0.004379326,-0.003666619,-0.1692265,0.02389633,-0.01220744,-0.3807162,1.334721,0.02,0,0.01,91.31999999999999
12842,72082738,0,-0.9,0.6899999999999999,2.25,-0.00490511,-0.0004891014,-0.168459,0.02026368,-0.01213866,-0.3806476,1.334919,0.02,0,0.01,91.31999999999999
12886,72092796,0,-0.93,0.72,2.27,0.005441522,-0.003933384,-0.164231,0.01726475,-0.01207359,-0.3805886,1.33498,0.02,0,0.01,91.31999999999999
12934,72102807,0,-0.91,0.7,2.25,0.01348912,-0.004104833,-0.1687585,0.005670027,-0.01190453,-0.3805521,1.335182,0.02,0,0.01,91.31999999999999
12984,72116813,0,-0.93,0.6899999999999999,2.24,-0.008190529,0.003105488,-0.1605855,0.008553398,-0.01163153,-0.3802328,1.336055,0.02,0,0.01,91.31999999999999
13026,72127999,0,-0.91,0.75,2.28,-0.004394445,0.00113908,-0.1662976,0.003814042,-0.01148941,-0.3798918,1.3373,0.02,0,0.01,91.31999999999999
13071,72137982,0,-0.91,0.72,2.27,0.01238596,-0.002278385,-0.1627467,0.01091771,-0.01143928,-0.3798982,1.335524,0.02,0,0.01,91.31999999999999
13116,72147896,0,-0.93,0.73,2.27,0.005503558,-0.0009650936,-0.1647151,0.01232785,-0.01115738,-0.3795942,1.336974,0.02,0,0.01,91.31999999999999
13160,72157595,0,-0.91,0.71,2.28,-0.004385836,0.001842966,-0.1611482,0.01986734,-0.0109766,-0.3792756,1.338075,0.02,0,0.01,91.31999999999999
13204,72167837,0,-0.92,0.72,2.29,0.00328262,-0.001140382,-0.159525,0.02449743,-0.01083232,-0.3789637,1.339328,0.02,0,0.01,91.31999999999999
13248,72178843,0,-0.89,0.7,2.28,0.01155807,0.0005464117,-0.1649988,0.02637394,-0.01056341,-0.3786864,1.340003,0.02,0,0.01,91.31999999999999
13293,72188857,0,-0.93,0.67,2.26,0.0007208680000000001,0.004179326,-0.1564036,0.03767988,-0.01033162,-0.3784191,1.340853,0.02,0,0.01,91.31999999999999
13322,72249589,0,-0.86,0.6899999999999999,2.25,0.009551141000000001,-0.001416344,-0.1570457,0.0376845,-0.009666874000000001,-0.3773712,1.340245,0.02,0,0.01,91.31999999999999
13367,72260002,0,-0.9399999999999999,0.68,2.25,0.002910592,0.002155882,-0.1513272,0.04018312,-0.009456345,-0.3771715,1.340764,0.02,0,0.01,91.31999999999999
13411,72269893,0,-0.89,0.7,2.28,-0.007039973,0.002005927,-0.1593486,0.03040823,-0.009347172000000001,-0.3769454,1.341422,0.02,0,0.01,91.31999999999999
13456,72280533,0,-0.88,0.68,2.26,0.002296709,-0.0004772925,-0.1502109,0.03647174,-0.009233754,-0.3767408,1.341955,0.02,0,0.01,91.31999999999999
13500,72291121,0,-0.95,0.6899999999999999,2.28,0.004909527,-0.0008218845,-0.1501631,0.03257429,-0.009063391000000001,-0.3765691,1.342197,0.02,0,0.01,91.31999999999999
13545,72301842,0,-0.95,0.7,2.29,-0.0007013069,0.0007911235,-0.1569004,0.02283205,-0.008938702999999999,-0.3763818,1.342393,0.02,0,0.01,91.31999999999999
13592,72312790,0,-0.87,0.6899999999999999,2.27,-0.0006298721,0.00169877,-0.1616848,0.01638237,-0.008952544,-0.3763483,1.34086,0.02,0,0.01,91.31999999999999
13634,72324090,0,-0.85,0.66,2.3,0.001874818,0.004137511,-0.1492462,0.03056247,-0.009056689,-0.3758559,1.342454,0.02,0,0.01,91.31999999999999
13679,72334514,0,-0.83,0.68,2.28,0.002312138,0.009557411,-0.1587495,0.02660861,-0.009159176999999999,-0.3753878,1.344239,0.02,0,0.01,91.31999999999999
13724,72344849,0,-0.86,0.7,2.29,-0.001873471,0.01920718,-0.1668536,0.02525661,-0.009266861,-0.3749239,1.34573,0.02,0,0.01,91.31999999999999
13768,72354855,0,-0.99,0.6899999999999999,2.29,-0.00101539,0.008773889999999999,-0.1547085,0.04408824,-0.009380523999999999,-0.3744835,1.347278,0.02,0,0.01,91.31999999999999
13817,72368813,0,-0.9,0.67,2.3,0.0001351652,0.02628681,-0.1530898,0.0583472,-0.009473163999999999,-0.3740062,1.348197,0.02,0,0.01,91.31999999999999
13862,72378853,0,-0.92,0.67,2.29,-0.0006487716,0.006063376,-0.1521813,0.06784859,-0.00957821,-0.3735752,1.349621,0.02,0,0.01,91.31999999999999
13906,72389910,0,-0.76,0.66,2.29,0.0006467906,0.0007474711,-0.1383533,0.08950271,-0.009692081999999999,-0.3731306,1.350855,0.02,0,0.01,91.31999999999999
13952,72400148,0,-0.6899999999999999,0.64,2.28,0.0004913557,-0.001000343,-0.1483698,0.08607022,-0.009778014,-0.3727264,1.351895,0.02,0,0.01,91.31999999999999
13996,72410186,0,-0.75,0.6,2.29,0.0006801758,0.01666597,-0.143588,0.09250237,-0.009859980000000001,-0.3723746,1.35293,0.02,0,0.01,91.31999999999999
14041,72421050,0,-0.85,0.65,2.29,-0.00466056,0.01505962,-0.1592754,0.07879514999999999,-0.009966223999999999,-0.3720005,1.353738,0.02,0,0.01,91.31999999999999
14091,72431767,0,-0.9399999999999999,0.57,2.3,0.002227207,0.006004314,-0.1453404,0.09355342,-0.01005915,-0.3716457,1.354468,0.02,0,0.01,91.31999999999999
14136,72442287,0,-0.86,0.67,2.31,0.005655958,-0.007624945,-0.1339639,0.1055635,-0.01006108,-0.371606,1.352969,0.02,0,0.01,91.31999999999999
14180,72452309,0,-0.71,0.57,2.31,0.0004333209,-0.0001906762,-0.1449093,0.09165204,-0.01012669,-0.3712828,1.353747,0.02,0,0.01,91.31999999999999
14226,72462804,0,-0.74,0.57,2.31,0.003613499,0.01437348,-0.1334974,0.09593219,-0.0102359,-0.3709764,1.354348,0.02,0,0.01,91.31999999999999
14271,72473348,0,-0.88,0.6,2.34,-0.00206483,0.01785311,-0.1600624,0.06335004,-0.01034241,-0.3706877,1.355072,0.02,0,0.01,91.31999999999999
14315,72483286,0,-0.96,0.52,2.31,0.003299031,-0.006486137,-0.1234947,0.09339687000000001,-0.01043623,-0.3704303,1.355713,0.02,0,0.01,91.31999999999999
14360,72493832,0,-0.87,0.66,2.35,-0.001207087,-0.006159256,-0.1265664,0.08435816,-0.01055027,-0.3701721,1.356015,0.02,0,0.01,91.31999999999999
14404,72504549,0,-0.74,0.57,2.31,-0.005662529,0.005211886,-0.1462278,0.06002553,-0.01056584,-0.370121,1.354681,0.02,0,0.01,91.31999999999999
14442,72516108,0,-0.74,0.51,2.32,-0.008273002,0.005300447,-0.1256063,0.07699982,-0.01057842,-0.369923,1.35608,0.02,0,0.01,91.31999999999999
14486,72526355,0,-0.71,0.61,2.31,-0.003757878,0.01499787,-0.1432923,0.05920964,-0.01061164,-0.3697474,1.357587,0.02,0,0.01,91.31999999999999
14535,72536377,0,-0.82,0.58,2.32,-0.005797246,0.006027097,-0.150912,0.05246203,-0.01061457,-0.3696364,1.359059,0.02,0,0.01,91.31999999999999
14580,72547107,0,-0.88,0.52,2.3,-0.001265811,0.001766097,-0.1141778,0.092085,-0.01061505,-0.3695179,1.360233,0.02,0,0.01,91.31999999999999
14625,72557979,0,-0.72,0.58,2.32,0.0004164046,-0.007897295,-0.1143033,0.09527855,-0.01065514,-0.3693343,1.361191,0.02,0,0.01,91.31999999999999
14669,72568212,0,-0.57,0.62,2.29,-0.01507718,0.009248733,-0.1577234,0.05336021,-0.01068891,-0.3691592,1.362437,0.02,0,0.01,91.31999999999999
14715,72578736,0,-0.77,0.44,2.29,-0.008317687000000001,0.01527387,-0.1287588,0.08457692,-0.01070714,-0.3690457,1.363433,0.02,0,0.01,91.31999999999999
14759,72588728,0,-0.82,0.58,2.33,0.00158614,1.212977e-05,-0.1161665,0.09615868,-0.01078387,-0.3689161,1.364326,0.02,0,0.01,91.31999999999999
14804,72599844,0,-0.66,0.73,2.33,-0.009040403000000001,0.007049487,-0.1535586,0.05841364,-0.01086226,-0.36876,1.365051,0.02,0,0.01,91.31999999999999
14849,72610286,0,-0.79,0.48,2.3,-0.01599694,0.009781417000000001,-0.1453594,0.06677771,-0.01087477,-0.368739,1.363791,0.02,0,0.01,91.31999999999999
14894,72620902,0,-0.88,0.4,2.33,-0.002284349,-0.003887998,-0.1021919,0.1069848,-0.0109044,-0.3686396,1.364346,0.02,0,0.01,91.31999999999999
14939,72630809,0,-0.61,0.6,2.35,0.01049113,0.007323272,-0.1337832,0.07092107,-0.011,-0.3684541,1.364959,0.02,0,0.01,91.31999999999999
14987,72640788,0,-0.72,0.7,2.35,-0.008863302,0.03042689,-0.1482083,0.05128969,-0.01105846,-0.3683006,1.365616,0.02,0,0.01,91.31999999999999
15032,72651714,0,-0.92,0.54,2.34,-0.01832226,0.01382968,-0.1380684,0.05641719,-0.01106187,-0.3682069,1.36612,0.02,0,0.01,91.31999999999999
15076,72661767,0,-0.76,0.42,2.33,-0.006034408,-0.01214494,-0.1135912,0.07500834000000001,-0.01106682,-0.3680871,1.366463,0.02,0,0.01,91.31999999999999
15124,72675019,0,-0.88,0.51,2.35,-0.0202458,0.0009318702,-0.1260406,0.0564279,-0.01112774,-0.3679136,1.366493,0.02,0,0.01,91.31999999999999
15168,72685333,0,-0.59,0.41,2.32,-0.007654892,-0.006774558,-0.1092333,0.0666371,-0.01116831,-0.3676796,1.366949,0.02,0,0.01,91.31999999999999
15213,72696741,0,-0.53,0.44,2.31,-0.003952011,-0.01220011,-0.1128565,0.05661523,-0.01124473,-0.3674772,1.367056,0.02,0,0.01,91.31999999999999
15259,72707983,0,-0.44,0.51,2.32,0.00575554,0.01297821,-0.1334538,0.03153535,-0.01131803,-0.3673905,1.365704,0.02,0,0.01,91.31999999999999
15303,72718814,0,-0.5,0.51,2.31,-0.0006094729,0.01701804,-0.1331504,0.02461199,-0.01140143,-0.367265,1.365718,0.02,0,0.01,91.31999999999999
15344,72729675,0,-0.65,0.55,2.33,0.007830795,0.02090185,-0.1330572,0.02312313,-0.01108132,-0.3670182,1.367067,0.02,0,0.01,91.31999999999999
15390,72739678,0,-0.66,0.65,2.33,0.009742221000000001,0.01139451,-0.1315688,0.02616696,-0.01078107,-0.36677,1.368239,0.02,0,0.01,91.31999999999999
15438,72750119,0,-0.61,0.61,2.33,0.005075835,0.005320267,-0.1378562,0.02173102,-0.01049523,-0.3665575,1.369127,0.02,0,0.01,91.31999999999999
15483,72760283,0,-0.65,0.6,2.34,-0.001409261,0.01902204,-0.1441363,0.0163295,-0.01026466,-0.3663985,1.370046,0.02,0,0.01,91.31999999999999
15527,72770308,0,-0.62,0.57,2.37,-0.003680062,0.03683846,-0.1471934,0.01429216,-0.01008188,-0.3662089,1.3709,0.02,0,0.01,91.31999999999999
15575,72783827,0,-0.51,0.53,2.37,-0.009744676000000001,0.02061442,-0.13886,0.02778622,-0.009916074,-0.3658055,1.371126,0.02,0,0.01,91.31999999999999
15619,72794146,0,-0.5,0.51,2.39,-0.006962637,0.01254438,-0.1363026,0.03274238,-0.009731333999999999,-0.3655672,1.371815,0.02,0,0.01,91.31999999999999
15664,72804228,0,-0.45,0.52,2.43,-0.008708408000000001,0.006044713,-0.1378758,0.03230216,-0.009593739,-0.3653579,1.372374,0.02,0,0.01,91.31999999999999
15709,72814749,0,-0.4,0.6,2.47,-0.02451432,0.006695433,-0.1459099,0.02593495,-0.009503365999999999,-0.3651116,1.372635,0.02,0,0.01,91.31999999999999
15754,72825346,0,-0.3,0.64,2.5,-0.028575,0.01349443,-0.1582888,0.01546801,-0.009683789999999999,-0.3648665,1.371078,0.02,0,0.01,91.31999999999999
15799,72835340,0,-0.26,0.6899999999999999,2.54,-0.03563571,0.01545937,-0.1690261,0.003025359,-0.009614996000000001,-0.3646061,1.371249,0.02,0,0.01,91.31999999999999
15850,72848116,0,-0.12,0.6899999999999999,2.61,-0.01524647,0.0321847,-0.1921922,-0.02274003,-0.009718826999999999,-0.3642702,1.370454,0.02,0,0.01,91.31999999999999
15895,72858574,0,-0.08,0.67,2.66,-0.01319178,0.02851103,-0.2064394,-0.03909741,-0.009727845000000001,-0.3640337,1.370117,0.02,0,0.01,91.31999999999999
15940,72868493,0,-0.02,0.65,2.71,-0.01127197,0.02791041,-0.220842,-0.05719554,-0.009705600999999999,-0.3637802,1.369748,0.02,0,0.01,91.31999999999999
15985,72878864,0,0.01,0.68,2.77,-0.03588416,0.01647215,-0.2479386,-0.08814347,-0.009757688,-0.3634311,1.368371,0.02,0,0.01,91.31999999999999
16029,72889587,0,0.09,0.6899999999999999,2.84,-0.04272014,0.02151179,-0.2705227,-0.1157916,-0.009809043999999999,-0.3631162,1.367145,0.02,0,0.01,91.31999999999999
16075,72900067,0,0.14,0.66,2.93,-0.03018922,0.03426363,-0.2986216,-0.1492849,-0.009933911,-0.3627971,1.365308,0.02,0,0.01,91.31999999999999
16113,72911152,0,0.24,0.59,3.01,-0.02390427,0.03279385,-0.3329218,-0.1876088,-0.009663035,-0.362188,1.364393,0.02,0,0.01,91.31999999999999
16158,72921227,0,0.32,0.58,3.09,-0.03269669,0.03444685,-0.3582686,-0.2125241,-0.009396471999999999,-0.3615772,1.363422,0.02,0,0.01,91.31999999999999
16207,72931199,0,0.45,0.52,3.18,-0.04043092,0.03898277,-0.3929012,-0.2452924,-0.009145706999999999,-0.3608882,1.36205,0.02,0,0.01,91.31999999999999
16251,72941940,0,0.58,0.46,3.27,-0.03447063,0.04320429,-0.4112095,-0.2587432,-0.008939743999999999,-0.3601527,1.359825,0.02,0,0.01,91.31999999999999
16301,72952871,0,0.71,0.35,3.36,-0.02579378,0.04412244,-0.4415943,-0.2836018,-0.008749102,-0.3594244,1.357222,0.02,0,0.01,91.31999999999999
16346,72964100,0,0.83,0.28,3.46,-0.04199155,0.05283796,-0.490204,-0.3261929,-0.009141988,-0.3588792,1.352133,0.02,0,0.01,91.31999999999999
16390,72974258,0,0.95,0.21,3.55,-0.04665538,0.06424756,-0.5115383,-0.3451597,-0.009006024,-0.3580712,1.349207,0.02,0,0.01,91.31999999999999
16435,72984522,0,1.12,0.11,3.64,-0.04354507,0.06488537,-0.5314458,-0.3641357,-0.008901823,-0.3572527,1.345724,0.02,0,0.01,91.31999999999999
16481,72997519,0,1.21,0,3.78,-0.04903715,0.05217735,-0.5846696,-0.4185947,-0.008977113,-0.3562816,1.340087,0.02,0,0.01,91.31999999999999
16525,73007530,0,1.34,-0.04,3.87,-0.05732639,0.07153361,-0.6081382,-0.4467288,-0.009002876,-0.3554319,1.335724,0.02,0,0.01,91.31999999999999
16570,73018500,0,1.55,-0.15,4.01,-0.04655243,0.07898698,-0.6391533,-0.4812139,-0.009552303999999999,-0.3546837,1.32888,0.02,0,0.01,91.31999999999999
16614,73028901,0,1.67,-0.26,4.12,-0.04775583,0.06524868,-0.6822613,-0.5297398,-0.009654296,-0.353682,1.323145,0.02,0,0.01,91.31999999999999
16659,73038855,0,1.72,-0.3,4.23,-0.06312548,0.06667165,-0.7006263,-0.552418,-0.009764068000000001,-0.3527499,1.317667,0.02,0,0.01,91.31999999999999
16703,73048874,0,1.8,-0.34,4.36,-0.06756479,0.07270131000000001,-0.722544,-0.5790168999999999,-0.009929636,-0.3517793,1.311829,0.02,0,0.01,91.31999999999999
16752,73059097,0,1.87,-0.41,4.49,-0.05704599,0.08281893999999999,-0.7562373,-0.6177502,-0.01012617,-0.3507435,1.305622,0.02,0,0.01,91.31999999999999
16797,73069991,0,1.94,-0.49,4.61,-0.05555677,0.092,-0.8017812,-0.6682823,-0.01038816,-0.3495947,1.298276,0.02,0,0.01,91.31999999999999
16841,73080213,0,1.97,-0.53,4.75,-0.06918064,0.09594359,-0.8312396,-0.703484,-0.01061022,-0.3485082,1.291333,0.02,0,0.01,91.31999999999999
16886,73093736,0,2.05,-0.64,4.93,-0.05673483,0.1010169,-0.8608587,-0.7394864,-0.01111322,-0.3469367,1.280546,0.02,0,0.01,91.31999999999999
16930,73104256,0,2.05,-0.71,5.06,-0.06631136,0.1035777,-0.8989667,-0.7831431,-0.01138187,-0.3457055,1.272716,0.02,0,0.01,91.31999999999999
16978,73121799,0,2.04,-0.79,5.3,-0.07408207,0.111084,-0.9336721,-0.8241553,-0.01196709,-0.3429988,1.258642,0.02,0,0.01,91.31999999999999
17023,73132209,0,2.03,-0.87,5.46,-0.07197874999999999,0.1316593,-0.9525929,-0.8421,-0.01213204,-0.3410848,1.251398,0.02,0,0.01,91.31999999999999
17068,73142814,0,2.05,-0.9399999999999999,5.6,-0.0594237,0.1324455,-0.9903774,-0.8772641,-0.01237362,-0.3389722,1.242829,0.02,0,0.01,91.31999999999999
17114,73152809,0,2,-0.99,5.74,-0.06370591,0.1345532,-1.015365,-0.9000156,-0.01252964,-0.3369799,1.234875,0.02,0,0.01,91.31999999999999
17164,73163579,0,1.94,-1.03,5.88,-0.07386449,0.1415952,-1.033742,-0.9129708,-0.01318227,-0.3356281,1.224724,0.02,0,0.01,91.31999999999999
17208,73173992,0,1.89,-1.09,6.05,-0.06466419,0.1474453,-1.050046,-0.9249247,-0.01345095,-0.3334184,1.215191,0.02,0,0.01,91.31999999999999
17253,73184197,0,1.79,-1.14,6.19,-0.05467785,0.1457345,-1.065911,-0.9363205,-0.01365719,-0.3313224,1.206389,0.02,0,0.01,91.31999999999999
17301,73197052,0,1.63,-1.12,6.35,-0.07718211,0.1668389,-1.113814,-0.9796094,-0.01407127,-0.3287419,1.193987,0.02,0,0.01,91.31999999999999
17345,73207892,0,1.57,-1.15,6.5,-0.06975348000000001,0.175323,-1.12297,-0.9846161,-0.01433434,-0.3265556,1.184756,0.02,0,0.01,91.31999999999999
17390,73218032,0,1.44,-1.22,6.68,-0.05436273,0.1638579,-1.145378,-1.003876,-0.0146648,-0.324172,1.174125,0.02,0,0.01,91.31999999999999
17434,73228472,0,1.31,-1.21,6.81,-0.06223727,0.1656887,-1.180625,-1.037846,-0.01492466,-0.3219289,1.164297,0.02,0,0.01,91.31999999999999
17479,73238963,0,1.17,-1.14,6.96,-0.08053222,0.1760833,-1.182133,-1.038333,-0.0156427,-0.3199988,1.151308,0.02,0,0.01,91.31999999999999
17524,73249200,0,1.03,-1.15,7.12,-0.06555492,0.1818624,-1.197804,-1.054885,-0.01592886,-0.3176414,1.141031,0.02,0,0.01,91.31999999999999
17569,73259168,0,0.91,-1.18,7.26,-0.04954983,0.1918314,-1.232486,-1.090509,-0.01621249,-0.3152429,1.13043,0.02,0,0.01,91.31999999999999
17618,73269808,0,0.78,-1.15,7.39,-0.05577271,0.1948847,-1.259018,-1.119047,-0.01649766,-0.3128185,1.119547,0.02,0,0.01,91.31999999999999
17663,73279873,0,0.6,-1.04,7.54,-0.08017404,0.2024832,-1.283677,-1.146409,-0.01687043,-0.3101734,1.10711,0.02,0,0.01,91.31999999999999
17708,73290537,0,0.48,-1.01,7.69,-0.07256413,0.2181878,-1.299014,-1.162945,-0.0175275,-0.3081453,1.094249,0.02,0,0.01,91.31999999999999
17751,73301542,0,0.39,-1.01,7.85,-0.05362203,0.2160664,-1.318744,-1.185507,-0.0179022,-0.3054067,1.081286,0.02,0,0.01,91.31999999999999
17793,73312289,0,0.23,-0.98,8,-0.05852545,0.2059803,-1.339011,-1.205238,-0.01747919,-0.3026701,1.068942,0.02,0,0.01,91.31999999999999
17838,73322782,0,0.03,-0.91,8.140000000000001,-0.06746107,0.2137566,-1.358077,-1.220765,-0.01709785,-0.2998898,1.056263,0.02,0,0.01,91.31999999999999
17882,73332731,0,-0.1,-0.85,8.279999999999999,-0.06590206,0.221367,-1.375636,-1.235409,-0.01667254,-0.2973035,1.044633,0.02,0,0.01,91.31999999999999
17926,73343339,0,-0.23,-0.82,8.41,-0.05817065,0.2241293,-1.385604,-1.2434,-0.01626929,-0.2947069,1.032744,0.02,0,0.01,91.31999999999999
17972,73353320,0,-0.37,-0.79,8.56,-0.04917556,0.224097,-1.410475,-1.266426,-0.01589793,-0.2920996,1.020574,0.02,0,0.01,91.31999999999999
18016,73363843,0,-0.52,-0.72,8.68,-0.0608041,0.2317268,-1.444777,-1.297589,-0.01561194,-0.289249,1.006695,0.02,0,0.01,91.31999999999999
18065,73374310,0,-0.6899999999999999,-0.61,8.81,-0.07668541,0.2358588,-1.455804,-1.305118,-0.01621998,-0.28692,0.9922817,0.02,0,0.01,91.31999999999999
18109,73384577,0,-0.83,-0.5600000000000001,8.970000000000001,-0.06412893,0.2466023,-1.470579,-1.318676,-0.01600527,-0.2839925,0.9779248,0.02,0,0.01,91.31999999999999
18154,73395067,0,-0.88,-0.54,9.09,-0.04969899,0.2535996,-1.483735,-1.332267,-0.01572023,-0.281286,0.9647777,0.02,0,0.01,91.31999999999999
18202,73408811,0,-1.17,-0.46,9.26,-0.06719872,0.2325956,-1.509917,-1.359662,-0.0156673,-0.2776249,0.9456567,0.02,0,0.01,91.31999999999999
18247,73418797,0,-1.27,-0.37,9.359999999999999,-0.07253635999999999,0.2468584,-1.523699,-1.373702,-0.01546622,-0.2748891,0.9322165,0.02,0,0.01,91.31999999999999
18293,73429685,0,-1.42,-0.31,9.49,-0.06854593,0.2490653,-1.531474,-1.383052,-0.01527683,-0.2721639,0.9185659,0.02,0,0.01,91.31999999999999
18337,73439845,0,-1.52,-0.29,9.6,-0.04759051,0.2601027,-1.554065,-1.408083,-0.01514349,-0.2692132,0.9031494,0.02,0,0.01,91.31999999999999
18382,73450794,0,-1.64,-0.26,9.710000000000001,-0.04902521,0.252043,-1.568276,-1.423335,-0.01568999,-0.2667241,0.8875719,0.02,0,0.01,91.31999999999999
18427,73460724,0,-1.8,-0.2,9.82,-0.06113191,0.2418054,-1.586204,-1.444089,-0.01559049,-0.263722,0.8717235,0.02,0,0.01,91.31999999999999
18472,73470752,0,-1.84,-0.19,9.91,-0.05998874,0.2478027,-1.604293,-1.464791,-0.0154014,-0.261219,0.8588033,0.02,0,0.01,91.31999999999999
18521,73481162,0,-1.96,-0.13,10.03,-0.06734907,0.2543267,-1.616324,-1.481438,-0.01532453,-0.2582345,0.8424941,0.02,0,0.01,91.31999999999999
18566,73492125,0,-2.07,-0.1,10.14,-0.0547339,0.2543985,-1.618648,-1.488948,-0.01528662,-0.2552534,0.8259472,0.02,0,0.01,91.31999999999999
18611,73502912,0,-2.2,-0.12,10.24,-0.04211253,0.2474252,-1.639867,-1.514233,-0.01589703,-0.2525001,0.8079814,0.02,0,0.01,91.31999999999999
18654,73514103,0,-2.42,-0.08,10.33,-0.05383544,0.2335786,-1.658039,-1.537166,-0.0158576,-0.249594,0.7910337,0.02,0,0.01,91.31999999999999
18696,73525757,0,-2.53,0,10.43,-0.06600658,0.2581284,-1.683031,-1.560983,-0.01623845,-0.2465952,0.7736944,0.02,0,0.01,91.31999999999999
18741,73536127,0,-2.62,0.02,10.51,-0.06616719,0.2611078,-1.687351,-1.561448,-0.01653052,-0.2440517,0.7594167000000001,0.02,0,0.01,91.31999999999999
18785,73546512,0,-2.69,0.03,10.59,-0.06164797,0.2591489,-1.69215,-1.561737,-0.01686306,-0.2415117,0.7449003,0.02,0,0.01,91.31999999999999
18830,73557006,0,-2.72,0,10.66,-0.04749034,0.2501535,-1.716816,-1.579799,-0.01726498,-0.2387406,0.7284402,0.02,0,0.01,91.31999999999999
18875,73567741,0,-2.83,0.01,10.73,-0.0497123,0.2414087,-1.725179,-1.581483,-0.01761358,-0.2362457,0.7134185,0.02,0,0.01,91.31999999999999
18920,73578348,0,-2.95,0.05,10.78,-0.06360546,0.2362535,-1.739289,-1.587562,-0.01804699,-0.2335307,0.6964567,0.02,0,0.01,91.31999999999999
18970,73588361,0,-3.05,0.08,10.82,-0.07032218,0.2447829,-1.7563,-1.599422,-0.01844463,-0.2310784,0.6809982999999999,0.02,0,0.01,91.31999999999999
19014,73598839,0,-3.16,0.12,10.87,-0.07283360999999999,0.236599,-1.750809,-1.588337,-0.01892956,-0.2284114,0.6635804,0.02,0,0.01,91.31999999999999
19059,73609780,0,-3.2,0.12,10.91,-0.06006129,0.2443775,-1.765693,-1.598911,-0.0194319,-0.2257789,0.6462766,0.02,0,0.01,91.31999999999999
19104,73620752,0,-3.21,0.08,10.92,-0.05296649,0.2406604,-1.767216,-1.595655,-0.02005422,-0.2233987,0.6285612,0.02,0,0.01,91.31999999999999
19149,73631758,0,-3.34,0.03,10.93,-0.0488911,0.2239912,-1.781538,-1.608186,-0.0205599,-0.2208074,0.6109298,0.02,0,0.01,91.31999999999999
19193,73642179,0,-3.41,0,10.91,-0.0561403,0.2228177,-1.799943,-1.626404,-0.02106144,-0.21827,0.5931141,0.02,0,0.01,91.31999999999999
19238,73652103,0,-3.55,0,10.9,-0.06027761,0.2067413,-1.803,-1.630066,-0.02152792,-0.2159882,0.5768803,0.02,0,0.01,91.31999999999999
19282,73662082,0,-3.63,-0.01,10.87,-0.06318321,0.2072416,-1.817636,-1.647072,-0.02200561,-0.2137502,0.5604855,0.02,0,0.01,91.31999999999999
19327,73672921,0,-3.8,0.05,10.82,-0.07685213,0.2057966,-1.825733,-1.656869,-0.02257669,-0.2113111,0.5420716,0.02,0,0.01,91.31999999999999
19373,73683346,0,-3.82,0.04,10.76,-0.07854435999999999,0.2009723,-1.835192,-1.667419,-0.02323303,-0.209121,0.5237846,0.02,0,0.01,91.31999999999999
19421,73693835,0,-3.85,0.03,10.68,-0.08187965,0.2186256,-1.851889,-1.687539,-0.02380894,-0.206747,0.5051044,0.02,0,0.01,91.31999999999999
19469,73705028,0,-3.9,-0.01,10.59,-0.07814322999999999,0.216328,-1.857113,-1.696295,-0.02440495,-0.204407,0.4862562,0.02,0,0.01,91.31999999999999
19510,73716177,0,-3.86,-0.08,10.48,-0.06935073,0.2251083,-1.867813,-1.711696,-0.02609756,-0.2017685,0.4670896,0.02,0,0,91.31999999999999
19552,73727991,0,-3.86,-0.22,10.35,-0.05099704,0.2130196,-1.867887,-1.715672,-0.02783118,-0.1989507,0.4463082,0.02,0,0,91.31999999999999
19597,73738114,0,-3.92,-0.27,10.22,-0.05021304,0.2054517,-1.871165,-1.721951,-0.02946074,-0.1964148,0.4272082,0.02,0,0,91.31999999999999
19641,73748111,0,-3.98,-0.33,10.09,-0.05018444,0.1954062,-1.875622,-1.72901,-0.03100499,-0.1941186,0.4098284,0.02,0,0,91.31999999999999
19686,73758808,0,-3.96,-0.41,9.9,-0.04982074,0.1998652,-1.887653,-1.744964,-0.03253161,-0.1918675,0.3923201,0.02,0,0,91.31999999999999
19730,73769046,0,-4.06,-0.48,9.76,-0.04772879,0.1900333,-1.885492,-1.746069,-0.03402824,-0.1896772,0.3746316,0.02,0,0,91.31999999999999
19775,73779806,0,-4.07,-0.5600000000000001,9.539999999999999,-0.05198623,0.1824809,-1.898086,-1.762519,-0.03557126,-0.1873496,0.3549355,0.02,0,0,91.31999999999999
19820,73789819,0,-4.09,-0.63,9.380000000000001,-0.0558866,0.1699593,-1.896136,-1.765143,-0.03711465,-0.1850723,0.3350867,0.02,0,0,91.31999999999999
19868,73799897,0,-4.1,-0.6899999999999999,9.17,-0.05522614,0.1680319,-1.903731,-1.77873,-0.03781599,-0.1832533,0.3159636,0.02,0,0,91.31999999999999
19913,73810046,0,-4.05,-0.72,8.970000000000001,-0.0509511,0.1711855,-1.914465,-1.795517,-0.03927479,-0.1812645,0.2978491,0.02,0,0,91.31999999999999
19958,73819896,0,-4.16,-0.77,8.76,-0.04959325,0.1743932,-1.918992,-1.805663,-0.04070543,-0.1793456,0.2796192,0.02,0,0,91.31999999999999
20003,73830565,0,-4.2,-0.76,8.539999999999999,-0.05083327,0.1746663,-1.935748,-1.828658,-0.04209619,-0.1774614,0.2610591,0.02,0,0,91.31999999999999
20048,73841418,0,-4.25,-0.87,8.289999999999999,-0.05054054,0.1625323,-1.929708,-1.829789,-0.04351325,-0.1754458,0.2404467,0.02,0,0,91.31999999999999
20093,73851787,0,-4.28,-0.92,8.02,-0.05825849,0.1519955,-1.943169,-1.850615,-0.04492576,-0.1734875,0.2197227,0.02,0,0,91.31999999999999
20138,73861887,0,-4.29,-0.99,7.79,-0.05341464,0.1510674,-1.943669,-1.858153,-0.0462513,-0.1717488,0.2008316,0.02,0,0,91.31999999999999
20182,73872560,0,-4.36,-1.02,7.54,-0.05118517,0.1436278,-1.948238,-1.869688,-0.04756264,-0.1700744,0.1818528,0.02,0,0,91.31999999999999
20228,73882382,0,-4.39,-1.02,7.29,-0.0514045,0.1452565,-1.957988,-1.886495,-0.04886074,-0.1684345,0.1627652,0.02,0,0,91.31999999999999
20272,73892853,0,-4.45,-1.1,7.01,-0.05460434,0.128525,-1.95313,-1.888914,-0.0502057,-0.1667042,0.1416392,0.02,0,0,91.31999999999999
20322,73903848,0,-4.47,-1.13,6.75,-0.05343105,0.1231899,-1.962833,-1.904786,-0.05087142,-0.1653157,0.1219572,0.02,0,0,91.31999999999999
