LineNo,TimeUS,C,Roll,Pitch,Yaw,VN,VE,VD,dPD,PN,PE,PD,GX,GY,GZ,OH
651,6.9154e+07,0,-0.97,0.71,2.36,0.027896,0.00014743,0.031169,0.045352,-0.05726,-0.41782,1.5074,0.02,0,0,91.32
991,6.9228e+07,0,-0.96,0.71,2.37,0.026599,0.00046305,0.031738,0.041786,-0.056022,-0.41835,1.5103,0.02,0,0,91.32
1391,6.9443e+07,0,-0.95,0.72,2.36,0.022107,-0.0011886,-0.41696,-0.35742,-0.053013,-0.4194,1.4658,0.02,0,0,91.32
1539,6.9465e+07,0,-0.96,0.72,2.36,0.021958,-0.00099729,-0.41651,-0.36471,-0.052611,-0.41947,1.4573,0.02,0,0,91.32
1578,6.9478e+07,0,-0.96,0.72,2.36,0.021768,-0.00078726,-0.41639,-0.36825,-0.052376,-0.41951,1.4523,0.02,0,0,91.32
1623,6.9489e+07,0,-0.96,0.72,2.36,0.021765,-0.00052428,-0.41597,-0.37064,-0.05221,-0.41954,1.4485,0.02,0,0,91.32
1668,6.9499e+07,0,-0.96,0.71,2.36,0.021861,-0.00044697,-0.41565,-0.37296,-0.052028,-0.41956,1.4442,0.02,0,0,91.32
1715,6.951e+07,0,-0.96,0.71,2.36,0.022076,-0.00032231,-0.41604,-0.37538,-0.051809,-0.41956,1.4401,0.02,0,0,91.32
1753,6.9521e+07,0,-0.96,0.72,2.36,0.022109,-0.00020405,-0.41513,-0.36923,-0.051218,-0.4194,1.4383,0.02,0,0,91.32
1797,6.9531e+07,0,-0.96,0.72,2.36,0.022289,-0.00025697,-0.41407,-0.35614,-0.050667,-0.41925,1.4368,0.02,0,0,91.32
1845,6.9541e+07,0,-0.96,0.72,2.36,0.022482,-0.00025662,-0.41282,-0.33927,-0.050111,-0.41911,1.4348,0.02,0,0,91.32
1890,6.9551e+07,0,-0.96,0.72,2.36,0.022671,6.4893e-05,-0.4118,-0.32275,-0.049591,-0.41896,1.4331,0.02,0,0,91.32
1936,6.9561e+07,0,-0.96,0.72,2.36,0.022906,0.00018755,-0.41079,-0.30744,-0.049085,-0.41883,1.4314,0.02,0,0,91.32
1980,6.9572e+07,0,-0.96,0.71,2.36,0.022906,0.00026829,-0.41075,-0.29051,-0.048856,-0.41882,1.4273,0.02,0,0,91.32
2025,6.9582e+07,0,-0.95,0.71,2.36,0.022815,0.00039381,-0.40987,-0.27468,-0.048338,-0.41869,1.4249,0.02,0,0,91.32
2069,6.9592e+07,0,-0.96,0.71,2.36,0.022633,0.00036303,-0.4089,-0.26253,-0.047859,-0.41856,1.4229,0.02,0,0,91.32
2115,6.9602e+07,0,-0.96,0.71,2.36,0.022653,0.00037684,-0.40817,-0.2532,-0.047393,-0.41843,1.4208,0.02,0,0,91.32
2160,6.9612e+07,0,-0.96,0.71,2.36,0.02256,0.00017176,-0.40742,-0.24536,-0.046941,-0.41831,1.4186,0.02,0,0,91.32
2205,6.9622e+07,0,-0.96,0.71,2.36,0.022289,0.00018676,-0.40735,-0.2373,-0.046717,-0.41831,1.4146,0.02,0,0,91.32
2250,6.9632e+07,0,-0.96,0.71,2.36,0.022372,0.00038381,-0.40658,-0.23173,-0.046277,-0.41819,1.4123,0.02,0,0,91.32
2298,6.9642e+07,0,-0.96,0.71,2.36,0.022324,0.000527,-0.40592,-0.22778,-0.045849,-0.41807,1.41,0.02,0,0,91.32
2343,6.9652e+07,0,-0.96,0.71,2.36,0.022495,0.0004259,-0.4053,-0.22616,-0.045431,-0.41796,1.4076,0.02,0,0,91.32
2387,6.9662e+07,0,-0.96,0.72,2.37,0.022479,0.00072225,-0.40444,-0.22548,-0.045022,-0.41785,1.4052,0.02,0,0,91.32
2435,6.9675e+07,0,-0.96,0.72,2.37,0.02273,0.0011907,-0.40405,-0.22442,-0.044556,-0.41774,1.4016,0.02,0,0,91.32
2476,6.9686e+07,0,-0.96,0.72,2.37,0.023196,0.0015129,-0.40372,-0.22588,-0.044139,-0.41763,1.3988,0.02,0,0,91.32
2524,6.9697e+07,0,-0.96,0.72,2.37,0.023461,0.0016708,-0.40374,-0.22664,-0.043907,-0.41761,1.3947,0.02,0,0,91.32
2563,6.9708e+07,0,-0.96,0.72,2.37,0.023682,0.0023014,-0.40208,-0.21977,-0.043416,-0.41731,1.3945,0.02,0,0,91.32
2608,6.9718e+07,0,-0.96,0.72,2.37,0.023939,0.0025574,-0.40035,-0.20571,-0.042962,-0.41701,1.3945,0.02,0,0,91.32
2653,6.9728e+07,0,-0.96,0.72,2.37,0.024162,0.0026995,-0.39871,-0.19118,-0.042517,-0.41672,1.3943,0.02,0,0,91.32
2703,6.9738e+07,0,-0.96,0.72,2.37,0.024356,0.0028628,-0.39719,-0.17579,-0.042083,-0.41644,1.394,0.02,0,0,91.32
2749,6.9748e+07,0,-0.95,0.72,2.37,0.02451,0.0032092,-0.39584,-0.16011,-0.041633,-0.41617,1.3931,0.02,0,0,91.32
2794,6.9759e+07,0,-0.95,0.72,2.37,0.024689,0.0034019,-0.39605,-0.1446,-0.041387,-0.41614,1.3892,0.02,0,0,91.32
2838,6.9769e+07,0,-0.95,0.72,2.37,0.024893,0.00346,-0.3946,-0.13182,-0.040968,-0.41587,1.3886,0.02,0,0,91.32
2884,6.9778e+07,0,-0.95,0.72,2.38,0.024945,0.0034572,-0.39344,-0.12109,-0.040559,-0.41561,1.3879,0.02,0,0,91.32
2928,6.979e+07,0,-0.96,0.72,2.38,0.024795,0.0035325,-0.39237,-0.11268,-0.040135,-0.41535,1.3865,0.02,0,0,91.32
2974,6.98e+07,0,-0.96,0.72,2.38,0.024925,0.0037584,-0.39122,-0.10918,-0.039746,-0.41511,1.3855,0.02,0,0,91.32
3019,6.981e+07,0,-0.96,0.71,2.38,0.024823,0.0037221,-0.39005,-0.10473,-0.039341,-0.41487,1.3839,0.02,0,0,91.32
3063,6.982e+07,0,-0.96,0.71,2.38,0.024707,0.0035115,-0.39012,-0.10133,-0.039094,-0.41483,1.38,0.02,0,0,91.32
3108,6.983e+07,0,-0.96,0.71,2.38,0.024739,0.0037932,-0.3892,-0.10115,-0.038723,-0.4146,1.3788,0.02,0,0,91.32
3155,6.984e+07,0,-0.96,0.71,2.38,0.024422,0.0041586,-0.38804,-0.1024,-0.038364,-0.41437,1.3774,0.02,0,0,91.32
3201,6.985e+07,0,-0.96,0.71,2.38,0.023891,0.0042588,-0.38699,-0.10647,-0.038016,-0.41415,1.3759,0.02,0,0,91.32
3245,6.986e+07,0,-0.96,0.71,2.38,0.023755,0.0040338,-0.38598,-0.1117,-0.03768,-0.41394,1.3744,0.02,0,0,91.32
3291,6.9871e+07,0,-0.96,0.71,2.38,0.023481,0.0043547,-0.38502,-0.11663,-0.037331,-0.41372,1.3723,0.02,0,0,91.32
3336,6.9881e+07,0,-0.96,0.71,2.38,0.023235,0.0048254,-0.3851,-0.12118,-0.037098,-0.41368,1.3685,0.02,0,0,91.32
3380,6.9892e+07,0,-0.95,0.72,2.38,0.02285,0.0049042,-0.38405,-0.1278,-0.036761,-0.41346,1.3665,0.02,0,0,91.32
3426,6.9902e+07,0,-0.95,0.72,2.38,0.022645,0.0049246,-0.38347,-0.13544,-0.036456,-0.41326,1.3648,0.02,0,0,91.32
3468,6.9915e+07,0,-0.95,0.72,2.38,0.02232,0.005222,-0.38207,-0.13927,-0.036068,-0.41284,1.364,0.02,0,0,91.32
3514,6.9925e+07,0,-0.95,0.72,2.37,0.022273,0.0053928,-0.38064,-0.13417,-0.035758,-0.41245,1.3642,0.02,0,0,91.32
3559,6.9935e+07,0,-0.95,0.72,2.37,0.022323,0.0057228,-0.37912,-0.12858,-0.035456,-0.41207,1.3643,0.02,0,0,91.32
3609,6.9946e+07,0,-0.95,0.72,2.37,0.022203,0.005839,-0.37784,-0.11823,-0.03514,-0.4117,1.3638,0.02,0,0,91.32
3655,6.9957e+07,0,-0.95,0.72,2.37,0.022329,0.0058138,-0.37763,-0.10991,-0.034917,-0.41164,1.36,0.02,0,0,91.32
3700,6.9966e+07,0,-0.95,0.72,2.37,0.022567,0.0059766,-0.3761,-0.10276,-0.034606,-0.41127,1.3594,0.02,0,0,91.32
3747,6.9976e+07,0,-0.96,0.72,2.37,0.022503,0.0062305,-0.37468,-0.10084,-0.034322,-0.41092,1.3591,0.02,0,0,91.32
3792,6.9987e+07,0,-0.96,0.72,2.37,0.022524,0.0063866,-0.37344,-0.10065,-0.034043,-0.41058,1.3588,0.02,0,0,91.32
3836,6.9998e+07,0,-0.96,0.72,2.37,0.022614,0.0065033,-0.37251,-0.097088,-0.033749,-0.41024,1.3579,0.02,0,0,91.32
3880,7.0009e+07,0,-0.96,0.72,2.37,0.022586,0.0067014,-0.37261,-0.092432,-0.033501,-0.41016,1.3538,0.02,0,0,91.32
3924,7.0019e+07,0,-0.96,0.72,2.37,0.022312,0.0069705,-0.37172,-0.090095,-0.033237,-0.40984,1.3532,0.02,0,0,91.32
3968,7.0029e+07,0,-0.96,0.72,2.37,0.022089,0.0072692,-0.37089,-0.090227,-0.03298,-0.40951,1.3525,0.02,0,0,91.32
4015,7.0039e+07,0,-0.96,0.72,2.37,0.021797,0.0075499,-0.37005,-0.088838,-0.032734,-0.4092,1.3517,0.02,0,0,91.32
4067,7.005e+07,0,-0.96,0.72,2.37,0.021407,0.0078453,-0.36915,-0.090567,-0.032495,-0.40889,1.3507,0.02,0,0,91.32
4111,7.006e+07,0,-0.96,0.72,2.37,0.021277,0.0080315,-0.3682,-0.094419,-0.032243,-0.40858,1.3493,0.02,0,0,91.32
4156,7.0071e+07,0,-0.96,0.71,2.37,0.021196,0.008206,-0.36798,-0.096711,-0.03203,-0.4085,1.3456,0.02,0,0,91.32
4201,7.0081e+07,0,-0.95,0.71,2.37,0.020861,0.0086332,-0.367,-0.10121,-0.031807,-0.40819,1.3445,0.02,0,0,91.32
4245,7.0091e+07,0,-0.95,0.71,2.37,0.020581,0.0086771,-0.36604,-0.107,-0.031571,-0.40789,1.3429,0.02,0,0,91.32
4290,7.0101e+07,0,-0.95,0.71,2.37,0.020418,0.0085964,-0.36503,-0.1148,-0.031382,-0.40761,1.3419,0.02,0,0,91.32
4336,7.0117e+07,0,-0.95,0.71,2.37,0.019858,0.0088086,-0.36327,-0.11942,-0.031029,-0.40714,1.3404,0.02,0,0,91.32
4382,7.0127e+07,0,-0.95,0.71,2.37,0.019778,0.0089886,-0.36167,-0.11242,-0.030827,-0.40674,1.3413,0.02,0,0,91.32
4426,7.0138e+07,0,-0.95,0.71,2.37,0.019435,0.0091985,-0.36009,-0.10456,-0.030632,-0.40636,1.342,0.02,0,0,91.32
4471,7.0148e+07,0,-0.95,0.71,2.37,0.019441,0.0092223,-0.36033,-0.095451,-0.030419,-0.40626,1.338,0.02,0,0,91.32
4520,7.0158e+07,0,-0.96,0.71,2.37,0.018887,0.0092313,-0.35913,-0.08841,-0.030233,-0.40588,1.3385,0.02,0,0,91.32
4564,7.0168e+07,0,-0.96,0.72,2.37,0.018597,0.0094403,-0.35769,-0.080244,-0.030056,-0.40551,1.3389,0.02,0,0,91.32
4609,7.0178e+07,0,-0.96,0.72,2.37,0.018449,0.0095896,-0.35621,-0.074125,-0.029886,-0.40515,1.3391,0.02,0,0,91.32
4653,7.0188e+07,0,-0.96,0.72,2.37,0.018482,0.0096866,-0.35583,-0.068301,-0.029702,-0.40506,1.3356,0.02,0,0,91.32
4698,7.0198e+07,0,-0.96,0.72,2.37,0.018228,0.0098789,-0.35445,-0.064151,-0.02952,-0.4047,1.3353,0.02,0,0,91.32
4742,7.0208e+07,0,-0.96,0.72,2.37,0.018199,0.010214,-0.35297,-0.058725,-0.029364,-0.40435,1.3354,0.02,0,0,91.32
4787,7.0218e+07,0,-0.95,0.72,2.37,0.017993,0.010284,-0.35161,-0.054588,-0.029212,-0.40402,1.3353,0.02,0,0,91.32
4832,7.0229e+07,0,-0.95,0.72,2.37,0.017928,0.010087,-0.3506,-0.050298,-0.029049,-0.40369,1.3347,0.02,0,0,91.32
4876,7.0239e+07,0,-0.95,0.72,2.37,0.017652,0.010181,-0.35007,-0.049163,-0.028908,-0.40338,1.3343,0.02,0,0,91.32
4922,7.0249e+07,0,-0.95,0.72,2.37,0.017621,0.010328,-0.34942,-0.051495,-0.028773,-0.40307,1.3338,0.02,0,0,91.32
4970,7.0259e+07,0,-0.95,0.72,2.37,0.017842,0.010292,-0.34954,-0.052181,-0.028595,-0.40297,1.3303,0.02,0,0,91.32
5015,7.0269e+07,0,-0.95,0.72,2.37,0.01767,0.010122,-0.34856,-0.055443,-0.028462,-0.40267,1.3297,0.02,0,0,91.32
5059,7.028e+07,0,-0.95,0.71,2.37,0.01744,0.010251,-0.34772,-0.061417,-0.028316,-0.40237,1.3286,0.02,0,0,91.32
5104,7.029e+07,0,-0.95,0.72,2.37,0.017222,0.010496,-0.3465,-0.067068,-0.028192,-0.40209,1.3279,0.02,0,0,91.32
5152,7.0302e+07,0,-0.95,0.72,2.37,0.017285,0.010467,-0.34517,-0.074491,-0.028036,-0.40179,1.3264,0.02,0,0,91.32
5200,7.0315e+07,0,-0.95,0.72,2.37,0.01647,0.010363,-0.34288,-0.077866,-0.028042,-0.40157,1.3272,0.02,0,0,91.32
5242,7.0326e+07,0,-0.95,0.72,2.37,0.015771,0.010382,-0.34089,-0.071097,-0.028105,-0.40139,1.3288,0.02,0,0,91.32
5288,7.0335e+07,0,-0.96,0.71,2.37,0.014939,0.010325,-0.33889,-0.060887,-0.028173,-0.40121,1.3302,0.02,0,0,91.32
5332,7.0346e+07,0,-0.96,0.71,2.37,0.014391,0.0099026,-0.33711,-0.043938,-0.028233,-0.40104,1.3311,0.02,0,0,91.32
5381,7.0357e+07,0,-0.96,0.71,2.37,0.014204,0.0097409,-0.33728,-0.02608,-0.028076,-0.40093,1.3274,0.02,0,0,91.32
5425,7.0368e+07,0,-0.96,0.71,2.37,0.013492,0.0095728,-0.33574,-0.01417,-0.028162,-0.40078,1.3284,0.02,0,0,91.32
5470,7.0378e+07,0,-0.96,0.72,2.37,0.012999,0.0092504,-0.33435,-0.0038504,-0.028253,-0.40063,1.3293,0.02,0,0,91.32
5515,7.0388e+07,0,-0.96,0.72,2.37,0.012532,0.0090939,-0.33284,0.007999,-0.028347,-0.40049,1.33,0.02,0,0,91.32
5560,7.0398e+07,0,-0.95,0.72,2.37,0.011781,0.0089455,-0.33121,0.016301,-0.028434,-0.40035,1.3303,0.02,0,0,91.32
5605,7.0409e+07,0,-0.95,0.72,2.37,0.011087,0.0087434,-0.32961,0.023798,-0.028528,-0.40022,1.3304,0.02,0,0,91.32
5649,7.0419e+07,0,-0.95,0.72,2.37,0.010602,0.0083814,-0.32801,0.025147,-0.028636,-0.40011,1.3307,0.02,0,0,91.32
5694,7.043e+07,0,-0.94,0.72,2.37,0.010517,0.008324,-0.32752,0.027824,-0.02853,-0.40002,1.3274,0.02,0,0,91.32
5738,7.044e+07,0,-0.95,0.72,2.37,0.010109,0.0081818,-0.32614,0.026506,-0.028644,-0.39992,1.3276,0.02,0,0,91.32
5787,7.045e+07,0,-0.94,0.72,2.37,0.0094526,0.0081407,-0.32508,0.021555,-0.028751,-0.39981,1.3274,0.02,0,0,91.32
5836,7.046e+07,0,-0.95,0.72,2.37,0.0091026,0.0078126,-0.32438,0.01538,-0.028871,-0.39971,1.3273,0.02,0,0,91.32
5880,7.047e+07,0,-0.95,0.72,2.37,0.0084843,0.0075519,-0.32356,0.0065143,-0.028992,-0.39962,1.3271,0.02,0,0,91.32
5925,7.048e+07,0,-0.95,0.72,2.37,0.0082787,0.0073023,-0.32362,2.0231e-05,-0.028908,-0.39955,1.3239,0.02,0,0,91.32
5969,7.0491e+07,0,-0.95,0.72,2.37,0.0077994,0.0070894,-0.32285,-0.0096185,-0.029028,-0.39946,1.3233,0.02,0,0,91.32
6014,7.0501e+07,0,-0.96,0.72,2.37,0.0070818,0.0068073,-0.32194,-0.017393,-0.029158,-0.39939,1.3228,0.02,0,0,91.32
6058,7.0511e+07,0,-0.96,0.72,2.37,0.0066767,0.006974,-0.32077,-0.025753,-0.029291,-0.39931,1.3223,0.02,0,0,91.32
6099,7.0523e+07,0,-0.96,0.72,2.37,0.0063423,0.0066629,-0.31858,-0.034487,-0.029331,-0.39935,1.3237,0.02,0,0,91.32
6144,7.0533e+07,0,-0.96,0.72,2.37,0.0059112,0.0060481,-0.31668,-0.036948,-0.029388,-0.39941,1.3255,0.02,0,0,91.32
6188,7.0543e+07,0,-0.96,0.72,2.37,0.0057311,0.0058973,-0.31645,-0.029133,-0.029329,-0.39935,1.3224,0.02,0,0,91.32
6233,7.0553e+07,0,-0.96,0.72,2.37,0.0056307,0.005412,-0.31443,-0.018607,-0.029393,-0.39942,1.324,0.02,0,0,91.32
6282,7.0563e+07,0,-0.95,0.72,2.37,0.0055653,0.0050593,-0.31295,-0.0060633,-0.029458,-0.3995,1.3255,0.02,0,0,91.32
6327,7.0573e+07,0,-0.95,0.72,2.37,0.0052297,0.004534,-0.31115,0.0058696,-0.029524,-0.39958,1.3268,0.02,0,0,91.32
6371,7.0583e+07,0,-0.95,0.71,2.37,0.004846,0.0039274,-0.30973,0.015746,-0.029593,-0.39966,1.3279,0.02,0,0,91.32
6416,7.0593e+07,0,-0.95,0.71,2.37,0.0045691,0.0033469,-0.30843,0.02123,-0.029664,-0.39975,1.3288,0.02,0,0,91.32
6462,7.0603e+07,0,-0.95,0.71,2.37,0.0043512,0.0032986,-0.30822,0.029115,-0.029619,-0.39972,1.3257,0.02,0,0,91.32
6503,7.0613e+07,0,-0.94,0.71,2.37,0.0038229,0.0027273,-0.30664,0.033447,-0.029697,-0.39982,1.3266,0.02,0,0,91.32
6548,7.0623e+07,0,-0.94,0.71,2.37,0.0034184,0.0020676,-0.3051,0.036117,-0.029778,-0.39993,1.3273,0.02,0,0,91.32
6592,7.0633e+07,0,-0.94,0.71,2.37,0.0031234,0.0018397,-0.30387,0.03493,-0.029862,-0.40004,1.3279,0.02,0,0,91.32
6637,7.0643e+07,0,-0.95,0.71,2.37,0.0027113,0.001646,-0.30232,0.032691,-0.029948,-0.40015,1.3283,0.02,0,0,91.32
6683,7.0654e+07,0,-0.95,0.71,2.37,0.0023613,0.0012899,-0.30074,0.031638,-0.030033,-0.40026,1.3282,0.02,0,0,91.32
6732,7.0664e+07,0,-0.95,0.71,2.37,0.002127,0.0011626,-0.30055,0.030591,-0.030011,-0.40025,1.3252,0.02,0,0,91.32
6777,7.0674e+07,0,-0.95,0.72,2.37,0.0018438,0.00088237,-0.29962,0.026017,-0.030103,-0.40037,1.3254,0.02,0,0,91.32
6821,7.0685e+07,0,-0.95,0.72,2.37,0.0012715,0.00074519,-0.29808,0.018993,-0.030198,-0.40049,1.3251,0.02,0,0,91.32
6866,7.0695e+07,0,-0.95,0.72,2.37,0.0011203,0.00070425,-0.2969,0.011361,-0.030296,-0.40061,1.3251,0.02,0,0,91.32
6909,7.071e+07,0,-0.95,0.71,2.37,0.00065529,0.0004516,-0.29503,0.0087496,-0.030437,-0.40053,1.3257,0.02,0,0,91.32
6954,7.072e+07,0,-0.95,0.71,2.37,8.946e-05,0.00045475,-0.29328,0.013043,-0.030587,-0.40046,1.3276,0.02,0,0,91.32
6998,7.073e+07,0,-0.95,0.71,2.37,-0.00040703,0.00036376,-0.29126,0.01751,-0.03074,-0.4004,1.3293,0.02,0,0,91.32
7043,7.0741e+07,0,-0.95,0.71,2.37,-0.00073271,0.00012544,-0.28962,0.022638,-0.030895,-0.40034,1.3305,0.02,0,0,91.32
7088,7.0751e+07,0,-0.95,0.72,2.37,-0.00069174,8.4465e-05,-0.28946,0.031019,-0.030902,-0.40034,1.3276,0.02,0,0,91.32
7132,7.0761e+07,0,-0.95,0.71,2.37,-0.0010126,-5.5962e-05,-0.28761,0.037313,-0.03106,-0.40029,1.329,0.02,0,0,91.32
7183,7.0771e+07,0,-0.95,0.72,2.37,-0.0014078,-9.2777e-05,-0.28638,0.042241,-0.031218,-0.40024,1.3302,0.02,0,0,91.32
7228,7.0782e+07,0,-0.95,0.71,2.37,-0.0018421,-0.0001656,-0.28494,0.039629,-0.03138,-0.4002,1.331,0.02,0,0,91.32
7273,7.0792e+07,0,-0.95,0.71,2.37,-0.0018671,-0.000251,-0.28488,0.040533,-0.031398,-0.4002,1.3281,0.02,0,0,91.32
7318,7.0802e+07,0,-0.95,0.71,2.37,-0.0021199,-0.00049532,-0.2835,0.03966,-0.031562,-0.40017,1.329,0.02,0,0,91.32
7362,7.0813e+07,0,-0.95,0.71,2.37,-0.0021546,-0.00059771,-0.28203,0.038551,-0.031725,-0.40014,1.3298,0.02,0,0,91.32
7407,7.0822e+07,0,-0.95,0.71,2.37,-0.0025544,-0.00068717,-0.28076,0.034916,-0.031888,-0.40011,1.3306,0.02,0,0,91.32
7456,7.0835e+07,0,-0.95,0.71,2.37,-0.0028947,-0.00096299,-0.27946,0.030812,-0.032061,-0.40009,1.3303,0.02,0,0,91.32
7502,7.0846e+07,0,-0.95,0.71,2.37,-0.0033744,-0.0010098,-0.27828,0.02491,-0.03223,-0.40007,1.3305,0.02,0,0,91.32
7548,7.0856e+07,0,-0.95,0.71,2.37,-0.0036147,-0.0011979,-0.27789,0.022002,-0.032265,-0.40009,1.3277,0.02,0,0,91.32
7592,7.0866e+07,0,-0.95,0.71,2.37,-0.0040355,-0.0012391,-0.27676,0.017021,-0.032438,-0.40007,1.3281,0.02,0,0,91.32
7643,7.0876e+07,0,-0.96,0.71,2.38,-0.0041007,-0.0013397,-0.27582,0.011525,-0.032611,-0.40006,1.3283,0.02,0,0,91.32
7687,7.0886e+07,0,-0.96,0.71,2.38,-0.0045754,-0.0013952,-0.27533,0.0036511,-0.032784,-0.40005,1.3285,0.02,0,0,91.32
7732,7.0897e+07,0,-0.95,0.71,2.39,-0.0050946,-0.0013353,-0.2741,-0.004969,-0.032965,-0.40005,1.3282,0.02,0,0,91.32
7778,7.0907e+07,0,-0.95,0.71,2.4,-0.0057624,-0.0015604,-0.27375,-0.010872,-0.03302,-0.40007,1.3254,0.02,0,0,91.32
7817,7.092e+07,0,-0.95,0.71,2.4,-0.0063546,-0.0016498,-0.27238,-0.012074,-0.033106,-0.39998,1.3267,0.02,0,0,91.32
7863,7.093e+07,0,-0.95,0.71,2.4,-0.0068264,-0.0018384,-0.27106,-0.0059013,-0.03318,-0.39989,1.3286,0.02,0,0,91.32
7909,7.094e+07,0,-0.95,0.72,2.4,-0.0071365,-0.0027803,-0.26861,0.0016653,-0.033256,-0.39981,1.3303,0.02,0,0,91.32
7955,7.095e+07,0,-0.96,0.72,2.39,-0.0080074,-0.0035849,-0.26721,0.012935,-0.033337,-0.39974,1.3318,0.02,0,0,91.32
8001,7.096e+07,0,-0.95,0.72,2.39,-0.0089221,-0.0043371,-0.26628,0.022562,-0.033422,-0.39967,1.3331,0.02,0,0,91.32
8046,7.097e+07,0,-0.94,0.71,2.39,-0.0089334,-0.0044478,-0.2653,0.028449,-0.033512,-0.39961,1.3343,0.02,0,0,91.32
8096,7.098e+07,0,-0.93,0.71,2.39,-0.0079234,-0.0029886,-0.26629,0.03578,-0.033586,-0.39962,1.3317,0.02,0,0,91.32
8141,7.099e+07,0,-0.93,0.71,2.39,-0.0076349,-0.0018736,-0.26465,0.041052,-0.033679,-0.39957,1.3327,0.02,0,0,91.32
8185,7.1e+07,0,-0.95,0.72,2.39,-0.0078212,-0.0026258,-0.26196,0.045727,-0.033778,-0.39953,1.3336,0.02,0,0,91.32
8230,7.101e+07,0,-0.95,0.71,2.39,-0.0079711,-0.0039867,-0.2615,0.044733,-0.033878,-0.39949,1.3344,0.02,0,0,91.32
8275,7.102e+07,0,-0.94,0.71,2.39,-0.0073404,-0.0035636,-0.2615,0.041956,-0.033981,-0.39946,1.335,0.02,0,0,91.32
8320,7.1031e+07,0,-0.95,0.71,2.39,-0.0081239,-0.0036654,-0.26054,0.041229,-0.034095,-0.39944,1.3352,0.02,0,0,91.32
8367,7.1044e+07,0,-0.97,0.72,2.4,-0.010345,-0.0037426,-0.25964,0.038162,-0.034236,-0.39943,1.3348,0.02,0,0,91.32
8412,7.1054e+07,0,-0.99,0.73,2.4,-0.0099654,-0.0035649,-0.25929,0.034326,-0.034338,-0.39948,1.3319,0.02,0,0,91.32
8458,7.1064e+07,0,-0.99,0.73,2.39,-0.0096834,-0.0035511,-0.25698,0.029051,-0.034448,-0.39946,1.3321,0.02,0,0,91.32
8507,7.1075e+07,0,-0.98,0.72,2.38,-0.0087987,-0.0037847,-0.25546,0.020738,-0.034564,-0.39943,1.332,0.02,0,0,91.32
8553,7.1085e+07,0,-0.97,0.72,2.36,-0.0085492,-0.0034583,-0.25677,0.010143,-0.034673,-0.39942,1.332,0.02,0,0,91.32
8600,7.1098e+07,0,-0.97,0.71,2.35,-0.008191,-0.0019974,-0.25488,0.0020001,-0.0344,-0.39924,1.3331,0.02,0,0,91.32
8641,7.1108e+07,0,-0.97,0.71,2.34,-0.0075973,-0.001739,-0.25176,0.0041221,-0.034111,-0.39906,1.3347,0.02,0,0,91.32
8688,7.1121e+07,0,-0.97,0.71,2.34,-0.0075316,-0.0032413,-0.25111,0.009031,-0.033844,-0.39891,1.3357,0.02,0,0,91.32
8733,7.1131e+07,0,-0.97,0.71,2.36,-0.0078781,-0.0029065,-0.25126,0.013472,-0.033929,-0.39895,1.3329,0.02,0,0,91.32
8775,7.1141e+07,0,-0.95,0.69,2.37,-0.0062454,-0.0024241,-0.24833,0.018109,-0.033648,-0.39878,1.3343,0.02,0,0,91.32
8819,7.1151e+07,0,-0.93,0.69,2.39,-0.0051953,-0.0029513,-0.24829,0.020597,-0.033366,-0.39863,1.3355,0.02,0,0,91.32
8864,7.1161e+07,0,-0.93,0.69,2.4,-0.0053367,-0.0035197,-0.24783,0.021623,-0.033092,-0.39849,1.3365,0.02,0,0,91.32
8908,7.1172e+07,0,-0.94,0.69,2.42,-0.006218,-0.0042036,-0.24488,0.024425,-0.032842,-0.39837,1.3372,0.02,0,0,91.32
8959,7.1182e+07,0,-0.94,0.7,2.43,-0.0073746,-0.0043598,-0.24528,0.026864,-0.032914,-0.39841,1.3347,0.02,0,0,91.32
9003,7.1192e+07,0,-0.94,0.69,2.45,-0.0054917,-0.0036103,-0.24496,0.026748,-0.032665,-0.39829,1.3355,0.02,0,0,91.32
9048,7.1202e+07,0,-0.95,0.7,2.45,-0.0042815,-0.0045469,-0.24025,0.023166,-0.032407,-0.39818,1.3362,0.02,0,0,91.32
9093,7.1213e+07,0,-0.95,0.69,2.44,-0.00595,-0.0058835,-0.24105,0.01747,-0.03217,-0.39808,1.3365,0.02,0,0,91.32
9137,7.1223e+07,0,-0.94,0.7,2.43,-0.0091194,-0.0072777,-0.23948,0.017496,-0.032251,-0.39813,1.3341,0.02,0,0,91.32
9182,7.1233e+07,0,-0.94,0.7,2.42,-0.0082965,-0.0052184,-0.24016,0.012915,-0.032061,-0.39805,1.3346,0.02,0,0,91.32
9226,7.1244e+07,0,-0.96,0.7,2.41,-0.0034456,-0.0036185,-0.23719,0.011839,-0.031845,-0.39796,1.335,0.02,0,0,91.32
9271,7.1253e+07,0,-0.95,0.7,2.38,-0.00388,-0.0034206,-0.2373,0.0059308,-0.031619,-0.39786,1.3353,0.02,0,0,91.32
9316,7.1264e+07,0,-0.94,0.69,2.37,-0.0095868,-0.0057078,-0.23644,-0.00023103,-0.031447,-0.39778,1.3352,0.02,0,0,91.32
9361,7.1274e+07,0,-0.94,0.7,2.36,-0.0097242,-0.0051377,-0.23609,-0.0039052,-0.031563,-0.39784,1.3328,0.02,0,0,91.32
9411,7.1284e+07,0,-0.96,0.7,2.37,-0.0029417,-0.0031637,-0.2358,-0.0088069,-0.031383,-0.39777,1.3329,0.02,0,0,91.32
9455,7.1294e+07,0,-0.94,0.7,2.36,-0.0031913,-0.0016023,-0.23378,-0.013492,-0.031171,-0.39769,1.3329,0.02,0,0,91.32
9500,7.1304e+07,0,-0.92,0.7,2.37,-0.01014,-0.003322,-0.23562,-0.02332,-0.031008,-0.39761,1.3327,0.02,0,0,91.32
9549,7.1317e+07,0,-0.91,0.71,2.39,-0.0073364,-0.0076261,-0.23219,-0.028577,-0.030922,-0.39758,1.3318,0.02,0,0,91.32
9589,7.1329e+07,0,-0.93,0.7,2.41,0.00092939,-0.0045865,-0.23016,-0.032066,-0.030398,-0.39713,1.3325,0.02,0,0,91.32
9633,7.1339e+07,0,-0.91,0.69,2.41,-0.0017515,-0.0027702,-0.23007,-0.035646,-0.029861,-0.39666,1.3334,0.02,0,0,91.32
9678,7.1349e+07,0,-0.91,0.71,2.42,-0.010438,-0.0077722,-0.22693,-0.031073,-0.029418,-0.39623,1.3338,0.02,0,0,91.32
9723,7.136e+07,0,-0.92,0.72,2.44,-0.0045271,-0.0082979,-0.22766,-0.027942,-0.029006,-0.39585,1.3342,0.02,0,0,91.32
9767,7.137e+07,0,-0.94,0.71,2.44,0.0030228,-0.0044695,-0.22662,-0.021282,-0.029,-0.3959,1.3319,0.02,0,0,91.32
9812,7.1381e+07,0,-0.93,0.69,2.41,-0.0013824,-0.0022937,-0.22784,-0.020017,-0.028483,-0.39547,1.3324,0.02,0,0,91.32
9861,7.1391e+07,0,-0.92,0.71,2.4,-0.0090985,-0.0068249,-0.22313,-0.014947,-0.028062,-0.39507,1.3327,0.02,0,0,91.32
9906,7.1401e+07,0,-0.93,0.71,2.41,-0.0027478,-0.008616,-0.22515,-0.017422,-0.027671,-0.39472,1.3329,0.02,0,0,91.32
9952,7.1411e+07,0,-0.95,0.7,2.38,0.005181,-0.002902,-0.222,-0.016233,-0.027199,-0.39438,1.3329,0.02,0,0,91.32
9996,7.1422e+07,0,-0.94,0.69,2.36,-0.0017958,-0.00020296,-0.22587,-0.020317,-0.027165,-0.39438,1.3306,0.02,0,0,91.32
10041,7.1432e+07,0,-0.93,0.7,2.35,-0.009304,-0.0040933,-0.22018,-0.017002,-0.026798,-0.39401,1.3307,0.02,0,0,91.32
10087,7.1442e+07,0,-0.93,0.72,2.37,-0.00079604,-0.005917,-0.22315,-0.025098,-0.026426,-0.39369,1.3308,0.02,0,0,91.32
10133,7.1453e+07,0,-0.94,0.69,2.35,0.0056391,-0.0010253,-0.21926,-0.024859,-0.025975,-0.39337,1.3309,0.02,0,0,91.32
10178,7.1463e+07,0,-0.92,0.7,2.36,-0.0036021,0.0024706,-0.22239,-0.031871,-0.025559,-0.39302,1.3308,0.02,0,0,91.32
10222,7.1473e+07,0,-0.91,0.7,2.37,-0.0084184,-0.0031704,-0.21735,-0.029663,-0.025261,-0.39269,1.3305,0.02,0,0,91.32
10267,7.1483e+07,0,-0.92,0.72,2.4,0.0015248,-0.0051842,-0.22056,-0.0344,-0.025294,-0.39275,1.3283,0.02,0,0,91.32
10315,7.1493e+07,0,-0.92,0.68,2.39,0.0055023,-0.00044145,-0.21816,-0.035875,-0.024878,-0.39247,1.328,0.02,0,0,91.32
10362,7.1506e+07,0,-0.92,0.71,2.4,-0.007941,-0.0015577,-0.21324,-0.036796,-0.024543,-0.39214,1.327,0.02,0,0,91.32
10405,7.1516e+07,0,-0.9,0.7,2.42,-0.0054056,-0.0068928,-0.21668,-0.039145,-0.024085,-0.39164,1.3286,0.02,0,0,91.32
10450,7.1527e+07,0,-0.94,0.72,2.42,0.0053499,-0.0069522,-0.21059,-0.028224,-0.023564,-0.3912,1.3299,0.02,0,0,91.32
10495,7.1537e+07,0,-0.94,0.7,2.4,-0.0012512,0.0013177,-0.21734,-0.025544,-0.02301,-0.39074,1.3309,0.02,0,0,91.32
10539,7.1547e+07,0,-0.94,0.71,2.39,-0.010591,0.0011097,-0.20647,-0.0077316,-0.022581,-0.39025,1.332,0.02,0,0,91.32
10583,7.1557e+07,0,-0.93,0.73,2.4,-0.0035556,-0.0035455,-0.21414,-0.0088158,-0.022185,-0.38982,1.333,0.02,0,0,91.32
10628,7.1568e+07,0,-0.95,0.71,2.38,0.0079964,-0.00026293,-0.20651,0.0077905,-0.021689,-0.38944,1.3336,0.02,0,0,91.32
10672,7.1578e+07,0,-0.94,0.72,2.36,-0.0012962,0.0048772,-0.21512,0.0082066,-0.021641,-0.38943,1.3315,0.02,0,0,91.32
10720,7.1588e+07,0,-0.93,0.71,2.36,-0.0072265,0.0032613,-0.20466,0.023541,-0.021264,-0.38899,1.3322,0.02,0,0,91.32
10765,7.1598e+07,0,-0.92,0.74,2.37,0.0038413,-0.0014888,-0.21253,0.018811,-0.020884,-0.38861,1.3327,0.02,0,0,91.32
10810,7.1608e+07,0,-0.94,0.7,2.35,0.012355,-0.00027979,-0.20471,0.026748,-0.020404,-0.38825,1.3332,0.02,0,0,91.32
10856,7.1619e+07,0,-0.93,0.71,2.36,0.0023016,0.0018293,-0.2065,0.023204,-0.019964,-0.38786,1.3333,0.02,0,0,91.32
10901,7.163e+07,0,-0.9,0.7,2.36,-0.0013491,-0.00079941,-0.20448,0.024891,-0.020008,-0.38783,1.3313,0.02,0,0,91.32
10946,7.164e+07,0,-0.93,0.72,2.39,0.011132,-0.0052635,-0.2054,0.020516,-0.019615,-0.38748,1.3314,0.02,0,0,91.32
10990,7.165e+07,0,-0.94,0.68,2.37,0.0079426,-0.0019127,-0.20621,0.013945,-0.019132,-0.38716,1.3313,0.02,0,0,91.32
11035,7.1661e+07,0,-0.95,0.69,2.39,-0.0049268,0.0019949,-0.19929,0.01386,-0.018755,-0.3868,1.3313,0.02,0,0,91.32
11080,7.1671e+07,0,-0.91,0.7,2.4,-0.0035682,0.00014157,-0.20334,0.002368,-0.018461,-0.38644,1.3312,0.02,0,0,91.32
11125,7.1681e+07,0,-0.94,0.72,2.41,0.0086501,0.00049558,-0.1985,0.00033438,-0.018074,-0.38614,1.3307,0.02,0,0,91.32
11173,7.1692e+07,0,-0.94,0.7,2.39,0.0023176,0.0040935,-0.20584,-0.012233,-0.017968,-0.38614,1.3287,0.02,0,0,91.32
11218,7.1702e+07,0,-0.94,0.71,2.39,-0.0078927,0.0056351,-0.19637,-0.0099015,-0.01766,-0.38581,1.3285,0.02,0,0,91.32
11265,7.1712e+07,0,-0.92,0.74,2.4,0.0036099,0.0012346,-0.20238,-0.0247,-0.017392,-0.38549,1.3279,0.02,0,0,91.32
11303,7.1724e+07,0,-0.91,0.7,2.37,0.014854,-0.00020109,-0.19755,-0.02433,-0.017091,-0.38522,1.3291,0.02,0,0,91.32
11348,7.1734e+07,0,-0.93,0.7,2.36,0.0018181,0.0020371,-0.19654,-0.023238,-0.016839,-0.38494,1.3302,0.02,0,0.01,91.32
11392,7.1744e+07,0,-0.9,0.68,2.35,-0.0028577,0.001563,-0.19535,-0.020862,-0.016709,-0.38466,1.3315,0.02,0,0.01,91.32
11437,7.1754e+07,0,-0.93,0.71,2.35,0.0094118,-0.002467,-0.19327,-0.011528,-0.016704,-0.38465,1.3295,0.02,0,0.01,91.32
11482,7.1764e+07,0,-0.92,0.67,2.32,0.0084942,-0.00041294,-0.19756,-0.010186,-0.016432,-0.38442,1.3306,0.02,0,0.01,91.32
11527,7.1774e+07,0,-0.94,0.68,2.32,-0.0056377,0.0024446,-0.18823,0.0049226,-0.01625,-0.38417,1.3315,0.02,0,0.01,91.32
11573,7.1785e+07,0,-0.91,0.71,2.34,-0.0075214,0.0020988,-0.19547,-0.001328,-0.016166,-0.38392,1.3322,0.02,0,0.01,91.32
11620,7.1796e+07,0,-0.92,0.7,2.33,0.0077808,-0.00091946,-0.18687,0.010628,-0.015983,-0.38372,1.3327,0.02,0,0.01,91.32
11666,7.1806e+07,0,-0.92,0.72,2.33,0.0015551,0.0015911,-0.19401,0.008528,-0.015906,-0.38372,1.3308,0.02,0,0.01,91.32
11712,7.1817e+07,0,-0.9,0.7,2.33,-0.0066512,0.0017164,-0.18732,0.017518,-0.015806,-0.38349,1.3313,0.02,0,0.01,91.32
11756,7.1827e+07,0,-0.92,0.74,2.36,0.0033328,-0.0021475,-0.18813,0.017029,-0.015722,-0.3833,1.3318,0.02,0,0.01,91.32
11801,7.1837e+07,0,-0.91,0.7,2.33,0.012267,-0.0018482,-0.18783,0.016823,-0.015524,-0.38313,1.3322,0.02,0,0.01,91.32
11845,7.1848e+07,0,-0.93,0.7,2.32,-0.00035468,0.0015461,-0.18419,0.020595,-0.015354,-0.38295,1.3324,0.02,0,0.01,91.32
11890,7.1859e+07,0,-0.88,0.72,2.34,-0.0069897,0.0015159,-0.18939,0.015495,-0.015312,-0.38276,1.3326,0.02,0,0.01,91.32
11935,7.1869e+07,0,-0.9,0.72,2.32,0.0068867,-0.00092522,-0.18221,0.019944,-0.015203,-0.38261,1.3328,0.02,0,0.01,91.32
11979,7.1879e+07,0,-0.89,0.71,2.3,0.0063086,0.00014773,-0.1907,0.010364,-0.015103,-0.38262,1.331,0.02,0,0.01,91.32
12024,7.189e+07,0,-0.9,0.7,2.29,-0.0069521,0.002385,-0.17714,0.019965,-0.014992,-0.38246,1.3309,0.02,0,0.01,91.32
12073,7.19e+07,0,-0.89,0.72,2.31,-0.0023963,-0.00091438,-0.18585,0.0062368,-0.014957,-0.38229,1.331,0.02,0,0.01,91.32
12115,7.1914e+07,0,-0.91,0.67,2.27,0.012752,-0.00056174,-0.18264,0.0057766,-0.014619,-0.38215,1.3314,0.02,0,0.01,91.32
12159,7.1924e+07,0,-0.94,0.68,2.26,0.00087491,0.0027042,-0.17786,0.010859,-0.014339,-0.38199,1.3324,0.02,0,0.01,91.32
12207,7.1934e+07,0,-0.9,0.69,2.27,-0.0059886,0.0029937,-0.18286,0.0058906,-0.014177,-0.38182,1.3334,0.02,0,0.01,91.32
12252,7.1944e+07,0,-0.94,0.7,2.27,0.0069768,-7.0322e-06,-0.17514,0.01426,-0.013971,-0.38169,1.3344,0.02,0,0.01,91.32
12297,7.1955e+07,0,-0.91,0.69,2.26,0.0037322,0.0026695,-0.1845,0.0093885,-0.013661,-0.38157,1.3351,0.02,0,0.01,91.32
12341,7.1966e+07,0,-0.91,0.69,2.26,-0.0079271,0.0036076,-0.17165,0.027116,-0.013475,-0.38143,1.3357,0.02,0,0.01,91.32
12388,7.1976e+07,0,-0.89,0.74,2.3,-0.0017406,0.00087613,-0.18041,0.024098,-0.013534,-0.38141,1.3339,0.02,0,0.01,91.32
12434,7.1987e+07,0,-0.9,0.7,2.28,0.013325,-0.0024801,-0.1733,0.034009,-0.013294,-0.3813,1.3345,0.02,0,0.01,91.32
12479,7.1997e+07,0,-0.92,0.71,2.28,0.0044054,-0.00045834,-0.17415,0.035568,-0.013061,-0.38119,1.3351,0.02,0,0.01,91.32
12527,7.2007e+07,0,-0.88,0.69,2.28,-0.0050098,0.00013915,-0.17076,0.039732,-0.012948,-0.38107,1.3357,0.02,0,0.01,91.32
12571,7.2018e+07,0,-0.9,0.72,2.3,0.0056654,-0.0032622,-0.16986,0.038855,-0.012842,-0.38097,1.3361,0.02,0,0.01,91.32
12616,7.2028e+07,0,-0.89,0.68,2.27,0.0086242,-0.0014378,-0.17537,0.029789,-0.012613,-0.3809,1.3363,0.02,0,0.01,91.32
12660,7.2039e+07,0,-0.92,0.68,2.26,-0.0077012,0.0028329,-0.16388,0.037991,-0.012456,-0.38082,1.3365,0.02,0,0.01,91.32
12708,7.2052e+07,0,-0.89,0.74,2.29,-0.0027138,-0.001721,-0.1724,0.027319,-0.01243,-0.38073,1.3364,0.02,0,0.01,91.32
12752,7.2062e+07,0,-0.89,0.71,2.26,0.01104,-0.0042875,-0.16642,0.029544,-0.012272,-0.38069,1.3366,0.02,0,0.01,91.32
12797,7.2073e+07,0,-0.93,0.71,2.25,0.0043793,-0.0036666,-0.16923,0.023896,-0.012207,-0.38072,1.3347,0.02,0,0.01,91.32
12842,7.2083e+07,0,-0.9,0.69,2.25,-0.0049051,-0.0004891,-0.16846,0.020264,-0.012139,-0.38065,1.3349,0.02,0,0.01,91.32
12886,7.2093e+07,0,-0.93,0.72,2.27,0.0054415,-0.0039334,-0.16423,0.017265,-0.012074,-0.38059,1.335,0.02,0,0.01,91.32
12934,7.2103e+07,0,-0.91,0.7,2.25,0.013489,-0.0041048,-0.16876,0.00567,-0.011905,-0.38055,1.3352,0.02,0,0.01,91.32
12984,7.2117e+07,0,-0.93,0.69,2.24,-0.0081905,0.0031055,-0.16059,0.0085534,-0.011632,-0.38023,1.3361,0.02,0,0.01,91.32
13026,7.2128e+07,0,-0.91,0.75,2.28,-0.0043944,0.0011391,-0.1663,0.003814,-0.011489,-0.37989,1.3373,0.02,0,0.01,91.32
13071,7.2138e+07,0,-0.91,0.72,2.27,0.012386,-0.0022784,-0.16275,0.010918,-0.011439,-0.3799,1.3355,0.02,0,0.01,91.32
13116,7.2148e+07,0,-0.93,0.73,2.27,0.0055036,-0.00096509,-0.16472,0.012328,-0.011157,-0.37959,1.337,0.02,0,0.01,91.32
13160,7.2158e+07,0,-0.91,0.71,2.28,-0.0043858,0.001843,-0.16115,0.019867,-0.010977,-0.37928,1.3381,0.02,0,0.01,91.32
13204,7.2168e+07,0,-0.92,0.72,2.29,0.0032826,-0.0011404,-0.15953,0.024497,-0.010832,-0.37896,1.3393,0.02,0,0.01,91.32
13248,7.2179e+07,0,-0.89,0.7,2.28,0.011558,0.00054641,-0.165,0.026374,-0.010563,-0.37869,1.34,0.02,0,0.01,91.32
13293,7.2189e+07,0,-0.93,0.67,2.26,0.00072087,0.0041793,-0.1564,0.03768,-0.010332,-0.37842,1.3409,0.02,0,0.01,91.32
13322,7.225e+07,0,-0.86,0.69,2.25,0.0095511,-0.0014163,-0.15705,0.037685,-0.0096669,-0.37737,1.3402,0.02,0,0.01,91.32
13367,7.226e+07,0,-0.94,0.68,2.25,0.0029106,0.0021559,-0.15133,0.040183,-0.0094563,-0.37717,1.3408,0.02,0,0.01,91.32
13411,7.227e+07,0,-0.89,0.7,2.28,-0.00704,0.0020059,-0.15935,0.030408,-0.0093472,-0.37695,1.3414,0.02,0,0.01,91.32
13456,7.2281e+07,0,-0.88,0.68,2.26,0.0022967,-0.00047729,-0.15021,0.036472,-0.0092338,-0.37674,1.342,0.02,0,0.01,91.32
13500,7.2291e+07,0,-0.95,0.69,2.28,0.0049095,-0.00082188,-0.15016,0.032574,-0.0090634,-0.37657,1.3422,0.02,0,0.01,91.32
13545,7.2302e+07,0,-0.95,0.7,2.29,-0.00070131,0.00079112,-0.1569,0.022832,-0.0089387,-0.37638,1.3424,0.02,0,0.01,91.32
13592,7.2313e+07,0,-0.87,0.69,2.27,-0.00062987,0.0016988,-0.16168,0.016382,-0.0089525,-0.37635,1.3409,0.02,0,0.01,91.32
13634,7.2324e+07,0,-0.85,0.66,2.3,0.0018748,0.0041375,-0.14925,0.030562,-0.0090567,-0.37586,1.3425,0.02,0,0.01,91.32
13679,7.2335e+07,0,-0.83,0.68,2.28,0.0023121,0.0095574,-0.15875,0.026609,-0.0091592,-0.37539,1.3442,0.02,0,0.01,91.32
13724,7.2345e+07,0,-0.86,0.7,2.29,-0.0018735,0.019207,-0.16685,0.025257,-0.0092669,-0.37492,1.3457,0.02,0,0.01,91.32
13768,7.2355e+07,0,-0.99,0.69,2.29,-0.0010154,0.0087739,-0.15471,0.044088,-0.0093805,-0.37448,1.3473,0.02,0,0.01,91.32
13817,7.2369e+07,0,-0.9,0.67,2.3,0.00013517,0.026287,-0.15309,0.058347,-0.0094732,-0.37401,1.3482,0.02,0,0.01,91.32
13862,7.2379e+07,0,-0.92,0.67,2.29,-0.00064877,0.0060634,-0.15218,0.067849,-0.0095782,-0.37358,1.3496,0.02,0,0.01,91.32
13906,7.239e+07,0,-0.76,0.66,2.29,0.00064679,0.00074747,-0.13835,0.089503,-0.0096921,-0.37313,1.3509,0.02,0,0.01,91.32
13952,7.24e+07,0,-0.69,0.64,2.28,0.00049136,-0.0010003,-0.14837,0.08607,-0.009778,-0.37273,1.3519,0.02,0,0.01,91.32
13996,7.241e+07,0,-0.75,0.6,2.29,0.00068018,0.016666,-0.14359,0.092502,-0.00986,-0.37237,1.3529,0.02,0,0.01,91.32
14041,7.2421e+07,0,-0.85,0.65,2.29,-0.0046606,0.01506,-0.15928,0.078795,-0.0099662,-0.372,1.3537,0.02,0,0.01,91.32
14091,7.2432e+07,0,-0.94,0.57,2.3,0.0022272,0.0060043,-0.14534,0.093553,-0.010059,-0.37165,1.3545,0.02,0,0.01,91.32
14136,7.2442e+07,0,-0.86,0.67,2.31,0.005656,-0.0076249,-0.13396,0.10556,-0.010061,-0.37161,1.353,0.02,0,0.01,91.32
14180,7.2452e+07,0,-0.71,0.57,2.31,0.00043332,-0.00019068,-0.14491,0.091652,-0.010127,-0.37128,1.3537,0.02,0,0.01,91.32
14226,7.2463e+07,0,-0.74,0.57,2.31,0.0036135,0.014373,-0.1335,0.095932,-0.010236,-0.37098,1.3543,0.02,0,0.01,91.32
14271,7.2473e+07,0,-0.88,0.6,2.34,-0.0020648,0.017853,-0.16006,0.06335,-0.010342,-0.37069,1.3551,0.02,0,0.01,91.32
14315,7.2483e+07,0,-0.96,0.52,2.31,0.003299,-0.0064861,-0.12349,0.093397,-0.010436,-0.37043,1.3557,0.02,0,0.01,91.32
14360,7.2494e+07,0,-0.87,0.66,2.35,-0.0012071,-0.0061593,-0.12657,0.084358,-0.01055,-0.37017,1.356,0.02,0,0.01,91.32
14404,7.2505e+07,0,-0.74,0.57,2.31,-0.0056625,0.0052119,-0.14623,0.060026,-0.010566,-0.37012,1.3547,0.02,0,0.01,91.32
14442,7.2516e+07,0,-0.74,0.51,2.32,-0.008273,0.0053004,-0.12561,0.077,-0.010578,-0.36992,1.3561,0.02,0,0.01,91.32
14486,7.2526e+07,0,-0.71,0.61,2.31,-0.0037579,0.014998,-0.14329,0.05921,-0.010612,-0.36975,1.3576,0.02,0,0.01,91.32
14535,7.2536e+07,0,-0.82,0.58,2.32,-0.0057972,0.0060271,-0.15091,0.052462,-0.010615,-0.36964,1.3591,0.02,0,0.01,91.32
14580,7.2547e+07,0,-0.88,0.52,2.3,-0.0012658,0.0017661,-0.11418,0.092085,-0.010615,-0.36952,1.3602,0.02,0,0.01,91.32
14625,7.2558e+07,0,-0.72,0.58,2.32,0.0004164,-0.0078973,-0.1143,0.095279,-0.010655,-0.36933,1.3612,0.02,0,0.01,91.32
14669,7.2568e+07,0,-0.57,0.62,2.29,-0.015077,0.0092487,-0.15772,0.05336,-0.010689,-0.36916,1.3624,0.02,0,0.01,91.32
14715,7.2579e+07,0,-0.77,0.44,2.29,-0.0083177,0.015274,-0.12876,0.084577,-0.010707,-0.36905,1.3634,0.02,0,0.01,91.32
14759,7.2589e+07,0,-0.82,0.58,2.33,0.0015861,1.213e-05,-0.11617,0.096159,-0.010784,-0.36892,1.3643,0.02,0,0.01,91.32
14804,7.26e+07,0,-0.66,0.73,2.33,-0.0090404,0.0070495,-0.15356,0.058414,-0.010862,-0.36876,1.3651,0.02,0,0.01,91.32
14849,7.261e+07,0,-0.79,0.48,2.3,-0.015997,0.0097814,-0.14536,0.066778,-0.010875,-0.36874,1.3638,0.02,0,0.01,91.32
14894,7.2621e+07,0,-0.88,0.4,2.33,-0.0022843,-0.003888,-0.10219,0.10698,-0.010904,-0.36864,1.3643,0.02,0,0.01,91.32
14939,7.2631e+07,0,-0.61,0.6,2.35,0.010491,0.0073233,-0.13378,0.070921,-0.011,-0.36845,1.365,0.02,0,0.01,91.32
14987,7.2641e+07,0,-0.72,0.7,2.35,-0.0088633,0.030427,-0.14821,0.05129,-0.011058,-0.3683,1.3656,0.02,0,0.01,91.32
15032,7.2652e+07,0,-0.92,0.54,2.34,-0.018322,0.01383,-0.13807,0.056417,-0.011062,-0.36821,1.3661,0.02,0,0.01,91.32
15076,7.2662e+07,0,-0.76,0.42,2.33,-0.0060344,-0.012145,-0.11359,0.075008,-0.011067,-0.36809,1.3665,0.02,0,0.01,91.32
15124,7.2675e+07,0,-0.88,0.51,2.35,-0.020246,0.00093187,-0.12604,0.056428,-0.011128,-0.36791,1.3665,0.02,0,0.01,91.32
15168,7.2685e+07,0,-0.59,0.41,2.32,-0.0076549,-0.0067746,-0.10923,0.066637,-0.011168,-0.36768,1.3669,0.02,0,0.01,91.32
15213,7.2697e+07,0,-0.53,0.44,2.31,-0.003952,-0.0122,-0.11286,0.056615,-0.011245,-0.36748,1.3671,0.02,0,0.01,91.32
15259,7.2708e+07,0,-0.44,0.51,2.32,0.0057555,0.012978,-0.13345,0.031535,-0.011318,-0.36739,1.3657,0.02,0,0.01,91.32
15303,7.2719e+07,0,-0.5,0.51,2.31,-0.00060947,0.017018,-0.13315,0.024612,-0.011401,-0.36727,1.3657,0.02,0,0.01,91.32
15344,7.273e+07,0,-0.65,0.55,2.33,0.0078308,0.020902,-0.13306,0.023123,-0.011081,-0.36702,1.3671,0.02,0,0.01,91.32
15390,7.274e+07,0,-0.66,0.65,2.33,0.0097422,0.011395,-0.13157,0.026167,-0.010781,-0.36677,1.3682,0.02,0,0.01,91.32
15438,7.275e+07,0,-0.61,0.61,2.33,0.0050758,0.0053203,-0.13786,0.021731,-0.010495,-0.36656,1.3691,0.02,0,0.01,91.32
15483,7.276e+07,0,-0.65,0.6,2.34,-0.0014093,0.019022,-0.14414,0.01633,-0.010265,-0.3664,1.37,0.02,0,0.01,91.32
15527,7.277e+07,0,-0.62,0.57,2.37,-0.0036801,0.036838,-0.14719,0.014292,-0.010082,-0.36621,1.3709,0.02,0,0.01,91.32
15575,7.2784e+07,0,-0.51,0.53,2.37,-0.0097447,0.020614,-0.13886,0.027786,-0.0099161,-0.36581,1.3711,0.02,0,0.01,91.32
15619,7.2794e+07,0,-0.5,0.51,2.39,-0.0069626,0.012544,-0.1363,0.032742,-0.0097313,-0.36557,1.3718,0.02,0,0.01,91.32
15664,7.2804e+07,0,-0.45,0.52,2.43,-0.0087084,0.0060447,-0.13788,0.032302,-0.0095937,-0.36536,1.3724,0.02,0,0.01,91.32
15709,7.2815e+07,0,-0.4,0.6,2.47,-0.024514,0.0066954,-0.14591,0.025935,-0.0095034,-0.36511,1.3726,0.02,0,0.01,91.32
15754,7.2825e+07,0,-0.3,0.64,2.5,-0.028575,0.013494,-0.15829,0.015468,-0.0096838,-0.36487,1.3711,0.02,0,0.01,91.32
15799,7.2835e+07,0,-0.26,0.69,2.54,-0.035636,0.015459,-0.16903,0.0030254,-0.009615,-0.36461,1.3712,0.02,0,0.01,91.32
15850,7.2848e+07,0,-0.12,0.69,2.61,-0.015246,0.032185,-0.19219,-0.02274,-0.0097188,-0.36427,1.3705,0.02,0,0.01,91.32
15895,7.2859e+07,0,-0.08,0.67,2.66,-0.013192,0.028511,-0.20644,-0.039097,-0.0097278,-0.36403,1.3701,0.02,0,0.01,91.32
15940,7.2868e+07,0,-0.02,0.65,2.71,-0.011272,0.02791,-0.22084,-0.057196,-0.0097056,-0.36378,1.3697,0.02,0,0.01,91.32
15985,7.2879e+07,0,0.01,0.68,2.77,-0.035884,0.016472,-0.24794,-0.088143,-0.0097577,-0.36343,1.3684,0.02,0,0.01,91.32
16029,7.289e+07,0,0.09,0.69,2.84,-0.04272,0.021512,-0.27052,-0.11579,-0.009809,-0.36312,1.3671,0.02,0,0.01,91.32
16075,7.29e+07,0,0.14,0.66,2.93,-0.030189,0.034264,-0.29862,-0.14928,-0.0099339,-0.3628,1.3653,0.02,0,0.01,91.32
16113,7.2911e+07,0,0.24,0.59,3.01,-0.023904,0.032794,-0.33292,-0.18761,-0.009663,-0.36219,1.3644,0.02,0,0.01,91.32
16158,7.2921e+07,0,0.32,0.58,3.09,-0.032697,0.034447,-0.35827,-0.21252,-0.0093965,-0.36158,1.3634,0.02,0,0.01,91.32
16207,7.2931e+07,0,0.45,0.52,3.18,-0.040431,0.038983,-0.3929,-0.24529,-0.0091457,-0.36089,1.362,0.02,0,0.01,91.32
16251,7.2942e+07,0,0.58,0.46,3.27,-0.034471,0.043204,-0.41121,-0.25874,-0.0089397,-0.36015,1.3598,0.02,0,0.01,91.32
16301,7.2953e+07,0,0.71,0.35,3.36,-0.025794,0.044122,-0.44159,-0.2836,-0.0087491,-0.35942,1.3572,0.02,0,0.01,91.32
16346,7.2964e+07,0,0.83,0.28,3.46,-0.041992,0.052838,-0.4902,-0.32619,-0.009142,-0.35888,1.3521,0.02,0,0.01,91.32
16390,7.2974e+07,0,0.95,0.21,3.55,-0.046655,0.064248,-0.51154,-0.34516,-0.009006,-0.35807,1.3492,0.02,0,0.01,91.32
16435,7.2985e+07,0,1.12,0.11,3.64,-0.043545,0.064885,-0.53145,-0.36414,-0.0089018,-0.35725,1.3457,0.02,0,0.01,91.32
16481,7.2998e+07,0,1.21,0,3.78,-0.049037,0.052177,-0.58467,-0.41859,-0.0089771,-0.35628,1.3401,0.02,0,0.01,91.32
16525,7.3008e+07,0,1.34,-0.04,3.87,-0.057326,0.071534,-0.60814,-0.44673,-0.0090029,-0.35543,1.3357,0.02,0,0.01,91.32
16570,7.3018e+07,0,1.55,-0.15,4.01,-0.046552,0.078987,-0.63915,-0.48121,-0.0095523,-0.35468,1.3289,0.02,0,0.01,91.32
16614,7.3029e+07,0,1.67,-0.26,4.12,-0.047756,0.065249,-0.68226,-0.52974,-0.0096543,-0.35368,1.3231,0.02,0,0.01,91.32
16659,7.3039e+07,0,1.72,-0.3,4.23,-0.063125,0.066672,-0.70063,-0.55242,-0.0097641,-0.35275,1.3177,0.02,0,0.01,91.32
16703,7.3049e+07,0,1.8,-0.34,4.36,-0.067565,0.072701,-0.72254,-0.57902,-0.0099296,-0.35178,1.3118,0.02,0,0.01,91.32
16752,7.3059e+07,0,1.87,-0.41,4.49,-0.057046,0.082819,-0.75624,-0.61775,-0.010126,-0.35074,1.3056,0.02,0,0.01,91.32
16797,7.307e+07,0,1.94,-0.49,4.61,-0.055557,0.092,-0.80178,-0.66828,-0.010388,-0.34959,1.2983,0.02,0,0.01,91.32
16841,7.308e+07,0,1.97,-0.53,4.75,-0.069181,0.095944,-0.83124,-0.70348,-0.01061,-0.34851,1.2913,0.02,0,0.01,91.32
16886,7.3094e+07,0,2.05,-0.64,4.93,-0.056735,0.10102,-0.86086,-0.73949,-0.011113,-0.34694,1.2805,0.02,0,0.01,91.32
16930,7.3104e+07,0,2.05,-0.71,5.06,-0.066311,0.10358,-0.89897,-0.78314,-0.011382,-0.34571,1.2727,0.02,0,0.01,91.32
16978,7.3122e+07,0,2.04,-0.79,5.3,-0.074082,0.11108,-0.93367,-0.82416,-0.011967,-0.343,1.2586,0.02,0,0.01,91.32
17023,7.3132e+07,0,2.03,-0.87,5.46,-0.071979,0.13166,-0.95259,-0.8421,-0.012132,-0.34108,1.2514,0.02,0,0.01,91.32
17068,7.3143e+07,0,2.05,-0.94,5.6,-0.059424,0.13245,-0.99038,-0.87726,-0.012374,-0.33897,1.2428,0.02,0,0.01,91.32
17114,7.3153e+07,0,2,-0.99,5.74,-0.063706,0.13455,-1.0154,-0.90002,-0.01253,-0.33698,1.2349,0.02,0,0.01,91.32
17164,7.3164e+07,0,1.94,-1.03,5.88,-0.073864,0.1416,-1.0337,-0.91297,-0.013182,-0.33563,1.2247,0.02,0,0.01,91.32
17208,7.3174e+07,0,1.89,-1.09,6.05,-0.064664,0.14745,-1.05,-0.92492,-0.013451,-0.33342,1.2152,0.02,0,0.01,91.32
17253,7.3184e+07,0,1.79,-1.14,6.19,-0.054678,0.14573,-1.0659,-0.93632,-0.013657,-0.33132,1.2064,0.02,0,0.01,91.32
17301,7.3197e+07,0,1.63,-1.12,6.35,-0.077182,0.16684,-1.1138,-0.97961,-0.014071,-0.32874,1.194,0.02,0,0.01,91.32
17345,7.3208e+07,0,1.57,-1.15,6.5,-0.069753,0.17532,-1.123,-0.98462,-0.014334,-0.32656,1.1848,0.02,0,0.01,91.32
17390,7.3218e+07,0,1.44,-1.22,6.68,-0.054363,0.16386,-1.1454,-1.0039,-0.014665,-0.32417,1.1741,0.02,0,0.01,91.32
17434,7.3228e+07,0,1.31,-1.21,6.81,-0.062237,0.16569,-1.1806,-1.0378,-0.014925,-0.32193,1.1643,0.02,0,0.01,91.32
17479,7.3239e+07,0,1.17,-1.14,6.96,-0.080532,0.17608,-1.1821,-1.0383,-0.015643,-0.32,1.1513,0.02,0,0.01,91.32
17524,7.3249e+07,0,1.03,-1.15,7.12,-0.065555,0.18186,-1.1978,-1.0549,-0.015929,-0.31764,1.141,0.02,0,0.01,91.32
17569,7.3259e+07,0,0.91,-1.18,7.26,-0.04955,0.19183,-1.2325,-1.0905,-0.016212,-0.31524,1.1304,0.02,0,0.01,91.32
17618,7.327e+07,0,0.78,-1.15,7.39,-0.055773,0.19488,-1.259,-1.119,-0.016498,-0.31282,1.1195,0.02,0,0.01,91.32
17663,7.328e+07,0,0.6,-1.04,7.54,-0.080174,0.20248,-1.2837,-1.1464,-0.01687,-0.31017,1.1071,0.02,0,0.01,91.32
17708,7.3291e+07,0,0.48,-1.01,7.69,-0.072564,0.21819,-1.299,-1.1629,-0.017528,-0.30815,1.0942,0.02,0,0.01,91.32
17751,7.3302e+07,0,0.39,-1.01,7.85,-0.053622,0.21607,-1.3187,-1.1855,-0.017902,-0.30541,1.0813,0.02,0,0.01,91.32
17793,7.3312e+07,0,0.23,-0.98,8,-0.058525,0.20598,-1.339,-1.2052,-0.017479,-0.30267,1.0689,0.02,0,0.01,91.32
17838,7.3323e+07,0,0.03,-0.91,8.14,-0.067461,0.21376,-1.3581,-1.2208,-0.017098,-0.29989,1.0563,0.02,0,0.01,91.32
17882,7.3333e+07,0,-0.1,-0.85,8.28,-0.065902,0.22137,-1.3756,-1.2354,-0.016673,-0.2973,1.0446,0.02,0,0.01,91.32
17926,7.3343e+07,0,-0.23,-0.82,8.41,-0.058171,0.22413,-1.3856,-1.2434,-0.016269,-0.29471,1.0327,0.02,0,0.01,91.32
17972,7.3353e+07,0,-0.37,-0.79,8.56,-0.049176,0.2241,-1.4105,-1.2664,-0.015898,-0.2921,1.0206,0.02,0,0.01,91.32
18016,7.3364e+07,0,-0.52,-0.72,8.68,-0.060804,0.23173,-1.4448,-1.2976,-0.015612,-0.28925,1.0067,0.02,0,0.01,91.32
18065,7.3374e+07,0,-0.69,-0.61,8.81,-0.076685,0.23586,-1.4558,-1.3051,-0.01622,-0.28692,0.99228,0.02,0,0.01,91.32
18109,7.3385e+07,0,-0.83,-0.56,8.97,-0.064129,0.2466,-1.4706,-1.3187,-0.016005,-0.28399,0.97792,0.02,0,0.01,91.32
18154,7.3395e+07,0,-0.88,-0.54,9.09,-0.049699,0.2536,-1.4837,-1.3323,-0.01572,-0.28129,0.96478,0.02,0,0.01,91.32
18202,7.3409e+07,0,-1.17,-0.46,9.26,-0.067199,0.2326,-1.5099,-1.3597,-0.015667,-0.27762,0.94566,0.02,0,0.01,91.32
18247,7.3419e+07,0,-1.27,-0.37,9.36,-0.072536,0.24686,-1.5237,-1.3737,-0.015466,-0.27489,0.93222,0.02,0,0.01,91.32
18293,7.343e+07,0,-1.42,-0.31,9.49,-0.068546,0.24907,-1.5315,-1.3831,-0.015277,-0.27216,0.91857,0.02,0,0.01,91.32
18337,7.344e+07,0,-1.52,-0.29,9.6,-0.047591,0.2601,-1.5541,-1.4081,-0.015143,-0.26921,0.90315,0.02,0,0.01,91.32
18382,7.3451e+07,0,-1.64,-0.26,9.71,-0.049025,0.25204,-1.5683,-1.4233,-0.01569,-0.26672,0.88757,0.02,0,0.01,91.32
18427,7.3461e+07,0,-1.8,-0.2,9.82,-0.061132,0.24181,-1.5862,-1.4441,-0.01559,-0.26372,0.87172,0.02,0,0.01,91.32
18472,7.3471e+07,0,-1.84,-0.19,9.91,-0.059989,0.2478,-1.6043,-1.4648,-0.015401,-0.26122,0.8588,0.02,0,0.01,91.32
18521,7.3481e+07,0,-1.96,-0.13,10.03,-0.067349,0.25433,-1.6163,-1.4814,-0.015325,-0.25823,0.84249,0.02,0,0.01,91.32
18566,7.3492e+07,0,-2.07,-0.1,10.14,-0.054734,0.2544,-1.6186,-1.4889,-0.015287,-0.25525,0.82595,0.02,0,0.01,91.32
18611,7.3503e+07,0,-2.2,-0.12,10.24,-0.042113,0.24743,-1.6399,-1.5142,-0.015897,-0.2525,0.80798,0.02,0,0.01,91.32
18654,7.3514e+07,0,-2.42,-0.08,10.33,-0.053835,0.23358,-1.658,-1.5372,-0.015858,-0.24959,0.79103,0.02,0,0.01,91.32
18696,7.3526e+07,0,-2.53,0,10.43,-0.066007,0.25813,-1.683,-1.561,-0.016238,-0.2466,0.77369,0.02,0,0.01,91.32
18741,7.3536e+07,0,-2.62,0.02,10.51,-0.066167,0.26111,-1.6874,-1.5614,-0.016531,-0.24405,0.75942,0.02,0,0.01,91.32
18785,7.3547e+07,0,-2.69,0.03,10.59,-0.061648,0.25915,-1.6922,-1.5617,-0.016863,-0.24151,0.7449,0.02,0,0.01,91.32
18830,7.3557e+07,0,-2.72,0,10.66,-0.04749,0.25015,-1.7168,-1.5798,-0.017265,-0.23874,0.72844,0.02,0,0.01,91.32
18875,7.3568e+07,0,-2.83,0.01,10.73,-0.049712,0.24141,-1.7252,-1.5815,-0.017614,-0.23625,0.71342,0.02,0,0.01,91.32
18920,7.3578e+07,0,-2.95,0.05,10.78,-0.063605,0.23625,-1.7393,-1.5876,-0.018047,-0.23353,0.69646,0.02,0,0.01,91.32
18970,7.3588e+07,0,-3.05,0.08,10.82,-0.070322,0.24478,-1.7563,-1.5994,-0.018445,-0.23108,0.681,0.02,0,0.01,91.32
19014,7.3599e+07,0,-3.16,0.12,10.87,-0.072834,0.2366,-1.7508,-1.5883,-0.01893,-0.22841,0.66358,0.02,0,0.01,91.32
19059,7.361e+07,0,-3.2,0.12,10.91,-0.060061,0.24438,-1.7657,-1.5989,-0.019432,-0.22578,0.64628,0.02,0,0.01,91.32
19104,7.3621e+07,0,-3.21,0.08,10.92,-0.052966,0.24066,-1.7672,-1.5957,-0.020054,-0.2234,0.62856,0.02,0,0.01,91.32
19149,7.3632e+07,0,-3.34,0.03,10.93,-0.048891,0.22399,-1.7815,-1.6082,-0.02056,-0.22081,0.61093,0.02,0,0.01,91.32
19193,7.3642e+07,0,-3.41,0,10.91,-0.05614,0.22282,-1.7999,-1.6264,-0.021061,-0.21827,0.59311,0.02,0,0.01,91.32
19238,7.3652e+07,0,-3.55,0,10.9,-0.060278,0.20674,-1.803,-1.6301,-0.021528,-0.21599,0.57688,0.02,0,0.01,91.32
19282,7.3662e+07,0,-3.63,-0.01,10.87,-0.063183,0.20724,-1.8176,-1.6471,-0.022006,-0.21375,0.56049,0.02,0,0.01,91.32
19327,7.3673e+07,0,-3.8,0.05,10.82,-0.076852,0.2058,-1.8257,-1.6569,-0.022577,-0.21131,0.54207,0.02,0,0.01,91.32
19373,7.3683e+07,0,-3.82,0.04,10.76,-0.078544,0.20097,-1.8352,-1.6674,-0.023233,-0.20912,0.52378,0.02,0,0.01,91.32
19421,7.3694e+07,0,-3.85,0.03,10.68,-0.08188,0.21863,-1.8519,-1.6875,-0.023809,-0.20675,0.5051,0.02,0,0.01,91.32
19469,7.3705e+07,0,-3.9,-0.01,10.59,-0.078143,0.21633,-1.8571,-1.6963,-0.024405,-0.20441,0.48626,0.02,0,0.01,91.32
19510,7.3716e+07,0,-3.86,-0.08,10.48,-0.069351,0.22511,-1.8678,-1.7117,-0.026098,-0.20177,0.46709,0.02,0,0,91.32
19552,7.3728e+07,0,-3.86,-0.22,10.35,-0.050997,0.21302,-1.8679,-1.7157,-0.027831,-0.19895,0.44631,0.02,0,0,91.32
19597,7.3738e+07,0,-3.92,-0.27,10.22,-0.050213,0.20545,-1.8712,-1.722,-0.029461,-0.19641,0.42721,0.02,0,0,91.32
19641,7.3748e+07,0,-3.98,-0.33,10.09,-0.050184,0.19541,-1.8756,-1.729,-0.031005,-0.19412,0.40983,0.02,0,0,91.32
19686,7.3759e+07,0,-3.96,-0.41,9.9,-0.049821,0.19987,-1.8877,-1.745,-0.032532,-0.19187,0.39232,0.02,0,0,91.32
19730,7.3769e+07,0,-4.06,-0.48,9.76,-0.047729,0.19003,-1.8855,-1.7461,-0.034028,-0.18968,0.37463,0.02,0,0,91.32
19775,7.378e+07,0,-4.07,-0.56,9.54,-0.051986,0.18248,-1.8981,-1.7625,-0.035571,-0.18735,0.35494,0.02,0,0,91.32
19820,7.379e+07,0,-4.09,-0.63,9.38,-0.055887,0.16996,-1.8961,-1.7651,-0.037115,-0.18507,0.33509,0.02,0,0,91.32
19868,7.38e+07,0,-4.1,-0.69,9.17,-0.055226,0.16803,-1.9037,-1.7787,-0.037816,-0.18325,0.31596,0.02,0,0,91.32
19913,7.381e+07,0,-4.05,-0.72,8.97,-0.050951,0.17119,-1.9145,-1.7955,-0.039275,-0.18126,0.29785,0.02,0,0,91.32
19958,7.382e+07,0,-4.16,-0.77,8.76,-0.049593,0.17439,-1.919,-1.8057,-0.040705,-0.17935,0.27962,0.02,0,0,91.32
20003,7.3831e+07,0,-4.2,-0.76,8.54,-0.050833,0.17467,-1.9357,-1.8287,-0.042096,-0.17746,0.26106,0.02,0,0,91.32
20048,7.3841e+07,0,-4.25,-0.87,8.29,-0.050541,0.16253,-1.9297,-1.8298,-0.043513,-0.17545,0.24045,0.02,0,0,91.32
20093,7.3852e+07,0,-4.28,-0.92,8.02,-0.058258,0.152,-1.9432,-1.8506,-0.044926,-0.17349,0.21972,0.02,0,0,91.32
20138,7.3862e+07,0,-4.29,-0.99,7.79,-0.053415,0.15107,-1.9437,-1.8582,-0.046251,-0.17175,0.20083,0.02,0,0,91.32
20182,7.3873e+07,0,-4.36,-1.02,7.54,-0.051185,0.14363,-1.9482,-1.8697,-0.047563,-0.17007,0.18185,0.02,0,0,91.32
20228,7.3882e+07,0,-4.39,-1.02,7.29,-0.051404,0.14526,-1.958,-1.8865,-0.048861,-0.16843,0.16277,0.02,0,0,91.32
20272,7.3893e+07,0,-4.45,-1.1,7.01,-0.054604,0.12853,-1.9531,-1.8889,-0.050206,-0.1667,0.14164,0.02,0,0,91.32
20322,7.3904e+07,0,-4.47,-1.13,6.75,-0.053431,0.12319,-1.9628,-1.9048,-0.050871,-0.16532,0.12196,0.02,0,0,91.32
20368,7.3914e+07,0,-4.48,-1.2,6.46,-0.057344,0.11489,-1.9603,-1.9092,-0.05217,-0.16369,0.1007,0.02,0,0,91.32
20409,7.3926e+07,0,-4.59,-1.15,6.13,-0.076262,0.11318,-1.9805,-1.935,-0.05272,-0.16173,0.077761,0.02,0,0,91.32
20454,7.3936e+07,0,-4.57,-1.2,5.86,-0.073483,0.1098,-1.9808,-1.9366,-0.053133,-0.16005,0.059359,0.02,0,0,91.32
20499,7.3947e+07,0,-4.62,-1.16,5.56,-0.081656,0.11299,-1.9946,-1.9488,-0.053622,-0.15831,0.038856,0.02,0,0,91.32
20546,7.3961e+07,0,-4.52,-1.12,5.2,-0.055805,0.12678,-1.9961,-1.9476,-0.054347,-0.15624,0.012254,0.02,0,0,91.32
20591,7.3971e+07,0,-4.51,-1.09,4.93,-0.054574,0.12683,-2.0028,-1.9509,-0.054796,-0.15474,-0.0064906,0.02,0,0,91.32
20635,7.3982e+07,0,-4.52,-1.09,4.66,-0.054527,0.12288,-2.0034,-1.9477,-0.055229,-0.15329,-0.025329,0.02,0,0,91.32
20679,7.3992e+07,0,-4.48,-1.14,4.38,-0.044964,0.11383,-2.0079,-1.948,-0.055693,-0.15176,-0.046262,0.02,0,0,91.32
20731,7.4005e+07,0,-4.45,-1.23,4.05,-0.044647,0.090245,-2.0021,-1.9389,-0.056192,-0.15019,-0.069309,0.02,0,0,91.32
20777,7.4015e+07,0,-4.4,-1.19,3.79,-0.045003,0.085827,-2.0116,-1.9464,-0.056605,-0.14887,-0.088439,0.02,0,0,91.32
20821,7.4025e+07,0,-4.41,-1.15,3.5,-0.060825,0.082185,-2.0167,-1.9491,-0.057052,-0.14753,-0.10966,0.02,0,0,91.32
20869,7.4039e+07,0,-4.44,-1.06,3.18,-0.065018,0.094706,-2.0192,-1.9483,-0.057631,-0.14608,-0.13412,0.02,0,0,91.32
20914,7.4049e+07,0,-4.4,-1.08,2.92,-0.04837,0.088979,-2.0175,-1.9426,-0.05806,-0.14485,-0.15465,0.02,0,0,91.32
20959,7.406e+07,0,-4.37,-1.15,2.65,-0.03856,0.078631,-2.0201,-1.9391,-0.058493,-0.14368,-0.1753,0.02,0,0,91.32
21004,7.4071e+07,0,-4.36,-1.16,2.38,-0.045219,0.068305,-2.023,-1.9349,-0.058938,-0.14258,-0.19605,0.02,0,0,91.32
21048,7.4081e+07,0,-4.35,-1.16,2.14,-0.04501,0.062357,-2.0263,-1.9313,-0.059441,-0.14185,-0.21629,0.02,0,0,91.32
21093,7.4092e+07,0,-4.36,-1.17,1.89,-0.053314,0.059012,-2.0337,-1.9336,-0.059823,-0.14092,-0.23514,0.02,0,0,91.32
21140,7.4102e+07,0,-4.37,-1.11,1.66,-0.064551,0.056763,-2.038,-1.9338,-0.060226,-0.14004,-0.2541,0.02,0,0,91.32
21182,7.4114e+07,0,-4.32,-1.07,1.38,-0.046393,0.071061,-2.0382,-1.9303,-0.061403,-0.14005,-0.27967,0.02,0,0,91.32
21227,7.4124e+07,0,-4.28,-1.07,1.15,-0.045601,0.065207,-2.0356,-1.9276,-0.062399,-0.14028,-0.29922,0.02,0,0,91.32
21273,7.4134e+07,0,-4.23,-1.09,0.93,-0.037944,0.060589,-2.0349,-1.9296,-0.063393,-0.14052,-0.31882,0.02,0,0,91.32
21318,7.4145e+07,0,-4.21,-1.16,0.69,-0.037842,0.040998,-2.0326,-1.9308,-0.064414,-0.14071,-0.33954,0.02,0,0,91.32
21363,7.4156e+07,0,-4.25,-1.11,0.42,-0.056789,0.030578,-2.0477,-1.9456,-0.065408,-0.14094,-0.36035,0.02,0,0,91.32
21408,7.4167e+07,0,-4.28,-1.08,0.18,-0.065153,0.038645,-2.0502,-1.9454,-0.066383,-0.1412,-0.38129,0.02,0,0,91.32
21452,7.4178e+07,0,-4.26,-1.06,359.96,-0.067602,0.040073,-2.0558,-1.9472,-0.066908,-0.14081,-0.40175,0.02,0,0,91.32
21497,7.4188e+07,0,-4.17,-1.05,359.72,-0.059349,0.050733,-2.0559,-1.9445,-0.067914,-0.14112,-0.4228,0.02,0,0,91.32
21542,7.4198e+07,0,-4.12,-1.08,359.52,-0.048357,0.043764,-2.0474,-1.9332,-0.068852,-0.14147,-0.4419,0.02,0,0,91.32
21589,7.4209e+07,0,-4.09,-1.1,359.32,-0.042561,0.030029,-2.0478,-1.9317,-0.069773,-0.14183,-0.46108,0.02,0,0,91.32
21637,7.4219e+07,0,-4.04,-1.15,359.07,-0.046473,0.018249,-2.0589,-1.942,-0.070731,-0.14219,-0.48239,0.02,0,0,91.32
21681,7.423e+07,0,-3.99,-1.16,358.86,-0.051269,0.016909,-2.0589,-1.9417,-0.071609,-0.14259,-0.50174,0.02,0,0,91.32
21726,7.424e+07,0,-4.01,-1.16,358.64,-0.062311,0.0031642,-2.0547,-1.9384,-0.072518,-0.143,-0.5232,0.02,0,0,91.32
21771,7.4251e+07,0,-4.03,-1.19,358.43,-0.063895,0.011559,-2.0619,-1.9463,-0.073054,-0.14287,-0.54374,0.02,0,0,91.32
21815,7.4261e+07,0,-4,-1.2,358.22,-0.057344,0.020338,-2.0562,-1.9408,-0.073978,-0.14335,-0.56471,0.02,0,0,91.32
21860,7.4272e+07,0,-4,-1.26,358.05,-0.047314,0.0059274,-2.048,-1.9312,-0.074823,-0.14386,-0.58371,0.02,0,0,91.32
21905,7.4282e+07,0,-3.96,-1.36,357.83,-0.035883,0.001123,-2.0582,-1.9392,-0.07569,-0.14436,-0.60486,0.02,0,0,91.32
21950,7.4292e+07,0,-3.89,-1.42,357.64,-0.042759,-0.00033575,-2.0617,-1.9411,-0.076453,-0.14487,-0.62405,0.02,0,0,91.32
21996,7.4302e+07,0,-3.85,-1.48,357.46,-0.051014,-0.0087772,-2.0655,-1.946,-0.077201,-0.14541,-0.64328,0.02,0,0,91.32
22042,7.4316e+07,0,-3.85,-1.54,357.23,-0.043003,-0.0029498,-2.0532,-1.9329,-0.07788,-0.14633,-0.67057,0.02,0,0,91.32
22088,7.4328e+07,0,-3.82,-1.68,357.03,-0.034735,-0.025431,-2.0554,-1.9343,-0.07842,-0.14726,-0.69381,0.02,0,0,91.32
22132,7.4338e+07,0,-3.8,-1.74,356.86,-0.040923,-0.027363,-2.0609,-1.9392,-0.078876,-0.14819,-0.71302,0.02,0,0,91.32
22177,7.4349e+07,0,-3.77,-1.72,356.68,-0.058926,-0.012079,-2.0685,-1.9471,-0.079389,-0.14914,-0.73434,0.02,0,0,91.32
22222,7.436e+07,0,-3.74,-1.75,356.53,-0.0561,-0.0091654,-2.063,-1.9414,-0.079846,-0.14933,-0.7549,0.02,0,0,91.32
22266,7.437e+07,0,-3.71,-1.8,356.39,-0.043107,-0.009839,-2.0558,-1.9339,-0.080325,-0.15029,-0.77373,0.02,0,0,91.32
22311,7.4381e+07,0,-3.6,-1.85,356.23,-0.03347,-0.028227,-2.0491,-1.9268,-0.080823,-0.15128,-0.79467,0.02,0,0,91.32
22357,7.4391e+07,0,-3.55,-1.86,356.08,-0.036893,-0.039037,-2.0491,-1.9268,-0.081288,-0.15227,-0.81363,0.02,0,0,91.32
22402,7.4401e+07,0,-3.52,-1.86,355.93,-0.037239,-0.04457,-2.0494,-1.9271,-0.081743,-0.15326,-0.83266,0.02,0,0,91.32
22446,7.4411e+07,0,-3.55,-1.84,355.76,-0.049864,-0.043422,-2.0502,-1.9267,-0.082237,-0.1543,-0.85381,0.02,0,0,91.32
22492,7.4422e+07,0,-3.51,-1.74,355.61,-0.057061,-0.027304,-2.0545,-1.93,-0.082756,-0.15533,-0.87501,0.02,0,0,91.32
22542,7.4433e+07,0,-3.38,-1.73,355.46,-0.037109,-0.02521,-2.0491,-1.9238,-0.083271,-0.15636,-0.89629,0.02,0,0,91.32
22586,7.4444e+07,0,-3.31,-1.72,355.33,-0.033659,-0.049534,-2.0505,-1.9252,-0.083779,-0.1574,-0.91764,0.02,0,0,91.32
22631,7.4454e+07,0,-3.26,-1.65,355.17,-0.04411,-0.051448,-2.0589,-1.9337,-0.084232,-0.15783,-0.93812,0.02,0,0,91.32
22675,7.4464e+07,0,-3.2,-1.56,355.04,-0.05242,-0.044996,-2.061,-1.9378,-0.084717,-0.15885,-0.9575,0.02,0,0,91.32
22720,7.4475e+07,0,-3.15,-1.47,354.9,-0.054643,-0.045577,-2.0461,-1.923,-0.085248,-0.15991,-0.97788,0.02,0,0,91.32
22764,7.4485e+07,0,-3.1,-1.4,354.78,-0.049947,-0.050681,-2.0427,-1.9167,-0.085726,-0.16093,-0.99631,0.02,0,0,91.32
22809,7.4495e+07,0,-3.05,-1.33,354.66,-0.042578,-0.04924,-2.0453,-1.9166,-0.086199,-0.16196,-1.0148,0.02,0,0,91.32
22854,7.4511e+07,0,-2.95,-1.26,354.48,-0.059078,-0.054686,-2.0554,-1.9187,-0.085489,-0.1633,-1.0435,0.02,0,0,91.32
22899,7.4521e+07,0,-2.87,-1.17,354.35,-0.046272,-0.037574,-2.0535,-1.9128,-0.08465,-0.16441,-1.064,0.02,0,0,91.32
22944,7.4532e+07,0,-2.75,-1.17,354.24,-0.034593,-0.050504,-2.0416,-1.8986,-0.083823,-0.16549,-1.0846,0.02,0,0,91.32
22993,7.4543e+07,0,-2.7,-1.16,354.15,-0.034809,-0.064374,-2.0437,-1.8968,-0.084247,-0.166,-1.1051,0.02,0,0,91.32
23037,7.4553e+07,0,-2.66,-1.14,354.03,-0.040348,-0.058075,-2.0537,-1.9042,-0.083428,-0.16709,-1.1258,0.02,0,0,91.32
23082,7.4563e+07,0,-2.59,-1.09,353.93,-0.044321,-0.049526,-2.0603,-1.9083,-0.082598,-0.16808,-1.1445,0.02,0,0,91.32
23126,7.4573e+07,0,-2.53,-1.1,353.86,-0.049662,-0.042946,-2.0659,-1.9122,-0.081788,-0.16906,-1.1633,0.02,0,0,91.32
23170,7.4584e+07,0,-2.48,-1.11,353.79,-0.04406,-0.036576,-2.0488,-1.8937,-0.081063,-0.17008,-1.1834,0.02,0,0,91.32
23217,7.4595e+07,0,-2.37,-1.2,353.71,-0.027366,-0.049255,-2.0395,-1.8797,-0.080394,-0.17105,-1.2035,0.02,0,0,91.32
23261,7.4606e+07,0,-2.38,-1.2,353.62,-0.033938,-0.062592,-2.0475,-1.8814,-0.079751,-0.172,-1.2237,0.02,0,0,91.32
23306,7.4616e+07,0,-2.36,-1.18,353.54,-0.046034,-0.056705,-2.0495,-1.8778,-0.079116,-0.17291,-1.242,0.02,0,0,91.32
23350,7.4627e+07,0,-2.31,-1.17,353.48,-0.056023,-0.036335,-2.0443,-1.8684,-0.078575,-0.17385,-1.2625,0.02,0,0,91.32
23395,7.4637e+07,0,-2.25,-1.21,353.43,-0.04716,-0.032125,-2.0396,-1.8594,-0.07902,-0.17428,-1.2828,0.02,0,0,91.32
23444,7.4648e+07,0,-2.23,-1.25,353.37,-0.034098,-0.033735,-2.0371,-1.8551,-0.078485,-0.17512,-1.3013,0.02,0,0,91.32
23488,7.4658e+07,0,-2.21,-1.25,353.3,-0.046578,-0.047041,-2.0399,-1.8577,-0.078069,-0.17601,-1.3238,0.02,0,0,91.32
23533,7.4669e+07,0,-2.23,-1.26,353.24,-0.052349,-0.045868,-2.0393,-1.8589,-0.077606,-0.17681,-1.3424,0.02,0,0,91.32
23578,7.4679e+07,0,-2.25,-1.29,353.19,-0.049847,-0.041307,-2.035,-1.8581,-0.077169,-0.17758,-1.3603,0.02,0,0,91.32
23621,7.4691e+07,0,-2.27,-1.31,353.13,-0.046014,-0.042088,-2.0252,-1.8474,-0.077663,-0.17805,-1.3826,0.02,0,0,91.32
23671,7.4708e+07,0,-2.31,-1.34,352.06,-0.044126,-0.041387,-2.0218,-1.8444,-0.07649,-0.17887,-1.4167,0.02,0,0,91.32
23715,7.4719e+07,0,-2.36,-1.39,352.01,-0.044159,-0.050926,-2.0233,-1.8452,-0.075862,-0.17901,-1.4369,0.02,0,0,91.32
23760,7.473e+07,0,-2.44,-1.39,351.97,-0.054695,-0.050938,-2.0279,-1.8491,-0.075233,-0.17913,-1.4552,0.02,0,0,91.32
23805,7.474e+07,0,-2.53,-1.36,351.91,-0.063481,-0.035006,-2.0328,-1.8542,-0.074651,-0.17923,-1.4735,0.02,0,0,91.32
23853,7.475e+07,0,-2.54,-1.35,351.87,-0.053911,-0.017713,-2.0241,-1.8454,-0.074166,-0.17936,-1.494,0.02,0,0,91.32
23898,7.4761e+07,0,-2.61,-1.44,351.85,-0.043383,-0.039533,-2.0064,-1.8282,-0.073754,-0.17951,-1.5146,0.02,0,0,91.32
23943,7.4772e+07,0,-2.78,-1.45,351.81,-0.059766,-0.054513,-2.0186,-1.8419,-0.073391,-0.17969,-1.5352,0.02,0,0,91.32
23988,7.4783e+07,0,-2.92,-1.39,351.76,-0.070767,-0.04326,-2.0253,-1.8505,-0.073038,-0.17984,-1.553,0.02,0,0,91.32
24032,7.4794e+07,0,-3.02,-1.39,351.74,-0.072419,-0.026875,-2.0158,-1.8397,-0.073706,-0.18028,-1.5751,0.02,0,0,91.32
24074,7.4805e+07,0,-3.1,-1.45,351.72,-0.053044,-0.043313,-2.007,-1.8312,-0.073569,-0.18049,-1.5971,0.02,0,0,91.32
24116,7.4816e+07,0,-3.24,-1.45,351.67,-0.06885,-0.050271,-2.0103,-1.8335,-0.073439,-0.18071,-1.6171,0.02,0,0,91.32
24161,7.4826e+07,0,-3.39,-1.42,351.64,-0.080398,-0.049722,-2.0113,-1.834,-0.073296,-0.18088,-1.6352,0.02,0,0,91.32
24206,7.4836e+07,0,-3.54,-1.39,351.6,-0.0799,-0.031395,-2.0131,-1.8359,-0.07327,-0.18107,-1.6554,0.02,0,0,91.32
24251,7.4847e+07,0,-3.59,-1.41,351.56,-0.072601,-0.025484,-2.0105,-1.8337,-0.073214,-0.18122,-1.6736,0.02,0,0,91.32
24299,7.4858e+07,0,-3.62,-1.45,351.54,-0.067147,-0.026758,-2.0124,-1.8394,-0.073954,-0.1816,-1.6937,0.02,0,0,91.32
24344,7.4868e+07,0,-3.7,-1.5,351.51,-0.071497,-0.045656,-2.0051,-1.8372,-0.074022,-0.18178,-1.7141,0.02,0,0,91.32
24388,7.4879e+07,0,-3.78,-1.52,351.48,-0.078337,-0.04857,-2.0058,-1.8414,-0.074068,-0.18193,-1.7325,0.02,0,0,91.32
24434,7.4889e+07,0,-3.84,-1.51,351.44,-0.087912,-0.043601,-2.0116,-1.8512,-0.074171,-0.18208,-1.751,0.02,0,0,91.32
24478,7.4906e+07,0,-3.83,-1.56,351.39,-0.086939,-0.052347,-2.0095,-1.858,-0.074911,-0.1825,-1.7836,0.02,0,0,91.32
24521,7.4918e+07,0,-3.87,-1.53,351.35,-0.085695,-0.018285,-2.0106,-1.863,-0.074769,-0.1833,-1.8072,0.02,0,0,91.32
24566,7.4928e+07,0,-3.82,-1.61,351.32,-0.074675,-0.025583,-2.0072,-1.8592,-0.074401,-0.18396,-1.8248,0.02,0,0,91.32
24613,7.4939e+07,0,-3.78,-1.68,351.29,-0.074735,-0.041916,-2.0084,-1.8596,-0.074087,-0.18462,-1.8426,0.02,0,0,91.32
24658,7.4949e+07,0,-3.82,-1.7,351.24,-0.096524,-0.055749,-2.0173,-1.867,-0.073921,-0.18536,-1.8625,0.02,0,0,91.32
24703,7.496e+07,0,-3.87,-1.69,351.22,-0.10429,-0.037989,-2.0188,-1.865,-0.073826,-0.18614,-1.8826,0.02,0,0,91.32
24751,7.497e+07,0,-3.85,-1.73,351.2,-0.098116,-0.033321,-2.0189,-1.8607,-0.074764,-0.18656,-1.9027,0.02,0,0,91.32
24796,7.4981e+07,0,-3.77,-1.8,351.19,-0.083262,-0.036162,-2.0248,-1.864,-0.074727,-0.18732,-1.9229,0.02,0,0,91.32
24840,7.4991e+07,0,-3.7,-1.85,351.17,-0.084964,-0.042235,-2.0264,-1.8647,-0.074634,-0.18804,-1.9412,0.02,0,0,91.32
24887,7.5002e+07,0,-3.66,-1.89,351.15,-0.09204,-0.055155,-2.026,-1.8649,-0.074584,-0.18879,-1.9596,0.02,0,0,91.32
24933,7.502e+07,0,-3.62,-1.97,351.14,-0.094526,-0.059928,-2.0286,-1.8685,-0.075338,-0.18993,-1.9943,0.02,0,0,91.32
24978,7.503e+07,0,-3.65,-1.98,351.12,-0.10703,-0.054795,-2.0244,-1.866,-0.075458,-0.19074,-2.0144,0.02,0,0,91.32
25022,7.504e+07,0,-3.62,-2,351.11,-0.10551,-0.044486,-2.0284,-1.8706,-0.075509,-0.19149,-2.0326,0.02,0,0,91.32
25068,7.5051e+07,0,-3.55,-2.06,351.11,-0.09842,-0.04275,-2.0252,-1.867,-0.075592,-0.19223,-2.0509,0.02,0,0,91.32
