LineNo,TimeUS,ThI,ABst,ThO,ThH,DAlt,Alt,BAlt,DSAlt,SAlt,TAlt,DCRt,CRt
1570,60101717,0,0,0,0.2585996,-0.248115,-0.248115,-0.07000000000000001,NaN,0,-0.07588147000000001,57,57
1978,60204812,0,0,0,0.2585996,-0.1776786,-0.1776786,0,NaN,0,-0.005445004,57,57
2394,60308013,0,0,0,0.2585996,-0.1061451,-0.1061451,-0.14,NaN,0,0.06382259999999999,57,57
2808,60410910,0,0,0,0.2585996,-0.03929868,-0.03929868,-0.06,NaN,0,0.130669,57,57
3220,60513534,0,0,0,0.2585996,0.02507366,0.02507366,-0.33,NaN,0,0.1928517,57,57
3631,60615964,0,0,0,0.2585996,0.08347465,0.08347465,0.01,NaN,0,0.2512527,57,57
4041,60718911,0,0,0,0.2585996,0.1401681,0.1401681,0,NaN,0,0.3048714,57,57
4456,60822262,0,0,0,0.2585996,0.196315,0.196315,-0.24,NaN,0,0.3610184,57,57
4867,60924816,0,0,0,0.2585996,0.2469535,0.2469535,-0.07000000000000001,NaN,0,0.4092307,57,57
5272,61027518,0,0,0,0.2585996,0.2957728,0.2957728,-0.25,NaN,0,0.45805,57,57
5659,61129656,0,0,0,0.2585996,0.3378467,0.3378467,-0.18,NaN,0,0.4970493,56,56
6068,61232128,0,0,0,0.2585996,0.3781307,0.3781307,-0.09,NaN,0,0.5341823999999999,56,56
6476,61334266,0,0,0,0.2585996,0.4172093,0.4172093,-0.19,NaN,0,0.5732609,56,56
6884,61436446,0,0,0,0.2585996,0.4525335,0.4525335,-0.16,NaN,0,0.6056021,55,55
7268,61541045,0,0,0,0.2585996,0.4828994,0.4828994,-0.1,NaN,0,0.635968,55,55
7681,61642838,0,0,0,0.2585996,0.5130448,0.5130448,-0.36,NaN,0,0.6638474,54,54
8087,61745514,0,0,0,0.2585996,0.5399565,0.5399565,-0.05,NaN,0,0.6907591,53,53
8507,61848549,0,0,0,0.2585996,0.5600186,0.5600186,-0.2,NaN,0,0.7069302,53,53
8920,61952073,0,0,0,0.2585996,0.5802972,0.5802972,-0.25,NaN,0,0.7272089,52,52
9303,62054269,0,0,0,0.2585996,0.6009648,0.6009648,-0.17,NaN,0,0.7448094,51,51
9712,62157903,0,0,0,0.2585996,0.6161972999999999,0.6161972999999999,-0.18,NaN,0,0.760042,50,50
10126,62259328,0,0,0,0.2585996,0.6327869,0.6327869,-0.06,NaN,0,0.7719317999999999,49,49
10535,62362109,0,0,0,0.2585996,0.6452019,0.6452019,-0.35,NaN,0,0.7843468,48,48
10872,62464278,0,0,0,0.2585996,0.6575145,0.6575145,-0.37,NaN,0,0.79537,47,47
11279,62568318,0,0,0,0.2585996,0.6623096000000001,0.6623096000000001,-0.29,NaN,0,0.8001652,46,46
11663,62670294,0,0,0,0.2585996,0.6663525,0.6663525,-0.15,NaN,0,0.8001722,45,45
12073,62772888,0,0,0,0.2585996,0.6704494,0.6704494,-0.32,NaN,0,0.804269,44,44
12489,62875310,0,0,0,0.2585996,0.671813,0.671813,-0.5,NaN,0,0.8031988,43,43
12900,62979248,0,0,0,0.2585996,0.6678958,0.6678958,-0.44,NaN,0,0.7992816,42,42
13307,63081482,0,0,0,0.2585996,0.6601907,0.6601907,-0.32,NaN,0,0.7901193,40,40
13713,63183822,0,0,0,0.2585996,0.6515814,0.6515814,-0.35,NaN,0,0.78151,39,39
14129,63285851,0,0,0,0.2585996,0.6421474,0.6421474,-0.36,NaN,0,0.7675441,38,38
14542,63386854,0,0,0,0.2585996,0.6330029,0.6330029,-0.4,NaN,0,0.7583996,37,37
14949,63491050,0,0,0,0.2585996,0.6172451,0.6172451,-0.11,NaN,0,0.7382016,35,35
15363,63592900,0,0,0,0.2585996,0.6084252,0.6084252,-0.33,NaN,0,0.7293816,34,34
15771,63695557,0,0,0,0.2585996,0.5961193,0.5961193,-0.33,NaN,0,0.712315,33,33
16156,63796328,0,0,0,0.2585996,0.5855452,0.5855452,-0.38,NaN,0,0.7017409,32,32
16570,63898279,0,0,0,0.2585996,0.5735489,0.5735489,-0.32,NaN,0,0.6866699000000001,30,30
16978,64000262,0,0,0,0.2585996,0.5616593,0.5616593,-0.38,NaN,0,0.6747803999999999,29,29
17388,64105892,0,0,0,0.2585996,0.5439404,0.5439404,-0.25,NaN,0,0.6517972,28,28
17800,64207146,0,0,0,0.2585996,0.5302341,0.5302341,-0.28,NaN,0,0.6380908,27,27
18211,64310376,0,0,0,0.2585996,0.5050581,0.5050581,-0.29,NaN,0,0.6122663,25,25
18625,64412774,0,0,0,0.2585996,0.47359,0.47359,-0.44,NaN,0,0.5807982,23,23
19033,64514253,0,0,0,0.2585996,0.4385613,0.4385613,-0.33,NaN,0,0.5441598,21,21
19446,64615903,0,0,0,0.2585996,0.4006458,0.4006458,-0.33,NaN,0,0.5062442,19,19
19827,64720471,0,0,0,0.2585996,0.3607693,0.3607693,-0.27,NaN,0,0.4663677,17,17
20242,64824553,0,0,0,0.2585996,0.3222508,0.3222508,-0.23,NaN,0,0.4278493,15,15
20655,64928541,0,0,0,0.2585996,0.2861145,0.2861145,-0.29,NaN,0,0.3910645,13,13
21066,65029291,0,0,0,0.2585996,0.2654395,0.2654395,-0.05,NaN,0,0.3703895,12,12
21447,65132224,0,0,0,0.2585996,0.2363776,0.2363776,-0.44,NaN,0,0.3414955,11,11
21860,65233945,0,0,0,0.2585996,0.2140958,0.2140958,-0.33,NaN,0,0.3175885,10,10
22273,65336045,0,0,0,0.2585996,0.1848058,0.1848058,-0.41,NaN,0,0.2874898,8,8
22685,65438679,0,0,0,0.2585996,0.1582338,0.1582338,-0.15,NaN,0,0.2610857,7,7
23093,65542825,0,0,0,0.2585996,0.1264232,0.1264232,-0.37,NaN,0,0.2284664,5,5
23474,65645857,0,0,0,0.2585996,0.1023432,0.1023432,-0.22,NaN,0,0.2045542,4,4
23886,65747268,0,0,0,0.2585996,0.07776234,0.07776234,-0.41,NaN,0,0.1783483,3,3
24294,65849938,0,0,0,0.2585996,0.05269387,0.05269387,-0.32,NaN,0,0.1526466,2,2
24708,65951963,0,0,0,0.2585996,0.03117451,0.03117451,-0.44,NaN,0,0.1311272,1,1
25117,66056019,0,0,0,0.2585996,0.009159029000000001,0.009159029000000001,-0.28,NaN,0,0.1076545,0,0
25500,66158115,0,0,0,0.2585996,-0.01018977,-0.01018977,-0.44,NaN,0,0.08854985,0,0
25910,66261337,0,0,0,0.2585996,-0.0319934,-0.0319934,-0.41,NaN,0,0.06594513,-1,-1
26324,66364133,0,0,0,0.2585996,-0.05369333,-0.05369333,-0.32,NaN,0,0.042788,-2,-2
26729,66467897,0,0,0,0.2585996,-0.07143097,-0.07143097,-0.28,NaN,0,0.02505035,-3,-3
27141,66570370,0,0,0,0.2585996,-0.08620704999999999,-0.08620704999999999,-0.42,NaN,0,0.008649208,-4,-4
27551,66672260,0,0,0,0.2585996,-0.1008833,-0.1008833,-0.51,NaN,0,-0.007560551,-4,-4
27966,66775010,0,0,0,0.2585996,-0.1171338,-0.1171338,-0.24,NaN,0,-0.0246121,-5,-5
28347,66878080,0,0,0,0.2585996,-0.1334105,-0.1334105,-0.45,NaN,0,-0.04251391,-6,-6
28762,66980488,0,0,0,0.2585996,-0.1468417,-0.1468417,-0.24,NaN,0,-0.05578493,-7,-7
29171,67083520,0,0,0,0.2585996,-0.1595212,-0.1595212,-0.4,NaN,0,-0.06927311,-7,-7
29584,67184284,0,0,0,0.2585996,-0.1705773,-0.1705773,-0.54,NaN,0,-0.08170246,-7,-7
29987,67287339,0,0,0,0.2585996,-0.1832285,-0.1832285,-0.49,NaN,0,-0.0941935,-8,-8
30401,67387831,0,0,0,0.2585996,-0.1966671,-0.1966671,-0.38,NaN,0,-0.1082654,-8,-8
30809,67492559,0,0,0,0.2585996,-0.2109122,-0.2109122,-0.59,NaN,0,-0.1233191,-9,-9
31223,67594916,0,0,0,0.2585996,-0.226174,-0.226174,-0.25,NaN,0,-0.1400381,-9,-9
31603,67695913,0,0,0,0.2585996,-0.2399019,-0.2399019,-0.31,NaN,0,-0.1545748,-10,-10
32020,67798261,0,0,0,0.2585996,-0.2530216,-0.2530216,-0.39,NaN,0,-0.169144,-10,-10
32428,67901946,0,0,0,0.2585996,-0.2648081,-0.2648081,-0.48,NaN,0,-0.1833566,-11,-11
32843,68003294,0,0,0,0.2585996,-0.2766631,-0.2766631,-0.35,NaN,0,-0.1958602,-11,-11
33251,68107796,0,0,0,0.2585996,-0.2867497,-0.2867497,-0.41,NaN,0,-0.208373,-11,-11
33663,68209510,0,0,0,0.2585996,-0.2971779,-0.2971779,-0.21,NaN,0,-0.219442,-11,-11
34074,68311367,0,0,0,0.2585996,-0.3065087,-0.3065087,-0.36,NaN,0,-0.2303902,-12,-12
34487,68413232,0,0,0,0.2585996,-0.316337,-0.316337,-0.25,NaN,0,-0.2424768,-12,-12
34894,68517648,0,0,0,0.2585996,-0.3267128,-0.3267128,-0.29,NaN,0,-0.253669,-12,-12
35307,68620653,0,0,0,0.2585996,-0.3376495,-0.3376495,-0.27,NaN,0,-0.2654144,-13,-13
35715,68722362,0,0,0,0.2585996,-0.3492391,-0.3492391,-0.3,NaN,0,-0.2784536,-13,-13
36131,68826269,0,0,0,0.2585996,-0.3609576,-0.3609576,-0.19,NaN,0,-0.2909808,-14,-14
36538,68928513,0,0,0,0.2585996,-0.3713799,-0.3713799,-0.48,NaN,0,-0.3030205,-14,-14
36954,69030273,0,0,0,0.2585996,-0.3833455,-0.3833455,-0.27,NaN,0,-0.3155508,-14,-14
37335,69133141,0,0,0,0.2585996,-0.3937064,-0.3937064,-0.37,NaN,0,-0.3267204,-15,-15
37747,69235905,0,0,0,0.2585996,-0.4043294,-0.4043294,-0.53,NaN,0,-0.3397694,-15,-15
38158,69339836,0,0,0,0.2585996,-0.4160758,-0.4160758,-0.4,NaN,0,-0.3529655,-15,-15
38567,69443370,0,0,0,0.2585996,-0.4282141,-0.4282141,-0.3,NaN,0,-0.3657446,-15,-15
38980,69546278,0,0,0,0.2585996,-0.4380466,-0.4380466,-0.42,NaN,0,-0.3780033,-16,-16
39386,69648551,0,0,0,0.2585996,-0.4480819,-0.4480819,-0.51,NaN,0,-0.3887709,-16,-16
39800,69751134,0,0,0,0.2585996,-0.4587205,-0.4587205,-0.32,NaN,0,-0.401027,-16,-16
40182,69855537,0,0,0,0.2585996,-0.4696523,-0.4696523,-0.44,NaN,0,-0.4127676,-16,-16
40596,69958266,0,0,0,0.2585996,-0.4783977,-0.4783977,-0.57,NaN,0,-0.4236873,-16,-16
41006,70063121,0,0,0,0.2585996,-0.4876453,-0.4876453,-0.5,NaN,0,-0.4345524,-16,-16
41417,70167132,0,0,0,0.2585996,-0.4957175,-0.4957175,-0.61,NaN,0,-0.4440817,-16,-16
41828,70270570,0,0,0,0.2585996,-0.5070313,-0.5070313,-0.62,NaN,0,-0.457013,-17,-17
42241,70372657,0,0,0,0.2585996,-0.5162902,-0.5162902,-0.41,NaN,0,-0.467073,-17,-17
42622,70474908,0,0,0,0.2585996,-0.5265836,-0.5265836,-0.8,NaN,0,-0.4789914,-17,-17
43036,70578476,0,0,0,0.2585996,-0.5385362,-0.5385362,-0.54,NaN,0,-0.4915925,-17,-17
43445,70682250,0,0,0,0.2585996,-0.550288,-0.550288,-0.46,NaN,0,-0.5057705,-17,-17
43858,70785053,0,0,0,0.2585996,-0.5580491,-0.5580491,-0.46,NaN,0,-0.5143327,-17,-17
44269,70887848,0,0,0,0.2585996,-0.5661228,-0.5661228,-0.58,NaN,0,-0.5240238,-17,-17
44681,70990447,0,0,0,0.2585996,-0.5754846,-0.5754846,-0.65,NaN,0,-0.5358117999999999,-17,-17
45064,71092466,0,0,0,0.2585996,-0.5848621000000001,-0.5848621000000001,-0.47,NaN,0,-0.5459979,-17,-17
45476,71195136,0,0,0,0.2585996,-0.595282,-0.595282,-0.37,NaN,0,-0.5578675,-17,-17
45886,71298951,0,0,0,0.2585996,-0.6021893,-0.6021893,-0.49,NaN,0,-0.5663922,-17,-17
46299,71401716,0,0,0,0.2585996,-0.6102176,-0.6102176,-0.36,NaN,0,-0.5760379,-17,-17
46680,71505511,0,0,0,0.2585996,-0.6152028,-0.6152028,-0.47,NaN,0,-0.581664,-17,-17
47094,71608919,0,0,0,0.2585996,-0.6170207,-0.6170207,-0.57,NaN,0,-0.5850993,-16,-16
47502,71714838,0,0,0,0.2585996,-0.6189044,-0.6189044,-0.68,NaN,0,-0.5877994,-16,-16
47927,71820492,0,0,0,0.2585996,-0.6263742,-0.6263742,-0.31,NaN,0,0.003625741,-16,-16
48361,71924119,0,0,0,0.2585996,-0.6324974,-0.6324974,-0.35,NaN,0,-0.00331373,-16,-16
48814,72027315,0,0,0,0.2585996,-0.6391211999999999,-0.6391211999999999,-0.73,NaN,0,-0.01073862,-16,-16
49261,72130280,0,0,0,0.2585996,-0.6445946,-0.6445946,-0.75,NaN,0,-0.01864589,-16,-16
49715,72233939,0,0,0,0.2585996,-0.6528589,-0.6528589,-0.49,NaN,0,-0.02835972,-16,-16
50128,72338479,0,0,0,0.2585996,-0.6569854000000001,-0.6569854000000001,-0.42,NaN,0,-0.03328729,-16,-16
50575,72441433,0,0,0,0.2585996,-0.6644171,-0.6644171,-0.44,NaN,0,-0.04136754,-16,-16
51026,72543347,0,0,0,0.2585996,-0.6690739,-0.6690739,-0.43,NaN,0,-0.04763413,-15,-15
51476,72646934,0,0,0,0.2585996,-0.6750657,-0.6750657,-0.38,NaN,0,-0.05589945,-15,-15
51931,72750827,0,0,0,0.2585996,-0.6781376,-0.6781376,-0.31,NaN,0,-0.05978007,-15,-15
52349,72853027,0,0,0,0.2585996,-0.6842576,-0.6842576,-0.27,NaN,0,-0.06751759,-15,-15
52800,72955382,0,0,0,0.2585996,-0.6867981,-0.6867981,-0.53,NaN,0,-0.07085908,-15,-15
53248,73059099,0,0,0,0.2585996,-0.6906434,-0.6906434,-0.49,NaN,0,-0.07552076000000001,-15,-15
53699,73161471,0,0,0,0.2585996,-0.6953542,-0.6953542,-0.52,NaN,0,-0.08184899,-14,-14
54147,73266345,0,0,0,0.2585996,-0.7008114,-0.7008114,-0.37,NaN,0,-0.0881073,-14,-14
54599,73369564,0,0,0,0.2585996,-0.7069141,-0.7069141,-0.29,NaN,0,-0.09582735000000001,-14,-14
55015,73473460,0,0,0,0.2585996,-0.7117281,-0.7117281,-0.45,NaN,0,-0.1014502,-14,-14
55467,73575954,0,0,0,0.2585996,-0.716693,-0.716693,-0.55,NaN,0,-0.1080325,-14,-14
55918,73678963,0,0,0,0.2585996,-0.7209132,-0.7209132,-0.31,NaN,0,-0.1130614,-14,-14
56372,73781864,0,0,0,0.2585996,-0.7236915,-0.7236915,-0.23,NaN,0,-0.116656,-14,-14
56821,73884959,0,0,0,0.2585996,-0.7271260000000001,-0.7271260000000001,-0.38,NaN,0,-0.1217079,-13,-13
57049,73986876,0,0,0,0.2585996,-0.7310576,-0.7310576,-0.38,NaN,0,-0.1256395,-13,-13
57498,74089491,0,0,0,0.2585996,-0.7351606000000001,-0.7351606000000001,-0.57,NaN,0,-0.1305436,-13,-13
57948,74192098,0,0,0,0.2585996,-0.7402601,-0.7402601,-0.45,NaN,0,-0.1372682,-13,-13
58365,74296907,0,0,0,0.2585996,-0.7449467,-0.7449467,-0.5,NaN,0,-0.1429237,-13,-13
58817,74400345,0,0,0,0.2585996,-0.751109,-0.751109,-0.7,NaN,0,-0.1507034,-13,-13
59266,74504493,0,0,0,0.2585996,-0.755672,-0.755672,-0.44,NaN,0,-0.1560752,-13,-13
59717,74606043,0,0,0,0.2585996,-0.7610186,-0.7610186,-0.38,NaN,0,-0.1614219,-12,-12
60166,74709273,0,0,0,0.2585996,-0.7627831,-0.7627831,-0.4,NaN,0,-0.1639949,-12,-12
60618,74811907,0,0,0,0.2585996,-0.7635458000000001,-0.7635458000000001,-0.3,NaN,0,-0.1663674,-12,-12
61065,74916120,0,0,0,0.2585996,-0.7647635,-0.7647635,-0.28,NaN,0,-0.1675853,-12,-12
61696,75118542,0,0,0,0.2585996,-0.7693737,-0.7693737,-0.36,NaN,0,-0.1721954,-11,-11
62151,75221419,0,0,0,0.2585996,-0.7685254,-0.7685254,-0.2,NaN,0,-0.1721634,-11,-11
62600,75323924,0,0,0,0.2585996,-0.7674515,-0.7674515,-0.07000000000000001,NaN,0,-0.1710895,-11,-11
63022,75426068,0,0,0,0.2585996,-0.7674913,-0.7674913,0.25,NaN,0,-0.1703131,-11,-11
63439,75531464,0,0,0,0.2585996,-0.7637905,-0.7637905,0.11,NaN,0,-0.16678,-10,-10
63894,75636023,0,0,0,0.2585996,-0.7618305,-0.7618305,0.06,NaN,0,-0.16482,-10,-10
64345,75739484,0,0,0,0.2585996,-0.7567253,-0.7567253,0.16,NaN,0,-0.1597148,-10,-10
64760,75842266,0,0,0,0.2585996,-0.7511508,-0.7511508,0.27,NaN,0,-0.1541404,-9,-9
65214,75945251,0,0,0,0.2585996,-0.7417699,-0.7417699,0.14,NaN,0,-0.1457359,-9,-9
65663,76048894,0.0149999,9.028241e-06,0.00285713,0.2585996,-0.731349,-0.731349,0.2,NaN,0,-0.1353151,-10,-10
66117,76153225,0.06499939,3.455579e-05,0.03236425,0.2585996,-0.7181994,-0.7181994,0.11,NaN,0,-0.1221656,-8,-8
66564,76258470,0.112499,6.628782e-05,0.07622036,0.2585996,-0.7047935,-0.7047935,0.22,NaN,0,-0.1087595,-7,-7
67015,76361937,0.1624988,0.0001010448,0.1228997,0.2585996,-0.692585,-0.692585,0.11,NaN,0,-0.09655107,-6,-6
67431,76467854,0.2099988,0.0001289994,0.1711565,0.2585996,-0.6772875,-0.6772875,0.22,NaN,0,-0.0812536,-8,-8
67882,76576493,0.2599987,0.00015378,0.2197018,0.2585996,-0.6617887,-0.6617887,0.74,NaN,0,-0.06575478,-6,-6
68332,76682794,0.3099987,0.000253737,0.2693214,0.2585996,-0.6453411,-0.6453411,0.9,NaN,0,-0.04930717,-3,-3
68785,76788068,0.3229275,0.0002031028,0.3133563,0.2585996,-0.629838,-0.6195025,0.52,NaN,0,-0.02330841,8,10
69235,76896498,0.2854408,8.714199e-05,0.3005753,0.2585996,-0.6128185,-0.5727047,0.63,NaN,0,0.02332925,22,36
69687,77001811,0.3061771,4.526973e-05,0.2994933,0.2585996,-0.5755552,-0.5025591,0.43,NaN,0,0.09380291,41,58
70134,77108346,0.2794212,8.761883e-06,0.2909825,0.2585996,-0.5178895999999999,-0.4076535,0.54,NaN,0,0.1888763,57,77
70590,77213806,0.2724087,3.215671e-05,0.2805232,0.2585996,-0.4402699,-0.2964247,0.64,NaN,0,0.3004409,71,92
71006,77317489,0.2678022,0.000100255,0.269465,0.2585996,-0.3499016,-0.1776375,0.84,NaN,0,0.4205326,81,104
71458,77423022,0.2813443,0.000233382,0.2747208,0.2585996,-0.244763,-0.03948266,0.87,NaN,0,0.5615333,90,109
71904,77527531,0.2719554,0.0003795028,0.2737295,0.2585996,-0.1323604,0.1275457,1.07,NaN,0,0.7313082,93,114
72324,77632911,0.2647102,0.000556618,0.2701121,0.2585996,-0.008641688999999999,0.2985796,1.06,NaN,0,0.9051039,96,117
72775,77739528,0.2590085,0.0006918907,0.2660389,0.2585996,0.1186431,0.4861272,0.98,NaN,0,1.09362,96,118
73192,77846110,0.2571639,0.0006798208,0.2603026,0.2585996,0.2513127,0.6638419,1.21,NaN,0,1.273281,97,118
73645,77950886,0.2582465,0.0006920695,0.2592258,0.2585996,0.3920273,0.8352447,0.96,NaN,0,1.445103,98,116
74095,78058008,0.2621717,0.0006119013,0.2598785,0.2585996,0.5365445,0.9974172,1.27,NaN,0,1.607436,100,115
74546,78163699,0.2674465,0.000582546,0.2638936,0.2585996,0.6841806,1.151783,1.41,NaN,0,1.762686,102,112
74998,78270699,0.2706884,0.0006062984,0.2666462,0.2585996,0.8343005,1.297593,1.6,NaN,0,1.909481,104,111
75450,78376373,0.2669289,0.000587821,0.267535,0.2585996,0.9864896,1.44617,1.46,NaN,0,2.060484,107,111
75864,78482290,0.2797584,0.0005722344000000001,0.2715296,0.2585996,1.140661,1.587538,1.69,NaN,0,2.203721,111,112
76316,78589908,0.2765619,0.0005555749,0.2787033,0.2585996,1.298773,1.731007,1.68,NaN,0,2.348159,117,115
76768,78696701,0.2646354,0.0005326569,0.2730662,0.2585996,1.457218,1.876932,1.64,NaN,0,2.493275,122,121
77219,78801260,0.2732105,0.0004743636,0.2684971,0.2585996,1.623309,2.016455,1.95,NaN,0,2.631348,128,127
77667,78906581,0.2735022,0.0005099773,0.2732077,0.2585996,1.783841,2.16027,2.13,NaN,0,2.773074,132,130
78118,79012014,0.2763377,0.000636518,0.2761735,0.2585996,1.950977,2.305294,2.29,NaN,0,2.917281,137,133
78560,79122895,0.271575,0.0007123053,0.2743737,0.2585996,2.115636,2.463485,2.32,NaN,0,3.074663,139,137
78976,79231151,0.2745707,0.0006508827,0.271708,0.2585996,2.281759,2.620776,2.56,NaN,0,3.230345,141,140
79420,79337693,0.2791367,0.0006264448,0.2743542,0.2585996,2.449031,2.782313,2.72,NaN,0,3.389288,143,141
79833,79446268,0.2773564,0.0005858541000000001,0.2771509,0.2585996,2.621805,2.946357,2.8,NaN,0,3.552195,145,143
80277,79551475,0.2832796,0.0004791021,0.2800191,0.2585996,2.790857,3.107675,3.11,NaN,0,3.712933,146,144
80721,79660052,0.2763056,0.0004604459,0.2801228,0.2585996,2.956061,3.271063,3.38,NaN,0,3.875825,147,145
81166,79765859,0.2698556,0.0003738999,0.2739004,0.2585996,3.126216,3.432947,3.45,NaN,0,4.037854,148,148
81579,79873066,0.269487,0.0003432333,0.2705023,0.2585996,3.296736,3.597299,3.7,NaN,0,4.203153,149,150
82027,79980135,0.2727225,0.000298351,0.2701053,0.2585996,3.467555,3.761335,4,NaN,0,4.366532,150,151
82469,80088145,0.269934,0.0001979768,0.2713308,0.2585996,3.638575,3.928906,3.84,NaN,0,4.533524,151,152
82916,80194878,0.2681389,8.177757e-05,0.2686203,0.2585996,3.809777,4.094714,3.86,NaN,0,4.696737,151,152
83359,80303880,0.2768242,7.387996e-05,0.2733403,0.2585996,3.981219,4.260611,4.57,NaN,0,4.86004,152,151
83809,80410846,0.276366,0.0002018809,0.272902,0.2585996,4.152823,4.425063,4.63,NaN,0,5.023684,153,152
84219,80518915,0.2763081,0.0002931952,0.2755937,0.2585996,4.324645,4.598234,4.81,NaN,0,5.192651,153,152
84668,80625112,0.2716884,0.0002909899,0.2770087,0.2585996,4.496572,4.768083,4.94,NaN,0,5.359089,153,153
85112,80734797,0.2559566,0.0001783967,0.2685947,0.2585996,4.664047,4.942153,5.31,NaN,0,5.529764,153,155
85556,80841494,0.2580547,0.0001575053,0.2615411,0.2585996,4.831656,5.117848,5.51,NaN,0,5.702217,152,156
85999,80948905,0.2571921,0.0001468956,0.2581683,0.2585996,5.003835,5.29698,5.48,NaN,0,5.876504,151,156
86413,81058233,0.2402365,9.819865e-05,0.250836,0.2585996,5.179804,5.480323,5.62,NaN,0,6.058398,149,156
86861,81166269,0.2306805,5.614758e-05,0.2373154,0.2585996,5.348973,5.657652,5.78,NaN,0,6.232492,145,154
87271,81274320,0.230253,0.0001000762,0.2327578,0.2585996,5.514444,5.834704,6.04,NaN,0,6.406142,139,149
87719,81381023,0.2208201,0.0001608878,0.2287156,0.2585996,5.674919,6.003924,6.28,NaN,0,6.572942,132,143
88161,81488917,0.2332825,0.0002850741,0.2295216,0.2585996,5.825249,6.167174,6.2,NaN,0,6.735376,124,133
88577,81594895,0.2418739,0.000295803,0.238313,0.2585996,5.972482,6.313955,6.45,NaN,0,6.880372,116,121
89022,81703129,0.2265629,0.0001731813,0.2373519,0.2585996,6.107985,6.451643,6.22,NaN,0,7.017251,107,111
89436,81811246,0.2231423,6.79642e-05,0.2267541,0.2585996,6.238249,6.579197,6.68,NaN,0,7.144638,98,102
89876,81919913,0.2268613,4.380941e-05,0.225872,0.2585996,6.355878,6.700881,6.5,NaN,0,7.266885,87,91
90324,82026870,0.2293694,6.188452e-05,0.2276853,0.2585996,6.466903,6.80343,6.92,NaN,0,7.371052,77,80
90768,82134107,0.2352778,8.605421e-05,0.2313477,0.2585996,6.565464,6.893723,6.92,NaN,0,7.461911,68,69
91175,82240106,0.2303771,4.921854e-05,0.2307254,0.2585996,6.657103,6.969241,6.95,NaN,0,7.539687,60,59
91622,82346268,0.2331981,1.54227e-05,0.2297852,0.2585996,6.73947,7.032036,7.14,NaN,0,7.604655,52,50
92068,82459795,0.2254252,1.224875e-05,0.2265043,0.2585996,6.816787,7.088334,7.17,NaN,0,7.663387,45,43
92513,82565482,0.227841,1.588464e-05,0.2267465,0.2585996,6.881968,7.13273,7.16,NaN,0,7.709225,39,36
92956,82671806,0.2277732,6.201863e-05,0.2296818,0.2585996,6.939764,7.169546,7.26,NaN,0,7.749925,34,30
93401,82777112,0.2398081,0.0001015067,0.2337024,0.2585996,6.990851,7.198057,7.11,NaN,0,7.780861,29,24
93813,82885335,0.2348534,9.045005000000001e-05,0.2364985,0.2585996,7.035912,7.220405,7.2,NaN,0,7.806277,26,20
94260,82991874,0.2459799,0.0001122802,0.2381519,0.2585996,7.07563,7.237007,7.48,NaN,0,7.825138,23,15
94670,83098927,0.2378387,0.000159651,0.2419551,0.2585996,7.110651,7.251673,7.36,NaN,0,7.84142,20,13
95117,83207697,0.2390531,0.0002419651,0.2426134,0.2585996,7.141546,7.264978,7.23,NaN,0,7.85732,18,10
95526,83315248,0.2463234,0.000261277,0.2432546,0.2585996,7.16814,7.273939,7.39,NaN,0,7.868706,16,9
95973,83421913,0.2488298,0.0001987964,0.2463187,0.2585996,7.192338,7.280784,7.24,NaN,0,7.877337,15,8
96413,83530152,0.2486643,0.0001451969,0.2488271,0.2585996,7.213814,7.2845,7.36,NaN,0,7.882663,14,6
96831,83638062,0.2511782,0.0001586974,0.2487911,0.2585996,7.232972,7.28865,7.23,NaN,0,7.888606,13,7
97273,83744815,0.2498906,0.0001912266,0.2515074,0.2585996,7.249723,7.291981,7.15,NaN,0,7.892906,12,6
97682,83849936,0.2453707,0.0001577735,0.2498885,0.2585996,7.264863,7.294889,7.34,NaN,0,7.897683,12,7
98128,83958478,0.2510604,0.0002243519,0.2470186,0.2585996,7.278971,7.298336,7.16,NaN,0,7.902098,12,7
98570,84067125,0.2611459,0.000305146,0.2518866,0.2585996,7.291811,7.302285,7.07,NaN,0,7.906208,11,9
99019,84175288,0.2469865,0.0003679842,0.2513337,0.2585996,7.303544,7.304792,7,NaN,0,7.910424,11,8
99460,84284556,0.2512697,0.0003952384,0.251406,0.2585996,7.314313,7.306596,6.95,NaN,0,7.91248,11,8
99905,84391704,0.2510355,0.00028795,0.25018,0.2585996,7.324255,7.307823,6.82,NaN,0,7.913707,11,9
100348,84498886,0.2520311,0.0002216101,0.2513559,0.2585996,7.333506,7.306774,7.05,NaN,0,7.912818,12,8
100794,84605129,0.2519855,0.0003191829,0.25451,0.2585996,7.342195,7.30482,7.06,NaN,0,7.909246,12,8
101239,84714897,0.253131,0.0006827414,0.2537659,0.2585996,7.350446,7.303559,6.91,NaN,0,7.908153,13,9
101682,84823095,0.2627675,0.001084864,0.2573534,0.2585996,7.358363,7.301887,7.51,NaN,0,7.90584,13,9
102124,84932883,0.2569335,0.001176894,0.2586622,0.2585996,7.366022,7.303921,7.23,NaN,0,7.903992,14,9
102573,85038327,0.2612931,0.001277208,0.2618298,0.2585996,7.373431,7.309564,7.35,NaN,0,7.906575,14,10
103015,85145278,0.2602616,0.0009515584000000001,0.2607739,0.2585996,7.38055,7.315989,7.08,NaN,0,7.910093,13,10
103423,85255137,0.2713345,0.0008875728,0.2678457,0.2585996,7.387155,7.320564,7.11,NaN,0,7.911761,13,8
103872,85362943,0.27519,0.001126885,0.2737652,0.2585996,7.393747,7.32146,6.93,NaN,0,7.909033,13,7
104281,85471369,0.2695859,0.001177698,0.2733224,0.2585996,7.399854,7.319687,6.95,NaN,0,7.905727,14,8
104725,85574959,0.2644705,0.001106471,0.2706423,0.2585996,7.405734,7.31495,6.75,NaN,0,7.898975,15,9
105172,85681035,0.2635424,0.0008907318,0.2682608,0.2585996,7.411339,7.311648,7.04,NaN,0,7.8944,15,11
105619,85787120,0.2685671,0.001131147,0.2691776,0.2585996,7.417068,7.309018,6.73,NaN,0,7.891281,16,12
106065,85894945,0.2679058,0.002320915,0.2701687,0.2585996,7.422801,7.305972,6.83,NaN,0,7.888403,17,13
106512,86003010,0.2510786,0.003684431,0.264303,0.2585996,7.428578,7.305089,7.01,NaN,0,7.887688,18,15
106958,86111497,0.2560714,0.004668564,0.2597906,0.2585996,7.434406,7.311496,7.06,NaN,0,7.894575,18,19
107405,86219941,0.2553612,0.005136639,0.26105,0.2585996,7.440182,7.322297,7.11,NaN,0,7.907139,17,18
107846,86327992,0.2492361,0.004269093,0.2581874,0.2585996,7.445736,7.335929,6.98,NaN,0,7.922274,16,19
108291,86435345,0.2578722,0.003523201,0.2593253,0.2585996,7.450889,7.347552,6.83,NaN,0,7.935965,15,17
108732,86544376,0.2634267,0.003314167,0.2635573,0.2585996,7.45552,7.3546,6.72,NaN,0,7.944851,14,15
109183,86655953,0.2655843,0.003695875,0.268507,0.2585996,7.459702,7.356663,6.8,NaN,0,7.949378,14,12
109632,86763024,0.2614695,0.004403621,0.2666699,0.2585996,7.463282,7.358484,6.79,NaN,0,7.95213,14,12
110077,86872657,0.2580225,0.005304664,0.2663527,0.2585996,7.466444,7.357058,6.67,NaN,0,7.950414,14,13
110524,86978540,0.2628706,0.00546068,0.2662996,0.2585996,7.469266,7.355475,7.04,NaN,0,7.946764,14,12
110934,87085148,0.2647125,0.005488217,0.2653187,0.2585996,7.471844,7.353948,7.05,NaN,0,7.942834,14,13
111381,87191099,0.2625494,0.005272329,0.2669839,0.2585996,7.474243,7.354022,7.05,NaN,0,7.939695,14,12
111821,87298852,0.2646819,0.005236924,0.2689075,0.2585996,7.476432,7.355188,7.24,NaN,0,7.93327,14,12
112267,87406521,0.2501376,0.004656523,0.2642078,0.2585996,7.478533,7.3588,7.33,NaN,0,7.929841,14,14
112707,87514067,0.2382533,0.004343912,0.2517357,0.2585996,7.480354,7.366632,7.42,NaN,0,7.928928,13,17
113123,87620350,0.2369355,0.004096523,0.2464294,0.2585996,7.481997,7.37873,7.66,NaN,0,7.930498,11,18
113566,87729709,0.2448374,0.003959611,0.2485791,0.2585996,7.483172,7.396997,7.64,NaN,0,7.936352,9,15
114014,87837377,0.2366191,0.003346696,0.2457377,0.2585996,7.483728,7.416186,7.55,NaN,0,7.942327,6,13
114457,87945324,0.2196463,0.002666593,0.2356713,0.2585996,7.483435,7.430575,7.74,NaN,0,7.941778,4,12
114867,88055241,0.214505,0.002335981,0.2247307,0.2585996,7.48219,7.448731,7.68,NaN,0,7.944575,1,12
115316,88163087,0.2151169,0.001856551,0.2189979,0.2585996,7.479863,7.467584,7.55,NaN,0,7.946438,-1,10
115758,88270045,0.2218846,0.001802489,0.2231614,0.2585996,7.476343,7.48133,7.72,NaN,0,7.943262,-4,4
116203,88375949,0.2150724,0.00166887,0.2209044,0.2585996,7.471607,7.489853,7.79,NaN,0,7.935756,-7,1
116613,88483005,0.2201559,0.001717284,0.2193914,0.2585996,7.465716,7.495072,7.59,NaN,0,7.923145,-9,-2
117060,88590269,0.2400497,0.001934335,0.2271563,0.2585996,7.4588,7.492583,7.18,NaN,0,7.90207,-11,-5
117502,88697689,0.2400696,0.001882613,0.2364925,0.2585996,7.451287,7.480168,7.44,NaN,0,7.873443,-11,-11
117947,88804915,0.2255013,0.001080066,0.2331652,0.2585996,7.443105,7.463404,7.66,NaN,0,7.839712,-10,-10
118358,88912376,0.2308466,0.0005130917,0.2294039,0.2585996,7.434801,7.44774,7.11,NaN,0,7.807157,-9,-10
118807,89019447,0.2293256,0.0004445612,0.2283714,0.2585996,7.42666,7.430933,7.49,NaN,0,7.776882,-8,-10
119220,89128898,0.2469396,0.0008450001,0.2370514,0.2585996,7.418927,7.413212,7.03,NaN,0,7.743232,-7,-10
119666,89236384,0.2536958,0.001450747,0.2460601,0.2585996,7.411823,7.393939,7.49,NaN,0,7.711455,-5,-10
120108,89343511,0.2488971,0.001844779,0.2477904,0.2585996,7.405562,7.374891,7.58,NaN,0,7.678185,-3,-9
120521,89450354,0.2519493,0.001950115,0.2524637,0.2585996,7.4003,7.362136,7.52,NaN,0,7.651286,-1,-6
120964,89559497,0.2392196,0.001393348,0.2489091,0.2585996,7.396074,7.354555,7.97,NaN,0,7.629384,0,-4
121412,89667030,0.2322979,0.0007051229,0.2379271,0.2585996,7.392824,7.35645,8.300000000000001,NaN,0,7.618675,0,0
121858,89772521,0.2243506,0.0002248138,0.2284103,0.2585996,7.390351,7.367044,7.81,NaN,0,7.61755,0,4
122270,89881036,0.2192574,4.537404e-05,0.2215612,0.2585996,7.388351,7.384686,7.78,NaN,0,7.623542,-1,5
122717,89986887,0.2108711,0.0008076578,0.215281,0.2585996,7.386461,7.401274,7.27,NaN,0,7.628999,-3,4
123162,90095231,0.2212018,0.001736045,0.220495,0.2585996,7.384386,7.412677,7.24,NaN,0,7.629347,-5,2
123607,90201519,0.2414695,0.002110511,0.2323976,0.2585996,7.381979,7.414176,7.64,NaN,0,7.620646,-5,-2
124020,90309150,0.2368151,0.001756504,0.2373515,0.2585996,7.37934,7.411968,7.54,NaN,0,7.610114,-6,-5
124467,90414509,0.2515583,0.001257807,0.2431516,0.2585996,7.376415,7.407595,7.7,NaN,0,7.596295,-6,-7
124908,90522919,0.2351656,0.0007982105,0.2458906,0.2585996,7.373384,7.401577,7.68,NaN,0,7.581259,-6,-8
125356,90629270,0.2280748,0.0008021742,0.2350864,0.2585996,7.370359,7.397104,7.74,NaN,0,7.568189,-5,-6
125797,90738005,0.2427924,0.0007672309999999999,0.2349299,0.2585996,7.367408,7.393728,7.49,NaN,0,7.556893,-5,-5
126245,90846105,0.2536256,0.0005053878,0.2414785,0.2585996,7.364509,7.388884,7.84,NaN,0,7.544222,-5,-6
126688,90952098,0.2487044,0.0008261949,0.2492995,0.2585996,7.361933,7.383452,7.63,NaN,0,7.531778,-4,-7
127264,91270375,0.2586131,0.003509551,0.2569369,0.2585996,7.355519,7.370404,7.56,NaN,0,7.505813,-3,-7
127710,91376830,0.2531226,0.003834963,0.2602493,0.2585996,7.354008,7.363267,8.050000000000001,NaN,0,7.496945,-2,-6
128153,91483531,0.2521912,0.003821462,0.2556433,0.2585996,7.352889,7.359552,7.9,NaN,0,7.495023,-1,-5
128600,91591221,0.2509091,0.003579825,0.2497752,0.2585996,7.352102,7.358766,7.55,NaN,0,7.496373,-1,-2
129041,91698092,0.2464782,0.003490373,0.2521642,0.2585996,7.351646,7.358943,7.44,NaN,0,7.502135,-1,-1
129486,91804828,0.2642969,0.003760219,0.2574382,0.2585996,7.351439,7.358024,7.52,NaN,0,7.507601,0,-2
129897,91911487,0.2710331,0.004132688,0.2639648,0.2585996,7.351469,7.35232,8.039999999999999,NaN,0,7.509923,0,-4
130344,92019276,0.2713285,0.004974514,0.2765379,0.2585996,7.351779,7.350419,7.96,NaN,0,7.514317,0,-6
130756,92127485,0.2689129,0.005428761,0.2775169,0.2585996,7.352348,7.359126,7.38,NaN,0,7.533407,0,-4
131203,92233143,0.2489519,0.004648507,0.2632895,0.2585996,7.353005,7.366464,7.59,NaN,0,7.553471,0,-1
131646,92341707,0.251761,0.00478822,0.25346,0.2585996,7.353588,7.378028,7.99,NaN,0,7.577684,-1,0
132091,92450851,0.2548248,0.005348325,0.2558297,0.2585996,7.353932,7.392774,7.67,NaN,0,7.608253,-3,0
132504,92558093,0.2531397,0.005989194,0.2539187,0.2585996,7.353819,7.409217,8.08,NaN,0,7.640512,-5,-1
132915,92665826,0.2432025,0.006370381,0.2516141,0.2585996,7.353113,7.425673,7.7,NaN,0,7.674394,-8,-2
133362,92772868,0.2439661,0.006819978,0.2534368,0.2585996,7.351613,7.440516,8.300000000000001,NaN,0,7.708051,-10,-5
133803,92881724,0.2583438,0.007271022,0.2581458,0.2585996,7.349302,7.452746,7.78,NaN,0,7.740797,-13,-9
134250,92988933,0.2641742,0.007453561,0.260812,0.2585996,7.346011,7.457619,8.09,NaN,0,7.768626,-15,-11
134693,93095841,0.2707497,0.008539110000000001,0.2686506,0.2585996,7.34186,7.458747,7.36,NaN,0,7.793344,-16,-17
135107,93200891,0.2649404,0.008721501,0.2795609,0.2585996,7.336995,7.44828,7.3,NaN,0,7.808658,-16,-20
135551,93310826,0.2663269,0.008488417,0.2750883,0.2585996,7.331833,7.431061,7.18,NaN,0,7.818019,-15,-20
135997,93416833,0.266541,0.007743329,0.2743352,0.2585996,7.32645,7.410455,7.47,NaN,0,7.825535,-13,-19
136408,93524133,0.2621909,0.006911397,0.2739817,0.2585996,7.321336,7.388302,7.45,NaN,0,7.833061,-11,-17
136856,93630719,0.2498282,0.005906478,0.262024,0.2585996,7.316804,7.371356,8.210000000000001,NaN,0,7.846494,-9,-12
137299,93737909,0.2648596,0.006072968,0.263242,0.2585996,7.313024,7.364175,8.08,NaN,0,7.872952,-8,-9
137745,93847812,0.2716206,0.00621888,0.2678935,0.2585996,7.309914,7.364518,7.37,NaN,0,7.906848,-8,-8
138187,93955676,0.2614109,0.005975634,0.2707417,0.2585996,7.307521,7.359271,7.09,NaN,0,7.937018,-7,-9
138632,94062062,0.2684815,0.005382329,0.2712041,0.2585996,7.305726,7.349443,7.43,NaN,0,7.962186,-5,-9
139046,94167942,0.2618998,0.00457266,0.2752258,0.2585996,7.304581,7.338643,7.01,NaN,0,7.985565,-4,-8
139489,94278141,0.2624039,0.003718048,0.2680013,0.2585996,7.304152,7.328707,7.34,NaN,0,8.012159,-2,-4
139937,94386251,0.2567854,0.003239542,0.2623623,0.2585996,7.30447,7.323439,7.41,NaN,0,8.041558,-1,-1
140380,94494366,0.2339898,0.002180487,0.2485151,0.2585996,7.305493,7.324538,8.19,NaN,0,8.076166000000001,0,3
140827,94601925,0.2370909,0.001481459,0.2342139,0.2585996,7.307066,7.340324,8.83,NaN,0,8.123271000000001,-1,5
141269,94710387,0.2452241,0.001363397,0.242455,0.2585996,7.308801,7.364801,8.83,NaN,0,8.179556,-3,4
141683,94817140,0.2266743,0.001819879,0.2382952,0.2585996,7.31034,7.39667,8.85,NaN,0,8.241521000000001,-7,3
142125,94924500,0.2159234,0.002743587,0.2253648,0.2585996,7.311151,7.434241,8.76,NaN,0,8.308298000000001,-12,2
142573,95032374,0.2195235,0.003451049,0.227507,0.2585996,7.310765,7.468153,8.57,NaN,0,8.368402,-16,-2
143015,95140051,0.2322875,0.003644228,0.2308477,0.2585996,7.308806,7.50061,8.42,NaN,0,8.425096999999999,-22,-10
143459,95249136,0.2257757,0.003551856,0.2303072,0.2585996,7.305043,7.523379,8.32,NaN,0,8.469747999999999,-26,-14
143908,95354540,0.2303367,0.00334321,0.2287163,0.2585996,7.299428,7.533625,8.460000000000001,NaN,0,8.499936,-30,-20
144321,95462365,0.2292801,0.003155082,0.2278495,0.2585996,7.292091,7.541463,7.77,NaN,0,8.526978,-33,-25
144767,95568861,0.2249577,0.003127009,0.2286196,0.2585996,7.283213,7.539724,6.74,NaN,0,8.541192000000001,-35,-29
145212,95676426,0.2459102,0.003337398,0.2333185,0.2585996,7.273105,7.514523,8.220000000000001,NaN,0,8.530317999999999,-35,-34
145655,95782129,0.244385,0.002985463,0.2455407,0.2585996,7.262384,7.478091,6.79,NaN,0,8.506505000000001,-32,-37
146096,95889303,0.2407265,0.002870977,0.2445529,0.2585996,7.251749,7.436475,7.31,NaN,0,8.477592,-29,-34
146539,95995298,0.2439528,0.002824619,0.2487422,0.2585996,7.241859,7.394656,6.38,NaN,0,8.444089999999999,-25,-33
146952,96102886,0.2686057,0.002986729,0.2502095,0.2585996,7.233484,7.358526,7.78,NaN,0,8.416359,-20,-29
147398,96210385,0.2526261,0.002356291,0.2585113,0.2585996,7.226542,7.327929,6.44,NaN,0,8.392607,-16,-25
147807,96318904,0.2459802,0.001633734,0.2538163,0.2585996,7.221498,7.301106,6.56,NaN,0,8.370773,-12,-19
148254,96425524,0.256643,0.00130111,0.2492003,0.2585996,7.218456,7.280575,7.05,NaN,0,8.354896999999999,-8,-14
148669,96533818,0.2314166,0.001266733,0.2501884,0.2585996,7.217417,7.261733,6.4,NaN,0,8.338915,-4,-7
149118,96644255,0.2581147,0.001162976,0.2469341,0.2585996,7.218394,7.240917,6.28,NaN,0,8.318913999999999,0,-4
149562,96752266,0.2559697,0.0009644628,0.2545528,0.2585996,7.221342,7.212228,6.65,NaN,0,8.290462,5,-1
150002,96859117,0.2637928,0.001130939,0.2603914,0.2585996,7.226369,7.188629,6.37,NaN,0,8.267253,10,1
150449,96965084,0.2655027,0.00150767,0.2647409,0.2585996,7.233507,7.167141,6.57,NaN,0,8.24485,15,5
150861,97071902,0.2596434,0.001994222,0.2641835,0.2585996,7.242733,7.149775,6.3,NaN,0,8.225827000000001,20,11
151307,97178343,0.2680817,0.002247334,0.2658966,0.2585996,7.253955,7.14005,6.56,NaN,0,8.212402000000001,24,16
151749,97286225,0.2661176,0.002215445,0.2674293,0.2585996,7.26665,7.131689,6.9,NaN,0,8.199684,28,20
152161,97390893,0.2617762,0.001892239,0.2643964,0.2585996,7.281305,7.135262,6.41,NaN,0,8.197521,30,25
152602,97499116,0.2457386,0.001243815,0.2575695,0.2585996,7.296835,7.144654,6.62,NaN,0,8.200756,32,29
153050,97604128,0.2440703,0.0008843243,0.2470743,0.2585996,7.313718,7.158782,6.8,NaN,0,8.208231,33,34
153493,97711140,0.2527895,0.001362741,0.249722,0.2585996,7.330678,7.175276,6.89,NaN,0,8.218386000000001,34,35
153939,97817394,0.2445747,0.001671985,0.2509901,0.2585996,7.348268,7.193898,7.11,NaN,0,8.232048000000001,33,34
154350,97924859,0.2276213,0.00211896,0.243048,0.2585996,7.365233,7.220368,7.51,NaN,0,8.252102000000001,32,37
154797,98029796,0.2270939,0.002811581,0.234727,0.2585996,7.382083,7.255692,7.35,NaN,0,8.282787000000001,29,37
155238,98137700,0.2279207,0.003546074,0.2307292,0.2585996,7.397886,7.294384,7.38,NaN,0,8.319190000000001,26,35
155679,98245798,0.2286613,0.003913179,0.2323731,0.2585996,7.412195,7.331873,7.34,NaN,0,8.354215999999999,22,32
156126,98352454,0.2352156,0.003802821,0.2371854,0.2585996,7.42466,7.36295,7.57,NaN,0,8.384544,18,26
156536,98461234,0.220645,0.001955807,0.2322077,0.2585996,7.435077,7.392294,7.39,NaN,0,8.413781,14,22
156984,98568828,0.2355801,5.799532e-05,0.2297738,0.2585996,7.44332,7.419291,7.4,NaN,0,8.441564,9,17
157428,98675134,0.2293451,0.0006391555,0.2336864,0.2585996,7.449331,7.439404,7.9,NaN,0,8.46424,6,12
157843,98782704,0.2300865,0.001433492,0.2291538,0.2585996,7.453161,7.45933,7.33,NaN,0,8.486333999999999,2,8
158286,98890596,0.2371949,0.001370922,0.232934,0.2585996,7.454854,7.47134,7.67,NaN,0,8.501333000000001,0,2
158733,98997025,0.2360424,0.0008697808,0.2355177,0.2585996,7.454651,7.478477,7.75,NaN,0,8.510408,-3,-1
159142,99103867,0.2361516,0.0004948974,0.2357413,0.2585996,7.452703,7.482399,7.67,NaN,0,8.517169000000001,-5,-3
159586,99210262,0.2333358,0.000253737,0.2329187,0.2585996,7.44925,7.4829,7.42,NaN,0,8.520424999999999,-7,-5
160029,99317092,0.2400192,0.0002114773,0.2341048,0.2585996,7.444814,7.479879,7.41,NaN,0,8.520654,-8,-8
160475,99423953,0.2316258,0.000265047,0.2347609,0.2585996,7.439161,7.472476,7.67,NaN,0,8.516821999999999,-9,-9
160918,99532102,0.2398635,0.000243485,0.2374099,0.2585996,7.432805,7.463257,7.55,NaN,0,8.510921,-10,-10
161335,99638238,0.246288,0.0001383126,0.2443411,0.2585996,7.426018,7.453126,7.61,NaN,0,8.505008999999999,-9,-12
161747,99745288,0.2462925,9.858608e-05,0.2446299,0.2585996,7.419037,7.443122,7.78,NaN,0,8.498256,-9,-12
162185,99853149,0.2442978,0.0001092702,0.2395848,0.2585996,7.412243,7.435929,7.63,NaN,0,8.496089,-9,-11
162600,99960501,0.2394215,0.0002352595,0.2459436,0.2585996,7.405387,7.429967,7.83,NaN,0,8.495063999999999,-9,-11
163044,100066381,0.23498,0.0002846867,0.2411081,0.2585996,7.398898,7.426612,7.76,NaN,0,8.496492999999999,-9,-10
163486,100172288,0.241348,0.0001598299,0.2373536,0.2585996,7.392453,7.426473,7.63,NaN,0,8.502755000000001,-10,-9
163929,100281031,0.241925,0.0001237839,0.2416453,0.2585996,7.386199,7.425287,7.5,NaN,0,8.506352,-10,-10
164345,100387068,0.2430971,0.0002174377,0.2443263,0.2585996,7.380125,7.420491,7.7,NaN,0,8.507300000000001,-10,-10
164789,100497325,0.2414418,0.0004066676,0.2437254,0.2585996,7.374421,7.417032,7.58,NaN,0,8.511281,-10,-10
165236,100602038,0.2529038,0.000671953,0.2464376,0.2585996,7.368805,7.412772,7.66,NaN,0,8.512438,-10,-10
165680,100709377,0.2445374,0.0006600469000000001,0.2436169,0.2585996,7.363595,7.409178,7.71,NaN,0,8.516038,-10,-10
166128,100815920,0.2215881,0.0005422086,0.2361726,0.2585996,7.358519,7.407803,7.2,NaN,0,8.521689,-10,-8
166539,100923917,0.2378053,0.0006310046,0.235289,0.2585996,7.353703,7.403485,7.07,NaN,0,8.524391,-9,-7
166987,101030718,0.2471916,0.0009597242,0.2403626,0.2585996,7.349178,7.393777,7.38,NaN,0,8.522342999999999,-9,-8
167397,101140057,0.2617409,0.001354903,0.2502935,0.2585996,7.345047,7.382853,7.34,NaN,0,8.517484,-7,-10
167843,101249832,0.25384,0.001169533,0.2562963,0.2585996,7.341427,7.370299,7.28,NaN,0,8.510987,-6,-10
168289,101357071,0.2566237,0.001598954,0.2539607,0.2585996,7.338428,7.358401,7.36,NaN,0,8.504835,-4,-9
168733,101465905,0.2619772,0.002587825,0.25581,0.2585996,7.33614,7.347986,7.36,NaN,0,8.499516,-3,-7
169150,101572682,0.2704265,0.002905667,0.2638354,0.2585996,7.334576,7.340411,7.23,NaN,0,8.495763999999999,-1,-7
169595,101680059,0.262238,0.002253473,0.2638219,0.2585996,7.333813,7.332591,7.37,NaN,0,8.491034000000001,0,-5
170044,101788056,0.2614724,0.002177954,0.2618028,0.2585996,7.333799,7.326242,7.41,NaN,0,8.486751999999999,1,-3
170457,101899059,0.2471401,0.003219321,0.2568959,0.2585996,7.334504,7.324654,7.21,NaN,0,8.487942,2,0
170904,102005497,0.2518083,0.00517574,0.25586,0.2585996,7.335834,7.325673,7.38,NaN,0,8.492789999999999,2,1
171347,102113951,0.2496944,0.006572321,0.2568775,0.2585996,7.337657,7.329319,7.18,NaN,0,8.498421,2,2
171793,102219590,0.2503907,0.007261992,0.2554888,0.2585996,7.339836,7.332695,7.19,NaN,0,8.503304999999999,3,3
172234,102327330,0.2457551,0.007186785,0.2538126,0.2585996,7.342251,7.335605,7.18,NaN,0,8.506613,3,3
172647,102433298,0.2445542,0.006862879,0.2546808,0.2585996,7.344815,7.337449,7.25,NaN,0,8.509174,3,4
173090,102542072,0.2564129,0.006475091,0.2581407,0.2585996,7.347471,7.338216,7.17,NaN,0,8.508659,3,3
173537,102650539,0.2323466,0.003041804,0.2483052,0.2585996,7.350262,7.338715,7.15,NaN,0,8.509396000000001,4,6
173983,102757529,0.2289048,0.0008945614,0.2416103,0.2585996,7.353024,7.340006,7.49,NaN,0,8.508924,4,6
174393,102865930,0.2294439,0.0002560467,0.2334374,0.2585996,7.355796,7.346367,7.69,NaN,0,8.514179,3,8
174844,102972130,0.2302719,0.0001512021,0.2303013,0.2585996,7.358466,7.359057,7.1,NaN,0,8.525105999999999,2,8
175287,103078917,0.2372895,0.0004969984,0.2348965,0.2585996,7.360862,7.367917,7.29,NaN,0,8.53389,1,5
175734,103186898,0.2308265,0.001191556,0.237462,0.2585996,7.362881,7.372815,7.16,NaN,0,8.536391999999999,0,4
176175,103295237,0.2398528,0.001933008,0.2370948,0.2585996,7.364468,7.375334,7.3,NaN,0,8.535562000000001,0,3
176620,103401703,0.2449331,0.002453968,0.2432356,0.2585996,7.365736,7.37529,7.21,NaN,0,8.532405000000001,0,0
177064,103509945,0.2398999,0.002607197,0.2415679,0.2585996,7.366676,7.374542,7.71,NaN,0,8.526721,0,1
177510,103616335,0.2443891,0.003504083,0.2404809,0.2585996,7.3674,7.376597,7.61,NaN,0,8.52239,0,0
177920,103725014,0.2430222,0.004319102,0.2459752,0.2585996,7.367883,7.383329,7.31,NaN,0,8.521224999999999,-1,0
178366,103835115,0.2382454,0.004601374,0.247969,0.2585996,7.368068,7.386691,7.42,NaN,0,8.515103999999999,-1,-1
178814,103943893,0.2271622,0.004164234,0.2378461,0.2585996,7.367942,7.391167,7.83,NaN,0,8.509233999999999,-2,0
179262,104051363,0.2648023,0.005688787,0.248504,0.2585996,7.367488,7.394595,8.119999999999999,NaN,0,8.499105,-3,-2
179676,104159406,0.2470882,0.006171718,0.2539473,0.2585996,7.366704,7.399521,8.82,NaN,0,8.490648999999999,-4,-5
180119,104267321,0.23913,0.006415814,0.2525842,0.2585996,7.365555,7.412346,8.09,NaN,0,8.487704000000001,-6,-5
180565,104374364,0.2607622,0.006705999,0.2575808,0.2585996,7.363896,7.426865,7.79,NaN,0,8.484698,-8,-8
181009,104481516,0.247974,0.006199941,0.2595614,0.2585996,7.36159,7.435269,7.7,NaN,0,8.474624,-10,-10
181456,104588311,0.2326615,0.005923003,0.2493384,0.2585996,7.358615,7.439807,7.54,NaN,0,8.459013000000001,-11,-9
181866,104696439,0.2328954,0.005413815,0.2420449,0.2585996,7.355017,7.438689,7.57,NaN,0,8.436869,-12,-8
182311,104802629,0.2127885,0.004946873,0.2337939,0.2585996,7.35092,7.433308,8.93,NaN,0,8.409026000000001,-12,-7
182753,104909076,0.221351,0.005545303,0.2256708,0.2585996,7.346479,7.43683,8.77,NaN,0,8.389132999999999,-13,-6
183202,105016893,0.238827,0.00725095,0.2341041,0.2585996,7.341682,7.452516,7.4,NaN,0,8.380222,-16,-10
183614,105125246,0.2271667,0.007503375,0.2362326,0.2585996,7.336365,7.460866,6.69,NaN,0,8.361359,-18,-12
184064,105232102,0.2487809,0.008397430000000001,0.2428685,0.2585996,7.330491,7.453115,7.06,NaN,0,8.32653,-18,-17
184473,105340293,0.2372772,0.007558748,0.2463993,0.2585996,7.324287,7.430779,6.53,NaN,0,8.273334,-17,-17
184919,105446818,0.2359095,0.006436527,0.2406853,0.2585996,7.318162,7.402351,6.58,NaN,0,8.213160999999999,-14,-15
185362,105556447,0.2510065,0.006138355,0.2511854,0.2585996,7.312582,7.364679,8.51,NaN,0,8.140646,-10,-16
185807,105664515,0.2358632,0.005111516,0.2569723,0.2585996,7.308025,7.342596,8.460000000000001,NaN,0,8.084436,-7,-14
186222,105771095,0.2547432,0.003688276,0.2531395,0.2585996,7.304693,7.335635,8.960000000000001,NaN,0,8.042401999999999,-5,-11
186663,105879094,0.2625633,0.001103163,0.2680227,0.2585996,7.302497,7.338977,8.73,NaN,0,8.009245,-5,-12
187112,105985700,0.2407379,0.000646919,0.2579045,0.2585996,7.30118,7.351611,9,NaN,0,7.985296,-6,-8
187555,106093851,0.2391039,0.001630217,0.2437128,0.2585996,7.300392,7.376548,8.93,NaN,0,7.974451,-8,-5
188153,106305884,0.2221967,0.002034009,0.2337686,0.2585996,7.298382,7.43736,8.6,NaN,0,7.9701,-15,-6
188600,106412722,0.1992699,0.001642168,0.2175398,0.2585996,7.296285,7.463655,8.18,NaN,0,7.967625,-19,-6
189043,106520037,0.2183204,0.001881197,0.2150159,0.2585996,7.293098,7.485058,7.4,NaN,0,7.961159,-23,-10
189489,106625705,0.2390558,0.002375364,0.2282007,0.2585996,7.288524,7.490434,7.53,NaN,0,7.941746,-25,-19
189931,106735276,0.2589154,0.003179789,0.2474079,0.2585996,7.282791,7.475589,7.68,NaN,0,7.902121,-25,-26
190343,106844924,0.255368,0.003434271,0.253983,0.2585996,7.276148,7.450924,7.83,NaN,0,7.854187,-24,-29
190793,106951051,0.253587,0.003522933,0.2558778,0.2585996,7.269469,7.422348,7.44,NaN,0,7.806231,-22,-29
191235,107057495,0.2639394,0.003667533,0.2589414,0.2585996,7.263249,7.393887,7.38,NaN,0,7.760085,-19,-27
191681,107164311,0.2634761,0.003570169,0.2652349,0.2585996,7.257574,7.361815,7.16,NaN,0,7.71068,-15,-26
192092,107271113,0.2679828,0.003056496,0.2681271,0.2585996,7.253019,7.331121,7.04,NaN,0,7.666009,-11,-23
192537,107377028,0.2741358,0.00275299,0.2715774,0.2585996,7.249903,7.299434,7.03,NaN,0,7.621771,-7,-19
192950,107485262,0.2647656,0.002939135,0.2727991,0.2585996,7.248484,7.272099,6.9,NaN,0,7.583648,-2,-14
193396,107593518,0.2869378,0.003805071,0.2773499,0.2585996,7.248917,7.247635,6.64,NaN,0,7.550869,1,-10
193841,107699870,0.3060402,0.005029023,0.2938417,0.2585996,7.251287,7.222162,6.53,NaN,0,7.518667,6,-8
194255,107805143,0.2919361,0.005025238,0.2975913,0.2585996,7.255685,7.196719,6.73,NaN,0,7.487913,11,-4
194695,107911708,0.2940094,0.003270298,0.2966999,0.2585996,7.261993,7.172065,6.71,NaN,0,7.460505,16,2
195144,108020320,0.2888525,0.001533389,0.295835,0.2585996,7.270591,7.154523,6.57,NaN,0,7.439339,21,7
195585,108128502,0.2979701,0.001244575,0.2954366,0.2585996,7.28124,7.143488,6.6,NaN,0,7.426885,26,13
196028,108239514,0.3108439,0.002752036,0.3030837,0.2585996,7.294132,7.136282,6.62,NaN,0,7.417299,29,17
196476,108346022,0.3204721,0.005770743,0.3156832,0.2585996,7.308375,7.137018,6.64,NaN,0,7.416272,32,19
196923,108454905,0.3231475,0.01176885,0.3277986,0.2585996,7.323993,7.141275,6.15,NaN,0,7.41779,35,21
197338,108561296,0.3302342,0.01862681,0.3385046,0.2585996,7.340674,7.144734,6.49,NaN,0,7.418526,37,22
197779,108669060,0.3164998,0.02014166,0.3449953,0.2585996,7.358171,7.147739,6.5,NaN,0,7.4159,39,26
198227,108775686,0.2847227,0.01414227,0.3265479,0.2585996,7.376278,7.156917,6.51,NaN,0,7.420615,41,33
198667,108881945,0.2508889,0.008449732999999999,0.2864017,0.2585996,7.394238,7.178038,6.53,NaN,0,7.438166,41,44
199116,108989795,0.2348265,0.005798146,0.2587543,0.2585996,7.412617,7.210032,6.57,NaN,0,7.466154,39,51
199560,109096832,0.2324953,0.006487548,0.2448009,0.2585996,7.429961,7.248008,6.97,NaN,0,7.498805,36,52
199975,109202872,0.2575828,0.008879602,0.2523677,0.2585996,7.446695,7.288012,6.86,NaN,0,7.534811,32,47
200416,109310500,0.2601066,0.01076114,0.2679674,0.2585996,7.46188,7.322927,6.3,NaN,0,7.565209,28,40
200864,109417476,0.2195373,0.0083794,0.2474637,0.2585996,7.475212,7.3505,6.24,NaN,0,7.587915,25,39
201307,109525238,0.2430327,0.009043828,0.241662,0.2585996,7.486562,7.370431,6.16,NaN,0,7.602634,22,35
201754,109630787,0.3001176,0.01247501,0.274057,0.2585996,7.495953,7.378201,6.38,NaN,0,7.604224,20,22
202194,109738237,0.3029086,0.01450598,0.3080398,0.2585996,7.50359,7.372416,6.64,NaN,0,7.592451,20,12
202604,109846886,0.2434992,0.01001766,0.2876424,0.2585996,7.509852,7.363392,6.53,NaN,0,7.575401,20,16
203053,109953312,0.2756504,0.01046094,0.2742302,0.2585996,7.515133,7.358861,6.56,NaN,0,7.56179,20,17
203494,110061804,0.3284487,0.01350304,0.3145184,0.2585996,7.519669,7.349726,6.79,NaN,0,7.543668,21,8
203942,110166090,0.3129489,0.01266441,0.3287066,0.2585996,7.523732,7.33798,6.56,NaN,0,7.522302,22,7
204356,110273476,0.2869957,0.009253472,0.2993068,0.2585996,7.527595,7.331302,6.48,NaN,0,7.503706,23,14
204804,110383495,0.3107431,0.008969187999999999,0.3102304,0.2585996,7.53143,7.322811,6.38,NaN,0,7.482688,24,14
205250,110491273,0.2800178,0.007026553,0.3032872,0.2585996,7.535375,7.317126,6.25,NaN,0,7.463933,26,18
205697,110598138,0.2883132,0.006679714,0.2960097,0.2585996,7.539499,7.31565,6.53,NaN,0,7.448138,26,22
206139,110705247,0.2875797,0.006636858,0.2919372,0.2585996,7.543661,7.319204,6.06,NaN,0,7.437996,27,24
206554,110810580,0.2885144,0.005784482,0.2970569,0.2585996,7.54802,7.320731,5.95,NaN,0,7.425097,27,25
207000,110918009,0.2620889,0.004597574,0.2807266,0.2585996,7.55244,7.317733,6.29,NaN,0,7.408206,28,29
207413,111021916,0.2347449,0.004395291,0.2612866,0.2585996,7.556932,7.319661,6.11,NaN,0,7.397942,28,35
207853,111129318,0.2548322,0.005486518,0.2484227,0.2585996,7.561446,7.328413,6.05,NaN,0,7.392259,28,37
208266,111233049,0.2687332,0.007146478,0.2653249,0.2585996,7.565858,7.333381,5.89,NaN,0,7.383769,27,33
208709,111340885,0.2615079,0.007309288,0.2648108,0.2585996,7.570105,7.339139,6.3,NaN,0,7.375557,27,31
209150,111447595,0.2387963,0.004697382,0.2656252,0.2585996,7.574028,7.344137,6.31,NaN,0,7.366563,27,32
209598,111553805,0.2277437,0.0008792579,0.2396338,0.2585996,7.577774,7.356284,6.39,NaN,0,7.363008,25,35
210038,111662849,0.2291032,1.433492e-05,0.229452,0.2585996,7.581106,7.367666,6.28,NaN,0,7.358841,24,35
210452,111770934,0.2409506,0.0007268786,0.237371,0.2585996,7.583913,7.37341,7.07,NaN,0,7.35128,23,31
210894,111877075,0.2018864,0.002349123,0.2263782,0.2585996,7.586122,7.383019,8.65,NaN,0,7.348179,22,34
211339,111982839,0.2133094,0.004255459,0.2157741,0.2585996,7.587751,7.415646,8.99,NaN,0,7.367721,18,34
211780,112089878,0.2117612,0.004714474,0.2150035,0.2585996,7.588329,7.462767,7.01,NaN,0,7.402703,12,31
212225,112197556,0.2066349,0.003968418,0.2090331,0.2585996,7.587306,7.507015,7.65,NaN,0,7.437774,5,25
212635,112305860,0.2214009,0.003095299,0.2105332,0.2585996,7.584425,7.539626,8.76,NaN,0,7.461351,0,16
213082,112413069,0.2203061,0.001977772,0.2183236,0.2585996,7.579178,7.567897,8.630000000000001,NaN,0,7.481932,-5,7
213491,112521011,0.2328523,0.001460776,0.2291695,0.2585996,7.571811,7.598773,8.09,NaN,0,7.505462,-11,-1
213937,112626345,0.2420571,0.001265347,0.2359108,0.2585996,7.561842,7.615567,7.79,NaN,0,7.515701,-17,-10
214379,112734112,0.2179484,0.001408666,0.2386112,0.2585996,7.549909,7.625064,7.99,NaN,0,7.52062,-21,-16
214819,112842858,0.2310536,0.001625136,0.231918,0.2585996,7.535626,7.623114,9.390000000000001,NaN,0,7.512887,-24,-20
215266,112950255,0.2276271,0.001341835,0.230675,0.2585996,7.519639,7.626991,8.94,NaN,0,7.51324,-28,-23
215710,113055803,0.248044,0.0009680092,0.24288,0.2585996,7.502701,7.624101,8.380000000000001,NaN,0,7.508152,-31,-28
216153,113161470,0.2552058,0.0006630421,0.2461606,0.2585996,7.484159,7.61212,7.85,NaN,0,7.494332,-32,-33
216594,113268933,0.2535034,0.000644654,0.2524914,0.2585996,7.464848,7.591063,8.07,NaN,0,7.471879,-33,-35
217042,113376239,0.2681463,0.0007687807,0.259866,0.2585996,7.445248,7.564958,8.289999999999999,NaN,0,7.444455,-32,-38
217455,113482845,0.2560358,0.0008497834,0.2627136,0.2585996,7.42584,7.534332,7.94,NaN,0,7.413936,-31,-37
217899,113590261,0.2647362,0.0009782313999999999,0.2636586,0.2585996,7.407101,7.500986,8.07,NaN,0,7.379986,-28,-35
218343,113698908,0.2613784,0.0008456707,0.2623075,0.2585996,7.389907,7.468116,8.01,NaN,0,7.348742,-25,-32
218788,113805276,0.2709723,0.0007238984,0.2681812,0.2585996,7.373676,7.43831,8.029999999999999,NaN,0,7.320012,-22,-29
219232,113913830,0.2728903,0.0008484423,0.2736789,0.2585996,7.359135,7.411855,8.130000000000001,NaN,0,7.294899,-19,-27
219677,114019682,0.266678,0.001398176,0.2705262,0.2585996,7.346418,7.390909,7.64,NaN,0,7.277013,-16,-23
220116,114127974,0.2619242,0.002425313,0.2644509,0.2585996,7.335564,7.373909,8,NaN,0,7.265398,-14,-16
220561,114233373,0.2577182,0.003009856,0.2619529,0.2585996,7.326519,7.362405,8.119999999999999,NaN,0,7.258809,-12,-12
221005,114341135,0.2548003,0.002793103,0.2581664,0.2585996,7.319175,7.352417,7.99,NaN,0,7.255641,-10,-9
221420,114451472,0.2609999,0.001433522,0.2599611,0.2585996,7.313259,7.346594,8.17,NaN,0,7.25815,-8,-8
221865,114557442,0.2700067,0.0006890595,0.2651128,0.2585996,7.308893,7.344039,7.86,NaN,0,7.263827,-7,-8
222306,114667033,0.272971,0.0009855032000000001,0.2688427,0.2585996,7.305716,7.340769,7.95,NaN,0,7.271222,-6,-7
222754,114774048,0.2672223,0.001286179,0.2698732,0.2585996,7.303571,7.337192,7.94,NaN,0,7.276693,-5,-6
223164,114881474,0.2641466,0.001253992,0.2664426,0.2585996,7.302336,7.33935,7.9,NaN,0,7.289434,-4,-4
223609,114988042,0.2556036,0.001290143,0.2622128,0.2585996,7.301806,7.348129,7.92,NaN,0,7.310504,-4,-3
224050,115096301,0.2556939,0.001487881,0.2601827,0.2585996,7.301723,7.359739,7.77,NaN,0,7.33358,-5,-2
224495,115202831,0.2514451,0.001581609,0.2569602,0.2585996,7.301808,7.374914,8.09,NaN,0,7.36113,-7,-2
224906,115310352,0.24636,0.0016011,0.2537527,0.2585996,7.301806,7.391271,7.82,NaN,0,7.389946,-9,-3
225354,115418803,0.236263,0.001613587,0.2481415,0.2585996,7.301466,7.407632,7.88,NaN,0,7.421185,-11,-4
225793,115526260,0.2420428,0.00173521,0.2455799,0.2585996,7.300605,7.42093,7.82,NaN,0,7.44936,-13,-5
226243,115633291,0.2430378,0.001723304,0.2441847,0.2585996,7.299045,7.43209,7.89,NaN,0,7.47703,-15,-8
226682,115742931,0.2404382,0.001744419,0.245084,0.2585996,7.296735,7.442045,7.86,NaN,0,7.505349,-17,-11
227124,115851125,0.2415811,0.001836613,0.2436122,0.2585996,7.293647,7.447511,7.93,NaN,0,7.528111,-19,-12
227538,115958696,0.2475613,0.001837775,0.2456888,0.2585996,7.289822,7.449928,7.69,NaN,0,7.5515,-20,-15
227979,116066038,0.2519076,0.001597703,0.2488344,0.2585996,7.285368,7.443932,7.66,NaN,0,7.565555,-20,-18
228424,116172504,0.2554085,0.001347691,0.2518976,0.2585996,7.280473,7.434724,7.61,NaN,0,7.578922,-20,-20
228834,116279050,0.2547445,0.001153439,0.2526222,0.2585996,7.275368,7.42072,7.8,NaN,0,7.586501,-19,-20
229281,116385370,0.2507412,0.0008868277,0.2504705,0.2585996,7.27031,7.407543,7.7,NaN,0,7.597419,-18,-20
229723,116495037,0.2374757,0.0006767362,0.2472444,0.2585996,7.265509,7.397863,7.71,NaN,0,7.611,-18,-17
230166,116601096,0.2288265,0.0004642457,0.2420324,0.2585996,7.261079,7.391207,7.33,NaN,0,7.627507,-17,-14
230575,116709497,0.245874,0.0003407896,0.2373658,0.2585996,7.257074,7.383339,7.23,NaN,0,7.642718,-16,-13
231020,116816071,0.2513399,0.0002480447,0.2453061,0.2585996,7.253545,7.371816,7.23,NaN,0,7.653923,-15,-16
231465,116923445,0.2606511,0.0001459122,0.2538332,0.2585996,7.250676,7.354975,7.71,NaN,0,7.659146,-13,-16
231877,117030015,0.2596616,0.0001176894,0.2563601,0.2585996,7.248477,7.339991,7.52,NaN,0,7.665083,-11,-15
232318,117136933,0.2644724,0.0002719462,0.2602715,0.2585996,7.247152,7.328038,7.5,NaN,0,7.672584,-8,-14
232760,117245719,0.2691154,0.0009587109,0.2666868,0.2585996,7.24675,7.317361,7.28,NaN,0,7.681187,-7,-12
233206,117350522,0.2684438,0.002034396,0.2688108,0.2585996,7.247267,7.30601,7.19,NaN,0,7.687498,-4,-11
233646,117460364,0.2688839,0.002998739,0.2710682,0.2585996,7.248751,7.294332,7.28,NaN,0,7.691041,-2,-8
234092,117567039,0.2676446,0.003104955,0.2706032,0.2585996,7.251221,7.284786,7.28,NaN,0,7.69493,0,-5
234501,117674220,0.2599737,0.002722561,0.2681206,0.2585996,7.25456,7.27887,7.24,NaN,0,7.699932,1,-2
234946,117780224,0.25204,0.002280414,0.2599555,0.2585996,7.25888,7.277383,7.18,NaN,0,7.707493,3,1
235389,117889483,0.2637657,0.002062142,0.2567051,0.2585996,7.26397,7.279792,7.31,NaN,0,7.715624,4,4
235838,117996652,0.2653322,0.002389789,0.2617947,0.2585996,7.269663,7.283379,6.86,NaN,0,7.72565,4,3
236248,118104508,0.2587657,0.002792209,0.2605101,0.2585996,7.275801,7.28446,7.06,NaN,0,7.731156,5,4
236695,118212352,0.2525949,0.002914608,0.2584463,0.2585996,7.282281,7.285673,6.68,NaN,0,7.737496,6,6
237106,118319903,0.2619131,0.00167793,0.2604216,0.2585996,7.288846,7.285584,6.63,NaN,0,7.740498,7,6
237548,118425040,0.2375647,0.0005404353,0.2514995,0.2585996,7.295807,7.283669,6.5,NaN,0,7.742321,8,9
237957,118533131,0.2397838,0.0002834946,0.2433055,0.2585996,7.302992,7.279107,6.93,NaN,0,7.741581,10,11
238402,118644100,0.2551,0.000207603,0.2491554,0.2585996,7.31063,7.274732,6.79,NaN,0,7.742562,11,11
238847,118750677,0.2517681,0.0001932383,0.2519057,0.2585996,7.318339,7.274873,7.14,NaN,0,7.746434,12,11
239258,118857861,0.2599845,0.0003425479,0.2552868,0.2585996,7.326279,7.276257,6.8,NaN,0,7.751555,13,11
239704,118966308,0.2625858,0.0008772314,0.2610319,0.2585996,7.334387,7.277235,6.71,NaN,0,7.756997,14,11
240114,119073021,0.2639287,0.001865029,0.2620397,0.2585996,7.342616,7.278245,7.01,NaN,0,7.761571,15,11
240558,119180888,0.2575591,0.002917647,0.2627637,0.2585996,7.350923,7.281194,6.86,NaN,0,7.766938,15,12
241000,119288871,0.2618163,0.003734887,0.2624401,0.2585996,7.359031,7.283919,6.96,NaN,0,7.772554,16,13
241415,119393853,0.2592146,0.003714532,0.2639449,0.2585996,7.367329,7.287492,6.69,NaN,0,7.77831,16,14
241855,119502055,0.2549252,0.003588945,0.2607405,0.2585996,7.375552,7.289471,6.7,NaN,0,7.782043,17,15
242301,119609239,0.2552073,0.003404766,0.2583954,0.2585996,7.38367,7.291971,6.74,NaN,0,7.785954,17,16
242741,119717012,0.2587247,0.002540439,0.2620782,0.2585996,7.391451,7.293608,6.8,NaN,0,7.787782,18,15
243157,119823019,0.2543047,0.00088346,0.264826,0.2585996,7.39931,7.293955,6.89,NaN,0,7.789389,18,16
243598,119931825,0.2580562,0.000222832,0.2574905,0.2585996,7.407049,7.29751,7.06,NaN,0,7.792959,19,17
244044,120041273,0.258588,7.647275999999999e-05,0.2595713,0.2585996,7.414828,7.304976,6.96,NaN,0,7.801431,18,17
244488,120148321,0.2560058,0.0001296997,0.2588769,0.2585996,7.422162,7.314042,7.32,NaN,0,7.809964,18,17
244903,120257276,0.2305382,0.000246793,0.2494582,0.2585996,7.429319,7.327456,7.39,NaN,0,7.824392,17,21
245349,120364516,0.2431409,0.0003829449,0.2411803,0.2585996,7.43576,7.349642,7.1,NaN,0,7.845403,15,20
245787,120474479,0.26469,0.0005099475,0.2515968,0.2585996,7.44142,7.369349,7.24,NaN,0,7.8645,12,16
246231,120580486,0.2648087,0.0004268587,0.2635073,0.2585996,7.446115,7.383142,7.1,NaN,0,7.877033,10,11
246643,120690326,0.2555974,0.0003469884,0.2585136,0.2585996,7.449782,7.392873,7.22,NaN,0,7.884622,9,9
247090,120798049,0.2696633,0.0004561543,0.2588245,0.2585996,7.452435,7.400932,7.21,NaN,0,7.889804,7,8
247529,120907236,0.2721112,0.0003215075,0.2699247,0.2585996,7.454091,7.406025,7.4,NaN,0,7.893722,6,3
247943,121012677,0.2600717,0.0001889467,0.2671522,0.2585996,7.454918,7.410501,7.29,NaN,0,7.896297,4,2
248384,121121986,0.2627965,0.0001780689,0.262318,0.2585996,7.454931,7.414766,7.46,NaN,0,7.899732,3,3
248833,121227895,0.2605326,0.0001993477,0.2597298,0.2585996,7.454205,7.419055,7.27,NaN,0,7.903181,2,3
249283,121336516,0.2624745,0.0002550483,0.2624083,0.2585996,7.452784,7.425865,7.2,NaN,0,7.909067,0,1
249723,121442935,0.2525779,0.0004288852,0.2584759,0.2585996,7.450696,7.430669,7.5,NaN,0,7.913208,0,1
250168,121550008,0.2528456,0.0004300475,0.2543986,0.2585996,7.44795,7.442456,7.67,NaN,0,7.925301,-2,0
250580,121660068,0.2528961,0.0003874004,0.2548278,0.2585996,7.444496,7.450213,7.47,NaN,0,7.932302,-4,0
251027,121765845,0.2465416,0.0001888573,0.2507787,0.2585996,7.440318,7.457355,7.59,NaN,0,7.940649,-6,-2
251469,121873810,0.2388434,6.167591e-05,0.2469223,0.2585996,7.435423,7.464748,7.62,NaN,0,7.949888,-8,-2
251915,121981478,0.2432609,1.168251e-05,0.2434685,0.2585996,7.429824,7.471528,7.49,NaN,0,7.957699,-10,-3
252358,122090362,0.250976,2.491474e-05,0.2485467,0.2585996,7.423536,7.4728,7.35,NaN,0,7.962763,-11,-7
252803,122198256,0.2498324,7.18683e-05,0.2516869,0.2585996,7.41665,7.469468,7.41,NaN,0,7.962253,-12,-10
253219,122307346,0.2484962,9.636581000000001e-05,0.2505349,0.2585996,7.409324,7.463258,7.32,NaN,0,7.958134,-13,-11
253664,122415264,0.2553962,0.0001414716,0.2535296,0.2585996,7.40217,7.455382,7.38,NaN,0,7.953417,-12,-11
254105,122523881,0.2528053,0.0002023578,0.2540834,0.2585996,7.396202,7.447438,7.28,NaN,0,7.947487,-10,-10
254549,122629522,0.2456008,0.0002464056,0.2512459,0.2585996,7.391266,7.43943,7.45,NaN,0,7.942554,-9,-8
254992,122736545,0.2398051,0.0002442151,0.2459736,0.2585996,7.387188,7.435788,7.32,NaN,0,7.941338,-8,-6
255406,122847028,0.2367438,0.0002363622,0.2376603,0.2585996,7.383738,7.433734,7.02,NaN,0,7.941543,-8,-4
255851,122955055,0.2588806,0.000535816,0.2466273,0.2585996,7.380965,7.429963,7.3,NaN,0,7.93858,-7,-5
256292,123062505,0.2606008,0.00105077,0.2595441,0.2585996,7.378675,7.422598,7.29,NaN,0,7.933,-6,-8
256703,123170108,0.2729064,0.001012772,0.2645415,0.2585996,7.376781,7.414186,7.32,NaN,0,7.925237,-5,-9
257147,123278683,0.2691049,0.0006943047,0.2705738,0.2585996,7.375215,7.403268,7.38,NaN,0,7.915936,-4,-9
257560,123384622,0.2647777,0.0005048512999999999,0.2684946,0.2585996,7.37392,7.392458,7.63,NaN,0,7.905286,-3,-8
258002,123492364,0.2496994,0.0003376454,0.2604506,0.2585996,7.372876,7.383575,7.57,NaN,0,7.894794,-2,-5
258447,123597500,0.2395601,0.0002492219,0.2513035,0.2585996,7.371953,7.378757,7.34,NaN,0,7.889975,-1,-1
258891,123706109,0.2184209,0.0002615303,0.2337901,0.2585996,7.369606,7.37693,7.32,NaN,0,7.888309,-5,0
259340,123812140,0.2396276,0.0004540533,0.2288565,0.2585996,7.362928,7.374002,7.67,NaN,0,7.884739,-10,-3
259749,123919260,0.2339407,0.0006376356,0.2320972,0.2585996,7.352862,7.369607,7.28,NaN,0,7.87872,-14,-8
260195,124027441,0.2072188,0.0007387698,0.221486,0.2585996,7.338339,7.360683,7.28,NaN,0,7.868994,-20,-12
260634,124136296,0.2054673,0.0008665323,0.2132476,0.2585996,7.317083,7.344258,7.39,NaN,0,7.851768,-29,-20
261083,124249067,0.2110634,0.0009184927,0.2081148,0.2585996,7.285216,7.316825,7.38,NaN,0,7.822711,-40,-31
261530,124355289,0.1940136,0.0006422549,0.2061508,0.2585996,7.245114,7.282415,7.51,NaN,0,7.787332,-51,-43
261941,124464284,0.1941037,0.0003342032,0.19601,0.2585996,7.194784,7.230969,7.42,NaN,0,7.734092,-64,-56
262386,124570006,0.2129359,0.0003496706,0.1970939,0.2585996,7.1306,7.165814,7.36,NaN,0,7.667953,-77,-71
262799,124678804,0.2350218,0.0005913824,0.222721,0.2585996,7.05481,7.08017,7.46,NaN,0,7.580532,-87,-89
