LineNo,TimeUS,Instance,RPM,RawRPM,Volt,Curr,Temp,CTot,MotTemp,Err
1846,6.0166e+07,2,0,0,15.26,0.04,25,0,0,0
2267,6.0274e+07,2,0,0,15.27,0.04,25,0,0,0
2723,6.0388e+07,2,0,0,15.27,0.04,25,0,0,0
3135,6.0491e+07,2,0,0,15.26,0.04,25,0,0,0
3587,6.0603e+07,2,0,0,15.27,0.04,25,0,0,0
3994,6.0705e+07,2,0,0,15.26,0.04,25,0,0,0
4452,6.082e+07,2,0,0,15.27,0.04,25,0,0,0
4871,6.0925e+07,2,0,0,15.26,0.04,25,0,0,0
5279,6.1031e+07,2,0,0,15.27,0.04,25,0,0,0
5734,6.1142e+07,2,0,0,15.26,0.04,25,0,0,0
6146,6.1248e+07,2,0,0,15.27,0.04,25,0,0,0
6557,6.1352e+07,2,0,0,15.27,0.04,25,0,0,0
6969,6.1457e+07,2,0,0,15.27,0.04,25,0,0,0
7426,6.1574e+07,2,0,0,15.27,0.04,25,0,0,0
7840,6.1679e+07,2,0,0,15.27,0.04,25,0,0,0
8258,6.1786e+07,2,0,0,15.27,0.04,25,0,0,0
8673,6.1889e+07,2,0,0,15.27,0.04,25,0,0,0
9086,6.1994e+07,2,0,0,15.27,0.04,25,0,0,0
9543,6.2113e+07,2,0,0,15.27,0.04,25,0,0,0
9957,6.2217e+07,2,0,0,15.26,0.04,25,0,0,0
10369,6.2319e+07,2,0,0,15.27,0.04,25,0,0,0
10711,6.2427e+07,2,0,0,15.27,0.04,25,0,0,0
11156,6.2537e+07,2,0,0,15.27,0.04,25,0,0,0
11575,6.2645e+07,2,0,0,15.27,0.04,25,0,0,0
12023,6.2757e+07,2,0,0,15.26,0.04,25,0,0,0
12441,6.286e+07,2,0,0,15.27,0.04,25,0,0,0
12891,6.2974e+07,2,0,0,15.26,0.04,25,0,0,0
13300,6.3076e+07,2,0,0,15.26,0.04,25,0,0,0
13751,6.319e+07,2,0,0,15.27,0.04,25,0,0,0
14170,6.3294e+07,2,0,0,15.27,0.04,25,0,0,0
14583,6.3395e+07,2,0,0,15.27,0.04,25,0,0,0
15031,6.3509e+07,2,0,0,15.26,0.04,25,0,0,0
15448,6.3614e+07,2,0,0,15.27,0.04,25,0,0,0
15860,6.3718e+07,2,0,0,15.27,0.04,25,0,0,0
16317,6.3833e+07,2,0,0,15.27,0.04,25,0,0,0
16734,6.3936e+07,2,0,0,15.27,0.04,25,0,0,0
17143,6.4038e+07,2,0,0,15.27,0.04,25,0,0,0
17556,6.4146e+07,2,0,0,15.27,0.04,25,0,0,0
18010,6.4262e+07,2,0,0,15.26,0.04,25,0,0,0
18423,6.4365e+07,2,0,0,15.26,0.04,25,0,0,0
18873,6.4476e+07,2,0,0,15.26,0.04,25,0,0,0
19286,6.4579e+07,2,0,0,15.27,0.04,25,0,0,0
19735,6.4692e+07,2,0,0,15.27,0.04,25,0,0,0
20122,6.4795e+07,2,0,0,15.27,0.04,25,0,0,0
20569,6.4905e+07,2,0,0,15.27,0.04,25,0,0,0
21025,6.502e+07,2,0,0,15.27,0.04,25,0,0,0
21406,6.5122e+07,2,0,0,15.27,0.04,25,0,0,0
21819,6.5223e+07,2,0,0,15.27,0.04,25,0,0,0
22277,6.5336e+07,2,0,0,15.26,0.04,25,0,0,0
22728,6.5451e+07,2,0,0,15.27,0.04,25,0,0,0
23142,6.5556e+07,2,0,0,15.27,0.04,25,0,0,0
23549,6.5659e+07,2,0,0,15.27,0.04,25,0,0,0
23971,6.5766e+07,2,0,0,15.27,0.04,25,0,0,0
24418,6.5878e+07,2,0,0,15.27,0.04,25,0,0,0
24832,6.5981e+07,2,0,0,15.26,0.04,25,0,0,0
25285,6.61e+07,2,0,0,15.27,0.04,25,0,0,0
25660,6.6194e+07,2,0,0,15.27,0.04,25,0,0,0
26115,6.6311e+07,2,0,0,15.27,0.04,25,0,0,0
26566,6.6424e+07,2,0,0,15.27,0.04,25,0,0,0
26940,6.6521e+07,2,0,0,15.27,0.04,25,0,0,0
27394,6.6634e+07,2,0,0,15.27,0.04,25,0,0,0
27806,6.6739e+07,2,0,0,15.27,0.04,25,0,0,0
28261,6.6855e+07,2,0,0,15.27,0.04,25,0,0,0
28677,6.6958e+07,2,0,0,15.27,0.04,25,0,0,0
29123,6.7069e+07,2,0,0,15.27,0.04,25,0,0,0
29538,6.7172e+07,2,0,0,15.27,0.04,25,0,0,0
29949,6.728e+07,2,0,0,15.27,0.04,25,0,0,0
30363,6.7381e+07,2,0,0,15.27,0.04,25,0,0,0
30816,6.7495e+07,2,0,0,15.27,0.04,25,0,0,0
31230,6.7597e+07,2,0,0,15.27,0.04,25,0,0,0
31682,6.7711e+07,2,0,0,15.27,0.04,25,0,0,0
32098,6.7814e+07,2,0,0,15.27,0.04,25,0,0,0
32512,6.792e+07,2,0,0,15.27,0.04,25,0,0,0
32967,6.8032e+07,2,0,0,15.27,0.04,25,0,0,0
33377,6.8139e+07,2,0,0,15.27,0.04,25,0,0,0
33792,6.824e+07,2,0,0,15.27,0.04,25,0,0,0
34240,6.8352e+07,2,0,0,15.26,0.04,25,0,0,0
34690,6.8465e+07,2,0,0,15.27,0.04,25,0,0,0
35102,6.8568e+07,2,0,0,15.27,0.04,25,0,0,0
35514,6.8674e+07,2,0,0,15.27,0.04,25,0,0,0
35970,6.8787e+07,2,0,0,15.27,0.04,25,0,0,0
36376,6.8888e+07,2,0,0,15.27,0.04,25,0,0,0
36832,6.9e+07,2,0,0,15.27,0.04,25,0,0,0
37243,6.9105e+07,2,0,0,15.27,0.04,25,0,0,0
37696,6.9219e+07,2,0,0,15.27,0.04,25,0,0,0
38113,6.9327e+07,2,0,0,15.26,0.05,25,0,0,0
38532,6.9435e+07,2,0,0,15.27,0.04,25,0,0,0
38942,6.9539e+07,2,0,0,15.26,0.04,25,0,0,0
39396,6.9654e+07,2,0,0,15.27,0.04,25,0,0,0
39811,6.9756e+07,2,0,0,15.27,0.04,25,0,0,0
40258,6.9869e+07,2,0,0,15.27,0.04,25,0,0,0
40673,6.9972e+07,2,0,0,15.27,0.04,25,0,0,0
41088,7.0082e+07,2,0,0,15.27,0.04,25,0,0,0
41541,7.0195e+07,2,0,0,15.27,0.04,25,0,0,0
41950,7.0298e+07,2,0,0,15.27,0.05,25,0,0,0
42365,7.04e+07,2,0,0,15.26,0.05,25,0,0,0
42781,7.0509e+07,2,0,0,15.27,0.05,25,0,0,0
43202,7.0618e+07,2,0,0,15.26,0.04,25,0,0,0
43655,7.0734e+07,2,0,0,15.27,0.04,25,0,0,0
44070,7.0842e+07,2,0,0,15.27,0.04,25,0,0,0
44483,7.0944e+07,2,0,0,15.27,0.04,25,0,0,0
44897,7.105e+07,2,0,0,15.26,0.04,25,0,0,0
45310,7.1153e+07,2,0,0,15.27,0.04,25,0,0,0
45764,7.1268e+07,2,0,0,15.27,0.04,25,0,0,0
46176,7.1371e+07,2,0,0,15.27,0.04,25,0,0,0
46629,7.1488e+07,2,0,0,15.27,0.04,25,0,0,0
47042,7.1591e+07,2,0,0,15.27,0.05,25,0,0,0
47455,7.1699e+07,2,0,0,15.27,0.04,25,0,0,0
47911,7.1812e+07,2,0,0,15.26,0.04,25,0,0,0
48310,7.191e+07,2,0,0,15.26,0.04,25,0,0,0
48813,7.2026e+07,2,0,0,15.27,0.04,25,0,0,0
49219,7.2123e+07,2,0,0,15.27,0.04,25,0,0,0
49722,7.2236e+07,2,0,0,15.27,0.04,25,0,0,0
50173,7.2346e+07,2,0,0,15.27,0.05,25,0,0,0
50624,7.2451e+07,2,0,0,15.26,0.05,25,0,0,0
51119,7.2564e+07,2,0,0,15.26,0.05,25,0,0,0
51569,7.2668e+07,2,0,0,15.27,0.05,25,0,0,0
52069,7.278e+07,2,0,0,15.27,0.04,25,0,0,0
52521,7.2887e+07,2,0,0,15.27,0.04,25,0,0,0
53019,7.3e+07,2,0,0,15.26,0.04,25,0,0,0
53470,7.3106e+07,2,0,0,15.27,0.04,25,0,0,0
53924,7.321e+07,2,0,0,15.27,0.04,25,0,0,0
54376,7.3319e+07,2,0,0,15.27,0.04,25,0,0,0
54872,7.3431e+07,2,0,0,15.26,0.04,25,0,0,0
55323,7.3538e+07,2,0,0,15.26,0.04,25,0,0,0
55783,7.3643e+07,2,0,0,15.26,0.04,25,0,0,0
56234,7.3749e+07,2,0,0,15.27,0.04,25,0,0,0
56730,7.3865e+07,2,0,0,15.26,0.04,25,0,0,0
57906,7.4185e+07,2,235,971,15.24,0.16,25,0,0,0
58355,7.4289e+07,2,978,1157,15.25,0.12,25,0,0,0
58856,7.4403e+07,2,1160,1200,15.25,0.11,25,0,0,0
59311,7.4512e+07,2,1201,1214,15.25,0.11,25,0,0,0
59765,7.4616e+07,2,1215,1228,15.25,0.11,25,0,0,0
60221,7.4725e+07,2,1229,1242,15.25,0.11,25,0,0,0
60674,7.4828e+07,2,1242,1242,15.25,0.11,25,0,0,0
61165,7.4941e+07,2,1242,1242,15.26,0.11,25,0,0,0
61835,7.5149e+07,2,1242,1242,15.25,0.11,25,0,0,0
62287,7.5255e+07,2,1242,1242,15.25,0.11,25,0,0,0
62787,7.5366e+07,2,1242,1242,15.26,0.11,25,0,0,0
63248,7.5482e+07,2,1242,1242,15.25,0.11,25,0,0,0
63703,7.5586e+07,2,1243,1257,15.25,0.1,25,0,0,0
64154,7.5691e+07,2,1257,1257,15.25,0.11,25,0,0,0
64614,7.5799e+07,2,1257,1257,15.24,0.12,25,0,0,0
65069,7.5906e+07,2,1265,1500,15.22,0.25,25,0,0,0
65567,7.602e+07,2,1554,2085,15.17,0.76,25,0,0,0
66022,7.613e+07,2,2145,2785,15.11,1.1,25,0,0,0
66475,7.6234e+07,2,2802,3057,15,1.45,25,0,0,0
66926,7.6341e+07,2,3063,3571,14.99,1.73,25,0,0,0
67379,7.6452e+07,2,3599,4214,14.87,2.17,25,0,0,0
67831,7.6561e+07,2,4261,4814,14.79,2.78,25,0,0,0
68282,7.667e+07,2,4830,5171,14.7,3.38,25,0,0,0
68737,7.6775e+07,2,5199,5785,14.53,4.28,25,0,0,0
69190,7.6885e+07,2,5803,6057,14.56,4.39,25,0,0,0
69642,7.6991e+07,2,6057,6057,14.6,4.22,25,1,0,0
70141,7.7111e+07,2,6089,6442,14.59,4.91,25,1,0,0
70597,7.7217e+07,2,6438,6400,14.61,4.41,25,1,0,0
71089,7.7331e+07,2,6396,6357,14.66,4.39,25,1,0,0
71546,7.7445e+07,2,6355,6342,14.63,4.58,25,1,0,0
71997,7.7548e+07,2,6345,6385,14.62,4.53,25,1,0,0
72411,7.7653e+07,2,6384,6371,14.63,4.94,25,2,0,0
72866,7.7758e+07,2,6369,6342,14.59,4.95,26,2,0,0
73321,7.787e+07,2,6350,6471,14.63,4.23,25,2,0,0
73776,7.7977e+07,2,6459,6185,14.65,4.33,26,2,0,0
74269,7.8093e+07,2,6192,6271,14.67,4.55,26,2,0,0
74723,7.82e+07,2,6280,6457,14.62,4.57,26,2,0,0
75181,7.8313e+07,2,6449,6371,14.66,4.59,26,2,0,0
75633,7.8419e+07,2,6370,6328,14.63,4.5,26,2,0,0
76083,7.8529e+07,2,6323,6242,14.59,4.53,26,3,0,0
76542,7.8636e+07,2,6247,6342,14.61,4.41,26,3,0,0
76993,7.8747e+07,2,6340,6300,14.61,4.54,26,3,0,0
77445,7.885e+07,2,6300,6328,14.61,4.52,26,3,0,0
77934,7.8967e+07,2,6339,6457,14.6,4.6,26,3,0,0
78380,7.908e+07,2,6443,6242,14.58,4.35,26,3,0,0
78832,7.919e+07,2,6235,6157,14.6,4.39,26,3,0,0
79233,7.9292e+07,2,6156,6128,14.57,4.24,26,4,0,0
79696,7.9409e+07,2,6130,6200,14.59,4.43,26,4,0,0
80583,7.9622e+07,2,6195,6100,14.57,4,26,4,0,0
81035,7.9737e+07,2,6101,6114,14.58,4.04,26,4,0,0
81484,7.9851e+07,2,6086,5942,14.58,3.77,26,4,0,0
81889,7.9946e+07,2,5943,5971,14.61,4.12,26,4,0,0
83227,8.0274e+07,2,5987,6442,14.54,5.04,26,5,0,0
83675,8.0382e+07,2,6438,6385,14.55,4.9,26,5,0,0
84122,8.0493e+07,2,6397,6528,14.52,4.91,26,5,0,0
84570,8.06e+07,2,6526,6500,14.52,5.14,26,5,0,0
84976,8.0703e+07,2,6499,6457,14.57,4.89,27,5,0,0
85469,8.0822e+07,2,6452,6400,14.58,4.59,26,5,0,0
85869,8.0922e+07,2,6390,6171,14.56,4.27,26,6,0,0
86318,8.1029e+07,2,6173,6214,14.63,3.85,26,6,0,0
86768,8.1142e+07,2,6182,5871,14.64,3.21,26,6,0,0
87216,8.1257e+07,2,5861,5785,14.71,3.42,26,6,0,0
87626,8.1358e+07,2,5783,5757,14.64,3.36,27,6,0,0
88069,8.1467e+07,2,5758,5785,14.69,3.59,26,6,0,0
88522,8.1577e+07,2,5776,5700,14.61,3.42,27,6,0,0
88929,8.168e+07,2,5685,5542,14.63,3.1,27,6,0,0
89380,8.1792e+07,2,5532,5428,14.64,2.62,27,6,0,0
89783,8.1896e+07,2,5423,5314,14.72,2.8,27,6,0,0
90226,8.2001e+07,2,5318,5414,14.67,2.93,27,7,0,0
90671,8.2112e+07,2,5418,5600,14.67,3.2,27,7,0,0
91171,8.2231e+07,2,5592,5514,14.61,2.95,26,7,0,0
91615,8.2342e+07,2,5519,5571,14.61,3.06,27,7,0,0
92021,8.2443e+07,2,5572,5600,14.67,3.16,27,7,0,0
92468,8.2554e+07,2,5601,5714,14.69,3.36,27,7,0,0
93362,8.2772e+07,2,5722,5914,14.63,3.52,27,7,0,0
93806,8.2881e+07,2,5903,5785,14.66,3.28,27,7,0,0
94253,8.2987e+07,2,5781,5728,14.6,3.41,27,7,0,0
94657,8.3089e+07,2,5737,5928,14.58,3.37,27,7,0,0
95110,8.3203e+07,2,5920,5814,14.63,3.39,27,8,0,0
95512,8.3306e+07,2,5815,5885,14.59,3.56,27,8,0,0
95965,8.3416e+07,2,5889,5985,14.58,3.83,27,8,0,0
96417,8.353e+07,2,5992,6100,14.58,4.12,27,8,0,0
96873,8.3647e+07,2,6116,6285,14.61,4.2,27,8,0,0
97277,8.3745e+07,2,6288,6371,14.55,4.76,27,8,0,0
97721,8.3853e+07,2,6375,6757,14.52,5.5,27,8,0,0
98170,8.3964e+07,2,6751,6700,14.51,5.77,27,9,0,0
99015,8.4173e+07,2,6699,6671,14.41,5.56,27,9,0,0
99464,8.4285e+07,2,6668,6500,14.54,4.18,27,9,0,0
99909,8.4392e+07,2,6494,6185,14.58,3.23,27,9,0,0
1.0084e+05,8.4613e+07,2,6143,4914,14.57,1.1,27,9,0,0
1.0173e+05,8.4832e+07,2,4856,3728,14.55,0.51,27,9,0,0
1.0218e+05,8.4946e+07,2,3728,3728,14.56,1.12,27,9,0,0
1.0262e+05,8.5053e+07,2,3804,4300,14.56,2.17,27,9,0,0
1.0351e+05,8.5271e+07,2,4365,5485,14.51,3.78,27,10,0,0
1.0392e+05,8.5373e+07,2,5506,5814,14.51,4.37,27,10,0,0
1.0436e+05,8.5485e+07,2,5830,6057,14.51,4.48,27,10,0,0
1.0482e+05,8.5593e+07,2,6084,6357,14.5,5.05,27,10,0,0
1.0526e+05,8.57e+07,2,6360,6414,14.46,5,27,10,0,0
1.0571e+05,8.5808e+07,2,6416,6614,14.47,5.37,27,10,0,0
1.0616e+05,8.5916e+07,2,6612,6557,14.45,5.18,27,10,0,0
1.0709e+05,8.6142e+07,2,6559,6628,14.48,4.96,27,11,0,0
1.0754e+05,8.6253e+07,2,6613,6471,14.48,4.99,27,11,0,0
1.0887e+05,8.6575e+07,2,6465,6214,14.45,4.18,27,11,0,0
1.0928e+05,8.6676e+07,2,6212,6128,14.44,4.24,27,12,0,0
1.0976e+05,8.679e+07,2,6123,6042,14.47,3.6,27,12,0,0
1.1022e+05,8.6904e+07,2,6049,6128,14.51,4.07,27,12,0,0
1.1066e+05,8.7012e+07,2,6125,6085,14.51,3.8,27,12,0,0
1.1111e+05,8.7121e+07,2,6085,6100,14.5,3.93,27,12,0,0
1.1156e+05,8.7231e+07,2,6099,6085,14.48,4.07,27,12,0,0
1.12e+05,8.7344e+07,2,6103,6271,14.5,4,27,12,0,0
1.1289e+05,8.756e+07,2,6261,6028,14.55,3.58,27,12,0,0
1.1333e+05,8.7669e+07,2,6032,6114,14.53,3.57,27,13,0,0
1.1378e+05,8.7778e+07,2,6106,6028,14.55,3.76,27,13,0,0
1.1422e+05,8.789e+07,2,6021,5971,14.52,3.56,27,13,0,0
1.1468e+05,8.8003e+07,2,5974,6014,14.64,3.29,27,13,0,0
1.1509e+05,8.8104e+07,2,6007,5928,14.6,2.93,27,13,0,0
1.1598e+05,8.8323e+07,2,5927,5885,14.56,3.03,27,13,0,0
1.1643e+05,8.8433e+07,2,5883,5871,14.61,2.75,27,13,0,0
1.1688e+05,8.8549e+07,2,5863,5785,14.54,2.83,27,13,0,0
1.1776e+05,8.876e+07,2,5793,6028,14.61,2.93,27,13,0,0
1.1817e+05,8.8864e+07,2,6019,5900,14.63,2.77,27,14,0,0
1.1858e+05,8.8967e+07,2,5898,5771,14.64,2.89,27,14,0,0
1.1903e+05,8.9079e+07,2,5768,5714,14.61,2.66,27,14,0,0
1.1948e+05,8.9188e+07,2,5716,5814,14.58,3.26,27,14,0,0
1.1992e+05,8.9297e+07,2,5814,5885,14.58,3.08,27,14,0,0
1.2038e+05,8.9409e+07,2,5911,6157,14.51,3.42,28,14,0,0
1.2078e+05,8.951e+07,2,6157,6157,14.54,3.78,28,14,0,0
1.2127e+05,8.9629e+07,2,6144,6028,14.54,3.23,27,14,0,0
1.2167e+05,8.9727e+07,2,6034,6157,14.57,3.63,28,14,0,0
1.2212e+05,8.984e+07,2,6166,6271,14.62,3.47,28,14,0,0
1.2253e+05,8.9938e+07,2,6268,6157,14.58,3.22,27,15,0,0
1.2302e+05,9.0061e+07,2,6149,6071,14.64,3.02,28,15,0,0
1.2347e+05,9.0167e+07,2,6058,5885,14.63,2.96,27,15,0,0
1.2387e+05,9.0268e+07,2,5887,5942,14.58,2.92,27,15,0,0
1.2437e+05,9.0387e+07,2,5943,5957,14.54,3.31,27,15,0,0
1.2477e+05,9.0489e+07,2,5962,6100,14.55,3.43,27,15,0,0
1.2522e+05,9.0596e+07,2,6098,6028,14.57,2.94,27,15,0,0
1.2615e+05,9.0821e+07,2,6028,6028,14.58,2.7,28,15,0,0
1.2659e+05,9.0928e+07,2,6031,6085,14.49,3.16,28,15,0,0
1.27e+05,9.1029e+07,2,6081,5900,14.57,2.88,28,15,0,0
1.2725e+05,9.1261e+07,2,5726,5714,14.52,2.93,28,16,0,0
1.2766e+05,9.1361e+07,2,5721,5828,14.5,3.1,28,16,0,0
1.281e+05,9.1469e+07,2,5824,5757,14.51,2.83,27,16,0,0
1.2855e+05,9.1578e+07,2,5755,5728,14.6,2.98,28,16,0,0
1.29e+05,9.1688e+07,2,5739,5857,14.54,3.18,28,16,0,0
1.2944e+05,9.1794e+07,2,5855,5828,14.54,2.82,28,16,0,0
1.2989e+05,9.1907e+07,2,5822,5742,14.52,3.47,28,16,0,0
1.3035e+05,9.202e+07,2,5755,5885,14.41,3.89,28,16,0,0
1.3076e+05,9.2128e+07,2,5881,5842,14.4,3.84,28,16,0,0
1.3121e+05,9.2236e+07,2,5838,5742,14.52,3.38,28,17,0,0
1.3164e+05,9.2338e+07,2,5748,5885,14.52,3.26,28,17,0,0
1.321e+05,9.2451e+07,2,5882,5714,14.47,3.5,28,17,0,0
1.3254e+05,9.2561e+07,2,5712,5700,14.5,3.63,28,17,0,0
1.3295e+05,9.2669e+07,2,5715,5857,14.47,3.74,28,17,0,0
1.334e+05,9.2776e+07,2,5853,5814,14.5,3.47,28,17,0,0
1.3385e+05,9.2889e+07,2,5807,5742,14.44,3.5,28,17,0,0
1.3425e+05,9.2989e+07,2,5744,5785,14.51,3.61,28,17,0,0
1.347e+05,9.3099e+07,2,5787,5914,14.47,3.67,28,17,0,0
1.3515e+05,9.3204e+07,2,5911,5857,14.42,3.84,28,18,0,0
1.356e+05,9.3318e+07,2,5854,5785,14.44,3.75,28,18,0,0
1.3604e+05,9.3425e+07,2,5783,5757,14.42,3.47,28,18,0,0
1.3649e+05,9.3538e+07,2,5757,5757,14.45,3.26,28,18,0,0
1.3694e+05,9.3646e+07,2,5753,5671,14.48,2.94,28,18,0,0
1.3739e+05,9.3755e+07,2,5665,5585,14.48,2.94,28,18,0,0
1.3828e+05,9.3979e+07,2,5594,5800,14.48,3.6,28,18,0,0
1.3872e+05,9.4084e+07,2,5794,5671,14.41,3.49,28,18,0,0
1.3918e+05,9.4193e+07,2,5676,5742,14.42,3.42,28,18,0,0
1.3962e+05,9.4303e+07,2,5742,5742,14.47,3.04,28,19,0,0
1.4006e+05,9.4411e+07,2,5734,5585,14.47,2.74,28,19,0,0
1.4096e+05,9.4634e+07,2,5578,5300,14.5,2.52,28,19,0,0
1.4141e+05,9.4744e+07,2,5319,5514,14.52,2.61,28,19,0,0
1.4181e+05,9.4848e+07,2,5509,5300,14.61,2.16,28,19,0,0
1.423e+05,9.4959e+07,2,5294,5171,14.57,2.18,28,19,0,0
1.427e+05,9.5062e+07,2,5171,5228,14.55,2.3,28,19,0,0
1.4319e+05,9.5174e+07,2,5228,5228,14.55,2.33,28,19,0,0
1.4364e+05,9.5287e+07,2,5233,5300,14.58,2.36,28,19,0,0
1.4409e+05,9.5396e+07,2,5287,5157,14.6,2.02,28,19,0,0
1.445e+05,9.5501e+07,2,5163,5314,14.57,2.3,28,19,0,0
1.4498e+05,9.5614e+07,2,5304,5128,14.57,1.99,28,19,0,0
1.454e+05,9.5719e+07,2,5131,5200,14.54,2.43,28,20,0,0
1.4584e+05,9.5827e+07,2,5207,5371,14.56,2.31,28,20,0,0
1.4676e+05,9.6054e+07,2,5384,5571,14.52,2.72,28,20,0,0
1.4721e+05,9.6164e+07,2,5573,5600,14.48,3.01,28,20,0,0
1.4762e+05,9.6263e+07,2,5610,5771,14.55,3.11,28,20,0,0
1.4807e+05,9.6378e+07,2,5761,5657,14.58,2.83,28,20,0,0
1.4848e+05,9.6483e+07,2,5658,5671,14.48,2.64,28,20,0,0
1.4938e+05,9.6706e+07,2,5683,5942,14.51,3.32,28,20,0,0
1.5023e+05,9.6918e+07,2,5947,6057,14.48,3.63,28,20,0,0
1.5117e+05,9.7143e+07,2,6055,6000,14.47,3.57,28,21,0,0
1.5158e+05,9.7239e+07,2,6010,6142,14.44,3.56,28,21,0,0
1.5246e+05,9.7461e+07,2,6139,6085,14.47,3.34,28,21,0,0
1.5336e+05,9.7678e+07,2,6087,6142,14.51,3.59,28,21,0,0
1.5376e+05,9.7778e+07,2,6132,6042,14.48,3.85,28,21,0,0
1.5421e+05,9.7889e+07,2,6050,6157,14.49,3.63,28,21,0,0
1.547e+05,9.8004e+07,2,6143,6000,14.53,3.56,28,21,0,0
1.551e+05,9.8106e+07,2,6009,6100,14.56,3.55,28,22,0,0
1.5555e+05,9.8215e+07,2,6098,6071,14.5,3.89,28,22,0,0
1.56e+05,9.8326e+07,2,6074,6114,14.48,3.84,28,22,0,0
1.5648e+05,9.8439e+07,2,6122,6214,14.46,3.43,28,22,0,0
1.5689e+05,9.8542e+07,2,6200,6014,14.52,4.35,28,22,0,0
1.5734e+05,9.8648e+07,2,6016,6071,14.51,3.92,28,22,0,0
1.5779e+05,9.8764e+07,2,6076,6157,14.59,3.74,28,22,0,0
1.5819e+05,9.8867e+07,2,6153,5957,14.57,3.74,28,22,0,0
1.5868e+05,9.8984e+07,2,5960,6000,14.54,3.67,28,22,0,0
1.5908e+05,9.9085e+07,2,6006,6128,14.5,3.67,28,23,0,0
1.5958e+05,9.9202e+07,2,6135,6214,14.51,3.42,28,23,0,0
1.5997e+05,9.9299e+07,2,6200,5942,14.55,3.25,28,23,0,0
1.6042e+05,9.9409e+07,2,5943,5985,14.5,3.68,28,23,0,0
1.6087e+05,9.9519e+07,2,5985,5985,14.47,3.56,28,23,0,0
1.6133e+05,9.9634e+07,2,5993,6114,14.46,3.72,28,23,0,0
1.6174e+05,9.974e+07,2,6105,5985,14.48,3.65,28,23,0,0
1.6219e+05,9.9853e+07,2,5986,6014,14.52,3.61,28,23,0,0
1.6264e+05,9.9964e+07,2,6020,6171,14.45,3.98,28,23,0,0
1.6313e+05,1.0008e+08,2,6169,6157,14.51,3.69,28,24,0,0
1.6353e+05,1.0018e+08,2,6142,5928,14.5,3.75,28,24,0,0
1.6398e+05,1.0029e+08,2,5942,6142,14.48,3.89,28,24,0,0
1.6442e+05,1.004e+08,2,6142,6157,14.45,4.32,28,24,0,0
1.6488e+05,1.0051e+08,2,6163,6242,14.46,4.27,28,24,0,0
1.6529e+05,1.0061e+08,2,6245,6457,14.46,4.65,28,24,0,0
1.6573e+05,1.0072e+08,2,6453,6371,14.47,4.29,28,24,0,0
1.6623e+05,1.0084e+08,2,6369,6357,14.48,3.96,28,25,0,0
1.6667e+05,1.0095e+08,2,6349,6271,14.49,3.38,28,25,0,0
1.6712e+05,1.0106e+08,2,6250,6042,14.47,3.3,28,25,0,0
1.6753e+05,1.0116e+08,2,6044,6071,14.44,3.85,28,25,0,0
1.6793e+05,1.0127e+08,2,6073,6171,14.47,3.42,28,25,0,0
1.6842e+05,1.0138e+08,2,6168,6128,14.47,3.34,28,25,0,0
1.6884e+05,1.0149e+08,2,6120,5942,14.42,3.31,28,25,0,0
1.6928e+05,1.016e+08,2,5948,6014,14.42,3.71,28,25,0,0
1.6973e+05,1.0171e+08,2,6024,6128,14.41,3.85,28,25,0,0
1.7014e+05,1.0181e+08,2,6130,6257,14.41,3.99,28,26,0,0
1.7059e+05,1.0192e+08,2,6259,6285,14.48,3.85,28,26,0,0
1.7104e+05,1.0203e+08,2,6271,6142,14.45,3.74,28,26,0,0
1.7148e+05,1.0214e+08,2,6122,5928,14.41,3.57,28,26,0,0
1.7193e+05,1.0225e+08,2,5939,6085,14.45,3.52,28,26,0,0
1.7237e+05,1.0236e+08,2,6082,6057,14.44,3.32,28,26,0,0
1.7278e+05,1.0246e+08,2,6056,6028,14.48,3.54,28,26,0,0
1.7367e+05,1.0268e+08,2,6026,5928,14.5,2.76,28,26,0,0
1.7412e+05,1.0279e+08,2,5918,5700,14.5,2.97,28,26,0,0
1.7457e+05,1.029e+08,2,5710,5971,14.52,3.36,28,27,0,0
1.7502e+05,1.0301e+08,2,5969,5942,14.53,2.87,28,27,0,0
1.7551e+05,1.0312e+08,2,5943,5957,14.52,3.03,28,27,0,0
1.7595e+05,1.0324e+08,2,5945,5828,14.49,2.8,28,27,0,0
1.7636e+05,1.0334e+08,2,5829,5914,14.47,3.34,28,27,0,0
1.7684e+05,1.0345e+08,2,5929,6057,14.47,3.32,28,27,0,0
1.7728e+05,1.0356e+08,2,6066,6157,14.49,3.49,28,27,0,0
1.7773e+05,1.0368e+08,2,6150,6057,14.46,3.49,28,27,0,0
1.7814e+05,1.0378e+08,2,6066,6157,14.47,3.97,28,27,0,0
1.7858e+05,1.0388e+08,2,6162,6371,14.46,4.2,28,27,0,0
1.7903e+05,1.0399e+08,2,6344,6100,14.5,4.16,29,28,0,0
1.7948e+05,1.041e+08,2,6096,6057,14.44,3.83,28,28,0,0
1.7989e+05,1.0421e+08,2,6060,6228,14.44,4.37,29,28,0,0
1.8034e+05,1.0432e+08,2,6228,6242,14.47,4.59,28,28,0,0
1.8083e+05,1.0444e+08,2,6244,6271,14.41,4.85,28,28,0,0
1.8128e+05,1.0455e+08,2,6271,6271,14.45,4.52,28,28,0,0
1.8172e+05,1.0466e+08,2,6279,6357,14.5,4.72,28,28,0,0
1.8213e+05,1.0476e+08,2,6358,6371,14.47,4.51,28,29,0,0
1.8302e+05,1.0498e+08,2,6360,6157,14.51,3.76,28,29,0,0
1.8392e+05,1.0519e+08,2,6158,6200,14.46,4.25,29,29,0,0
1.8432e+05,1.053e+08,2,6197,6157,14.45,4.68,29,29,0,0
1.8477e+05,1.0541e+08,2,6168,6371,14.52,4.68,29,29,0,0
1.8522e+05,1.0552e+08,2,6354,6185,14.44,4.35,29,29,0,0
1.8567e+05,1.0563e+08,2,6194,6328,14.39,4.98,28,30,0,0
1.8608e+05,1.0573e+08,2,6328,6328,14.48,3.38,29,30,0,0
1.8656e+05,1.0585e+08,2,6332,6357,14.37,5.64,29,30,0,0
1.8697e+05,1.0595e+08,2,6359,6400,14.4,4.69,29,30,0,0
1.8742e+05,1.0606e+08,2,6396,6371,14.48,4.55,29,30,0,0
1.8782e+05,1.0616e+08,2,6369,6342,14.47,4.22,29,30,0,0
1.8801e+05,1.0627e+08,2,6324,6100,14.47,3.83,29,30,0,0
1.8846e+05,1.0638e+08,2,6091,5971,14.54,3.58,29,30,0,0
1.8887e+05,1.0648e+08,2,5969,5900,14.52,2.93,29,31,0,0
1.8931e+05,1.0659e+08,2,5898,5785,14.53,3.21,29,31,0,0
1.8976e+05,1.067e+08,2,5786,5914,14.44,3.71,29,31,0,0
1.902e+05,1.068e+08,2,5915,6000,14.48,3.84,29,31,0,0
1.9069e+05,1.0692e+08,2,6004,6071,14.42,3.83,29,31,0,0
1.911e+05,1.0702e+08,2,6069,6000,14.44,3.88,29,31,0,0
1.9159e+05,1.0714e+08,2,6000,6000,14.44,3.82,29,31,0,0
1.9204e+05,1.0726e+08,2,5997,5971,14.45,3.47,28,31,0,0
1.9244e+05,1.0735e+08,2,5968,5942,14.38,3.31,29,31,0,0
1.929e+05,1.0747e+08,2,5943,5957,14.35,3.73,29,32,0,0
1.9331e+05,1.0757e+08,2,5953,5914,14.38,3.55,29,32,0,0
1.9371e+05,1.0767e+08,2,5913,5900,14.3,4.04,29,32,0,0
1.9416e+05,1.0778e+08,2,5902,6042,14.35,4.82,29,32,0,0
1.946e+05,1.0789e+08,2,6035,5957,14.35,3.34,29,32,0,0
1.9505e+05,1.08e+08,2,5953,5871,14.35,3.45,29,32,0,0
1.9553e+05,1.0811e+08,2,5877,5942,14.31,4,29,32,0,0
1.9598e+05,1.0822e+08,2,5953,6071,14.32,4.5,29,32,0,0
1.9638e+05,1.0832e+08,2,6075,6242,14.23,4.59,29,32,0,0
1.9684e+05,1.0844e+08,2,6246,6300,14.17,5.03,29,33,0,0
1.9728e+05,1.0855e+08,2,6322,6542,14.19,5.21,29,33,0,0
1.9773e+05,1.0865e+08,2,6537,6428,14.14,5.22,29,33,0,0
1.9818e+05,1.0876e+08,2,6439,6600,14.24,4.89,29,33,0,0
1.9862e+05,1.0887e+08,2,6583,6414,14.35,4.69,29,33,0,0
1.9907e+05,1.0898e+08,2,6403,6271,14.41,4.35,29,33,0,0
1.9948e+05,1.0908e+08,2,6272,6342,14.36,5.08,29,34,0,0
1.9997e+05,1.092e+08,2,6344,6371,14.39,4.52,29,34,0,0
2.0041e+05,1.0931e+08,2,6368,6342,14.37,4.2,29,34,0,0
2.0087e+05,1.0942e+08,2,6324,6142,14.41,3.59,29,34,0,0
2.0126e+05,1.0952e+08,2,6127,5800,14.42,3.17,29,34,0,0
2.0176e+05,1.0963e+08,2,5825,6085,14.31,4.28,29,34,0,0
2.022e+05,1.0974e+08,2,6056,5757,14.27,3.39,29,34,0,0
2.0265e+05,1.0986e+08,2,5749,5671,14.37,2.93,29,34,0,0
2.031e+05,1.0996e+08,2,5660,5500,14.33,3.16,29,34,0,0
2.0355e+05,1.1007e+08,2,5514,5671,14.19,4,29,35,0,0
2.044e+05,1.1028e+08,2,5672,5900,14.34,3.65,29,35,0,0
2.0489e+05,1.104e+08,2,5909,6014,14.26,4.13,29,35,0,0
2.053e+05,1.105e+08,2,6014,6014,14.32,4.17,29,35,0,0
2.0624e+05,1.1073e+08,2,6023,6242,14.3,4.76,29,35,0,0
2.0709e+05,1.1094e+08,2,6242,6242,14.33,4.63,29,36,0,0
2.0754e+05,1.1105e+08,2,6237,6028,14.42,3.63,29,36,0,0
2.0844e+05,1.1127e+08,2,6032,6114,14.41,3.81,29,36,0,0
2.0888e+05,1.1138e+08,2,6110,6057,14.35,4.13,29,36,0,0
2.0933e+05,1.1149e+08,2,6055,6042,14.44,3.06,29,36,0,0
2.0974e+05,1.1159e+08,2,6025,5671,14.51,2.8,29,36,0,0
2.1022e+05,1.1171e+08,2,5661,5571,14.5,2.76,29,36,0,0
2.1062e+05,1.1181e+08,2,5567,5500,14.44,2.51,29,36,0,0
2.1107e+05,1.1192e+08,2,5479,5171,14.52,2.1,29,36,0,0
2.1152e+05,1.1202e+08,2,5173,5242,14.58,2.22,29,37,0,0
2.1196e+05,1.1214e+08,2,5232,5142,14.52,1.99,29,37,0,0
2.1241e+05,1.1224e+08,2,5142,5142,14.52,1.97,29,37,0,0
2.1285e+05,1.1236e+08,2,5136,5071,14.55,2.08,29,37,0,0
2.133e+05,1.1247e+08,2,5090,5271,14.51,2.42,29,37,0,0
2.1371e+05,1.1257e+08,2,5263,5200,14.5,2.66,29,37,0,0
2.142e+05,1.1269e+08,2,5201,5214,14.48,2.48,29,37,0,0
2.146e+05,1.1279e+08,2,5217,5285,14.47,2.24,29,37,0,0
2.1549e+05,1.1301e+08,2,5285,5285,14.51,2.25,29,37,0,0
2.1597e+05,1.1312e+08,2,5302,5500,14.51,3.02,29,37,0,0
2.1642e+05,1.1322e+08,2,5510,5614,14.44,3.07,29,37,0,0
2.1686e+05,1.1334e+08,2,5616,5642,14.44,2.91,29,37,0,0
2.1727e+05,1.1344e+08,2,5645,5857,14.38,3.31,29,37,0,0
2.1772e+05,1.1355e+08,2,5857,5857,14.44,3.49,29,38,0,0
2.182e+05,1.1366e+08,2,5867,6042,14.44,3.56,29,38,0,0
2.1865e+05,1.1377e+08,2,6043,6057,14.35,3.48,29,38,0,0
2.1906e+05,1.1387e+08,2,6050,5928,14.41,3.6,29,38,0,0
2.195e+05,1.1398e+08,2,5935,6085,14.35,3.59,29,38,0,0
2.1998e+05,1.141e+08,2,6081,6042,14.36,3.79,29,38,0,0
2.2039e+05,1.142e+08,2,6042,6057,14.35,3.7,29,38,0,0
2.2087e+05,1.1431e+08,2,6059,6114,14.35,3.62,29,38,0,0
2.2132e+05,1.1442e+08,2,6103,5957,14.39,3.4,29,38,0,0
2.2173e+05,1.1452e+08,2,5957,5971,14.37,3.54,29,39,0,0
2.2217e+05,1.1463e+08,2,5968,5914,14.33,3.89,29,39,0,0
2.2262e+05,1.1474e+08,2,5910,5828,14.37,3.58,29,39,0,0
2.2351e+05,1.1496e+08,2,5835,6057,14.39,3.42,29,39,0,0
2.2396e+05,1.1508e+08,2,6034,5828,14.37,3.49,29,39,0,0
2.2485e+05,1.1529e+08,2,5835,5985,14.41,3.67,29,39,0,0
2.2526e+05,1.154e+08,2,5993,6100,14.45,3.6,29,39,0,0
2.2619e+05,1.1562e+08,2,6091,5914,14.44,3.69,29,40,0,0
2.2664e+05,1.1573e+08,2,5931,6114,14.45,3.83,29,40,0,0
2.2749e+05,1.1594e+08,2,6109,5971,14.44,3.5,29,40,0,0
2.2793e+05,1.1605e+08,2,5966,5871,14.45,3.31,29,40,0,0
2.2838e+05,1.1616e+08,2,5877,5942,14.42,3.52,29,40,0,0
2.2882e+05,1.1627e+08,2,5936,5871,14.42,3.54,29,40,0,0
2.2928e+05,1.1638e+08,2,5857,5714,14.45,3.24,29,40,0,0
2.2968e+05,1.1648e+08,2,5715,5814,14.41,3.31,29,41,0,0
2.3017e+05,1.166e+08,2,5831,6000,14.41,3.36,29,41,0,0
2.3057e+05,1.167e+08,2,5976,5657,14.47,2.93,29,41,0,0
2.3102e+05,1.1681e+08,2,5658,5685,14.42,3.29,29,41,0,0
2.3192e+05,1.1703e+08,2,5689,5885,14.4,3.69,29,41,0,0
2.3237e+05,1.1715e+08,2,5873,5742,14.39,3.22,29,41,0,0
2.3281e+05,1.1726e+08,2,5730,5614,14.4,3.23,29,41,0,0
2.3326e+05,1.1736e+08,2,5611,5585,14.36,3.1,29,41,0,0
2.337e+05,1.1748e+08,2,5598,5742,14.35,3.28,29,41,0,0
2.3459e+05,1.1769e+08,2,5742,5757,14.36,3.24,29,42,0,0
2.3504e+05,1.178e+08,2,5750,5657,14.42,3.23,29,42,0,0
2.3544e+05,1.179e+08,2,5658,5742,14.4,3.67,29,42,0,0
2.3593e+05,1.1802e+08,2,5756,5971,14.39,3.93,29,42,0,0
2.3638e+05,1.1813e+08,2,5973,6014,14.35,3.7,29,42,0,0
2.3683e+05,1.1824e+08,2,6006,5900,14.39,4.09,29,42,0,0
2.3724e+05,1.1834e+08,2,5897,5857,14.39,3.51,29,42,0,0
2.3768e+05,1.1845e+08,2,5858,5871,14.39,2.97,29,42,0,0
2.3809e+05,1.1856e+08,2,5863,5685,14.5,2.78,29,42,0,0
2.3853e+05,1.1867e+08,2,5663,5457,14.38,2.49,29,42,0,0
2.3894e+05,1.1877e+08,2,5456,5428,14.39,2.57,29,43,0,0
2.3943e+05,1.1889e+08,2,5415,5285,14.41,2.5,29,43,0,0
2.3984e+05,1.1899e+08,2,5303,5500,14.42,2.63,29,43,0,0
2.4024e+05,1.191e+08,2,5503,5571,14.36,3.17,29,43,0,0
2.4069e+05,1.1921e+08,2,5571,5585,14.43,3.26,29,43,0,0
2.4114e+05,1.1932e+08,2,5593,5771,14.38,3.22,29,43,0,0
2.4159e+05,1.1943e+08,2,5771,5771,14.38,3.57,29,43,0,0
2.4203e+05,1.1954e+08,2,5777,5842,14.36,3.62,29,43,0,0
2.4248e+05,1.1965e+08,2,5863,6014,14.36,3.76,29,43,0,0
2.4288e+05,1.1975e+08,2,6011,5842,14.42,3.57,29,43,0,0
2.4333e+05,1.1986e+08,2,5843,5871,14.38,3.53,29,44,0,0
2.4422e+05,1.2009e+08,2,5871,5885,14.32,3.51,29,44,0,0
2.4467e+05,1.2019e+08,2,5872,5757,14.35,3.21,29,44,0,0
2.4552e+05,1.2041e+08,2,5753,5542,14.45,2.88,29,44,0,0
2.4597e+05,1.2052e+08,2,5538,5514,14.44,2.68,29,44,0,0
2.4641e+05,1.2063e+08,2,5514,5528,14.41,3.14,29,44,0,0
2.4686e+05,1.2074e+08,2,5532,5571,14.38,3.05,29,44,0,0
2.4731e+05,1.2085e+08,2,5591,5757,14.36,3.7,29,44,0,0
2.4771e+05,1.2095e+08,2,5757,5785,14.41,3.39,29,45,0,0
2.4815e+05,1.2106e+08,2,5782,5671,14.35,3.28,29,45,0,0
2.4864e+05,1.2118e+08,2,5667,5585,14.36,3.56,29,45,0,0
2.4905e+05,1.2127e+08,2,5588,5742,14.35,3.61,29,45,0,0
2.4954e+05,1.2139e+08,2,5753,5914,14.38,4.26,29,45,0,0
2.4994e+05,1.2149e+08,2,5925,6142,14.38,3.87,29,45,0,0
2.5043e+05,1.2162e+08,2,6136,6071,14.38,4.27,29,45,0,0
2.5084e+05,1.2172e+08,2,6067,6014,14.36,3.91,29,45,0,0
2.5129e+05,1.2183e+08,2,6026,6142,14.38,4.11,29,45,0,0
2.5174e+05,1.2194e+08,2,6135,6071,14.42,4.08,29,46,0,0
2.5218e+05,1.2205e+08,2,6071,6071,14.39,4.07,29,46,0,0
2.5258e+05,1.2215e+08,2,6068,6014,14.36,4.05,29,46,0,0
2.5307e+05,1.2227e+08,2,6038,6285,14.39,3.76,29,46,0,0
2.5352e+05,1.2238e+08,2,6266,6085,14.42,3.63,29,46,0,0
2.5396e+05,1.2248e+08,2,6086,6114,14.36,3.5,29,46,0,0
2.5441e+05,1.2259e+08,2,6104,5942,14.43,3.21,29,46,0,0
2.5485e+05,1.227e+08,2,5942,5942,14.41,3.21,29,46,0,0
2.553e+05,1.2281e+08,2,5930,5785,14.43,2.93,29,46,0,0
2.5575e+05,1.2293e+08,2,5776,5700,14.44,2.9,29,47,0,0
2.5615e+05,1.2302e+08,2,5700,5728,14.39,3.14,29,47,0,0
2.5656e+05,1.2313e+08,2,5728,5728,14.39,3.26,29,47,0,0
2.5701e+05,1.2324e+08,2,5739,5957,14.36,3.74,29,47,0,0
2.5741e+05,1.2334e+08,2,5959,6014,14.3,4.02,29,47,0,0
2.5783e+05,1.2345e+08,2,6014,6028,14.42,3.57,29,47,0,0
2.5827e+05,1.2356e+08,2,6029,6128,14.4,3.78,29,47,0,0
2.5876e+05,1.2368e+08,2,6121,6057,14.45,4.09,29,47,0,0
2.592e+05,1.2378e+08,2,6061,6214,14.44,3.76,29,47,0,0
2.5965e+05,1.2389e+08,2,6214,6228,14.45,4.06,29,48,0,0
2.601e+05,1.24e+08,2,6234,6328,14.46,3.86,29,48,0,0
2.6054e+05,1.2411e+08,2,6328,6328,14.48,3.39,29,48,0,0
2.6099e+05,1.2422e+08,2,6317,6157,14.52,3.36,29,48,0,0
2.6144e+05,1.2433e+08,2,6154,6128,14.45,3.16,29,48,0,0
2.6189e+05,1.2445e+08,2,6107,5885,14.54,2.82,29,48,0,0
2.6229e+05,1.2455e+08,2,5872,5700,14.51,2.54,29,48,0,0
2.6271e+05,1.2465e+08,2,5700,5714,14.45,2.82,29,48,0,0
2.6319e+05,1.2477e+08,2,5709,5657,14.47,2.5,29,48,0,0
2.636e+05,1.2487e+08,2,5662,5771,14.48,2.74,29,48,0,0
2.6405e+05,1.2498e+08,2,5777,5914,14.48,2.86,29,49,0,0
2.6449e+05,1.2509e+08,2,5914,5914,14.5,2.92,29,49,0,0
2.6493e+05,1.252e+08,2,5925,6071,14.45,3.17,29,49,0,0
2.6534e+05,1.253e+08,2,6073,6228,14.46,3.41,29,49,0,0
2.6583e+05,1.2541e+08,2,6217,6100,14.51,2.83,29,49,0,0
2.6627e+05,1.2552e+08,2,6104,6171,14.47,3.06,29,49,0,0
2.6672e+05,1.2563e+08,2,6174,6228,14.44,2.88,29,49,0,0
2.6716e+05,1.2574e+08,2,6221,6057,14.43,3.02,29,49,0,0
2.6761e+05,1.2585e+08,2,6070,6228,14.36,3.29,29,49,0,0
2.6806e+05,1.2597e+08,2,6232,6285,14.44,2.71,29,49,0,0
2.6847e+05,1.2607e+08,2,6276,6157,14.43,3.16,29,49,0,0
2.6892e+05,1.2618e+08,2,6157,6157,14.42,3.16,29,50,0,0
2.6937e+05,1.2629e+08,2,6152,6114,14.48,2.85,29,50,0,0
2.6977e+05,1.2639e+08,2,6106,6000,14.45,3.07,29,50,0,0
2.7022e+05,1.265e+08,2,6001,6028,14.47,3.34,29,50,0,0
2.7067e+05,1.2661e+08,2,6028,6028,14.42,3.68,29,50,0,0
2.7111e+05,1.2672e+08,2,6035,6142,14.47,3.73,29,50,0,0
2.7156e+05,1.2683e+08,2,6151,6271,14.44,3.86,29,50,0,0
2.7201e+05,1.2694e+08,2,6263,6171,14.39,3.9,29,50,0,0
2.7246e+05,1.2705e+08,2,6171,6171,14.41,3.85,29,50,0,0
2.729e+05,1.2716e+08,2,6161,6071,14.45,3.45,29,50,0,0
2.7331e+05,1.2726e+08,2,6071,6071,14.41,3.38,29,51,0,0
2.7376e+05,1.2737e+08,2,6067,5971,14.42,3.27,29,51,0,0
2.742e+05,1.2748e+08,2,5967,5914,14.42,3.33,29,51,0,0
2.7465e+05,1.2759e+08,2,5919,5971,14.41,3.28,29,51,0,0
2.7551e+05,1.2781e+08,2,5972,6014,14.42,3.31,29,51,0,0
2.7594e+05,1.2791e+08,2,6011,5957,14.46,3.37,29,51,0,0
2.7639e+05,1.2802e+08,2,5950,5857,14.43,3.56,29,51,0,0
2.7684e+05,1.2813e+08,2,5868,6028,14.41,3.58,29,51,0,0
2.7729e+05,1.2823e+08,2,6022,5942,14.39,3.61,29,52,0,0
2.7773e+05,1.2834e+08,2,5953,6128,14.42,3.64,29,52,0,0
2.7822e+05,1.2846e+08,2,6123,6071,14.41,3.58,29,52,0,0
2.7862e+05,1.2856e+08,2,6085,6214,14.43,3.74,29,52,0,0
2.7902e+05,1.2866e+08,2,6210,6114,14.39,3.68,29,52,0,0
2.7952e+05,1.2878e+08,2,6114,6128,14.4,3.86,29,52,0,0
2.7992e+05,1.2888e+08,2,6126,6114,14.44,3.75,29,52,0,0
2.8036e+05,1.2899e+08,2,6111,6071,14.39,4,29,52,0,0
2.8081e+05,1.291e+08,2,6074,6114,14.38,3.9,29,52,0,0
2.8126e+05,1.2921e+08,2,6116,6157,14.42,3.68,29,53,0,0
2.8171e+05,1.2932e+08,2,6159,6185,14.39,3.64,29,53,0,0
2.8211e+05,1.2942e+08,2,6179,6057,14.39,3.79,29,53,0,0
2.8256e+05,1.2953e+08,2,6059,6100,14.39,3.59,29,53,0,0
2.83e+05,1.2964e+08,2,6104,6142,14.44,3.75,29,53,0,0
2.8345e+05,1.2976e+08,2,6145,6171,14.45,3.77,29,53,0,0
2.839e+05,1.2987e+08,2,6165,6114,14.41,3.37,29,53,0,0
2.8435e+05,1.2998e+08,2,6086,5857,14.43,3.44,29,53,0,0
2.848e+05,1.3009e+08,2,5869,6000,14.47,3.42,29,53,0,0
2.8524e+05,1.302e+08,2,5993,5942,14.46,3.3,29,53,0,0
2.8568e+05,1.3031e+08,2,5942,5942,14.44,3.5,29,54,0,0
2.8609e+05,1.3041e+08,2,5958,6100,14.47,3.19,29,54,0,0
2.8654e+05,1.3052e+08,2,6083,5914,14.45,3.04,29,54,0,0
2.8698e+05,1.3062e+08,2,5912,5814,14.44,3.1,29,54,0,0
2.8746e+05,1.3074e+08,2,5814,5814,14.48,3.17,29,54,0,0
2.8791e+05,1.3085e+08,2,5836,6028,14.42,3.24,29,54,0,0
2.8832e+05,1.3095e+08,2,6023,5985,14.43,3.47,29,54,0,0
2.8876e+05,1.3106e+08,2,5994,6100,14.37,3.45,29,54,0,0
2.8921e+05,1.3117e+08,2,6099,6085,14.3,3.79,29,54,0,0
2.8965e+05,1.3128e+08,2,6103,6257,14.29,4.16,29,54,0,0
2.9006e+05,1.3138e+08,2,6256,6200,14.33,4.02,29,55,0,0
2.9144e+05,1.3171e+08,2,6199,6171,14.35,3.95,29,55,0,0
2.9188e+05,1.3182e+08,2,6169,6142,14.35,4.2,29,55,0,0
2.9281e+05,1.3205e+08,2,6127,5957,14.37,3.22,29,55,0,0
2.9322e+05,1.3215e+08,2,5956,5942,14.45,3.42,29,55,0,0
2.9363e+05,1.3225e+08,2,5944,6000,14.41,3.27,29,56,0,0
2.9407e+05,1.3236e+08,2,5997,5857,14.44,3.54,29,56,0,0
2.9452e+05,1.3247e+08,2,5858,5957,14.46,3.31,29,56,0,0
2.9499e+05,1.3258e+08,2,5952,5857,14.45,3.42,29,56,0,0
2.9545e+05,1.3269e+08,2,5871,6014,14.39,3.7,29,56,0,0
2.959e+05,1.328e+08,2,6014,6014,14.39,3.72,29,56,0,0
2.9674e+05,1.3301e+08,2,6015,6085,14.41,3.68,29,56,0,0
2.9719e+05,1.3312e+08,2,6080,6000,14.39,3.61,29,56,0,0
2.9765e+05,1.3324e+08,2,5982,5857,14.42,3.63,29,57,0,0
2.9809e+05,1.3335e+08,2,5864,5942,14.36,3.42,29,57,0,0
2.985e+05,1.3345e+08,2,5940,5885,14.39,3.49,29,57,0,0
2.9894e+05,1.3356e+08,2,5885,5885,14.44,3.16,29,57,0,0
2.9983e+05,1.3378e+08,2,5882,5800,14.41,3.38,29,57,0,0
3.0028e+05,1.3389e+08,2,5790,5700,14.49,3.06,29,57,0,0
3.0076e+05,1.34e+08,2,5701,5728,14.44,3.38,29,57,0,0
3.0121e+05,1.3411e+08,2,5731,5771,14.43,3.48,29,57,0,0
3.0161e+05,1.3421e+08,2,5768,5671,14.46,3.36,29,57,0,0
3.0206e+05,1.3432e+08,2,5676,5728,14.42,3.22,29,58,0,0
3.0251e+05,1.3443e+08,2,5727,5714,14.44,3.15,29,58,0,0
3.0295e+05,1.3454e+08,2,5729,5928,14.41,3.6,29,58,0,0
3.0344e+05,1.3466e+08,2,5912,5742,14.42,3.84,29,58,0,0
3.0384e+05,1.3476e+08,2,5749,5842,14.46,3.27,29,58,0,0
3.0428e+05,1.3487e+08,2,5838,5800,14.45,3.53,29,58,0,0
3.0469e+05,1.3497e+08,2,5805,5900,14.39,3.64,29,58,0,0
3.0509e+05,1.3508e+08,2,5896,5828,14.43,3.73,29,58,0,0
3.0555e+05,1.3519e+08,2,5825,5785,14.47,3.72,29,58,0,0
3.06e+05,1.353e+08,2,5790,5900,14.38,3.72,29,59,0,0
3.0645e+05,1.3541e+08,2,5893,5814,14.4,3.95,29,59,0,0
3.0685e+05,1.3551e+08,2,5816,5900,14.46,3.81,29,59,0,0
3.0735e+05,1.3563e+08,2,5894,5842,14.4,3.61,29,59,0,0
3.0775e+05,1.3573e+08,2,5842,5871,14.36,4.05,29,59,0,0
3.082e+05,1.3584e+08,2,5873,6014,14.45,3.7,29,59,0,0
3.0869e+05,1.3596e+08,2,6011,5971,14.48,3.71,29,59,0,0
3.0909e+05,1.3606e+08,2,5971,5971,14.39,3.7,29,59,0,0
3.0954e+05,1.3617e+08,2,5963,5871,14.52,3.23,29,60,0,0
3.0999e+05,1.3628e+08,2,5851,5571,14.48,3.04,29,60,0,0
3.1048e+05,1.364e+08,2,5566,5514,14.47,3.01,29,60,0,0
3.1088e+05,1.365e+08,2,5523,5700,14.46,3.52,29,60,0,0
3.1133e+05,1.3661e+08,2,5708,5814,14.49,3.69,29,60,0,0
3.1178e+05,1.3672e+08,2,5811,5757,14.45,3.36,29,60,0,0
3.1222e+05,1.3683e+08,2,5755,5742,14.46,3.86,29,60,0,0
3.1267e+05,1.3694e+08,2,5590,4571,15.14,0.73,29,60,0,0
3.1312e+05,1.3705e+08,2,4609,4957,14.69,4.24,29,60,0,0
3.1356e+05,1.3715e+08,2,4864,3757,14.86,0.32,29,60,0,0
3.1396e+05,1.3726e+08,2,3739,3085,14.91,0.1,29,60,0,0
3.1486e+05,1.3748e+08,2,3076,2871,14.86,0.57,29,60,0,0
3.153e+05,1.3759e+08,2,2869,2742,14.88,0.35,29,60,0,0
3.1571e+05,1.3769e+08,2,2744,2785,14.87,0.55,29,60,0,0
3.1664e+05,1.3792e+08,2,2782,2728,14.88,0.48,29,60,0,0
3.1709e+05,1.3803e+08,2,2734,2785,14.89,0.42,29,60,0,0
3.1794e+05,1.3824e+08,2,2784,2771,14.89,0.47,29,60,0,0
3.1839e+05,1.3835e+08,2,2768,2742,14.88,0.45,29,60,0,0
3.1879e+05,1.3845e+08,2,2744,2800,14.89,0.45,30,60,0,0
3.1928e+05,1.3856e+08,2,2798,2785,14.89,0.43,29,61,0,0
3.1976e+05,1.3868e+08,2,2784,2771,14.91,0.44,29,61,0,0
3.2021e+05,1.3878e+08,2,2768,2742,14.91,0.41,29,61,0,0
3.2061e+05,1.3888e+08,2,2743,2771,14.89,0.43,29,61,0,0
3.2106e+05,1.3899e+08,2,2757,1914,14.97,0.01,29,61,0,0
3.2153e+05,1.391e+08,2,1901,1428,14.96,0,29,61,0,0
3.2198e+05,1.3921e+08,2,1420,1271,14.95,0.06,29,61,0,0
3.2243e+05,1.3932e+08,2,1270,1242,14.95,0.09,29,61,0,0
3.2292e+05,1.3943e+08,2,1241,1228,14.95,0.09,29,61,0,0
3.2337e+05,1.3954e+08,2,1228,1228,14.95,0.1,29,61,0,0
3.2381e+05,1.3964e+08,2,1228,1228,14.95,0.1,29,61,0,0
3.2426e+05,1.3975e+08,2,1228,1228,14.97,0.1,29,61,0,0
3.2471e+05,1.3986e+08,2,1228,1242,14.97,0.1,29,61,0,0
3.2516e+05,1.3997e+08,2,1241,1228,14.96,0.09,29,61,0,0
3.2561e+05,1.4008e+08,2,1228,1228,14.96,0.09,29,61,0,0
3.265e+05,1.4029e+08,2,1228,1228,14.97,0.09,29,61,0,0
3.2699e+05,1.404e+08,2,1228,1228,14.97,0.09,29,61,0,0
3.2739e+05,1.405e+08,2,1228,1228,14.97,0.09,29,61,0,0
3.2829e+05,1.4072e+08,2,1228,1228,14.97,0.09,29,61,0,0
3.2874e+05,1.4083e+08,2,1228,1228,14.98,0.09,29,61,0,0
3.2919e+05,1.4094e+08,2,1228,1228,14.98,0.09,29,61,0,0
3.2964e+05,1.4105e+08,2,1228,1228,14.98,0.09,29,61,0,0
3.3009e+05,1.4116e+08,2,1228,1228,14.98,0.09,29,61,0,0
3.3053e+05,1.4127e+08,2,1228,1228,14.98,0.09,29,61,0,0
3.3098e+05,1.4138e+08,2,1228,1228,14.98,0.09,29,61,0,0
3.3142e+05,1.4149e+08,2,1228,1228,14.98,0.1,29,61,0,0
3.3188e+05,1.4159e+08,2,1227,1214,14.98,0.1,29,61,0,0
3.3232e+05,1.417e+08,2,1215,1228,14.98,0.1,29,61,0,0
3.3277e+05,1.4182e+08,2,1228,1228,14.98,0.1,29,61,0,0
3.3321e+05,1.4192e+08,2,1228,1228,14.99,0.1,29,61,0,0
3.3366e+05,1.4203e+08,2,1228,1228,14.99,0.1,29,61,0,0
3.3411e+05,1.4214e+08,2,1227,1214,14.99,0.1,29,61,0,0
3.3436e+05,1.4225e+08,2,1215,1228,14.98,0.1,29,61,0,0
3.348e+05,1.4235e+08,2,1228,1228,15,0.1,29,61,0,0
3.3509e+05,1.4245e+08,2,1226,1214,14.99,0.1,29,61,0,0
3.3553e+05,1.4256e+08,2,1214,1228,15,0.1,29,61,0,0
3.3598e+05,1.4267e+08,2,1228,1228,15,0.1,29,61,0,0
3.3643e+05,1.4278e+08,2,1228,1228,15,0.1,29,61,0,0
3.3687e+05,1.4288e+08,2,1228,1228,15,0.09,29,61,0,0
3.3732e+05,1.4299e+08,2,1228,1228,15,0.1,29,61,0,0
3.3777e+05,1.431e+08,2,1228,1228,15,0.1,29,61,0,0
3.3822e+05,1.4321e+08,2,1229,1242,15,0.1,29,61,0,0
3.3862e+05,1.4331e+08,2,1241,1228,15.01,0.1,29,61,0,0
3.3911e+05,1.4342e+08,2,1228,1228,15.01,0.1,29,61,0,0
3.3955e+05,1.4353e+08,2,1228,1228,15.01,0.1,29,61,0,0
3.4e+05,1.4364e+08,2,1228,1228,15.01,0.1,29,61,0,0
3.4045e+05,1.4375e+08,2,1228,1228,15,0.1,29,61,0,0
3.409e+05,1.4386e+08,2,1228,1228,15.01,0.1,29,61,0,0
3.4135e+05,1.4397e+08,2,1228,1228,15.01,0.1,29,61,0,0
3.418e+05,1.4407e+08,2,1228,1228,15.01,0.1,29,61,0,0
3.4225e+05,1.4418e+08,2,1228,1228,15.01,0.1,29,61,0,0
3.4267e+05,1.4429e+08,2,1228,1228,15.01,0.1,29,61,0,0
3.4316e+05,1.444e+08,2,1228,1228,15.01,0.1,29,61,0,0
3.436e+05,1.4451e+08,2,1228,1228,15.01,0.1,29,61,0,0
3.4405e+05,1.4462e+08,2,1228,1228,15.02,0.1,29,61,0,0
3.4446e+05,1.4472e+08,2,1228,1228,15.02,0.1,29,61,0,0
3.4495e+05,1.4484e+08,2,1228,1228,15.02,0.1,29,61,0,0
3.4539e+05,1.4495e+08,2,1228,1228,15.02,0.1,29,61,0,0
3.4584e+05,1.4505e+08,2,1228,1228,15.01,0.1,29,61,0,0
3.4628e+05,1.4516e+08,2,1228,1228,15.02,0.1,29,61,0,0
3.4673e+05,1.4527e+08,2,1228,1228,15.02,0.1,28,61,0,0
3.4721e+05,1.4538e+08,2,1228,1228,15.02,0.1,29,61,0,0
3.4762e+05,1.4548e+08,2,1228,1242,15.01,0.1,28,61,0,0
3.4807e+05,1.4558e+08,2,1241,1228,15.02,0.1,29,61,0,0
3.4852e+05,1.457e+08,2,1228,1228,15.03,0.1,29,61,0,0
3.4901e+05,1.4582e+08,2,1229,1242,15.02,0.1,29,61,0,0
3.4946e+05,1.4593e+08,2,1242,1242,15.02,0.1,28,61,0,0
3.4987e+05,1.4602e+08,2,1242,1242,15.02,0.1,28,61,0,0
3.5036e+05,1.4614e+08,2,1242,1242,15.03,0.09,29,61,0,0
3.5081e+05,1.4625e+08,2,1243,1257,15.03,0.09,28,61,0,0
3.5125e+05,1.4636e+08,2,1255,1242,15.03,0.1,29,61,0,0
3.5169e+05,1.4646e+08,2,1240,1228,15.04,0.1,28,61,0,0
3.5214e+05,1.4657e+08,2,1228,1242,15.04,0.1,28,61,0,0
3.5259e+05,1.4668e+08,2,1241,1228,15.04,0.1,28,61,0,0
3.5304e+05,1.4679e+08,2,1228,1228,15.04,0.1,28,61,0,0
3.5348e+05,1.4689e+08,2,1228,1228,15.04,0.1,28,61,0,0
3.5389e+05,1.4699e+08,2,1228,1228,15.04,0.1,28,61,0,0
3.5438e+05,1.4711e+08,2,1228,1228,15.04,0.1,28,61,0,0
3.5482e+05,1.4721e+08,2,1228,1228,15.04,0.1,28,61,0,0
3.5527e+05,1.4732e+08,2,1228,1228,15.04,0.1,28,61,0,0
3.5572e+05,1.4743e+08,2,1227,1214,15.04,0.1,28,61,0,0
3.562e+05,1.4754e+08,2,1215,1228,15.04,0.1,28,61,0,0
3.5661e+05,1.4764e+08,2,1228,1228,15.04,0.1,28,61,0,0
3.571e+05,1.4776e+08,2,1229,1242,15.04,0.1,28,61,0,0
3.5755e+05,1.4787e+08,2,1241,1228,15.05,0.1,28,61,0,0
3.5796e+05,1.4797e+08,2,1228,1242,15.04,0.1,28,61,0,0
3.5837e+05,1.4808e+08,2,1241,1228,15.04,0.1,28,61,0,0
3.5886e+05,1.4819e+08,2,1228,1228,15.04,0.1,28,61,0,0
3.5929e+05,1.483e+08,2,1228,1228,15.04,0.1,28,61,0,0
3.5974e+05,1.484e+08,2,1228,1228,15.04,0.1,28,61,0,0
3.6068e+05,1.4863e+08,2,1228,1228,15.05,0.1,28,61,0,0
3.6112e+05,1.4874e+08,2,1229,1242,15.04,0.1,28,61,0,0
3.6157e+05,1.4885e+08,2,1242,1242,15.04,0.1,28,61,0,0
3.6201e+05,1.4895e+08,2,1222,957,15.07,0.04,28,61,0,0
3.6284e+05,1.4916e+08,2,947,0,15.07,0.01,28,61,0,0
3.6328e+05,1.4927e+08,2,0,0,15.07,0.03,28,61,0,0
3.6373e+05,1.4939e+08,2,0,0,15.06,0.03,28,61,0,0
3.641e+05,1.4949e+08,2,0,0,15.07,0.04,28,61,0,0
3.6456e+05,1.496e+08,2,0,0,15.07,0.04,28,61,0,0
3.6496e+05,1.497e+08,2,0,0,15.07,0.04,28,61,0,0
3.6542e+05,1.4981e+08,2,0,0,15.07,0.04,28,61,0,0
3.6586e+05,1.4993e+08,2,0,0,15.07,0.04,28,61,0,0
3.6628e+05,1.5003e+08,2,0,0,15.07,0.03,28,61,0,0
3.6666e+05,1.5013e+08,2,0,0,15.07,0.03,28,61,0,0
3.6711e+05,1.5025e+08,2,0,0,15.07,0.04,28,61,0,0
3.6752e+05,1.5035e+08,2,0,0,15.07,0.04,28,61,0,0
3.6794e+05,1.5046e+08,2,0,0,15.07,0.03,28,61,0,0
3.6835e+05,1.5056e+08,2,0,0,15.07,0.03,28,61,0,0
3.6877e+05,1.5068e+08,2,0,0,15.08,0.04,28,61,0,0
3.6918e+05,1.5078e+08,2,0,0,15.07,0.04,28,61,0,0
3.696e+05,1.5089e+08,2,0,0,15.08,0.04,28,61,0,0
3.7005e+05,1.51e+08,2,0,0,15.07,0.04,28,61,0,0
3.7046e+05,1.511e+08,2,0,0,15.08,0.04,28,61,0,0
3.7091e+05,1.5122e+08,2,0,0,15.07,0.03,28,61,0,0
3.7133e+05,1.5132e+08,2,0,0,15.07,0.03,28,61,0,0
3.7174e+05,1.5143e+08,2,0,0,15.08,0.03,28,61,0,0
3.7215e+05,1.5153e+08,2,0,0,15.07,0.03,28,61,0,0
3.726e+05,1.5165e+08,2,0,0,15.08,0.03,28,61,0,0
3.7301e+05,1.5175e+08,2,0,0,15.08,0.04,28,61,0,0
3.7342e+05,1.5186e+08,2,0,0,15.08,0.03,28,61,0,0
3.7388e+05,1.5197e+08,2,0,0,15.08,0.03,28,61,0,0
3.7429e+05,1.5208e+08,2,0,0,15.08,0.03,28,61,0,0
3.747e+05,1.5219e+08,2,0,0,15.08,0.04,28,61,0,0
3.7511e+05,1.5229e+08,2,0,0,15.08,0.03,28,61,0,0
3.7556e+05,1.5241e+08,2,0,0,15.08,0.04,28,61,0,0
3.7598e+05,1.5251e+08,2,0,0,15.08,0.03,28,61,0,0
3.7639e+05,1.5262e+08,2,0,0,15.09,0.03,28,61,0,0
3.768e+05,1.5272e+08,2,0,0,15.08,0.03,28,61,0,0
3.7718e+05,1.5283e+08,2,0,0,15.09,0.04,28,61,0,0
3.7763e+05,1.5294e+08,2,0,0,15.08,0.03,28,61,0,0
3.7805e+05,1.5304e+08,2,0,0,15.09,0.03,28,61,0,0
3.7849e+05,1.5315e+08,2,0,0,15.08,0.03,28,61,0,0
3.789e+05,1.5326e+08,2,0,0,15.09,0.04,28,61,0,0
3.7936e+05,1.5338e+08,2,0,0,15.09,0.04,28,61,0,0
3.7973e+05,1.5348e+08,2,0,0,15.08,0.04,28,61,0,0
3.8018e+05,1.5359e+08,2,0,0,15.08,0.04,28,61,0,0
3.8104e+05,1.5381e+08,2,0,0,15.1,0.03,28,61,0,0
3.8145e+05,1.5392e+08,2,0,0,15.09,0.03,28,61,0,0
3.8187e+05,1.5402e+08,2,0,0,15.1,0.04,28,61,0,0
3.8228e+05,1.5413e+08,2,0,0,15.1,0.04,27,61,0,0
3.8273e+05,1.5424e+08,2,0,0,15.09,0.03,28,61,0,0
3.8314e+05,1.5435e+08,2,0,0,15.09,0.04,28,61,0,0
3.8355e+05,1.5445e+08,2,0,0,15.09,0.04,28,61,0,0
3.84e+05,1.5456e+08,2,0,0,15.1,0.03,28,61,0,0
3.8438e+05,1.5466e+08,2,0,0,15.09,0.04,28,61,0,0
3.8483e+05,1.5478e+08,2,0,0,15.1,0.04,28,61,0,0
3.8525e+05,1.5488e+08,2,0,0,15.1,0.03,28,61,0,0
3.8566e+05,1.5499e+08,2,0,0,15.1,0.04,28,61,0,0
3.8611e+05,1.551e+08,2,0,0,15.1,0.04,28,61,0,0
3.8652e+05,1.552e+08,2,0,0,15.1,0.04,28,61,0,0
3.8697e+05,1.5532e+08,2,0,0,15.1,0.04,28,61,0,0
3.8738e+05,1.5542e+08,2,0,0,15.1,0.04,28,61,0,0
3.8779e+05,1.5552e+08,2,0,0,15.1,0.04,27,61,0,0
3.8825e+05,1.5564e+08,2,0,0,15.1,0.04,27,61,0,0
3.8865e+05,1.5574e+08,2,0,0,15.1,0.04,27,61,0,0
3.8906e+05,1.5585e+08,2,0,0,15.11,0.03,28,61,0,0
3.8952e+05,1.5596e+08,2,0,0,15.1,0.03,28,61,0,0
3.8992e+05,1.5607e+08,2,0,0,15.1,0.04,28,61,0,0
3.9079e+05,1.5628e+08,2,0,0,15.1,0.03,27,61,0,0
3.912e+05,1.5639e+08,2,0,0,15.1,0.04,28,61,0,0
