LineNo,TimeUS,Instance,RPM,RawRPM,Volt,Curr,Temp,CTot,MotTemp,Err
1805,6.0156e+07,1,0,0,15.45,0.03,22,0,0,0
2226,6.0265e+07,1,0,0,15.45,0.04,23,0,0,0
2641,6.0368e+07,1,0,0,15.45,0.04,23,0,0,0
3053,6.0471e+07,1,0,0,15.45,0.04,23,0,0,0
3506,6.0582e+07,1,0,0,15.45,0.04,23,0,0,0
3952,6.0694e+07,1,0,0,15.45,0.04,23,0,0,0
4371,6.0799e+07,1,0,0,15.45,0.04,23,0,0,0
4786,6.0905e+07,1,0,0,15.45,0.04,23,0,0,0
5194,6.101e+07,1,0,0,15.45,0.04,23,0,0,0
5649,6.1123e+07,1,0,0,15.45,0.03,23,0,0,0
6061,6.1228e+07,1,0,0,15.45,0.04,23,0,0,0
6472,6.1331e+07,1,0,0,15.45,0.04,23,0,0,0
6928,6.1447e+07,1,0,0,15.45,0.04,23,0,0,0
7343,6.1554e+07,1,0,0,15.45,0.04,23,0,0,0
7759,6.1659e+07,1,0,0,15.45,0.04,23,0,0,0
8174,6.1766e+07,1,0,0,15.45,0.04,23,0,0,0
8592,6.1869e+07,1,0,0,15.45,0.04,23,0,0,0
9045,6.1982e+07,1,0,0,15.45,0.04,23,0,0,0
9462,6.209e+07,1,0,0,15.45,0.04,23,0,0,0
9876,6.2197e+07,1,0,0,15.45,0.04,23,0,0,0
10291,6.2297e+07,1,0,0,15.45,0.04,23,0,0,0
10670,6.2416e+07,1,0,0,15.45,0.04,23,0,0,0
11072,6.2514e+07,1,0,0,15.45,0.04,23,0,0,0
11494,6.2625e+07,1,0,0,15.45,0.04,23,0,0,0
11942,6.2738e+07,1,0,0,15.45,0.04,23,0,0,0
12360,6.2841e+07,1,0,0,15.45,0.04,23,0,0,0
12810,6.2954e+07,1,0,0,15.46,0.04,23,0,0,0
13218,6.3057e+07,1,0,0,15.45,0.04,23,0,0,0
13666,6.3169e+07,1,0,0,15.45,0.04,23,0,0,0
14084,6.3274e+07,1,0,0,15.45,0.04,23,0,0,0
14538,6.3385e+07,1,0,0,15.45,0.04,23,0,0,0
14945,6.3489e+07,1,0,0,15.45,0.04,23,0,0,0
15367,6.3593e+07,1,0,0,15.45,0.04,23,0,0,0
15778,6.3698e+07,1,0,0,15.45,0.04,23,0,0,0
16236,6.3812e+07,1,0,0,15.45,0.04,23,0,0,0
16652,6.3916e+07,1,0,0,15.45,0.03,23,0,0,0
17102,6.4029e+07,1,0,0,15.45,0.04,23,0,0,0
17515,6.4136e+07,1,0,0,15.44,0.04,23,0,0,0
17926,6.4241e+07,1,0,0,15.45,0.04,23,0,0,0
18342,6.4343e+07,1,0,0,15.45,0.04,23,0,0,0
18791,6.4457e+07,1,0,0,15.45,0.04,23,0,0,0
19244,6.4568e+07,1,0,0,15.45,0.04,23,0,0,0
19654,6.4671e+07,1,0,0,15.45,0.04,23,0,0,0
20040,6.4775e+07,1,0,0,15.45,0.04,23,0,0,0
20528,6.4895e+07,1,0,0,15.46,0.04,23,0,0,0
20944,6.4999e+07,1,0,0,15.45,0.04,23,0,0,0
21325,6.5102e+07,1,0,0,15.45,0.04,23,0,0,0
21777,6.5213e+07,1,0,0,15.45,0.04,23,0,0,0
22189,6.5316e+07,1,0,0,15.45,0.04,23,0,0,0
22644,6.5428e+07,1,0,0,15.45,0.04,23,0,0,0
23467,6.5637e+07,1,0,0,15.45,0.04,23,0,0,0
23930,6.5756e+07,1,0,0,15.45,0.04,23,0,0,0
24337,6.5857e+07,1,0,0,15.45,0.04,23,0,0,0
24790,6.5971e+07,1,0,0,15.45,0.04,23,0,0,0
25616,6.6182e+07,1,0,0,15.45,0.04,23,0,0,0
26034,6.629e+07,1,0,0,15.45,0.04,23,0,0,0
26487,6.6403e+07,1,0,0,15.45,0.04,23,0,0,0
26859,6.6501e+07,1,0,0,15.45,0.04,23,0,0,0
27313,6.6613e+07,1,0,0,15.46,0.04,23,0,0,0
27724,6.6718e+07,1,0,0,15.45,0.04,23,0,0,0
28181,6.6831e+07,1,0,0,15.45,0.04,23,0,0,0
28595,6.6938e+07,1,0,0,15.45,0.04,23,0,0,0
29039,6.7046e+07,1,0,0,15.45,0.04,23,0,0,0
29457,6.7151e+07,1,0,0,15.45,0.04,23,0,0,0
29868,6.726e+07,1,0,0,15.45,0.04,23,0,0,0
30322,6.7371e+07,1,0,0,15.45,0.04,23,0,0,0
30730,6.7473e+07,1,0,0,15.45,0.04,23,0,0,0
31185,6.7587e+07,1,0,0,15.45,0.04,23,0,0,0
31596,6.7691e+07,1,0,0,15.45,0.04,23,0,0,0
32012,6.7794e+07,1,0,0,15.45,0.04,23,0,0,0
32471,6.791e+07,1,0,0,15.45,0.04,23,0,0,0
32884,6.8011e+07,1,0,0,15.45,0.04,23,0,0,0
33295,6.8118e+07,1,0,0,15.45,0.04,23,0,0,0
33749,6.823e+07,1,0,0,15.45,0.04,23,0,0,0
34159,6.8332e+07,1,0,0,15.45,0.04,23,0,0,0
34614,6.8444e+07,1,0,0,15.45,0.04,23,0,0,0
35021,6.8548e+07,1,0,0,15.45,0.04,23,0,0,0
35433,6.8654e+07,1,0,0,15.45,0.04,23,0,0,0
35888,6.8766e+07,1,0,0,15.45,0.04,23,0,0,0
36335,6.8878e+07,1,0,0,15.45,0.04,23,0,0,0
36749,6.898e+07,1,0,0,15.45,0.04,23,0,0,0
37162,6.9085e+07,1,0,0,15.45,0.04,23,0,0,0
37615,6.9198e+07,1,0,0,15.45,0.04,23,0,0,0
38032,6.9306e+07,1,0,0,15.45,0.04,23,0,0,0
38447,6.9411e+07,1,0,0,15.45,0.04,23,0,0,0
38859,6.9518e+07,1,0,0,15.45,0.04,23,0,0,0
39273,6.9622e+07,1,0,0,15.45,0.04,23,0,0,0
39725,6.9735e+07,1,0,0,15.45,0.04,23,0,0,0
40138,6.9839e+07,1,0,0,15.45,0.04,23,0,0,0
40585,6.9951e+07,1,0,0,15.45,0.04,23,0,0,0
41002,7.0061e+07,1,0,0,15.45,0.04,23,0,0,0
41458,7.0174e+07,1,0,0,15.45,0.04,23,0,0,0
41869,7.0279e+07,1,0,0,15.45,0.04,23,0,0,0
42324,7.039e+07,1,0,0,15.45,0.04,23,0,0,0
42740,7.0499e+07,1,0,0,15.45,0.04,23,0,0,0
43157,7.0605e+07,1,0,0,15.45,0.04,23,0,0,0
43571,7.0713e+07,1,0,0,15.45,0.04,23,0,0,0
43986,7.0815e+07,1,0,0,15.45,0.04,23,0,0,0
44402,7.0923e+07,1,0,0,15.45,0.04,23,0,0,0
44857,7.1036e+07,1,0,0,15.45,0.04,23,0,0,0
45269,7.1142e+07,1,0,0,15.45,0.03,23,0,0,0
45685,7.1245e+07,1,0,0,15.45,0.03,23,0,0,0
46135,7.1361e+07,1,0,0,15.45,0.04,23,0,0,0
46544,7.1466e+07,1,0,0,15.45,0.04,23,0,0,0
46961,7.1571e+07,1,0,0,15.45,0.04,23,0,0,0
47374,7.1678e+07,1,0,0,15.45,0.04,23,0,0,0
47829,7.1793e+07,1,0,0,15.45,0.04,23,0,0,0
48265,7.1899e+07,1,0,0,15.45,0.04,23,0,0,0
48718,7.2005e+07,1,0,0,15.45,0.03,23,0,0,0
49174,7.2112e+07,1,0,0,15.45,0.04,23,0,0,0
49629,7.2216e+07,1,0,0,15.45,0.04,23,0,0,0
50080,7.2326e+07,1,0,0,15.45,0.04,23,0,0,0
50579,7.2442e+07,1,0,0,15.45,0.04,23,0,0,0
51030,7.2544e+07,1,0,0,15.45,0.04,23,0,0,0
51524,7.2658e+07,1,0,0,15.45,0.04,23,0,0,0
51979,7.2761e+07,1,0,0,15.45,0.04,23,0,0,0
52432,7.2866e+07,1,0,0,15.45,0.04,23,0,0,0
52929,7.2979e+07,1,0,0,15.45,0.04,23,0,0,0
53381,7.3084e+07,1,0,0,15.45,0.04,23,0,0,0
53874,7.3197e+07,1,0,0,15.45,0.03,23,0,0,0
54287,7.3297e+07,1,0,0,15.45,0.04,23,0,0,0
54782,7.3411e+07,1,0,0,15.45,0.04,23,0,0,0
55233,7.3517e+07,1,0,0,15.45,0.04,23,0,0,0
55691,7.3621e+07,1,0,0,15.45,0.04,23,0,0,0
56189,7.3738e+07,1,0,0,15.46,0.04,23,0,0,0
56641,7.3845e+07,1,0,0,15.45,0.04,23,0,0,0
57320,7.4052e+07,1,137,557,15.42,0.09,23,0,0,0
57815,7.4164e+07,1,572,942,15.42,0.15,23,0,0,0
58266,7.4269e+07,1,950,1142,15.44,0.12,23,0,0,0
58763,7.4383e+07,1,1147,1200,15.43,0.11,23,0,0,0
59217,7.4492e+07,1,1200,1214,15.44,0.11,23,0,0,0
59670,7.4596e+07,1,1214,1228,15.43,0.11,23,0,0,0
60127,7.4705e+07,1,1228,1228,15.43,0.11,23,0,0,0
60578,7.4806e+07,1,1228,1242,15.44,0.11,23,0,0,0
61075,7.4921e+07,1,1242,1242,15.44,0.11,23,0,0,0
61790,7.5139e+07,1,1242,1242,15.43,0.11,23,0,0,0
62696,7.5346e+07,1,1242,1242,15.44,0.11,23,0,0,0
63155,7.5458e+07,1,1242,1242,15.44,0.1,23,0,0,0
63613,7.5566e+07,1,1242,1242,15.44,0.11,23,0,0,0
64063,7.567e+07,1,1242,1242,15.44,0.11,23,0,0,0
64569,7.5789e+07,1,1242,1242,15.44,0.11,23,0,0,0
64980,7.5887e+07,1,1249,1414,15.41,0.22,23,0,0,0
65478,7.5999e+07,1,1448,1928,15.32,0.52,23,0,0,0
65932,7.611e+07,1,1953,2271,15.24,0.86,23,0,0,0
66385,7.6213e+07,1,2289,2685,15.25,1.2,23,0,0,0
66881,7.633e+07,1,2736,3300,15.14,1.5,23,0,0,0
67334,7.6441e+07,1,3384,4000,15.01,2.28,23,0,0,0
67785,7.655e+07,1,4038,4428,14.99,2.51,23,0,0,0
68237,7.6656e+07,1,4488,5028,14.81,2.91,23,0,0,0
68692,7.6765e+07,1,5062,5400,14.75,3.56,23,0,0,0
69101,7.6864e+07,1,5417,5742,14.73,3.28,23,0,0,0
69597,7.6981e+07,1,5727,5585,14.75,2.61,23,1,0,0
70047,7.709e+07,1,5585,5585,14.72,2.93,23,1,0,0
70502,7.7195e+07,1,5581,5342,14.8,2.34,23,1,0,0
70996,7.731e+07,1,5329,5114,14.76,1.96,23,1,0,0
71451,7.7418e+07,1,5116,5157,14.79,2.39,23,1,0,0
71908,7.7528e+07,1,5155,5128,14.76,2.3,23,1,0,0
72363,7.7636e+07,1,5126,5100,14.83,2.09,23,1,0,0
72820,7.7748e+07,1,5090,5000,14.79,1.94,23,1,0,0
73231,7.7849e+07,1,4995,4885,14.82,1.99,23,1,0,0
73731,7.7967e+07,1,4888,4928,14.82,2.1,23,1,0,0
74178,7.8072e+07,1,4926,4885,14.8,1.96,23,1,0,0
74676,7.8188e+07,1,4896,5014,14.82,2.1,23,1,0,0
75092,7.8292e+07,1,5014,5028,14.82,2.26,23,1,0,0
76037,7.8518e+07,1,5028,5042,14.7,2.11,23,1,0,0
76495,7.8626e+07,1,5047,5100,14.72,2.22,23,1,0,0
76903,7.8726e+07,1,5096,5042,14.73,2.14,23,2,0,0
77399,7.8839e+07,1,5042,5042,14.79,2.31,23,2,0,0
77847,7.8945e+07,1,5046,5114,14.74,2.4,24,2,0,0
78334,7.9069e+07,1,5119,5171,14.77,2.44,23,2,0,0
78790,7.9178e+07,1,5177,5242,14.75,2.37,24,2,0,0
79191,7.9281e+07,1,5242,5257,14.76,2.41,24,2,0,0
79642,7.9387e+07,1,5257,5257,14.69,2.58,24,2,0,0
80535,7.9611e+07,1,5265,5442,14.73,2.83,24,2,0,0
81392,7.9823e+07,1,5441,5314,14.77,2.34,24,2,0,0
81799,7.9925e+07,1,5313,5285,14.8,2.24,24,2,0,0
82254,8.0037e+07,1,5282,5157,14.76,2.38,24,2,0,0
82696,8.0146e+07,1,5150,5085,14.73,1.99,24,3,0,0
83181,8.026e+07,1,5089,5128,14.75,2.2,24,3,0,0
83589,8.0361e+07,1,5127,5085,14.7,2.13,24,3,0,0
84030,8.047e+07,1,5083,5014,14.76,2.26,24,3,0,0
84481,8.0579e+07,1,5016,5057,14.73,2.36,24,3,0,0
84931,8.0692e+07,1,5061,5100,14.73,2.1,24,3,0,0
85780,8.0901e+07,1,5097,4985,14.79,1.92,24,3,0,0
86272,8.1018e+07,1,4989,5042,14.75,2.12,24,3,0,0
86721,8.1131e+07,1,5022,4857,14.82,1.8,24,3,0,0
87534,8.1338e+07,1,4856,4842,14.8,1.85,24,3,0,0
88021,8.1455e+07,1,4854,4971,14.85,2.02,24,3,0,0
88428,8.1553e+07,1,4965,4871,14.8,1.98,24,3,0,0
88879,8.1668e+07,1,4874,4914,14.82,2.15,24,3,0,0
89291,8.1771e+07,1,4901,4785,14.86,1.63,24,3,0,0
89737,8.1885e+07,1,4782,4757,14.82,1.6,24,4,0,0
90178,8.1988e+07,1,4755,4714,14.82,1.74,24,4,0,0
90626,8.2101e+07,1,4714,4728,14.88,1.93,24,4,0,0
91079,8.2211e+07,1,4723,4657,14.85,1.86,24,4,0,0
91524,8.232e+07,1,4651,4585,14.85,1.55,24,4,0,0
91976,8.2433e+07,1,4581,4542,14.86,1.63,24,4,0,0
93272,8.2752e+07,1,4544,4714,14.83,1.68,24,4,0,0
93717,8.286e+07,1,4715,4742,14.79,1.57,24,4,0,0
94164,8.2967e+07,1,4739,4685,14.83,1.7,24,4,0,0
94567,8.3069e+07,1,4685,4685,14.76,1.75,24,4,0,0
95021,8.3182e+07,1,4692,4800,14.75,1.61,24,4,0,0
95423,8.3285e+07,1,4795,4628,14.75,1.5,24,4,0,0
95916,8.3404e+07,1,4623,4557,14.79,1.47,24,4,0,0
96323,8.351e+07,1,4559,4614,14.73,1.72,24,4,0,0
96781,8.3622e+07,1,4607,4514,14.79,1.29,24,4,0,0
97228,8.3735e+07,1,4488,4228,14.75,0.97,24,4,0,0
97678,8.3842e+07,1,4170,3628,14.72,0.91,24,4,0,0
98970,8.4163e+07,1,3616,3128,14.73,1.36,24,4,0,0
99370,8.4264e+07,1,3137,3628,14.71,1.67,24,5,0,0
99816,8.4372e+07,1,3637,4100,14.69,2.44,24,5,0,0
1.003e+05,8.4484e+07,1,4130,4771,14.64,2.86,24,5,0,0
1.0074e+05,8.4592e+07,1,4806,5600,14.72,4.25,24,5,0,0
1.0119e+05,8.4701e+07,1,5645,6271,14.67,5.32,24,5,0,0
1.0163e+05,8.481e+07,1,6315,6757,14.59,5.25,24,5,0,0
1.0204e+05,8.4915e+07,1,6754,6700,14.66,5.05,24,5,0,0
1.0257e+05,8.5036e+07,1,6693,6642,14.67,4.33,24,5,0,0
1.0297e+05,8.5137e+07,1,6623,6128,14.64,2.86,24,5,0,0
1.0346e+05,8.5258e+07,1,6081,5585,14.65,2.44,24,6,0,0
1.0383e+05,8.5353e+07,1,5578,5300,14.64,2.11,24,6,0,0
1.0427e+05,8.5463e+07,1,5294,4942,14.62,1.57,24,6,0,0
1.0472e+05,8.5572e+07,1,4925,4514,14.65,1,24,6,0,0
1.0517e+05,8.5679e+07,1,4507,4185,14.69,1.01,24,6,0,0
1.0562e+05,8.5787e+07,1,4173,3685,14.61,1.41,24,6,0,0
1.0611e+05,8.5905e+07,1,3705,3928,14.64,1.46,24,6,0,0
1.0656e+05,8.6013e+07,1,3942,4085,14.64,1.96,24,6,0,0
1.07e+05,8.612e+07,1,4086,4100,14.45,2.19,24,6,0,0
1.0745e+05,8.6231e+07,1,4109,4242,14.63,2.13,24,6,0,0
1.0785e+05,8.633e+07,1,4242,4271,14.62,1.58,24,6,0,0
1.0834e+05,8.6443e+07,1,4270,4242,14.67,1.42,24,6,0,0
1.0878e+05,8.6555e+07,1,4247,4371,14.65,1.49,24,6,0,0
1.0923e+05,8.6666e+07,1,4375,4485,14.69,1.65,24,6,0,0
1.0972e+05,8.6779e+07,1,4486,4500,14.68,1.53,24,6,0,0
1.1013e+05,8.6883e+07,1,4501,4528,14.69,1.73,24,6,0,0
1.1058e+05,8.6992e+07,1,4529,4585,14.67,1.79,24,6,0,0
1.1102e+05,8.7101e+07,1,4586,4628,14.64,1.75,24,6,0,0
1.1147e+05,8.7209e+07,1,4635,4800,14.63,1.89,24,6,0,0
1.1192e+05,8.7322e+07,1,4798,4757,14.67,1.76,24,7,0,0
1.1236e+05,8.743e+07,1,4751,4628,14.61,1.45,24,7,0,0
1.128e+05,8.7537e+07,1,4617,4471,14.73,1.35,24,7,0,0
1.1329e+05,8.7657e+07,1,4455,4314,14.65,1.35,24,7,0,0
1.137e+05,8.7755e+07,1,4316,4471,14.71,1.41,24,7,0,0
1.146e+05,8.7978e+07,1,4459,4242,14.76,1.13,24,7,0,0
1.1504e+05,8.809e+07,1,4234,4157,14.83,1.17,25,7,0,0
1.1545e+05,8.819e+07,1,4152,3914,14.76,1.47,24,7,0,0
1.1594e+05,8.831e+07,1,3923,4014,14.73,2.1,24,7,0,0
1.1638e+05,8.8423e+07,1,3982,3785,14.79,1.52,24,7,0,0
1.1679e+05,8.8526e+07,1,3794,3871,14.66,2.48,24,7,0,0
1.1724e+05,8.8639e+07,1,3912,4185,14.71,2.54,25,7,0,0
1.1813e+05,8.8848e+07,1,4184,4157,14.79,1.21,24,7,0,0
1.1858e+05,8.8967e+07,1,4128,3971,14.74,1.07,24,7,0,0
1.1903e+05,8.9079e+07,1,3964,3914,14.78,1.86,25,7,0,0
1.1944e+05,8.9176e+07,1,3946,4200,14.75,1.96,25,7,0,0
1.1984e+05,8.9275e+07,1,4202,4357,14.72,1.49,24,7,0,0
1.2033e+05,8.9396e+07,1,4378,4514,14.71,1.49,25,7,0,0
1.2073e+05,8.9499e+07,1,4510,4471,14.68,1.59,24,7,0,0
1.2119e+05,8.9606e+07,1,4457,4242,14.7,1.05,25,8,0,0
1.2159e+05,8.9704e+07,1,4241,4214,14.76,1.39,25,8,0,0
1.2208e+05,8.9828e+07,1,4185,4000,14.8,1,25,8,0,0
1.2249e+05,8.9924e+07,1,3990,3742,14.8,1.07,25,8,0,0
1.2293e+05,9.0036e+07,1,3712,3385,14.79,1.05,25,8,0,0
1.2338e+05,9.0146e+07,1,3412,3671,14.76,1.51,25,8,0,0
1.2383e+05,9.0257e+07,1,3676,3742,14.72,1.78,25,8,0,0
1.2428e+05,9.0365e+07,1,3760,3957,14.72,2.39,25,8,0,0
1.261e+05,9.081e+07,1,3961,4185,14.69,2.06,25,8,0,0
1.265e+05,9.0907e+07,1,4197,4485,14.75,1.89,25,8,0,0
1.2757e+05,9.1339e+07,1,4616,4757,14.64,1.59,25,8,0,0
1.2806e+05,9.1459e+07,1,4752,4714,14.65,1.48,25,8,0,0
1.2846e+05,9.1557e+07,1,4709,4571,14.69,1.53,25,8,0,0
1.2891e+05,9.1667e+07,1,4574,4657,14.65,1.58,25,8,0,0
1.2935e+05,9.1774e+07,1,4659,4714,14.67,2.05,25,8,0,0
1.298e+05,9.1886e+07,1,4727,4928,14.61,2,25,9,0,0
1.3026e+05,9.1998e+07,1,4929,4957,14.6,2.34,25,9,0,0
1.3067e+05,9.2107e+07,1,4966,5085,14.57,2.08,25,9,0,0
1.3112e+05,9.2216e+07,1,5077,4871,14.67,1.54,25,9,0,0
1.316e+05,9.2328e+07,1,4844,4571,14.69,1.31,25,9,0,0
1.3204e+05,9.2437e+07,1,4578,4657,14.63,1.6,25,9,0,0
1.3245e+05,9.254e+07,1,4658,4685,14.67,1.9,25,9,0,0
1.329e+05,9.2656e+07,1,4678,4614,14.67,1.52,25,9,0,0
1.3331e+05,9.2754e+07,1,4611,4557,14.68,1.77,25,9,0,0
1.3375e+05,9.2868e+07,1,4550,4457,14.63,1.54,25,9,0,0
1.342e+05,9.2979e+07,1,4472,4614,14.63,1.79,25,9,0,0
1.351e+05,9.3194e+07,1,4629,4957,14.52,2.21,25,9,0,0
1.355e+05,9.3297e+07,1,4963,5100,14.59,2.16,25,9,0,0
1.3599e+05,9.3415e+07,1,5101,5114,14.58,2.19,25,9,0,0
1.3645e+05,9.3527e+07,1,5114,5114,14.5,2.29,25,9,0,0
1.369e+05,9.3636e+07,1,5097,4942,14.63,1.82,25,9,0,0
1.373e+05,9.3736e+07,1,4942,4957,14.63,2.15,25,9,0,0
1.3819e+05,9.3959e+07,1,4957,5014,14.52,2.13,25,10,0,0
1.3868e+05,9.4073e+07,1,5023,5114,14.64,2.33,25,10,0,0
1.3913e+05,9.4182e+07,1,5123,5214,14.55,2.2,25,10,0,0
1.3953e+05,9.4281e+07,1,5211,5157,14.5,2.31,25,10,0,0
1.4002e+05,9.44e+07,1,5163,5228,14.61,2.53,25,10,0,0
1.4042e+05,9.4503e+07,1,5224,5000,14.7,1.57,25,10,0,0
1.4088e+05,9.4612e+07,1,5001,5028,14.74,1.64,25,10,0,0
1.4132e+05,9.4723e+07,1,5013,4814,14.72,1.64,25,10,0,0
1.4177e+05,9.4833e+07,1,4818,4885,14.71,1.75,25,10,0,0
1.4225e+05,9.495e+07,1,4861,4628,14.75,1.19,25,10,0,0
1.4266e+05,9.5052e+07,1,4625,4571,14.74,1.4,25,10,0,0
1.431e+05,9.5154e+07,1,4567,4500,14.76,1.35,25,10,0,0
1.4355e+05,9.5267e+07,1,4505,4585,14.77,1.43,25,10,0,0
1.44e+05,9.5376e+07,1,4582,4542,14.74,1.35,25,10,0,0
1.4441e+05,9.548e+07,1,4540,4514,14.76,1.52,25,10,0,0
1.4486e+05,9.5589e+07,1,4515,4600,14.76,1.63,25,10,0,0
1.4531e+05,9.5698e+07,1,4600,4614,14.72,1.5,25,10,0,0
1.4579e+05,9.5813e+07,1,4621,4700,14.65,1.59,25,11,0,0
1.4672e+05,9.6038e+07,1,4701,4728,14.67,1.69,25,11,0,0
1.4713e+05,9.6139e+07,1,4734,4857,14.65,1.9,25,11,0,0
1.4757e+05,9.6251e+07,1,4863,4928,14.61,2.18,25,11,0,0
1.4798e+05,9.6354e+07,1,4910,4671,14.65,1.26,25,11,0,0
1.4839e+05,9.6456e+07,1,4668,4571,14.68,1.18,25,11,0,0
1.4885e+05,9.6574e+07,1,4550,4357,14.72,1.19,25,11,0,0
1.4925e+05,9.6672e+07,1,4357,4385,14.66,1.72,25,11,0,0
1.4974e+05,9.6791e+07,1,4391,4457,14.63,1.62,25,11,0,0
1.5018e+05,9.6907e+07,1,4469,4557,14.66,1.72,25,11,0,0
1.5067e+05,9.7015e+07,1,4573,4685,14.6,1.71,25,11,0,0
1.5108e+05,9.7117e+07,1,4685,4685,14.65,1.67,25,11,0,0
1.5153e+05,9.7228e+07,1,4683,4671,14.59,1.76,25,11,0,0
1.5193e+05,9.7325e+07,1,4672,4700,14.64,1.59,25,11,0,0
1.5238e+05,9.7437e+07,1,4704,4928,14.58,1.82,25,11,0,0
1.5327e+05,9.7656e+07,1,4903,4514,14.69,1.35,25,11,0,0
1.5372e+05,9.7769e+07,1,4515,4528,14.61,1.59,25,11,0,0
1.5412e+05,9.7867e+07,1,4534,4671,14.67,1.66,25,11,0,0
1.5461e+05,9.7984e+07,1,4643,4414,14.75,1.33,25,11,0,0
1.5506e+05,9.8096e+07,1,4381,4142,14.68,1.13,25,12,0,0
1.5591e+05,9.8305e+07,1,4139,3857,14.67,2.13,25,12,0,0
1.5639e+05,9.8418e+07,1,3860,3914,14.69,2.11,25,12,0,0
1.5684e+05,9.8532e+07,1,3931,4085,14.61,2.66,25,12,0,0
1.5725e+05,9.8626e+07,1,4090,4571,14.69,2.08,25,12,0,0
1.577e+05,9.8743e+07,1,4571,4585,14.75,1.61,25,12,0,0
1.5815e+05,9.8857e+07,1,4578,4514,14.67,1.69,25,12,0,0
1.5859e+05,9.8963e+07,1,4510,4457,14.7,1.4,25,12,0,0
1.5904e+05,9.9074e+07,1,4460,4514,14.69,1.67,25,12,0,0
1.5993e+05,9.9289e+07,1,4504,4300,14.7,1.35,25,12,0,0
1.6038e+05,9.9399e+07,1,4314,4457,14.69,1.52,25,12,0,0
1.6082e+05,9.9508e+07,1,4445,4357,14.69,1.27,25,12,0,0
1.6124e+05,9.9612e+07,1,4355,4342,14.7,1.6,25,12,0,0
1.6165e+05,9.972e+07,1,4346,4442,14.66,1.38,25,12,0,0
1.6214e+05,9.9843e+07,1,4438,4414,14.67,1.45,25,12,0,0
1.6254e+05,9.9943e+07,1,4419,4542,14.66,1.78,25,12,0,0
1.6303e+05,1.0006e+08,1,4544,4571,14.69,1.15,25,12,0,0
1.6388e+05,1.0027e+08,1,4559,4085,14.63,1.18,25,12,0,0
1.6433e+05,1.0038e+08,1,4085,4100,14.65,1.46,25,13,0,0
1.6478e+05,1.005e+08,1,4093,4028,14.69,2.06,25,13,0,0
1.6519e+05,1.0059e+08,1,4025,3957,14.61,1.98,25,13,0,0
1.6564e+05,1.007e+08,1,3957,4000,14.6,1.65,25,13,0,0
1.6614e+05,1.0082e+08,1,3982,3800,14.68,1.5,25,13,0,0
1.6658e+05,1.0093e+08,1,3821,4028,14.71,1.55,25,13,0,0
1.6703e+05,1.0104e+08,1,4037,4157,14.56,2.61,25,13,0,0
1.6744e+05,1.0114e+08,1,4176,4414,14.63,2.25,25,13,0,0
1.6788e+05,1.0126e+08,1,4415,4442,14.64,1.1,25,13,0,0
1.6833e+05,1.0136e+08,1,4452,4671,14.67,1.86,25,13,0,0
1.6874e+05,1.0147e+08,1,4672,4700,14.62,1.89,25,13,0,0
1.6919e+05,1.0158e+08,1,4708,4814,14.58,1.68,25,13,0,0
1.6964e+05,1.0169e+08,1,4805,4728,14.59,1.35,25,13,0,0
1.7009e+05,1.018e+08,1,4719,4642,14.64,1.38,25,13,0,0
1.705e+05,1.019e+08,1,4634,4485,14.61,1.44,25,13,0,0
1.7095e+05,1.0201e+08,1,4493,4600,14.63,1.67,25,13,0,0
1.7139e+05,1.0212e+08,1,4593,4528,14.55,1.52,25,13,0,0
1.7184e+05,1.0223e+08,1,4531,4600,14.61,1.46,25,13,0,0
1.7273e+05,1.0245e+08,1,4600,4600,14.66,1.79,25,13,0,0
1.7318e+05,1.0256e+08,1,4612,4800,14.55,2.46,25,13,0,0
1.7362e+05,1.0267e+08,1,4789,4642,14.67,0.92,25,14,0,0
1.7404e+05,1.0277e+08,1,4634,4257,14.69,1.06,25,14,0,0
1.7448e+05,1.0288e+08,1,4254,4200,14.64,0.96,25,14,0,0
1.7497e+05,1.03e+08,1,4195,4142,14.69,1.35,25,14,0,0
1.7542e+05,1.031e+08,1,4146,4214,14.7,1.39,25,14,0,0
1.7587e+05,1.0321e+08,1,4221,4300,14.64,1.35,25,14,0,0
1.7627e+05,1.0332e+08,1,4300,4300,14.69,1.62,25,14,0,0
1.7675e+05,1.0343e+08,1,4311,4471,14.64,1.6,25,14,0,0
1.772e+05,1.0354e+08,1,4464,4314,14.66,1.15,25,14,0,0
1.7764e+05,1.0365e+08,1,4314,4314,14.67,1.13,25,14,0,0
1.781e+05,1.0376e+08,1,4307,4242,14.63,1.47,25,14,0,0
1.7854e+05,1.0387e+08,1,4246,4300,14.6,1.29,25,14,0,0
1.7895e+05,1.0397e+08,1,4290,4100,14.69,1.12,25,14,0,0
1.794e+05,1.0408e+08,1,4108,4300,14.57,1.54,25,14,0,0
1.7985e+05,1.0419e+08,1,4302,4357,14.57,1.6,25,14,0,0
1.8025e+05,1.0429e+08,1,4362,4542,14.61,1.51,25,14,0,0
1.8074e+05,1.0441e+08,1,4535,4442,14.63,1.65,25,14,0,0
1.8119e+05,1.0452e+08,1,4449,4557,14.64,1.69,25,14,0,0
1.8164e+05,1.0463e+08,1,4551,4500,14.63,1.32,25,14,0,0
1.8205e+05,1.0474e+08,1,4497,4428,14.69,1.47,25,14,0,0
1.825e+05,1.0484e+08,1,4419,4185,14.72,0.98,25,14,0,0
1.8294e+05,1.0496e+08,1,4178,4042,14.66,1.37,25,14,0,0
1.8338e+05,1.0506e+08,1,4045,4185,14.55,1.75,25,14,0,0
1.8383e+05,1.0517e+08,1,4183,4157,14.66,1.34,25,15,0,0
1.8424e+05,1.0528e+08,1,4158,4185,14.65,1.62,25,15,0,0
1.8473e+05,1.054e+08,1,4195,4285,14.67,1.37,25,15,0,0
1.8513e+05,1.055e+08,1,4277,4214,14.63,1.11,25,15,0,0
1.8559e+05,1.0561e+08,1,4224,4357,14.58,1.63,25,15,0,0
1.8604e+05,1.0572e+08,1,4365,4457,14.65,1.55,25,15,0,0
1.8644e+05,1.0582e+08,1,4463,4528,14.61,1.83,25,15,0,0
1.8688e+05,1.0593e+08,1,4534,4642,14.58,1.7,25,15,0,0
1.8733e+05,1.0603e+08,1,4636,4571,14.58,1.4,25,15,0,0
1.8778e+05,1.0615e+08,1,4569,4557,14.63,1.59,25,15,0,0
1.8801e+05,1.0627e+08,1,4546,4428,14.64,1.43,25,15,0,0
1.8842e+05,1.0637e+08,1,4411,4285,14.72,1,25,15,0,0
1.8882e+05,1.0647e+08,1,4262,4100,14.76,0.84,25,15,0,0
1.8927e+05,1.0658e+08,1,4091,3871,14.67,2.42,25,15,0,0
1.8971e+05,1.0668e+08,1,3878,4400,14.61,2.66,25,15,0,0
1.9016e+05,1.0679e+08,1,4424,4657,14.6,2.09,25,15,0,0
1.906e+05,1.069e+08,1,4660,4728,14.64,1.64,25,15,0,0
1.9106e+05,1.0701e+08,1,4731,4771,14.64,1.97,25,15,0,0
1.915e+05,1.0712e+08,1,4776,4885,14.58,2.04,25,15,0,0
1.9236e+05,1.0733e+08,1,4885,4900,14.55,1.8,25,16,0,0
1.9281e+05,1.0744e+08,1,4897,4785,14.52,1.9,25,16,0,0
1.9322e+05,1.0755e+08,1,4783,4771,14.6,2.04,25,16,0,0
1.9366e+05,1.0766e+08,1,4782,4885,14.49,2.26,25,16,0,0
1.9411e+05,1.0777e+08,1,4912,5200,14.48,2.47,25,16,0,0
1.9451e+05,1.0787e+08,1,5199,5142,14.5,2.38,25,16,0,0
1.9496e+05,1.0798e+08,1,5143,5185,14.46,2.36,25,16,0,0
1.9544e+05,1.0809e+08,1,5184,5171,14.51,2.44,25,16,0,0
1.9589e+05,1.082e+08,1,5171,5185,14.47,2.59,25,16,0,0
1.9634e+05,1.0831e+08,1,5185,5185,14.43,2.52,25,16,0,0
1.9679e+05,1.0842e+08,1,5193,5328,14.41,2.97,25,16,0,0
1.972e+05,1.0852e+08,1,5349,5628,14.29,3.59,25,16,0,0
1.9769e+05,1.0864e+08,1,5641,5771,14.32,3.61,25,16,0,0
1.9809e+05,1.0874e+08,1,5755,5428,14.36,2.05,25,17,0,0
1.9854e+05,1.0885e+08,1,5411,4942,14.52,1.49,25,17,0,0
1.9902e+05,1.0897e+08,1,4886,4300,14.56,0.46,25,17,0,0
1.9943e+05,1.0907e+08,1,4248,3757,14.63,1.03,25,17,0,0
1.9992e+05,1.0919e+08,1,3758,3771,14.58,1.34,25,17,0,0
2.0032e+05,1.0929e+08,1,3798,4171,14.46,2.11,25,17,0,0
2.0077e+05,1.094e+08,1,4170,4157,14.58,1.75,25,17,0,0
2.0122e+05,1.0951e+08,1,4138,3971,14.61,1.64,25,17,0,0
2.0167e+05,1.0961e+08,1,4000,4414,14.54,2.7,25,17,0,0
2.0211e+05,1.0972e+08,1,4440,5128,14.39,3.32,25,17,0,0
2.0256e+05,1.0983e+08,1,5145,5357,14.47,2.69,25,17,0,0
2.03e+05,1.0994e+08,1,5361,5428,14.48,2.94,25,17,0,0
2.035e+05,1.1006e+08,1,5448,5685,14.38,3.81,25,17,0,0
2.039e+05,1.1016e+08,1,5688,5928,14.27,3.73,25,17,0,0
2.048e+05,1.1038e+08,1,5913,5628,14.4,2.9,25,18,0,0
2.0525e+05,1.1049e+08,1,5617,5385,14.44,2.59,25,18,0,0
2.057e+05,1.106e+08,1,5368,5200,14.41,2.31,25,18,0,0
2.0615e+05,1.1071e+08,1,5203,5242,14.45,2.57,25,18,0,0
2.066e+05,1.1082e+08,1,5227,4885,14.41,1.67,25,18,0,0
2.0705e+05,1.1093e+08,1,4865,4671,14.53,1.87,25,18,0,0
2.075e+05,1.1104e+08,1,4653,4400,14.58,1.03,25,18,0,0
2.079e+05,1.1114e+08,1,4387,4200,14.5,1.61,25,18,0,0
2.0835e+05,1.1125e+08,1,4216,4371,14.55,1.78,25,18,0,0
2.088e+05,1.1136e+08,1,4385,4714,14.57,2.42,25,18,0,0
2.0924e+05,1.1147e+08,1,4735,4942,14.54,2.1,25,18,0,0
2.0969e+05,1.1158e+08,1,4886,4342,14.65,1.53,25,18,0,0
2.1013e+05,1.1169e+08,1,4357,4514,14.66,1.99,25,18,0,0
2.1054e+05,1.1178e+08,1,4517,4585,14.59,1.86,25,18,0,0
2.1098e+05,1.119e+08,1,4568,4342,14.73,1,25,18,0,0
2.1147e+05,1.1201e+08,1,4317,4071,14.71,0.99,25,18,0,0
2.1187e+05,1.1211e+08,1,4072,4157,14.72,1.37,25,18,0,0
2.1232e+05,1.1222e+08,1,4158,4185,14.68,1.89,25,18,0,0
2.1277e+05,1.1233e+08,1,4185,4200,14.64,1.78,25,18,0,0
2.1322e+05,1.1244e+08,1,4219,4485,14.7,1.67,25,19,0,0
2.1366e+05,1.1256e+08,1,4510,4771,14.67,1.89,25,19,0,0
2.1411e+05,1.1266e+08,1,4767,4728,14.59,1.52,25,19,0,0
2.1456e+05,1.1277e+08,1,4717,4614,14.67,1.41,25,19,0,0
2.1496e+05,1.1287e+08,1,4612,4528,14.66,1.5,25,19,0,0
2.1541e+05,1.1298e+08,1,4528,4557,14.68,1.54,25,19,0,0
2.1588e+05,1.1309e+08,1,4568,4800,14.63,1.99,25,19,0,0
2.1633e+05,1.132e+08,1,4801,4828,14.61,1.71,25,19,0,0
2.1677e+05,1.1331e+08,1,4823,4771,14.52,1.61,25,19,0,0
2.1722e+05,1.1342e+08,1,4769,4657,14.52,1.45,25,19,0,0
2.1768e+05,1.1354e+08,1,4647,4471,14.54,1.4,25,19,0,0
2.1816e+05,1.1365e+08,1,4483,4557,14.58,1.49,25,19,0,0
2.1856e+05,1.1375e+08,1,4557,4571,14.57,1.58,25,19,0,0
2.1901e+05,1.1386e+08,1,4580,4671,14.55,1.83,25,19,0,0
2.1946e+05,1.1397e+08,1,4683,4800,14.53,1.93,25,19,0,0
2.199e+05,1.1407e+08,1,4797,4771,14.58,1.74,25,19,0,0
2.2034e+05,1.1419e+08,1,4764,4714,14.55,1.58,25,19,0,0
2.2082e+05,1.143e+08,1,4703,4571,14.55,1.35,25,19,0,0
2.2123e+05,1.144e+08,1,4569,4514,14.58,1.79,25,19,0,0
2.2168e+05,1.1451e+08,1,4541,4842,14.58,2.06,25,19,0,0
2.2213e+05,1.1462e+08,1,4879,5214,14.57,2.65,25,20,0,0
2.2253e+05,1.1472e+08,1,5215,5300,14.47,2.86,25,20,0,0
2.2298e+05,1.1483e+08,1,5302,5357,14.52,2.42,25,20,0,0
2.2347e+05,1.1495e+08,1,5346,5228,14.54,2.2,25,20,0,0
2.2388e+05,1.1505e+08,1,5220,5071,14.51,1.95,25,20,0,0
2.2436e+05,1.1517e+08,1,5058,4914,14.58,1.85,25,20,0,0
2.2476e+05,1.1527e+08,1,4907,4814,14.57,1.83,25,20,0,0
2.2517e+05,1.1537e+08,1,4813,4771,14.57,1.49,25,20,0,0
2.2562e+05,1.1548e+08,1,4769,4642,14.56,1.52,25,20,0,0
2.2655e+05,1.1571e+08,1,4637,4514,14.58,1.74,25,20,0,0
2.2744e+05,1.1593e+08,1,4512,4471,14.62,1.54,25,20,0,0
2.2789e+05,1.1604e+08,1,4479,4585,14.58,1.73,25,20,0,0
2.2829e+05,1.1614e+08,1,4593,4785,14.61,2.1,25,20,0,0
2.2874e+05,1.1625e+08,1,4789,5000,14.59,2.28,25,20,0,0
2.2918e+05,1.1636e+08,1,5007,5100,14.57,2.21,25,20,0,0
2.2963e+05,1.1647e+08,1,5111,5242,14.61,2.37,25,21,0,0
2.3008e+05,1.1658e+08,1,5227,5085,14.59,2.06,25,21,0,0
2.3097e+05,1.168e+08,1,5078,4928,14.55,1.76,25,21,0,0
2.3142e+05,1.1691e+08,1,4937,5028,14.55,2,25,21,0,0
2.3187e+05,1.1702e+08,1,5041,5171,14.54,2.33,25,21,0,0
2.3227e+05,1.1713e+08,1,5175,5271,14.56,2.53,25,21,0,0
2.3272e+05,1.1724e+08,1,5274,5314,14.5,2.78,25,21,0,0
2.3316e+05,1.1734e+08,1,5324,5600,14.53,2.98,25,21,0,0
2.3366e+05,1.1747e+08,1,5598,5585,14.46,2.98,25,21,0,0
2.341e+05,1.1757e+08,1,5581,5542,14.47,2.65,25,21,0,0
2.345e+05,1.1767e+08,1,5544,5571,14.56,2.67,25,21,0,0
2.3495e+05,1.1778e+08,1,5560,5414,14.57,2.21,25,21,0,0
2.354e+05,1.1789e+08,1,5395,5200,14.63,1.97,25,21,0,0
2.3584e+05,1.18e+08,1,5190,5014,14.53,2.02,25,22,0,0
2.3629e+05,1.1811e+08,1,5014,5014,14.51,2.08,25,22,0,0
2.3674e+05,1.1822e+08,1,5028,5228,14.5,2.59,25,22,0,0
2.3719e+05,1.1833e+08,1,5209,5014,14.45,2.44,25,22,0,0
2.3759e+05,1.1843e+08,1,5015,5042,14.6,1.81,25,22,0,0
2.38e+05,1.1854e+08,1,5043,5071,14.55,2.25,25,22,0,0
2.389e+05,1.1876e+08,1,5080,5285,14.52,2.53,25,22,0,0
2.3934e+05,1.1887e+08,1,5290,5371,14.57,2.54,25,22,0,0
2.3975e+05,1.1897e+08,1,5384,5557,14.54,2.61,25,22,0,0
2.4015e+05,1.1908e+08,1,5554,5414,14.53,2.73,25,22,0,0
2.4064e+05,1.192e+08,1,5406,5328,14.58,2.49,25,22,0,0
2.4105e+05,1.193e+08,1,5329,5385,14.51,2.21,25,22,0,0
2.415e+05,1.1941e+08,1,5378,5242,14.59,1.94,25,22,0,0
2.4194e+05,1.1952e+08,1,5218,4985,14.59,1.95,25,23,0,0
2.4239e+05,1.1963e+08,1,4984,4971,14.51,2.26,25,23,0,0
2.4284e+05,1.1974e+08,1,4980,5085,14.56,2.09,25,23,0,0
2.4328e+05,1.1985e+08,1,5051,4771,14.5,1.72,25,23,0,0
2.4369e+05,1.1995e+08,1,4768,4728,14.51,1.57,25,23,0,0
2.4413e+05,1.2006e+08,1,4722,4642,14.51,1.98,25,23,0,0
2.4503e+05,1.2028e+08,1,4654,4928,14.63,1.82,25,23,0,0
2.4544e+05,1.2038e+08,1,4931,5028,14.63,1.91,25,23,0,0
2.4588e+05,1.205e+08,1,5028,5042,14.58,2.09,25,23,0,0
2.4633e+05,1.206e+08,1,5042,5085,14.53,2.32,25,23,0,0
2.4678e+05,1.2072e+08,1,5081,5000,14.55,2.16,25,23,0,0
2.4722e+05,1.2083e+08,1,5016,5242,14.51,2.34,25,23,0,0
2.4767e+05,1.2094e+08,1,5229,5100,14.47,2.34,25,23,0,0
2.4811e+05,1.2105e+08,1,5098,5085,14.52,2.14,25,23,0,0
2.4855e+05,1.2115e+08,1,5082,5028,14.51,2.18,25,23,0,0
2.49e+05,1.2126e+08,1,5022,4957,14.58,2.12,25,23,0,0
2.4946e+05,1.2137e+08,1,4955,4928,14.51,2.03,25,24,0,0
2.4986e+05,1.2147e+08,1,4923,4771,14.52,1.79,25,24,0,0
2.5035e+05,1.2159e+08,1,4764,4700,14.55,1.7,25,24,0,0
2.5075e+05,1.2169e+08,1,4697,4657,14.54,1.61,25,24,0,0
2.512e+05,1.2181e+08,1,4641,4457,14.6,1.29,25,24,0,0
2.5165e+05,1.2192e+08,1,4450,4242,14.6,0.96,25,24,0,0
2.521e+05,1.2202e+08,1,4242,4242,14.57,1.38,25,24,0,0
2.5255e+05,1.2214e+08,1,4251,4342,14.52,1.63,25,24,0,0
2.5295e+05,1.2223e+08,1,4342,4371,14.54,1.46,25,24,0,0
2.5344e+05,1.2236e+08,1,4380,4471,14.59,1.65,25,24,0,0
2.5391e+05,1.2247e+08,1,4494,4685,14.58,1.66,25,24,0,0
2.5436e+05,1.2258e+08,1,4682,4657,14.54,1.71,25,24,0,0
2.5476e+05,1.2268e+08,1,4660,4742,14.62,1.71,25,24,0,0
2.5651e+05,1.2312e+08,1,4745,4914,14.58,1.72,25,24,0,0
2.5737e+05,1.2333e+08,1,4907,4800,14.52,1.79,25,24,0,0
2.5782e+05,1.2344e+08,1,4784,4642,14.58,1.38,25,25,0,0
2.5823e+05,1.2355e+08,1,4626,4457,14.58,1.08,25,25,0,0
2.5872e+05,1.2367e+08,1,4439,4228,14.6,1.03,25,25,0,0
2.5916e+05,1.2377e+08,1,4211,3871,14.7,0.99,25,25,0,0
2.596e+05,1.2388e+08,1,3866,3814,14.64,1.31,25,25,0,0
2.6001e+05,1.2398e+08,1,3814,3828,14.57,1.34,25,25,0,0
2.6046e+05,1.2409e+08,1,3826,3800,14.58,1.46,25,25,0,0
2.609e+05,1.242e+08,1,3799,3714,14.66,1.23,25,25,0,0
2.6135e+05,1.2431e+08,1,3714,3714,14.66,1.55,25,25,0,0
2.618e+05,1.2442e+08,1,3697,3457,14.7,1.4,25,25,0,0
2.622e+05,1.2453e+08,1,3458,3485,14.77,1.24,25,25,0,0
2.6269e+05,1.2464e+08,1,3537,4085,14.58,2.05,25,25,0,0
2.631e+05,1.2475e+08,1,4085,4100,14.63,1.93,25,25,0,0
2.6355e+05,1.2486e+08,1,4121,4328,14.63,1.84,25,25,0,0
2.64e+05,1.2497e+08,1,4333,4414,14.63,1.3,25,25,0,0
2.644e+05,1.2507e+08,1,4414,4414,14.63,1.34,25,25,0,0
2.6484e+05,1.2518e+08,1,4412,4357,14.61,1.19,25,25,0,0
2.653e+05,1.2529e+08,1,4326,4057,14.66,0.83,25,25,0,0
2.6574e+05,1.2539e+08,1,4054,3985,14.67,1.3,25,25,0,0
2.6618e+05,1.255e+08,1,3982,3842,14.64,1.22,25,25,0,0
2.6668e+05,1.2562e+08,1,3861,4028,14.57,2.15,25,25,0,0
2.6712e+05,1.2573e+08,1,4064,4428,14.63,1.81,25,25,0,0
2.6752e+05,1.2582e+08,1,4433,4685,14.55,1.86,25,25,0,0
2.6798e+05,1.2594e+08,1,4683,4671,14.63,1.38,25,26,0,0
2.6838e+05,1.2605e+08,1,4670,4628,14.63,1.39,25,26,0,0
2.6883e+05,1.2616e+08,1,4628,4628,14.59,1.49,25,26,0,0
2.6927e+05,1.2627e+08,1,4630,4685,14.62,1.43,25,26,0,0
2.6968e+05,1.2637e+08,1,4680,4485,14.68,1.33,25,26,0,0
2.7013e+05,1.2648e+08,1,4477,4342,14.63,1.16,25,26,0,0
2.7058e+05,1.2659e+08,1,4335,4242,14.59,1.24,25,26,0,0
2.7147e+05,1.2681e+08,1,4243,4285,14.61,1.49,25,26,0,0
2.7191e+05,1.2692e+08,1,4291,4385,14.63,1.3,25,26,0,0
2.7236e+05,1.2703e+08,1,4382,4328,14.67,1.46,25,26,0,0
2.728e+05,1.2714e+08,1,4329,4357,14.57,1.4,25,26,0,0
2.7322e+05,1.2724e+08,1,4355,4300,14.62,1.42,25,26,0,0
2.7371e+05,1.2736e+08,1,4308,4400,14.61,1.55,25,26,0,0
2.741e+05,1.2746e+08,1,4404,4571,14.6,1.69,25,26,0,0
2.7455e+05,1.2757e+08,1,4570,4557,14.63,1.61,25,26,0,0
2.7496e+05,1.2767e+08,1,4554,4528,14.59,1.48,25,26,0,0
2.7542e+05,1.2779e+08,1,4533,4585,14.62,1.53,25,26,0,0
2.7585e+05,1.2789e+08,1,4584,4571,14.66,1.48,25,26,0,0
2.763e+05,1.28e+08,1,4569,4528,14.61,1.64,25,26,0,0
2.7675e+05,1.2811e+08,1,4528,4528,14.64,1.53,25,26,0,0
2.772e+05,1.2821e+08,1,4531,4600,14.57,1.74,25,26,0,0
2.7764e+05,1.2832e+08,1,4599,4585,14.58,1.47,25,26,0,0
2.7813e+05,1.2844e+08,1,4583,4571,14.61,1.58,25,27,0,0
2.7853e+05,1.2854e+08,1,4574,4671,14.57,1.66,25,27,0,0
2.7898e+05,1.2865e+08,1,4672,4685,14.64,1.57,25,27,0,0
2.7943e+05,1.2876e+08,1,4673,4557,14.63,1.46,25,27,0,0
2.7988e+05,1.2887e+08,1,4547,4442,14.61,1.34,25,27,0,0
2.8072e+05,1.2908e+08,1,4444,4571,14.55,1.74,25,27,0,0
2.8117e+05,1.2919e+08,1,4572,4585,14.55,1.6,25,27,0,0
2.8162e+05,1.293e+08,1,4583,4571,14.55,1.59,25,27,0,0
2.8207e+05,1.2941e+08,1,4568,4542,14.63,1.55,25,27,0,0
2.8247e+05,1.2951e+08,1,4537,4442,14.59,1.48,25,27,0,0
2.8296e+05,1.2963e+08,1,4457,4571,14.63,1.51,25,27,0,0
2.8336e+05,1.2973e+08,1,4572,4600,14.61,1.67,25,27,0,0
2.8382e+05,1.2984e+08,1,4598,4571,14.54,1.52,25,27,0,0
2.8426e+05,1.2995e+08,1,4568,4514,14.6,1.56,25,27,0,0
2.8467e+05,1.3006e+08,1,4513,4471,14.65,1.27,25,27,0,0
2.8516e+05,1.3018e+08,1,4464,4400,14.6,1.28,25,27,0,0
2.8556e+05,1.3028e+08,1,4401,4471,14.61,1.46,25,27,0,0
2.8605e+05,1.3039e+08,1,4471,4471,14.6,1.49,25,27,0,0
2.869e+05,1.306e+08,1,4470,4457,14.63,1.46,25,27,0,0
2.8738e+05,1.3071e+08,1,4459,4514,14.6,1.61,25,27,0,0
2.8783e+05,1.3082e+08,1,4518,4585,14.61,1.58,25,28,0,0
2.8828e+05,1.3094e+08,1,4587,4614,14.55,1.59,25,28,0,0
2.8868e+05,1.3104e+08,1,4613,4600,14.55,1.66,25,28,0,0
2.8912e+05,1.3115e+08,1,4611,4814,14.45,1.91,25,28,0,0
2.8961e+05,1.3127e+08,1,4836,5028,14.47,2.38,25,28,0,0
2.9006e+05,1.3138e+08,1,5028,5028,14.52,1.84,25,28,0,0
2.9095e+05,1.316e+08,1,5018,4857,14.5,1.95,25,28,0,0
2.9139e+05,1.317e+08,1,4868,4985,14.5,1.94,25,28,0,0
2.9184e+05,1.3181e+08,1,4975,4885,14.54,1.79,25,28,0,0
2.9228e+05,1.3192e+08,1,4861,4657,14.58,1.59,25,28,0,0
2.9313e+05,1.3213e+08,1,4656,4642,14.57,1.9,25,28,0,0
2.9358e+05,1.3224e+08,1,4636,4585,14.58,1.7,25,28,0,0
2.9398e+05,1.3234e+08,1,4585,4600,14.61,1.66,25,28,0,0
2.9447e+05,1.3246e+08,1,4595,4542,14.66,1.71,25,28,0,0
2.9495e+05,1.3257e+08,1,4542,4542,14.6,1.62,25,28,0,0
2.9536e+05,1.3267e+08,1,4552,4685,14.61,1.6,25,28,0,0
2.9581e+05,1.3278e+08,1,4683,4657,14.59,1.71,25,28,0,0
2.9625e+05,1.3289e+08,1,4653,4614,14.57,1.67,25,29,0,0
2.9665e+05,1.3299e+08,1,4619,4828,14.6,1.98,25,29,0,0
2.9714e+05,1.3311e+08,1,4823,4771,14.61,1.64,25,29,0,0
2.9755e+05,1.3321e+08,1,4769,4742,14.58,1.86,25,29,0,0
2.98e+05,1.3333e+08,1,4744,4785,14.62,1.96,25,29,0,0
2.984e+05,1.3343e+08,1,4785,4842,14.55,1.8,25,29,0,0
2.9885e+05,1.3354e+08,1,4841,4828,14.6,1.84,25,29,0,0
2.9974e+05,1.3376e+08,1,4828,4900,14.64,1.81,25,29,0,0
3.0018e+05,1.3387e+08,1,4899,4885,14.59,1.65,25,29,0,0
3.0067e+05,1.3398e+08,1,4882,4842,14.58,1.89,25,29,0,0
3.0112e+05,1.3409e+08,1,4846,4900,14.64,1.72,25,29,0,0
3.0156e+05,1.342e+08,1,4895,4800,14.61,1.76,25,29,0,0
3.0197e+05,1.343e+08,1,4800,4814,14.59,1.86,25,29,0,0
3.0241e+05,1.3441e+08,1,4821,4971,14.6,1.95,25,29,0,0
3.029e+05,1.3453e+08,1,4963,4885,14.58,1.97,25,29,0,0
3.033e+05,1.3463e+08,1,4884,4871,14.56,2.07,25,29,0,0
3.0375e+05,1.3474e+08,1,4871,4900,14.6,2.08,25,29,0,0
3.0419e+05,1.3485e+08,1,4900,4942,14.6,1.91,25,30,0,0
3.046e+05,1.3495e+08,1,4935,4714,14.58,1.63,25,30,0,0
3.05e+05,1.3506e+08,1,4716,4800,14.63,1.97,25,30,0,0
3.0546e+05,1.3517e+08,1,4798,4728,14.57,1.54,25,30,0,0
3.059e+05,1.3528e+08,1,4721,4600,14.58,1.7,25,30,0,0
3.0636e+05,1.3539e+08,1,4606,4771,14.58,1.85,25,30,0,0
3.068e+05,1.355e+08,1,4762,4657,14.63,1.51,25,30,0,0
3.0725e+05,1.3561e+08,1,4654,4600,14.57,1.73,25,30,0,0
3.0771e+05,1.3572e+08,1,4597,4571,14.54,1.85,25,30,0,0
3.0816e+05,1.3583e+08,1,4573,4600,14.59,1.51,25,30,0,0
3.086e+05,1.3594e+08,1,4600,4600,14.65,1.66,25,30,0,0
3.0905e+05,1.3605e+08,1,4595,4542,14.63,1.83,25,30,0,0
3.0946e+05,1.3615e+08,1,4532,4342,14.7,1.08,25,30,0,0
3.1039e+05,1.3638e+08,1,4338,4228,14.67,1.7,25,30,0,0
3.1084e+05,1.3649e+08,1,4241,4371,14.67,2.14,25,30,0,0
3.1129e+05,1.366e+08,1,4384,4557,14.63,1.82,25,30,0,0
3.1169e+05,1.367e+08,1,4552,4471,14.66,1.63,25,30,0,0
3.1214e+05,1.3681e+08,1,4473,4642,14.63,1.84,25,30,0,0
3.1258e+05,1.3692e+08,1,4538,3242,15.19,0.38,25,31,0,0
3.1303e+05,1.3703e+08,1,3203,2357,14.87,0.84,25,31,0,0
3.1347e+05,1.3713e+08,1,2360,2400,15.16,0.44,25,31,0,0
3.1392e+05,1.3724e+08,1,2374,2157,15.11,0.11,25,31,0,0
3.1437e+05,1.3735e+08,1,2129,1842,15.07,0.1,25,31,0,0
3.1482e+05,1.3747e+08,1,1849,1914,15.07,0.21,25,31,0,0
3.1522e+05,1.3756e+08,1,1912,1800,15.06,0.13,25,31,0,0
3.1567e+05,1.3767e+08,1,1799,1785,15.06,0.22,25,31,0,0
3.1612e+05,1.3778e+08,1,1789,1828,15.07,0.17,25,31,0,0
3.1652e+05,1.3788e+08,1,1827,1800,15.07,0.16,25,31,0,0
3.1696e+05,1.3799e+08,1,1800,1828,15.08,0.18,25,31,0,0
3.1741e+05,1.381e+08,1,1827,1814,15.07,0.16,25,31,0,0
3.1786e+05,1.3821e+08,1,1814,1814,15.07,0.2,25,31,0,0
3.183e+05,1.3832e+08,1,1814,1828,15.08,0.15,25,31,0,0
3.1875e+05,1.3843e+08,1,1827,1814,15.08,0.17,25,31,0,0
3.1919e+05,1.3854e+08,1,1814,1814,15.06,0.22,25,31,0,0
3.1968e+05,1.3865e+08,1,1816,1842,15.1,0.23,25,31,0,0
3.2012e+05,1.3876e+08,1,1842,1842,15.06,0.21,25,31,0,0
3.2056e+05,1.3887e+08,1,1840,1828,15.09,0.15,25,31,0,0
3.2101e+05,1.3898e+08,1,1817,1714,15.16,0.06,25,31,0,0
3.2149e+05,1.3909e+08,1,1701,1400,15.16,0,25,31,0,0
3.2194e+05,1.3919e+08,1,1384,1257,15.14,0.07,25,31,0,0
3.2239e+05,1.393e+08,1,1254,1228,15.14,0.09,25,31,0,0
3.2284e+05,1.3941e+08,1,1228,1228,15.15,0.09,25,31,0,0
3.2328e+05,1.3952e+08,1,1228,1228,15.14,0.09,25,31,0,0
3.2373e+05,1.3963e+08,1,1228,1228,15.15,0.09,25,31,0,0
3.2421e+05,1.3974e+08,1,1228,1228,15.15,0.09,25,31,0,0
3.2467e+05,1.3985e+08,1,1228,1228,15.15,0.09,25,31,0,0
3.2507e+05,1.3995e+08,1,1227,1214,15.16,0.09,25,31,0,0
3.2556e+05,1.4007e+08,1,1215,1228,15.16,0.09,25,31,0,0
3.2601e+05,1.4017e+08,1,1228,1228,15.16,0.09,25,31,0,0
3.2641e+05,1.4027e+08,1,1228,1228,15.15,0.09,25,31,0,0
3.2689e+05,1.4038e+08,1,1228,1228,15.16,0.1,25,31,0,0
3.2734e+05,1.4049e+08,1,1228,1228,15.16,0.1,25,31,0,0
3.278e+05,1.406e+08,1,1228,1228,15.17,0.1,25,31,0,0
3.282e+05,1.407e+08,1,1228,1228,15.16,0.09,25,31,0,0
3.2865e+05,1.4081e+08,1,1228,1228,15.16,0.09,25,31,0,0
3.291e+05,1.4092e+08,1,1228,1228,15.17,0.1,25,31,0,0
3.2955e+05,1.4103e+08,1,1228,1228,15.17,0.1,25,31,0,0
3.3e+05,1.4114e+08,1,1228,1228,15.17,0.1,25,31,0,0
3.3044e+05,1.4125e+08,1,1228,1228,15.17,0.09,25,31,0,0
3.3089e+05,1.4136e+08,1,1228,1228,15.17,0.09,25,31,0,0
3.3134e+05,1.4147e+08,1,1227,1214,15.17,0.09,25,31,0,0
3.3178e+05,1.4157e+08,1,1214,1214,15.17,0.1,25,31,0,0
3.3223e+05,1.4168e+08,1,1214,1214,15.17,0.1,25,31,0,0
3.3272e+05,1.4179e+08,1,1215,1228,15.18,0.1,25,31,0,0
3.3313e+05,1.419e+08,1,1226,1214,15.19,0.1,25,31,0,0
3.3358e+05,1.42e+08,1,1214,1214,15.18,0.1,25,31,0,0
3.3402e+05,1.4211e+08,1,1214,1214,15.19,0.1,25,31,0,0
3.3504e+05,1.4244e+08,1,1214,1228,15.18,0.1,25,31,0,0
3.3549e+05,1.4255e+08,1,1228,1228,15.19,0.1,25,31,0,0
3.3594e+05,1.4266e+08,1,1228,1228,15.19,0.1,25,31,0,0
3.3675e+05,1.4286e+08,1,1228,1228,15.19,0.1,25,31,0,0
3.3723e+05,1.4297e+08,1,1228,1228,15.19,0.1,25,31,0,0
3.3768e+05,1.4308e+08,1,1228,1228,15.19,0.1,25,31,0,0
3.3813e+05,1.4319e+08,1,1227,1214,15.19,0.1,25,31,0,0
3.3854e+05,1.4329e+08,1,1214,1214,15.2,0.1,25,31,0,0
3.3946e+05,1.4351e+08,1,1214,1228,15.2,0.1,25,31,0,0
3.3996e+05,1.4363e+08,1,1228,1228,15.2,0.1,25,31,0,0
3.4036e+05,1.4373e+08,1,1227,1214,15.2,0.1,25,31,0,0
3.4086e+05,1.4385e+08,1,1215,1228,15.2,0.1,25,31,0,0
3.4126e+05,1.4394e+08,1,1227,1214,15.2,0.1,25,31,0,0
3.4171e+05,1.4405e+08,1,1214,1214,15.2,0.1,25,31,0,0
3.4216e+05,1.4416e+08,1,1214,1228,15.2,0.1,25,31,0,0
3.4257e+05,1.4427e+08,1,1227,1214,15.2,0.1,25,31,0,0
3.4306e+05,1.4438e+08,1,1214,1214,15.2,0.1,25,31,0,0
3.4351e+05,1.4449e+08,1,1214,1214,15.21,0.1,25,31,0,0
3.4396e+05,1.446e+08,1,1214,1228,15.21,0.1,25,31,0,0
3.4441e+05,1.4471e+08,1,1228,1228,15.21,0.1,25,31,0,0
3.4486e+05,1.4482e+08,1,1228,1228,15.2,0.1,25,31,0,0
3.453e+05,1.4492e+08,1,1228,1228,15.21,0.1,25,31,0,0
3.4619e+05,1.4514e+08,1,1227,1214,15.21,0.1,25,31,0,0
3.4664e+05,1.4524e+08,1,1214,1228,15.22,0.1,25,31,0,0
3.4712e+05,1.4536e+08,1,1228,1228,15.21,0.1,25,31,0,0
3.4757e+05,1.4547e+08,1,1228,1228,15.21,0.09,25,31,0,0
3.4802e+05,1.4557e+08,1,1228,1228,15.22,0.1,25,31,0,0
3.4843e+05,1.4568e+08,1,1228,1228,15.21,0.09,25,31,0,0
3.4892e+05,1.4579e+08,1,1228,1228,15.22,0.1,25,31,0,0
3.4933e+05,1.4589e+08,1,1228,1228,15.22,0.1,25,31,0,0
3.4982e+05,1.4601e+08,1,1228,1228,15.22,0.1,25,31,0,0
3.5028e+05,1.4612e+08,1,1228,1228,15.21,0.1,25,31,0,0
3.5072e+05,1.4623e+08,1,1228,1228,15.22,0.09,25,31,0,0
3.5116e+05,1.4634e+08,1,1228,1228,15.22,0.1,25,31,0,0
3.5161e+05,1.4644e+08,1,1228,1228,15.23,0.1,25,31,0,0
3.521e+05,1.4655e+08,1,1228,1228,15.23,0.1,25,31,0,0
3.5254e+05,1.4667e+08,1,1228,1228,15.23,0.1,25,31,0,0
3.5295e+05,1.4676e+08,1,1226,1214,15.23,0.1,25,31,0,0
3.5339e+05,1.4687e+08,1,1214,1228,15.24,0.1,25,31,0,0
3.5433e+05,1.471e+08,1,1228,1228,15.23,0.1,25,31,0,0
3.5473e+05,1.4719e+08,1,1228,1228,15.23,0.1,25,31,0,0
3.5522e+05,1.4731e+08,1,1226,1214,15.23,0.1,25,31,0,0
3.5563e+05,1.4741e+08,1,1214,1214,15.23,0.1,25,31,0,0
3.5611e+05,1.4752e+08,1,1214,1228,15.23,0.1,25,31,0,0
3.5656e+05,1.4763e+08,1,1228,1228,15.24,0.1,25,31,0,0
3.57e+05,1.4774e+08,1,1227,1214,15.24,0.1,25,31,0,0
3.5746e+05,1.4785e+08,1,1214,1228,15.24,0.1,25,31,0,0
3.5791e+05,1.4796e+08,1,1228,1228,15.24,0.1,25,31,0,0
3.5876e+05,1.4817e+08,1,1228,1228,15.23,0.1,25,31,0,0
3.5925e+05,1.4829e+08,1,1228,1228,15.23,0.1,25,31,0,0
3.597e+05,1.4839e+08,1,1228,1228,15.24,0.1,25,31,0,0
3.6059e+05,1.4861e+08,1,1228,1228,15.24,0.1,25,31,0,0
3.6103e+05,1.4872e+08,1,1228,1228,15.24,0.1,25,31,0,0
3.6148e+05,1.4882e+08,1,1228,1228,15.24,0.1,25,31,0,0
3.6193e+05,1.4893e+08,1,1228,1228,15.26,0.07,25,31,0,0
3.6238e+05,1.4905e+08,1,1117,285,15.26,0,25,31,0,0
3.6276e+05,1.4914e+08,1,279,0,15.26,0.02,25,31,0,0
3.6324e+05,1.4926e+08,1,0,0,15.26,0.03,25,31,0,0
3.6365e+05,1.4937e+08,1,0,0,15.26,0.04,25,31,0,0
3.6402e+05,1.4947e+08,1,0,0,15.26,0.03,25,31,0,0
3.6448e+05,1.4958e+08,1,0,0,15.26,0.04,25,31,0,0
3.6488e+05,1.4968e+08,1,0,0,15.26,0.03,25,31,0,0
3.6534e+05,1.4979e+08,1,0,0,15.26,0.03,25,31,0,0
3.6578e+05,1.4991e+08,1,0,0,15.26,0.03,25,31,0,0
3.662e+05,1.5001e+08,1,0,0,15.26,0.03,25,31,0,0
3.6658e+05,1.5011e+08,1,0,0,15.26,0.03,25,31,0,0
3.6703e+05,1.5023e+08,1,0,0,15.26,0.03,25,31,0,0
3.6744e+05,1.5033e+08,1,0,0,15.26,0.03,25,31,0,0
3.6789e+05,1.5045e+08,1,0,0,15.26,0.03,25,31,0,0
3.6831e+05,1.5055e+08,1,0,0,15.27,0.03,25,31,0,0
3.6873e+05,1.5067e+08,1,0,0,15.27,0.03,25,31,0,0
3.6914e+05,1.5077e+08,1,0,0,15.27,0.03,25,31,0,0
3.6951e+05,1.5087e+08,1,0,0,15.27,0.03,24,31,0,0
3.6997e+05,1.5098e+08,1,0,0,15.27,0.03,25,31,0,0
3.7038e+05,1.5108e+08,1,0,0,15.27,0.04,25,31,0,0
3.7083e+05,1.512e+08,1,0,0,15.27,0.04,25,31,0,0
3.7124e+05,1.513e+08,1,0,0,15.27,0.03,25,31,0,0
3.7166e+05,1.5141e+08,1,0,0,15.27,0.04,25,31,0,0
3.7211e+05,1.5152e+08,1,0,0,15.27,0.04,24,31,0,0
3.7252e+05,1.5163e+08,1,0,0,15.27,0.03,25,31,0,0
3.7293e+05,1.5173e+08,1,0,0,15.27,0.04,24,31,0,0
3.7334e+05,1.5184e+08,1,0,0,15.27,0.04,25,31,0,0
3.7379e+05,1.5195e+08,1,0,0,15.27,0.04,25,31,0,0
3.7421e+05,1.5206e+08,1,0,0,15.27,0.04,25,31,0,0
3.7462e+05,1.5217e+08,1,0,0,15.27,0.04,25,31,0,0
3.7548e+05,1.5239e+08,1,0,0,15.27,0.04,25,31,0,0
3.7589e+05,1.5249e+08,1,0,0,15.27,0.04,24,31,0,0
3.763e+05,1.526e+08,1,0,0,15.28,0.03,25,31,0,0
3.7672e+05,1.527e+08,1,0,0,15.28,0.03,25,31,0,0
3.771e+05,1.5281e+08,1,0,0,15.27,0.03,25,31,0,0
3.7755e+05,1.5292e+08,1,0,0,15.27,0.03,25,31,0,0
3.7796e+05,1.5302e+08,1,0,0,15.27,0.04,25,31,0,0
3.7841e+05,1.5313e+08,1,0,0,15.28,0.04,24,31,0,0
3.7886e+05,1.5325e+08,1,0,0,15.28,0.04,24,31,0,0
3.7928e+05,1.5336e+08,1,0,0,15.27,0.04,25,31,0,0
3.7969e+05,1.5347e+08,1,0,0,15.28,0.04,24,31,0,0
3.801e+05,1.5357e+08,1,0,0,15.29,0.04,25,31,0,0
3.8055e+05,1.5368e+08,1,0,0,15.28,0.04,24,31,0,0
3.8096e+05,1.5379e+08,1,0,0,15.29,0.03,24,31,0,0
3.8138e+05,1.5389e+08,1,0,0,15.29,0.03,25,31,0,0
3.8179e+05,1.54e+08,1,0,0,15.29,0.03,24,31,0,0
3.8224e+05,1.5411e+08,1,0,0,15.29,0.03,24,31,0,0
3.8265e+05,1.5422e+08,1,0,0,15.28,0.03,24,31,0,0
3.8306e+05,1.5433e+08,1,0,0,15.28,0.04,24,31,0,0
3.8347e+05,1.5443e+08,1,0,0,15.28,0.04,24,31,0,0
3.8392e+05,1.5454e+08,1,0,0,15.29,0.04,25,31,0,0
3.8434e+05,1.5465e+08,1,0,0,15.28,0.04,25,31,0,0
3.8475e+05,1.5476e+08,1,0,0,15.29,0.04,24,31,0,0
3.8516e+05,1.5486e+08,1,0,0,15.29,0.03,24,31,0,0
3.8602e+05,1.5508e+08,1,0,0,15.29,0.03,25,31,0,0
3.8648e+05,1.5519e+08,1,0,0,15.29,0.04,24,31,0,0
3.8688e+05,1.553e+08,1,0,0,15.29,0.03,24,31,0,0
3.8734e+05,1.5541e+08,1,0,0,15.29,0.04,24,31,0,0
3.8775e+05,1.5551e+08,1,0,0,15.29,0.04,24,31,0,0
3.8816e+05,1.5562e+08,1,0,0,15.29,0.04,24,31,0,0
3.8861e+05,1.5573e+08,1,0,0,15.29,0.03,24,31,0,0
3.8944e+05,1.5594e+08,1,0,0,15.29,0.03,24,31,0,0
3.8984e+05,1.5604e+08,1,0,0,15.29,0.04,24,31,0,0
3.903e+05,1.5616e+08,1,0,0,15.29,0.04,24,31,0,0
3.9071e+05,1.5626e+08,1,0,0,15.29,0.04,24,31,0,0
3.9116e+05,1.5638e+08,1,0,0,15.29,0.04,24,31,0,0
