LineNo,TimeUS,Instance,RPM,RawRPM,Volt,Curr,Temp,CTot,MotTemp,Err
2013,60207352,4,0,0,15.23,0.04,26,0,0,0
2435,60316046,4,0,0,15.23,0.04,26,0,0,0
2849,60418681,4,0,0,15.24,0.03,26,0,0,0
3302,60531376,4,0,0,15.23,0.03,26,0,0,0
3714,60634316,4,0,0,15.23,0.04,26,0,0,0
4165,60745046,4,0,0,15.24,0.04,26,0,0,0
4582,60851283,4,0,0,15.24,0.04,26,0,0,0
4993,60955787,4,0,0,15.24,0.04,26,0,0,0
5442,61071360,4,0,0,15.23,0.04,26,0,0,0
6265,61280311,4,0,0,15.23,0.04,26,0,0,0
6674,61383819,4,0,0,15.24,0.04,26,0,0,0
7135,61501821,4,0,0,15.24,0.04,26,0,0,0
7548,61606936,4,0,0,15.24,0.04,26,0,0,0
7964,61715221,4,0,0,15.23,0.04,26,0,0,0
8380,61818026,4,0,0,15.24,0.04,26,0,0,0
8796,61920507,4,0,0,15.23,0.04,26,0,0,0
9255,62039369,4,0,0,15.23,0.04,26,0,0,0
9667,62144476,4,0,0,15.24,0.04,26,0,0,0
10081,62247104,4,0,0,15.24,0.03,26,0,0,0
10531,62359516,4,0,0,15.24,0.03,26,0,0,0
10879,62467174,4,0,0,15.23,0.03,26,0,0,0
11324,62578521,4,0,0,15.24,0.03,26,0,0,0
11742,62685917,4,0,0,15.25,0.03,26,0,0,0
12153,62788719,4,0,0,15.23,0.03,26,0,0,0
12608,62901793,4,0,0,15.24,0.03,26,0,0,0
13019,63004810,4,0,0,15.24,0.03,26,0,0,0
13467,63117463,4,0,0,15.23,0.03,26,0,0,0
13872,63219382,4,0,0,15.23,0.03,26,0,0,0
14293,63324720,4,0,0,15.23,0.03,26,0,0,0
15156,63541285,4,0,0,15.23,0.04,26,0,0,0
15569,63647387,4,0,0,15.24,0.03,26,0,0,0
16025,63761110,4,0,0,15.24,0.03,26,0,0,0
16442,63866093,4,0,0,15.24,0.03,26,0,0,0
16853,63967928,4,0,0,15.24,0.04,26,0,0,0
17306,64083822,4,0,0,15.24,0.03,26,0,0,0
17719,64187319,4,0,0,15.24,0.03,26,0,0,0
18133,64292545,4,0,0,15.24,0.04,26,0,0,0
18587,64405340,4,0,0,15.23,0.03,26,0,0,0
18995,64507441,4,0,0,15.23,0.03,26,0,0,0
19453,64618659,4,0,0,15.24,0.03,26,0,0,0
20320,64841884,4,0,0,15.23,0.03,26,0,0,0
20736,64946686,4,0,0,15.24,0.03,26,0,0,0
21147,65049964,4,0,0,15.24,0.03,26,0,0,0
21573,65162797,4,0,0,15.24,0.03,26,0,0,0
21983,65264939,4,0,0,15.24,0.03,26,0,0,0
22439,65377261,4,0,0,15.24,0.03,26,0,0,0
22851,65482312,4,0,0,15.24,0.03,26,0,0,0
23266,65585934,4,0,0,15.23,0.03,26,0,0,0
23715,65702804,4,0,0,15.24,0.03,26,0,0,0
24130,65806260,4,0,0,15.24,0.04,26,0,0,0
24541,65909907,4,0,0,15.23,0.03,26,0,0,0
24997,66024137,4,0,0,15.24,0.04,26,0,0,0
25407,66130135,4,0,0,15.24,0.03,26,0,0,0
25822,66238504,4,0,0,15.24,0.03,26,0,0,0
26238,66340379,4,0,0,15.24,0.04,26,0,0,0
26650,66450273,4,0,0,15.23,0.04,26,0,0,0
27103,66562240,4,0,0,15.24,0.04,26,0,0,0
27516,66667087,4,0,0,15.24,0.04,26,0,0,0
27976,66779717,4,0,0,15.24,0.04,26,0,0,0
28390,66885525,4,0,0,15.24,0.04,26,0,0,0
28804,66988907,4,0,0,15.24,0.04,26,0,0,0
29249,67098497,4,0,0,15.23,0.04,26,0,0,0
29665,67201978,4,0,0,15.23,0.04,26,0,0,0
30076,67309994,4,0,0,15.23,0.04,26,0,0,0
30530,67421272,4,0,0,15.23,0.04,26,0,0,0
30939,67524968,4,0,0,15.24,0.04,26,0,0,0
31392,67637108,4,0,0,15.24,0.04,26,0,0,0
31847,67753033,4,0,0,15.24,0.04,26,0,0,0
32221,67844640,4,0,0,15.24,0.04,26,0,0,0
32675,67961427,4,0,0,15.24,0.04,26,0,0,0
33087,68066681,4,0,0,15.23,0.04,26,0,0,0
33499,68169660,4,0,0,15.24,0.03,26,0,0,0
33950,68280894,4,0,0,15.24,0.04,26,0,0,0
34403,68393230,4,0,0,15.24,0.04,26,0,0,0
34813,68497134,4,0,0,15.24,0.03,26,0,0,0
35266,68609841,4,0,0,15.24,0.04,26,0,0,0
35677,68715473,4,0,0,15.25,0.04,26,0,0,0
36093,68818042,4,0,0,15.23,0.04,26,0,0,0
36544,68929081,4,0,0,15.24,0.03,26,0,0,0
36958,69030495,4,0,0,15.24,0.04,26,0,0,0
37410,69146290,4,0,0,15.24,0.04,26,0,0,0
37824,69253222,4,0,0,15.24,0.04,26,0,0,0
38240,69356887,4,0,0,15.23,0.04,26,0,0,0
39109,69578266,4,0,0,15.24,0.04,26,0,0,0
39518,69683348,4,0,0,15.23,0.04,26,0,0,0
39934,69787523,4,0,0,15.24,0.04,26,0,0,0
40380,69899934,4,0,0,15.24,0.04,26,0,0,0
40839,70015804,4,0,0,15.24,0.03,26,0,0,0
41250,70123039,4,0,0,15.24,0.04,26,0,0,0
41665,70226078,4,0,0,15.23,0.04,26,0,0,0
42075,70328962,4,0,0,15.23,0.04,26,0,0,0
42533,70444285,4,0,0,15.23,0.03,26,0,0,0
42947,70553009,4,0,0,15.23,0.04,26,0,0,0
43363,70661683,4,0,0,15.24,0.04,26,0,0,0
43776,70763480,4,0,0,15.24,0.04,26,0,0,0
44193,70872289,4,0,0,15.24,0.04,26,0,0,0
44606,70974565,4,0,0,15.24,0.03,26,0,0,0
45060,71090949,4,0,0,15.23,0.03,26,0,0,0
45472,71192890,4,0,0,15.23,0.03,26,0,0,0
45890,71299292,4,0,0,15.24,0.03,26,0,0,0
46343,71411873,4,0,0,15.24,0.03,26,0,0,0
46755,71518827,4,0,0,15.23,0.03,26,0,0,0
47210,71633117,4,0,0,15.23,0.03,26,0,0,0
47623,71741081,4,0,0,15.23,0.03,26,0,0,0
48043,71843840,4,0,0,15.23,0.03,26,0,0,0
48492,71950074,4,0,0,15.23,0.03,26,0,0,0
48947,72059512,4,0,0,15.24,0.03,26,0,0,0
49402,72163976,4,0,0,15.23,0.03,26,0,0,0
49855,72272936,4,0,0,15.24,0.03,26,0,0,0
50308,72376813,4,0,0,15.24,0.03,26,0,0,0
50802,72492549,4,0,0,15.23,0.03,26,0,0,0
51259,72598057,4,0,0,15.24,0.03,26,0,0,0
51750,72708042,4,0,0,15.24,0.03,26,0,0,0
52207,72814811,4,0,0,15.23,0.03,26,0,0,0
52701,72927859,4,0,0,15.23,0.03,26,0,0,0
53152,73030055,4,0,0,15.24,0.03,26,0,0,0
54102,73256041,4,0,0,15.23,0.04,26,0,0,0
54554,73359934,4,0,0,15.23,0.03,26,0,0,0
55005,73466057,4,0,0,15.24,0.03,26,0,0,0
55460,73570693,4,0,0,15.23,0.03,26,0,0,0
55914,73676495,4,0,0,15.23,0.03,26,0,0,0
56417,73789893,4,0,0,15.23,0.03,26,0,0,0
56869,73895253,4,12,314,15.23,0.02,26,0,0,0
57133,73999531,4,313,300,15.22,0.05,26,0,0,0
57594,74112269,4,331,685,15.21,0.11,26,0,0,0
58046,74216071,4,691,1071,15.2,0.14,26,0,0,0
58539,74330384,4,1081,1185,15.22,0.11,26,0,0,0
58991,74433626,4,1186,1214,15.22,0.11,26,0,0,0
59446,74543009,4,1214,1228,15.22,0.09999999,26,0,0,0
60356,74756021,4,1228,1242,15.22,0.09999999,26,0,0,0
60848,74870680,4,1242,1242,15.22,0.09999999,26,0,0,0
61299,74972290,4,1242,1242,15.23,0.09999999,26,0,0,0
61515,75078879,4,1242,1242,15.22,0.09999999,26,0,0,0
62016,75190288,4,1242,1242,15.22,0.09999999,26,0,0,0
62467,75295844,4,1242,1242,15.22,0.09999999,26,0,0,0
62967,75407916,4,1242,1242,15.22,0.09999999,26,0,0,0
63383,75513519,4,1242,1242,15.22,0.09999999,26,0,0,0
63840,75618077,4,1242,1242,15.22,0.09999999,26,0,0,0
64335,75731332,4,1242,1242,15.22,0.09999999,26,0,0,0
64796,75843377,4,1249,1314,15.2,0.15,26,0,0,0
65253,75948324,4,1339,1585,15.1,0.5,26,0,0,0
65708,76056855,4,1660,2428,15.13,0.77,26,0,0,0
66162,76161299,4,2462,2942,15.19,1.44,26,0,0,0
66612,76268079,4,2947,3357,14.94,1.33,26,0,0,0
67108,76382811,4,3393,3900,14.92,1.78,26,0,0,0
67561,76494901,4,3955,4514,14.84,2.42,26,0,0,0
68013,76602829,4,4569,5128,14.64,3.1,26,0,0,0
68465,76710437,4,5164,5528,14.54,4.07,26,0,0,0
68919,76817296,4,5563,6028,14.52,4.14,26,0,0,0
69372,76926368,4,6022,5971,14.64,3.58,26,0,0,0
69826,77036570,4,5989,6157,14.51,3.74,26,1,0,0
70275,77141800,4,6138,5871,14.57,2.97,26,1,0,0
70771,77258896,4,5855,5700,14.61,2.82,26,1,0,0
71223,77362290,4,5700,5700,14.63,2.81,26,1,0,0
72132,77579865,4,5691,5457,14.6,2.72,26,1,0,0
72547,77684920,4,5453,5285,14.59,2.14,27,1,0,0
73045,77801123,4,5277,5200,14.58,2.62,27,1,0,0
73456,77902129,4,5201,5271,14.59,2.41,27,1,0,0
73956,78019077,4,5271,5271,14.61,2.55,27,1,0,0
74403,78125335,4,5275,5385,14.61,2.73,27,1,0,0
74906,78250411,4,5385,5385,14.63,2.76,26,1,0,0
75316,78345111,4,5388,5600,14.57,2.8,27,2,0,0
75806,78462176,4,5592,5528,14.63,3.02,27,2,0,0
76262,78571870,4,5534,5628,14.54,3.17,27,2,0,0
76675,78672270,4,5629,5657,14.56,3.28,27,2,0,0
77171,78788078,4,5663,5728,14.6,3.07,27,2,0,0
77619,78893788,4,5728,5742,14.55,3.17,27,2,0,0
78073,79001828,4,5752,5885,14.57,3.15,27,2,0,0
78515,79113066,4,5881,5814,14.54,3.39,27,2,0,0
78966,79223333,4,5812,5785,14.52,3.03,27,2,0,0
79413,79333335,4,5781,5714,14.5,2.96,27,2,0,0
79829,79440905,4,5715,5785,14.55,3.21,27,3,0,0
80267,79544521,4,5780,5685,14.53,3.36,27,3,0,0
80725,79660321,4,5690,5742,14.54,3.17,27,3,0,0
81173,79768235,4,5740,5728,14.58,3.32,27,3,0,0
81575,79870517,4,5729,5800,14.55,3.24,27,3,0,0
82023,79976935,4,5800,5814,14.51,3.03,27,3,0,0
82511,80094106,4,5802,5685,14.56,2.71,27,3,0,0
82923,80197246,4,5683,5585,14.54,2.7,27,3,0,0
83366,80306105,4,5572,5400,14.54,2.65,27,3,0,0
83860,80423348,4,5392,5314,14.54,2.37,27,3,0,0
84262,80525137,4,5305,5200,14.5,2.24,27,3,0,0
84715,80633794,4,5208,5314,14.46,2.76,27,3,0,0
85160,80744901,4,5327,5514,14.54,2.76,27,4,0,0
86054,80963465,4,5511,5457,14.51,2.78,27,4,0,0
86452,81061530,4,5456,5414,14.61,2.85,27,4,0,0
87354,81288658,4,5410,5314,14.67,2.49,27,4,0,0
87808,81399222,4,5310,5271,14.65,2.8,27,4,0,0
88210,81498570,4,5273,5342,14.61,2.55,27,4,0,0
88660,81608486,4,5340,5328,14.61,2.79,27,4,0,0
89067,81710923,4,5328,5342,14.59,2.61,27,4,0,0
90412,82042991,4,5338,5200,14.66,2.3,27,5,0,0
90857,82152874,4,5196,5114,14.61,2.54,27,5,0,0
91304,82263722,4,5123,5271,14.54,2.72,27,5,0,0
91753,82372876,4,5269,5242,14.64,2.56,27,5,0,0
92161,82480337,4,5240,5157,14.62,2.33,27,5,0,0
92650,82596931,4,5166,5257,14.66,2.36,27,5,0,0
93052,82695668,4,5255,5157,14.56,2.54,27,5,0,0
93501,82802913,4,5157,5200,14.61,2.46,27,5,0,0
93945,82911322,4,5203,5271,14.6,2.45,27,5,0,0
94391,83017818,4,5268,5228,14.63,2.57,27,5,0,0
94844,83134218,4,5226,5214,14.59,2.66,27,5,0,0
95699,83350518,4,5208,5100,14.61,2.41,27,5,0,0
96147,83462406,4,5102,5128,14.57,2.52,27,6,0,0
96596,83576516,4,5137,5200,14.61,2.21,28,6,0,0
97455,83785023,4,5179,4542,14.59,1.57,27,6,0,0
97897,83896921,4,4514,4285,14.55,0.98,27,6,0,0
98345,84006544,4,4257,4014,14.55,1,27,6,0,0
98752,84106578,4,4002,3842,14.44,1.17,27,6,0,0
99198,84215378,4,3854,4014,14.45,1.6,27,6,0,0
99643,84326261,4,4072,4642,14.52,2.32,28,6,0,0
100086,84437840,4,4688,5000,14.48,3.16,28,6,0,0
100527,84537573,4,5025,5657,14.56,3.77,28,6,0,0
101015,84656146,4,5695,6042,14.52,4.33,27,6,0,0
101861,84871446,4,6074,6700,14.49,4.83,28,7,0,0
102267,84967326,4,6695,6485,14.49,4.42,28,7,0,0
103196,85192238,4,6480,5900,14.5,2.95,28,7,0,0
103644,85306801,4,5890,5814,14.48,3.14,28,7,0,0
104498,85518460,4,5791,5214,14.44,2.35,28,7,0,0
104986,85631377,4,5197,5014,14.48,1.95,28,7,0,0
105437,85741469,4,5021,5100,14.44,2.52,28,7,0,0
105884,85853858,4,5076,4885,14.42,2.08,28,7,0,0
106332,85961119,4,4895,4985,14.47,2.17,28,7,0,0
106769,86065510,4,4984,4971,14.44,2.65,28,7,0,0
107229,86177015,4,4966,4914,14.33,2.36,28,8,0,0
108108,86391135,4,4918,5028,14.51,2.59,28,8,0,0
108551,86501840,4,5044,5285,14.53,2.34,28,8,0,0
109002,86610359,4,5279,5200,14.44,2.48,28,8,0,0
109488,86723048,4,5211,5371,14.44,2.74,28,8,0,0
109899,86825345,4,5366,5271,14.51,2.43,28,8,0,0
110347,86940251,4,5274,5328,14.44,2.93,28,8,0,0
110834,87057673,4,5333,5400,14.47,2.53,28,8,0,0
111289,87167532,4,5395,5357,14.47,2.91,28,8,0,0
112134,87376256,4,5358,5414,14.47,2.84,28,8,0,0
112574,87485122,4,5403,5300,14.48,2.23,28,8,0,0
113023,87592117,4,5301,5342,14.54,2.46,28,9,0,0
113468,87703311,4,5337,5271,14.51,2.48,28,9,0,0
113919,87813500,4,5264,5171,14.49,2.59,28,9,0,0
114364,87924212,4,5173,5200,14.52,2.47,28,9,0,0
114815,88034832,4,5203,5242,14.6,2.49,28,9,0,0
115219,88136880,4,5238,5028,14.63,2.19,28,9,0,0
115663,88247077,4,5026,5000,14.59,2.32,28,9,0,0
116113,88355954,4,5001,5028,14.49,2.84,28,9,0,0
116561,88467811,4,5027,5014,14.58,2.22,28,9,0,0
117013,88580277,4,5007,4914,14.57,2.33,28,9,0,0
117418,88682470,4,4926,5200,14.51,2.63,28,9,0,0
117902,88794102,4,5204,5271,14.58,2.76,28,9,0,0
118304,88894891,4,5271,5300,14.59,2.76,28,9,0,0
118762,89009328,4,5296,5242,14.61,2.36,28,10,0,0
119210,89120949,4,5243,5257,14.54,2.38,28,10,0,0
119614,89221058,4,5262,5371,14.54,2.96,28,10,0,0
120056,89328502,4,5370,5357,14.51,2.51,28,10,0,0
120509,89439867,4,5357,5371,14.43,2.79,28,10,0,0
120957,89554046,4,5376,5442,14.5,2.53,28,10,0,0
121405,89663062,4,5421,5214,14.55,2.26,28,10,0,0
121807,89757884,4,5215,5271,14.61,2.3,28,10,0,0
122257,89871276,4,5259,5028,14.59,2.09,28,10,0,0
122706,89979317,4,5028,5042,14.57,2.4,28,10,0,0
123158,90092711,4,5042,5042,14.56,2.23,28,10,0,0
123611,90201916,4,5046,5085,14.52,2.19,28,10,0,0
124059,90312491,4,5083,5071,14.57,2.29,28,10,0,0
124506,90417525,4,5072,5114,14.55,2.78,28,11,0,0
124904,90520284,4,5114,5128,14.51,2.57,28,11,0,0
125401,90637477,4,5133,5214,14.5,2.52,28,11,0,0
125839,90743981,4,5218,5300,14.54,2.57,28,11,0,0
127348,91284364,4,5400,5414,14.47,2.88,28,11,0,0
127797,91393590,4,5419,5528,14.51,3.08,28,11,0,0
128283,91509891,4,5515,5385,14.52,2.56,28,11,0,0
129134,91719029,4,5384,5314,14.55,2.51,28,12,0,0
129625,91835383,4,5300,5157,14.47,2.13,28,12,0,0
130029,91938507,4,5162,5271,14.44,2.53,28,12,0,0
130481,92054908,4,5273,5314,14.44,2.52,28,12,0,0
130895,92160688,4,5315,5371,14.45,2.77,28,12,0,0
131372,92273913,4,5373,5400,14.46,2.79,28,12,0,0
131824,92385024,4,5385,5257,14.47,1.97,28,12,0,0
132228,92482893,4,5256,5242,14.47,2.22,28,12,0,0
132682,92595234,4,5236,5128,14.44,2.25,28,12,0,0
133580,92818021,4,5126,5100,14.48,2.01,28,12,0,0
133983,92921847,4,5089,4957,14.48,1.92,28,12,0,0
134432,93033326,4,4962,5014,14.41,2.51,28,12,0,0
134879,93139290,4,5012,5000,14.41,2.42,28,12,0,0
135324,93251342,4,5031,5285,14.39,2.56,28,12,0,0
135771,93361223,4,5281,5228,14.42,2.35,28,13,0,0
136216,93472028,4,5235,5342,14.44,2.4,28,13,0,0
136628,93572886,4,5341,5314,14.48,2.42,28,13,0,0
137115,93693504,4,5303,5214,14.46,2.23,28,13,0,0
137519,93788316,4,5213,5157,14.42,2.18,28,13,0,0
137965,93901330,4,5160,5371,14.35,2.7,28,13,0,0
138448,94014364,4,5364,5300,14.46,2.31,28,13,0,0
138855,94117708,4,5300,5300,14.41,2.28,28,13,0,0
139351,94236661,4,5315,5442,14.38,2.82,28,13,0,0
139747,94336478,4,5430,5157,14.47,1.72,28,13,0,0
140247,94460268,4,5143,5071,14.49,2.21,28,13,0,0
140644,94557504,4,5081,5300,14.55,2.12,28,13,0,0
141092,94671220,4,5297,5271,14.51,2.81,28,13,0,0
141541,94781004,4,5268,5228,14.54,2.09,28,14,0,0
142024,94897015,4,5208,5014,14.56,1.7,28,14,0,0
142472,95002964,4,4998,4842,14.55,2.05,28,14,0,0
142867,95099218,4,4849,5000,14.55,2.12,28,14,0,0
143319,95209948,4,4996,4928,14.48,2.08,28,14,0,0
143772,95323884,4,4938,5042,14.58,2.3,28,14,0,0
144223,95433215,4,5063,5271,14.47,2.27,28,14,0,0
144631,95536502,4,5272,5300,14.54,2.5,28,14,0,0
145121,95655956,4,5285,5185,14.54,2.26,28,14,0,0
146446,95971055,4,5189,5500,14.46,2.84,28,14,0,0
146898,96084800,4,5499,5485,14.51,2.72,28,14,0,0
147346,96194813,4,5492,5642,14.43,2.97,28,14,0,0
147750,96298702,4,5640,5614,14.45,2.95,28,15,0,0
148203,96410714,4,5616,5657,14.48,2.76,28,15,0,0
148571,96507325,4,5653,5428,14.52,2.74,28,15,0,0
149065,96627831,4,5450,5700,14.5,3.05,28,15,0,0
149469,96729816,4,5696,5614,14.44,2.98,28,15,0,0
149960,96851992,4,5612,5600,14.46,2.87,28,15,0,0
150365,96948527,4,5597,5414,14.45,2.78,28,15,0,0
150848,97062010,4,5416,5442,14.42,2.83,28,15,0,0
151256,97163464,4,5443,5514,14.44,2.85,28,15,0,0
151701,97273797,4,5517,5585,14.39,3.08,28,15,0,0
152148,97381384,4,5581,5514,14.44,2.66,28,15,0,0
152592,97492240,4,5518,5571,14.41,3.11,28,16,0,0
153043,97598906,4,5554,5385,14.47,2.86,28,16,0,0
153497,97711670,4,5405,5600,14.44,2.71,28,16,0,0
153897,97810294,4,5595,5414,14.43,2.76,28,16,0,0
154343,97919824,4,5412,5342,14.51,2.52,28,16,0,0
155242,98138088,4,5339,5100,14.51,2.27,28,16,0,0
155686,98248107,4,5098,4985,14.49,2.33,28,16,0,0
156136,98357149,4,4990,5142,14.48,2.54,28,16,0,0
156616,98472703,4,5136,5057,14.42,2.39,28,16,0,0
157070,98584019,4,5052,5000,14.52,2.17,28,16,0,0
157518,98693845,4,5000,5000,14.45,2.46,28,16,0,0
157927,98796081,4,5002,5042,14.54,2.14,28,16,0,0
158377,98909240,4,5034,4957,14.46,2.43,28,17,0,0
159271,99128052,4,4961,5071,14.5,2.4,28,17,0,0
159715,99233688,4,5068,5028,14.5,2.39,28,17,0,0
160157,99340500,4,5026,5000,14.5,2.21,28,17,0,0
161053,99561020,4,5001,5042,14.51,2.39,28,17,0,0
161467,99670792,4,5059,5300,14.45,2.74,28,17,0,0
161923,99782945,4,5301,5314,14.5,2.7,28,17,0,0
162366,99897374,4,5301,5185,14.48,2.23,28,17,0,0
162817,100010334,4,5198,5285,14.5,2.72,28,17,0,0
163667,100212257,4,5283,5100,14.5,2.6,28,17,0,0
164114,100323174,4,5104,5185,14.46,2.17,28,18,0,0
164604,100452043,4,5178,5142,14.42,2.72,28,18,0,0
165013,100553317,4,5135,5100,14.47,2.38,28,18,0,0
165460,100660342,4,5076,4885,14.42,1.99,28,18,0,0
165908,100765483,4,4909,5171,14.48,2.45,28,18,0,0
166349,100875402,4,5158,4985,14.42,2.18,28,18,0,0
166800,100983880,4,4985,4985,14.48,2.03,28,18,0,0
167206,101088085,4,4983,4957,14.43,2.85,28,18,0,0
167657,101201478,4,4969,5100,14.43,2.49,28,18,0,0
168102,101310175,4,5107,5285,14.42,2.58,28,18,0,0
168552,101419359,4,5282,5242,14.45,1.97,28,18,0,0
168963,101524938,4,5231,5042,14.34,2.18,28,18,0,0
169413,101633941,4,5065,5314,14.39,2.97,28,18,0,0
169819,101735375,4,5316,5442,14.37,3.39,28,18,0,0
170269,101844820,4,5443,5571,14.41,2.91,28,19,0,0
170720,101958889,4,5557,5414,14.44,2.44,28,19,0,0
171165,102070874,4,5404,5285,14.42,2.61,29,19,0,0
171610,102176540,4,5271,5157,14.38,2.34,28,19,0,0
172059,102286150,4,5154,5128,14.41,2.48,29,19,0,0
172502,102394911,4,5129,5142,14.42,2.35,28,19,0,0
173394,102612269,4,5140,5100,14.41,2.53,29,19,0,0
173808,102718536,4,5108,5300,14.48,2.42,29,19,0,0
174296,102832925,4,5292,5214,14.52,2.75,28,19,0,0
174696,102932831,4,5222,5428,14.51,2.2,28,19,0,0
175193,103049318,4,5405,5171,14.52,2.12,29,19,0,0
175634,103158877,4,5160,5014,14.45,2.4,29,19,0,0
176041,103263831,4,5018,5285,14.49,2.59,29,20,0,0
176967,103484951,4,5291,5471,14.45,2.71,29,20,0,0
177416,103592924,4,5452,5200,14.5,2.2,28,20,0,0
177821,103697052,4,5198,5157,14.45,2.37,29,20,0,0
178273,103811310,4,5165,5242,14.46,2.52,29,20,0,0
178713,103916031,4,5244,5300,14.44,2.86,29,20,0,0
179167,104025275,4,5296,5157,14.44,1.92,29,20,0,0
179619,104139619,4,5157,5157,14.36,2.67,29,20,0,0
180067,104253214,4,5166,5242,14.44,2.49,29,20,0,0
180516,104361508,4,5249,5328,14.44,2.63,29,20,0,0
180960,104468546,4,5335,5414,14.34,2.79,28,20,0,0
181411,104578851,4,5419,5471,14.45,2.45,29,20,0,0
181853,104686525,4,5472,5500,14.5,2.85,28,21,0,0
182266,104792074,4,5505,5642,14.46,2.53,29,21,0,0
182708,104899068,4,5635,5485,14.56,2.46,29,21,0,0
183160,105008441,4,5466,5185,14.44,2.26,29,21,0,0
183604,105118300,4,5189,5271,14.52,2.25,29,21,0,0
184051,105224820,4,5266,5185,14.48,2.21,29,21,0,0
184463,105332997,4,5188,5257,14.44,2.77,29,21,0,0
184912,105441934,4,5261,5371,14.5,2.19,29,21,0,0
185358,105554227,4,5368,5328,14.41,2.53,29,21,0,0
185768,105659045,4,5333,5457,14.38,2.5,29,21,0,0
186215,105766014,4,5417,5042,14.36,1.9,29,21,0,0
186653,105872278,4,5062,5471,14.37,2.92,29,21,0,0
187105,105980348,4,5487,5657,14.39,2.92,29,22,0,0
188195,106311131,4,5572,5442,14.47,2.48,29,22,0,0
188596,106410347,4,5443,5485,14.54,2.63,29,22,0,0
189050,106522054,4,5458,5171,14.54,2.7,29,22,0,0
189496,106627871,4,5175,5242,14.44,2.43,29,22,0,0
189938,106737303,4,5252,5400,14.36,3.08,29,22,0,0
190382,106847922,4,5401,5514,14.38,3.25,29,22,0,0
190832,106954291,4,5517,5642,14.38,3.02,29,22,0,0
191280,107066325,4,5642,5642,14.41,3.06,29,22,0,0
192137,107279060,4,5641,5528,14.35,2.96,29,23,0,0
192626,107395113,4,5523,5471,14.37,3.14,29,23,0,0
193034,107499049,4,5478,5628,14.35,3.16,29,23,0,0
193446,107603704,4,5629,5671,14.31,3.4,29,23,0,0
193892,107712748,4,5676,5728,14.3,3.51,29,23,0,0
194341,107821013,4,5750,5985,14.28,4.14,29,23,0,0
194788,107930887,4,5966,5785,14.29,3.2,29,23,0,0
195671,108144468,4,5785,5800,14.25,3.26,29,23,0,0
196077,108249909,4,5798,5728,14.23,3.27,29,23,0,0
196566,108364222,4,5738,5885,14.2,3.3,29,23,0,0
196976,108467250,4,5883,5771,14.18,3.01,29,24,0,0
197425,108576848,4,5771,5814,14.19,3.48,29,24,0,0
197912,108695094,4,5825,5942,14.13,4.17,29,24,0,0
198763,108905470,4,5938,5771,14.33,2.49,29,24,0,0
199253,109020327,4,5741,5442,14.39,2.21,29,24,0,0
199660,109122694,4,5425,5000,14.45,2.22,29,24,0,0
200146,109245115,4,4986,4857,14.4,2.03,29,24,0,0
200550,109338686,4,4858,4914,14.35,2.42,29,24,0,0
201448,109558938,4,4918,5014,14.32,3.05,29,24,0,0
201890,109666242,4,5044,5457,14.23,3.23,29,25,0,0
202338,109774284,4,5462,5800,14.17,4.06,29,25,0,0
202783,109885929,4,5804,5914,14.35,3.56,29,25,0,0
203233,109992816,4,5898,5600,14.3,3.14,29,25,0,0
203681,110104095,4,5607,6114,14.2,4.15,29,25,0,0
204170,110225028,4,6121,6171,14.18,4.36,29,25,0,0
204578,110326098,4,6167,5957,14.29,3.1,29,25,0,0
205026,110434276,4,5956,5914,14.23,3.78,29,25,0,0
205476,110547133,4,5914,5914,14.25,3.39,29,25,0,0
205926,110657939,4,5915,5928,14.22,3.29,29,26,0,0
206411,110774011,4,5917,5800,14.28,3.44,29,26,0,0
206815,110874074,4,5791,5714,14.27,3.09,29,26,0,0
207265,110982257,4,5705,5528,14.34,2.66,29,26,0,0
208124,111197795,4,5512,5228,14.37,2.37,29,26,0,0
208566,111305270,4,5228,5242,14.33,2.67,29,26,0,0
209017,111413037,4,5238,5185,14.36,2.43,29,26,0,0
209425,111513270,4,5186,5271,14.38,2.91,29,26,0,0
209866,111622041,4,5269,5142,14.51,2.62,29,26,0,0
210308,111731234,4,5147,5257,14.45,2.76,29,26,0,0
210758,111840518,4,5258,5357,14.45,2.87,29,26,0,0
211202,111949577,4,5359,5414,14.54,2.33,29,27,0,0
211646,112059551,4,5404,5285,14.52,2.4,29,27,0,0
212095,112169949,4,5297,5457,14.49,2.46,29,27,0,0
212536,112277933,4,5445,5228,14.51,2.27,29,27,0,0
212989,112389854,4,5219,5114,14.48,2.19,29,27,0,0
213392,112492251,4,5118,5214,14.42,2.62,29,27,0,0
213844,112604059,4,5222,5414,14.46,2.86,29,27,0,0
214286,112711701,4,5413,5385,14.44,2.99,29,27,0,0
214734,112820532,4,5391,5542,14.48,2.53,29,27,0,0
215180,112931360,4,5536,5400,14.47,2.46,29,27,0,0
215625,113036797,4,5397,5285,14.43,2.28,29,27,0,0
216104,113148231,4,5292,5400,14.39,2.55,29,27,0,0
216511,113253919,4,5399,5371,14.38,2.86,29,27,0,0
216998,113368891,4,5371,5371,14.39,2.49,29,28,0,0
217451,113480660,4,5377,5442,14.38,2.63,29,28,0,0
217903,113590491,4,5427,5285,14.35,2.65,29,28,0,0
218333,113691808,4,5284,5271,14.42,2.33,29,28,0,0
218784,113802887,4,5259,5100,14.33,2.21,29,28,0,0
219190,113905901,4,5100,5128,14.38,2.33,29,28,0,0
219635,114011512,4,5128,5171,14.39,2.62,29,28,0,0
220123,114130801,4,5183,5314,14.29,2.87,29,28,0,0
220571,114238220,4,5310,5271,14.35,2.64,29,28,0,0
221009,114341491,4,5274,5342,14.35,2.82,29,28,0,0
221459,114454370,4,5338,5257,14.35,2.32,29,28,0,0
221910,114565534,4,5251,5200,14.36,2.51,29,28,0,0
222313,114669922,4,5199,5185,14.3,2.49,29,28,0,0
222761,114776062,4,5184,5171,14.35,2.43,29,29,0,0
223206,114887302,4,5169,5085,14.27,2.49,29,29,0,0
223652,114993788,4,5087,5228,14.36,2.61,29,29,0,0
224098,115106575,4,5222,5171,14.33,2.21,29,29,0,0
224546,115216547,4,5157,5028,14.38,2.08,29,29,0,0
224989,115323919,4,5011,4771,14.36,1.84,29,29,0,0
225445,115437243,4,4765,4714,14.37,1.66,29,29,0,0
225886,115547022,4,4707,4642,14.4,1.71,29,29,0,0
226332,115658889,4,4631,4528,14.4,1.6,29,29,0,0
226775,115763925,4,4534,4628,14.41,1.86,29,29,0,0
227220,115874315,4,4622,4571,14.41,1.93,29,29,0,0
227626,115974949,4,4581,4771,14.34,2.22,29,29,0,0
228069,116084538,4,4774,4842,14.36,2.37,29,29,0,0
228521,116195716,4,4844,4957,14.43,1.87,29,29,0,0
228962,116303139,4,4957,4971,14.4,2.12,29,29,0,0
229415,116413547,4,4962,4842,14.39,1.65,29,29,0,0
229860,116526072,4,4831,4728,14.35,1.9,29,29,0,0
230307,116637795,4,4734,4785,14.45,1.58,29,29,0,0
230751,116746038,4,4768,4600,14.41,1.68,29,30,0,0
231200,116855070,4,4609,4742,14.36,2.03,29,30,0,0
231646,116967514,4,4758,4914,14.37,2.03,29,30,0,0
232049,117068222,4,4919,5142,14.38,2.42,29,30,0,0
232500,117181522,4,5144,5200,14.32,2.6,29,30,0,0
232945,117289240,4,5212,5385,14.35,2.53,29,30,0,0
233424,117404014,4,5373,5257,14.36,2.45,29,30,0,0
233866,117512491,4,5258,5271,14.26,2.49,29,30,0,0
234316,117624231,4,5272,5285,14.27,2.7,29,30,0,0
234726,117727120,4,5283,5257,14.36,2.37,29,30,0,0
235132,117830249,4,5254,5128,14.44,2.44,29,30,0,0
235608,117941901,4,5129,5185,14.36,2.5,29,30,0,0
236506,118163454,4,5177,4957,14.37,1.72,29,31,0,0
236957,118279331,4,4961,5000,14.38,2.65,29,31,0,0
237766,118482037,4,5003,5300,14.35,2.49,29,31,0,0
238215,118591305,4,5300,5328,14.4,2.68,29,31,0,0
238667,118709351,4,5326,5314,14.35,2.67,29,31,0,0
239118,118816919,4,5320,5485,14.41,3.41,29,31,0,0
239522,118920515,4,5492,5628,14.36,2.89,29,31,0,0
240823,119243853,4,5627,5585,14.37,2.85,29,31,0,0
241270,119352347,4,5585,5585,14.39,2.82,29,31,0,0
241717,119468294,4,5578,5514,14.33,2.8,29,32,0,0
242161,119574901,4,5507,5414,14.38,2.63,29,32,0,0
242606,119685660,4,5395,5200,14.35,2.36,29,32,0,0
243057,119795275,4,5199,5185,14.36,2.43,29,32,0,0
243461,119897868,4,5191,5314,14.32,2.32,29,32,0,0
243911,120010010,4,5315,5328,14.35,2.52,29,32,0,0
244354,120118295,4,5326,5257,14.39,2.21,29,32,0,0
244802,120226249,4,5244,5071,14.34,2.22,29,32,0,0
245211,120331293,4,5073,5214,14.43,2.29,29,32,0,0
246100,120551416,4,5211,5128,14.32,2.48,29,32,0,0
246548,120660010,4,5136,5300,14.33,2.87,29,32,0,0
247884,120992321,4,5302,5385,14.29,2.72,29,33,0,0
248282,121091452,4,5384,5371,14.34,2.72,29,33,0,0
248773,121207865,4,5371,5371,14.33,2.58,29,33,0,0
249228,121318508,4,5355,5200,14.3,2.73,29,33,0,0
249673,121424244,4,5210,5414,14.35,2.75,29,33,0,0
250076,121526505,4,5408,5200,14.42,2.4,29,33,0,0
250573,121651476,4,5201,5214,14.33,2.53,29,33,0,0
250976,121750652,4,5205,5085,14.28,2.37,29,33,0,0
251424,121863390,4,5079,5000,14.36,2.32,29,33,0,0
251869,121971321,4,4997,4971,14.42,2.09,29,33,0,0
252274,122074358,4,4970,4914,14.39,2.1,29,33,0,0
252719,122182810,4,4915,4971,14.4,2.35,29,33,0,0
253206,122297292,4,4982,5214,14.4,2.65,29,33,0,0
253657,122410269,4,5204,5100,14.35,2.84,29,34,0,0
254092,122514279,4,5106,5385,14.39,2.62,29,34,0,0
254588,122633229,4,5383,5371,14.4,2.93,29,34,0,0
254988,122734467,4,5374,5442,14.42,2.88,29,34,0,0
255446,122850246,4,5456,5628,14.39,3.12,29,34,0,0
255893,122960822,4,5588,5214,14.37,2.38,29,34,0,0
256288,123060825,4,5217,5357,14.32,2.76,29,34,0,0
256745,123175471,4,5362,5414,14.32,3.01,29,34,0,0
257139,123273882,4,5415,5442,14.3,2.99,29,34,0,0
257596,123385861,4,5440,5428,14.38,2.68,29,34,0,0
258009,123495303,4,5424,5385,14.37,2.6,29,34,0,0
258454,123600014,4,5378,5228,14.42,2.32,29,34,0,0
258898,123708247,4,5220,5114,14.44,1.97,29,35,0,0
259388,123822447,4,5094,4885,14.38,2.19,29,35,0,0
259833,123932685,4,4875,4771,14.38,2.11,29,35,0,0
260287,124049087,4,4767,4742,14.48,1.75,29,35,0,0
260683,124147004,4,4737,4471,14.52,1.41,29,35,0,0
261133,124259527,4,4474,4514,14.52,1.6,29,35,0,0
261578,124365898,4,4512,4485,14.52,1.89,29,35,0,0
261986,124472944,4,4486,4585,14.53,1.89,29,35,0,0
262476,124588041,4,4577,4500,14.47,1.75,29,35,0,0
262844,124687228,4,4502,4657,14.44,2.18,29,35,0,0
263326,124798103,4,4670,4928,14.41,2.67,29,35,0,0
263780,124915246,4,4942,5100,14.49,2.7,29,35,0,0
264228,125022505,4,5110,5228,14.41,2.5,29,35,0,0
264628,125122508,4,5232,5485,14.45,2.83,29,35,0,0
265119,125237377,4,5483,5471,14.45,2.95,29,35,0,0
265525,125340096,4,5481,5742,14.43,3.3,29,35,0,0
265971,125445954,4,5737,5457,14.36,2.98,29,36,0,0
266456,125563309,4,5459,5485,14.47,2.52,29,36,0,0
266860,125667094,4,5485,5500,14.31,3.06,29,36,0,0
267797,125893953,4,5511,5771,14.35,3.57,29,36,0,0
268205,125996869,4,5779,5885,14.39,3.15,29,36,0,0
268652,126108243,4,5885,5885,14.38,3.33,29,36,0,0
269099,126218438,4,5869,5714,14.39,3.4,29,36,0,0
269910,126422436,4,5713,5585,14.38,2.98,29,36,0,0
270354,126534488,4,5576,5414,14.37,2.95,29,37,0,0
270802,126646109,4,5413,5400,14.42,2.63,29,37,0,0
271248,126752703,4,5391,5228,14.42,2.35,29,37,0,0
271696,126862094,4,5217,5071,14.4,2.32,29,37,0,0
272582,127083079,4,5077,5214,14.4,2.61,29,37,0,0
273036,127191346,4,5220,5300,14.38,2.8,29,37,0,0
273483,127308941,4,5316,5428,14.43,2.65,29,37,0,0
274371,127524288,4,5425,5385,14.39,3.07,29,37,0,0
274778,127622874,4,5396,5514,14.41,2.88,29,37,0,0
275192,127733824,4,5496,5342,14.39,2.79,29,37,0,0
275638,127839352,4,5344,5557,14.41,2.87,29,38,0,0
276117,127952128,4,5555,5542,14.45,2.77,29,38,0,0
276564,128065368,4,5532,5414,14.42,2.66,29,38,0,0
277014,128171900,4,5419,5471,14.39,2.63,29,38,0,0
277862,128375843,4,5470,5342,14.36,2.72,29,38,0,0
278791,128604041,4,5340,5314,14.42,2.5,29,38,0,0
279154,128695860,4,5313,5271,14.39,2.54,29,38,0,0
279646,128813219,4,5267,5228,14.41,2.42,29,38,0,0
280503,129028239,4,5226,5200,14.41,2.47,29,38,0,0
280942,129135450,4,5200,5214,14.36,2.71,29,39,0,0
281798,129347049,4,5215,5271,14.39,2.72,29,39,0,0
282244,129459554,4,5263,5157,14.42,2.59,29,39,0,0
282692,129567066,4,5157,5157,14.42,2.61,29,39,0,0
283135,129681362,4,5164,5285,14.39,2.57,29,39,0,0
283589,129791249,4,5282,5257,14.36,2.7,29,39,0,0
284484,130014064,4,5260,5371,14.4,2.75,29,39,0,0
284885,130115257,4,5368,5242,14.41,2.52,29,39,0,0
285378,130233700,4,5252,5357,14.41,2.71,29,39,0,0
285817,130337039,4,5359,5414,14.36,2.6,29,39,0,0
286226,130440797,4,5412,5385,14.42,2.66,29,39,0,0
286670,130551065,4,5382,5314,14.31,2.56,29,40,0,0
287192,130671223,4,5308,5228,14.44,2.61,29,40,0,0
287602,130772311,4,5232,5285,14.39,2.54,29,40,0,0
288003,130872320,4,5284,5257,14.41,2.6,29,40,0,0
288455,130983793,4,5255,5228,14.38,2.75,29,40,0,0
288899,131094258,4,5233,5371,14.32,2.91,29,40,0,0
289790,131311085,4,5383,5728,14.2,3.42,29,40,0,0
290239,131419254,4,5730,5771,14.36,3.16,29,40,0,0
290681,131530788,4,5758,5628,14.32,2.67,29,40,0,0
291169,131642533,4,5590,5314,14.28,2.59,29,40,0,0
291616,131753826,4,5312,5300,14.3,2.32,29,40,0,0
292062,131865383,4,5312,5442,14.41,3.04,29,41,0,0
292467,131964536,4,5435,5314,14.36,2.45,29,41,0,0
292910,132073867,4,5308,5242,14.36,2.41,29,41,0,0
293361,132181299,4,5235,5142,14.38,2.54,29,41,0,0
293764,132283672,4,5141,5114,14.4,2.43,29,41,0,0
294254,132399318,4,5118,5171,14.38,2.76,29,41,0,0
294698,132511266,4,5169,5157,14.41,2.4,29,41,0,0
295180,132622829,4,5164,5242,14.42,2.46,29,41,0,0
295585,132725877,4,5242,5242,14.42,2.59,29,41,0,0
296075,132846004,4,5248,5314,14.38,2.7,29,41,0,0
296926,133057138,4,5319,5428,14.38,2.7,29,41,0,0
297371,133164231,4,5424,5385,14.33,2.69,29,41,0,0
297740,133263029,4,5385,5428,14.36,2.85,29,42,0,0
298226,133376477,4,5415,5242,14.4,2.46,29,42,0,0
298632,133482087,4,5246,5514,14.35,2.89,29,42,0,0
299123,133600522,4,5506,5428,14.39,2.7,29,42,0,0
299523,133700894,4,5429,5514,14.38,2.89,29,42,0,0
300012,133819375,4,5514,5514,14.4,3,29,42,0,0
300412,133921101,4,5512,5485,14.46,2.65,29,42,0,0
300893,134030518,4,5487,5571,14.39,2.63,30,42,0,0
301342,134141684,4,5568,5514,14.38,2.99,29,42,0,0
301794,134258368,4,5499,5400,14.4,2.81,29,42,0,0
302195,134355813,4,5400,5414,14.34,2.94,29,42,0,0
302642,134473012,4,5419,5471,14.42,2.78,30,42,0,0
303128,134587018,4,5462,5357,14.36,2.62,29,43,0,0
303568,134699289,4,5367,5428,14.34,3,29,43,0,0
303976,134792256,4,5425,5328,14.41,2.46,29,43,0,0
304418,134903748,4,5329,5342,14.41,2.47,29,43,0,0
304869,135015971,4,5346,5385,14.38,2.4,29,43,0,0
305275,135118833,4,5377,5285,14.4,2.44,29,43,0,0
305724,135232864,4,5268,5142,14.43,2.14,29,43,0,0
306578,135444905,4,5140,5042,14.34,2.56,30,43,0,0
307027,135556821,4,5045,5085,14.43,2.15,30,43,0,0
307481,135673015,4,5076,5000,14.42,2.29,29,43,0,0
307930,135778356,4,4996,4971,14.39,2.34,30,43,0,0
308375,135884462,4,4974,5028,14.43,2.2,29,43,0,0
308820,135992281,4,5025,4971,14.42,2.06,29,43,0,0
309267,136108868,4,4964,4900,14.46,2.1,29,44,0,0
309678,136205482,4,4890,4671,14.47,1.67,29,44,0,0
310162,136325835,4,4664,4600,14.48,2.09,29,44,0,0
310609,136430060,4,4601,4628,14.51,2.1,29,44,0,0
311014,136535476,4,4633,4742,14.39,1.99,30,44,0,0
311503,136655874,4,4734,4657,14.41,1.86,29,44,0,0
311907,136754527,4,4656,4642,14.44,1.75,30,44,0,0
312352,136865477,4,4640,4585,14.48,1.91,30,44,0,0
312802,136973462,4,4496,3628,14.97,0.43,29,44,0,0
313242,137080515,4,3643,3871,14.83,0.79,29,44,0,0
313651,137181851,4,3852,2571,14.85,0.07000000000000001,30,44,0,0
314141,137300591,4,2543,2257,14.84,0.36,29,44,0,0
314546,137399554,4,2259,2314,14.86,0.29,30,44,0,0
314994,137512296,4,2302,2142,14.83,0.21,29,44,0,0
315439,137617724,4,2148,2271,14.87,0.35,29,44,0,0
315888,137731410,4,2267,2228,14.85,0.22,29,44,0,0
316734,137938862,4,2227,2214,14.86,0.24,29,44,0,0
317184,138049503,4,2211,2171,14.88,0.29,29,44,0,0
318519,138378648,4,2171,2200,14.88,0.27,29,44,0,0
318923,138480371,4,2198,2128,14.88,0.22,29,44,0,0
319412,138594116,4,2124,2071,14.88,0.21,29,44,0,0
319896,138709493,4,2067,2028,14.88,0.2,29,44,0,0
320343,138814903,4,2026,2000,14.88,0.2,29,44,0,0
320784,138919282,4,1997,1971,14.98,0.11,29,44,0,0
321239,139030020,4,1938,1571,14.95,0.01,29,44,0,0
321719,139140073,4,1548,1314,14.94,0.04,29,44,0,0
322172,139253718,4,1305,1242,14.94,0.09,29,44,0,0
322613,139356369,4,1242,1242,14.93,0.09,29,44,0,0
323061,139464263,4,1240,1228,14.93,0.09,29,44,0,0
323510,139570809,4,1228,1228,14.94,0.09,29,44,0,0
323994,139684244,4,1228,1228,14.94,0.09,29,44,0,0
324446,139792926,4,1228,1228,14.94,0.09,29,44,0,0
324852,139894300,4,1228,1228,14.94,0.09,29,44,0,0
325298,139999103,4,1228,1228,14.94,0.09,29,44,0,0
325747,140110296,4,1228,1228,14.94,0.09,29,44,0,0
326235,140231845,4,1228,1228,14.94,0.09,29,44,0,0
326674,140331794,4,1228,1228,14.94,0.09,29,44,0,0
327165,140450817,4,1228,1228,14.95,0.09,29,44,0,0
327570,140546546,4,1228,1228,14.94,0.09,29,44,0,0
328025,140659920,4,1228,1228,14.95,0.09,29,44,0,0
328422,140755391,4,1228,1228,14.95,0.09,29,44,0,0
328870,140870131,4,1228,1228,14.95,0.09999999,29,44,0,0
329325,140982320,4,1228,1228,14.97,0.09,29,44,0,0
329766,141088922,4,1228,1228,14.95,0.09,29,44,0,0
330219,141198144,4,1228,1228,14.96,0.09,29,44,0,0
330663,141306310,4,1228,1228,14.95,0.09,29,44,0,0
331112,141413523,4,1228,1228,14.96,0.09,29,44,0,0
332007,141623909,4,1228,1228,14.96,0.09,29,44,0,0
332448,141732283,4,1228,1228,14.96,0.09,29,44,0,0
332865,141836084,4,1228,1228,14.97,0.09999999,29,44,0,0
333348,141952266,4,1228,1228,14.97,0.09999999,29,44,0,0
333795,142063785,4,1228,1228,14.97,0.09,29,44,0,0
334245,142170051,4,1228,1228,14.98,0.09,29,44,0,0
334488,142277303,4,1228,1228,14.97,0.09999999,29,44,0,0
335220,142484332,4,1228,1228,14.97,0.09,29,44,0,0
335670,142589077,4,1228,1228,14.97,0.09,29,44,0,0
336117,142699319,4,1228,1228,14.98,0.09,29,44,0,0
336572,142807724,4,1228,1228,14.98,0.09,29,44,0,0
337013,142915351,4,1228,1228,14.98,0.09,29,44,0,0
337462,143022092,4,1228,1228,14.98,0.09,29,44,0,0
337908,143133107,4,1228,1228,14.98,0.09,29,44,0,0
338361,143250249,4,1228,1228,14.98,0.09,29,44,0,0
338806,143353692,4,1228,1228,14.98,0.09999999,29,44,0,0
339247,143460571,4,1228,1228,14.99,0.09,29,44,0,0
339739,143574958,4,1228,1228,14.99,0.09999999,29,44,0,0
340187,143683303,4,1228,1228,14.98,0.09,29,44,0,0
340636,143790690,4,1228,1228,14.98,0.09,29,44,0,0
341087,143898495,4,1228,1228,14.99,0.09999999,29,44,0,0
341538,144008502,4,1228,1228,14.99,0.09999999,29,44,0,0
341988,144116707,4,1229,1242,15,0.09999999,29,44,0,0
342845,144329683,4,1241,1228,15,0.09999999,29,44,0,0
343291,144433980,4,1228,1228,14.99,0.09,29,44,0,0
343731,144547341,4,1228,1228,14.99,0.09999999,29,44,0,0
344188,144656288,4,1228,1228,14.99,0.09,29,44,0,0
344632,144766645,4,1228,1228,15,0.09999999,29,44,0,0
345075,144871954,4,1228,1228,15,0.09999999,29,44,0,0
345523,144980973,4,1228,1228,15,0.09999999,29,44,0,0
345968,145084136,4,1228,1228,15,0.09,29,44,0,0
346413,145193065,4,1228,1228,15,0.09999999,29,44,0,0
346895,145306095,4,1228,1228,15,0.09,29,44,0,0
347345,145412666,4,1228,1228,15,0.09,29,44,0,0
348199,145620726,4,1228,1242,15.01,0.09,29,44,0,0
348652,145732251,4,1241,1228,15.01,0.09,29,44,0,0
349103,145841030,4,1228,1242,15,0.09,29,44,0,0
349595,145958344,4,1242,1242,15.01,0.09,29,44,0,0
350048,146069861,4,1242,1242,15.01,0.09,29,44,0,0
350493,146173504,4,1241,1228,15,0.09,29,44,0,0
350895,146273703,4,1228,1228,15.01,0.09,29,44,0,0
351384,146387469,4,1228,1228,15.01,0.09999999,29,44,0,0
351826,146493122,4,1228,1228,15.01,0.09,29,44,0,0
352321,146606486,4,1228,1228,15.01,0.09999999,29,44,0,0
352724,146708032,4,1228,1228,15.01,0.09999999,29,44,0,0
353176,146816794,4,1228,1228,15.01,0.09999999,29,44,0,0
353621,146924863,4,1228,1228,15.01,0.09999999,29,44,0,0
354071,147033449,4,1228,1228,15.02,0.09999999,29,44,0,0
354516,147142239,4,1228,1228,15.01,0.09999999,29,44,0,0
354961,147248573,4,1228,1228,15.02,0.09999999,29,44,0,0
355450,147363067,4,1228,1228,15.01,0.09999999,29,44,0,0
355895,147471226,4,1228,1228,15.02,0.09999999,29,44,0,0
356339,147574067,4,1228,1228,15.02,0.09999999,29,44,0,0
356779,147680280,4,1228,1228,15.02,0.09999999,29,44,0,0
357234,147791829,4,1228,1242,15.02,0.09,29,44,0,0
357686,147907916,4,1240,1228,15.02,0.09,29,44,0,0
358134,148019063,4,1228,1228,15.02,0.09999999,29,44,0,0
358544,148121233,4,1228,1228,15.01,0.09,29,44,0,0
359470,148342042,4,1228,1228,15.02,0.09999999,29,44,0,0
359874,148440092,4,1228,1242,15.02,0.09,29,44,0,0
360321,148545525,4,1242,1242,15.03,0.09999999,29,44,0,0
360803,148662821,4,1240,1228,15.02,0.09999999,29,44,0,0
361250,148770026,4,1228,1228,15.02,0.09,29,44,0,0
361698,148878097,4,1228,1228,15.03,0.09,29,44,0,0
362173,148993844,4,1176,614,15.04,0.01,28,44,0,0
362547,149091939,4,608,257,15.04,0.02,29,44,0,0
362998,149204101,4,234,0,15.04,0.03,28,44,0,0
363442,149315499,4,0,0,15.04,0.03,28,44,0,0
363853,149417719,4,0,0,15.04,0.03,28,44,0,0
364267,149526350,4,0,0,15.04,0.03,28,44,0,0
364680,149630800,4,0,0,15.05,0.03,28,44,0,0
365131,149743872,4,0,0,15.05,0.03,28,44,0,0
365545,149845855,4,0,0,15.05,0.03,28,44,0,0
365991,149957094,4,0,0,15.04,0.02,28,44,0,0
366826,150176720,4,0,0,15.05,0.03,28,44,0,0
367235,150281811,4,0,0,15.05,0.03,28,44,0,0
367688,150393310,4,0,0,15.05,0.03,28,44,0,0
368099,150500507,4,0,0,15.05,0.03,28,44,0,0
368515,150605900,4,0,0,15.05,0.03,28,44,0,0
368930,150716506,4,0,0,15.05,0.03,28,44,0,0
369349,150822818,4,0,0,15.05,0.03,28,44,0,0
369761,150927278,4,0,0,15.05,0.03,28,44,0,0
370178,151031837,4,0,0,15.05,0.03,28,44,0,0
370625,151145456,4,0,0,15.05,0.03,28,44,0,0
371035,151249630,4,0,0,15.05,0.03,28,44,0,0
371448,151353959,4,0,0,15.05,0.03,28,44,0,0
371895,151467692,4,0,0,15.05,0.03,28,44,0,0
372312,151571921,4,0,0,15.06,0.03,28,44,0,0
372725,151680963,4,0,0,15.06,0.03,28,44,0,0
373135,151784303,4,0,0,15.06,0.02,28,44,0,0
373587,151899336,4,0,0,15.05,0.03,28,44,0,0
374004,152003346,4,0,0,15.05,0.03,28,44,0,0
374419,152112947,4,0,0,15.05,0.03,28,44,0,0
374871,152226838,4,0,0,15.06,0.03,28,44,0,0
375280,152334488,4,0,0,15.06,0.03,28,44,0,0
375691,152436242,4,0,0,15.06,0.03,28,44,0,0
376511,152651856,4,0,0,15.06,0.03,28,44,0,0
376922,152754357,4,0,0,15.07,0.03,28,44,0,0
377342,152870901,4,0,0,15.06,0.03,28,44,0,0
377755,152972987,4,0,0,15.07,0.03,28,44,0,0
378204,153083899,4,0,0,15.06,0.03,28,44,0,0
378655,153196446,4,0,0,15.07,0.03,28,44,0,0
379028,153296229,4,0,0,15.06,0.03,28,44,0,0
379478,153407377,4,0,0,15.07,0.03,28,44,0,0
379894,153516719,4,0,0,15.07,0.03,28,44,0,0
380305,153619915,4,0,0,15.07,0.03,28,45,0,0
380753,153735229,4,0,0,15.07,0.03,28,45,0,0
381165,153842349,4,0,0,15.07,0.03,28,45,0,0
381576,153946277,4,0,0,15.07,0.03,28,45,0,0
381987,154051552,4,0,0,15.07,0.03,28,45,0,0
382402,154156261,4,0,0,15.07,0.03,28,45,0,0
382852,154273473,4,0,0,15.07,0.03,28,45,0,0
383263,154376219,4,0,0,15.07,0.03,28,45,0,0
383677,154482468,4,0,0,15.07,0.03,28,45,0,0
384132,154594822,4,0,0,15.07,0.03,28,45,0,0
384548,154705676,4,0,0,15.07,0.03,28,45,0,0
385000,154817286,4,0,0,15.07,0.03,28,45,0,0
385373,154914542,4,0,0,15.07,0.03,28,45,0,0
385826,155027441,4,0,0,15.07,0.03,28,45,0,0
386273,155138373,4,0,0,15.07,0.03,28,45,0,0
387093,155347065,4,0,0,15.07,0.03,28,45,0,0
387499,155451655,4,0,0,15.07,0.03,28,45,0,0
388405,155680089,4,0,0,15.08,0.03,28,45,0,0
388818,155783855,4,0,0,15.08,0.03,28,45,0,0
389227,155890827,4,0,0,15.07,0.03,28,45,0,0
389640,155992684,4,0,0,15.08,0.03,28,45,0,0
390090,156105411,4,0,0,15.08,0.03,28,45,0,0
390500,156208468,4,0,0,15.08,0.03,28,45,0,0
390913,156315268,4,0,0,15.07,0.03,28,45,0,0
