LineNo,TimeUS,Instance,RPM,RawRPM,Volt,Curr,Temp,CTot,MotTemp,Err
2013,6.0207e+07,4,0,0,15.23,0.04,26,0,0,0
2435,6.0316e+07,4,0,0,15.23,0.04,26,0,0,0
2849,6.0419e+07,4,0,0,15.24,0.03,26,0,0,0
3302,6.0531e+07,4,0,0,15.23,0.03,26,0,0,0
3714,6.0634e+07,4,0,0,15.23,0.04,26,0,0,0
4165,6.0745e+07,4,0,0,15.24,0.04,26,0,0,0
4582,6.0851e+07,4,0,0,15.24,0.04,26,0,0,0
4993,6.0956e+07,4,0,0,15.24,0.04,26,0,0,0
5442,6.1071e+07,4,0,0,15.23,0.04,26,0,0,0
6265,6.128e+07,4,0,0,15.23,0.04,26,0,0,0
6674,6.1384e+07,4,0,0,15.24,0.04,26,0,0,0
7135,6.1502e+07,4,0,0,15.24,0.04,26,0,0,0
7548,6.1607e+07,4,0,0,15.24,0.04,26,0,0,0
7964,6.1715e+07,4,0,0,15.23,0.04,26,0,0,0
8380,6.1818e+07,4,0,0,15.24,0.04,26,0,0,0
8796,6.1921e+07,4,0,0,15.23,0.04,26,0,0,0
9255,6.2039e+07,4,0,0,15.23,0.04,26,0,0,0
9667,6.2144e+07,4,0,0,15.24,0.04,26,0,0,0
10081,6.2247e+07,4,0,0,15.24,0.03,26,0,0,0
10531,6.236e+07,4,0,0,15.24,0.03,26,0,0,0
10879,6.2467e+07,4,0,0,15.23,0.03,26,0,0,0
11324,6.2579e+07,4,0,0,15.24,0.03,26,0,0,0
11742,6.2686e+07,4,0,0,15.25,0.03,26,0,0,0
12153,6.2789e+07,4,0,0,15.23,0.03,26,0,0,0
12608,6.2902e+07,4,0,0,15.24,0.03,26,0,0,0
13019,6.3005e+07,4,0,0,15.24,0.03,26,0,0,0
13467,6.3117e+07,4,0,0,15.23,0.03,26,0,0,0
13872,6.3219e+07,4,0,0,15.23,0.03,26,0,0,0
14293,6.3325e+07,4,0,0,15.23,0.03,26,0,0,0
15156,6.3541e+07,4,0,0,15.23,0.04,26,0,0,0
15569,6.3647e+07,4,0,0,15.24,0.03,26,0,0,0
16025,6.3761e+07,4,0,0,15.24,0.03,26,0,0,0
16442,6.3866e+07,4,0,0,15.24,0.03,26,0,0,0
16853,6.3968e+07,4,0,0,15.24,0.04,26,0,0,0
17306,6.4084e+07,4,0,0,15.24,0.03,26,0,0,0
17719,6.4187e+07,4,0,0,15.24,0.03,26,0,0,0
18133,6.4293e+07,4,0,0,15.24,0.04,26,0,0,0
18587,6.4405e+07,4,0,0,15.23,0.03,26,0,0,0
18995,6.4507e+07,4,0,0,15.23,0.03,26,0,0,0
19453,6.4619e+07,4,0,0,15.24,0.03,26,0,0,0
20320,6.4842e+07,4,0,0,15.23,0.03,26,0,0,0
20736,6.4947e+07,4,0,0,15.24,0.03,26,0,0,0
21147,6.505e+07,4,0,0,15.24,0.03,26,0,0,0
21573,6.5163e+07,4,0,0,15.24,0.03,26,0,0,0
21983,6.5265e+07,4,0,0,15.24,0.03,26,0,0,0
22439,6.5377e+07,4,0,0,15.24,0.03,26,0,0,0
22851,6.5482e+07,4,0,0,15.24,0.03,26,0,0,0
23266,6.5586e+07,4,0,0,15.23,0.03,26,0,0,0
23715,6.5703e+07,4,0,0,15.24,0.03,26,0,0,0
24130,6.5806e+07,4,0,0,15.24,0.04,26,0,0,0
24541,6.591e+07,4,0,0,15.23,0.03,26,0,0,0
24997,6.6024e+07,4,0,0,15.24,0.04,26,0,0,0
25407,6.613e+07,4,0,0,15.24,0.03,26,0,0,0
25822,6.6239e+07,4,0,0,15.24,0.03,26,0,0,0
26238,6.634e+07,4,0,0,15.24,0.04,26,0,0,0
26650,6.645e+07,4,0,0,15.23,0.04,26,0,0,0
27103,6.6562e+07,4,0,0,15.24,0.04,26,0,0,0
27516,6.6667e+07,4,0,0,15.24,0.04,26,0,0,0
27976,6.678e+07,4,0,0,15.24,0.04,26,0,0,0
28390,6.6886e+07,4,0,0,15.24,0.04,26,0,0,0
28804,6.6989e+07,4,0,0,15.24,0.04,26,0,0,0
29249,6.7098e+07,4,0,0,15.23,0.04,26,0,0,0
29665,6.7202e+07,4,0,0,15.23,0.04,26,0,0,0
30076,6.731e+07,4,0,0,15.23,0.04,26,0,0,0
30530,6.7421e+07,4,0,0,15.23,0.04,26,0,0,0
30939,6.7525e+07,4,0,0,15.24,0.04,26,0,0,0
31392,6.7637e+07,4,0,0,15.24,0.04,26,0,0,0
31847,6.7753e+07,4,0,0,15.24,0.04,26,0,0,0
32221,6.7845e+07,4,0,0,15.24,0.04,26,0,0,0
32675,6.7961e+07,4,0,0,15.24,0.04,26,0,0,0
33087,6.8067e+07,4,0,0,15.23,0.04,26,0,0,0
33499,6.817e+07,4,0,0,15.24,0.03,26,0,0,0
33950,6.8281e+07,4,0,0,15.24,0.04,26,0,0,0
34403,6.8393e+07,4,0,0,15.24,0.04,26,0,0,0
34813,6.8497e+07,4,0,0,15.24,0.03,26,0,0,0
35266,6.861e+07,4,0,0,15.24,0.04,26,0,0,0
35677,6.8715e+07,4,0,0,15.25,0.04,26,0,0,0
36093,6.8818e+07,4,0,0,15.23,0.04,26,0,0,0
36544,6.8929e+07,4,0,0,15.24,0.03,26,0,0,0
36958,6.903e+07,4,0,0,15.24,0.04,26,0,0,0
37410,6.9146e+07,4,0,0,15.24,0.04,26,0,0,0
37824,6.9253e+07,4,0,0,15.24,0.04,26,0,0,0
38240,6.9357e+07,4,0,0,15.23,0.04,26,0,0,0
39109,6.9578e+07,4,0,0,15.24,0.04,26,0,0,0
39518,6.9683e+07,4,0,0,15.23,0.04,26,0,0,0
39934,6.9788e+07,4,0,0,15.24,0.04,26,0,0,0
40380,6.99e+07,4,0,0,15.24,0.04,26,0,0,0
40839,7.0016e+07,4,0,0,15.24,0.03,26,0,0,0
41250,7.0123e+07,4,0,0,15.24,0.04,26,0,0,0
41665,7.0226e+07,4,0,0,15.23,0.04,26,0,0,0
42075,7.0329e+07,4,0,0,15.23,0.04,26,0,0,0
42533,7.0444e+07,4,0,0,15.23,0.03,26,0,0,0
42947,7.0553e+07,4,0,0,15.23,0.04,26,0,0,0
43363,7.0662e+07,4,0,0,15.24,0.04,26,0,0,0
43776,7.0763e+07,4,0,0,15.24,0.04,26,0,0,0
44193,7.0872e+07,4,0,0,15.24,0.04,26,0,0,0
44606,7.0975e+07,4,0,0,15.24,0.03,26,0,0,0
45060,7.1091e+07,4,0,0,15.23,0.03,26,0,0,0
45472,7.1193e+07,4,0,0,15.23,0.03,26,0,0,0
45890,7.1299e+07,4,0,0,15.24,0.03,26,0,0,0
46343,7.1412e+07,4,0,0,15.24,0.03,26,0,0,0
46755,7.1519e+07,4,0,0,15.23,0.03,26,0,0,0
47210,7.1633e+07,4,0,0,15.23,0.03,26,0,0,0
47623,7.1741e+07,4,0,0,15.23,0.03,26,0,0,0
48043,7.1844e+07,4,0,0,15.23,0.03,26,0,0,0
48492,7.195e+07,4,0,0,15.23,0.03,26,0,0,0
48947,7.206e+07,4,0,0,15.24,0.03,26,0,0,0
49402,7.2164e+07,4,0,0,15.23,0.03,26,0,0,0
49855,7.2273e+07,4,0,0,15.24,0.03,26,0,0,0
50308,7.2377e+07,4,0,0,15.24,0.03,26,0,0,0
50802,7.2493e+07,4,0,0,15.23,0.03,26,0,0,0
51259,7.2598e+07,4,0,0,15.24,0.03,26,0,0,0
51750,7.2708e+07,4,0,0,15.24,0.03,26,0,0,0
52207,7.2815e+07,4,0,0,15.23,0.03,26,0,0,0
52701,7.2928e+07,4,0,0,15.23,0.03,26,0,0,0
53152,7.303e+07,4,0,0,15.24,0.03,26,0,0,0
54102,7.3256e+07,4,0,0,15.23,0.04,26,0,0,0
54554,7.336e+07,4,0,0,15.23,0.03,26,0,0,0
55005,7.3466e+07,4,0,0,15.24,0.03,26,0,0,0
55460,7.3571e+07,4,0,0,15.23,0.03,26,0,0,0
55914,7.3676e+07,4,0,0,15.23,0.03,26,0,0,0
56417,7.379e+07,4,0,0,15.23,0.03,26,0,0,0
56869,7.3895e+07,4,12,314,15.23,0.02,26,0,0,0
57133,7.4e+07,4,313,300,15.22,0.05,26,0,0,0
57594,7.4112e+07,4,331,685,15.21,0.11,26,0,0,0
58046,7.4216e+07,4,691,1071,15.2,0.14,26,0,0,0
58539,7.433e+07,4,1081,1185,15.22,0.11,26,0,0,0
58991,7.4434e+07,4,1186,1214,15.22,0.11,26,0,0,0
59446,7.4543e+07,4,1214,1228,15.22,0.1,26,0,0,0
60356,7.4756e+07,4,1228,1242,15.22,0.1,26,0,0,0
60848,7.4871e+07,4,1242,1242,15.22,0.1,26,0,0,0
61299,7.4972e+07,4,1242,1242,15.23,0.1,26,0,0,0
61515,7.5079e+07,4,1242,1242,15.22,0.1,26,0,0,0
62016,7.519e+07,4,1242,1242,15.22,0.1,26,0,0,0
62467,7.5296e+07,4,1242,1242,15.22,0.1,26,0,0,0
62967,7.5408e+07,4,1242,1242,15.22,0.1,26,0,0,0
63383,7.5514e+07,4,1242,1242,15.22,0.1,26,0,0,0
63840,7.5618e+07,4,1242,1242,15.22,0.1,26,0,0,0
64335,7.5731e+07,4,1242,1242,15.22,0.1,26,0,0,0
64796,7.5843e+07,4,1249,1314,15.2,0.15,26,0,0,0
65253,7.5948e+07,4,1339,1585,15.1,0.5,26,0,0,0
65708,7.6057e+07,4,1660,2428,15.13,0.77,26,0,0,0
66162,7.6161e+07,4,2462,2942,15.19,1.44,26,0,0,0
66612,7.6268e+07,4,2947,3357,14.94,1.33,26,0,0,0
67108,7.6383e+07,4,3393,3900,14.92,1.78,26,0,0,0
67561,7.6495e+07,4,3955,4514,14.84,2.42,26,0,0,0
68013,7.6603e+07,4,4569,5128,14.64,3.1,26,0,0,0
68465,7.671e+07,4,5164,5528,14.54,4.07,26,0,0,0
68919,7.6817e+07,4,5563,6028,14.52,4.14,26,0,0,0
69372,7.6926e+07,4,6022,5971,14.64,3.58,26,0,0,0
69826,7.7037e+07,4,5989,6157,14.51,3.74,26,1,0,0
70275,7.7142e+07,4,6138,5871,14.57,2.97,26,1,0,0
70771,7.7259e+07,4,5855,5700,14.61,2.82,26,1,0,0
71223,7.7362e+07,4,5700,5700,14.63,2.81,26,1,0,0
72132,7.758e+07,4,5691,5457,14.6,2.72,26,1,0,0
72547,7.7685e+07,4,5453,5285,14.59,2.14,27,1,0,0
73045,7.7801e+07,4,5277,5200,14.58,2.62,27,1,0,0
73456,7.7902e+07,4,5201,5271,14.59,2.41,27,1,0,0
73956,7.8019e+07,4,5271,5271,14.61,2.55,27,1,0,0
74403,7.8125e+07,4,5275,5385,14.61,2.73,27,1,0,0
74906,7.825e+07,4,5385,5385,14.63,2.76,26,1,0,0
75316,7.8345e+07,4,5388,5600,14.57,2.8,27,2,0,0
75806,7.8462e+07,4,5592,5528,14.63,3.02,27,2,0,0
76262,7.8572e+07,4,5534,5628,14.54,3.17,27,2,0,0
76675,7.8672e+07,4,5629,5657,14.56,3.28,27,2,0,0
77171,7.8788e+07,4,5663,5728,14.6,3.07,27,2,0,0
77619,7.8894e+07,4,5728,5742,14.55,3.17,27,2,0,0
78073,7.9002e+07,4,5752,5885,14.57,3.15,27,2,0,0
78515,7.9113e+07,4,5881,5814,14.54,3.39,27,2,0,0
78966,7.9223e+07,4,5812,5785,14.52,3.03,27,2,0,0
79413,7.9333e+07,4,5781,5714,14.5,2.96,27,2,0,0
79829,7.9441e+07,4,5715,5785,14.55,3.21,27,3,0,0
80267,7.9545e+07,4,5780,5685,14.53,3.36,27,3,0,0
80725,7.966e+07,4,5690,5742,14.54,3.17,27,3,0,0
81173,7.9768e+07,4,5740,5728,14.58,3.32,27,3,0,0
81575,7.9871e+07,4,5729,5800,14.55,3.24,27,3,0,0
82023,7.9977e+07,4,5800,5814,14.51,3.03,27,3,0,0
82511,8.0094e+07,4,5802,5685,14.56,2.71,27,3,0,0
82923,8.0197e+07,4,5683,5585,14.54,2.7,27,3,0,0
83366,8.0306e+07,4,5572,5400,14.54,2.65,27,3,0,0
83860,8.0423e+07,4,5392,5314,14.54,2.37,27,3,0,0
84262,8.0525e+07,4,5305,5200,14.5,2.24,27,3,0,0
84715,8.0634e+07,4,5208,5314,14.46,2.76,27,3,0,0
85160,8.0745e+07,4,5327,5514,14.54,2.76,27,4,0,0
86054,8.0963e+07,4,5511,5457,14.51,2.78,27,4,0,0
86452,8.1062e+07,4,5456,5414,14.61,2.85,27,4,0,0
87354,8.1289e+07,4,5410,5314,14.67,2.49,27,4,0,0
87808,8.1399e+07,4,5310,5271,14.65,2.8,27,4,0,0
88210,8.1499e+07,4,5273,5342,14.61,2.55,27,4,0,0
88660,8.1608e+07,4,5340,5328,14.61,2.79,27,4,0,0
89067,8.1711e+07,4,5328,5342,14.59,2.61,27,4,0,0
90412,8.2043e+07,4,5338,5200,14.66,2.3,27,5,0,0
90857,8.2153e+07,4,5196,5114,14.61,2.54,27,5,0,0
91304,8.2264e+07,4,5123,5271,14.54,2.72,27,5,0,0
91753,8.2373e+07,4,5269,5242,14.64,2.56,27,5,0,0
92161,8.248e+07,4,5240,5157,14.62,2.33,27,5,0,0
92650,8.2597e+07,4,5166,5257,14.66,2.36,27,5,0,0
93052,8.2696e+07,4,5255,5157,14.56,2.54,27,5,0,0
93501,8.2803e+07,4,5157,5200,14.61,2.46,27,5,0,0
93945,8.2911e+07,4,5203,5271,14.6,2.45,27,5,0,0
94391,8.3018e+07,4,5268,5228,14.63,2.57,27,5,0,0
94844,8.3134e+07,4,5226,5214,14.59,2.66,27,5,0,0
95699,8.3351e+07,4,5208,5100,14.61,2.41,27,5,0,0
96147,8.3462e+07,4,5102,5128,14.57,2.52,27,6,0,0
96596,8.3577e+07,4,5137,5200,14.61,2.21,28,6,0,0
97455,8.3785e+07,4,5179,4542,14.59,1.57,27,6,0,0
97897,8.3897e+07,4,4514,4285,14.55,0.98,27,6,0,0
98345,8.4007e+07,4,4257,4014,14.55,1,27,6,0,0
98752,8.4107e+07,4,4002,3842,14.44,1.17,27,6,0,0
99198,8.4215e+07,4,3854,4014,14.45,1.6,27,6,0,0
99643,8.4326e+07,4,4072,4642,14.52,2.32,28,6,0,0
1.0009e+05,8.4438e+07,4,4688,5000,14.48,3.16,28,6,0,0
1.0053e+05,8.4538e+07,4,5025,5657,14.56,3.77,28,6,0,0
1.0102e+05,8.4656e+07,4,5695,6042,14.52,4.33,27,6,0,0
1.0186e+05,8.4871e+07,4,6074,6700,14.49,4.83,28,7,0,0
1.0227e+05,8.4967e+07,4,6695,6485,14.49,4.42,28,7,0,0
1.032e+05,8.5192e+07,4,6480,5900,14.5,2.95,28,7,0,0
1.0364e+05,8.5307e+07,4,5890,5814,14.48,3.14,28,7,0,0
1.045e+05,8.5518e+07,4,5791,5214,14.44,2.35,28,7,0,0
1.0499e+05,8.5631e+07,4,5197,5014,14.48,1.95,28,7,0,0
1.0544e+05,8.5741e+07,4,5021,5100,14.44,2.52,28,7,0,0
1.0588e+05,8.5854e+07,4,5076,4885,14.42,2.08,28,7,0,0
1.0633e+05,8.5961e+07,4,4895,4985,14.47,2.17,28,7,0,0
1.0677e+05,8.6066e+07,4,4984,4971,14.44,2.65,28,7,0,0
1.0723e+05,8.6177e+07,4,4966,4914,14.33,2.36,28,8,0,0
1.0811e+05,8.6391e+07,4,4918,5028,14.51,2.59,28,8,0,0
1.0855e+05,8.6502e+07,4,5044,5285,14.53,2.34,28,8,0,0
1.09e+05,8.661e+07,4,5279,5200,14.44,2.48,28,8,0,0
1.0949e+05,8.6723e+07,4,5211,5371,14.44,2.74,28,8,0,0
1.099e+05,8.6825e+07,4,5366,5271,14.51,2.43,28,8,0,0
1.1035e+05,8.694e+07,4,5274,5328,14.44,2.93,28,8,0,0
1.1083e+05,8.7058e+07,4,5333,5400,14.47,2.53,28,8,0,0
1.1129e+05,8.7168e+07,4,5395,5357,14.47,2.91,28,8,0,0
1.1213e+05,8.7376e+07,4,5358,5414,14.47,2.84,28,8,0,0
1.1257e+05,8.7485e+07,4,5403,5300,14.48,2.23,28,8,0,0
1.1302e+05,8.7592e+07,4,5301,5342,14.54,2.46,28,9,0,0
1.1347e+05,8.7703e+07,4,5337,5271,14.51,2.48,28,9,0,0
1.1392e+05,8.7814e+07,4,5264,5171,14.49,2.59,28,9,0,0
1.1436e+05,8.7924e+07,4,5173,5200,14.52,2.47,28,9,0,0
1.1482e+05,8.8035e+07,4,5203,5242,14.6,2.49,28,9,0,0
1.1522e+05,8.8137e+07,4,5238,5028,14.63,2.19,28,9,0,0
1.1566e+05,8.8247e+07,4,5026,5000,14.59,2.32,28,9,0,0
1.1611e+05,8.8356e+07,4,5001,5028,14.49,2.84,28,9,0,0
1.1656e+05,8.8468e+07,4,5027,5014,14.58,2.22,28,9,0,0
1.1701e+05,8.858e+07,4,5007,4914,14.57,2.33,28,9,0,0
1.1742e+05,8.8682e+07,4,4926,5200,14.51,2.63,28,9,0,0
1.179e+05,8.8794e+07,4,5204,5271,14.58,2.76,28,9,0,0
1.183e+05,8.8895e+07,4,5271,5300,14.59,2.76,28,9,0,0
1.1876e+05,8.9009e+07,4,5296,5242,14.61,2.36,28,10,0,0
1.1921e+05,8.9121e+07,4,5243,5257,14.54,2.38,28,10,0,0
1.1961e+05,8.9221e+07,4,5262,5371,14.54,2.96,28,10,0,0
1.2006e+05,8.9329e+07,4,5370,5357,14.51,2.51,28,10,0,0
1.2051e+05,8.944e+07,4,5357,5371,14.43,2.79,28,10,0,0
1.2096e+05,8.9554e+07,4,5376,5442,14.5,2.53,28,10,0,0
1.214e+05,8.9663e+07,4,5421,5214,14.55,2.26,28,10,0,0
1.2181e+05,8.9758e+07,4,5215,5271,14.61,2.3,28,10,0,0
1.2226e+05,8.9871e+07,4,5259,5028,14.59,2.09,28,10,0,0
1.2271e+05,8.9979e+07,4,5028,5042,14.57,2.4,28,10,0,0
1.2316e+05,9.0093e+07,4,5042,5042,14.56,2.23,28,10,0,0
1.2361e+05,9.0202e+07,4,5046,5085,14.52,2.19,28,10,0,0
1.2406e+05,9.0312e+07,4,5083,5071,14.57,2.29,28,10,0,0
1.2451e+05,9.0418e+07,4,5072,5114,14.55,2.78,28,11,0,0
1.249e+05,9.052e+07,4,5114,5128,14.51,2.57,28,11,0,0
1.254e+05,9.0637e+07,4,5133,5214,14.5,2.52,28,11,0,0
1.2584e+05,9.0744e+07,4,5218,5300,14.54,2.57,28,11,0,0
1.2735e+05,9.1284e+07,4,5400,5414,14.47,2.88,28,11,0,0
1.278e+05,9.1394e+07,4,5419,5528,14.51,3.08,28,11,0,0
1.2828e+05,9.151e+07,4,5515,5385,14.52,2.56,28,11,0,0
1.2913e+05,9.1719e+07,4,5384,5314,14.55,2.51,28,12,0,0
1.2962e+05,9.1835e+07,4,5300,5157,14.47,2.13,28,12,0,0
1.3003e+05,9.1939e+07,4,5162,5271,14.44,2.53,28,12,0,0
1.3048e+05,9.2055e+07,4,5273,5314,14.44,2.52,28,12,0,0
1.309e+05,9.2161e+07,4,5315,5371,14.45,2.77,28,12,0,0
1.3137e+05,9.2274e+07,4,5373,5400,14.46,2.79,28,12,0,0
1.3182e+05,9.2385e+07,4,5385,5257,14.47,1.97,28,12,0,0
1.3223e+05,9.2483e+07,4,5256,5242,14.47,2.22,28,12,0,0
1.3268e+05,9.2595e+07,4,5236,5128,14.44,2.25,28,12,0,0
1.3358e+05,9.2818e+07,4,5126,5100,14.48,2.01,28,12,0,0
1.3398e+05,9.2922e+07,4,5089,4957,14.48,1.92,28,12,0,0
1.3443e+05,9.3033e+07,4,4962,5014,14.41,2.51,28,12,0,0
1.3488e+05,9.3139e+07,4,5012,5000,14.41,2.42,28,12,0,0
1.3532e+05,9.3251e+07,4,5031,5285,14.39,2.56,28,12,0,0
1.3577e+05,9.3361e+07,4,5281,5228,14.42,2.35,28,13,0,0
1.3622e+05,9.3472e+07,4,5235,5342,14.44,2.4,28,13,0,0
1.3663e+05,9.3573e+07,4,5341,5314,14.48,2.42,28,13,0,0
1.3712e+05,9.3694e+07,4,5303,5214,14.46,2.23,28,13,0,0
1.3752e+05,9.3788e+07,4,5213,5157,14.42,2.18,28,13,0,0
1.3796e+05,9.3901e+07,4,5160,5371,14.35,2.7,28,13,0,0
1.3845e+05,9.4014e+07,4,5364,5300,14.46,2.31,28,13,0,0
1.3886e+05,9.4118e+07,4,5300,5300,14.41,2.28,28,13,0,0
1.3935e+05,9.4237e+07,4,5315,5442,14.38,2.82,28,13,0,0
1.3975e+05,9.4336e+07,4,5430,5157,14.47,1.72,28,13,0,0
1.4025e+05,9.446e+07,4,5143,5071,14.49,2.21,28,13,0,0
1.4064e+05,9.4558e+07,4,5081,5300,14.55,2.12,28,13,0,0
1.4109e+05,9.4671e+07,4,5297,5271,14.51,2.81,28,13,0,0
1.4154e+05,9.4781e+07,4,5268,5228,14.54,2.09,28,14,0,0
1.4202e+05,9.4897e+07,4,5208,5014,14.56,1.7,28,14,0,0
1.4247e+05,9.5003e+07,4,4998,4842,14.55,2.05,28,14,0,0
1.4287e+05,9.5099e+07,4,4849,5000,14.55,2.12,28,14,0,0
1.4332e+05,9.521e+07,4,4996,4928,14.48,2.08,28,14,0,0
1.4377e+05,9.5324e+07,4,4938,5042,14.58,2.3,28,14,0,0
1.4422e+05,9.5433e+07,4,5063,5271,14.47,2.27,28,14,0,0
1.4463e+05,9.5537e+07,4,5272,5300,14.54,2.5,28,14,0,0
1.4512e+05,9.5656e+07,4,5285,5185,14.54,2.26,28,14,0,0
1.4645e+05,9.5971e+07,4,5189,5500,14.46,2.84,28,14,0,0
1.469e+05,9.6085e+07,4,5499,5485,14.51,2.72,28,14,0,0
1.4735e+05,9.6195e+07,4,5492,5642,14.43,2.97,28,14,0,0
1.4775e+05,9.6299e+07,4,5640,5614,14.45,2.95,28,15,0,0
1.482e+05,9.6411e+07,4,5616,5657,14.48,2.76,28,15,0,0
1.4857e+05,9.6507e+07,4,5653,5428,14.52,2.74,28,15,0,0
1.4906e+05,9.6628e+07,4,5450,5700,14.5,3.05,28,15,0,0
1.4947e+05,9.673e+07,4,5696,5614,14.44,2.98,28,15,0,0
1.4996e+05,9.6852e+07,4,5612,5600,14.46,2.87,28,15,0,0
1.5036e+05,9.6949e+07,4,5597,5414,14.45,2.78,28,15,0,0
1.5085e+05,9.7062e+07,4,5416,5442,14.42,2.83,28,15,0,0
1.5126e+05,9.7163e+07,4,5443,5514,14.44,2.85,28,15,0,0
1.517e+05,9.7274e+07,4,5517,5585,14.39,3.08,28,15,0,0
1.5215e+05,9.7381e+07,4,5581,5514,14.44,2.66,28,15,0,0
1.5259e+05,9.7492e+07,4,5518,5571,14.41,3.11,28,16,0,0
1.5304e+05,9.7599e+07,4,5554,5385,14.47,2.86,28,16,0,0
1.535e+05,9.7712e+07,4,5405,5600,14.44,2.71,28,16,0,0
1.539e+05,9.781e+07,4,5595,5414,14.43,2.76,28,16,0,0
1.5434e+05,9.792e+07,4,5412,5342,14.51,2.52,28,16,0,0
1.5524e+05,9.8138e+07,4,5339,5100,14.51,2.27,28,16,0,0
1.5569e+05,9.8248e+07,4,5098,4985,14.49,2.33,28,16,0,0
1.5614e+05,9.8357e+07,4,4990,5142,14.48,2.54,28,16,0,0
1.5662e+05,9.8473e+07,4,5136,5057,14.42,2.39,28,16,0,0
1.5707e+05,9.8584e+07,4,5052,5000,14.52,2.17,28,16,0,0
1.5752e+05,9.8694e+07,4,5000,5000,14.45,2.46,28,16,0,0
1.5793e+05,9.8796e+07,4,5002,5042,14.54,2.14,28,16,0,0
1.5838e+05,9.8909e+07,4,5034,4957,14.46,2.43,28,17,0,0
1.5927e+05,9.9128e+07,4,4961,5071,14.5,2.4,28,17,0,0
1.5972e+05,9.9234e+07,4,5068,5028,14.5,2.39,28,17,0,0
1.6016e+05,9.934e+07,4,5026,5000,14.5,2.21,28,17,0,0
1.6105e+05,9.9561e+07,4,5001,5042,14.51,2.39,28,17,0,0
1.6147e+05,9.9671e+07,4,5059,5300,14.45,2.74,28,17,0,0
1.6192e+05,9.9783e+07,4,5301,5314,14.5,2.7,28,17,0,0
1.6237e+05,9.9897e+07,4,5301,5185,14.48,2.23,28,17,0,0
1.6282e+05,1.0001e+08,4,5198,5285,14.5,2.72,28,17,0,0
1.6367e+05,1.0021e+08,4,5283,5100,14.5,2.6,28,17,0,0
1.6411e+05,1.0032e+08,4,5104,5185,14.46,2.17,28,18,0,0
1.646e+05,1.0045e+08,4,5178,5142,14.42,2.72,28,18,0,0
1.6501e+05,1.0055e+08,4,5135,5100,14.47,2.38,28,18,0,0
1.6546e+05,1.0066e+08,4,5076,4885,14.42,1.99,28,18,0,0
1.6591e+05,1.0077e+08,4,4909,5171,14.48,2.45,28,18,0,0
1.6635e+05,1.0088e+08,4,5158,4985,14.42,2.18,28,18,0,0
1.668e+05,1.0098e+08,4,4985,4985,14.48,2.03,28,18,0,0
1.6721e+05,1.0109e+08,4,4983,4957,14.43,2.85,28,18,0,0
1.6766e+05,1.012e+08,4,4969,5100,14.43,2.49,28,18,0,0
1.681e+05,1.0131e+08,4,5107,5285,14.42,2.58,28,18,0,0
1.6855e+05,1.0142e+08,4,5282,5242,14.45,1.97,28,18,0,0
1.6896e+05,1.0152e+08,4,5231,5042,14.34,2.18,28,18,0,0
1.6941e+05,1.0163e+08,4,5065,5314,14.39,2.97,28,18,0,0
1.6982e+05,1.0174e+08,4,5316,5442,14.37,3.39,28,18,0,0
1.7027e+05,1.0184e+08,4,5443,5571,14.41,2.91,28,19,0,0
1.7072e+05,1.0196e+08,4,5557,5414,14.44,2.44,28,19,0,0
1.7116e+05,1.0207e+08,4,5404,5285,14.42,2.61,29,19,0,0
1.7161e+05,1.0218e+08,4,5271,5157,14.38,2.34,28,19,0,0
1.7206e+05,1.0229e+08,4,5154,5128,14.41,2.48,29,19,0,0
1.725e+05,1.0239e+08,4,5129,5142,14.42,2.35,28,19,0,0
1.7339e+05,1.0261e+08,4,5140,5100,14.41,2.53,29,19,0,0
1.7381e+05,1.0272e+08,4,5108,5300,14.48,2.42,29,19,0,0
1.743e+05,1.0283e+08,4,5292,5214,14.52,2.75,28,19,0,0
1.747e+05,1.0293e+08,4,5222,5428,14.51,2.2,28,19,0,0
1.7519e+05,1.0305e+08,4,5405,5171,14.52,2.12,29,19,0,0
1.7563e+05,1.0316e+08,4,5160,5014,14.45,2.4,29,19,0,0
1.7604e+05,1.0326e+08,4,5018,5285,14.49,2.59,29,20,0,0
1.7697e+05,1.0348e+08,4,5291,5471,14.45,2.71,29,20,0,0
1.7742e+05,1.0359e+08,4,5452,5200,14.5,2.2,28,20,0,0
1.7782e+05,1.037e+08,4,5198,5157,14.45,2.37,29,20,0,0
1.7827e+05,1.0381e+08,4,5165,5242,14.46,2.52,29,20,0,0
1.7871e+05,1.0392e+08,4,5244,5300,14.44,2.86,29,20,0,0
1.7917e+05,1.0403e+08,4,5296,5157,14.44,1.92,29,20,0,0
1.7962e+05,1.0414e+08,4,5157,5157,14.36,2.67,29,20,0,0
1.8007e+05,1.0425e+08,4,5166,5242,14.44,2.49,29,20,0,0
1.8052e+05,1.0436e+08,4,5249,5328,14.44,2.63,29,20,0,0
1.8096e+05,1.0447e+08,4,5335,5414,14.34,2.79,28,20,0,0
1.8141e+05,1.0458e+08,4,5419,5471,14.45,2.45,29,20,0,0
1.8185e+05,1.0469e+08,4,5472,5500,14.5,2.85,28,21,0,0
1.8227e+05,1.0479e+08,4,5505,5642,14.46,2.53,29,21,0,0
1.8271e+05,1.049e+08,4,5635,5485,14.56,2.46,29,21,0,0
1.8316e+05,1.0501e+08,4,5466,5185,14.44,2.26,29,21,0,0
1.836e+05,1.0512e+08,4,5189,5271,14.52,2.25,29,21,0,0
1.8405e+05,1.0522e+08,4,5266,5185,14.48,2.21,29,21,0,0
1.8446e+05,1.0533e+08,4,5188,5257,14.44,2.77,29,21,0,0
1.8491e+05,1.0544e+08,4,5261,5371,14.5,2.19,29,21,0,0
1.8536e+05,1.0555e+08,4,5368,5328,14.41,2.53,29,21,0,0
1.8577e+05,1.0566e+08,4,5333,5457,14.38,2.5,29,21,0,0
1.8622e+05,1.0577e+08,4,5417,5042,14.36,1.9,29,21,0,0
1.8665e+05,1.0587e+08,4,5062,5471,14.37,2.92,29,21,0,0
1.871e+05,1.0598e+08,4,5487,5657,14.39,2.92,29,22,0,0
1.882e+05,1.0631e+08,4,5572,5442,14.47,2.48,29,22,0,0
1.886e+05,1.0641e+08,4,5443,5485,14.54,2.63,29,22,0,0
1.8905e+05,1.0652e+08,4,5458,5171,14.54,2.7,29,22,0,0
1.895e+05,1.0663e+08,4,5175,5242,14.44,2.43,29,22,0,0
1.8994e+05,1.0674e+08,4,5252,5400,14.36,3.08,29,22,0,0
1.9038e+05,1.0685e+08,4,5401,5514,14.38,3.25,29,22,0,0
1.9083e+05,1.0695e+08,4,5517,5642,14.38,3.02,29,22,0,0
1.9128e+05,1.0707e+08,4,5642,5642,14.41,3.06,29,22,0,0
1.9214e+05,1.0728e+08,4,5641,5528,14.35,2.96,29,23,0,0
1.9263e+05,1.074e+08,4,5523,5471,14.37,3.14,29,23,0,0
1.9303e+05,1.075e+08,4,5478,5628,14.35,3.16,29,23,0,0
1.9345e+05,1.076e+08,4,5629,5671,14.31,3.4,29,23,0,0
1.9389e+05,1.0771e+08,4,5676,5728,14.3,3.51,29,23,0,0
1.9434e+05,1.0782e+08,4,5750,5985,14.28,4.14,29,23,0,0
1.9479e+05,1.0793e+08,4,5966,5785,14.29,3.2,29,23,0,0
1.9567e+05,1.0814e+08,4,5785,5800,14.25,3.26,29,23,0,0
1.9608e+05,1.0825e+08,4,5798,5728,14.23,3.27,29,23,0,0
1.9657e+05,1.0836e+08,4,5738,5885,14.2,3.3,29,23,0,0
1.9698e+05,1.0847e+08,4,5883,5771,14.18,3.01,29,24,0,0
1.9742e+05,1.0858e+08,4,5771,5814,14.19,3.48,29,24,0,0
1.9791e+05,1.087e+08,4,5825,5942,14.13,4.17,29,24,0,0
1.9876e+05,1.0891e+08,4,5938,5771,14.33,2.49,29,24,0,0
1.9925e+05,1.0902e+08,4,5741,5442,14.39,2.21,29,24,0,0
1.9966e+05,1.0912e+08,4,5425,5000,14.45,2.22,29,24,0,0
2.0015e+05,1.0925e+08,4,4986,4857,14.4,2.03,29,24,0,0
2.0055e+05,1.0934e+08,4,4858,4914,14.35,2.42,29,24,0,0
2.0145e+05,1.0956e+08,4,4918,5014,14.32,3.05,29,24,0,0
2.0189e+05,1.0967e+08,4,5044,5457,14.23,3.23,29,25,0,0
2.0234e+05,1.0977e+08,4,5462,5800,14.17,4.06,29,25,0,0
2.0278e+05,1.0989e+08,4,5804,5914,14.35,3.56,29,25,0,0
2.0323e+05,1.0999e+08,4,5898,5600,14.3,3.14,29,25,0,0
2.0368e+05,1.101e+08,4,5607,6114,14.2,4.15,29,25,0,0
2.0417e+05,1.1023e+08,4,6121,6171,14.18,4.36,29,25,0,0
2.0458e+05,1.1033e+08,4,6167,5957,14.29,3.1,29,25,0,0
2.0503e+05,1.1043e+08,4,5956,5914,14.23,3.78,29,25,0,0
2.0548e+05,1.1055e+08,4,5914,5914,14.25,3.39,29,25,0,0
2.0593e+05,1.1066e+08,4,5915,5928,14.22,3.29,29,26,0,0
2.0641e+05,1.1077e+08,4,5917,5800,14.28,3.44,29,26,0,0
2.0682e+05,1.1087e+08,4,5791,5714,14.27,3.09,29,26,0,0
2.0726e+05,1.1098e+08,4,5705,5528,14.34,2.66,29,26,0,0
2.0812e+05,1.112e+08,4,5512,5228,14.37,2.37,29,26,0,0
2.0857e+05,1.1131e+08,4,5228,5242,14.33,2.67,29,26,0,0
2.0902e+05,1.1141e+08,4,5238,5185,14.36,2.43,29,26,0,0
2.0942e+05,1.1151e+08,4,5186,5271,14.38,2.91,29,26,0,0
2.0987e+05,1.1162e+08,4,5269,5142,14.51,2.62,29,26,0,0
2.1031e+05,1.1173e+08,4,5147,5257,14.45,2.76,29,26,0,0
2.1076e+05,1.1184e+08,4,5258,5357,14.45,2.87,29,26,0,0
2.112e+05,1.1195e+08,4,5359,5414,14.54,2.33,29,27,0,0
2.1165e+05,1.1206e+08,4,5404,5285,14.52,2.4,29,27,0,0
2.121e+05,1.1217e+08,4,5297,5457,14.49,2.46,29,27,0,0
2.1254e+05,1.1228e+08,4,5445,5228,14.51,2.27,29,27,0,0
2.1299e+05,1.1239e+08,4,5219,5114,14.48,2.19,29,27,0,0
2.1339e+05,1.1249e+08,4,5118,5214,14.42,2.62,29,27,0,0
2.1384e+05,1.126e+08,4,5222,5414,14.46,2.86,29,27,0,0
2.1429e+05,1.1271e+08,4,5413,5385,14.44,2.99,29,27,0,0
2.1473e+05,1.1282e+08,4,5391,5542,14.48,2.53,29,27,0,0
2.1518e+05,1.1293e+08,4,5536,5400,14.47,2.46,29,27,0,0
2.1562e+05,1.1304e+08,4,5397,5285,14.43,2.28,29,27,0,0
2.161e+05,1.1315e+08,4,5292,5400,14.39,2.55,29,27,0,0
2.1651e+05,1.1325e+08,4,5399,5371,14.38,2.86,29,27,0,0
2.17e+05,1.1337e+08,4,5371,5371,14.39,2.49,29,28,0,0
2.1745e+05,1.1348e+08,4,5377,5442,14.38,2.63,29,28,0,0
2.179e+05,1.1359e+08,4,5427,5285,14.35,2.65,29,28,0,0
2.1833e+05,1.1369e+08,4,5284,5271,14.42,2.33,29,28,0,0
2.1878e+05,1.138e+08,4,5259,5100,14.33,2.21,29,28,0,0
2.1919e+05,1.1391e+08,4,5100,5128,14.38,2.33,29,28,0,0
2.1964e+05,1.1401e+08,4,5128,5171,14.39,2.62,29,28,0,0
2.2012e+05,1.1413e+08,4,5183,5314,14.29,2.87,29,28,0,0
2.2057e+05,1.1424e+08,4,5310,5271,14.35,2.64,29,28,0,0
2.2101e+05,1.1434e+08,4,5274,5342,14.35,2.82,29,28,0,0
2.2146e+05,1.1445e+08,4,5338,5257,14.35,2.32,29,28,0,0
2.2191e+05,1.1457e+08,4,5251,5200,14.36,2.51,29,28,0,0
2.2231e+05,1.1467e+08,4,5199,5185,14.3,2.49,29,28,0,0
2.2276e+05,1.1478e+08,4,5184,5171,14.35,2.43,29,29,0,0
2.2321e+05,1.1489e+08,4,5169,5085,14.27,2.49,29,29,0,0
2.2365e+05,1.1499e+08,4,5087,5228,14.36,2.61,29,29,0,0
2.241e+05,1.1511e+08,4,5222,5171,14.33,2.21,29,29,0,0
2.2455e+05,1.1522e+08,4,5157,5028,14.38,2.08,29,29,0,0
2.2499e+05,1.1532e+08,4,5011,4771,14.36,1.84,29,29,0,0
2.2544e+05,1.1544e+08,4,4765,4714,14.37,1.66,29,29,0,0
2.2589e+05,1.1555e+08,4,4707,4642,14.4,1.71,29,29,0,0
2.2633e+05,1.1566e+08,4,4631,4528,14.4,1.6,29,29,0,0
2.2678e+05,1.1576e+08,4,4534,4628,14.41,1.86,29,29,0,0
2.2722e+05,1.1587e+08,4,4622,4571,14.41,1.93,29,29,0,0
2.2763e+05,1.1597e+08,4,4581,4771,14.34,2.22,29,29,0,0
2.2807e+05,1.1608e+08,4,4774,4842,14.36,2.37,29,29,0,0
2.2852e+05,1.162e+08,4,4844,4957,14.43,1.87,29,29,0,0
2.2896e+05,1.163e+08,4,4957,4971,14.4,2.12,29,29,0,0
2.2942e+05,1.1641e+08,4,4962,4842,14.39,1.65,29,29,0,0
2.2986e+05,1.1653e+08,4,4831,4728,14.35,1.9,29,29,0,0
2.3031e+05,1.1664e+08,4,4734,4785,14.45,1.58,29,29,0,0
2.3075e+05,1.1675e+08,4,4768,4600,14.41,1.68,29,30,0,0
2.312e+05,1.1686e+08,4,4609,4742,14.36,2.03,29,30,0,0
2.3165e+05,1.1697e+08,4,4758,4914,14.37,2.03,29,30,0,0
2.3205e+05,1.1707e+08,4,4919,5142,14.38,2.42,29,30,0,0
2.325e+05,1.1718e+08,4,5144,5200,14.32,2.6,29,30,0,0
2.3294e+05,1.1729e+08,4,5212,5385,14.35,2.53,29,30,0,0
2.3342e+05,1.174e+08,4,5373,5257,14.36,2.45,29,30,0,0
2.3387e+05,1.1751e+08,4,5258,5271,14.26,2.49,29,30,0,0
2.3432e+05,1.1762e+08,4,5272,5285,14.27,2.7,29,30,0,0
2.3473e+05,1.1773e+08,4,5283,5257,14.36,2.37,29,30,0,0
2.3513e+05,1.1783e+08,4,5254,5128,14.44,2.44,29,30,0,0
2.3561e+05,1.1794e+08,4,5129,5185,14.36,2.5,29,30,0,0
2.3651e+05,1.1816e+08,4,5177,4957,14.37,1.72,29,31,0,0
2.3696e+05,1.1828e+08,4,4961,5000,14.38,2.65,29,31,0,0
2.3777e+05,1.1848e+08,4,5003,5300,14.35,2.49,29,31,0,0
2.3822e+05,1.1859e+08,4,5300,5328,14.4,2.68,29,31,0,0
2.3867e+05,1.1871e+08,4,5326,5314,14.35,2.67,29,31,0,0
2.3912e+05,1.1882e+08,4,5320,5485,14.41,3.41,29,31,0,0
2.3952e+05,1.1892e+08,4,5492,5628,14.36,2.89,29,31,0,0
2.4082e+05,1.1924e+08,4,5627,5585,14.37,2.85,29,31,0,0
2.4127e+05,1.1935e+08,4,5585,5585,14.39,2.82,29,31,0,0
2.4172e+05,1.1947e+08,4,5578,5514,14.33,2.8,29,32,0,0
2.4216e+05,1.1957e+08,4,5507,5414,14.38,2.63,29,32,0,0
2.4261e+05,1.1969e+08,4,5395,5200,14.35,2.36,29,32,0,0
2.4306e+05,1.198e+08,4,5199,5185,14.36,2.43,29,32,0,0
2.4346e+05,1.199e+08,4,5191,5314,14.32,2.32,29,32,0,0
2.4391e+05,1.2001e+08,4,5315,5328,14.35,2.52,29,32,0,0
2.4435e+05,1.2012e+08,4,5326,5257,14.39,2.21,29,32,0,0
2.448e+05,1.2023e+08,4,5244,5071,14.34,2.22,29,32,0,0
2.4521e+05,1.2033e+08,4,5073,5214,14.43,2.29,29,32,0,0
2.461e+05,1.2055e+08,4,5211,5128,14.32,2.48,29,32,0,0
2.4655e+05,1.2066e+08,4,5136,5300,14.33,2.87,29,32,0,0
2.4788e+05,1.2099e+08,4,5302,5385,14.29,2.72,29,33,0,0
2.4828e+05,1.2109e+08,4,5384,5371,14.34,2.72,29,33,0,0
2.4877e+05,1.2121e+08,4,5371,5371,14.33,2.58,29,33,0,0
2.4923e+05,1.2132e+08,4,5355,5200,14.3,2.73,29,33,0,0
2.4967e+05,1.2142e+08,4,5210,5414,14.35,2.75,29,33,0,0
2.5008e+05,1.2153e+08,4,5408,5200,14.42,2.4,29,33,0,0
2.5057e+05,1.2165e+08,4,5201,5214,14.33,2.53,29,33,0,0
2.5098e+05,1.2175e+08,4,5205,5085,14.28,2.37,29,33,0,0
2.5142e+05,1.2186e+08,4,5079,5000,14.36,2.32,29,33,0,0
2.5187e+05,1.2197e+08,4,4997,4971,14.42,2.09,29,33,0,0
2.5227e+05,1.2207e+08,4,4970,4914,14.39,2.1,29,33,0,0
2.5272e+05,1.2218e+08,4,4915,4971,14.4,2.35,29,33,0,0
2.5321e+05,1.223e+08,4,4982,5214,14.4,2.65,29,33,0,0
2.5366e+05,1.2241e+08,4,5204,5100,14.35,2.84,29,34,0,0
2.5409e+05,1.2251e+08,4,5106,5385,14.39,2.62,29,34,0,0
2.5459e+05,1.2263e+08,4,5383,5371,14.4,2.93,29,34,0,0
2.5499e+05,1.2273e+08,4,5374,5442,14.42,2.88,29,34,0,0
2.5545e+05,1.2285e+08,4,5456,5628,14.39,3.12,29,34,0,0
2.5589e+05,1.2296e+08,4,5588,5214,14.37,2.38,29,34,0,0
2.5629e+05,1.2306e+08,4,5217,5357,14.32,2.76,29,34,0,0
2.5674e+05,1.2318e+08,4,5362,5414,14.32,3.01,29,34,0,0
2.5714e+05,1.2327e+08,4,5415,5442,14.3,2.99,29,34,0,0
2.576e+05,1.2339e+08,4,5440,5428,14.38,2.68,29,34,0,0
2.5801e+05,1.235e+08,4,5424,5385,14.37,2.6,29,34,0,0
2.5845e+05,1.236e+08,4,5378,5228,14.42,2.32,29,34,0,0
2.589e+05,1.2371e+08,4,5220,5114,14.44,1.97,29,35,0,0
2.5939e+05,1.2382e+08,4,5094,4885,14.38,2.19,29,35,0,0
2.5983e+05,1.2393e+08,4,4875,4771,14.38,2.11,29,35,0,0
2.6029e+05,1.2405e+08,4,4767,4742,14.48,1.75,29,35,0,0
2.6068e+05,1.2415e+08,4,4737,4471,14.52,1.41,29,35,0,0
2.6113e+05,1.2426e+08,4,4474,4514,14.52,1.6,29,35,0,0
2.6158e+05,1.2437e+08,4,4512,4485,14.52,1.89,29,35,0,0
2.6199e+05,1.2447e+08,4,4486,4585,14.53,1.89,29,35,0,0
2.6248e+05,1.2459e+08,4,4577,4500,14.47,1.75,29,35,0,0
2.6284e+05,1.2469e+08,4,4502,4657,14.44,2.18,29,35,0,0
2.6333e+05,1.248e+08,4,4670,4928,14.41,2.67,29,35,0,0
2.6378e+05,1.2492e+08,4,4942,5100,14.49,2.7,29,35,0,0
2.6423e+05,1.2502e+08,4,5110,5228,14.41,2.5,29,35,0,0
2.6463e+05,1.2512e+08,4,5232,5485,14.45,2.83,29,35,0,0
2.6512e+05,1.2524e+08,4,5483,5471,14.45,2.95,29,35,0,0
2.6552e+05,1.2534e+08,4,5481,5742,14.43,3.3,29,35,0,0
2.6597e+05,1.2545e+08,4,5737,5457,14.36,2.98,29,36,0,0
2.6646e+05,1.2556e+08,4,5459,5485,14.47,2.52,29,36,0,0
2.6686e+05,1.2567e+08,4,5485,5500,14.31,3.06,29,36,0,0
2.678e+05,1.2589e+08,4,5511,5771,14.35,3.57,29,36,0,0
2.682e+05,1.26e+08,4,5779,5885,14.39,3.15,29,36,0,0
2.6865e+05,1.2611e+08,4,5885,5885,14.38,3.33,29,36,0,0
2.691e+05,1.2622e+08,4,5869,5714,14.39,3.4,29,36,0,0
2.6991e+05,1.2642e+08,4,5713,5585,14.38,2.98,29,36,0,0
2.7035e+05,1.2653e+08,4,5576,5414,14.37,2.95,29,37,0,0
2.708e+05,1.2665e+08,4,5413,5400,14.42,2.63,29,37,0,0
2.7125e+05,1.2675e+08,4,5391,5228,14.42,2.35,29,37,0,0
2.717e+05,1.2686e+08,4,5217,5071,14.4,2.32,29,37,0,0
2.7258e+05,1.2708e+08,4,5077,5214,14.4,2.61,29,37,0,0
2.7304e+05,1.2719e+08,4,5220,5300,14.38,2.8,29,37,0,0
2.7348e+05,1.2731e+08,4,5316,5428,14.43,2.65,29,37,0,0
2.7437e+05,1.2752e+08,4,5425,5385,14.39,3.07,29,37,0,0
2.7478e+05,1.2762e+08,4,5396,5514,14.41,2.88,29,37,0,0
2.7519e+05,1.2773e+08,4,5496,5342,14.39,2.79,29,37,0,0
2.7564e+05,1.2784e+08,4,5344,5557,14.41,2.87,29,38,0,0
2.7612e+05,1.2795e+08,4,5555,5542,14.45,2.77,29,38,0,0
2.7656e+05,1.2807e+08,4,5532,5414,14.42,2.66,29,38,0,0
2.7701e+05,1.2817e+08,4,5419,5471,14.39,2.63,29,38,0,0
2.7786e+05,1.2838e+08,4,5470,5342,14.36,2.72,29,38,0,0
2.7879e+05,1.286e+08,4,5340,5314,14.42,2.5,29,38,0,0
2.7915e+05,1.287e+08,4,5313,5271,14.39,2.54,29,38,0,0
2.7965e+05,1.2881e+08,4,5267,5228,14.41,2.42,29,38,0,0
2.805e+05,1.2903e+08,4,5226,5200,14.41,2.47,29,38,0,0
2.8094e+05,1.2914e+08,4,5200,5214,14.36,2.71,29,39,0,0
2.818e+05,1.2935e+08,4,5215,5271,14.39,2.72,29,39,0,0
2.8224e+05,1.2946e+08,4,5263,5157,14.42,2.59,29,39,0,0
2.8269e+05,1.2957e+08,4,5157,5157,14.42,2.61,29,39,0,0
2.8314e+05,1.2968e+08,4,5164,5285,14.39,2.57,29,39,0,0
2.8359e+05,1.2979e+08,4,5282,5257,14.36,2.7,29,39,0,0
2.8448e+05,1.3001e+08,4,5260,5371,14.4,2.75,29,39,0,0
2.8488e+05,1.3012e+08,4,5368,5242,14.41,2.52,29,39,0,0
2.8538e+05,1.3023e+08,4,5252,5357,14.41,2.71,29,39,0,0
2.8582e+05,1.3034e+08,4,5359,5414,14.36,2.6,29,39,0,0
2.8623e+05,1.3044e+08,4,5412,5385,14.42,2.66,29,39,0,0
2.8667e+05,1.3055e+08,4,5382,5314,14.31,2.56,29,40,0,0
2.8719e+05,1.3067e+08,4,5308,5228,14.44,2.61,29,40,0,0
2.876e+05,1.3077e+08,4,5232,5285,14.39,2.54,29,40,0,0
2.88e+05,1.3087e+08,4,5284,5257,14.41,2.6,29,40,0,0
2.8846e+05,1.3098e+08,4,5255,5228,14.38,2.75,29,40,0,0
2.889e+05,1.3109e+08,4,5233,5371,14.32,2.91,29,40,0,0
2.8979e+05,1.3131e+08,4,5383,5728,14.2,3.42,29,40,0,0
2.9024e+05,1.3142e+08,4,5730,5771,14.36,3.16,29,40,0,0
2.9068e+05,1.3153e+08,4,5758,5628,14.32,2.67,29,40,0,0
2.9117e+05,1.3164e+08,4,5590,5314,14.28,2.59,29,40,0,0
2.9162e+05,1.3175e+08,4,5312,5300,14.3,2.32,29,40,0,0
2.9206e+05,1.3187e+08,4,5312,5442,14.41,3.04,29,41,0,0
2.9247e+05,1.3196e+08,4,5435,5314,14.36,2.45,29,41,0,0
2.9291e+05,1.3207e+08,4,5308,5242,14.36,2.41,29,41,0,0
2.9336e+05,1.3218e+08,4,5235,5142,14.38,2.54,29,41,0,0
2.9376e+05,1.3228e+08,4,5141,5114,14.4,2.43,29,41,0,0
2.9425e+05,1.324e+08,4,5118,5171,14.38,2.76,29,41,0,0
2.947e+05,1.3251e+08,4,5169,5157,14.41,2.4,29,41,0,0
2.9518e+05,1.3262e+08,4,5164,5242,14.42,2.46,29,41,0,0
2.9558e+05,1.3273e+08,4,5242,5242,14.42,2.59,29,41,0,0
2.9608e+05,1.3285e+08,4,5248,5314,14.38,2.7,29,41,0,0
2.9693e+05,1.3306e+08,4,5319,5428,14.38,2.7,29,41,0,0
2.9737e+05,1.3316e+08,4,5424,5385,14.33,2.69,29,41,0,0
2.9774e+05,1.3326e+08,4,5385,5428,14.36,2.85,29,42,0,0
2.9823e+05,1.3338e+08,4,5415,5242,14.4,2.46,29,42,0,0
2.9863e+05,1.3348e+08,4,5246,5514,14.35,2.89,29,42,0,0
2.9912e+05,1.336e+08,4,5506,5428,14.39,2.7,29,42,0,0
2.9952e+05,1.337e+08,4,5429,5514,14.38,2.89,29,42,0,0
3.0001e+05,1.3382e+08,4,5514,5514,14.4,3,29,42,0,0
3.0041e+05,1.3392e+08,4,5512,5485,14.46,2.65,29,42,0,0
3.0089e+05,1.3403e+08,4,5487,5571,14.39,2.63,30,42,0,0
3.0134e+05,1.3414e+08,4,5568,5514,14.38,2.99,29,42,0,0
3.0179e+05,1.3426e+08,4,5499,5400,14.4,2.81,29,42,0,0
3.022e+05,1.3436e+08,4,5400,5414,14.34,2.94,29,42,0,0
3.0264e+05,1.3447e+08,4,5419,5471,14.42,2.78,30,42,0,0
3.0313e+05,1.3459e+08,4,5462,5357,14.36,2.62,29,43,0,0
3.0357e+05,1.347e+08,4,5367,5428,14.34,3,29,43,0,0
3.0398e+05,1.3479e+08,4,5425,5328,14.41,2.46,29,43,0,0
3.0442e+05,1.349e+08,4,5329,5342,14.41,2.47,29,43,0,0
3.0487e+05,1.3502e+08,4,5346,5385,14.38,2.4,29,43,0,0
3.0528e+05,1.3512e+08,4,5377,5285,14.4,2.44,29,43,0,0
3.0572e+05,1.3523e+08,4,5268,5142,14.43,2.14,29,43,0,0
3.0658e+05,1.3544e+08,4,5140,5042,14.34,2.56,30,43,0,0
3.0703e+05,1.3556e+08,4,5045,5085,14.43,2.15,30,43,0,0
3.0748e+05,1.3567e+08,4,5076,5000,14.42,2.29,29,43,0,0
3.0793e+05,1.3578e+08,4,4996,4971,14.39,2.34,30,43,0,0
3.0838e+05,1.3588e+08,4,4974,5028,14.43,2.2,29,43,0,0
3.0882e+05,1.3599e+08,4,5025,4971,14.42,2.06,29,43,0,0
3.0927e+05,1.3611e+08,4,4964,4900,14.46,2.1,29,44,0,0
3.0968e+05,1.3621e+08,4,4890,4671,14.47,1.67,29,44,0,0
3.1016e+05,1.3633e+08,4,4664,4600,14.48,2.09,29,44,0,0
3.1061e+05,1.3643e+08,4,4601,4628,14.51,2.1,29,44,0,0
3.1101e+05,1.3654e+08,4,4633,4742,14.39,1.99,30,44,0,0
3.115e+05,1.3666e+08,4,4734,4657,14.41,1.86,29,44,0,0
3.1191e+05,1.3675e+08,4,4656,4642,14.44,1.75,30,44,0,0
3.1235e+05,1.3687e+08,4,4640,4585,14.48,1.91,30,44,0,0
3.128e+05,1.3697e+08,4,4496,3628,14.97,0.43,29,44,0,0
3.1324e+05,1.3708e+08,4,3643,3871,14.83,0.79,29,44,0,0
3.1365e+05,1.3718e+08,4,3852,2571,14.85,0.07,30,44,0,0
3.1414e+05,1.373e+08,4,2543,2257,14.84,0.36,29,44,0,0
3.1455e+05,1.374e+08,4,2259,2314,14.86,0.29,30,44,0,0
3.1499e+05,1.3751e+08,4,2302,2142,14.83,0.21,29,44,0,0
3.1544e+05,1.3762e+08,4,2148,2271,14.87,0.35,29,44,0,0
3.1589e+05,1.3773e+08,4,2267,2228,14.85,0.22,29,44,0,0
3.1673e+05,1.3794e+08,4,2227,2214,14.86,0.24,29,44,0,0
3.1718e+05,1.3805e+08,4,2211,2171,14.88,0.29,29,44,0,0
3.1852e+05,1.3838e+08,4,2171,2200,14.88,0.27,29,44,0,0
3.1892e+05,1.3848e+08,4,2198,2128,14.88,0.22,29,44,0,0
3.1941e+05,1.3859e+08,4,2124,2071,14.88,0.21,29,44,0,0
3.199e+05,1.3871e+08,4,2067,2028,14.88,0.2,29,44,0,0
3.2034e+05,1.3881e+08,4,2026,2000,14.88,0.2,29,44,0,0
3.2078e+05,1.3892e+08,4,1997,1971,14.98,0.11,29,44,0,0
3.2124e+05,1.3903e+08,4,1938,1571,14.95,0.01,29,44,0,0
3.2172e+05,1.3914e+08,4,1548,1314,14.94,0.04,29,44,0,0
3.2217e+05,1.3925e+08,4,1305,1242,14.94,0.09,29,44,0,0
3.2261e+05,1.3936e+08,4,1242,1242,14.93,0.09,29,44,0,0
3.2306e+05,1.3946e+08,4,1240,1228,14.93,0.09,29,44,0,0
3.2351e+05,1.3957e+08,4,1228,1228,14.94,0.09,29,44,0,0
3.2399e+05,1.3968e+08,4,1228,1228,14.94,0.09,29,44,0,0
3.2445e+05,1.3979e+08,4,1228,1228,14.94,0.09,29,44,0,0
3.2485e+05,1.3989e+08,4,1228,1228,14.94,0.09,29,44,0,0
3.253e+05,1.4e+08,4,1228,1228,14.94,0.09,29,44,0,0
3.2575e+05,1.4011e+08,4,1228,1228,14.94,0.09,29,44,0,0
3.2624e+05,1.4023e+08,4,1228,1228,14.94,0.09,29,44,0,0
3.2667e+05,1.4033e+08,4,1228,1228,14.94,0.09,29,44,0,0
3.2716e+05,1.4045e+08,4,1228,1228,14.95,0.09,29,44,0,0
3.2757e+05,1.4055e+08,4,1228,1228,14.94,0.09,29,44,0,0
3.2802e+05,1.4066e+08,4,1228,1228,14.95,0.09,29,44,0,0
3.2842e+05,1.4076e+08,4,1228,1228,14.95,0.09,29,44,0,0
3.2887e+05,1.4087e+08,4,1228,1228,14.95,0.1,29,44,0,0
3.2932e+05,1.4098e+08,4,1228,1228,14.97,0.09,29,44,0,0
3.2977e+05,1.4109e+08,4,1228,1228,14.95,0.09,29,44,0,0
3.3022e+05,1.412e+08,4,1228,1228,14.96,0.09,29,44,0,0
3.3066e+05,1.4131e+08,4,1228,1228,14.95,0.09,29,44,0,0
3.3111e+05,1.4141e+08,4,1228,1228,14.96,0.09,29,44,0,0
3.3201e+05,1.4162e+08,4,1228,1228,14.96,0.09,29,44,0,0
3.3245e+05,1.4173e+08,4,1228,1228,14.96,0.09,29,44,0,0
3.3286e+05,1.4184e+08,4,1228,1228,14.97,0.1,29,44,0,0
3.3335e+05,1.4195e+08,4,1228,1228,14.97,0.1,29,44,0,0
3.338e+05,1.4206e+08,4,1228,1228,14.97,0.09,29,44,0,0
3.3424e+05,1.4217e+08,4,1228,1228,14.98,0.09,29,44,0,0
3.3449e+05,1.4228e+08,4,1228,1228,14.97,0.1,29,44,0,0
3.3522e+05,1.4248e+08,4,1228,1228,14.97,0.09,29,44,0,0
3.3567e+05,1.4259e+08,4,1228,1228,14.97,0.09,29,44,0,0
3.3612e+05,1.427e+08,4,1228,1228,14.98,0.09,29,44,0,0
3.3657e+05,1.4281e+08,4,1228,1228,14.98,0.09,29,44,0,0
3.3701e+05,1.4292e+08,4,1228,1228,14.98,0.09,29,44,0,0
3.3746e+05,1.4302e+08,4,1228,1228,14.98,0.09,29,44,0,0
3.3791e+05,1.4313e+08,4,1228,1228,14.98,0.09,29,44,0,0
3.3836e+05,1.4325e+08,4,1228,1228,14.98,0.09,29,44,0,0
3.3881e+05,1.4335e+08,4,1228,1228,14.98,0.1,29,44,0,0
3.3925e+05,1.4346e+08,4,1228,1228,14.99,0.09,29,44,0,0
3.3974e+05,1.4357e+08,4,1228,1228,14.99,0.1,29,44,0,0
3.4019e+05,1.4368e+08,4,1228,1228,14.98,0.09,29,44,0,0
3.4064e+05,1.4379e+08,4,1228,1228,14.98,0.09,29,44,0,0
3.4109e+05,1.439e+08,4,1228,1228,14.99,0.1,29,44,0,0
3.4154e+05,1.4401e+08,4,1228,1228,14.99,0.1,29,44,0,0
3.4199e+05,1.4412e+08,4,1229,1242,15,0.1,29,44,0,0
3.4284e+05,1.4433e+08,4,1241,1228,15,0.1,29,44,0,0
3.4329e+05,1.4443e+08,4,1228,1228,14.99,0.09,29,44,0,0
3.4373e+05,1.4455e+08,4,1228,1228,14.99,0.1,29,44,0,0
3.4419e+05,1.4466e+08,4,1228,1228,14.99,0.09,29,44,0,0
3.4463e+05,1.4477e+08,4,1228,1228,15,0.1,29,44,0,0
3.4508e+05,1.4487e+08,4,1228,1228,15,0.1,29,44,0,0
3.4552e+05,1.4498e+08,4,1228,1228,15,0.1,29,44,0,0
3.4597e+05,1.4508e+08,4,1228,1228,15,0.09,29,44,0,0
3.4641e+05,1.4519e+08,4,1228,1228,15,0.1,29,44,0,0
3.469e+05,1.4531e+08,4,1228,1228,15,0.09,29,44,0,0
3.4734e+05,1.4541e+08,4,1228,1228,15,0.09,29,44,0,0
3.482e+05,1.4562e+08,4,1228,1242,15.01,0.09,29,44,0,0
3.4865e+05,1.4573e+08,4,1241,1228,15.01,0.09,29,44,0,0
3.491e+05,1.4584e+08,4,1228,1242,15,0.09,29,44,0,0
3.496e+05,1.4596e+08,4,1242,1242,15.01,0.09,29,44,0,0
3.5005e+05,1.4607e+08,4,1242,1242,15.01,0.09,29,44,0,0
3.5049e+05,1.4617e+08,4,1241,1228,15,0.09,29,44,0,0
3.509e+05,1.4627e+08,4,1228,1228,15.01,0.09,29,44,0,0
3.5138e+05,1.4639e+08,4,1228,1228,15.01,0.1,29,44,0,0
3.5183e+05,1.4649e+08,4,1228,1228,15.01,0.09,29,44,0,0
3.5232e+05,1.4661e+08,4,1228,1228,15.01,0.1,29,44,0,0
3.5272e+05,1.4671e+08,4,1228,1228,15.01,0.1,29,44,0,0
3.5318e+05,1.4682e+08,4,1228,1228,15.01,0.1,29,44,0,0
3.5362e+05,1.4692e+08,4,1228,1228,15.01,0.1,29,44,0,0
3.5407e+05,1.4703e+08,4,1228,1228,15.02,0.1,29,44,0,0
3.5452e+05,1.4714e+08,4,1228,1228,15.01,0.1,29,44,0,0
3.5496e+05,1.4725e+08,4,1228,1228,15.02,0.1,29,44,0,0
3.5545e+05,1.4736e+08,4,1228,1228,15.01,0.1,29,44,0,0
3.559e+05,1.4747e+08,4,1228,1228,15.02,0.1,29,44,0,0
3.5634e+05,1.4757e+08,4,1228,1228,15.02,0.1,29,44,0,0
3.5678e+05,1.4768e+08,4,1228,1228,15.02,0.1,29,44,0,0
3.5723e+05,1.4779e+08,4,1228,1242,15.02,0.09,29,44,0,0
3.5769e+05,1.4791e+08,4,1240,1228,15.02,0.09,29,44,0,0
3.5813e+05,1.4802e+08,4,1228,1228,15.02,0.1,29,44,0,0
3.5854e+05,1.4812e+08,4,1228,1228,15.01,0.09,29,44,0,0
3.5947e+05,1.4834e+08,4,1228,1228,15.02,0.1,29,44,0,0
3.5987e+05,1.4844e+08,4,1228,1242,15.02,0.09,29,44,0,0
3.6032e+05,1.4855e+08,4,1242,1242,15.03,0.1,29,44,0,0
3.608e+05,1.4866e+08,4,1240,1228,15.02,0.1,29,44,0,0
3.6125e+05,1.4877e+08,4,1228,1228,15.02,0.09,29,44,0,0
3.617e+05,1.4888e+08,4,1228,1228,15.03,0.09,29,44,0,0
3.6217e+05,1.4899e+08,4,1176,614,15.04,0.01,28,44,0,0
3.6255e+05,1.4909e+08,4,608,257,15.04,0.02,29,44,0,0
3.63e+05,1.492e+08,4,234,0,15.04,0.03,28,44,0,0
3.6344e+05,1.4932e+08,4,0,0,15.04,0.03,28,44,0,0
3.6385e+05,1.4942e+08,4,0,0,15.04,0.03,28,44,0,0
3.6427e+05,1.4953e+08,4,0,0,15.04,0.03,28,44,0,0
3.6468e+05,1.4963e+08,4,0,0,15.05,0.03,28,44,0,0
3.6513e+05,1.4974e+08,4,0,0,15.05,0.03,28,44,0,0
3.6554e+05,1.4985e+08,4,0,0,15.05,0.03,28,44,0,0
3.6599e+05,1.4996e+08,4,0,0,15.04,0.02,28,44,0,0
3.6683e+05,1.5018e+08,4,0,0,15.05,0.03,28,44,0,0
3.6724e+05,1.5028e+08,4,0,0,15.05,0.03,28,44,0,0
3.6769e+05,1.5039e+08,4,0,0,15.05,0.03,28,44,0,0
3.681e+05,1.505e+08,4,0,0,15.05,0.03,28,44,0,0
3.6852e+05,1.5061e+08,4,0,0,15.05,0.03,28,44,0,0
3.6893e+05,1.5072e+08,4,0,0,15.05,0.03,28,44,0,0
3.6935e+05,1.5082e+08,4,0,0,15.05,0.03,28,44,0,0
3.6976e+05,1.5093e+08,4,0,0,15.05,0.03,28,44,0,0
3.7018e+05,1.5103e+08,4,0,0,15.05,0.03,28,44,0,0
3.7062e+05,1.5115e+08,4,0,0,15.05,0.03,28,44,0,0
3.7104e+05,1.5125e+08,4,0,0,15.05,0.03,28,44,0,0
3.7145e+05,1.5135e+08,4,0,0,15.05,0.03,28,44,0,0
3.719e+05,1.5147e+08,4,0,0,15.05,0.03,28,44,0,0
3.7231e+05,1.5157e+08,4,0,0,15.06,0.03,28,44,0,0
3.7272e+05,1.5168e+08,4,0,0,15.06,0.03,28,44,0,0
3.7314e+05,1.5178e+08,4,0,0,15.06,0.02,28,44,0,0
3.7359e+05,1.519e+08,4,0,0,15.05,0.03,28,44,0,0
3.74e+05,1.52e+08,4,0,0,15.05,0.03,28,44,0,0
3.7442e+05,1.5211e+08,4,0,0,15.05,0.03,28,44,0,0
3.7487e+05,1.5223e+08,4,0,0,15.06,0.03,28,44,0,0
3.7528e+05,1.5233e+08,4,0,0,15.06,0.03,28,44,0,0
3.7569e+05,1.5244e+08,4,0,0,15.06,0.03,28,44,0,0
3.7651e+05,1.5265e+08,4,0,0,15.06,0.03,28,44,0,0
3.7692e+05,1.5275e+08,4,0,0,15.07,0.03,28,44,0,0
3.7734e+05,1.5287e+08,4,0,0,15.06,0.03,28,44,0,0
3.7776e+05,1.5297e+08,4,0,0,15.07,0.03,28,44,0,0
3.782e+05,1.5308e+08,4,0,0,15.06,0.03,28,44,0,0
3.7866e+05,1.532e+08,4,0,0,15.07,0.03,28,44,0,0
3.7903e+05,1.533e+08,4,0,0,15.06,0.03,28,44,0,0
3.7948e+05,1.5341e+08,4,0,0,15.07,0.03,28,44,0,0
3.7989e+05,1.5352e+08,4,0,0,15.07,0.03,28,44,0,0
3.803e+05,1.5362e+08,4,0,0,15.07,0.03,28,45,0,0
3.8075e+05,1.5374e+08,4,0,0,15.07,0.03,28,45,0,0
3.8116e+05,1.5384e+08,4,0,0,15.07,0.03,28,45,0,0
3.8158e+05,1.5395e+08,4,0,0,15.07,0.03,28,45,0,0
3.8199e+05,1.5405e+08,4,0,0,15.07,0.03,28,45,0,0
3.824e+05,1.5416e+08,4,0,0,15.07,0.03,28,45,0,0
3.8285e+05,1.5427e+08,4,0,0,15.07,0.03,28,45,0,0
3.8326e+05,1.5438e+08,4,0,0,15.07,0.03,28,45,0,0
3.8368e+05,1.5448e+08,4,0,0,15.07,0.03,28,45,0,0
3.8413e+05,1.5459e+08,4,0,0,15.07,0.03,28,45,0,0
3.8455e+05,1.5471e+08,4,0,0,15.07,0.03,28,45,0,0
3.85e+05,1.5482e+08,4,0,0,15.07,0.03,28,45,0,0
3.8537e+05,1.5491e+08,4,0,0,15.07,0.03,28,45,0,0
3.8583e+05,1.5503e+08,4,0,0,15.07,0.03,28,45,0,0
3.8627e+05,1.5514e+08,4,0,0,15.07,0.03,28,45,0,0
3.8709e+05,1.5535e+08,4,0,0,15.07,0.03,28,45,0,0
3.875e+05,1.5545e+08,4,0,0,15.07,0.03,28,45,0,0
3.884e+05,1.5568e+08,4,0,0,15.08,0.03,28,45,0,0
3.8882e+05,1.5578e+08,4,0,0,15.08,0.03,28,45,0,0
3.8923e+05,1.5589e+08,4,0,0,15.07,0.03,28,45,0,0
3.8964e+05,1.5599e+08,4,0,0,15.08,0.03,28,45,0,0
3.9009e+05,1.5611e+08,4,0,0,15.08,0.03,28,45,0,0
3.905e+05,1.5621e+08,4,0,0,15.08,0.03,28,45,0,0
3.9091e+05,1.5632e+08,4,0,0,15.07,0.03,28,45,0,0
