LineNo,TimeUS,Instance,RPM,RawRPM,Volt,Curr,Temp,CTot,MotTemp,Err
1805,60156306,1,0,0,15.45,0.03,22,0,0,0
2226,60264512,1,0,0,15.45,0.04,23,0,0,0
2641,60367887,1,0,0,15.45,0.04,23,0,0,0
3053,60470748,1,0,0,15.45,0.04,23,0,0,0
3506,60581870,1,0,0,15.45,0.04,23,0,0,0
3952,60693865,1,0,0,15.45,0.04,23,0,0,0
4371,60799093,1,0,0,15.45,0.04,23,0,0,0
4786,60905120,1,0,0,15.45,0.04,23,0,0,0
5194,61010129,1,0,0,15.45,0.04,23,0,0,0
5649,61122840,1,0,0,15.45,0.03,23,0,0,0
6061,61228022,1,0,0,15.45,0.04,23,0,0,0
6472,61331478,1,0,0,15.45,0.04,23,0,0,0
6928,61446859,1,0,0,15.45,0.04,23,0,0,0
7343,61554001,1,0,0,15.45,0.04,23,0,0,0
7759,61659018,1,0,0,15.45,0.04,23,0,0,0
8174,61765824,1,0,0,15.45,0.04,23,0,0,0
8592,61868855,1,0,0,15.45,0.04,23,0,0,0
9045,61981570,1,0,0,15.45,0.04,23,0,0,0
9462,62090309,1,0,0,15.45,0.04,23,0,0,0
9876,62197330,1,0,0,15.45,0.04,23,0,0,0
10291,62297289,1,0,0,15.45,0.04,23,0,0,0
10670,62416379,1,0,0,15.45,0.04,23,0,0,0
11072,62514361,1,0,0,15.45,0.04,23,0,0,0
11494,62625129,1,0,0,15.45,0.04,23,0,0,0
11942,62737538,1,0,0,15.45,0.04,23,0,0,0
12360,62840820,1,0,0,15.45,0.04,23,0,0,0
12810,62954112,1,0,0,15.46,0.04,23,0,0,0
13218,63056701,1,0,0,15.45,0.04,23,0,0,0
13666,63168947,1,0,0,15.45,0.04,23,0,0,0
14084,63273802,1,0,0,15.45,0.04,23,0,0,0
14538,63384521,1,0,0,15.45,0.04,23,0,0,0
14945,63489047,1,0,0,15.45,0.04,23,0,0,0
15367,63593121,1,0,0,15.45,0.04,23,0,0,0
15778,63697898,1,0,0,15.45,0.04,23,0,0,0
16236,63811871,1,0,0,15.45,0.04,23,0,0,0
16652,63915878,1,0,0,15.45,0.03,23,0,0,0
17102,64028880,1,0,0,15.45,0.04,23,0,0,0
17515,64135726,1,0,0,15.44,0.04,23,0,0,0
17926,64240938,1,0,0,15.45,0.04,23,0,0,0
18342,64343460,1,0,0,15.45,0.04,23,0,0,0
18791,64457471,1,0,0,15.45,0.04,23,0,0,0
19244,64568215,1,0,0,15.45,0.04,23,0,0,0
19654,64671409,1,0,0,15.45,0.04,23,0,0,0
20040,64775251,1,0,0,15.45,0.04,23,0,0,0
20528,64894548,1,0,0,15.46,0.04,23,0,0,0
20944,64998913,1,0,0,15.45,0.04,23,0,0,0
21325,65101974,1,0,0,15.45,0.04,23,0,0,0
21777,65213401,1,0,0,15.45,0.04,23,0,0,0
22189,65316078,1,0,0,15.45,0.04,23,0,0,0
22644,65428049,1,0,0,15.45,0.04,23,0,0,0
23467,65637365,1,0,0,15.45,0.04,23,0,0,0
23930,65756036,1,0,0,15.45,0.04,23,0,0,0
24337,65856989,1,0,0,15.45,0.04,23,0,0,0
24790,65970539,1,0,0,15.45,0.04,23,0,0,0
25616,66181961,1,0,0,15.45,0.04,23,0,0,0
26034,66289938,1,0,0,15.45,0.04,23,0,0,0
26487,66403299,1,0,0,15.45,0.04,23,0,0,0
26859,66501118,1,0,0,15.45,0.04,23,0,0,0
27313,66613268,1,0,0,15.46,0.04,23,0,0,0
27724,66718367,1,0,0,15.45,0.04,23,0,0,0
28181,66831052,1,0,0,15.45,0.04,23,0,0,0
28595,66937693,1,0,0,15.45,0.04,23,0,0,0
29039,67046350,1,0,0,15.45,0.04,23,0,0,0
29457,67151374,1,0,0,15.45,0.04,23,0,0,0
29868,67259935,1,0,0,15.45,0.04,23,0,0,0
30322,67370650,1,0,0,15.45,0.04,23,0,0,0
30730,67473423,1,0,0,15.45,0.04,23,0,0,0
31185,67587486,1,0,0,15.45,0.04,23,0,0,0
31596,67691487,1,0,0,15.45,0.04,23,0,0,0
32012,67793868,1,0,0,15.45,0.04,23,0,0,0
32471,67910100,1,0,0,15.45,0.04,23,0,0,0
32884,68011254,1,0,0,15.45,0.04,23,0,0,0
33295,68117707,1,0,0,15.45,0.04,23,0,0,0
33749,68230100,1,0,0,15.45,0.04,23,0,0,0
34159,68331903,1,0,0,15.45,0.04,23,0,0,0
34614,68444091,1,0,0,15.45,0.04,23,0,0,0
35021,68547525,1,0,0,15.45,0.04,23,0,0,0
35433,68653913,1,0,0,15.45,0.04,23,0,0,0
35888,68766024,1,0,0,15.45,0.04,23,0,0,0
36335,68878378,1,0,0,15.45,0.04,23,0,0,0
36749,68980380,1,0,0,15.45,0.04,23,0,0,0
37162,69085471,1,0,0,15.45,0.04,23,0,0,0
37615,69198299,1,0,0,15.45,0.04,23,0,0,0
38032,69306216,1,0,0,15.45,0.04,23,0,0,0
38447,69410931,1,0,0,15.45,0.04,23,0,0,0
38859,69517792,1,0,0,15.45,0.04,23,0,0,0
39273,69621948,1,0,0,15.45,0.04,23,0,0,0
39725,69735036,1,0,0,15.45,0.04,23,0,0,0
40138,69839062,1,0,0,15.45,0.04,23,0,0,0
40585,69951008,1,0,0,15.45,0.04,23,0,0,0
41002,70060714,1,0,0,15.45,0.04,23,0,0,0
41458,70173875,1,0,0,15.45,0.04,23,0,0,0
41869,70278832,1,0,0,15.45,0.04,23,0,0,0
42324,70390046,1,0,0,15.45,0.04,23,0,0,0
42740,70498805,1,0,0,15.45,0.04,23,0,0,0
43157,70604982,1,0,0,15.45,0.04,23,0,0,0
43571,70712888,1,0,0,15.45,0.04,23,0,0,0
43986,70814939,1,0,0,15.45,0.04,23,0,0,0
44402,70923329,1,0,0,15.45,0.04,23,0,0,0
44857,71036236,1,0,0,15.45,0.04,23,0,0,0
45269,71142327,1,0,0,15.45,0.03,23,0,0,0
45685,71245266,1,0,0,15.45,0.03,23,0,0,0
46135,71361069,1,0,0,15.45,0.04,23,0,0,0
46544,71465550,1,0,0,15.45,0.04,23,0,0,0
46961,71571080,1,0,0,15.45,0.04,23,0,0,0
47374,71678486,1,0,0,15.45,0.04,23,0,0,0
47829,71792522,1,0,0,15.45,0.04,23,0,0,0
48265,71898937,1,0,0,15.45,0.04,23,0,0,0
48718,72005005,1,0,0,15.45,0.03,23,0,0,0
49174,72112481,1,0,0,15.45,0.04,23,0,0,0
49629,72215702,1,0,0,15.45,0.04,23,0,0,0
50080,72325856,1,0,0,15.45,0.04,23,0,0,0
50579,72441832,1,0,0,15.45,0.04,23,0,0,0
51030,72543713,1,0,0,15.45,0.04,23,0,0,0
51524,72657666,1,0,0,15.45,0.04,23,0,0,0
51979,72760829,1,0,0,15.45,0.04,23,0,0,0
52432,72865876,1,0,0,15.45,0.04,23,0,0,0
52929,72978871,1,0,0,15.45,0.04,23,0,0,0
53381,73084298,1,0,0,15.45,0.04,23,0,0,0
53874,73196928,1,0,0,15.45,0.03,23,0,0,0
54287,73296826,1,0,0,15.45,0.04,23,0,0,0
54782,73410514,1,0,0,15.45,0.04,23,0,0,0
55233,73517040,1,0,0,15.45,0.04,23,0,0,0
55691,73621311,1,0,0,15.45,0.04,23,0,0,0
56189,73738289,1,0,0,15.46,0.04,23,0,0,0
56641,73845372,1,0,0,15.45,0.04,23,0,0,0
57320,74052485,1,137,557,15.42,0.09,23,0,0,0
57815,74164467,1,572,942,15.42,0.15,23,0,0,0
58266,74269085,1,950,1142,15.44,0.12,23,0,0,0
58763,74383218,1,1147,1200,15.43,0.11,23,0,0,0
59217,74491985,1,1200,1214,15.44,0.11,23,0,0,0
59670,74596295,1,1214,1228,15.43,0.11,23,0,0,0
60127,74704932,1,1228,1228,15.43,0.11,23,0,0,0
60578,74806281,1,1228,1242,15.44,0.11,23,0,0,0
61075,74920710,1,1242,1242,15.44,0.11,23,0,0,0
61790,75138945,1,1242,1242,15.43,0.11,23,0,0,0
62696,75346292,1,1242,1242,15.44,0.11,23,0,0,0
63155,75457842,1,1242,1242,15.44,0.09999999,23,0,0,0
63613,75565827,1,1242,1242,15.44,0.11,23,0,0,0
64063,75670045,1,1242,1242,15.44,0.11,23,0,0,0
64569,75788814,1,1242,1242,15.44,0.11,23,0,0,0
64980,75887263,1,1249,1414,15.41,0.22,23,0,0,0
65478,75999304,1,1448,1928,15.32,0.52,23,0,0,0
65932,76109521,1,1953,2271,15.24,0.86,23,0,0,0
66385,76213242,1,2289,2685,15.25,1.2,23,0,0,0
66881,76330384,1,2736,3300,15.14,1.5,23,0,0,0
67334,76441495,1,3384,4000,15.01,2.28,23,0,0,0
67785,76549550,1,4038,4428,14.99,2.51,23,0,0,0
68237,76656018,1,4488,5028,14.81,2.91,23,0,0,0
68692,76764924,1,5062,5400,14.75,3.56,23,0,0,0
69101,76864294,1,5417,5742,14.73,3.28,23,0,0,0
69597,76980701,1,5727,5585,14.75,2.61,23,1,0,0
70047,77089795,1,5585,5585,14.72,2.93,23,1,0,0
70502,77194505,1,5581,5342,14.8,2.34,23,1,0,0
70996,77310288,1,5329,5114,14.76,1.96,23,1,0,0
71451,77417581,1,5116,5157,14.79,2.39,23,1,0,0
71908,77527902,1,5155,5128,14.76,2.3,23,1,0,0
72363,77636062,1,5126,5100,14.83,2.09,23,1,0,0
72820,77748474,1,5090,5000,14.79,1.94,23,1,0,0
73231,77849251,1,4995,4885,14.82,1.99,23,1,0,0
73731,77967175,1,4888,4928,14.82,2.1,23,1,0,0
74178,78071803,1,4926,4885,14.8,1.96,23,1,0,0
74676,78188367,1,4896,5014,14.82,2.1,23,1,0,0
75092,78292125,1,5014,5028,14.82,2.26,23,1,0,0
76037,78518249,1,5028,5042,14.7,2.11,23,1,0,0
76495,78625685,1,5047,5100,14.72,2.22,23,1,0,0
76903,78726149,1,5096,5042,14.73,2.14,23,2,0,0
77399,78838907,1,5042,5042,14.79,2.31,23,2,0,0
77847,78945148,1,5046,5114,14.74,2.4,24,2,0,0
78334,79069052,1,5119,5171,14.77,2.44,23,2,0,0
78790,79178277,1,5177,5242,14.75,2.37,24,2,0,0
79191,79280527,1,5242,5257,14.76,2.41,24,2,0,0
79642,79387466,1,5257,5257,14.69,2.58,24,2,0,0
80535,79611325,1,5265,5442,14.73,2.83,24,2,0,0
81392,79822512,1,5441,5314,14.77,2.34,24,2,0,0
81799,79924883,1,5313,5285,14.8,2.24,24,2,0,0
82254,80036959,1,5282,5157,14.76,2.38,24,2,0,0
82696,80146045,1,5150,5085,14.73,1.99,24,3,0,0
83181,80259794,1,5089,5128,14.75,2.2,24,3,0,0
83589,80360717,1,5127,5085,14.7,2.13,24,3,0,0
84030,80469991,1,5083,5014,14.76,2.26,24,3,0,0
84481,80578667,1,5016,5057,14.73,2.36,24,3,0,0
84931,80692334,1,5061,5100,14.73,2.1,24,3,0,0
85780,80901353,1,5097,4985,14.79,1.92,24,3,0,0
86272,81018248,1,4989,5042,14.75,2.12,24,3,0,0
86721,81131354,1,5022,4857,14.82,1.8,24,3,0,0
87534,81338080,1,4856,4842,14.8,1.85,24,3,0,0
88021,81454864,1,4854,4971,14.85,2.02,24,3,0,0
88428,81553136,1,4965,4871,14.8,1.98,24,3,0,0
88879,81667511,1,4874,4914,14.82,2.15,24,3,0,0
89291,81770955,1,4901,4785,14.86,1.63,24,3,0,0
89737,81885104,1,4782,4757,14.82,1.6,24,4,0,0
90178,81988479,1,4755,4714,14.82,1.74,24,4,0,0
90626,82101468,1,4714,4728,14.88,1.93,24,4,0,0
91079,82210712,1,4723,4657,14.85,1.86,24,4,0,0
91524,82320019,1,4651,4585,14.85,1.55,24,4,0,0
91976,82432668,1,4581,4542,14.86,1.63,24,4,0,0
93272,82751576,1,4544,4714,14.83,1.68,24,4,0,0
93717,82859661,1,4715,4742,14.79,1.57,24,4,0,0
94164,82966854,1,4739,4685,14.83,1.7,24,4,0,0
94567,83069060,1,4685,4685,14.76,1.75,24,4,0,0
95021,83181988,1,4692,4800,14.75,1.61,24,4,0,0
95423,83285468,1,4795,4628,14.75,1.5,24,4,0,0
95916,83404066,1,4623,4557,14.79,1.47,24,4,0,0
96323,83509516,1,4559,4614,14.73,1.72,24,4,0,0
96781,83622476,1,4607,4514,14.79,1.29,24,4,0,0
97228,83735110,1,4488,4228,14.75,0.97,24,4,0,0
97678,83841661,1,4170,3628,14.72,0.91,24,4,0,0
98970,84162795,1,3616,3128,14.73,1.36,24,4,0,0
99370,84264007,1,3137,3628,14.71,1.67,24,5,0,0
99816,84371518,1,3637,4100,14.69,2.44,24,5,0,0
100297,84483801,1,4130,4771,14.64,2.86,24,5,0,0
100744,84592018,1,4806,5600,14.72,4.25,24,5,0,0
101191,84700911,1,5645,6271,14.67,5.32,24,5,0,0
101634,84809842,1,6315,6757,14.59,5.25,24,5,0,0
102038,84914942,1,6754,6700,14.66,5.05,24,5,0,0
102569,85035575,1,6693,6642,14.67,4.33,24,5,0,0
102972,85136532,1,6623,6128,14.64,2.86,24,5,0,0
103462,85258175,1,6081,5585,14.65,2.44,24,6,0,0
103827,85352926,1,5578,5300,14.64,2.11,24,6,0,0
104274,85463276,1,5294,4942,14.62,1.57,24,6,0,0
104721,85571904,1,4925,4514,14.65,1,24,6,0,0
105168,85678853,1,4507,4185,14.69,1.01,24,6,0,0
105623,85787445,1,4173,3685,14.61,1.41,24,6,0,0
106113,85905056,1,3705,3928,14.64,1.46,24,6,0,0
106560,86013494,1,3942,4085,14.64,1.96,24,6,0,0
107003,86120074,1,4086,4100,14.45,2.19,24,6,0,0
107453,86230532,1,4109,4242,14.63,2.13,24,6,0,0
107853,86330477,1,4242,4271,14.62,1.58,24,6,0,0
108336,86443300,1,4270,4242,14.67,1.42,24,6,0,0
108780,86555000,1,4247,4371,14.65,1.49,24,6,0,0
109231,86666403,1,4375,4485,14.69,1.65,24,6,0,0
109718,86779365,1,4486,4500,14.68,1.53,24,6,0,0
110126,86882815,1,4501,4528,14.69,1.73,24,6,0,0
110576,86991798,1,4529,4585,14.67,1.79,24,6,0,0
111023,87101238,1,4586,4628,14.64,1.75,24,6,0,0
111472,87209343,1,4635,4800,14.63,1.89,24,6,0,0
111918,87322346,1,4798,4757,14.67,1.76,24,7,0,0
112362,87430246,1,4751,4628,14.61,1.45,24,7,0,0
112803,87537328,1,4617,4471,14.73,1.35,24,7,0,0
113292,87657326,1,4455,4314,14.65,1.35,24,7,0,0
113697,87755378,1,4316,4471,14.71,1.41,24,7,0,0
114595,87977889,1,4459,4242,14.76,1.13,24,7,0,0
115042,88090370,1,4234,4157,14.83,1.17,25,7,0,0
115447,88190072,1,4152,3914,14.76,1.47,24,7,0,0
115937,88309903,1,3923,4014,14.73,2.1,24,7,0,0
116383,88422846,1,3982,3785,14.79,1.52,24,7,0,0
116793,88526275,1,3794,3871,14.66,2.48,24,7,0,0
117244,88639123,1,3912,4185,14.71,2.54,25,7,0,0
118126,88847855,1,4184,4157,14.79,1.21,24,7,0,0
118581,88967374,1,4128,3971,14.74,1.07,24,7,0,0
119028,89079020,1,3964,3914,14.78,1.86,25,7,0,0
119435,89175933,1,3946,4200,14.75,1.96,25,7,0,0
119838,89275086,1,4202,4357,14.72,1.49,24,7,0,0
120327,89396093,1,4378,4514,14.71,1.49,25,7,0,0
120731,89499324,1,4510,4471,14.68,1.59,24,7,0,0
121188,89606061,1,4457,4242,14.7,1.05,25,8,0,0
121588,89704100,1,4241,4214,14.76,1.39,25,8,0,0
122081,89827898,1,4185,4000,14.8,1,25,8,0,0
122487,89924403,1,3990,3742,14.8,1.07,25,8,0,0
122934,90035842,1,3712,3385,14.79,1.05,25,8,0,0
123383,90145655,1,3412,3671,14.76,1.51,25,8,0,0
123827,90256704,1,3676,3742,14.72,1.78,25,8,0,0
124282,90364908,1,3760,3957,14.72,2.39,25,8,0,0
126104,90809930,1,3961,4185,14.69,2.06,25,8,0,0
126503,90906965,1,4197,4485,14.75,1.89,25,8,0,0
127573,91339018,1,4616,4757,14.64,1.59,25,8,0,0
128057,91458509,1,4752,4714,14.65,1.48,25,8,0,0
128461,91556861,1,4709,4571,14.69,1.53,25,8,0,0
128907,91667356,1,4574,4657,14.65,1.58,25,8,0,0
129352,91774082,1,4659,4714,14.67,2.05,25,8,0,0
129801,91886241,1,4727,4928,14.61,2,25,9,0,0
130255,91997904,1,4929,4957,14.6,2.34,25,9,0,0
130666,92106861,1,4966,5085,14.57,2.08,25,9,0,0
131117,92215602,1,5077,4871,14.67,1.54,25,9,0,0
131596,92328313,1,4844,4571,14.69,1.31,25,9,0,0
132044,92436980,1,4578,4657,14.63,1.6,25,9,0,0
132449,92540261,1,4658,4685,14.67,1.9,25,9,0,0
132901,92656253,1,4678,4614,14.67,1.52,25,9,0,0
133306,92754002,1,4611,4557,14.68,1.77,25,9,0,0
133754,92867853,1,4550,4457,14.63,1.54,25,9,0,0
134205,92979014,1,4472,4614,14.63,1.79,25,9,0,0
135096,93193704,1,4629,4957,14.52,2.21,25,9,0,0
135501,93297362,1,4963,5100,14.59,2.16,25,9,0,0
135993,93414555,1,5101,5114,14.58,2.19,25,9,0,0
136447,93527126,1,5114,5114,14.5,2.29,25,9,0,0
136898,93635785,1,5097,4942,14.63,1.82,25,9,0,0
137295,93735915,1,4942,4957,14.63,2.15,25,9,0,0
138194,93958755,1,4957,5014,14.52,2.13,25,10,0,0
138680,94073077,1,5023,5114,14.64,2.33,25,10,0,0
139129,94181903,1,5123,5214,14.55,2.2,25,10,0,0
139528,94281254,1,5211,5157,14.5,2.31,25,10,0,0
140020,94399830,1,5163,5228,14.61,2.53,25,10,0,0
140425,94502853,1,5224,5000,14.7,1.57,25,10,0,0
140876,94611857,1,5001,5028,14.74,1.64,25,10,0,0
141320,94723268,1,5013,4814,14.72,1.64,25,10,0,0
141771,94833339,1,4818,4885,14.71,1.75,25,10,0,0
142253,94949505,1,4861,4628,14.75,1.19,25,10,0,0
142658,95052303,1,4625,4571,14.74,1.4,25,10,0,0
143099,95153883,1,4567,4500,14.76,1.35,25,10,0,0
143549,95267286,1,4505,4585,14.77,1.43,25,10,0,0
144001,95375806,1,4582,4542,14.74,1.35,25,10,0,0
144410,95480496,1,4540,4514,14.76,1.52,25,10,0,0
144863,95589038,1,4515,4600,14.76,1.63,25,10,0,0
145306,95697880,1,4600,4614,14.72,1.5,25,10,0,0
145794,95812526,1,4621,4700,14.65,1.59,25,11,0,0
146721,96038372,1,4701,4728,14.67,1.69,25,11,0,0
147126,96138939,1,4734,4857,14.65,1.9,25,11,0,0
147574,96251476,1,4863,4928,14.61,2.18,25,11,0,0
147982,96353504,1,4910,4671,14.65,1.26,25,11,0,0
148386,96455991,1,4668,4571,14.68,1.18,25,11,0,0
148846,96574237,1,4550,4357,14.72,1.19,25,11,0,0
149247,96671715,1,4357,4385,14.66,1.72,25,11,0,0
149742,96790893,1,4391,4457,14.63,1.62,25,11,0,0
150185,96907242,1,4469,4557,14.66,1.72,25,11,0,0
150672,97015234,1,4573,4685,14.6,1.71,25,11,0,0
151080,97117477,1,4685,4685,14.65,1.67,25,11,0,0
151528,97228481,1,4683,4671,14.59,1.76,25,11,0,0
151928,97324915,1,4672,4700,14.64,1.59,25,11,0,0
152376,97437385,1,4704,4928,14.58,1.82,25,11,0,0
153270,97655791,1,4903,4514,14.69,1.35,25,11,0,0
153717,97768521,1,4515,4528,14.61,1.59,25,11,0,0
154117,97867322,1,4534,4671,14.67,1.66,25,11,0,0
154608,97983866,1,4643,4414,14.75,1.33,25,11,0,0
155058,98096264,1,4381,4142,14.68,1.13,25,12,0,0
155907,98305343,1,4139,3857,14.67,2.13,25,12,0,0
156391,98417525,1,3860,3914,14.69,2.11,25,12,0,0
156843,98531824,1,3931,4085,14.61,2.66,25,12,0,0
157247,98626469,1,4090,4571,14.69,2.08,25,12,0,0
157698,98742880,1,4571,4585,14.75,1.61,25,12,0,0
158148,98856909,1,4578,4514,14.67,1.69,25,12,0,0
158594,98963219,1,4510,4457,14.7,1.4,25,12,0,0
159039,99074176,1,4460,4514,14.69,1.67,25,12,0,0
159928,99288874,1,4504,4300,14.7,1.35,25,12,0,0
160378,99398921,1,4314,4457,14.69,1.52,25,12,0,0
160824,99508259,1,4445,4357,14.69,1.27,25,12,0,0
161236,99612056,1,4355,4342,14.7,1.6,25,12,0,0
161650,99719835,1,4346,4442,14.66,1.38,25,12,0,0
162140,99843093,1,4438,4414,14.67,1.45,25,12,0,0
162545,99942930,1,4419,4542,14.66,1.78,25,12,0,0
163034,100059227,1,4544,4571,14.69,1.15,25,12,0,0
163881,100268079,1,4559,4085,14.63,1.18,25,12,0,0
164332,100377711,1,4085,4100,14.65,1.46,25,13,0,0
164785,100495282,1,4093,4028,14.69,2.06,25,13,0,0
165194,100594435,1,4025,3957,14.61,1.98,25,13,0,0
165638,100701469,1,3957,4000,14.6,1.65,25,13,0,0
166135,100818498,1,3982,3800,14.68,1.5,25,13,0,0
166581,100930110,1,3821,4028,14.71,1.55,25,13,0,0
167033,101040088,1,4037,4157,14.56,2.61,25,13,0,0
167436,101143127,1,4176,4414,14.63,2.25,25,13,0,0
167885,101255542,1,4415,4442,14.64,1.1,25,13,0,0
168331,101363020,1,4452,4671,14.67,1.86,25,13,0,0
168743,101470714,1,4672,4700,14.62,1.89,25,13,0,0
169192,101578091,1,4708,4814,14.58,1.68,25,13,0,0
169642,101688556,1,4805,4728,14.59,1.35,25,13,0,0
170092,101799305,1,4719,4642,14.64,1.38,25,13,0,0
170496,101902128,1,4634,4485,14.61,1.44,25,13,0,0
170946,102011086,1,4493,4600,14.63,1.67,25,13,0,0
171392,102122041,1,4593,4528,14.55,1.52,25,13,0,0
171839,102228380,1,4531,4600,14.61,1.46,25,13,0,0
172733,102450435,1,4600,4600,14.66,1.79,25,13,0,0
173176,102558035,1,4612,4800,14.55,2.46,25,13,0,0
173624,102667537,1,4789,4642,14.67,0.92,25,14,0,0
174035,102771086,1,4634,4257,14.69,1.06,25,14,0,0
174478,102879924,1,4254,4200,14.64,0.96,25,14,0,0
174974,102996100,1,4195,4142,14.69,1.35,25,14,0,0
175416,103103653,1,4146,4214,14.7,1.39,25,14,0,0
175866,103213903,1,4221,4300,14.64,1.35,25,14,0,0
176270,103316539,1,4300,4300,14.69,1.62,25,14,0,0
176752,103428810,1,4311,4471,14.64,1.6,25,14,0,0
177195,103535455,1,4464,4314,14.66,1.15,25,14,0,0
177640,103647530,1,4314,4314,14.67,1.13,25,14,0,0
178097,103762867,1,4307,4242,14.63,1.47,25,14,0,0
178539,103872038,1,4246,4300,14.6,1.29,25,14,0,0
178947,103970832,1,4290,4100,14.69,1.12,25,14,0,0
179398,104082144,1,4108,4300,14.57,1.54,25,14,0,0
179851,104194468,1,4302,4357,14.57,1.6,25,14,0,0
180251,104294804,1,4362,4542,14.61,1.51,25,14,0,0
180745,104414453,1,4535,4442,14.63,1.65,25,14,0,0
181189,104521358,1,4449,4557,14.64,1.69,25,14,0,0
181640,104630870,1,4551,4500,14.63,1.32,25,14,0,0
182050,104738021,1,4497,4428,14.69,1.47,25,14,0,0
182497,104843214,1,4419,4185,14.72,0.98,25,14,0,0
182935,104955943,1,4178,4042,14.66,1.37,25,14,0,0
183382,105064877,1,4045,4185,14.55,1.75,25,14,0,0
183833,105170796,1,4183,4157,14.66,1.34,25,15,0,0
184237,105276839,1,4158,4185,14.65,1.62,25,15,0,0
184732,105396913,1,4195,4285,14.67,1.37,25,15,0,0
185134,105500788,1,4277,4214,14.63,1.11,25,15,0,0
185586,105606957,1,4224,4357,14.58,1.63,25,15,0,0
186037,105722021,1,4365,4457,14.65,1.55,25,15,0,0
186440,105819685,1,4463,4528,14.61,1.83,25,15,0,0
186879,105925049,1,4534,4642,14.58,1.7,25,15,0,0
187333,106034327,1,4636,4571,14.58,1.4,25,15,0,0
187778,106146949,1,4569,4557,14.63,1.59,25,15,0,0
188012,106270573,1,4546,4428,14.64,1.43,25,15,0,0
188416,106369307,1,4411,4285,14.72,1,25,15,0,0
188822,106471305,1,4262,4100,14.76,0.84,25,15,0,0
189271,106575137,1,4091,3871,14.67,2.42,25,15,0,0
189709,106680925,1,3878,4400,14.61,2.66,25,15,0,0
190161,106792363,1,4424,4657,14.6,2.09,25,15,0,0
190604,106901512,1,4660,4728,14.64,1.64,25,15,0,0
191055,107013219,1,4731,4771,14.64,1.97,25,15,0,0
191499,107120322,1,4776,4885,14.58,2.04,25,15,0,0
192355,107332113,1,4885,4900,14.55,1.8,25,16,0,0
192807,107442830,1,4897,4785,14.52,1.9,25,16,0,0
193217,107551025,1,4783,4771,14.6,2.04,25,16,0,0
193662,107662336,1,4782,4885,14.49,2.26,25,16,0,0
194112,107768914,1,4912,5200,14.48,2.47,25,16,0,0
194513,107868016,1,5199,5142,14.5,2.38,25,16,0,0
194964,107977372,1,5143,5185,14.46,2.36,25,16,0,0
195441,108091803,1,5184,5171,14.51,2.44,25,16,0,0
195888,108198490,1,5171,5185,14.47,2.59,25,16,0,0
196335,108309482,1,5185,5185,14.43,2.52,25,16,0,0
196789,108421481,1,5193,5328,14.41,2.97,25,16,0,0
197196,108524535,1,5349,5628,14.29,3.59,25,16,0,0
197687,108641377,1,5641,5771,14.32,3.61,25,16,0,0
198088,108740901,1,5755,5428,14.36,2.05,25,17,0,0
198535,108852898,1,5411,4942,14.52,1.49,25,17,0,0
199024,108967878,1,4886,4300,14.56,0.46,25,17,0,0
199430,109070886,1,4248,3757,14.63,1.03,25,17,0,0
199922,109186952,1,3758,3771,14.58,1.34,25,17,0,0
200322,109287696,1,3798,4171,14.46,2.11,25,17,0,0
200773,109396436,1,4170,4157,14.58,1.75,25,17,0,0
201220,109507269,1,4138,3971,14.61,1.64,25,17,0,0
201666,109611926,1,4000,4414,14.54,2.7,25,17,0,0
202111,109722099,1,4440,5128,14.39,3.32,25,17,0,0
202558,109830616,1,5145,5357,14.47,2.69,25,17,0,0
203005,109941045,1,5361,5428,14.48,2.94,25,17,0,0
203501,110063802,1,5448,5685,14.38,3.81,25,17,0,0
203900,110158029,1,5688,5928,14.27,3.73,25,17,0,0
204800,110381509,1,5913,5628,14.4,2.9,25,18,0,0
205246,110489387,1,5617,5385,14.44,2.59,25,18,0,0
205704,110600360,1,5368,5200,14.41,2.31,25,18,0,0
206149,110710032,1,5203,5242,14.45,2.57,25,18,0,0
206596,110816115,1,5227,4885,14.41,1.67,25,18,0,0
207048,110928263,1,4865,4671,14.53,1.87,25,18,0,0
207496,111035456,1,4653,4400,14.58,1.03,25,18,0,0
207902,111138913,1,4387,4200,14.5,1.61,25,18,0,0
208353,111249385,1,4216,4371,14.55,1.78,25,18,0,0
208795,111356717,1,4385,4714,14.57,2.42,25,18,0,0
209244,111469260,1,4735,4942,14.54,2.1,25,18,0,0
209694,111577862,1,4886,4342,14.65,1.53,25,18,0,0
210134,111686248,1,4357,4514,14.66,1.99,25,18,0,0
210536,111784489,1,4517,4585,14.59,1.86,25,18,0,0
210985,111896068,1,4568,4342,14.73,1,25,18,0,0
211474,112011867,1,4317,4071,14.71,0.9899999,25,18,0,0
211874,112111366,1,4072,4157,14.72,1.37,25,18,0,0
212322,112221342,1,4158,4185,14.68,1.89,25,18,0,0
212767,112331876,1,4185,4200,14.64,1.78,25,18,0,0
213219,112442107,1,4219,4485,14.7,1.67,25,19,0,0
213663,112556136,1,4510,4771,14.67,1.89,25,19,0,0
214106,112661934,1,4767,4728,14.59,1.52,25,19,0,0
214558,112774136,1,4717,4614,14.67,1.41,25,19,0,0
214958,112874076,1,4612,4528,14.66,1.5,25,19,0,0
215408,112982911,1,4528,4557,14.68,1.54,25,19,0,0
215883,113093058,1,4568,4800,14.63,1.99,25,19,0,0
216332,113200115,1,4801,4828,14.61,1.71,25,19,0,0
216773,113312873,1,4823,4771,14.52,1.61,25,19,0,0
217224,113424524,1,4769,4657,14.52,1.45,25,19,0,0
217676,113538393,1,4647,4471,14.54,1.4,25,19,0,0
218158,113647468,1,4483,4557,14.58,1.49,25,19,0,0
218562,113747033,1,4557,4571,14.57,1.58,25,19,0,0
219012,113863529,1,4580,4671,14.55,1.83,25,19,0,0
219456,113970802,1,4683,4800,14.53,1.93,25,19,0,0
219896,114074857,1,4797,4771,14.58,1.74,25,19,0,0
220343,114186268,1,4764,4714,14.55,1.58,25,19,0,0
220822,114296870,1,4703,4571,14.55,1.35,25,19,0,0
221229,114396265,1,4569,4514,14.58,1.79,25,19,0,0
221682,114513317,1,4541,4842,14.58,2.06,25,19,0,0
222127,114621232,1,4879,5214,14.57,2.65,25,20,0,0
222531,114723315,1,5215,5300,14.47,2.86,25,20,0,0
222978,114830465,1,5302,5357,14.52,2.42,25,20,0,0
223467,114951785,1,5346,5228,14.54,2.2,25,20,0,0
223876,115048902,1,5220,5071,14.51,1.95,25,20,0,0
224363,115173916,1,5058,4914,14.58,1.85,25,20,0,0
224756,115265253,1,4907,4814,14.57,1.83,25,20,0,0
225170,115373810,1,4813,4771,14.57,1.49,25,20,0,0
225615,115484321,1,4769,4642,14.56,1.52,25,20,0,0
226547,115711050,1,4637,4514,14.58,1.74,25,20,0,0
227442,115932120,1,4512,4471,14.62,1.54,25,20,0,0
227886,116040231,1,4479,4585,14.58,1.73,25,20,0,0
228293,116143468,1,4593,4785,14.61,2.1,25,20,0,0
228735,116251290,1,4789,5000,14.59,2.28,25,20,0,0
229185,116360095,1,5007,5100,14.57,2.21,25,20,0,0
229633,116473328,1,5111,5242,14.61,2.37,25,21,0,0
230077,116579850,1,5227,5085,14.59,2.06,25,21,0,0
230971,116802698,1,5078,4928,14.55,1.76,25,21,0,0
231420,116913911,1,4937,5028,14.55,2,25,21,0,0
231867,117022498,1,5041,5171,14.54,2.33,25,21,0,0
232272,117126686,1,5175,5271,14.56,2.53,25,21,0,0
232720,117237117,1,5274,5314,14.5,2.78,25,21,0,0
233164,117342821,1,5324,5600,14.53,2.98,25,21,0,0
233656,117465472,1,5598,5585,14.46,2.98,25,21,0,0
234096,117567282,1,5581,5542,14.47,2.65,25,21,0,0
234497,117672295,1,5544,5571,14.56,2.67,25,21,0,0
234950,117780523,1,5560,5414,14.57,2.21,25,21,0,0
235399,117894090,1,5395,5200,14.63,1.97,25,21,0,0
235842,117997271,1,5190,5014,14.53,2.02,25,22,0,0
236287,118107797,1,5014,5014,14.51,2.08,25,22,0,0
236737,118218279,1,5028,5228,14.5,2.59,25,22,0,0
237189,118333386,1,5209,5014,14.45,2.44,25,22,0,0
237590,118431110,1,5015,5042,14.6,1.81,25,22,0,0
237996,118536145,1,5043,5071,14.55,2.25,25,22,0,0
238895,118761224,1,5080,5285,14.52,2.53,25,22,0,0
239341,118871031,1,5290,5371,14.57,2.54,25,22,0,0
239749,118974310,1,5384,5557,14.54,2.61,25,22,0,0
240153,119076438,1,5554,5414,14.53,2.73,25,22,0,0
240644,119196335,1,5406,5328,14.58,2.49,25,22,0,0
241047,119296945,1,5329,5385,14.51,2.21,25,22,0,0
241495,119405306,1,5378,5242,14.59,1.94,25,22,0,0
241944,119521236,1,5218,4985,14.59,1.95,25,23,0,0
242390,119627091,1,4984,4971,14.51,2.26,25,23,0,0
242835,119737523,1,4980,5085,14.56,2.09,25,23,0,0
243285,119851946,1,5051,4771,14.5,1.72,25,23,0,0
243692,119952521,1,4768,4728,14.51,1.57,25,23,0,0
244134,120063311,1,4722,4642,14.51,1.98,25,23,0,0
245028,120282385,1,4654,4928,14.63,1.82,25,23,0,0
245438,120383064,1,4931,5028,14.63,1.91,25,23,0,0
245879,120495702,1,5028,5042,14.58,2.09,25,23,0,0
246329,120604871,1,5042,5085,14.53,2.32,25,23,0,0
246777,120719572,1,5081,5000,14.55,2.16,25,23,0,0
247224,120826455,1,5016,5242,14.51,2.34,25,23,0,0
247666,120937540,1,5229,5100,14.47,2.34,25,23,0,0
248114,121045102,1,5098,5085,14.52,2.14,25,23,0,0
248553,121153900,1,5082,5028,14.51,2.18,25,23,0,0
249005,121262685,1,5022,4957,14.58,2.12,25,23,0,0
249455,121370237,1,4955,4928,14.51,2.03,25,24,0,0
249858,121472468,1,4923,4771,14.52,1.79,25,24,0,0
250347,121593238,1,4764,4700,14.55,1.7,25,24,0,0
250754,121694968,1,4697,4657,14.54,1.61,25,24,0,0
251205,121806809,1,4641,4457,14.6,1.29,25,24,0,0
251651,121916412,1,4450,4242,14.6,0.96,25,24,0,0
252097,122023860,1,4242,4242,14.57,1.38,25,24,0,0
252546,122138330,1,4251,4342,14.52,1.63,25,24,0,0
252948,122234876,1,4342,4371,14.54,1.46,25,24,0,0
253437,122357482,1,4380,4471,14.59,1.65,25,24,0,0
253913,122473348,1,4494,4685,14.58,1.66,25,24,0,0
254364,122580132,1,4682,4657,14.54,1.71,25,24,0,0
254764,122683308,1,4660,4742,14.62,1.71,25,24,0,0
256514,123120380,1,4745,4914,14.58,1.72,25,24,0,0
257368,123333790,1,4907,4800,14.52,1.79,25,24,0,0
257817,123442487,1,4784,4642,14.58,1.38,25,25,0,0
258227,123549120,1,4626,4457,14.58,1.08,25,25,0,0
258715,123665929,1,4439,4228,14.6,1.03,25,25,0,0
259157,123767812,1,4211,3871,14.7,0.9899999,25,25,0,0
259602,123878455,1,3866,3814,14.64,1.31,25,25,0,0
260012,123982388,1,3814,3828,14.57,1.34,25,25,0,0
260456,124093912,1,3826,3800,14.58,1.46,25,25,0,0
260901,124200232,1,3799,3714,14.66,1.23,25,25,0,0
261351,124313103,1,3714,3714,14.66,1.55,25,25,0,0
261801,124423852,1,3697,3457,14.7,1.4,25,25,0,0
262204,124525850,1,3458,3485,14.77,1.24,25,25,0,0
262693,124643529,1,3537,4085,14.58,2.05,25,25,0,0
263099,124746133,1,4085,4100,14.63,1.93,25,25,0,0
263549,124859346,1,4121,4328,14.63,1.84,25,25,0,0
263998,124969010,1,4333,4414,14.63,1.3,25,25,0,0
264400,125071282,1,4414,4414,14.63,1.34,25,25,0,0
264845,125175252,1,4412,4357,14.61,1.19,25,25,0,0
265295,125288274,1,4326,4057,14.66,0.83,25,25,0,0
265741,125393585,1,4054,3985,14.67,1.3,25,25,0,0
266184,125500942,1,3982,3842,14.64,1.22,25,25,0,0
266675,125618493,1,3861,4028,14.57,2.15,25,25,0,0
267117,125726443,1,4064,4428,14.63,1.81,25,25,0,0
267521,125824926,1,4433,4685,14.55,1.86,25,25,0,0
267976,125943940,1,4683,4671,14.63,1.38,25,26,0,0
268380,126047843,1,4670,4628,14.63,1.39,25,26,0,0
268828,126155558,1,4628,4628,14.59,1.49,25,26,0,0
269274,126266347,1,4630,4685,14.62,1.43,25,26,0,0
269683,126371292,1,4680,4485,14.68,1.33,25,26,0,0
270127,126483045,1,4477,4342,14.63,1.16,25,26,0,0
270580,126593369,1,4335,4242,14.59,1.24,25,26,0,0
271469,126808832,1,4243,4285,14.61,1.49,25,26,0,0
271913,126916224,1,4291,4385,14.63,1.3,25,26,0,0
272364,127027273,1,4382,4328,14.67,1.46,25,26,0,0
272805,127135674,1,4329,4357,14.57,1.4,25,26,0,0
273219,127239539,1,4355,4300,14.62,1.42,25,26,0,0
273706,127359692,1,4308,4400,14.61,1.55,25,26,0,0
274102,127457344,1,4404,4571,14.6,1.69,25,26,0,0
274553,127567133,1,4570,4557,14.63,1.61,25,26,0,0
274963,127674387,1,4554,4528,14.59,1.48,25,26,0,0
275416,127785506,1,4533,4585,14.62,1.53,25,26,0,0
275847,127886087,1,4584,4571,14.66,1.48,25,26,0,0
276300,127996009,1,4569,4528,14.61,1.64,25,26,0,0
276747,128108339,1,4528,4528,14.64,1.53,25,26,0,0
277195,128214311,1,4531,4600,14.57,1.74,25,26,0,0
277641,128323703,1,4599,4585,14.58,1.47,25,26,0,0
278130,128438530,1,4583,4571,14.61,1.58,25,27,0,0
278530,128540702,1,4574,4671,14.57,1.66,25,27,0,0
278977,128653241,1,4672,4685,14.64,1.57,25,27,0,0
279428,128759460,1,4673,4557,14.63,1.46,25,27,0,0
279876,128871139,1,4547,4442,14.61,1.34,25,27,0,0
280724,129081094,1,4444,4571,14.55,1.74,25,27,0,0
281169,129186722,1,4572,4585,14.55,1.6,25,27,0,0
281617,129297837,1,4583,4571,14.55,1.59,25,27,0,0
282069,129408480,1,4568,4542,14.63,1.55,25,27,0,0
282471,129513133,1,4537,4442,14.59,1.48,25,27,0,0
282962,129633341,1,4457,4571,14.63,1.51,25,27,0,0
283365,129733268,1,4572,4600,14.61,1.67,25,27,0,0
283817,129843128,1,4598,4571,14.54,1.52,25,27,0,0
284262,129954822,1,4568,4514,14.6,1.56,25,27,0,0
284668,130061124,1,4513,4471,14.65,1.27,25,27,0,0
285157,130177081,1,4464,4400,14.6,1.28,25,27,0,0
285558,130278303,1,4401,4471,14.61,1.46,25,27,0,0
286048,130394923,1,4471,4471,14.6,1.49,25,27,0,0
286898,130602065,1,4470,4457,14.63,1.46,25,27,0,0
287378,130712927,1,4459,4514,14.6,1.61,25,27,0,0
287828,130823718,1,4518,4585,14.61,1.58,25,28,0,0
288275,130937379,1,4587,4614,14.55,1.59,25,28,0,0
288682,131041233,1,4613,4600,14.55,1.66,25,28,0,0
289125,131148274,1,4611,4814,14.45,1.91,25,28,0,0
289611,131266484,1,4836,5028,14.47,2.38,25,28,0,0
290060,131377867,1,5028,5028,14.52,1.84,25,28,0,0
290950,131597129,1,5018,4857,14.5,1.95,25,28,0,0
291392,131700896,1,4868,4985,14.5,1.94,25,28,0,0
291838,131810911,1,4975,4885,14.54,1.79,25,28,0,0
292282,131919538,1,4861,4657,14.58,1.59,25,28,0,0
293130,132130329,1,4656,4642,14.57,1.9,25,28,0,0
293581,132241482,1,4636,4585,14.58,1.7,25,28,0,0
293982,132338146,1,4585,4600,14.61,1.66,25,28,0,0
294470,132459145,1,4595,4542,14.66,1.71,25,28,0,0
294949,132568954,1,4542,4542,14.6,1.62,25,28,0,0
295357,132672716,1,4552,4685,14.61,1.6,25,28,0,0
295806,132782142,1,4683,4657,14.59,1.71,25,28,0,0
296249,132893260,1,4653,4614,14.57,1.67,25,29,0,0
296652,132992327,1,4619,4828,14.6,1.98,25,29,0,0
297141,133113122,1,4823,4771,14.61,1.64,25,29,0,0
297554,133214966,1,4769,4742,14.58,1.86,25,29,0,0
297998,133326097,1,4744,4785,14.62,1.96,25,29,0,0
298405,133426174,1,4785,4842,14.55,1.8,25,29,0,0
298851,133539874,1,4841,4828,14.6,1.84,25,29,0,0
299740,133756495,1,4828,4900,14.64,1.81,25,29,0,0
300185,133868145,1,4899,4885,14.59,1.65,25,29,0,0
300666,133977879,1,4882,4842,14.58,1.89,25,29,0,0
301115,134088806,1,4846,4900,14.64,1.72,25,29,0,0
301565,134198771,1,4895,4800,14.61,1.76,25,29,0,0
301967,134301875,1,4800,4814,14.59,1.86,25,29,0,0
302413,134410280,1,4821,4971,14.6,1.95,25,29,0,0
302897,134528980,1,4963,4885,14.58,1.97,25,29,0,0
303304,134630792,1,4884,4871,14.56,2.07,25,29,0,0
303747,134739516,1,4871,4900,14.6,2.08,25,29,0,0
304189,134847693,1,4900,4942,14.6,1.91,25,30,0,0
304597,134949279,1,4935,4714,14.58,1.63,25,30,0,0
305003,135056351,1,4716,4800,14.63,1.97,25,30,0,0
305455,135165931,1,4798,4728,14.57,1.54,25,30,0,0
305901,135278832,1,4721,4600,14.58,1.7,25,30,0,0
306355,135389076,1,4606,4771,14.58,1.85,25,30,0,0
306799,135502659,1,4762,4657,14.63,1.51,25,30,0,0
307250,135609563,1,4654,4600,14.57,1.73,25,30,0,0
307708,135723722,1,4597,4571,14.54,1.85,25,30,0,0
308155,135831225,1,4573,4600,14.59,1.51,25,30,0,0
308599,135938280,1,4600,4600,14.65,1.66,25,30,0,0
309046,136053214,1,4595,4542,14.63,1.83,25,30,0,0
309455,136152230,1,4532,4342,14.7,1.08,25,30,0,0
310391,136377504,1,4338,4228,14.67,1.7,25,30,0,0
310838,136488705,1,4241,4371,14.67,2.14,25,30,0,0
311286,136598144,1,4384,4557,14.63,1.82,25,30,0,0
311687,136698264,1,4552,4471,14.66,1.63,25,30,0,0
312136,136807442,1,4473,4642,14.63,1.84,25,30,0,0
312580,136917807,1,4538,3242,15.19,0.38,25,31,0,0
313029,137025636,1,3203,2357,14.87,0.84,25,31,0,0
313472,137132793,1,2360,2400,15.16,0.44,25,31,0,0
313919,137244581,1,2374,2157,15.11,0.11,25,31,0,0
314369,137353482,1,2129,1842,15.07,0.09999999,25,31,0,0
314817,137470876,1,1849,1914,15.07,0.21,25,31,0,0
315222,137563212,1,1912,1800,15.06,0.13,25,31,0,0
315668,137674522,1,1799,1785,15.06,0.22,25,31,0,0
316116,137782956,1,1789,1828,15.07,0.17,25,31,0,0
316517,137884450,1,1827,1800,15.07,0.16,25,31,0,0
316962,137991126,1,1800,1828,15.08,0.18,25,31,0,0
317409,138104887,1,1827,1814,15.07,0.16,25,31,0,0
317856,138214524,1,1814,1814,15.07,0.2,25,31,0,0
318298,138324919,1,1814,1828,15.08,0.15,25,31,0,0
318750,138431507,1,1827,1814,15.08,0.17,25,31,0,0
319192,138542286,1,1814,1814,15.06,0.22,25,31,0,0
319676,138653950,1,1816,1842,15.1,0.23,25,31,0,0
320118,138762045,1,1842,1842,15.06,0.21,25,31,0,0
320558,138866846,1,1840,1828,15.09,0.15,25,31,0,0
321012,138978940,1,1817,1714,15.16,0.06,25,31,0,0
321486,139087044,1,1701,1400,15.16,0,25,31,0,0
321936,139194116,1,1384,1257,15.14,0.07000000000000001,25,31,0,0
322386,139304714,1,1254,1228,15.14,0.09,25,31,0,0
322837,139408149,1,1228,1228,15.15,0.09,25,31,0,0
323282,139519676,1,1228,1228,15.14,0.09,25,31,0,0
323734,139627149,1,1228,1228,15.15,0.09,25,31,0,0
324214,139739365,1,1228,1228,15.15,0.09,25,31,0,0
324668,139853870,1,1228,1228,15.15,0.09,25,31,0,0
325069,139947824,1,1227,1214,15.16,0.09,25,31,0,0
325561,140068288,1,1215,1228,15.16,0.09,25,31,0,0
326008,140172846,1,1228,1228,15.16,0.09,25,31,0,0
326409,140274250,1,1228,1228,15.15,0.09,25,31,0,0
326894,140384134,1,1228,1228,15.16,0.09999999,25,31,0,0
327342,140492801,1,1228,1228,15.16,0.09999999,25,31,0,0
327802,140603503,1,1228,1228,15.17,0.09999999,25,31,0,0
328197,140702849,1,1228,1228,15.16,0.09,25,31,0,0
328653,140811911,1,1228,1228,15.16,0.09,25,31,0,0
329101,140923991,1,1228,1228,15.17,0.09999999,25,31,0,0
329552,141032890,1,1228,1228,15.17,0.09999999,25,31,0,0
329999,141142931,1,1228,1228,15.17,0.09999999,25,31,0,0
330445,141250860,1,1228,1228,15.17,0.09,25,31,0,0
330890,141357998,1,1228,1228,15.17,0.09,25,31,0,0
331335,141465442,1,1227,1214,15.17,0.09,25,31,0,0
331784,141572296,1,1214,1214,15.17,0.09999999,25,31,0,0
332230,141679268,1,1214,1214,15.17,0.09999999,25,31,0,0
332720,141793249,1,1215,1228,15.18,0.09999999,25,31,0,0
333130,141897984,1,1226,1214,15.19,0.09999999,25,31,0,0
333575,142003293,1,1214,1214,15.18,0.09999999,25,31,0,0
334025,142113876,1,1214,1214,15.19,0.09999999,25,31,0,0
335042,142436366,1,1214,1228,15.18,0.09999999,25,31,0,0
335488,142548412,1,1228,1228,15.19,0.09999999,25,31,0,0
335941,142658255,1,1228,1228,15.19,0.09999999,25,31,0,0
336754,142856429,1,1228,1228,15.19,0.09999999,25,31,0,0
337232,142968105,1,1228,1228,15.19,0.09999999,25,31,0,0
337681,143081831,1,1228,1228,15.19,0.09999999,25,31,0,0
338132,143191469,1,1227,1214,15.19,0.09999999,25,31,0,0
338538,143291651,1,1214,1214,15.2,0.09999999,25,31,0,0
339465,143513060,1,1214,1228,15.2,0.09999999,25,31,0,0
339958,143627693,1,1228,1228,15.2,0.09999999,25,31,0,0
340364,143728941,1,1227,1214,15.2,0.09999999,25,31,0,0
340859,143847331,1,1215,1228,15.2,0.09999999,25,31,0,0
341264,143944939,1,1227,1214,15.2,0.09999999,25,31,0,0
341711,144053155,1,1214,1214,15.2,0.09999999,25,31,0,0
342161,144160679,1,1214,1228,15.2,0.09999999,25,31,0,0
342574,144267042,1,1227,1214,15.2,0.09999999,25,31,0,0
343063,144382946,1,1214,1214,15.2,0.09999999,25,31,0,0
343508,144491527,1,1214,1214,15.21,0.09999999,25,31,0,0
343957,144598262,1,1214,1228,15.21,0.09999999,25,31,0,0
344412,144709880,1,1228,1228,15.21,0.09999999,25,31,0,0
344862,144817830,1,1228,1228,15.2,0.09999999,25,31,0,0
345303,144923566,1,1228,1228,15.21,0.09999999,25,31,0,0
346193,145137442,1,1227,1214,15.21,0.09999999,25,31,0,0
346637,145244534,1,1214,1228,15.22,0.09999999,25,31,0,0
347125,145357296,1,1228,1228,15.21,0.09999999,25,31,0,0
347572,145466914,1,1228,1228,15.21,0.09,25,31,0,0
348021,145574318,1,1228,1228,15.22,0.09999999,25,31,0,0
348432,145677939,1,1228,1228,15.21,0.09,25,31,0,0
348925,145794346,1,1228,1228,15.22,0.09999999,25,31,0,0
349331,145892636,1,1228,1228,15.22,0.09999999,25,31,0,0
349824,146010319,1,1228,1228,15.22,0.09999999,25,31,0,0
350276,146120904,1,1228,1228,15.21,0.09999999,25,31,0,0
350721,146227851,1,1228,1228,15.22,0.09,25,31,0,0
351164,146335725,1,1228,1228,15.22,0.09999999,25,31,0,0
351612,146443011,1,1228,1228,15.23,0.09999999,25,31,0,0
352097,146554869,1,1228,1228,15.23,0.09999999,25,31,0,0
352541,146666503,1,1228,1228,15.23,0.09999999,25,31,0,0
352947,146764511,1,1226,1214,15.23,0.09999999,25,31,0,0
353392,146873294,1,1214,1228,15.24,0.09999999,25,31,0,0
354330,147098913,1,1228,1228,15.23,0.09999999,25,31,0,0
354734,147194474,1,1228,1228,15.23,0.09999999,25,31,0,0
355222,147312808,1,1226,1214,15.23,0.09999999,25,31,0,0
355626,147409132,1,1214,1214,15.23,0.09999999,25,31,0,0
356109,147521939,1,1214,1228,15.23,0.09999999,25,31,0,0
356562,147632139,1,1228,1228,15.24,0.09999999,25,31,0,0
357003,147738438,1,1227,1214,15.24,0.09999999,25,31,0,0
357455,147850030,1,1214,1228,15.24,0.09999999,25,31,0,0
357909,147962941,1,1228,1228,15.24,0.09999999,25,31,0,0
358764,148173329,1,1228,1228,15.23,0.09999999,25,31,0,0
359249,148286296,1,1228,1228,15.23,0.09999999,25,31,0,0
359697,148393288,1,1228,1228,15.24,0.09999999,25,31,0,0
360589,148608897,1,1228,1228,15.24,0.09999999,25,31,0,0
361033,148715520,1,1228,1228,15.24,0.09999999,25,31,0,0
361482,148822813,1,1228,1228,15.24,0.09999999,25,31,0,0
361926,148928229,1,1228,1228,15.26,0.07000000000000001,25,31,0,0
362385,149050951,1,1117,285,15.26,0,25,31,0,0
362755,149143007,1,279,0,15.26,0.02,25,31,0,0
363236,149261101,1,0,0,15.26,0.03,25,31,0,0
363650,149366499,1,0,0,15.26,0.04,25,31,0,0
364024,149465880,1,0,0,15.26,0.03,25,31,0,0
364477,149579877,1,0,0,15.26,0.04,25,31,0,0
364884,149683240,1,0,0,15.26,0.03,25,31,0,0
365335,149794589,1,0,0,15.26,0.03,25,31,0,0
365784,149906533,1,0,0,15.26,0.03,25,31,0,0
366195,150008417,1,0,0,15.26,0.03,25,31,0,0
366578,150114872,1,0,0,15.26,0.03,25,31,0,0
367029,150227813,1,0,0,15.26,0.03,25,31,0,0
367441,150332864,1,0,0,15.26,0.03,25,31,0,0
367894,150446831,1,0,0,15.26,0.03,25,31,0,0
368308,150553872,1,0,0,15.27,0.03,25,31,0,0
368730,150665078,1,0,0,15.27,0.03,25,31,0,0
369141,150769148,1,0,0,15.27,0.03,25,31,0,0
369512,150865338,1,0,0,15.27,0.03,24,31,0,0
369970,150977447,1,0,0,15.27,0.03,25,31,0,0
370382,151083318,1,0,0,15.27,0.04,25,31,0,0
370833,151195703,1,0,0,15.27,0.04,25,31,0,0
371245,151303118,1,0,0,15.27,0.03,25,31,0,0
371656,151405048,1,0,0,15.27,0.04,25,31,0,0
372109,151520392,1,0,0,15.27,0.04,24,31,0,0
372523,151627461,1,0,0,15.27,0.03,25,31,0,0
372932,151733023,1,0,0,15.27,0.04,24,31,0,0
373344,151835695,1,0,0,15.27,0.04,25,31,0,0
373793,151953080,1,0,0,15.27,0.04,25,31,0,0
374209,152060253,1,0,0,15.27,0.04,25,31,0,0
374623,152165338,1,0,0,15.27,0.04,25,31,0,0
375483,152385263,1,0,0,15.27,0.04,25,31,0,0
375894,152492674,1,0,0,15.27,0.04,24,31,0,0
376305,152596426,1,0,0,15.28,0.03,25,31,0,0
376715,152703215,1,0,0,15.28,0.03,25,31,0,0
377099,152806527,1,0,0,15.27,0.03,25,31,0,0
377547,152921748,1,0,0,15.27,0.03,25,31,0,0
377963,153024527,1,0,0,15.27,0.04,25,31,0,0
378407,153134497,1,0,0,15.28,0.04,24,31,0,0
378864,153253137,1,0,0,15.28,0.04,24,31,0,0
379275,153356104,1,0,0,15.27,0.04,25,31,0,0
379688,153465699,1,0,0,15.28,0.04,24,31,0,0
380102,153568501,1,0,0,15.29,0.04,25,31,0,0
380548,153681914,1,0,0,15.28,0.04,24,31,0,0
380961,153786464,1,0,0,15.29,0.03,24,31,0,0
381376,153894258,1,0,0,15.29,0.03,25,31,0,0
381786,153997347,1,0,0,15.29,0.03,24,31,0,0
382236,154112363,1,0,0,15.29,0.03,24,31,0,0
382650,154219078,1,0,0,15.28,0.03,24,31,0,0
383060,154325503,1,0,0,15.28,0.04,24,31,0,0
383471,154427559,1,0,0,15.28,0.04,24,31,0,0
383924,154544064,1,0,0,15.29,0.04,25,31,0,0
384340,154654322,1,0,0,15.28,0.04,25,31,0,0
384751,154755936,1,0,0,15.29,0.04,24,31,0,0
385165,154864021,1,0,0,15.29,0.03,24,31,0,0
386024,155077312,1,0,0,15.29,0.03,25,31,0,0
386477,155191080,1,0,0,15.29,0.04,24,31,0,0
386883,155295253,1,0,0,15.29,0.03,24,31,0,0
387340,155408985,1,0,0,15.29,0.04,24,31,0,0
387750,155514364,1,0,0,15.29,0.04,24,31,0,0
388163,155617507,1,0,0,15.29,0.04,24,31,0,0
388612,155731024,1,0,0,15.29,0.03,24,31,0,0
389435,155941323,1,0,0,15.29,0.03,24,31,0,0
389844,156043699,1,0,0,15.29,0.04,24,31,0,0
390298,156156052,1,0,0,15.29,0.04,24,31,0,0
390710,156264524,1,0,0,15.29,0.04,24,31,0,0
391161,156376222,1,0,0,15.29,0.04,24,31,0,0
