LineNo,TimeUS,Instance,RPM,RawRPM,Volt,Curr,Temp,CTot,MotTemp,Err
1645,6.0115e+07,5,0,0,15.47,0.04,21,0,0,0
2097,6.0228e+07,5,0,0,15.47,0.05,21,0,0,0
2479,6.0327e+07,5,0,0,15.47,0.05,21,0,0,0
2932,6.0439e+07,5,0,0,15.47,0.05,21,0,0,0
3343,6.0542e+07,5,0,0,15.47,0.05,21,0,0,0
4243,6.0766e+07,5,0,0,15.47,0.04,21,0,0,0
4660,6.0873e+07,5,0,0,15.47,0.04,21,0,0,0
5483,6.1081e+07,5,0,0,15.47,0.05,21,0,0,0
6348,6.1301e+07,5,0,0,15.47,0.04,21,0,0,0
6760,6.1407e+07,5,0,0,15.47,0.04,21,0,0,0
7631,6.1628e+07,5,0,0,15.47,0.04,21,0,0,0
8005,6.1725e+07,5,0,0,15.47,0.04,21,0,0,0
8464,6.1838e+07,5,0,0,15.48,0.05,21,0,0,0
8879,6.1942e+07,5,0,0,15.48,0.05,21,0,0,0
9296,6.205e+07,5,0,0,15.47,0.05,21,0,0,0
9753,6.2165e+07,5,0,0,15.47,0.05,21,0,0,0
10167,6.2267e+07,5,0,0,15.47,0.05,21,0,0,0
10961,6.2488e+07,5,0,0,15.48,0.05,21,0,0,0
11365,6.2589e+07,5,0,0,15.47,0.05,21,0,0,0
11783,6.2696e+07,5,0,0,15.47,0.05,21,0,0,0
12236,6.2808e+07,5,0,0,15.48,0.05,21,0,0,0
12649,6.2912e+07,5,0,0,15.47,0.05,21,0,0,0
13502,6.3128e+07,5,0,0,15.47,0.04,21,0,0,0
13958,6.3243e+07,5,0,0,15.48,0.04,21,0,0,0
14374,6.3345e+07,5,0,0,15.47,0.04,21,0,0,0
14822,6.3457e+07,5,0,0,15.47,0.04,21,0,0,0
15238,6.3563e+07,5,0,0,15.47,0.05,21,0,0,0
15651,6.3668e+07,5,0,0,15.47,0.05,21,0,0,0
16066,6.3772e+07,5,0,0,15.47,0.05,21,0,0,0
16524,6.3886e+07,5,0,0,15.47,0.05,21,0,0,0
16934,6.3987e+07,5,0,0,15.47,0.05,21,0,0,0
17347,6.4095e+07,5,0,0,15.47,0.05,21,0,0,0
17804,6.4207e+07,5,0,0,15.47,0.05,21,0,0,0
18218,6.4313e+07,5,0,0,15.47,0.05,21,0,0,0
18632,6.4415e+07,5,0,0,15.48,0.05,21,0,0,0
19081,6.4527e+07,5,0,0,15.47,0.05,21,0,0,0
19537,6.4639e+07,5,0,0,15.48,0.05,22,0,0,0
19944,6.4745e+07,5,0,0,15.47,0.05,21,0,0,0
20364,6.4854e+07,5,0,0,15.47,0.05,21,0,0,0
20817,6.4966e+07,5,0,0,15.47,0.05,21,0,0,0
21201,6.5072e+07,5,0,0,15.47,0.05,21,0,0,0
21614,6.5173e+07,5,0,0,15.47,0.05,21,0,0,0
22066,6.5286e+07,5,0,0,15.47,0.05,21,0,0,0
22480,6.5387e+07,5,0,0,15.47,0.05,21,0,0,0
22892,6.5492e+07,5,0,0,15.47,0.05,21,0,0,0
23344,6.5607e+07,5,0,0,15.47,0.05,21,0,0,0
23757,6.5713e+07,5,0,0,15.47,0.05,21,0,0,0
24213,6.5826e+07,5,0,0,15.47,0.05,22,0,0,0
24622,6.5929e+07,5,0,0,15.47,0.05,21,0,0,0
25039,6.6035e+07,5,0,0,15.47,0.04,21,0,0,0
25488,6.615e+07,5,0,0,15.47,0.04,21,0,0,0
25863,6.6249e+07,5,0,0,15.47,0.05,21,0,0,0
26319,6.6362e+07,5,0,0,15.48,0.04,21,0,0,0
26737,6.6471e+07,5,0,0,15.48,0.05,21,0,0,0
27188,6.6582e+07,5,0,0,15.47,0.05,21,0,0,0
27601,6.6687e+07,5,0,0,15.48,0.05,21,0,0,0
28017,6.679e+07,5,0,0,15.47,0.05,21,0,0,0
28472,6.6906e+07,5,0,0,15.47,0.05,22,0,0,0
28886,6.7008e+07,5,0,0,15.47,0.05,21,0,0,0
29332,6.7119e+07,5,0,0,15.47,0.05,21,0,0,0
29746,6.7223e+07,5,0,0,15.47,0.05,21,0,0,0
30158,6.733e+07,5,0,0,15.47,0.04,21,0,0,0
30610,6.7443e+07,5,0,0,15.47,0.04,21,0,0,0
31020,6.7547e+07,5,0,0,15.47,0.04,21,0,0,0
31437,6.765e+07,5,0,0,15.47,0.04,22,0,0,0
31890,6.7763e+07,5,0,0,15.47,0.04,21,0,0,0
32301,6.7869e+07,5,0,0,15.47,0.05,21,0,0,0
32716,6.7971e+07,5,0,0,15.47,0.05,22,0,0,0
33168,6.8086e+07,5,0,0,15.48,0.05,21,0,0,0
33581,6.819e+07,5,0,0,15.47,0.05,21,0,0,0
34031,6.8301e+07,5,0,0,15.47,0.05,21,0,0,0
34444,6.8403e+07,5,0,0,15.47,0.05,21,0,0,0
34898,6.8518e+07,5,0,0,15.47,0.05,21,0,0,0
35311,6.8621e+07,5,0,0,15.47,0.05,21,0,0,0
35722,6.8725e+07,5,0,0,15.47,0.05,21,0,0,0
36208,6.8845e+07,5,0,0,15.47,0.05,21,0,0,0
36626,6.8949e+07,5,0,0,15.48,0.05,21,0,0,0
37035,6.9052e+07,5,0,0,15.47,0.05,21,0,0,0
37451,6.9156e+07,5,0,0,15.47,0.05,21,0,0,0
37868,6.9265e+07,5,0,0,15.47,0.05,21,0,0,0
38322,6.9378e+07,5,0,0,15.47,0.05,21,0,0,0
38737,6.9487e+07,5,0,0,15.48,0.05,21,0,0,0
39151,6.9591e+07,5,0,0,15.48,0.05,21,0,0,0
39600,6.9705e+07,5,0,0,15.47,0.04,21,0,0,0
40015,6.9808e+07,5,0,0,15.47,0.04,21,0,0,0
40462,6.992e+07,5,0,0,15.47,0.04,21,0,0,0
40880,7.0027e+07,5,0,0,15.47,0.04,21,0,0,0
41292,7.0134e+07,5,0,0,15.47,0.04,22,0,0,0
41746,7.0247e+07,5,0,0,15.47,0.05,21,0,0,0
42156,7.0349e+07,5,0,0,15.47,0.05,22,0,0,0
42568,7.0455e+07,5,0,0,15.47,0.05,21,0,0,0
43862,7.0785e+07,5,0,0,15.47,0.05,22,0,0,0
44279,7.0892e+07,5,0,0,15.47,0.05,21,0,0,0
44693,7.0995e+07,5,0,0,15.48,0.05,22,0,0,0
45145,7.1111e+07,5,0,0,15.47,0.05,21,0,0,0
45559,7.1214e+07,5,0,0,15.47,0.05,21,0,0,0
45972,7.1319e+07,5,0,0,15.47,0.05,21,0,0,0
46425,7.1433e+07,5,0,0,15.47,0.05,21,0,0,0
46836,7.1539e+07,5,0,0,15.47,0.04,22,0,0,0
47253,7.1646e+07,5,0,0,15.47,0.04,22,0,0,0
47664,7.1751e+07,5,0,0,15.47,0.05,22,0,0,0
48126,7.1866e+07,5,0,0,15.47,0.05,21,0,0,0
48537,7.1963e+07,5,0,0,15.47,0.05,21,0,0,0
49491,7.2185e+07,5,0,0,15.47,0.05,21,0,0,0
49944,7.2294e+07,5,0,0,15.47,0.05,22,0,0,0
50397,7.2397e+07,5,0,0,15.47,0.05,22,0,0,0
50892,7.2513e+07,5,0,0,15.47,0.05,22,0,0,0
51348,7.2619e+07,5,0,0,15.47,0.05,21,0,0,0
51840,7.2729e+07,5,0,0,15.47,0.05,22,0,0,0
52296,7.2834e+07,5,0,0,15.47,0.05,21,0,0,0
52746,7.2938e+07,5,0,0,15.47,0.05,21,0,0,0
53692,7.3157e+07,5,0,0,15.47,0.05,22,0,0,0
54151,7.3267e+07,5,0,0,15.47,0.05,21,0,0,0
54603,7.337e+07,5,0,0,15.47,0.05,21,0,0,0
55098,7.3486e+07,5,0,0,15.47,0.05,22,0,0,0
55554,7.3592e+07,5,0,0,15.47,0.05,22,0,0,0
56007,7.3697e+07,5,0,0,15.47,0.05,21,0,0,0
56508,7.3809e+07,5,0,0,15.48,0.05,21,0,0,0
56958,7.3916e+07,5,12,200,15.47,0.04,22,0,0,0
57222,7.402e+07,5,213,400,15.45,0.08,22,0,0,0
57640,7.4123e+07,5,406,785,15.44,0.14,21,0,0,0
58135,7.4237e+07,5,789,1114,15.45,0.15,22,0,0,0
58628,7.4352e+07,5,1120,1185,15.46,0.12,22,0,0,0
59080,7.4458e+07,5,1187,1214,15.45,0.12,22,0,0,0
59535,7.4565e+07,5,1215,1228,15.45,0.12,22,0,0,0
59991,7.4673e+07,5,1229,1242,15.45,0.11,22,0,0,0
60445,7.4777e+07,5,1242,1242,15.45,0.11,22,0,0,0
60893,7.488e+07,5,1242,1242,15.45,0.11,22,0,0,0
61388,7.4992e+07,5,1242,1242,15.45,0.11,22,0,0,0
61604,7.5099e+07,5,1242,1242,15.45,0.11,22,0,0,0
62106,7.5211e+07,5,1242,1242,15.45,0.11,21,0,0,0
62558,7.5316e+07,5,1242,1242,15.45,0.11,22,0,0,0
63012,7.5418e+07,5,1242,1242,15.45,0.11,22,0,0,0
63429,7.5524e+07,5,1242,1242,15.46,0.11,22,0,0,0
63933,7.5639e+07,5,1242,1242,15.45,0.11,22,0,0,0
64384,7.5742e+07,5,1242,1242,15.45,0.12,22,0,0,0
64841,7.5854e+07,5,1245,1328,15.42,0.2,22,0,0,0
65298,7.5959e+07,5,1346,1757,15.35,0.55,22,0,0,0
65753,7.6066e+07,5,1770,2128,15.35,0.51,22,0,0,0
66253,7.6182e+07,5,2175,2671,15.39,0.95,22,0,0,0
66702,7.6289e+07,5,2692,3014,15.19,1.4,22,0,0,0
67606,7.6506e+07,5,3042,4214,15.03,2.33,22,0,0,0
68510,7.6721e+07,5,4219,5171,14.68,3.53,22,0,0,0
69012,7.6839e+07,5,5237,5857,14.69,4.17,22,0,0,0
69461,7.6949e+07,5,5854,5828,14.72,3.81,22,1,0,0
69868,7.7048e+07,5,5830,6014,14.7,3.7,22,1,0,0
70365,7.7163e+07,5,6007,5942,14.77,4.21,22,1,0,0
70860,7.728e+07,5,5946,6000,14.77,4.02,22,1,0,0
71314,7.7384e+07,5,5999,5985,14.75,3.98,22,1,0,0
71724,7.7487e+07,5,5982,5942,14.78,3.99,22,1,0,0
72224,7.7604e+07,5,5945,5985,14.74,4.24,22,1,0,0
72636,7.7706e+07,5,5990,6057,14.77,4.85,22,1,0,0
73090,7.7812e+07,5,6057,6057,14.82,4.12,22,2,0,0
73548,7.7925e+07,5,6062,6142,14.76,4.07,22,2,0,0
74047,7.804e+07,5,6133,6042,14.76,3.89,22,2,0,0
74492,7.8146e+07,5,6045,6128,14.8,3.75,22,2,0,0
74907,7.8251e+07,5,6123,5914,14.77,3.94,22,2,0,0
75405,7.8366e+07,5,5915,6014,14.75,3.91,22,2,0,0
75851,7.8473e+07,5,6008,5900,14.75,3.77,22,2,0,0
76355,7.8593e+07,5,5900,5900,14.69,3.96,22,2,0,0
76764,7.8694e+07,5,5901,5914,14.76,3.67,22,3,0,0
77712,7.8915e+07,5,5901,5642,14.72,3.7,22,3,0,0
78166,7.9023e+07,5,5657,5885,14.75,3.73,22,3,0,0
78608,7.9134e+07,5,5886,5914,14.74,3.77,22,3,0,0
79061,7.9247e+07,5,5914,5914,14.79,3.72,22,3,0,0
79507,7.9354e+07,5,5912,5885,14.72,3.85,22,3,0,0
79875,7.9452e+07,5,5885,5885,14.71,3.88,23,3,0,0
80360,7.9564e+07,5,5886,5914,14.68,3.89,22,3,0,0
80770,7.9671e+07,5,5916,5971,14.66,4.03,22,4,0,0
81218,7.9779e+07,5,5969,5900,14.74,3.56,23,4,0,0
81669,7.9892e+07,5,5897,5828,14.75,3.39,23,4,0,0
82117,7.9998e+07,5,5828,5828,14.7,3.75,23,4,0,0
82557,8.0104e+07,5,5831,5957,14.72,4.02,23,4,0,0
83013,8.0218e+07,5,5972,6128,14.75,4.05,23,4,0,0
83457,8.0327e+07,5,6132,6200,14.73,4.54,23,4,0,0
83906,8.0434e+07,5,6208,6314,14.68,4.64,23,4,0,0
84351,8.0544e+07,5,6311,6271,14.67,5.02,23,4,0,0
84800,8.0655e+07,5,6265,6214,14.72,4.28,23,5,0,0
85205,8.0755e+07,5,6211,6071,14.7,4.2,23,5,0,0
85652,8.0869e+07,5,6068,6014,14.73,3.93,23,5,0,0
86099,8.0974e+07,5,6011,5857,14.69,3.77,23,5,0,0
86994,8.1194e+07,5,5851,5671,14.79,3.27,23,5,0,0
87399,8.1299e+07,5,5672,5728,14.8,3.02,23,5,0,0
87853,8.1409e+07,5,5717,5471,14.86,2.68,23,5,0,0
88300,8.1519e+07,5,5461,5342,14.84,2.9,23,5,0,0
88752,8.1629e+07,5,5351,5442,14.83,3.14,23,6,0,0
89156,8.1732e+07,5,5446,5500,14.86,3.27,23,6,0,0
89609,8.1852e+07,5,5510,5585,14.82,2.94,23,6,0,0
90011,8.1949e+07,5,5580,5485,14.81,2.96,23,6,0,0
90495,8.2065e+07,5,5481,5442,14.8,3.39,23,6,0,0
90946,8.2173e+07,5,5443,5471,14.82,3.32,23,6,0,0
91393,8.2284e+07,5,5478,5557,14.82,2.93,23,6,0,0
91839,8.2399e+07,5,5547,5485,14.87,2.96,23,6,0,0
92251,8.25e+07,5,5486,5585,14.82,2.97,23,6,0,0
92696,8.2607e+07,5,5583,5528,14.8,3.17,23,6,0,0
93138,8.272e+07,5,5523,5442,14.78,2.97,23,7,0,0
93588,8.2825e+07,5,5444,5571,14.75,3.25,23,7,0,0
94031,8.2935e+07,5,5582,5700,14.85,3.32,23,7,0,0
94484,8.3046e+07,5,5690,5614,14.75,3.48,23,7,0,0
95333,8.3265e+07,5,5623,5728,14.76,3.7,23,7,0,0
95744,8.336e+07,5,5732,5828,14.77,3.69,23,7,0,0
96230,8.3486e+07,5,5830,5857,14.77,3.62,23,7,0,0
96638,8.3588e+07,5,5862,5928,14.72,4.02,23,7,0,0
97093,8.3703e+07,5,5929,5942,14.7,4.62,23,8,0,0
97542,8.3806e+07,5,5979,6357,14.7,5.04,23,8,0,0
97943,8.3907e+07,5,6368,6600,14.67,5.74,23,8,0,0
98391,8.4017e+07,5,6601,6628,14.68,5.72,23,8,0,0
98839,8.4129e+07,5,6643,6800,14.67,5.77,23,8,0,0
99281,8.4243e+07,5,6774,6557,14.64,4.96,23,8,0,0
99726,8.4349e+07,5,6539,6357,14.61,4.29,23,8,0,0
1.0013e+05,8.4449e+07,5,6350,5957,14.68,3.3,23,9,0,0
1.0061e+05,8.4559e+07,5,5950,5428,14.71,2.3,23,9,0,0
1.011e+05,8.4679e+07,5,5398,5100,14.73,1.82,23,9,0,0
1.0238e+05,8.4993e+07,5,5094,4757,14.69,2.28,23,9,0,0
1.0284e+05,8.5105e+07,5,4784,5042,14.61,3.11,23,9,0,0
1.0328e+05,8.5214e+07,5,5074,5528,14.69,3.72,24,9,0,0
1.0369e+05,8.5321e+07,5,5548,5785,14.63,4.08,24,9,0,0
1.0414e+05,8.5431e+07,5,5808,6057,14.55,4.74,23,9,0,0
1.0459e+05,8.5539e+07,5,6071,6271,14.69,4.5,24,9,0,0
1.0503e+05,8.5642e+07,5,6276,6385,14.66,5.07,24,10,0,0
1.0553e+05,8.5766e+07,5,6386,6400,14.62,4.67,24,10,0,0
1.0593e+05,8.5864e+07,5,6400,6414,14.59,4.99,24,10,0,0
1.0638e+05,8.5971e+07,5,6415,6514,14.66,4.66,24,10,0,0
1.0686e+05,8.6086e+07,5,6508,6442,14.6,4.84,23,10,0,0
1.0727e+05,8.6189e+07,5,6433,6242,14.66,4.48,24,10,0,0
1.0772e+05,8.63e+07,5,6244,6385,14.66,4.5,24,10,0,0
1.082e+05,8.6412e+07,5,6361,6071,14.6,4.22,24,11,0,0
1.0864e+05,8.6523e+07,5,6073,6100,14.63,4.41,24,11,0,0
1.0909e+05,8.6631e+07,5,6098,6085,14.6,4.36,24,11,0,0
1.0953e+05,8.6734e+07,5,6086,6157,14.58,4.08,24,11,0,0
1.0999e+05,8.6851e+07,5,6153,6128,14.63,4.31,24,11,0,0
1.1044e+05,8.6961e+07,5,6130,6157,14.64,4.27,24,11,0,0
1.1088e+05,8.7068e+07,5,6155,6128,14.62,4.14,24,11,0,0
1.1222e+05,8.7398e+07,5,6125,6042,14.64,3.96,24,12,0,0
1.1262e+05,8.7496e+07,5,6042,6057,14.69,4,24,12,0,0
1.1311e+05,8.7612e+07,5,6049,5928,14.7,3.61,24,12,0,0
1.1356e+05,8.7725e+07,5,5937,6071,14.7,3.99,24,12,0,0
1.1401e+05,8.7835e+07,5,6056,5914,14.69,3.5,24,12,0,0
1.1441e+05,8.7935e+07,5,5900,5642,14.74,3.23,24,12,0,0
1.1486e+05,8.8047e+07,5,5639,5442,14.8,3.4,24,12,0,0
1.1531e+05,8.8158e+07,5,5458,5671,14.75,3.16,24,12,0,0
1.1575e+05,8.8268e+07,5,5668,5628,14.74,3.18,24,13,0,0
1.1621e+05,8.8376e+07,5,5619,5428,14.71,2.9,24,13,0,0
1.1666e+05,8.8491e+07,5,5440,5571,14.76,3.29,24,13,0,0
1.1706e+05,8.859e+07,5,5569,5528,14.82,3.36,24,13,0,0
1.1751e+05,8.8703e+07,5,5536,5628,14.72,3.71,24,13,0,0
1.18e+05,8.8815e+07,5,5622,5557,14.76,2.94,24,13,0,0
1.184e+05,8.8916e+07,5,5550,5442,14.75,2.91,24,13,0,0
1.1886e+05,8.903e+07,5,5444,5485,14.75,2.81,24,13,0,0
1.1926e+05,8.9132e+07,5,5489,5571,14.64,3.34,24,13,0,0
1.1971e+05,8.9241e+07,5,5569,5542,14.72,3.33,24,13,0,0
1.2015e+05,8.9349e+07,5,5550,5742,14.67,3.54,24,14,0,0
1.206e+05,8.9463e+07,5,5742,5742,14.75,3.33,24,14,0,0
1.2101e+05,8.9564e+07,5,5741,5700,14.64,3.48,24,14,0,0
1.2145e+05,8.9673e+07,5,5704,5785,14.73,3.4,24,14,0,0
1.219e+05,8.9779e+07,5,5781,5657,14.76,3.22,24,14,0,0
1.2235e+05,8.9895e+07,5,5653,5614,14.77,2.66,24,14,0,0
1.228e+05,9.0001e+07,5,5601,5442,14.83,2.66,24,14,0,0
1.2321e+05,9.0102e+07,5,5441,5371,14.78,3.12,24,14,0,0
1.237e+05,9.0222e+07,5,5393,5628,14.64,3.48,24,14,0,0
1.241e+05,9.0323e+07,5,5631,5700,14.75,3.51,24,14,0,0
1.246e+05,9.0445e+07,5,5714,5800,14.64,3.67,24,14,0,0
1.25e+05,9.0542e+07,5,5802,5871,14.73,3.34,24,15,0,0
1.2549e+05,9.0662e+07,5,5845,5657,14.65,3.12,24,15,0,0
1.2593e+05,9.0764e+07,5,5652,5528,14.67,3.14,24,15,0,0
1.2638e+05,9.0875e+07,5,5544,5714,14.68,3.46,24,15,0,0
1.2682e+05,9.0981e+07,5,5714,5714,14.7,3.2,24,15,0,0
1.2744e+05,9.1304e+07,5,5727,5714,14.63,3.45,24,15,0,0
1.2789e+05,9.1413e+07,5,5720,5871,14.7,3.37,24,15,0,0
1.2833e+05,9.152e+07,5,5868,5814,14.64,3.6,24,15,0,0
1.2878e+05,9.163e+07,5,5811,5685,14.61,3.59,24,16,0,0
1.2967e+05,9.1851e+07,5,5707,6185,14.57,4.65,24,16,0,0
1.3012e+05,9.1965e+07,5,6182,6157,14.57,4.21,24,16,0,0
1.3053e+05,9.2072e+07,5,6165,6257,14.54,4.65,24,16,0,0
1.3098e+05,9.2181e+07,5,6256,6200,14.54,4.44,24,16,0,0
1.3142e+05,9.2284e+07,5,6196,6057,14.66,3.85,24,16,0,0
1.3187e+05,9.2395e+07,5,6057,6100,14.56,4.31,24,16,0,0
1.3231e+05,9.2508e+07,5,6100,6100,14.61,4.3,24,17,0,0
1.3277e+05,9.2623e+07,5,6096,6057,14.59,4.23,24,17,0,0
1.3317e+05,9.2722e+07,5,6051,5914,14.64,4.11,24,17,0,0
1.3402e+05,9.2935e+07,5,5917,6300,14.58,4.95,24,17,0,0
1.3452e+05,9.3057e+07,5,6297,6271,14.61,4.32,24,17,0,0
1.3492e+05,9.3151e+07,5,6272,6300,14.55,4.94,24,17,0,0
1.3586e+05,9.3383e+07,5,6300,6300,14.58,4.58,24,18,0,0
1.3626e+05,9.3484e+07,5,6299,6285,14.58,4.71,24,18,0,0
1.3672e+05,9.3593e+07,5,6284,6228,14.55,4.42,24,18,0,0
1.3716e+05,9.3704e+07,5,6218,6085,14.63,3.97,24,18,0,0
1.3761e+05,9.3809e+07,5,6095,6342,14.55,4.55,24,18,0,0
1.3805e+05,9.3926e+07,5,6322,6142,14.59,4.34,24,18,0,0
1.3849e+05,9.4025e+07,5,6143,6200,14.55,4.54,24,18,0,0
1.3895e+05,9.414e+07,5,6204,6271,14.52,4.62,24,19,0,0
1.3939e+05,9.4249e+07,5,6269,6242,14.55,4.25,24,19,0,0
1.3984e+05,9.4357e+07,5,6244,6271,14.6,4.87,24,19,0,0
1.4074e+05,9.4581e+07,5,6262,6028,14.71,3.5,24,19,0,0
1.4118e+05,9.4692e+07,5,5988,5600,14.69,2.64,24,19,0,0
1.4163e+05,9.4802e+07,5,5611,5728,14.69,3.93,25,19,0,0
1.4207e+05,9.4907e+07,5,5742,5942,14.73,3.31,24,19,0,0
1.4296e+05,9.5122e+07,5,5934,5714,14.72,3.37,24,20,0,0
1.4341e+05,9.5235e+07,5,5733,5900,14.73,3.44,25,20,0,0
1.4382e+05,9.5335e+07,5,5886,5614,14.76,2.95,24,20,0,0
1.4427e+05,9.5443e+07,5,5616,5685,14.7,3.13,24,20,0,0
1.4472e+05,9.5558e+07,5,5682,5657,14.7,2.82,24,20,0,0
1.4561e+05,9.5771e+07,5,5655,5428,14.61,2.86,25,20,0,0
1.4605e+05,9.5881e+07,5,5434,5600,14.66,3.04,25,20,0,0
1.4654e+05,9.5992e+07,5,5592,5485,14.67,3.07,25,20,0,0
1.4699e+05,9.6106e+07,5,5490,5542,14.66,3.18,25,20,0,0
1.4744e+05,9.6218e+07,5,5545,5585,14.64,3.43,25,21,0,0
1.4785e+05,9.6322e+07,5,5596,5700,14.6,3.02,25,21,0,0
1.483e+05,9.643e+07,5,5702,5728,14.61,3.22,25,21,0,0
1.4866e+05,9.6528e+07,5,5727,5685,14.69,3.23,25,21,0,0
1.4911e+05,9.6639e+07,5,5682,5542,14.72,2.92,25,21,0,0
1.4956e+05,9.675e+07,5,5548,5642,14.6,3.27,25,21,0,0
1.5001e+05,9.6862e+07,5,5647,5728,14.59,3.56,25,21,0,0
1.5046e+05,9.697e+07,5,5730,5800,14.57,3.83,25,21,0,0
1.5094e+05,9.7086e+07,5,5806,5871,14.6,3.69,25,21,0,0
1.5135e+05,9.7185e+07,5,5873,5914,14.55,3.75,25,21,0,0
1.5179e+05,9.7294e+07,5,5914,5914,14.63,3.7,25,22,0,0
1.5224e+05,9.7404e+07,5,5911,5885,14.61,4.02,25,22,0,0
1.5269e+05,9.7513e+07,5,5881,5828,14.6,3.42,25,22,0,0
1.5309e+05,9.7609e+07,5,5828,5885,14.67,2.91,25,22,0,0
1.5354e+05,9.7722e+07,5,5870,5571,14.65,3.41,25,22,0,0
1.5399e+05,9.7831e+07,5,5577,5671,14.68,3.61,25,22,0,0
1.5444e+05,9.7941e+07,5,5678,5785,14.59,3.57,25,22,0,0
1.5488e+05,9.8046e+07,5,5782,5585,14.66,3.17,25,22,0,0
1.5533e+05,9.8159e+07,5,5591,5757,14.72,3.42,25,22,0,0
1.5578e+05,9.8269e+07,5,5753,5700,14.68,3.69,25,23,0,0
1.5622e+05,9.8378e+07,5,5697,5642,14.63,2.97,25,23,0,0
1.5666e+05,9.8485e+07,5,5650,5842,14.69,3.8,25,23,0,0
1.5712e+05,9.8594e+07,5,5834,5685,14.69,3.13,25,23,0,0
1.5756e+05,9.8704e+07,5,5686,5785,14.66,3.24,25,23,0,0
1.5802e+05,9.8817e+07,5,5778,5714,14.64,3.39,25,23,0,0
1.5847e+05,9.893e+07,5,5714,5714,14.63,3.31,25,23,0,0
1.598e+05,9.9256e+07,5,5716,5785,14.67,3.33,25,23,0,0
1.6024e+05,9.9365e+07,5,5773,5685,14.73,3.62,25,24,0,0
1.6065e+05,9.9463e+07,5,5685,5700,14.64,3.5,25,24,0,0
1.611e+05,9.9572e+07,5,5704,5785,14.6,3.43,25,24,0,0
1.6155e+05,9.9697e+07,5,5774,5671,14.64,3.32,25,24,0,0
1.6241e+05,9.9909e+07,5,5671,5671,14.66,3.56,25,24,0,0
1.6286e+05,1.0002e+08,5,5671,5671,14.64,3.07,25,24,0,0
1.6375e+05,1.0024e+08,5,5673,5728,14.58,3.48,25,24,0,0
1.642e+05,1.0035e+08,5,5732,5785,14.62,3.98,25,25,0,0
1.646e+05,1.0045e+08,5,5785,5857,14.66,3.95,25,25,0,0
1.655e+05,1.0067e+08,5,5858,5928,14.55,4.15,25,25,0,0
1.6595e+05,1.0078e+08,5,5927,5871,14.62,4.1,25,25,0,0
1.6639e+05,1.0089e+08,5,5874,5985,14.64,3.66,25,25,0,0
1.6689e+05,1.0101e+08,5,5985,5985,14.66,3.97,25,25,0,0
1.673e+05,1.0111e+08,5,5967,5800,14.65,3.54,25,25,0,0
1.6775e+05,1.0122e+08,5,5798,5785,14.6,3.52,25,25,0,0
1.6819e+05,1.0133e+08,5,5794,5914,14.62,3.53,25,25,0,0
1.6864e+05,1.0144e+08,5,5925,6042,14.57,4.19,25,26,0,0
1.6905e+05,1.0155e+08,5,6047,6100,14.57,4.33,25,26,0,0
1.6946e+05,1.0165e+08,5,6100,6114,14.54,3.68,25,26,0,0
1.6991e+05,1.0176e+08,5,6108,5814,14.61,3.3,25,26,0,0
1.7035e+05,1.0187e+08,5,5815,5842,14.62,3.49,25,26,0,0
1.7081e+05,1.0198e+08,5,5850,5942,14.56,3.91,25,26,0,0
1.7166e+05,1.0219e+08,5,5942,5957,14.6,4.05,25,26,0,0
1.7255e+05,1.0241e+08,5,5955,5885,14.58,3.85,25,27,0,0
1.7299e+05,1.0252e+08,5,5885,5914,14.61,4.08,25,27,0,0
1.7344e+05,1.0262e+08,5,5918,6085,14.64,3.91,25,27,0,0
1.7438e+05,1.0286e+08,5,6064,5614,14.66,2.36,25,27,0,0
1.7479e+05,1.0295e+08,5,5604,5471,14.66,3.41,25,27,0,0
1.7523e+05,1.0306e+08,5,5473,5657,14.66,3.5,25,27,0,0
1.7568e+05,1.0317e+08,5,5660,5742,14.67,3.59,25,27,0,0
1.7613e+05,1.0329e+08,5,5736,5614,14.62,3.16,25,28,0,0
1.7661e+05,1.034e+08,5,5616,5642,14.69,2.99,25,28,0,0
1.7706e+05,1.035e+08,5,5640,5628,14.64,3.29,25,28,0,0
1.775e+05,1.0361e+08,5,5636,5728,14.64,3.78,25,28,0,0
1.7791e+05,1.0372e+08,5,5733,5814,14.62,3.76,25,28,0,0
1.7836e+05,1.0383e+08,5,5812,5800,14.6,3.65,25,28,0,0
1.788e+05,1.0394e+08,5,5796,5742,14.66,3.12,25,28,0,0
1.7926e+05,1.0405e+08,5,5744,5785,14.57,4.02,25,28,0,0
1.7971e+05,1.0416e+08,5,5793,5914,14.63,3.63,25,28,0,0
1.8011e+05,1.0426e+08,5,5911,5871,14.57,3.92,25,29,0,0
1.8056e+05,1.0437e+08,5,5871,5871,14.55,3.82,25,29,0,0
1.81e+05,1.0448e+08,5,5872,5900,14.54,3.9,25,29,0,0
1.8146e+05,1.0459e+08,5,5899,5857,14.63,3.32,25,29,0,0
1.8187e+05,1.047e+08,5,5851,5657,14.67,2.84,25,29,0,0
1.8236e+05,1.0481e+08,5,5644,5500,14.61,2.85,25,29,0,0
1.828e+05,1.0492e+08,5,5493,5428,14.72,2.82,25,29,0,0
1.8325e+05,1.0503e+08,5,5441,5657,14.62,3.31,25,29,0,0
1.837e+05,1.0514e+08,5,5654,5628,14.69,3.3,25,29,0,0
1.8415e+05,1.0525e+08,5,5633,5685,14.66,3.69,25,29,0,0
1.8456e+05,1.0535e+08,5,5686,5700,14.6,3.11,25,29,0,0
1.8545e+05,1.0557e+08,5,5702,5771,14.57,3.28,25,30,0,0
1.8582e+05,1.0567e+08,5,5772,5857,14.61,3.89,25,30,0,0
1.8675e+05,1.0589e+08,5,5854,5771,14.51,3.73,25,30,0,0
1.872e+05,1.06e+08,5,5768,5728,14.64,3.16,25,30,0,0
1.876e+05,1.061e+08,5,5714,5542,14.61,2.93,25,30,0,0
1.8824e+05,1.0632e+08,5,5540,5485,14.7,2.78,25,30,0,0
1.8869e+05,1.0643e+08,5,5469,5257,14.75,2.4,25,30,0,0
1.891e+05,1.0653e+08,5,5255,5200,14.66,2.87,25,31,0,0
1.8962e+05,1.0666e+08,5,5213,5300,14.67,3.09,25,31,0,0
1.9003e+05,1.0676e+08,5,5308,5428,14.58,3.23,25,31,0,0
1.9047e+05,1.0687e+08,5,5430,5457,14.55,3.02,25,31,0,0
1.9092e+05,1.0697e+08,5,5464,5614,14.61,3.22,25,31,0,0
1.9133e+05,1.0708e+08,5,5614,5642,14.54,3.31,25,31,0,0
1.9182e+05,1.0719e+08,5,5646,5771,14.53,3.89,25,31,0,0
1.9223e+05,1.073e+08,5,5775,5871,14.52,3.88,25,31,0,0
1.9267e+05,1.0741e+08,5,5875,5971,14.52,3.78,25,31,0,0
1.9313e+05,1.0752e+08,5,5957,5828,14.53,3.82,25,31,0,0
1.9354e+05,1.0762e+08,5,5833,5900,14.45,3.77,25,32,0,0
1.9398e+05,1.0773e+08,5,5896,5857,14.48,4.17,25,32,0,0
1.9443e+05,1.0785e+08,5,5882,6057,14.37,3.88,25,32,0,0
1.9483e+05,1.0794e+08,5,6058,6128,14.44,4.43,25,32,0,0
1.9617e+05,1.0827e+08,5,6130,6257,14.42,4.92,25,32,0,0
1.9665e+05,1.0839e+08,5,6274,6428,14.31,5.34,25,32,0,0
1.9706e+05,1.0849e+08,5,6451,6771,14.25,6.06,25,33,0,0
1.9751e+05,1.086e+08,5,6772,6800,14.26,6.05,25,33,0,0
1.9796e+05,1.0871e+08,5,6791,6614,14.33,4.84,25,33,0,0
1.984e+05,1.0881e+08,5,6607,6528,14.38,4.73,25,33,0,0
1.9889e+05,1.0894e+08,5,6488,6314,14.45,4.55,25,33,0,0
2.0064e+05,1.0936e+08,5,6316,6442,14.53,4.58,25,34,0,0
2.0104e+05,1.0946e+08,5,6435,6014,14.59,3.54,25,34,0,0
2.0154e+05,1.0958e+08,5,6000,5857,14.54,3.27,25,34,0,0
2.0198e+05,1.0969e+08,5,5859,5885,14.31,4.34,25,34,0,0
2.0242e+05,1.098e+08,5,5906,6085,14.39,4.11,25,34,0,0
2.0287e+05,1.0991e+08,5,6068,5914,14.54,3.38,25,34,0,0
2.0332e+05,1.1002e+08,5,5920,5985,14.46,3.88,25,35,0,0
2.0377e+05,1.1013e+08,5,5998,6157,14.26,4.7,25,35,0,0
2.0466e+05,1.1035e+08,5,6158,6185,14.38,4.52,25,35,0,0
2.0507e+05,1.1045e+08,5,6184,6157,14.41,4.53,25,35,0,0
2.0552e+05,1.1056e+08,5,6160,6314,14.43,4.55,25,35,0,0
2.0596e+05,1.1067e+08,5,6311,6257,14.41,4.47,26,35,0,0
2.0646e+05,1.1078e+08,5,6250,6185,14.41,4.16,25,35,0,0
2.0686e+05,1.1088e+08,5,6191,6314,14.44,4.44,25,36,0,0
2.0731e+05,1.11e+08,5,6303,6100,14.51,4.2,25,36,0,0
2.0776e+05,1.1111e+08,5,6098,6071,14.57,3.66,25,36,0,0
2.0817e+05,1.1121e+08,5,6072,6100,14.5,4.23,25,36,0,0
2.0866e+05,1.1133e+08,5,6100,6100,14.48,4.34,25,36,0,0
2.0911e+05,1.1144e+08,5,6124,6300,14.47,4.7,25,36,0,0
2.0951e+05,1.1154e+08,5,6296,6114,14.63,3.03,25,36,0,0
2.0996e+05,1.1164e+08,5,6092,5785,14.69,2.91,25,36,0,0
2.104e+05,1.1175e+08,5,5778,5714,14.55,3.09,25,37,0,0
2.108e+05,1.1185e+08,5,5711,5571,14.66,2.86,25,37,0,0
2.1129e+05,1.1197e+08,5,5559,5314,14.72,2.13,25,37,0,0
2.1174e+05,1.1208e+08,5,5307,5214,14.7,2.46,25,37,0,0
2.1263e+05,1.123e+08,5,5213,5200,14.6,3.03,25,37,0,0
2.1308e+05,1.1241e+08,5,5209,5300,14.66,2.94,25,37,0,0
2.1348e+05,1.1251e+08,5,5301,5328,14.59,3.19,25,37,0,0
2.1393e+05,1.1262e+08,5,5321,5257,14.62,2.77,25,37,0,0
2.1438e+05,1.1273e+08,5,5269,5457,14.63,2.9,25,37,0,0
2.1482e+05,1.1284e+08,5,5455,5414,14.69,2.78,25,37,0,0
2.1527e+05,1.1295e+08,5,5412,5400,14.67,2.86,25,37,0,0
2.1575e+05,1.1306e+08,5,5413,5528,14.6,3.4,26,38,0,0
2.162e+05,1.1317e+08,5,5542,5685,14.61,3.23,25,38,0,0
2.166e+05,1.1327e+08,5,5685,5685,14.6,3.53,25,38,0,0
2.1709e+05,1.1339e+08,5,5713,6000,14.58,4.07,25,38,0,0
2.175e+05,1.1349e+08,5,6000,6000,14.58,3.89,25,38,0,0
2.1795e+05,1.136e+08,5,6001,6057,14.49,3.81,25,38,0,0
2.1843e+05,1.1371e+08,5,6055,6028,14.51,4.23,25,38,0,0
2.1888e+05,1.1382e+08,5,6042,6242,14.48,4.47,25,38,0,0
2.1928e+05,1.1393e+08,5,6238,6142,14.5,4.29,25,39,0,0
2.2062e+05,1.1425e+08,5,6141,6042,14.59,3.87,25,39,0,0
2.211e+05,1.1436e+08,5,6031,5885,14.51,3.79,25,39,0,0
2.2155e+05,1.1448e+08,5,5896,6057,14.51,4.55,25,39,0,0
2.2196e+05,1.1458e+08,5,6058,6085,14.45,4.41,25,39,0,0
2.224e+05,1.1469e+08,5,6089,6200,14.45,4.74,26,39,0,0
2.2285e+05,1.148e+08,5,6204,6300,14.42,4.63,25,39,0,0
2.233e+05,1.1491e+08,5,6300,6314,14.51,4.62,26,40,0,0
2.2419e+05,1.1513e+08,5,6302,6071,14.49,4.61,25,40,0,0
2.2464e+05,1.1524e+08,5,6078,6157,14.55,4.63,26,40,0,0
2.2508e+05,1.1535e+08,5,6160,6214,14.5,4.71,25,40,0,0
2.2548e+05,1.1545e+08,5,6221,6414,14.55,4.79,26,40,0,0
2.2593e+05,1.1556e+08,5,6413,6371,14.56,4.96,26,40,0,0
2.2638e+05,1.1567e+08,5,6373,6485,14.55,4.77,26,41,0,0
2.2686e+05,1.1579e+08,5,6475,6385,14.5,4.3,26,41,0,0
2.2727e+05,1.1589e+08,5,6380,6114,14.6,4.21,26,41,0,0
2.2772e+05,1.1599e+08,5,6121,6228,14.51,4.25,26,41,0,0
2.2816e+05,1.1611e+08,5,6211,6071,14.58,4.06,26,41,0,0
2.2861e+05,1.1622e+08,5,6076,6242,14.55,4.56,26,41,0,0
2.2905e+05,1.1633e+08,5,6252,6357,14.56,4.55,26,41,0,0
2.295e+05,1.1644e+08,5,6331,6057,14.48,4.73,26,42,0,0
2.2994e+05,1.1655e+08,5,6055,6042,14.5,4.36,26,42,0,0
2.3124e+05,1.1687e+08,5,6043,6242,14.52,4.38,26,42,0,0
2.3169e+05,1.1698e+08,5,6239,6085,14.54,4.55,26,42,0,0
2.3214e+05,1.1709e+08,5,6075,5971,14.53,4.18,26,42,0,0
2.3259e+05,1.172e+08,5,5965,5914,14.5,4.2,26,42,0,0
2.3303e+05,1.1731e+08,5,5932,6114,14.48,4.44,26,43,0,0
2.3347e+05,1.1741e+08,5,6111,6057,14.42,4.62,26,43,0,0
2.3391e+05,1.1752e+08,5,6065,6242,14.49,4.56,26,43,0,0
2.3436e+05,1.1763e+08,5,6236,6114,14.54,4.64,26,43,0,0
2.3477e+05,1.1774e+08,5,6114,6185,14.52,4.54,26,43,0,0
2.3522e+05,1.1785e+08,5,6181,6100,14.53,3.98,26,43,0,0
2.357e+05,1.1796e+08,5,6098,6085,14.5,4.16,26,43,0,0
2.3615e+05,1.1807e+08,5,6083,6071,14.48,4.46,26,43,0,0
2.366e+05,1.1818e+08,5,6091,6357,14.46,5.13,26,44,0,0
2.37e+05,1.1829e+08,5,6342,6142,14.52,4.02,26,44,0,0
2.3786e+05,1.1851e+08,5,6131,5842,14.55,3.31,26,44,0,0
2.383e+05,1.1861e+08,5,5833,5728,14.56,3.21,26,44,0,0
2.3871e+05,1.1872e+08,5,5731,5914,14.52,3.44,26,44,0,0
2.3916e+05,1.1883e+08,5,5907,5614,14.52,2.92,26,44,0,0
2.3961e+05,1.1894e+08,5,5618,5685,14.55,3.59,26,44,0,0
2.4006e+05,1.1905e+08,5,5689,5728,14.52,3.42,26,45,0,0
2.4046e+05,1.1915e+08,5,5731,5785,14.5,3.57,26,45,0,0
2.4091e+05,1.1927e+08,5,5781,5728,14.51,3.7,26,45,0,0
2.4136e+05,1.1937e+08,5,5729,5742,14.52,3.68,26,45,0,0
2.4225e+05,1.196e+08,5,5747,5871,14.51,3.91,26,45,0,0
2.4265e+05,1.197e+08,5,5871,5900,14.5,4.3,26,45,0,0
2.431e+05,1.1981e+08,5,5906,6028,14.48,4.35,26,45,0,0
2.4355e+05,1.1992e+08,5,6035,6142,14.5,4.37,26,45,0,0
2.44e+05,1.2003e+08,5,6132,6042,14.53,3.97,26,46,0,0
2.4444e+05,1.2014e+08,5,6047,6128,14.53,4.19,26,46,0,0
2.4489e+05,1.2025e+08,5,6128,6128,14.54,4.14,26,46,0,0
2.453e+05,1.2035e+08,5,6109,5914,14.57,3.5,26,46,0,0
2.4619e+05,1.2057e+08,5,5915,5957,14.44,4.5,26,46,0,0
2.466e+05,1.2068e+08,5,5956,5885,14.54,3.82,26,46,0,0
2.4709e+05,1.208e+08,5,5890,5942,14.47,4.09,26,46,0,0
2.4748e+05,1.209e+08,5,5942,5985,14.45,4.3,26,47,0,0
2.4793e+05,1.21e+08,5,5982,5885,14.49,4.09,26,47,0,0
2.4837e+05,1.2111e+08,5,5887,5942,14.49,4.09,26,47,0,0
2.4882e+05,1.2122e+08,5,5943,6014,14.46,3.96,26,47,0,0
2.4927e+05,1.2133e+08,5,6012,5971,14.54,3.87,26,47,0,0
2.4977e+05,1.2145e+08,5,5958,5828,14.54,3.81,26,47,0,0
2.5017e+05,1.2155e+08,5,5834,5914,14.52,3.98,26,47,0,0
2.5062e+05,1.2166e+08,5,5915,5928,14.57,4.15,26,47,0,0
2.5107e+05,1.2177e+08,5,5934,6014,14.59,4.07,26,47,0,0
2.5196e+05,1.2199e+08,5,6013,6000,14.57,3.94,26,48,0,0
2.5237e+05,1.221e+08,5,6000,6028,14.5,3.89,26,48,0,0
2.5281e+05,1.222e+08,5,6031,6114,14.53,3.81,26,48,0,0
2.533e+05,1.2232e+08,5,6091,5857,14.5,3.79,26,48,0,0
2.5375e+05,1.2243e+08,5,5862,5914,14.51,3.39,26,48,0,0
2.5419e+05,1.2254e+08,5,5913,5900,14.53,3.63,26,48,0,0
2.5464e+05,1.2265e+08,5,5884,5714,14.55,3.19,26,48,0,0
2.5508e+05,1.2276e+08,5,5710,5628,14.59,3.2,26,49,0,0
2.5554e+05,1.2287e+08,5,5607,5400,14.61,2.76,26,49,0,0
2.5594e+05,1.2297e+08,5,5416,5742,14.52,3.88,26,49,0,0
2.5679e+05,1.2319e+08,5,5744,5871,14.54,3.69,26,49,0,0
2.5806e+05,1.2351e+08,5,5871,6000,14.56,3.71,26,49,0,0
2.5854e+05,1.2362e+08,5,6005,6057,14.58,3.64,26,49,0,0
2.5899e+05,1.2373e+08,5,6044,5885,14.63,3.64,26,50,0,0
2.5943e+05,1.2383e+08,5,5885,5900,14.44,3.91,26,50,0,0
2.5988e+05,1.2394e+08,5,5900,5914,14.57,4.08,26,50,0,0
2.6077e+05,1.2417e+08,5,5913,5885,14.65,3.27,26,50,0,0
2.6122e+05,1.2428e+08,5,5872,5742,14.63,3.29,26,50,0,0
2.6167e+05,1.2439e+08,5,5733,5614,14.7,3.08,26,50,0,0
2.6208e+05,1.2449e+08,5,5604,5371,14.71,2.8,26,50,0,0
2.6252e+05,1.246e+08,5,5372,5457,14.66,3.17,26,50,0,0
2.6293e+05,1.2471e+08,5,5461,5571,14.57,3.41,26,50,0,0
2.6342e+05,1.2482e+08,5,5573,5614,14.6,3.16,26,51,0,0
2.6382e+05,1.2493e+08,5,5604,5414,14.65,2.64,26,51,0,0
2.6428e+05,1.2503e+08,5,5415,5442,14.66,3.14,26,51,0,0
2.6472e+05,1.2514e+08,5,5436,5357,14.66,2.74,26,51,0,0
2.6517e+05,1.2525e+08,5,5354,5185,14.66,2.69,26,51,0,0
2.6561e+05,1.2536e+08,5,5158,4885,14.64,2.4,26,51,0,0
2.6605e+05,1.2547e+08,5,4893,5142,14.66,3.02,26,51,0,0
2.665e+05,1.2557e+08,5,5143,5228,14.58,2.93,26,51,0,0
2.6743e+05,1.258e+08,5,5235,5385,14.57,3.39,26,51,0,0
2.6784e+05,1.2591e+08,5,5383,5371,14.55,2.96,26,51,0,0
2.6829e+05,1.2602e+08,5,5377,5428,14.63,3.05,26,52,0,0
2.687e+05,1.2612e+08,5,5425,5285,14.53,3.01,26,52,0,0
2.6919e+05,1.2624e+08,5,5292,5357,14.63,2.95,26,52,0,0
2.6959e+05,1.2635e+08,5,5361,5385,14.53,3.25,26,52,0,0
2.7004e+05,1.2646e+08,5,5389,5428,14.59,2.87,26,52,0,0
2.7045e+05,1.2656e+08,5,5437,5500,14.61,3.14,26,52,0,0
2.7088e+05,1.2667e+08,5,5497,5471,14.55,3.12,26,52,0,0
2.7133e+05,1.2678e+08,5,5501,5814,14.54,3.7,26,52,0,0
2.7178e+05,1.2688e+08,5,5801,5671,14.54,3.73,26,52,0,0
2.7223e+05,1.27e+08,5,5669,5657,14.62,3.36,26,52,0,0
2.7267e+05,1.271e+08,5,5657,5657,14.61,3.22,26,53,0,0
2.7312e+05,1.2722e+08,5,5651,5585,14.6,3.07,26,53,0,0
2.7353e+05,1.2732e+08,5,5584,5571,14.61,3.19,26,53,0,0
2.7397e+05,1.2742e+08,5,5571,5571,14.64,3.12,26,53,0,0
2.7442e+05,1.2753e+08,5,5561,5371,14.62,2.86,26,53,0,0
2.7483e+05,1.2764e+08,5,5386,5542,14.6,2.84,26,53,0,0
2.7524e+05,1.2774e+08,5,5542,5557,14.58,3.14,26,53,0,0
2.7616e+05,1.2796e+08,5,5555,5471,14.61,3.12,26,53,0,0
2.7661e+05,1.2808e+08,5,5469,5457,14.6,3.06,26,53,0,0
2.7706e+05,1.2818e+08,5,5465,5585,14.59,3.49,26,53,0,0
2.7795e+05,1.284e+08,5,5588,5757,14.54,3.32,26,54,0,0
2.7884e+05,1.2861e+08,5,5759,5814,14.57,3.66,26,54,0,0
2.7924e+05,1.2872e+08,5,5810,5742,14.55,3.41,26,54,0,0
2.7974e+05,1.2884e+08,5,5735,5685,14.61,3.33,26,54,0,0
2.8054e+05,1.2904e+08,5,5686,5757,14.54,3.72,26,54,0,0
2.8103e+05,1.2916e+08,5,5767,5885,14.52,3.59,26,54,0,0
2.8148e+05,1.2926e+08,5,5870,5728,14.63,3.69,26,54,0,0
2.8189e+05,1.2937e+08,5,5734,5814,14.57,3.65,26,55,0,0
2.8233e+05,1.2948e+08,5,5803,5657,14.53,3.26,26,55,0,0
2.8278e+05,1.2959e+08,5,5660,5742,14.55,3.25,26,55,0,0
2.8323e+05,1.297e+08,5,5749,5828,14.57,3.58,26,55,0,0
2.8368e+05,1.2981e+08,5,5811,5642,14.56,3.45,26,55,0,0
2.8412e+05,1.2992e+08,5,5649,5728,14.54,3.3,26,55,0,0
2.8453e+05,1.3002e+08,5,5721,5571,14.57,3.22,26,55,0,0
2.8497e+05,1.3014e+08,5,5572,5685,14.64,3.19,26,55,0,0
2.8542e+05,1.3025e+08,5,5684,5657,14.58,3.12,26,55,0,0
2.8586e+05,1.3035e+08,5,5653,5514,14.61,2.94,26,55,0,0
2.8632e+05,1.3046e+08,5,5523,5614,14.58,3.1,26,56,0,0
2.8676e+05,1.3057e+08,5,5614,5614,14.6,3.3,26,56,0,0
2.8719e+05,1.3067e+08,5,5611,5528,14.62,3.08,26,56,0,0
2.877e+05,1.3079e+08,5,5526,5514,14.52,3.5,26,56,0,0
2.881e+05,1.3089e+08,5,5515,5542,14.58,3.25,26,56,0,0
2.8855e+05,1.3101e+08,5,5532,5442,14.6,3.31,26,56,0,0
2.8899e+05,1.3112e+08,5,5462,5800,14.5,3.65,26,56,0,0
2.8944e+05,1.3122e+08,5,5812,5985,14.49,3.97,26,56,0,0
2.8988e+05,1.3133e+08,5,5980,5871,14.44,4.17,26,56,0,0
2.9033e+05,1.3144e+08,5,5878,5971,14.47,3.83,26,57,0,0
2.9077e+05,1.3155e+08,5,5968,5942,14.48,4.11,26,57,0,0
2.9121e+05,1.3165e+08,5,5945,6100,14.45,4.34,26,57,0,0
2.9166e+05,1.3176e+08,5,6108,6285,14.48,4.22,26,57,0,0
2.9211e+05,1.3188e+08,5,6271,6000,14.54,3.31,26,57,0,0
2.9256e+05,1.3198e+08,5,5994,5914,14.59,3.68,26,57,0,0
2.93e+05,1.3209e+08,5,5908,5828,14.52,3.64,26,57,0,0
2.9345e+05,1.322e+08,5,5836,5957,14.54,3.49,26,57,0,0
2.9385e+05,1.323e+08,5,5957,5971,14.6,3.47,26,58,0,0
2.9434e+05,1.3242e+08,5,5948,5728,14.6,2.9,26,58,0,0
2.9474e+05,1.3252e+08,5,5725,5571,14.55,3.26,26,58,0,0
2.9523e+05,1.3264e+08,5,5577,5657,14.55,3.47,26,58,0,0
2.9567e+05,1.3275e+08,5,5663,5728,14.51,3.31,26,58,0,0
2.9656e+05,1.3297e+08,5,5724,5671,14.54,3.45,26,58,0,0
2.9742e+05,1.3318e+08,5,5673,5771,14.55,3.22,26,58,0,0
2.9786e+05,1.3329e+08,5,5756,5614,14.56,3.22,26,58,0,0
2.9832e+05,1.334e+08,5,5627,5742,14.49,3.38,26,59,0,0
2.9916e+05,1.3361e+08,5,5740,5557,14.6,3.08,26,59,0,0
2.9961e+05,1.3372e+08,5,5556,5500,14.62,3.07,26,59,0,0
3.0005e+05,1.3383e+08,5,5493,5371,14.61,2.83,26,59,0,0
3.0053e+05,1.3395e+08,5,5378,5471,14.6,3.23,26,59,0,0
3.0098e+05,1.3405e+08,5,5473,5514,14.53,3.13,26,59,0,0
3.0139e+05,1.3416e+08,5,5511,5414,14.57,2.85,26,59,0,0
3.0228e+05,1.3438e+08,5,5414,5428,14.55,3.31,26,59,0,0
3.0272e+05,1.3449e+08,5,5437,5600,14.58,2.96,26,59,0,0
3.0317e+05,1.346e+08,5,5593,5400,14.59,3.11,26,60,0,0
3.0361e+05,1.3471e+08,5,5420,5657,14.6,3.17,26,60,0,0
3.041e+05,1.3482e+08,5,5657,5657,14.64,3.04,26,60,0,0
3.0446e+05,1.3492e+08,5,5654,5557,14.55,3.16,26,60,0,0
3.0492e+05,1.3503e+08,5,5566,5642,14.55,3.37,26,60,0,0
3.0532e+05,1.3513e+08,5,5643,5714,14.52,3.35,26,60,0,0
3.0622e+05,1.3536e+08,5,5720,5842,14.54,3.61,26,60,0,0
3.0666e+05,1.3547e+08,5,5835,5742,14.55,3.53,26,60,0,0
3.0711e+05,1.3558e+08,5,5740,5728,14.52,3.59,26,60,0,0
3.0753e+05,1.3568e+08,5,5727,5671,14.57,3.56,26,61,0,0
3.0802e+05,1.358e+08,5,5681,5800,14.57,3.42,26,61,0,0
3.0842e+05,1.359e+08,5,5797,5614,14.57,3.53,26,61,0,0
3.0891e+05,1.3602e+08,5,5627,5742,14.6,3.59,26,61,0,0
3.0931e+05,1.3612e+08,5,5742,5742,14.61,3.2,26,61,0,0
3.0976e+05,1.3623e+08,5,5736,5671,14.67,3.33,26,61,0,0
3.1021e+05,1.3634e+08,5,5668,5614,14.61,3,26,61,0,0
3.107e+05,1.3646e+08,5,5607,5557,14.63,3.67,26,61,0,0
3.111e+05,1.3656e+08,5,5559,5614,14.6,3.64,26,61,0,0
3.1155e+05,1.3667e+08,5,5627,5828,14.63,3.6,26,61,0,0
3.12e+05,1.3678e+08,5,5839,5957,14.59,3.95,26,62,0,0
3.1244e+05,1.3689e+08,5,5937,5742,14.71,2.73,26,62,0,0
3.1285e+05,1.3698e+08,5,5709,3628,14.59,1.34,26,62,0,0
3.1333e+05,1.371e+08,5,3640,3771,15.14,0.6,26,62,0,0
3.1374e+05,1.372e+08,5,3763,3357,15.14,0.68,26,62,0,0
3.1419e+05,1.3731e+08,5,3311,2685,15.08,0.08,26,62,0,0
3.1464e+05,1.3742e+08,5,2673,2528,15.08,0.35,26,62,0,0
3.1508e+05,1.3753e+08,5,2538,2642,15.07,0.41,26,62,0,0
3.1553e+05,1.3764e+08,5,2634,2542,15.08,0.28,26,62,0,0
3.1598e+05,1.3775e+08,5,2544,2571,15.08,0.48,26,62,0,0
3.1682e+05,1.3796e+08,5,2572,2600,15.05,0.47,26,62,0,0
3.1728e+05,1.3807e+08,5,2603,2628,15.05,0.42,26,62,0,0
3.1772e+05,1.3818e+08,5,2626,2614,15.07,0.39,26,62,0,0
3.1816e+05,1.3829e+08,5,2614,2614,15.09,0.4,26,62,0,0
3.1861e+05,1.384e+08,5,2612,2600,15.07,0.41,26,62,0,0
3.1902e+05,1.385e+08,5,2603,2685,15.08,0.45,26,62,0,0
3.195e+05,1.3861e+08,5,2685,2685,15.08,0.45,26,62,0,0
3.1994e+05,1.3872e+08,5,2686,2728,15.11,0.47,26,62,0,0
3.2044e+05,1.3884e+08,5,2730,2757,15.1,0.47,26,62,0,0
3.2088e+05,1.3894e+08,5,2722,2371,15.17,0.1,26,62,0,0
3.2132e+05,1.3905e+08,5,2312,1657,15.17,0,26,62,0,0
3.2181e+05,1.3916e+08,5,1628,1314,15.16,0.04,26,62,0,0
3.2222e+05,1.3926e+08,5,1311,1242,15.15,0.09,26,62,0,0
3.227e+05,1.3938e+08,5,1240,1228,15.15,0.1,26,62,0,0
3.2315e+05,1.3948e+08,5,1228,1228,15.16,0.1,26,62,0,0
3.236e+05,1.3959e+08,5,1228,1228,15.15,0.1,26,62,0,0
3.2404e+05,1.3969e+08,5,1228,1228,15.16,0.1,26,62,0,0
3.2454e+05,1.3981e+08,5,1228,1228,15.16,0.1,26,62,0,0
3.2494e+05,1.3992e+08,5,1228,1228,15.16,0.09,26,62,0,0
3.2538e+05,1.4002e+08,5,1228,1228,15.16,0.1,26,62,0,0
3.2583e+05,1.4013e+08,5,1228,1228,15.17,0.1,26,62,0,0
3.2676e+05,1.4035e+08,5,1227,1214,15.17,0.1,26,62,0,0
3.2721e+05,1.4046e+08,5,1215,1228,15.17,0.1,26,62,0,0
3.2762e+05,1.4056e+08,5,1228,1228,15.17,0.1,26,62,0,0
3.2851e+05,1.4078e+08,5,1228,1228,15.17,0.1,26,62,0,0
3.2896e+05,1.4089e+08,5,1228,1228,15.17,0.1,26,62,0,0
3.2941e+05,1.41e+08,5,1228,1228,15.18,0.1,26,62,0,0
3.2982e+05,1.411e+08,5,1228,1228,15.17,0.1,26,62,0,0
3.3026e+05,1.4121e+08,5,1228,1228,15.18,0.1,26,62,0,0
3.3071e+05,1.4132e+08,5,1228,1228,15.18,0.1,26,62,0,0
3.3116e+05,1.4142e+08,5,1228,1228,15.19,0.1,26,62,0,0
3.3165e+05,1.4154e+08,5,1228,1228,15.19,0.1,26,62,0,0
3.321e+05,1.4165e+08,5,1228,1228,15.19,0.1,26,62,0,0
3.3254e+05,1.4175e+08,5,1228,1228,15.19,0.1,26,62,0,0
3.3295e+05,1.4186e+08,5,1228,1228,15.19,0.1,26,62,0,0
3.3344e+05,1.4197e+08,5,1228,1228,15.19,0.1,26,62,0,0
3.3384e+05,1.4207e+08,5,1228,1228,15.19,0.1,25,62,0,0
3.3454e+05,1.4229e+08,5,1228,1228,15.19,0.1,26,62,0,0
3.3491e+05,1.424e+08,5,1228,1228,15.19,0.1,26,62,0,0
3.3531e+05,1.4251e+08,5,1228,1228,15.19,0.1,26,62,0,0
3.3577e+05,1.4261e+08,5,1228,1228,15.19,0.11,26,62,0,0
3.3621e+05,1.4272e+08,5,1228,1228,15.2,0.1,26,62,0,0
3.3666e+05,1.4283e+08,5,1228,1228,15.2,0.11,25,62,0,0
3.371e+05,1.4294e+08,5,1227,1214,15.2,0.11,25,62,0,0
3.3755e+05,1.4305e+08,5,1215,1228,15.2,0.11,25,62,0,0
3.38e+05,1.4315e+08,5,1228,1228,15.2,0.11,25,62,0,0
3.3841e+05,1.4326e+08,5,1227,1214,15.2,0.11,25,62,0,0
3.3885e+05,1.4336e+08,5,1214,1228,15.21,0.1,25,62,0,0
3.3934e+05,1.4348e+08,5,1228,1228,15.2,0.1,25,62,0,0
3.3978e+05,1.4358e+08,5,1227,1214,15.2,0.11,25,62,0,0
3.4023e+05,1.437e+08,5,1214,1214,15.21,0.1,26,62,0,0
3.4073e+05,1.4381e+08,5,1214,1214,15.21,0.11,25,62,0,0
3.4113e+05,1.4391e+08,5,1214,1228,15.21,0.11,25,62,0,0
3.4162e+05,1.4403e+08,5,1228,1228,15.2,0.1,25,62,0,0
3.4203e+05,1.4413e+08,5,1228,1228,15.2,0.11,25,62,0,0
3.4289e+05,1.4434e+08,5,1227,1214,15.21,0.11,25,62,0,0
3.4337e+05,1.4446e+08,5,1215,1228,15.22,0.11,25,62,0,0
3.4378e+05,1.4456e+08,5,1227,1214,15.22,0.11,25,62,0,0
3.4468e+05,1.4478e+08,5,1214,1228,15.21,0.11,25,62,0,0
3.4516e+05,1.4489e+08,5,1228,1228,15.23,0.1,25,62,0,0
3.4561e+05,1.45e+08,5,1228,1228,15.22,0.11,25,62,0,0
3.4605e+05,1.4511e+08,5,1228,1228,15.22,0.11,25,62,0,0
3.465e+05,1.4521e+08,5,1228,1228,15.23,0.11,25,62,0,0
3.4694e+05,1.4532e+08,5,1228,1228,15.23,0.11,25,62,0,0
3.4744e+05,1.4543e+08,5,1228,1228,15.23,0.1,25,62,0,0
3.4784e+05,1.4553e+08,5,1228,1228,15.23,0.11,25,62,0,0
3.483e+05,1.4565e+08,5,1228,1228,15.23,0.11,25,62,0,0
3.4874e+05,1.4575e+08,5,1228,1228,15.23,0.1,25,62,0,0
3.4919e+05,1.4586e+08,5,1228,1228,15.23,0.1,25,62,0,0
3.4964e+05,1.4597e+08,5,1228,1228,15.22,0.1,25,62,0,0
3.501e+05,1.4608e+08,5,1228,1228,15.23,0.1,25,62,0,0
3.5059e+05,1.4619e+08,5,1228,1228,15.23,0.1,25,62,0,0
3.5099e+05,1.4629e+08,5,1228,1228,15.23,0.11,25,62,0,0
3.5148e+05,1.4641e+08,5,1226,1214,15.23,0.11,25,62,0,0
3.5192e+05,1.4651e+08,5,1214,1214,15.23,0.1,25,62,0,0
3.5241e+05,1.4663e+08,5,1214,1214,15.24,0.11,25,62,0,0
3.5281e+05,1.4673e+08,5,1214,1228,15.23,0.1,25,62,0,0
3.5326e+05,1.4684e+08,5,1228,1228,15.25,0.1,25,62,0,0
3.5371e+05,1.4695e+08,5,1228,1228,15.25,0.1,25,62,0,0
3.5416e+05,1.4705e+08,5,1226,1214,15.24,0.11,25,62,0,0
3.5461e+05,1.4716e+08,5,1214,1228,15.23,0.1,25,62,0,0
3.5505e+05,1.4727e+08,5,1228,1228,15.24,0.1,25,62,0,0
3.555e+05,1.4737e+08,5,1228,1228,15.25,0.1,25,62,0,0
3.5597e+05,1.4749e+08,5,1227,1214,15.24,0.1,25,62,0,0
3.5643e+05,1.476e+08,5,1214,1214,15.25,0.11,25,62,0,0
3.5687e+05,1.4771e+08,5,1215,1228,15.25,0.11,25,62,0,0
3.5732e+05,1.4782e+08,5,1228,1228,15.24,0.1,25,62,0,0
3.5773e+05,1.4792e+08,5,1228,1228,15.25,0.1,25,62,0,0
3.5818e+05,1.4803e+08,5,1228,1228,15.25,0.1,25,62,0,0
3.5863e+05,1.4814e+08,5,1228,1228,15.26,0.1,25,62,0,0
3.5907e+05,1.4825e+08,5,1228,1228,15.25,0.1,25,62,0,0
3.5952e+05,1.4835e+08,5,1228,1228,15.25,0.11,25,62,0,0
3.5996e+05,1.4846e+08,5,1228,1228,15.25,0.11,25,62,0,0
3.6041e+05,1.4857e+08,5,1228,1228,15.25,0.11,25,62,0,0
3.6085e+05,1.4867e+08,5,1228,1228,15.26,0.11,25,62,0,0
3.6134e+05,1.4879e+08,5,1228,1228,15.25,0.11,25,62,0,0
3.6179e+05,1.489e+08,5,1228,1228,15.25,0.1,25,62,0,0
3.6222e+05,1.49e+08,5,1198,428,15.27,0,25,62,0,0
3.6263e+05,1.4911e+08,5,420,228,15.27,0.02,25,62,0,0
3.6304e+05,1.4921e+08,5,224,0,15.27,0.03,25,62,0,0
3.6349e+05,1.4933e+08,5,0,0,15.27,0.03,25,62,0,0
3.6394e+05,1.4944e+08,5,0,0,15.27,0.03,25,62,0,0
3.6431e+05,1.4954e+08,5,0,0,15.27,0.03,25,62,0,0
3.6476e+05,1.4965e+08,5,0,0,15.27,0.03,25,62,0,0
3.6517e+05,1.4975e+08,5,0,0,15.27,0.03,25,62,0,0
3.6607e+05,1.4998e+08,5,0,0,15.27,0.04,25,62,0,0
3.6648e+05,1.5008e+08,5,0,0,15.27,0.03,25,62,0,0
3.6687e+05,1.5019e+08,5,0,0,15.27,0.03,25,62,0,0
3.6732e+05,1.503e+08,5,0,0,15.27,0.03,25,62,0,0
3.6773e+05,1.504e+08,5,0,0,15.27,0.03,25,62,0,0
3.6814e+05,1.5051e+08,5,0,0,15.27,0.04,25,62,0,0
3.686e+05,1.5063e+08,5,0,0,15.28,0.03,25,62,0,0
3.6897e+05,1.5073e+08,5,0,0,15.27,0.04,25,62,0,0
3.6939e+05,1.5083e+08,5,0,0,15.28,0.04,25,62,0,0
3.698e+05,1.5094e+08,5,0,0,15.28,0.04,25,62,0,0
3.7026e+05,1.5105e+08,5,0,0,15.28,0.04,25,62,0,0
3.7067e+05,1.5116e+08,5,0,0,15.28,0.04,25,62,0,0
3.7153e+05,1.5138e+08,5,0,0,15.29,0.04,24,62,0,0
3.7194e+05,1.5148e+08,5,0,0,15.28,0.04,24,62,0,0
3.724e+05,1.5159e+08,5,0,0,15.29,0.04,24,62,0,0
3.7281e+05,1.517e+08,5,0,0,15.29,0.03,24,62,0,0
3.7322e+05,1.518e+08,5,0,0,15.29,0.04,24,62,0,0
3.7367e+05,1.5192e+08,5,0,0,15.29,0.04,24,62,0,0
3.7409e+05,1.5202e+08,5,0,0,15.29,0.04,25,62,0,0
3.745e+05,1.5213e+08,5,0,0,15.29,0.04,24,62,0,0
3.7491e+05,1.5224e+08,5,0,0,15.29,0.04,24,62,0,0
3.7532e+05,1.5234e+08,5,0,0,15.29,0.04,24,62,0,0
3.7577e+05,1.5246e+08,5,0,0,15.29,0.03,24,62,0,0
3.7618e+05,1.5257e+08,5,0,0,15.29,0.04,24,62,0,0
3.7659e+05,1.5267e+08,5,0,0,15.29,0.04,24,62,0,0
3.7698e+05,1.5278e+08,5,0,0,15.29,0.04,24,62,0,0
3.7738e+05,1.5288e+08,5,0,0,15.29,0.03,24,62,0,0
3.7784e+05,1.5299e+08,5,0,0,15.29,0.03,24,62,0,0
3.7828e+05,1.531e+08,5,0,0,15.29,0.03,24,62,0,0
3.787e+05,1.5321e+08,5,0,0,15.29,0.04,24,62,0,0
3.7911e+05,1.5332e+08,5,0,0,15.29,0.04,24,62,0,0
3.7956e+05,1.5343e+08,5,0,0,15.29,0.03,24,62,0,0
3.7998e+05,1.5354e+08,5,0,0,15.29,0.03,24,62,0,0
3.8039e+05,1.5364e+08,5,0,0,15.29,0.04,24,62,0,0
3.8079e+05,1.5375e+08,5,0,0,15.29,0.03,24,62,0,0
3.8121e+05,1.5385e+08,5,0,0,15.29,0.03,24,62,0,0
3.8166e+05,1.5397e+08,5,0,0,15.3,0.03,24,62,0,0
3.8207e+05,1.5407e+08,5,0,0,15.3,0.04,24,62,0,0
3.8249e+05,1.5418e+08,5,0,0,15.3,0.04,24,62,0,0
3.829e+05,1.5428e+08,5,0,0,15.29,0.04,24,62,0,0
3.8335e+05,1.544e+08,5,0,0,15.3,0.04,24,62,0,0
3.8376e+05,1.545e+08,5,0,0,15.29,0.04,24,62,0,0
3.8421e+05,1.5461e+08,5,0,0,15.3,0.04,24,62,0,0
3.8463e+05,1.5473e+08,5,0,0,15.3,0.04,24,62,0,0
3.8504e+05,1.5483e+08,5,0,0,15.3,0.04,24,62,0,0
3.8545e+05,1.5494e+08,5,0,0,15.3,0.04,24,62,0,0
3.8594e+05,1.5505e+08,5,0,0,15.3,0.04,24,62,0,0
3.8676e+05,1.5527e+08,5,0,0,15.3,0.03,24,62,0,0
3.8717e+05,1.5537e+08,5,0,0,15.3,0.04,24,62,0,0
3.8758e+05,1.5547e+08,5,0,0,15.3,0.04,24,62,0,0
3.8804e+05,1.5559e+08,5,0,0,15.3,0.04,24,62,0,0
3.8845e+05,1.5569e+08,5,0,0,15.3,0.04,24,62,0,0
3.8886e+05,1.5579e+08,5,0,0,15.3,0.04,24,62,0,0
3.8927e+05,1.559e+08,5,0,0,15.3,0.04,24,62,0,0
3.8972e+05,1.5601e+08,5,0,0,15.3,0.04,24,62,0,0
3.9018e+05,1.5613e+08,5,0,0,15.3,0.04,24,62,0,0
3.9059e+05,1.5623e+08,5,0,0,15.3,0.04,24,62,0,0
3.91e+05,1.5634e+08,5,0,0,15.3,0.04,24,62,0,0
