LineNo,TimeUS,Instance,RPM,RawRPM,Volt,Curr,Temp,CTot,MotTemp,Err
1727,60136520,0,0,0,15.31,0.04,30,0,0,0
2138,60238848,0,0,0,15.31,0.04,30,0,0,0
3012,60460339,0,0,0,15.31,0.04,30,0,0,0
3427,60562391,0,0,0,15.31,0.04,30,0,0,0
4287,60778311,0,0,0,15.31,0.04,30,0,0,0
4704,60884559,0,0,0,15.31,0.04,30,0,0,0
5153,60999490,0,0,0,15.32,0.04,30,0,0,0
5564,61102116,0,0,0,15.31,0.04,30,0,0,0
5978,61207130,0,0,0,15.31,0.04,30,0,0,0
6431,61321349,0,0,0,15.31,0.04,30,0,0,0
6841,61426472,0,0,0,15.31,0.04,30,0,0,0
7258,61533109,0,0,0,15.31,0.04,30,0,0,0
7674,61637375,0,0,0,15.31,0.04,30,0,0,0
8093,61746054,0,0,0,15.31,0.04,30,0,0,0
8511,61848942,0,0,0,15.32,0.04,30,0,0,0
8964,61961507,0,0,0,15.32,0.04,30,0,0,0
9381,62069907,0,0,0,15.31,0.04,30,0,0,0
9795,62175467,0,0,0,15.31,0.04,30,0,0,0
10250,62286909,0,0,0,15.32,0.04,30,0,0,0
10585,62390669,0,0,0,15.31,0.04,30,0,0,0
11002,62498230,0,0,0,15.31,0.04,30,0,0,0
11448,62612789,0,0,0,15.31,0.04,30,0,0,0
11900,62726725,0,0,0,15.31,0.04,30,0,0,0
12319,62829986,0,0,0,15.31,0.04,30,0,0,0
12728,62932899,0,0,0,15.32,0.04,30,0,0,0
13176,63046063,0,0,0,15.31,0.04,30,0,0,0
13584,63149032,0,0,0,15.31,0.04,30,0,0,0
14000,63253465,0,0,0,15.32,0.04,30,0,0,0
14456,63364849,0,0,0,15.32,0.04,30,0,0,0
14864,63468150,0,0,0,15.31,0.04,30,0,0,0
15321,63582896,0,0,0,15.31,0.04,30,0,0,0
15733,63688114,0,0,0,15.32,0.04,30,0,0,0
16149,63791314,0,0,0,15.31,0.04,30,0,0,0
16566,63896436,0,0,0,15.31,0.04,30,0,0,0
17019,64007815,0,0,0,15.31,0.04,30,0,0,0
17433,64115921,0,0,0,15.31,0.04,30,0,0,0
17845,64217266,0,0,0,15.31,0.04,30,0,0,0
18301,64332895,0,0,0,15.32,0.04,30,0,0,0
18715,64436014,0,0,0,15.31,0.04,30,0,0,0
19162,64547686,0,0,0,15.32,0.04,30,0,0,0
19572,64649129,0,0,0,15.31,0.04,30,0,0,0
19999,64765871,0,0,0,15.31,0.04,30,0,0,0
20445,64874426,0,0,0,15.32,0.04,30,0,0,0
20858,64977137,0,0,0,15.32,0.04,30,0,0,0
21242,65081471,0,0,0,15.31,0.04,30,0,0,0
21695,65193879,0,0,0,15.32,0.04,30,0,0,0
22148,65305498,0,0,0,15.31,0.04,30,0,0,0
22563,65407792,0,0,0,15.31,0.04,30,0,0,0
22975,65513711,0,0,0,15.31,0.04,30,0,0,0
23429,65627719,0,0,0,15.31,0.04,30,0,0,0
23838,65732881,0,0,0,15.32,0.04,30,0,0,0
24256,65836092,0,0,0,15.32,0.04,30,0,0,0
24703,65949626,0,0,0,15.31,0.04,30,0,0,0
25535,66161359,0,0,0,15.32,0.04,30,0,0,0
25952,66269664,0,0,0,15.31,0.04,30,0,0,0
26406,66382485,0,0,0,15.31,0.04,30,0,0,0
26818,66491271,0,0,0,15.3,0.04,30,0,0,0
27232,66593003,0,0,0,15.32,0.04,30,0,0,0
27642,66697472,0,0,0,15.32,0.04,30,0,0,0
28099,66810248,0,0,0,15.32,0.04,30,0,0,0
28514,66917495,0,0,0,15.31,0.04,30,0,0,0
28970,67032531,0,0,0,15.32,0.04,30,0,0,0
29416,67141940,0,0,0,15.31,0.04,30,0,0,0
29788,67236446,0,0,0,15.32,0.04,30,0,0,0
30240,67350447,0,0,0,15.32,0.04,30,0,0,0
30649,67452709,0,0,0,15.31,0.04,30,0,0,0
31102,67566568,0,0,0,15.32,0.04,30,0,0,0
31515,67670989,0,0,0,15.31,0.04,30,0,0,0
31931,67773040,0,0,0,15.32,0.04,30,0,0,0
32384,67889473,0,0,0,15.32,0.04,30,0,0,0
32799,67990840,0,0,0,15.31,0.04,30,0,0,0
33210,68097889,0,0,0,15.32,0.04,30,0,0,0
33667,68209870,0,0,0,15.31,0.04,30,0,0,0
34078,68311799,0,0,0,15.31,0.04,30,0,0,0
34531,68423656,0,0,0,15.31,0.05,30,0,0,0
34980,68537422,0,0,0,15.31,0.04,30,0,0,0
35391,68643641,0,0,0,15.31,0.04,30,0,0,0
35807,68745217,0,0,0,15.32,0.04,30,0,0,0
36252,68857291,0,0,0,15.32,0.04,30,0,0,0
36667,68959947,0,0,0,15.31,0.04,30,0,0,0
37121,69075835,0,0,0,15.31,0.04,30,0,0,0
37534,69177140,0,0,0,15.32,0.04,30,0,0,0
37950,69286519,0,0,0,15.31,0.04,30,0,0,0
38403,69398294,0,0,0,15.32,0.04,30,0,0,0
38818,69507861,0,0,0,15.31,0.04,30,0,0,0
39232,69612339,0,0,0,15.31,0.04,30,0,0,0
39641,69714958,0,0,0,15.32,0.04,30,0,0,0
40097,69828324,0,0,0,15.31,0.04,30,0,0,0
40544,69940131,0,0,0,15.31,0.04,30,0,0,0
40957,70048568,0,0,0,15.32,0.04,30,0,0,0
41373,70154295,0,0,0,15.31,0.04,30,0,0,0
42237,70370318,0,0,0,15.31,0.05,30,0,0,0
42657,70477936,0,0,0,15.31,0.04,30,0,0,0
43074,70583609,0,0,0,15.31,0.04,30,0,0,0
43490,70692307,0,0,0,15.31,0.04,30,0,0,0
43945,70804350,0,0,0,15.32,0.04,30,0,0,0
44320,70903143,0,0,0,15.31,0.04,30,0,0,0
44776,71015875,0,0,0,15.31,0.04,30,0,0,0
45187,71120374,0,0,0,15.31,0.04,30,0,0,0
45642,71234343,0,0,0,15.31,0.04,30,0,0,0
46053,71339981,0,0,0,15.32,0.04,30,0,0,0
46466,71444253,0,0,0,15.31,0.04,30,0,0,0
46919,71560720,0,0,0,15.31,0.04,30,0,0,0
47291,71657540,0,0,0,15.31,0.04,30,0,0,0
47746,71771107,0,0,0,15.32,0.04,30,0,0,0
48175,71878095,0,0,0,15.31,0.05,30,0,0,0
48628,71983909,0,0,0,15.32,0.04,30,0,0,0
49084,72092444,0,0,0,15.31,0.04,30,0,0,0
49580,72205952,0,0,0,15.31,0.04,30,0,0,0
49990,72304712,0,0,0,15.31,0.04,30,0,0,0
50487,72417139,0,0,0,15.31,0.04,30,0,0,0
51393,72628548,0,0,0,15.32,0.04,30,0,0,0
51886,72740146,0,0,0,15.31,0.03,30,0,0,0
52340,72845316,0,0,0,15.32,0.04,30,0,0,0
52839,72958117,0,0,0,15.31,0.04,30,0,0,0
53333,73072150,0,0,0,15.31,0.04,30,0,0,0
54196,73276033,0,0,0,15.31,0.04,30,0,0,0
54693,73390866,0,0,0,15.31,0.04,30,0,0,0
55143,73497292,0,0,0,15.31,0.04,30,0,0,0
55645,73611236,0,0,0,15.31,0.04,30,0,0,0
56100,73718007,0,0,0,15.31,0.04,30,0,0,0
56553,73819949,0,0,0,15.31,0.04,30,0,0,0
57307,74042270,0,13,128,15.27,0.16,30,0,0,0
57726,74144069,0,137,842,15.29,0.17,30,0,0,0
58179,74247898,0,845,1100,15.29,0.14,30,0,0,0
58673,74362072,0,1104,1171,15.29,0.12,30,0,0,0
59128,74470505,0,1172,1214,15.29,0.11,30,0,0,0
59580,74576277,0,1214,1214,15.29,0.11,30,0,0,0
60036,74683894,0,1214,1228,15.29,0.11,30,0,0,0
60982,74900865,0,1228,1228,15.3,0.11,30,0,0,0
61701,75118934,0,1228,1228,15.29,0.11,30,0,0,0
62155,75221692,0,1228,1228,15.3,0.11,30,0,0,0
62651,75336231,0,1228,1228,15.3,0.11,30,0,0,0
63107,75445510,0,1228,1228,15.29,0.11,30,0,0,0
63522,75544376,0,1228,1228,15.29,0.11,30,0,0,0
64018,75659643,0,1228,1228,15.29,0.11,30,0,0,0
64477,75765252,0,1228,1228,15.3,0.11,30,0,0,0
64935,75876816,0,1239,1357,15.26,0.21,30,0,0,0
65389,75978123,0,1394,1985,15.17,0.77,30,0,0,0
65843,76087101,0,2006,2528,15.14,0.97,30,0,0,0
66339,76202795,0,2567,2971,15.07,1.77,30,0,0,0
66792,76310812,0,3005,3442,15.03,1.66,30,0,0,0
67287,76425150,0,3494,4071,14.92,2.33,30,0,0,0
67696,76528130,0,4118,4714,14.8,2.87,30,0,0,0
68148,76634279,0,4745,5171,14.65,3.56,30,0,0,0
68602,76743092,0,5225,5742,14.52,4.1,30,0,0,0
69053,76851548,0,5774,6185,14.53,4.72,30,1,0,0
69507,76959351,0,6200,6357,14.59,4.6,30,1,0,0
69958,77068822,0,6361,6600,14.58,4.52,30,1,0,0
70457,77184063,0,6571,6285,14.6,4.56,30,1,0,0
70906,77290330,0,6289,6357,14.66,4.81,30,1,0,0
71359,77394360,0,6356,6342,14.62,4.29,30,1,0,0
71814,77506932,0,6341,6328,14.63,4.51,30,1,0,0
72314,77625303,0,6337,6442,14.59,4.6,30,1,0,0
72726,77726716,0,6442,6442,14.64,4.72,30,2,0,0
73181,77832719,0,6439,6400,14.65,4.62,30,2,0,0
73638,77946245,0,6397,6357,14.66,4.45,30,2,0,0
74587,78166661,0,6356,6328,14.63,4.58,30,2,0,0
75002,78270958,0,6329,6385,14.58,4.49,30,2,0,0
75498,78387348,0,6379,6328,14.61,4.65,30,2,0,0
75945,78493872,0,6334,6414,14.61,4.74,30,3,0,0
76400,78602923,0,6416,6457,14.58,4.87,30,3,0,0
76857,78715549,0,6460,6500,14.6,4.79,30,3,0,0
77308,78819270,0,6486,6300,14.6,4.35,30,3,0,0
77758,78925536,0,6300,6300,14.55,4.53,30,3,0,0
78257,79044136,0,6307,6385,14.56,4.53,30,3,0,0
78700,79154244,0,6377,6271,14.6,4.43,30,4,0,0
79103,79258414,0,6272,6342,14.54,4.38,30,4,0,0
79552,79364104,0,6339,6228,14.59,4.34,30,4,0,0
79964,79472312,0,6225,6085,14.6,4.15,30,4,0,0
80449,79585075,0,6096,6214,14.5,4.43,30,4,0,0
80860,79691670,0,6220,6300,14.51,4.28,30,4,0,0
81307,79799396,0,6297,6171,14.57,4.39,30,4,0,0
81760,79912307,0,6190,6385,14.57,4.46,30,4,0,0
82207,80019468,0,6379,6328,14.54,4.43,30,4,0,0
82649,80131521,0,6322,6271,14.55,4.87,30,5,0,0
83060,80228876,0,6272,6328,14.52,4.67,30,5,0,0
83546,80348254,0,6336,6428,14.49,4.88,30,5,0,0
83991,80456518,0,6429,6471,14.54,4.8,30,5,0,0
84436,80568002,0,6456,6342,14.54,4.79,30,5,0,0
84886,80677804,0,6353,6457,14.48,4.89,30,5,0,0
85294,80776295,0,6457,6457,14.56,4.68,30,6,0,0
86188,80995447,0,6455,6242,14.6,4.22,30,6,0,0
86627,81108987,0,6242,6242,14.64,4.34,30,6,0,0
87081,81220894,0,6226,6100,14.7,3.55,30,6,0,0
87489,81327247,0,6081,5871,14.69,3.63,30,6,0,0
87939,81430860,0,5860,5742,14.67,3.28,30,6,0,0
88386,81541704,0,5742,5742,14.6,3.63,30,6,0,0
88797,81643678,0,5758,5928,14.61,3.77,30,7,0,0
89243,81758312,0,5926,5914,14.63,3.89,30,7,0,0
90132,81978128,0,5905,5814,14.68,3.61,30,7,0,0
90540,82079046,0,5821,5914,14.65,3.47,30,7,0,0
91435,82296093,0,5914,5914,14.69,3.94,30,7,0,0
92786,82631709,0,5912,5871,14.66,3.83,30,8,0,0
93183,82731061,0,5874,6071,14.66,3.75,30,8,0,0
93670,82849542,0,6060,5971,14.61,4.05,31,8,0,0
94117,82956533,0,5972,6000,14.66,4.02,30,8,0,0
94975,83171118,0,6001,6028,14.62,4.25,31,8,0,0
95378,83275060,0,6031,6185,14.6,4.27,31,8,0,0
95830,83381875,0,6187,6342,14.54,4.67,31,8,0,0
96278,83499014,0,6332,6242,14.58,4.43,31,8,0,0
96687,83600864,0,6242,6242,14.56,5.05,31,9,0,0
97138,83713938,0,6260,6514,14.55,5.45,31,9,0,0
97587,83820263,0,6543,6885,14.54,6.07,31,9,0,0
98032,83932054,0,6886,6900,14.41,6.29,31,9,0,0
98436,84031480,0,6900,6900,14.54,6.5,31,9,0,0
98881,84141283,0,6903,7171,14.48,6.2,31,10,0,0
99771,84360487,0,7144,6628,14.42,5.16,31,10,0,0
100251,84473659,0,6602,6242,14.55,3.8,31,10,0,0
100699,84581316,0,6203,5814,14.58,2.32,31,10,0,0
101144,84690360,0,5737,4985,14.58,1.25,31,10,0,0
101544,84788523,0,4956,4400,14.52,1.2,31,10,0,0
101992,84904028,0,4386,4242,14.56,1.43,31,10,0,0
102475,85013293,0,4253,4414,14.57,2.07,31,10,0,0
102882,85116219,0,4427,5200,14.54,3.76,31,10,0,0
103374,85235346,0,5235,5585,14.48,4.28,31,11,0,0
103780,85341849,0,5632,6085,14.52,4.77,31,11,0,0
104232,85452411,0,6118,6442,14.48,5.39,31,11,0,0
105123,85668877,0,6462,6871,14.48,6.13,31,11,0,0
106020,85884930,0,6879,7071,14.51,5.99,31,11,0,0
106467,85992146,0,7063,6957,14.51,5.96,31,12,0,0
106907,86096325,0,6951,6757,14.39,5.69,31,12,0,0
107360,86209446,0,6755,6728,14.55,5.32,31,12,0,0
107804,86320367,0,6724,6685,14.47,5.31,31,12,0,0
108243,86422756,0,6686,6742,14.47,5.25,31,12,0,0
108687,86533405,0,6738,6671,14.51,5.25,31,13,0,0
109139,86641957,0,6671,6671,14.45,5.38,31,13,0,0
109622,86757505,0,6678,6785,14.44,5.35,31,13,0,0
110081,86872942,0,6776,6685,14.42,5.02,31,13,0,0
110531,86981333,0,6676,6585,14.46,5.1,31,13,0,0
110978,87090915,0,6588,6628,14.46,4.94,31,13,0,0
111426,87198574,0,6616,6500,14.48,4.77,31,13,0,0
112714,87516504,0,6501,6700,14.45,4.94,31,14,0,0
113206,87634830,0,6682,6442,14.55,4.78,31,14,0,0
113652,87745657,0,6453,6571,14.55,4.76,31,14,0,0
114505,87956363,0,6568,6471,14.58,4.51,31,15,0,0
114950,88069127,0,6463,6357,14.59,4.26,31,15,0,0
115402,88179055,0,6355,6342,14.53,4.59,31,15,0,0
115847,88288316,0,6338,6300,14.57,4.03,32,15,0,0
116296,88396476,0,6300,6300,14.49,4.62,31,15,0,0
116747,88511846,0,6281,6100,14.55,4.55,32,15,0,0
117154,88610519,0,6101,6128,14.66,4.18,31,15,0,0
117557,88713285,0,6129,6214,14.54,4.42,32,16,0,0
118491,88938853,0,6219,6385,14.55,4.67,32,16,0,0
118947,89050865,0,6386,6400,14.62,4.46,31,16,0,0
119348,89153886,0,6400,6400,14.52,4.32,31,16,0,0
120240,89369796,0,6402,6485,14.53,4.46,32,16,0,0
120643,89473452,0,6484,6471,14.49,4.94,32,16,0,0
121099,89586027,0,6471,6471,14.54,4.98,32,17,0,0
121543,89693909,0,6471,6471,14.58,4.49,32,17,0,0
121994,89801785,0,6476,6542,14.57,4.55,32,17,0,0
122398,89905034,0,6537,6442,14.62,4.68,32,17,0,0
122889,90021452,0,6440,6428,14.61,4.7,32,17,0,0
123296,90123362,0,6429,6542,14.58,4.42,32,17,0,0
123745,90232270,0,6542,6542,14.58,4.84,32,17,0,0
124194,90343138,0,6537,6428,14.52,4.7,32,18,0,0
125087,90561501,0,6428,6471,14.48,4.8,32,18,0,0
125532,90674213,0,6471,6471,14.53,4.56,32,18,0,0
126012,90787327,0,6459,6371,14.58,4.21,32,18,0,0
126458,90896904,0,6359,6257,14.5,4.52,32,18,0,0
126911,91008608,0,6269,6357,14.52,4.5,32,19,0,0
127069,91212550,0,6356,6228,14.5,4.28,32,19,0,0
127525,91326908,0,6237,6342,14.47,4.75,32,19,0,0
127931,91428214,0,6342,6385,14.5,4.84,32,19,0,0
128415,91546956,0,6404,6585,14.48,4.62,32,19,0,0
128865,91656479,0,6572,6457,14.52,4.49,32,19,0,0
129307,91762949,0,6458,6485,14.47,4.36,32,19,0,0
129756,91875840,0,6464,6257,14.51,4.43,32,20,0,0
130162,91975445,0,6258,6314,14.42,4.51,32,20,0,0
130576,92085949,0,6313,6300,14.37,4.71,32,20,0,0
131507,92307822,0,6312,6542,14.46,4.97,32,20,0,0
132404,92529676,0,6536,6428,14.51,4.62,32,20,0,0
132816,92633089,0,6436,6557,14.48,4.8,32,21,0,0
133261,92743317,0,6552,6500,14.46,4.61,32,21,0,0
133665,92847372,0,6500,6514,14.39,4.98,32,21,0,0
134561,93067045,0,6507,6300,14.45,4.43,32,21,0,0
135007,93172278,0,6305,6385,14.33,4.94,32,21,0,0
135456,93286822,0,6388,6428,14.36,4.96,32,21,0,0
135902,93393450,0,6428,6428,14.41,4.69,32,22,0,0
136353,93507030,0,6438,6585,14.36,4.74,32,22,0,0
136805,93614909,0,6570,6371,14.44,4.74,32,22,0,0
137250,93724905,0,6377,6442,14.45,4.53,32,22,0,0
137698,93834512,0,6430,6285,14.45,4.49,32,22,0,0
138099,93937031,0,6286,6357,14.4,4.82,32,22,0,0
138584,94049274,0,6346,6157,14.41,4.39,32,22,0,0
139036,94160084,0,6168,6285,14.42,4.74,32,23,0,0
139479,94270342,0,6286,6300,14.43,4.68,32,23,0,0
139927,94379038,0,6281,6028,14.47,4.22,32,23,0,0
140831,94602285,0,6033,6142,14.52,3.86,32,23,0,0
141227,94702517,0,6141,6114,14.51,4.38,32,23,0,0
141676,94812482,0,6115,6185,14.5,3.81,32,23,0,0
142164,94927513,0,6182,6142,14.58,3.96,32,23,0,0
143054,95142987,0,6135,6000,14.56,3.83,32,24,0,0
143504,95257139,0,6004,6057,14.57,3.92,32,24,0,0
143912,95354915,0,6063,6157,14.57,3.76,32,24,0,0
144316,95460282,0,6155,6057,14.58,3.95,32,24,0,0
144771,95569088,0,6056,6028,14.51,3.73,32,24,0,0
145216,95676823,0,6026,5971,14.52,3.76,32,24,0,0
146147,95902250,0,5978,6128,14.52,4.32,32,25,0,0
146630,96013715,0,6141,6328,14.54,3.95,32,25,0,0
147036,96116712,0,6327,6314,14.47,4.05,33,25,0,0
147488,96228973,0,6312,6285,14.48,4.32,33,25,0,0
147937,96343455,0,6293,6371,14.46,4.66,33,25,0,0
148385,96455941,0,6382,6500,14.55,4.51,33,25,0,0
148755,96549923,0,6504,6557,14.46,5.02,33,25,0,0
149201,96661028,0,6554,6528,14.48,4.62,33,25,0,0
149651,96769560,0,6528,6542,14.48,4.82,33,26,0,0
150098,96882030,0,6536,6471,14.47,4.96,33,26,0,0
150549,96990714,0,6473,6542,14.43,4.93,33,26,0,0
150989,97096339,0,6538,6457,14.42,5.02,33,26,0,0
151439,97205101,0,6457,6485,14.38,4.95,33,26,0,0
152732,97523690,0,6484,6428,14.5,4.71,33,27,0,0
153226,97640350,0,6411,6242,14.47,4.65,33,27,0,0
153631,97743468,0,6258,6471,14.49,4.78,33,27,0,0
154078,97855099,0,6454,6314,14.47,4.34,33,27,0,0
154525,97962296,0,6315,6328,14.55,4.61,33,27,0,0
154969,98067708,0,6323,6214,14.48,4.63,33,27,0,0
155421,98179472,0,6224,6371,14.53,4.41,33,28,0,0
155862,98294869,0,6375,6414,14.52,5,33,28,0,0
156346,98407470,0,6415,6428,14.54,4.55,33,28,0,0
156753,98508014,0,6434,6500,14.49,4.54,33,28,0,0
157205,98614543,0,6466,5971,14.54,3.47,33,28,0,0
157653,98732888,0,5984,6071,14.58,3.89,33,28,0,0
158106,98845579,0,6068,6057,14.48,3.79,33,28,0,0
158549,98952311,0,6060,6100,14.5,4.08,33,28,0,0
158950,99053547,0,6101,6157,14.47,4.14,33,29,0,0
159401,99160374,0,6165,6257,14.55,4.33,33,29,0,0
159839,99267822,0,6256,6228,14.54,4.34,33,29,0,0
160288,99377217,0,6231,6271,14.52,4.12,33,29,0,0
160732,99484364,0,6261,6100,14.54,4.38,33,29,0,0
161188,99599317,0,6144,6471,14.48,4.73,33,29,0,0
161602,99709070,0,6455,6328,14.47,4.57,33,29,0,0
162500,99932243,0,6322,6200,14.45,4.37,33,30,0,0
163791,100247217,0,6201,6385,14.46,5.02,33,30,0,0
164242,100356851,0,6383,6342,14.51,4.85,33,30,0,0
164694,100473815,0,6358,6585,14.5,5.05,33,30,0,0
165147,100584096,0,6597,6728,14.36,5.21,33,31,0,0
165593,100691494,0,6707,6500,14.47,4.94,33,31,0,0
166042,100797952,0,6513,6714,14.46,5.43,33,31,0,0
166484,100906366,0,6706,6428,14.5,4.97,33,31,0,0
166980,101025917,0,6410,6228,14.44,4.29,33,31,0,0
167795,101233095,0,6229,6300,14.4,5.44,33,31,0,0
168237,101341986,0,6301,6342,14.42,4.59,33,32,0,0
168694,101460578,0,6338,6314,14.41,4.39,33,32,0,0
169099,101557110,0,6313,6300,14.42,4.83,33,32,0,0
169591,101677491,0,6313,6457,14.41,5.22,33,32,0,0
169997,101777945,0,6464,6628,14.41,5.57,33,32,0,0
170444,101889276,0,6619,6514,14.41,5.09,33,32,0,0
170853,101990541,0,6514,6542,14.41,4.61,33,33,0,0
171299,102101500,0,6531,6428,14.45,5.08,33,33,0,0
171745,102207910,0,6433,6542,14.4,4.86,33,33,0,0
172189,102317320,0,6525,6300,14.43,4.66,33,33,0,0
172637,102425690,0,6300,6314,14.5,4.69,33,33,0,0
173083,102537019,0,6319,6400,14.42,4.56,33,33,0,0
173530,102642995,0,6396,6257,14.44,5.18,33,33,0,0
173941,102749899,0,6262,6528,14.45,4.76,33,33,0,0
174432,102869434,0,6530,6557,14.48,4.61,33,34,0,0
174883,102975321,0,6543,6371,14.5,4.33,33,34,0,0
175326,103081928,0,6361,6228,14.51,4.51,33,34,0,0
175776,103192587,0,6225,6185,14.46,4.5,33,34,0,0
176223,103305934,0,6185,6185,14.45,4.43,33,34,0,0
176662,103407250,0,6184,6171,14.47,4.42,33,34,0,0
177150,103525309,0,6204,6557,14.54,4.83,34,34,0,0
177555,103624100,0,6548,6357,14.5,4.78,33,35,0,0
178007,103741147,0,6360,6414,14.45,4.8,34,35,0,0
178411,103843140,0,6416,6542,14.44,4.88,34,35,0,0
178902,103960703,0,6542,6542,14.5,4.78,33,35,0,0
179352,104071227,0,6514,6300,14.42,4.76,33,35,0,0
179761,104173714,0,6309,6500,14.41,5.21,34,35,0,0
180205,104284137,0,6470,6200,14.35,4.67,34,36,0,0
180654,104393671,0,6216,6442,14.38,5.01,34,36,0,0
181099,104499925,0,6442,6442,14.42,4.73,34,36,0,0
181550,104609461,0,6444,6471,14.44,4.79,34,36,0,0
181961,104717278,0,6469,6400,14.48,4.46,34,36,0,0
182450,104832857,0,6401,6414,14.5,4.73,34,36,0,0
182891,104940599,0,6412,6400,14.47,4.51,34,36,0,0
183340,105052929,0,6383,6242,14.44,4.79,34,36,0,0
183788,105160079,0,6246,6300,14.48,4.65,34,37,0,0
184192,105262855,0,6295,6242,14.47,4.7,34,37,0,0
184646,105374820,0,6255,6400,14.43,4.82,34,37,0,0
185051,105477936,0,6399,6385,14.46,4.78,34,37,0,0
185497,105584314,0,6388,6471,14.41,4.89,34,37,0,0
185907,105690235,0,6470,6457,14.42,4.94,34,37,0,0
186398,105807886,0,6458,6471,14.46,4.59,34,38,0,0
186791,105903267,0,6468,6371,14.3,5.17,34,38,0,0
187289,106022231,0,6386,6542,14.38,5.01,34,38,0,0
187692,106126096,0,6531,6385,14.46,4.25,34,38,0,0
187920,106232793,0,6377,6271,14.45,4.64,34,38,0,0
188330,106342749,0,6265,6185,14.49,4.61,34,38,0,0
188783,106458313,0,6180,6157,14.55,4.13,34,38,0,0
189664,106666551,0,6149,6000,14.47,4.27,34,39,0,0
190517,106879025,0,6005,6285,14.39,4.56,34,39,0,0
191010,107002707,0,6281,6257,14.41,4.38,34,39,0,0
191416,107097341,0,6253,6128,14.39,4.56,34,39,0,0
191901,107217869,0,6155,6371,14.35,4.69,34,39,0,0
192310,107321959,0,6358,6257,14.36,5,34,39,0,0
192762,107432089,0,6274,6457,14.26,5.11,34,40,0,0
193169,107538258,0,6458,6471,14.38,4.99,34,40,0,0
193580,107638478,0,6469,6428,14.28,5.08,34,40,0,0
194026,107746919,0,6431,6514,14.22,5.34,34,40,0,0
194919,107966700,0,6520,6642,14.25,5.38,34,40,0,0
195843,108188063,0,6640,6614,14.28,5.3,34,41,0,0
196288,108298847,0,6624,6714,14.24,5.83,34,41,0,0
196698,108397362,0,6718,6800,14.13,5.91,34,41,0,0
197151,108513804,0,6804,6842,14.1,5.35,34,41,0,0
197600,108620480,0,6844,6871,14.02,5.77,34,41,0,0
198040,108728130,0,6885,7100,14.1,6.99,34,41,0,0
198493,108842376,0,7102,7128,14.28,6.59,34,42,0,0
198934,108947083,0,7129,7142,14.3,6.57,34,42,0,0
199341,109050228,0,7136,7014,14.4,5.82,34,42,0,0
199792,109155304,0,7007,6642,14.37,5.59,34,42,0,0
200233,109266649,0,6644,6728,14.3,5.17,34,42,0,0
200728,109385455,0,6726,6714,14.35,6.01,34,43,0,0
201133,109485514,0,6714,6728,14.45,4.9,34,43,0,0
201580,109591060,0,6722,6600,14.27,4.41,34,43,0,0
202511,109819380,0,6598,6571,14.17,5.5,34,43,0,0
202960,109930025,0,6548,6314,14.41,3.91,34,43,0,0
203368,110030865,0,6310,6228,14.19,4.16,34,43,0,0
203855,110147513,0,6247,6457,14.16,5.12,34,44,0,0
204710,110359945,0,6461,6600,14.24,4.77,34,44,0,0
205156,110468909,0,6611,6842,14.24,5.61,34,44,0,0
205608,110579578,0,6831,6685,14.25,5.36,34,44,0,0
206055,110690326,0,6686,6714,14.28,5.11,34,44,0,0
206502,110794948,0,6720,6857,14.25,6.33,34,45,0,0
206952,110905271,0,6869,7128,14.32,5.81,34,45,0,0
207403,111014515,0,7120,7000,14.33,5.86,34,45,0,0
207808,111117902,0,6991,6814,14.4,4.62,34,45,0,0
208259,111228284,0,6798,6571,14.32,4.88,34,45,0,0
208702,111335813,0,6574,6657,14.35,4.65,34,45,0,0
209154,111447982,0,6620,6271,14.35,3.83,34,46,0,0
209605,111556543,0,6286,6685,14.45,4.87,34,46,0,0
210045,111664984,0,6638,6200,14.45,3.43,34,46,0,0
210491,111773884,0,6191,6100,14.46,3.9,34,46,0,0
210890,111874374,0,6101,6142,14.48,4.29,34,46,0,0
211828,112101103,0,6143,6171,14.54,3.42,34,46,0,0
212232,112200042,0,6169,6100,14.54,3.64,34,46,0,0
212677,112310953,0,6099,6042,14.52,3.18,34,47,0,0
213127,112420715,0,6029,5742,14.51,3.27,34,47,0,0
213985,112635230,0,5744,5957,14.47,3.85,34,47,0,0
214469,112752396,0,5970,6114,14.44,4.21,34,47,0,0
214912,112863490,0,6107,6042,14.47,3.8,34,47,0,0
215363,112972065,0,6038,6000,14.46,3.9,34,47,0,0
215794,113072370,0,5999,5985,14.41,3.88,34,47,0,0
216243,113180125,0,5988,6071,14.42,4.12,34,47,0,0
216725,113299342,0,6086,6271,14.39,4.48,34,48,0,0
217182,113410361,0,6291,6485,14.36,4.97,34,48,0,0
217590,113512100,0,6488,6585,14.36,5.17,34,48,0,0
218038,113621065,0,6582,6514,14.33,5.06,34,48,0,0
218517,113733439,0,6524,6657,14.35,5,34,48,0,0
218970,113851940,0,6642,6557,14.35,5.09,34,48,0,0
219373,113948514,0,6546,6457,14.33,5.17,34,49,0,0
219847,114058021,0,6469,6642,14.31,5.06,34,49,0,0
220256,114161513,0,6641,6614,14.37,5.22,34,49,0,0
220704,114271215,0,6612,6585,14.3,5.25,34,49,0,0
221187,114384540,0,6583,6571,14.37,4.87,34,49,0,0
221637,114503312,0,6532,6314,14.36,4.2,34,49,0,0
222044,114597875,0,6306,6128,14.33,4.08,34,49,0,0
222489,114711854,0,6114,5985,14.32,3.92,34,49,0,0
222936,114819286,0,5992,6057,14.31,4.24,34,50,0,0
223378,114930854,0,6066,6142,14.36,4.35,34,50,0,0
223829,115038040,0,6149,6214,14.39,4.49,34,50,0,0
224232,115138542,0,6216,6342,14.32,4.59,35,50,0,0
224714,115254446,0,6354,6485,14.37,4.55,34,50,0,0
225169,115373796,0,6455,6228,14.35,4.54,34,50,0,0
225570,115474501,0,6226,6214,14.4,4.49,34,50,0,0
226052,115586134,0,6238,6485,14.41,4.76,34,51,0,0
226501,115700518,0,6463,6300,14.41,4.76,34,51,0,0
226906,115796716,0,6302,6357,14.41,4.8,34,51,0,0
227352,115907224,0,6352,6285,14.4,4.47,34,51,0,0
227798,116018823,0,6285,6285,14.42,4.5,34,51,0,0
228204,116123069,0,6285,6314,14.35,4.22,34,51,0,0
228696,116238877,0,6295,6100,14.39,3.69,34,51,0,0
229096,116339370,0,6098,6042,14.39,3.74,34,52,0,0
229546,116452127,0,6032,5842,14.41,3.72,34,52,0,0
229988,116558921,0,5842,5857,14.39,3.84,34,52,0,0
230431,116671388,0,5855,5828,14.41,3.8,34,52,0,0
230881,116782331,0,5837,5928,14.49,3.76,34,52,0,0
231330,116891899,0,5939,6100,14.39,4.08,34,52,0,0
231777,117000507,0,6094,6014,14.35,4.07,34,52,0,0
232183,117105687,0,6008,5900,14.39,3.72,34,52,0,0
232632,117215214,0,5900,5914,14.32,3.79,34,52,0,0
233075,117322861,0,5912,5857,14.33,3.67,34,53,0,0
233561,117437857,0,5850,5757,14.32,3.58,34,53,0,0
234003,117545360,0,5765,5885,14.3,3.86,34,53,0,0
234449,117659086,0,5890,5942,14.38,3.96,34,53,0,0
234901,117769673,0,5944,5971,14.38,4.14,34,53,0,0
235306,117873553,0,5978,6057,14.34,4.21,35,53,0,0
235789,117983905,0,6060,6100,14.37,4.4,34,53,0,0
236191,118084815,0,6102,6185,14.31,4.57,35,53,0,0
236643,118197222,0,6181,6100,14.29,3.74,34,54,0,0
237096,118312049,0,6104,6157,14.38,4.49,34,54,0,0
237538,118418036,0,6157,6171,14.39,4.38,34,54,0,0
237947,118525886,0,6151,5957,14.41,3.86,34,54,0,0
238395,118636473,0,5937,5757,14.37,3.68,34,54,0,0
238802,118739991,0,5754,5685,14.45,3.54,34,54,0,0
239254,118848925,0,5687,5842,14.39,3.7,35,54,0,0
239700,118963828,0,5828,5700,14.4,3.52,34,54,0,0
240101,119063463,0,5710,5914,14.41,3.69,34,55,0,0
240551,119175893,0,5905,5785,14.35,3.86,34,55,0,0
240952,119276059,0,5789,5957,14.36,3.98,34,55,0,0
241402,119384516,0,5963,6214,14.39,4.4,34,55,0,0
241851,119499362,0,6212,6185,14.36,4.33,35,55,0,0
242297,119606936,0,6184,6171,14.35,4.42,35,55,0,0
242745,119717245,0,6168,6100,14.33,4.03,35,55,0,0
243196,119825858,0,6114,6471,14.32,5.12,35,55,0,0
243602,119932129,0,6468,6414,14.36,4.83,35,56,0,0
244089,120053036,0,6417,6457,14.32,4.75,34,56,0,0
244536,120158979,0,6439,6271,14.38,4.32,34,56,0,0
244939,120258452,0,6271,6271,14.41,4.27,35,56,0,0
245348,120362237,0,6267,6071,14.44,3.82,35,56,0,0
246238,120582885,0,6072,6214,14.33,4.26,35,56,0,0
246688,120699145,0,6214,6228,14.36,4.34,35,56,0,0
247135,120806542,0,6218,6014,14.41,3.78,34,57,0,0
247577,120918040,0,6018,6085,14.29,4.53,35,57,0,0
248023,121024227,0,6090,6200,14.3,4.63,34,57,0,0
248464,121133702,0,6201,6228,14.38,4.35,35,57,0,0
248915,121239901,0,6229,6257,14.35,4.49,35,57,0,0
249366,121350370,0,6257,6257,14.31,4.7,35,57,0,0
249813,121462130,0,6267,6414,14.38,4.79,34,57,0,0
250261,121571710,0,6408,6342,14.37,4.74,35,58,0,0
250664,121674076,0,6342,6385,14.31,4.81,35,58,0,0
251160,121792929,0,6392,6471,14.4,5.17,35,58,0,0
251562,121895133,0,6470,6442,14.39,5.18,35,58,0,0
252052,122013916,0,6449,6528,14.37,4.86,35,58,0,0
252457,122116897,0,6523,6428,14.31,4.88,35,58,0,0
252902,122225021,0,6437,6528,14.4,4.86,35,59,0,0
253348,122332095,0,6513,6328,14.37,4.87,35,59,0,0
253796,122442256,0,6328,6357,14.36,4.77,35,59,0,0
254278,122559274,0,6349,6271,14.39,4.56,35,59,0,0
254681,122660434,0,6271,6285,14.4,4.56,35,59,0,0
255174,122778889,0,6276,6200,14.39,4.4,35,59,0,0
255580,122882025,0,6196,6114,14.46,3.97,35,59,0,0
256027,122992074,0,6100,5928,14.38,4.07,34,59,0,0
256469,123109913,0,5972,6257,14.35,4.66,35,60,0,0
256879,123206146,0,6258,6300,14.33,4.91,35,60,0,0
257324,123317687,0,6314,6457,14.32,5,35,60,0,0
257729,123417130,0,6456,6442,14.32,5.27,35,60,0,0
258144,123526892,0,6445,6657,14.35,5.33,35,60,0,0
258590,123631513,0,6657,6685,14.36,5.07,35,60,0,0
259112,123757697,0,6669,6585,14.41,4.81,35,60,0,0
259519,123855699,0,6574,6471,14.39,4.93,35,61,0,0
259964,123969385,0,6464,6414,14.41,4.71,35,61,0,0
260367,124072845,0,6414,6428,14.4,4.59,35,61,0,0
260856,124189969,0,6404,6214,14.52,4.04,35,61,0,0
261268,124290372,0,6216,6285,14.51,4.29,35,61,0,0
261713,124400905,0,6283,6171,14.42,4.6,35,61,0,0
262159,124515276,0,6182,6271,14.58,3.75,35,61,0,0
262604,124622808,0,6230,5828,14.44,3.49,35,62,0,0
263019,124731337,0,5845,6000,14.39,4.73,35,62,0,0
263461,124837024,0,6001,6085,14.44,4.29,35,62,0,0
263912,124947270,0,6086,6114,14.5,4.18,35,62,0,0
264355,125061076,0,6114,6114,14.46,4.15,35,62,0,0
264800,125164281,0,6127,6242,14.45,4.38,35,62,0,0
265250,125274298,0,6257,6400,14.39,4.49,35,62,0,0
266139,125490218,0,6401,6442,14.43,4.61,35,63,0,0
266587,125596099,0,6430,6271,14.43,4.76,35,63,0,0
267026,125702671,0,6268,6214,14.36,4.37,35,63,0,0
267476,125814531,0,6229,6385,14.34,4.9,35,63,0,0
267887,125918862,0,6385,6385,14.42,4.8,35,63,0,0
268338,126036808,0,6389,6428,14.41,4.73,35,63,0,0
268783,126145713,0,6429,6442,14.35,4.71,35,63,0,0
269229,126255915,0,6449,6514,14.42,4.28,35,64,0,0
269638,126360826,0,6481,6185,14.44,4.55,35,64,0,0
270082,126472454,0,6191,6257,14.39,4.71,35,64,0,0
270491,126573004,0,6269,6514,14.41,4.83,35,64,0,0
271380,126788350,0,6512,6328,14.44,4.69,35,64,0,0
271824,126895367,0,6333,6457,14.4,4.72,35,64,0,0
272716,127114529,0,6453,6314,14.44,4.58,35,65,0,0
273172,127229487,0,6314,6314,14.44,4.52,35,65,0,0
273617,127339817,0,6314,6328,14.43,4.41,35,65,0,0
274057,127447028,0,6312,6157,14.39,4.16,35,65,0,0
274505,127554979,0,6154,6114,14.45,4.43,35,65,0,0
275327,127764800,0,6115,6200,14.41,4.33,35,65,0,0
275802,127875472,0,6204,6257,14.43,4.49,35,66,0,0
276255,127985528,0,6255,6242,14.42,4.26,35,66,0,0
276658,128088081,0,6241,6228,14.42,4.47,35,66,0,0
277148,128203924,0,6242,6385,14.41,4.37,35,66,0,0
278037,128418919,0,6380,6242,14.39,4.46,35,66,0,0
278437,128520048,0,6240,6185,14.38,4.46,35,66,0,0
278882,128624917,0,6185,6185,14.39,4.36,35,67,0,0
279334,128738057,0,6190,6271,14.37,4.69,35,67,0,0
279782,128849338,0,6279,6385,14.36,4.78,35,67,0,0
280228,128959074,0,6390,6442,14.39,4.62,35,67,0,0
280631,129061138,0,6431,6300,14.37,4.57,35,67,0,0
281076,129165379,0,6300,6300,14.36,4.49,35,67,0,0
281521,129274756,0,6295,6214,14.4,4.51,35,67,0,0
282426,129502448,0,6216,6271,14.41,4.64,35,68,0,0
283275,129712485,0,6269,6142,14.36,4.35,35,68,0,0
283727,129822889,0,6148,6271,14.39,4.58,35,68,0,0
284172,129934902,0,6270,6257,14.37,4.69,35,68,0,0
284624,130046082,0,6255,6214,14.44,4.6,35,68,0,0
285067,130156091,0,6212,6185,14.38,4.63,35,68,0,0
285513,130267699,0,6193,6271,14.42,4.5,35,69,0,0
285958,130370060,0,6271,6285,14.42,4.27,35,69,0,0
286361,130473277,0,6280,6157,14.4,4.34,35,69,0,0
286852,130591906,0,6160,6200,14.46,4.46,35,69,0,0
287288,130692250,0,6194,6100,14.39,4.38,35,69,0,0
288185,130913240,0,6103,6271,14.39,4.33,35,69,0,0
288638,131026079,0,6271,6271,14.38,4.58,35,70,0,0
289039,131125895,0,6270,6228,14.3,4.93,35,70,0,0
289484,131232245,0,6228,6242,14.25,5.14,35,70,0,0
289974,131352725,0,6259,6442,14.29,5.45,35,70,0,0
290377,131455471,0,6442,6500,14.33,5.32,35,70,0,0
290819,131562309,0,6500,6542,14.29,4.93,35,70,0,0
291303,131677333,0,6542,6542,14.34,4.91,35,70,0,0
291752,131784846,0,6536,6400,14.36,4.73,35,71,0,0
292197,131896038,0,6399,6385,14.32,4.8,35,71,0,0
292646,132012456,0,6387,6400,14.36,4.71,35,71,0,0
293088,132119540,0,6393,6328,14.36,4.57,35,71,0,0
293542,132229508,0,6326,6314,14.36,4.57,35,71,0,0
293940,132326234,0,6315,6357,14.33,4.51,35,71,0,0
294385,132435924,0,6349,6200,14.41,4.21,35,71,0,0
295310,132659834,0,6200,6200,14.38,4.35,35,72,0,0
295761,132771885,0,6208,6300,14.41,4.2,35,72,0,0
296607,132981802,0,6298,6271,14.4,4.26,35,72,0,0
297461,133192701,0,6268,6057,14.39,4.03,35,72,0,0
297909,133304719,0,6055,6042,14.39,4.1,35,73,0,0
298360,133415495,0,6033,5957,14.37,4,35,73,0,0
298762,133518303,0,5957,6014,14.38,4.17,35,73,0,0
299254,133633440,0,6018,6085,14.45,3.97,35,73,0,0
299695,133746096,0,6095,6200,14.41,3.88,35,73,0,0
300140,133858103,0,6190,6085,14.4,4.09,35,73,0,0
300576,133957079,0,6085,6100,14.39,3.85,35,73,0,0
301067,134076044,0,6096,6042,14.42,3.92,35,73,0,0
301475,134178093,0,6035,5957,14.44,4.03,35,73,0,0
301878,134281300,0,5957,5971,14.38,4.17,35,74,0,0
302323,134389087,0,5973,6071,14.36,3.82,35,74,0,0
302808,134507677,0,6054,5828,14.42,3.58,35,74,0,0
303259,134620100,0,5843,6000,14.42,4.04,35,74,0,0
303658,134718896,0,5999,5971,14.39,3.87,35,74,0,0
304150,134834894,0,5963,5885,14.44,3.84,35,74,0,0
304552,134938855,0,5905,6100,14.42,4.26,35,74,0,0
304958,135045709,0,6101,6114,14.43,3.94,35,74,0,0
305410,135155289,0,6106,6014,14.39,4.25,35,74,0,0
305856,135268381,0,6024,6185,14.42,4.17,35,75,0,0
306266,135369222,0,6183,6142,14.39,4.38,35,75,0,0
306710,135481323,0,6151,6328,14.42,4.19,35,75,0,0
307158,135588805,0,6320,6171,14.42,4.2,35,75,0,0
307615,135703904,0,6175,6285,14.41,4.15,35,75,0,0
308062,135810434,0,6271,6100,14.36,4.36,35,75,0,0
308506,135917497,0,6107,6257,14.39,4.18,35,75,0,0
308954,136027692,0,6249,6100,14.5,3.9,35,76,0,0
309403,136139381,0,6092,5985,14.51,4.12,35,76,0,0
309852,136251883,0,5973,5885,14.52,3.55,35,76,0,0
310298,136357006,0,5885,5885,14.47,3.68,35,76,0,0
310742,136465683,0,5882,5828,14.48,3.46,35,76,0,0
311197,136576898,0,5820,5657,14.45,3.66,35,76,0,0
311642,136687236,0,5675,5857,14.49,3.92,35,76,0,0
312091,136796904,0,5849,5771,14.45,3.32,35,76,0,0
312491,136897292,0,5773,5914,14.68,5.16,35,76,0,0
312940,137004334,0,5895,4842,14.42,3.86,35,77,0,0
313381,137111501,0,4812,4228,15.04,0.58,35,77,0,0
313834,137222140,0,4191,3171,14.95,0.24,35,77,0,0
314280,137332352,0,3158,2985,14.91,0.45,35,77,0,0
314729,137441892,0,2974,2871,14.92,0.38,35,77,0,0
315133,137542944,0,2870,2857,14.89,0.54,35,77,0,0
315619,137662294,0,2859,2900,14.9,0.52,35,77,0,0
316426,137864343,0,2899,2871,14.91,0.54,35,77,0,0
316917,137981069,0,2869,2857,14.91,0.49,35,77,0,0
317320,138085100,0,2857,2857,14.92,0.47,35,77,0,0
317766,138194335,0,2857,2857,14.91,0.5,35,77,0,0
318209,138305033,0,2857,2857,14.92,0.5600000000000001,35,77,0,0
318658,138410513,0,2856,2842,14.93,0.5,35,77,0,0
319106,138520913,0,2842,2857,14.94,0.54,35,77,0,0
319553,138624842,0,2856,2842,14.94,0.53,35,77,0,0
320034,138740508,0,2842,2842,14.94,0.5,35,77,0,0
320483,138847894,0,2843,2857,14.94,0.53,35,77,0,0
320922,138951359,0,2829,2271,15.02,0.06,35,77,0,0
321853,139170543,0,2251,1285,14.99,0.06,35,77,0,0
322341,139290901,0,1276,1228,14.98,0.09,35,77,0,0
322792,139397719,0,1226,1214,14.99,0.09999999,35,77,0,0
323193,139499466,0,1214,1214,14.99,0.11,35,77,0,0
323687,139613139,0,1214,1214,15,0.11,35,77,0,0
324125,139715814,0,1214,1214,15,0.11,35,77,0,0
324577,139828086,0,1214,1214,15,0.11,35,77,0,0
324980,139927703,0,1214,1214,15,0.11,35,77,0,0
325470,140042447,0,1214,1228,15.01,0.11,35,77,0,0
325919,140153007,0,1228,1228,15.01,0.09999999,35,77,0,0
326320,140253889,0,1227,1214,15.01,0.11,35,77,0,0
326805,140364073,0,1214,1228,15,0.11,35,77,0,0
327253,140472506,0,1227,1214,15.01,0.11,35,77,0,0
327707,140582922,0,1215,1228,15.01,0.11,35,77,0,0
328108,140682232,0,1228,1228,15.01,0.09999999,35,77,0,0
328604,140801895,0,1226,1214,15.01,0.11,35,77,0,0
329008,140903693,0,1214,1228,15.01,0.11,35,77,0,0
329459,141012233,0,1228,1228,15.02,0.11,35,77,0,0
329905,141121830,0,1228,1228,15.02,0.11,35,77,0,0
330353,141229380,0,1227,1214,15.02,0.11,35,77,0,0
330797,141337381,0,1214,1228,15.02,0.11,35,77,0,0
331252,141444102,0,1227,1214,15.02,0.11,35,77,0,0
331695,141551034,0,1214,1214,15.02,0.11,35,77,0,0
332141,141658423,0,1214,1214,15.03,0.11,35,77,0,0
332630,141772878,0,1214,1214,15.02,0.11,35,77,0,0
333041,141877574,0,1214,1214,15.02,0.11,34,77,0,0
333486,141983013,0,1214,1214,15.02,0.11,35,77,0,0
333935,142093340,0,1214,1214,15.02,0.11,34,77,0,0
334626,142307997,0,1214,1214,15.03,0.11,34,77,0,0
334956,142414320,0,1214,1214,15.03,0.11,34,77,0,0
335403,142525453,0,1214,1214,15.03,0.11,34,77,0,0
335856,142632705,0,1214,1214,15.04,0.11,34,77,0,0
336300,142740219,0,1214,1214,15.04,0.11,34,77,0,0
336753,142856401,0,1214,1214,15.04,0.09999999,34,77,0,0
337189,142956878,0,1214,1214,15.04,0.11,34,77,0,0
337636,143071139,0,1214,1214,15.04,0.11,34,77,0,0
338087,143181016,0,1214,1214,15.04,0.11,34,77,0,0
338493,143281048,0,1214,1214,15.04,0.09999999,34,77,0,0
338970,143389942,0,1215,1228,15.04,0.09999999,34,77,0,0
339420,143502445,0,1226,1214,15.04,0.09999999,34,77,0,0
340322,143717289,0,1214,1228,15.05,0.09999999,34,77,0,0
340771,143820896,0,1228,1228,15.04,0.09999999,34,77,0,0
341219,143934359,0,1228,1228,15.05,0.11,34,77,0,0
341666,144043271,0,1228,1228,15.05,0.11,34,77,0,0
342116,144150315,0,1228,1228,15.05,0.11,34,77,0,0
342528,144257715,0,1228,1228,15.05,0.11,34,77,0,0
342974,144362050,0,1228,1228,15.05,0.11,34,77,0,0
343419,144471313,0,1228,1228,15.05,0.09999999,34,77,0,0
343868,144578271,0,1228,1228,15.05,0.09999999,34,77,0,0
344767,144796791,0,1228,1228,15.06,0.09999999,34,77,0,0
345209,144903126,0,1228,1228,15.06,0.09999999,34,77,0,0
345658,145011222,0,1228,1228,15.06,0.09999999,34,77,0,0
346100,145117105,0,1228,1228,15.05,0.09999999,34,77,0,0
346596,145233643,0,1226,1214,15.05,0.09999999,34,77,0,0
347036,145336843,0,1214,1228,15.05,0.11,34,77,0,0
347932,145553510,0,1228,1228,15.07,0.09999999,34,77,0,0
348387,145667648,0,1228,1228,15.06,0.11,34,77,0,0
348835,145774466,0,1228,1228,15.06,0.11,34,77,0,0
349286,145882072,0,1228,1228,15.07,0.09999999,34,77,0,0
349735,145989845,0,1228,1228,15.07,0.09999999,34,77,0,0
350187,146100846,0,1228,1228,15.07,0.09999999,34,77,0,0
350632,146203812,0,1228,1228,15.06,0.09999999,34,77,0,0
351078,146314960,0,1227,1214,15.07,0.09999999,34,77,0,0
351523,146417534,0,1214,1228,15.07,0.09999999,34,77,0,0
352009,146533214,0,1228,1228,15.07,0.09999999,34,77,0,0
352455,146641429,0,1228,1228,15.07,0.09999999,34,77,0,0
353350,146859260,0,1228,1228,15.07,0.09999999,34,77,0,0
353799,146972145,0,1228,1228,15.08,0.09999999,34,77,0,0
354247,147076032,0,1228,1228,15.07,0.09999999,34,77,0,0
354648,147173258,0,1228,1228,15.07,0.09999999,34,77,0,0
355133,147291859,0,1226,1214,15.08,0.09999999,34,77,0,0
355581,147398831,0,1214,1228,15.07,0.11,34,77,0,0
356017,147499264,0,1227,1214,15.08,0.11,34,77,0,0
356473,147611707,0,1214,1228,15.08,0.11,34,77,0,0
356914,147718101,0,1228,1228,15.08,0.09999999,34,77,0,0
357367,147825513,0,1228,1228,15.07,0.09999999,34,77,0,0
357820,147941705,0,1228,1228,15.08,0.11,34,77,0,0
358275,148058495,0,1228,1228,15.07,0.11,34,77,0,0
358675,148152999,0,1228,1228,15.08,0.11,34,77,0,0
359156,148266584,0,1226,1214,15.07,0.11,34,77,0,0
359604,148372368,0,1214,1214,15.08,0.11,34,77,0,0
360052,148483472,0,1215,1228,15.08,0.11,34,77,0,0
360496,148587800,0,1228,1228,15.08,0.09999999,34,77,0,0
360937,148693080,0,1228,1228,15.09,0.11,34,77,0,0
361389,148802672,0,1228,1228,15.08,0.11,34,77,0,0
361884,148918343,0,1228,1228,15.08,0.11,34,77,0,0
362300,149023911,0,1175,428,15.1,0,34,77,0,0
362714,149132481,0,390,0,15.1,0.02,34,77,0,0
363125,149234383,0,0,0,15.1,0.04,34,77,0,0
363569,149346554,0,0,0,15.1,0.04,34,77,0,0
363982,149454956,0,0,0,15.1,0.04,33,77,0,0
364396,149557335,0,0,0,15.1,0.04,34,77,0,0
364843,149671884,0,0,0,15.11,0.04,34,77,0,0
365254,149774243,0,0,0,15.11,0.04,33,77,0,0
365696,149883227,0,0,0,15.11,0.04,33,77,0,0
366154,149997830,0,0,0,15.11,0.04,34,77,0,0
366536,150104114,0,0,0,15.11,0.04,34,77,0,0
366948,150206814,0,0,0,15.11,0.04,33,77,0,0
367357,150312894,0,0,0,15.11,0.04,33,77,0,0
367811,150423725,0,0,0,15.11,0.04,33,77,0,0
368227,150533993,0,0,0,15.11,0.04,33,77,0,0
368643,150638545,0,0,0,15.11,0.04,33,77,0,0
369056,150749099,0,0,0,15.12,0.04,33,77,0,0
369474,150852810,0,0,0,15.12,0.04,33,77,0,0
369885,150956913,0,0,0,15.11,0.04,33,77,0,0
370297,151062683,0,0,0,15.11,0.04,33,77,0,0
370752,151175363,0,0,0,15.12,0.04,33,77,0,0
371163,151282788,0,0,0,15.11,0.04,33,77,0,0
371615,151394791,0,0,0,15.11,0.05,33,77,0,0
372026,151500686,0,0,0,15.11,0.04,33,77,0,0
372438,151603006,0,0,0,15.12,0.04,33,77,0,0
373303,151824927,0,0,0,15.12,0.04,33,77,0,0
373710,151931077,0,0,0,15.12,0.04,33,77,0,0
374169,152045453,0,0,0,15.13,0.04,33,77,0,0
374582,152155020,0,0,0,15.12,0.04,33,77,0,0
374952,152252260,0,0,0,15.11,0.04,33,77,0,0
375402,152364110,0,0,0,15.12,0.04,33,77,0,0
375812,152471819,0,0,0,15.12,0.05,33,77,0,0
376264,152586347,0,0,0,15.13,0.04,33,77,0,0
376674,152692849,0,0,0,15.12,0.05,33,77,0,0
377057,152795998,0,0,0,15.13,0.04,33,77,0,0
377466,152901726,0,0,0,15.12,0.04,33,77,0,0
377921,153013725,0,0,0,15.13,0.04,33,77,0,0
378366,153124335,0,0,0,15.13,0.04,33,77,0,0
378777,153227045,0,0,0,15.13,0.04,33,77,0,0
379190,153335988,0,0,0,15.12,0.04,33,77,0,0
379603,153444979,0,0,0,15.13,0.04,33,77,0,0
380017,153548046,0,0,0,15.13,0.04,33,77,0,0
380880,153765724,0,0,0,15.13,0.04,33,77,0,0
381295,153874603,0,0,0,15.13,0.04,33,77,0,0
381743,153986793,0,0,0,15.13,0.04,33,77,0,0
382155,154092084,0,0,0,15.13,0.04,33,77,0,0
382569,154196825,0,0,0,15.13,0.04,33,77,0,0
382979,154303880,0,0,0,15.13,0.04,33,77,0,0
383430,154418276,0,0,0,15.13,0.04,33,77,0,0
383843,154522247,0,0,0,15.13,0.04,33,77,0,0
384299,154642284,0,0,0,15.13,0.04,33,77,0,0
384670,154736817,0,0,0,15.13,0.04,33,77,0,0
385124,154853799,0,0,0,15.14,0.04,33,77,0,0
385535,154956379,0,0,0,15.14,0.04,33,77,0,0
385983,155066373,0,0,0,15.13,0.04,33,77,0,0
386802,155275439,0,0,0,15.13,0.04,33,77,0,0
387255,155388102,0,0,0,15.13,0.04,33,77,0,0
387664,155493707,0,0,0,15.14,0.04,33,77,0,0
388078,155597508,0,0,0,15.14,0.04,33,77,0,0
388527,155710152,0,0,0,15.14,0.04,33,77,0,0
388941,155814976,0,0,0,15.14,0.04,33,77,0,0
389354,155922097,0,0,0,15.14,0.04,33,77,0,0
389809,156033045,0,0,0,15.14,0.04,33,77,0,0
390216,156135668,0,0,0,15.14,0.04,33,77,0,0
390666,156252861,0,0,0,15.14,0.04,33,77,0,0
391080,156355511,0,0,0,15.14,0.04,33,77,0,0
