LineNo,TimeUS,Instance,RPM,RawRPM,Volt,Curr,Temp,CTot,MotTemp,Err
1927,6.0188e+07,3,0,0,15.35,0.06,25,0,0,0
2350,6.0296e+07,3,0,0,15.35,0.06,25,0,0,0
2764,6.0399e+07,3,0,0,15.35,0.05,25,0,0,0
3216,6.0511e+07,3,0,0,15.34,0.05,25,0,0,0
3673,6.0624e+07,3,0,0,15.34,0.05,25,0,0,0
4081,6.0724e+07,3,0,0,15.35,0.05,25,0,0,0
4497,6.0831e+07,3,0,0,15.35,0.05,25,0,0,0
4952,6.0946e+07,3,0,0,15.35,0.05,25,0,0,0
5363,6.1051e+07,3,0,0,15.35,0.05,25,0,0,0
6227,6.1267e+07,3,0,0,15.35,0.05,25,0,0,0
6639,6.1372e+07,3,0,0,15.35,0.05,25,0,0,0
7050,6.1479e+07,3,0,0,15.34,0.05,25,0,0,0
7504,6.1595e+07,3,0,0,15.34,0.05,25,0,0,0
7881,6.1694e+07,3,0,0,15.35,0.05,25,0,0,0
8299,6.1798e+07,3,0,0,15.35,0.05,25,0,0,0
8755,6.191e+07,3,0,0,15.34,0.05,25,0,0,0
9171,6.2018e+07,3,0,0,15.35,0.05,25,0,0,0
9584,6.2124e+07,3,0,0,15.34,0.05,25,0,0,0
9998,6.2226e+07,3,0,0,15.35,0.05,25,0,0,0
10450,6.2339e+07,3,0,0,15.34,0.05,25,0,0,0
10794,6.2447e+07,3,0,0,15.34,0.05,25,0,0,0
11238,6.2558e+07,3,0,0,15.34,0.05,25,0,0,0
11656,6.2665e+07,3,0,0,15.35,0.05,25,0,0,0
12066,6.2767e+07,3,0,0,15.35,0.05,25,0,0,0
12527,6.288e+07,3,0,0,15.35,0.05,25,0,0,0
12938,6.2984e+07,3,0,0,15.35,0.05,25,0,0,0
13385,6.3098e+07,3,0,0,15.35,0.05,25,0,0,0
13793,6.3199e+07,3,0,0,15.34,0.05,25,0,0,0
14251,6.3315e+07,3,0,0,15.35,0.05,25,0,0,0
14664,6.3415e+07,3,0,0,15.35,0.05,25,0,0,0
15115,6.3531e+07,3,0,0,15.35,0.05,25,0,0,0
15531,6.3637e+07,3,0,0,15.35,0.05,25,0,0,0
15942,6.3741e+07,3,0,0,15.35,0.05,25,0,0,0
16357,6.3843e+07,3,0,0,15.34,0.05,25,0,0,0
16812,6.3958e+07,3,0,0,15.35,0.05,25,0,0,0
17224,6.4063e+07,3,0,0,15.34,0.05,25,0,0,0
17637,6.4167e+07,3,0,0,15.34,0.05,25,0,0,0
18052,6.4272e+07,3,0,0,15.34,0.05,25,0,0,0
18504,6.4385e+07,3,0,0,15.35,0.05,25,0,0,0
18914,6.4486e+07,3,0,0,15.35,0.05,25,0,0,0
19368,6.4598e+07,3,0,0,15.34,0.05,25,0,0,0
19817,6.4713e+07,3,0,0,15.35,0.05,25,0,0,0
20204,6.4817e+07,3,0,0,15.35,0.05,25,0,0,0
20651,6.4926e+07,3,0,0,15.35,0.05,25,0,0,0
21070,6.503e+07,3,0,0,15.35,0.05,25,0,0,0
21491,6.5142e+07,3,0,0,15.35,0.05,25,0,0,0
21906,6.5244e+07,3,0,0,15.34,0.05,25,0,0,0
22358,6.5356e+07,3,0,0,15.35,0.05,25,0,0,0
22769,6.5461e+07,3,0,0,15.35,0.05,25,0,0,0
23224,6.5576e+07,3,0,0,15.35,0.05,25,0,0,0
23630,6.568e+07,3,0,0,15.35,0.05,25,0,0,0
24052,6.5785e+07,3,0,0,15.35,0.05,25,0,0,0
24500,6.5899e+07,3,0,0,15.35,0.05,25,0,0,0
24913,6.6001e+07,3,0,0,15.35,0.05,25,0,0,0
25326,6.6109e+07,3,0,0,15.34,0.05,25,0,0,0
25742,6.6215e+07,3,0,0,15.35,0.05,25,0,0,0
26197,6.633e+07,3,0,0,15.34,0.05,25,0,0,0
26609,6.644e+07,3,0,0,15.34,0.05,25,0,0,0
27022,6.6541e+07,3,0,0,15.35,0.05,25,0,0,0
27437,6.6646e+07,3,0,0,15.35,0.05,25,0,0,0
27890,6.676e+07,3,0,0,15.35,0.05,25,0,0,0
28302,6.6865e+07,3,0,0,15.35,0.05,25,0,0,0
28718,6.6968e+07,3,0,0,15.35,0.05,25,0,0,0
29164,6.7079e+07,3,0,0,15.35,0.05,25,0,0,0
29580,6.7182e+07,3,0,0,15.35,0.05,25,0,0,0
29995,6.729e+07,3,0,0,15.34,0.05,25,0,0,0
30449,6.7401e+07,3,0,0,15.35,0.05,25,0,0,0
30897,6.7515e+07,3,0,0,15.35,0.05,25,0,0,0
31311,6.7617e+07,3,0,0,15.35,0.05,25,0,0,0
31723,6.7722e+07,3,0,0,15.34,0.05,25,0,0,0
32180,6.7834e+07,3,0,0,15.35,0.05,25,0,0,0
32594,6.794e+07,3,0,0,15.35,0.05,25,0,0,0
33045,6.8056e+07,3,0,0,15.35,0.05,25,0,0,0
33458,6.8159e+07,3,0,0,15.34,0.05,25,0,0,0
33869,6.8261e+07,3,0,0,15.34,0.05,25,0,0,0
34322,6.8372e+07,3,0,0,15.35,0.05,25,0,0,0
34731,6.8476e+07,3,0,0,15.35,0.05,25,0,0,0
35184,6.8589e+07,3,0,0,15.35,0.05,25,0,0,0
35596,6.8694e+07,3,0,0,15.35,0.05,25,0,0,0
36012,6.8797e+07,3,0,0,15.35,0.05,25,0,0,0
36457,6.8908e+07,3,0,0,15.35,0.05,25,0,0,0
36913,6.902e+07,3,0,0,15.35,0.05,25,0,0,0
37325,6.9126e+07,3,0,0,15.35,0.05,25,0,0,0
37737,6.9228e+07,3,0,0,15.35,0.05,25,0,0,0
38154,6.9337e+07,3,0,0,15.34,0.05,25,0,0,0
38574,6.9445e+07,3,0,0,15.34,0.05,25,0,0,0
39027,6.9559e+07,3,0,0,15.34,0.05,25,0,0,0
39437,6.9663e+07,3,0,0,15.35,0.05,25,0,0,0
39852,6.9767e+07,3,0,0,15.34,0.05,25,0,0,0
40299,6.9879e+07,3,0,0,15.35,0.05,25,0,0,0
40754,6.9993e+07,3,0,0,15.35,0.05,25,0,0,0
41169,7.0104e+07,3,0,0,15.35,0.05,25,0,0,0
41582,7.0206e+07,3,0,0,15.34,0.05,25,0,0,0
42034,7.032e+07,3,0,0,15.34,0.05,25,0,0,0
42446,7.042e+07,3,0,0,15.35,0.05,25,0,0,0
42866,7.0532e+07,3,0,0,15.35,0.05,25,0,0,0
43283,7.0638e+07,3,0,0,15.35,0.05,25,0,0,0
44111,7.0852e+07,3,0,0,15.34,0.05,25,0,0,0
44565,7.0964e+07,3,0,0,15.35,0.05,25,0,0,0
44978,7.107e+07,3,0,0,15.35,0.05,25,0,0,0
45391,7.1173e+07,3,0,0,15.35,0.05,25,0,0,0
45845,7.1289e+07,3,0,0,15.35,0.05,25,0,0,0
46258,7.1391e+07,3,0,0,15.35,0.05,25,0,0,0
46670,7.1498e+07,3,0,0,15.35,0.05,25,0,0,0
47129,7.1612e+07,3,0,0,15.35,0.05,25,0,0,0
47542,7.172e+07,3,0,0,15.34,0.05,25,0,0,0
47962,7.1824e+07,3,0,0,15.35,0.05,25,0,0,0
48403,7.1929e+07,3,0,0,15.35,0.05,25,0,0,0
48861,7.2038e+07,3,0,0,15.35,0.05,25,0,0,0
49312,7.2143e+07,3,0,0,15.35,0.05,25,0,0,0
49810,7.226e+07,3,0,0,15.35,0.05,25,0,0,0
50263,7.2366e+07,3,0,0,15.34,0.05,25,0,0,0
50713,7.2472e+07,3,0,0,15.35,0.05,25,0,0,0
51213,7.2589e+07,3,0,0,15.34,0.05,25,0,0,0
51659,7.2688e+07,3,0,0,15.34,0.05,25,0,0,0
52162,7.2803e+07,3,0,0,15.35,0.05,25,0,0,0
52610,7.2907e+07,3,0,0,15.34,0.05,25,0,0,0
53559,7.3126e+07,3,0,0,15.34,0.05,25,0,0,0
54016,7.3234e+07,3,0,0,15.34,0.05,25,0,0,0
54465,7.3339e+07,3,0,0,15.34,0.05,25,0,0,0
54919,7.3445e+07,3,0,0,15.34,0.05,25,0,0,0
55371,7.3551e+07,3,0,0,15.34,0.05,25,0,0,0
55825,7.3656e+07,3,0,0,15.35,0.05,25,0,0,0
56324,7.3769e+07,3,0,0,15.34,0.05,25,0,0,0
56776,7.3875e+07,3,0,0,15.35,0.04,25,0,0,0
57088,7.399e+07,3,24,271,15.33,0.06,25,0,0,0
57505,7.4092e+07,3,285,642,15.31,0.11,25,0,0,0
57955,7.4194e+07,3,647,1042,15.32,0.17,25,0,0,0
58450,7.431e+07,3,1049,1157,15.32,0.12,25,0,0,0
58902,7.4414e+07,3,1158,1200,15.33,0.11,25,0,0,0
59357,7.4522e+07,3,1201,1228,15.33,0.11,25,0,0,0
59857,7.4642e+07,3,1229,1242,15.32,0.11,25,0,0,0
60266,7.4734e+07,3,1241,1228,15.33,0.11,25,0,0,0
60759,7.485e+07,3,1228,1242,15.33,0.11,25,0,0,0
61210,7.4951e+07,3,1242,1242,15.33,0.11,25,0,0,0
61924,7.517e+07,3,1242,1242,15.33,0.11,25,0,0,0
62376,7.5275e+07,3,1242,1242,15.32,0.11,25,0,0,0
62877,7.5386e+07,3,1242,1242,15.33,0.11,25,0,0,0
63293,7.5493e+07,3,1242,1242,15.32,0.11,25,0,0,0
63748,7.5597e+07,3,1242,1242,15.33,0.11,25,0,0,0
64245,7.5712e+07,3,1242,1242,15.32,0.11,25,0,0,0
64706,7.5821e+07,3,1243,1257,15.32,0.14,25,0,0,0
65160,7.5927e+07,3,1276,1542,15.26,0.27,25,0,0,0
65612,7.6031e+07,3,1570,2157,15.19,0.59,25,0,0,0
66067,7.614e+07,3,2162,2585,15.2,0.81,25,0,0,0
66522,7.6247e+07,3,2588,2871,15.1,1.19,25,0,0,0
67019,7.6362e+07,3,2917,3542,14.98,1.97,25,0,0,0
67924,7.6582e+07,3,3595,4785,14.77,2.67,25,0,0,0
68830,7.6796e+07,3,4804,5700,14.54,3.93,25,0,0,0
69283,7.6906e+07,3,5703,5757,14.66,3.32,25,1,0,0
69735,7.7012e+07,3,5753,5685,14.61,2.95,25,1,0,0
70186,7.7121e+07,3,5680,5385,14.69,2.57,25,1,0,0
70686,7.7236e+07,3,5383,5357,14.7,2.54,25,1,0,0
71134,7.7342e+07,3,5355,5328,14.73,2.22,25,1,0,0
71591,7.7455e+07,3,5320,5242,14.62,2.41,25,1,0,0
72042,7.7558e+07,3,5239,5185,14.62,2.44,25,1,0,0
72502,7.7674e+07,3,5167,5000,14.69,1.9,25,1,0,0
72955,7.7781e+07,3,4995,4957,14.69,1.81,25,1,0,0
73411,7.7892e+07,3,4953,4914,14.67,2.49,25,1,0,0
73866,7.7998e+07,3,4917,5000,14.67,2.28,25,1,0,0
74358,7.8115e+07,3,4998,4971,14.66,2.06,25,1,0,0
74815,7.8224e+07,3,4966,4914,14.66,2.21,25,1,0,0
75270,7.8334e+07,3,4919,4971,14.63,2.32,25,2,0,0
76173,7.8551e+07,3,4978,5185,14.6,2.58,26,2,0,0
76627,7.8659e+07,3,5200,5357,14.66,2.65,26,2,0,0
77082,7.8768e+07,3,5341,5128,14.67,2.33,25,2,0,0
77530,7.8872e+07,3,5128,5157,14.66,2.29,25,2,0,0
77980,7.8978e+07,3,5159,5242,14.63,2.44,26,2,0,0
78470,7.9102e+07,3,5250,5342,14.63,2.69,26,2,0,0
78921,7.9212e+07,3,5330,5214,14.64,2.56,26,2,0,0
79322,7.9312e+07,3,5221,5357,14.63,2.72,26,2,0,0
79741,7.9419e+07,3,5357,5414,14.61,2.65,26,2,0,0
80222,7.9534e+07,3,5412,5400,14.6,2.86,25,2,0,0
80630,7.9639e+07,3,5407,5585,14.55,3.26,26,2,0,0
81080,7.9748e+07,3,5586,5600,14.57,3.05,26,3,0,0
81485,7.9851e+07,3,5599,5571,14.61,2.97,26,3,0,0
81978,7.9967e+07,3,5558,5428,14.61,2.59,26,3,0,0
82830,8.0177e+07,3,5426,5271,14.61,2.18,26,3,0,0
83272,8.0285e+07,3,5268,5100,14.59,2.08,26,3,0,0
83721,8.0392e+07,3,5098,5014,14.58,2.26,26,3,0,0
84167,8.0503e+07,3,5012,4971,14.59,2.48,26,3,0,0
85065,8.0724e+07,3,4971,4971,14.59,2.21,26,3,0,0
85517,8.0834e+07,3,4972,5000,14.64,2.17,26,3,0,0
85960,8.0943e+07,3,5003,5042,14.58,2.47,26,3,0,0
86409,8.105e+07,3,5057,5271,14.73,2.47,26,3,0,0
86857,8.1164e+07,3,5271,5271,14.67,2.51,26,3,0,0
87715,8.1379e+07,3,5264,5071,14.7,2.14,26,4,0,0
88165,8.1489e+07,3,5059,4957,14.66,2.17,26,4,0,0
88567,8.1588e+07,3,4963,5071,14.66,2.5,26,4,0,0
89018,8.1701e+07,3,5084,5271,14.66,2.69,26,4,0,0
90316,8.2022e+07,3,5268,5142,14.72,2.43,26,4,0,0
90764,8.2132e+07,3,5139,5100,14.66,2.28,26,4,0,0
91214,8.2243e+07,3,5103,5185,14.72,2.47,26,4,0,0
91664,8.2352e+07,3,5179,5057,14.66,2.32,26,4,0,0
92116,8.247e+07,3,5057,5057,14.73,2.18,26,4,0,0
92561,8.2576e+07,3,5053,5000,14.72,1.87,26,4,0,0
92963,8.2675e+07,3,4998,4900,14.7,2.07,26,5,0,0
93411,8.2782e+07,3,4899,4871,14.72,2.05,26,5,0,0
93900,8.2901e+07,3,4876,4942,14.65,2.33,26,5,0,0
94302,8.2997e+07,3,4941,4928,14.69,2.12,26,5,0,0
94755,8.3113e+07,3,4934,5028,14.67,2.29,26,5,0,0
95204,8.3224e+07,3,5020,4942,14.6,2.27,26,5,0,0
95609,8.3329e+07,3,4946,5000,14.64,2.15,26,5,0,0
96061,8.3441e+07,3,4984,4842,14.6,2.02,26,5,0,0
96507,8.3551e+07,3,4837,4771,14.62,1.96,26,5,0,0
96918,8.3657e+07,3,4775,4842,14.58,1.67,26,5,0,0
97810,8.3874e+07,3,4810,4171,14.57,0.88,26,5,0,0
98259,8.3985e+07,3,4147,3900,14.61,1.22,26,5,0,0
98660,8.4086e+07,3,3896,3700,14.56,1.48,26,5,0,0
99108,8.4193e+07,3,3701,3814,14.55,1.51,26,5,0,0
99553,8.4306e+07,3,3825,4385,14.52,2.65,26,5,0,0
1.0004e+05,8.4423e+07,3,4449,5100,14.55,3.13,26,5,0,0
1.0048e+05,8.4528e+07,3,5159,5757,14.59,4.24,26,5,0,0
1.0093e+05,8.4634e+07,3,5811,6357,14.55,5.64,26,6,0,0
1.0137e+05,8.4744e+07,3,6387,6714,14.52,6.14,26,6,0,0
1.0177e+05,8.4843e+07,3,6739,7042,14.51,6.27,26,6,0,0
1.0222e+05,8.4956e+07,3,7023,6828,14.53,5.28,26,6,0,0
1.0266e+05,8.5063e+07,3,6827,6800,14.53,4.59,26,6,0,0
1.0356e+05,8.5281e+07,3,6782,6000,14.5,2.96,26,7,0,0
1.0401e+05,8.5395e+07,3,5958,5585,14.55,2.63,26,7,0,0
1.0445e+05,8.5504e+07,3,5572,5428,14.52,2.32,26,7,0,0
1.0491e+05,8.5614e+07,3,5391,5014,14.51,2.02,26,7,0,0
1.0535e+05,8.572e+07,3,5007,4914,14.54,1.86,26,7,0,0
1.058e+05,8.5829e+07,3,4908,4771,14.55,1.75,26,7,0,0
1.0625e+05,8.5937e+07,3,4772,4800,14.43,1.95,26,7,0,0
1.0673e+05,8.6054e+07,3,4791,4700,14.54,1.94,26,7,0,0
1.0714e+05,8.6156e+07,3,4700,4700,14.54,1.78,26,7,0,0
1.0758e+05,8.6268e+07,3,4698,4685,14.53,1.79,26,7,0,0
1.0807e+05,8.6379e+07,3,4690,4742,14.55,1.91,26,7,0,0
1.0846e+05,8.648e+07,3,4743,4771,14.55,2.1,26,7,0,0
1.0891e+05,8.6589e+07,3,4783,5042,14.55,2.75,26,7,0,0
1.094e+05,8.6702e+07,3,5057,5314,14.52,2.64,26,7,0,0
1.0985e+05,8.6813e+07,3,5322,5428,14.53,2.99,26,8,0,0
1.103e+05,8.6927e+07,3,5425,5400,14.54,2.64,26,8,0,0
1.1075e+05,8.7035e+07,3,5401,5428,14.46,2.83,26,8,0,0
1.112e+05,8.7143e+07,3,5417,5314,14.52,2.53,26,8,0,0
1.1165e+05,8.726e+07,3,5315,5328,14.51,2.63,26,8,0,0
1.1249e+05,8.7463e+07,3,5329,5414,14.55,2.73,26,8,0,0
1.1293e+05,8.757e+07,3,5411,5271,14.61,2.4,26,8,0,0
1.1342e+05,8.7693e+07,3,5257,5128,14.6,2.09,26,8,0,0
1.1383e+05,8.7792e+07,3,5127,5100,14.63,2.2,26,8,0,0
1.1427e+05,8.7901e+07,3,5100,5100,14.62,2.19,26,8,0,0
1.1473e+05,8.8013e+07,3,5084,4928,14.65,1.9,26,8,0,0
1.1513e+05,8.8115e+07,3,4926,4828,14.68,1.7,26,8,0,0
1.1558e+05,8.8224e+07,3,4825,4642,14.66,1.64,26,8,0,0
1.1607e+05,8.8345e+07,3,4653,4828,14.68,1.92,26,9,0,0
1.1652e+05,8.8457e+07,3,4834,4885,14.55,2.37,26,9,0,0
1.1692e+05,8.856e+07,3,4892,5000,14.61,2.51,27,9,0,0
1.1781e+05,8.8773e+07,3,5003,5157,14.66,2.51,26,9,0,0
1.1826e+05,8.8885e+07,3,5146,5000,14.67,2.23,26,9,0,0
1.1867e+05,8.8988e+07,3,5003,5085,14.69,2.09,26,9,0,0
1.1912e+05,8.91e+07,3,5084,5071,14.55,2.36,26,9,0,0
1.1957e+05,8.921e+07,3,5063,4985,14.57,2.13,26,9,0,0
1.2001e+05,8.9318e+07,3,4998,5128,14.61,2.53,26,9,0,0
1.2042e+05,8.942e+07,3,5131,5200,14.62,2.3,26,9,0,0
1.2087e+05,8.9533e+07,3,5197,5157,14.58,2.31,26,9,0,0
1.2132e+05,8.964e+07,3,5152,5085,14.63,2.19,26,9,0,0
1.2176e+05,8.9747e+07,3,5070,4785,14.64,1.44,26,9,0,0
1.2217e+05,8.9851e+07,3,4774,4571,14.6,1.49,26,9,0,0
1.2262e+05,8.9958e+07,3,4571,4585,14.67,1.58,26,10,0,0
1.2352e+05,9.0178e+07,3,4588,4728,14.58,2.15,26,10,0,0
1.2396e+05,9.0291e+07,3,4744,4914,14.62,2.28,26,10,0,0
1.2441e+05,9.0397e+07,3,4916,4985,14.6,2.04,26,10,0,0
1.2486e+05,9.051e+07,3,4984,4971,14.58,2.31,27,10,0,0
1.2531e+05,9.0617e+07,3,4972,5071,14.62,2.43,26,10,0,0
1.2579e+05,9.0733e+07,3,5050,4842,14.64,1.96,26,10,0,0
1.2624e+05,9.0841e+07,3,4870,5157,14.57,2.83,27,10,0,0
1.2668e+05,9.0949e+07,3,5159,5185,14.61,2.51,26,10,0,0
1.273e+05,9.1274e+07,3,5457,5457,14.46,3.15,27,10,0,0
1.2775e+05,9.1383e+07,3,5455,5442,14.5,3.06,26,10,0,0
1.2909e+05,9.1708e+07,3,5440,5400,14.54,2.61,27,11,0,0
1.2953e+05,9.1815e+07,3,5410,5514,14.55,3.19,26,11,0,0
1.2998e+05,9.1928e+07,3,5524,5628,14.52,3.03,26,11,0,0
1.3039e+05,9.203e+07,3,5628,5628,14.45,3.17,27,11,0,0
1.308e+05,9.2139e+07,3,5630,5728,14.49,3.15,27,11,0,0
1.3126e+05,9.2247e+07,3,5726,5671,14.49,2.92,27,11,0,0
1.3174e+05,9.2361e+07,3,5656,5485,14.5,2.9,27,11,0,0
1.3218e+05,9.2473e+07,3,5490,5542,14.52,2.95,26,11,0,0
1.3264e+05,9.2584e+07,3,5530,5414,14.54,2.76,27,11,0,0
1.3304e+05,9.269e+07,3,5411,5371,14.57,2.48,26,12,0,0
1.3349e+05,9.2797e+07,3,5372,5385,14.52,2.77,27,12,0,0
1.3389e+05,9.29e+07,3,5387,5500,14.53,2.91,27,12,0,0
1.3434e+05,9.3009e+07,3,5502,5557,14.48,2.77,27,12,0,0
1.3479e+05,9.3119e+07,3,5557,5557,14.45,3.15,27,12,0,0
1.3524e+05,9.3225e+07,3,5567,5714,14.42,3.48,27,12,0,0
1.3568e+05,9.334e+07,3,5714,5714,14.45,3.43,27,12,0,0
1.3613e+05,9.345e+07,3,5731,5942,14.45,3.52,27,12,0,0
1.3658e+05,9.3559e+07,3,5943,5971,14.38,3.67,27,12,0,0
1.3703e+05,9.3669e+07,3,5963,5857,14.48,3.29,27,12,0,0
1.3788e+05,9.388e+07,3,5857,5857,14.46,3.15,27,13,0,0
1.384e+05,9.4004e+07,3,5840,5728,14.42,3.32,27,13,0,0
1.3882e+05,9.4104e+07,3,5728,5742,14.41,3.49,27,13,0,0
1.3927e+05,9.4215e+07,3,5748,5828,14.47,3.48,27,13,0,0
1.3971e+05,9.4324e+07,3,5834,5900,14.47,3.74,27,13,0,0
1.4016e+05,9.4432e+07,3,5905,6014,14.52,3.68,27,13,0,0
1.406e+05,9.4547e+07,3,5981,5714,14.59,3.16,27,13,0,0
1.415e+05,9.4771e+07,3,5716,5757,14.55,3.16,27,13,0,0
1.4193e+05,9.4874e+07,3,5758,5771,14.59,3.19,27,14,0,0
1.4238e+05,9.4982e+07,3,5766,5657,14.52,2.82,27,14,0,0
1.4282e+05,9.5089e+07,3,5651,5585,14.6,2.71,27,14,0,0
1.4327e+05,9.5197e+07,3,5586,5614,14.6,2.79,27,14,0,0
1.4368e+05,9.5301e+07,3,5612,5542,14.55,2.82,27,14,0,0
1.4413e+05,9.5408e+07,3,5539,5485,14.52,3.02,27,14,0,0
1.4458e+05,9.5526e+07,3,5499,5657,14.62,2.7,27,14,0,0
1.4503e+05,9.5631e+07,3,5652,5600,14.58,3.15,27,14,0,0
1.464e+05,9.5959e+07,3,5602,5728,14.57,2.91,27,14,0,0
1.4681e+05,9.6063e+07,3,5716,5542,14.56,3.1,27,14,0,0
1.4726e+05,9.6174e+07,3,5544,5585,14.47,3.23,27,15,0,0
1.477e+05,9.6288e+07,3,5588,5614,14.51,3.16,27,15,0,0
1.4816e+05,9.64e+07,3,5601,5471,14.52,2.87,27,15,0,0
1.4852e+05,9.6497e+07,3,5473,5500,14.55,3.05,27,15,0,0
1.4898e+05,9.6606e+07,3,5492,5300,14.54,2.3,27,15,0,0
1.4942e+05,9.6719e+07,3,5296,5257,14.54,2.35,27,15,0,0
1.4987e+05,9.6828e+07,3,5264,5342,14.54,2.33,27,15,0,0
1.5028e+05,9.6928e+07,3,5340,5242,14.49,2.68,27,15,0,0
1.508e+05,9.7051e+07,3,5246,5285,14.42,2.83,27,15,0,0
1.5121e+05,9.7153e+07,3,5292,5385,14.46,2.66,27,15,0,0
1.5166e+05,9.7263e+07,3,5396,5500,14.49,2.8,27,15,0,0
1.521e+05,9.7371e+07,3,5494,5442,14.51,2.85,27,15,0,0
1.525e+05,9.7471e+07,3,5444,5500,14.48,2.88,27,16,0,0
1.5295e+05,9.7579e+07,3,5482,5257,14.57,2.13,27,16,0,0
1.534e+05,9.7688e+07,3,5244,5071,14.51,2.23,27,16,0,0
1.543e+05,9.7909e+07,3,5072,5100,14.51,2.4,27,16,0,0
1.5474e+05,9.8015e+07,3,5083,4857,14.58,1.95,27,16,0,0
1.5519e+05,9.8128e+07,3,4847,4757,14.53,1.63,27,16,0,0
1.5564e+05,9.8237e+07,3,4743,4628,14.43,1.47,27,16,0,0
1.5604e+05,9.8337e+07,3,4626,4571,14.5,1.65,27,16,0,0
1.5653e+05,9.845e+07,3,4590,4842,14.53,2.31,27,16,0,0
1.5742e+05,9.8672e+07,3,4827,4500,14.56,1.62,27,16,0,0
1.5788e+05,9.8786e+07,3,4510,4614,14.6,1.54,27,16,0,0
1.5828e+05,9.8888e+07,3,4617,4657,14.55,1.81,27,16,0,0
1.5918e+05,9.9107e+07,3,4662,4785,14.53,1.78,27,16,0,0
1.5962e+05,9.9213e+07,3,4787,4828,14.59,1.91,27,17,0,0
1.6007e+05,9.932e+07,3,4833,4914,14.59,1.79,27,17,0,0
1.6052e+05,9.943e+07,3,4906,4800,14.56,1.66,27,17,0,0
1.6096e+05,9.954e+07,3,4808,4900,14.54,2.11,27,17,0,0
1.6142e+05,9.9658e+07,3,4898,4885,14.55,2.07,27,17,0,0
1.6183e+05,9.9762e+07,3,4893,4971,14.54,1.99,27,17,0,0
1.6228e+05,9.9875e+07,3,4974,5014,14.5,1.86,27,17,0,0
1.6273e+05,9.9984e+07,3,5007,4900,14.57,1.85,27,17,0,0
1.6317e+05,1.0009e+08,3,4895,4842,14.57,1.98,27,17,0,0
1.6362e+05,1.002e+08,3,4840,4814,14.57,1.65,27,17,0,0
1.6407e+05,1.0031e+08,3,4810,4771,14.58,1.74,27,17,0,0
1.6451e+05,1.0042e+08,3,4761,4671,14.49,1.49,27,17,0,0
1.6492e+05,1.0053e+08,3,4667,4614,14.52,1.47,27,17,0,0
1.6538e+05,1.0064e+08,3,4598,4442,14.55,1.66,27,17,0,0
1.6582e+05,1.0074e+08,3,4442,4457,14.58,1.52,27,17,0,0
1.6627e+05,1.0085e+08,3,4456,4442,14.54,1.54,27,17,0,0
1.6676e+05,1.0097e+08,3,4464,4671,14.57,2.09,27,17,0,0
1.6716e+05,1.0108e+08,3,4704,4900,14.49,2.36,27,17,0,0
1.6761e+05,1.0119e+08,3,4900,4900,14.46,2.37,27,18,0,0
1.6802e+05,1.0129e+08,3,4905,5142,14.49,2.6,27,18,0,0
1.6851e+05,1.0141e+08,3,5139,5114,14.48,2.7,27,18,0,0
1.6888e+05,1.015e+08,3,5116,5257,14.47,2.93,27,18,0,0
1.6933e+05,1.0161e+08,3,5256,5242,14.4,2.74,27,18,0,0
1.6982e+05,1.0174e+08,3,5244,5271,14.45,2.5,27,18,0,0
1.7022e+05,1.0183e+08,3,5268,5100,14.48,2.22,27,18,0,0
1.7068e+05,1.0195e+08,3,5103,5128,14.47,2.17,27,18,0,0
1.7108e+05,1.0204e+08,3,5127,5085,14.53,2.47,27,18,0,0
1.7157e+05,1.0217e+08,3,5097,5214,14.47,2.52,27,18,0,0
1.7201e+05,1.0228e+08,3,5196,5085,14.51,2.7,27,18,0,0
1.7242e+05,1.0237e+08,3,5088,5300,14.5,2.64,27,18,0,0
1.7287e+05,1.0248e+08,3,5292,5200,14.49,2.53,27,18,0,0
1.7335e+05,1.026e+08,3,5197,5157,14.47,2.48,27,19,0,0
1.7372e+05,1.027e+08,3,5160,5414,14.55,2.87,27,19,0,0
1.7425e+05,1.0282e+08,3,5409,5342,14.55,2.3,27,19,0,0
1.7465e+05,1.0292e+08,3,5318,4728,14.6,1.87,27,19,0,0
1.751e+05,1.0303e+08,3,4736,4957,14.58,2.06,27,19,0,0
1.7559e+05,1.0315e+08,3,4957,4957,14.58,2.41,27,19,0,0
1.76e+05,1.0325e+08,3,4970,5085,14.54,2.38,27,19,0,0
1.7692e+05,1.0347e+08,3,5080,4985,14.57,2.22,27,19,0,0
1.7733e+05,1.0357e+08,3,4982,4842,14.52,1.84,27,19,0,0
1.7778e+05,1.0369e+08,3,4847,4914,14.53,2.18,27,19,0,0
1.7823e+05,1.038e+08,3,4900,4771,14.48,1.95,27,19,0,0
1.7908e+05,1.04e+08,3,4769,4657,14.56,1.54,27,19,0,0
1.7953e+05,1.0412e+08,3,4667,4857,14.46,2.39,27,19,0,0
1.7998e+05,1.0423e+08,3,4860,4914,14.51,1.76,27,19,0,0
1.8042e+05,1.0434e+08,3,4905,4728,14.4,1.89,27,20,0,0
1.8092e+05,1.0446e+08,3,4730,4757,14.47,1.8,27,20,0,0
1.8132e+05,1.0456e+08,3,4760,4800,14.51,1.93,27,20,0,0
1.8262e+05,1.0488e+08,3,4796,4557,14.6,1.47,27,20,0,0
1.8307e+05,1.0499e+08,3,4557,4600,14.57,1.56,27,20,0,0
1.8352e+05,1.051e+08,3,4601,4671,14.54,1.61,27,20,0,0
1.8396e+05,1.052e+08,3,4668,4571,14.51,1.46,27,20,0,0
1.8442e+05,1.0532e+08,3,4566,4528,14.51,1.46,27,20,0,0
1.8486e+05,1.0543e+08,3,4516,4371,14.55,1.45,27,20,0,0
1.8527e+05,1.0553e+08,3,4381,4514,14.52,1.66,27,20,0,0
1.8572e+05,1.0564e+08,3,4517,4571,14.42,1.82,27,20,0,0
1.8613e+05,1.0574e+08,3,4577,5042,14.51,3.02,27,20,0,0
1.8661e+05,1.0586e+08,3,4997,4557,14.46,1.67,27,20,0,0
1.8702e+05,1.0596e+08,3,4572,4885,14.51,1.9,27,20,0,0
1.8746e+05,1.0607e+08,3,4868,4657,14.53,1.66,27,20,0,0
1.881e+05,1.0629e+08,3,4677,4771,14.54,1.91,27,20,0,0
1.8855e+05,1.064e+08,3,4765,4685,14.55,1.59,27,21,0,0
1.8896e+05,1.065e+08,3,4684,4671,14.61,1.67,27,21,0,0
1.894e+05,1.0661e+08,3,4671,4685,14.58,2.05,27,21,0,0
1.8984e+05,1.0672e+08,3,4688,4871,14.47,2.12,27,21,0,0
1.9029e+05,1.0682e+08,3,4872,4942,14.51,2.42,27,21,0,0
1.9074e+05,1.0693e+08,3,4944,5042,14.51,2.21,27,21,0,0
1.9119e+05,1.0704e+08,3,5043,5114,14.44,2.33,27,21,0,0
1.9209e+05,1.0727e+08,3,5130,5471,14.37,3.15,27,21,0,0
1.9253e+05,1.0737e+08,3,5485,5685,14.38,3.25,27,21,0,0
1.9294e+05,1.0748e+08,3,5680,5585,14.43,3.32,27,21,0,0
1.934e+05,1.0759e+08,3,5589,5628,14.38,2.89,27,21,0,0
1.938e+05,1.0769e+08,3,5637,5771,14.36,3.37,27,21,0,0
1.9425e+05,1.078e+08,3,5773,5800,14.31,3.07,27,22,0,0
1.9469e+05,1.0791e+08,3,5804,5871,14.29,4.24,27,22,0,0
1.951e+05,1.0801e+08,3,5876,6171,14.32,4.21,27,22,0,0
1.9558e+05,1.0812e+08,3,6168,6128,14.28,3.61,27,22,0,0
1.9603e+05,1.0824e+08,3,6121,6071,14.25,3.53,27,22,0,0
1.9647e+05,1.0834e+08,3,6066,6000,14.22,3.91,27,22,0,0
1.9688e+05,1.0845e+08,3,6000,6028,14.17,3.74,27,22,0,0
1.9738e+05,1.0857e+08,3,6037,6128,14.17,3.87,27,22,0,0
1.9782e+05,1.0867e+08,3,6133,6214,14.17,4.11,27,22,0,0
1.9827e+05,1.0878e+08,3,6204,6114,14.21,4.01,27,23,0,0
1.9916e+05,1.09e+08,3,6087,5328,14.48,1.88,27,23,0,0
1.9957e+05,1.091e+08,3,5317,4628,14.46,1.3,27,23,0,0
2.0006e+05,1.0922e+08,3,4628,4628,14.44,1.77,27,23,0,0
2.005e+05,1.0933e+08,3,4659,5000,14.29,2.91,27,23,0,0
2.0091e+05,1.0943e+08,3,5001,5114,14.45,2.42,27,23,0,0
2.0136e+05,1.0954e+08,3,5118,5228,14.46,2.56,27,23,0,0
2.018e+05,1.0964e+08,3,5229,5271,14.28,3.03,27,23,0,0
2.0225e+05,1.0975e+08,3,5283,6171,14.2,5.12,27,23,0,0
2.0269e+05,1.0987e+08,3,6175,6400,14.41,4.38,27,23,0,0
2.0319e+05,1.0998e+08,3,6373,6114,14.33,3.65,27,24,0,0
2.0359e+05,1.1008e+08,3,6116,6271,14.16,4.43,27,24,0,0
2.0408e+05,1.102e+08,3,6274,6328,14.18,4.74,27,24,0,0
2.0449e+05,1.103e+08,3,6327,6314,14.29,3.92,27,24,0,0
2.0494e+05,1.1041e+08,3,6310,6128,14.25,3.97,27,24,0,0
2.0539e+05,1.1052e+08,3,6122,6042,14.34,3.77,27,24,0,0
2.0584e+05,1.1063e+08,3,6042,6057,14.3,3.54,27,24,0,0
2.0628e+05,1.1074e+08,3,6052,5828,14.33,3,27,24,0,0
2.0678e+05,1.1086e+08,3,5862,6085,14.23,3.76,27,25,0,0
2.0763e+05,1.1107e+08,3,6055,5542,14.42,2.45,27,25,0,0
2.0808e+05,1.1118e+08,3,5475,5014,14.44,1.93,27,25,0,0
2.0848e+05,1.1128e+08,3,5024,5285,14.34,3.04,27,25,0,0
2.0892e+05,1.1139e+08,3,5285,5285,14.34,2.45,27,25,0,0
2.0938e+05,1.115e+08,3,5299,5528,14.45,3.66,27,25,0,0
2.1026e+05,1.1172e+08,3,5523,5400,14.5,2.85,27,25,0,0
2.1071e+05,1.1183e+08,3,5409,5600,14.46,3.27,27,25,0,0
2.1111e+05,1.1193e+08,3,5600,5628,14.56,2.74,27,25,0,0
2.1201e+05,1.1215e+08,3,5623,5357,14.61,2.77,27,26,0,0
2.1249e+05,1.1227e+08,3,5347,5257,14.61,2.39,27,26,0,0
2.1294e+05,1.1238e+08,3,5257,5257,14.57,2.56,27,26,0,0
2.133e+05,1.1247e+08,3,5258,5342,14.45,2.89,27,26,0,0
2.1375e+05,1.1258e+08,3,5343,5457,14.48,2.7,27,26,0,0
2.1424e+05,1.127e+08,3,5465,5557,14.48,3.33,27,26,0,0
2.1469e+05,1.1281e+08,3,5558,5571,14.5,3.08,27,26,0,0
2.1509e+05,1.1291e+08,3,5571,5571,14.56,2.93,27,26,0,0
2.1558e+05,1.1303e+08,3,5576,5628,14.52,2.86,27,26,0,0
2.1601e+05,1.1313e+08,3,5627,5614,14.51,2.79,27,26,0,0
2.1646e+05,1.1324e+08,3,5607,5471,14.44,2.79,27,26,0,0
2.1691e+05,1.1335e+08,3,5469,5371,14.43,2.95,27,26,0,0
2.1736e+05,1.1346e+08,3,5384,5628,14.41,2.79,27,27,0,0
2.1781e+05,1.1357e+08,3,5608,5428,14.44,2.59,27,27,0,0
2.1824e+05,1.1367e+08,3,5424,5300,14.44,2.64,27,27,0,0
2.1914e+05,1.1389e+08,3,5311,5571,14.39,2.87,27,27,0,0
2.1959e+05,1.14e+08,3,5568,5528,14.36,3.02,27,27,0,0
2.2003e+05,1.1411e+08,3,5519,5400,14.39,2.75,27,27,0,0
2.2048e+05,1.1422e+08,3,5393,5228,14.38,2.58,27,27,0,0
2.2096e+05,1.1433e+08,3,5237,5328,14.41,2.63,27,27,0,0
2.2141e+05,1.1444e+08,3,5320,5242,14.45,2.89,27,27,0,0
2.2182e+05,1.1454e+08,3,5251,5457,14.39,2.89,27,27,0,0
2.2226e+05,1.1466e+08,3,5459,5485,14.42,3.13,27,27,0,0
2.2271e+05,1.1476e+08,3,5486,5514,14.38,3.13,27,28,0,0
2.2311e+05,1.1487e+08,3,5513,5485,14.36,3.16,27,28,0,0
2.236e+05,1.1498e+08,3,5492,5571,14.47,2.9,27,28,0,0
2.24e+05,1.1509e+08,3,5558,5385,14.41,2.85,27,28,0,0
2.2445e+05,1.1519e+08,3,5385,5442,14.41,2.62,27,28,0,0
2.2489e+05,1.153e+08,3,5432,5228,14.45,2.4,27,28,0,0
2.2535e+05,1.1542e+08,3,5225,5185,14.44,2.24,27,28,0,0
2.258e+05,1.1553e+08,3,5167,5000,14.44,1.91,27,28,0,0
2.2624e+05,1.1563e+08,3,4995,4914,14.43,2.15,27,28,0,0
2.2669e+05,1.1574e+08,3,4913,4900,14.44,2.22,27,28,0,0
2.2713e+05,1.1585e+08,3,4902,4928,14.46,2.21,27,28,0,0
2.2758e+05,1.1596e+08,3,4935,5014,14.48,2.35,27,28,0,0
2.2802e+05,1.1607e+08,3,5029,5185,14.43,2.53,27,29,0,0
2.2848e+05,1.1619e+08,3,5183,5171,14.47,2.63,27,29,0,0
2.2887e+05,1.1628e+08,3,5171,5171,14.44,2.6,27,29,0,0
2.2933e+05,1.1639e+08,3,5175,5271,14.39,2.77,27,29,0,0
2.3022e+05,1.1661e+08,3,5268,5157,14.45,2.33,27,29,0,0
2.3066e+05,1.1673e+08,3,5155,5142,14.42,2.48,27,29,0,0
2.3111e+05,1.1683e+08,3,5146,5257,14.39,2.6,27,29,0,0
2.3156e+05,1.1694e+08,3,5257,5257,14.44,2.8,27,29,0,0
2.32e+05,1.1706e+08,3,5253,5228,14.39,2.79,27,29,0,0
2.3246e+05,1.1717e+08,3,5243,5414,14.42,3.24,27,29,0,0
2.3286e+05,1.1727e+08,3,5415,5542,14.31,3.53,27,30,0,0
2.3335e+05,1.1739e+08,3,5556,5700,14.41,3.58,27,30,0,0
2.3375e+05,1.1749e+08,3,5701,5785,14.33,3.55,27,30,0,0
2.3423e+05,1.176e+08,3,5784,5771,14.37,3.22,27,30,0,0
2.3464e+05,1.177e+08,3,5771,5771,14.41,3.3,27,30,0,0
2.3513e+05,1.1783e+08,3,5754,5657,14.43,2.85,27,30,0,0
2.3553e+05,1.1793e+08,3,5648,5457,14.47,2.48,27,30,0,0
2.3646e+05,1.1815e+08,3,5457,5457,14.39,2.89,27,30,0,0
2.3691e+05,1.1827e+08,3,5443,5285,14.44,2.5,27,30,0,0
2.3772e+05,1.1847e+08,3,5288,5371,14.47,3.1,27,31,0,0
2.3817e+05,1.1858e+08,3,5385,5557,14.47,3.14,27,31,0,0
2.3858e+05,1.1868e+08,3,5558,5585,14.42,3.43,27,31,0,0
2.3903e+05,1.1879e+08,3,5588,5800,14.36,3.65,27,31,0,0
2.3947e+05,1.1891e+08,3,5796,5757,14.42,3.73,27,31,0,0
2.3992e+05,1.1902e+08,3,5766,5842,14.38,3.72,27,31,0,0
2.4033e+05,1.1912e+08,3,5846,5900,14.41,3.31,27,31,0,0
2.4078e+05,1.1923e+08,3,5877,5642,14.39,3.12,27,31,0,0
2.4122e+05,1.1934e+08,3,5645,5671,14.37,3.22,27,31,0,0
2.4163e+05,1.1944e+08,3,5669,5642,14.38,2.94,27,31,0,0
2.4207e+05,1.1955e+08,3,5631,5400,14.46,2.64,27,32,0,0
2.4256e+05,1.1968e+08,3,5402,5428,14.36,2.56,27,32,0,0
2.4296e+05,1.1977e+08,3,5428,5457,14.41,3.14,27,32,0,0
2.4337e+05,1.1988e+08,3,5460,5628,14.4,2.88,27,32,0,0
2.4382e+05,1.1999e+08,3,5620,5471,14.41,2.72,27,32,0,0
2.4427e+05,1.201e+08,3,5471,5485,14.37,2.98,28,32,0,0
2.4471e+05,1.2021e+08,3,5487,5657,14.43,3.24,27,32,0,0
2.4512e+05,1.2031e+08,3,5647,5428,14.44,2.85,27,32,0,0
2.4561e+05,1.2043e+08,3,5429,5442,14.42,2.97,27,32,0,0
2.4601e+05,1.2053e+08,3,5443,5557,14.41,3.62,27,32,0,0
2.465e+05,1.2065e+08,3,5582,5828,14.34,3.32,28,32,0,0
2.4695e+05,1.2076e+08,3,5820,5742,14.42,2.99,27,33,0,0
2.4779e+05,1.2097e+08,3,5742,5757,14.38,3.53,27,33,0,0
2.4824e+05,1.2108e+08,3,5769,5928,14.39,3.24,27,33,0,0
2.4868e+05,1.2119e+08,3,5916,5671,14.34,2.98,27,33,0,0
2.4914e+05,1.213e+08,3,5662,5557,14.43,2.79,27,33,0,0
2.4958e+05,1.214e+08,3,5545,5314,14.38,2.36,27,33,0,0
2.5003e+05,1.2152e+08,3,5303,5171,14.48,2.52,27,33,0,0
2.5048e+05,1.2163e+08,3,5161,5028,14.42,2.05,27,33,0,0
2.5089e+05,1.2173e+08,3,5025,4971,14.42,2.32,27,33,0,0
2.5138e+05,1.2185e+08,3,4967,4942,14.43,1.95,27,33,0,0
2.5178e+05,1.2195e+08,3,4933,4757,14.43,1.83,27,33,0,0
2.5267e+05,1.2217e+08,3,4759,4800,14.44,2.25,27,34,0,0
2.5316e+05,1.2229e+08,3,4804,4857,14.41,2.33,27,34,0,0
2.5357e+05,1.2239e+08,3,4872,5057,14.5,2.39,27,34,0,0
2.5405e+05,1.225e+08,3,5071,5285,14.42,2.69,27,34,0,0
2.545e+05,1.2261e+08,3,5281,5214,14.41,2.8,27,34,0,0
2.5494e+05,1.2272e+08,3,5214,5214,14.39,2.67,28,34,0,0
2.5535e+05,1.2282e+08,3,5215,5285,14.51,2.52,27,34,0,0
2.558e+05,1.2294e+08,3,5280,5214,14.51,2.59,27,34,0,0
2.5624e+05,1.2305e+08,3,5220,5271,14.42,2.98,27,34,0,0
2.5665e+05,1.2315e+08,3,5287,5514,14.38,2.97,27,34,0,0
2.5709e+05,1.2326e+08,3,5502,5385,14.38,2.8,27,34,0,0
2.575e+05,1.2336e+08,3,5387,5428,14.41,2.76,27,34,0,0
2.5792e+05,1.2347e+08,3,5426,5385,14.41,2.74,27,34,0,0
2.5836e+05,1.2358e+08,3,5383,5314,14.47,2.05,27,35,0,0
2.588e+05,1.2369e+08,3,5306,4828,14.51,1.56,27,35,0,0
2.593e+05,1.238e+08,3,4810,4585,14.51,1.2,27,35,0,0
2.5974e+05,1.2391e+08,3,4567,4314,14.51,1.4,27,35,0,0
2.6019e+05,1.2402e+08,3,4312,4300,14.53,1.37,27,35,0,0
2.6064e+05,1.2414e+08,3,4288,4171,14.51,1.42,27,35,0,0
2.6109e+05,1.2425e+08,3,4169,4157,14.54,1.25,27,35,0,0
2.6148e+05,1.2434e+08,3,4163,4300,14.6,1.54,27,35,0,0
2.6194e+05,1.2446e+08,3,4292,4228,14.63,1.33,28,35,0,0
2.6238e+05,1.2457e+08,3,4233,4285,14.65,1.36,27,35,0,0
2.628e+05,1.2468e+08,3,4297,4428,14.53,2.27,27,35,0,0
2.6369e+05,1.2489e+08,3,4444,4928,14.53,2.28,27,35,0,0
2.6453e+05,1.251e+08,3,4928,4942,14.51,1.94,27,35,0,0
2.6503e+05,1.2522e+08,3,4934,4842,14.48,1.85,27,35,0,0
2.6543e+05,1.2532e+08,3,4829,4542,14.54,1.17,27,35,0,0
2.6588e+05,1.2542e+08,3,4542,4557,14.56,1.88,27,35,0,0
2.6637e+05,1.2554e+08,3,4564,4642,14.48,2.12,27,35,0,0
2.6682e+05,1.2566e+08,3,4648,4814,14.5,2.12,27,36,0,0
2.6726e+05,1.2576e+08,3,4819,4885,14.42,2.69,27,36,0,0
2.6771e+05,1.2587e+08,3,4915,5242,14.42,2.52,27,36,0,0
2.6811e+05,1.2598e+08,3,5243,5328,14.44,2.82,27,36,0,0
2.6856e+05,1.2609e+08,3,5328,5342,14.51,2.39,27,36,0,0
2.6901e+05,1.262e+08,3,5330,5228,14.48,2.38,27,36,0,0
2.6986e+05,1.2641e+08,3,5229,5271,14.47,1.94,27,36,0,0
2.7026e+05,1.2651e+08,3,5264,5000,14.52,1.79,27,36,0,0
2.712e+05,1.2674e+08,3,4992,4828,14.47,1.77,27,36,0,0
2.7161e+05,1.2684e+08,3,4827,4800,14.5,1.73,27,36,0,0
2.721e+05,1.2696e+08,3,4801,4814,14.47,1.74,27,36,0,0
2.725e+05,1.2706e+08,3,4813,4785,14.52,1.88,27,36,0,0
2.7295e+05,1.2717e+08,3,4788,4871,14.5,2.09,27,36,0,0
2.734e+05,1.2728e+08,3,4874,4928,14.5,2.02,27,37,0,0
2.7384e+05,1.2739e+08,3,4931,5014,14.51,2.02,27,37,0,0
2.7429e+05,1.275e+08,3,5019,5100,14.52,2.11,27,37,0,0
2.7474e+05,1.2761e+08,3,5098,5085,14.46,2.29,27,37,0,0
2.7515e+05,1.2772e+08,3,5093,5171,14.49,2.33,27,37,0,0
2.7555e+05,1.2782e+08,3,5172,5214,14.46,2.2,27,37,0,0
2.7603e+05,1.2793e+08,3,5211,5157,14.49,1.97,27,37,0,0
2.7648e+05,1.2804e+08,3,5141,5000,14.49,1.95,27,37,0,0
2.7693e+05,1.2815e+08,3,5005,5071,14.44,2.15,27,37,0,0
2.7737e+05,1.2826e+08,3,5064,5000,14.47,2.08,27,37,0,0
2.7782e+05,1.2836e+08,3,5005,5057,14.51,1.95,27,37,0,0
2.7866e+05,1.2857e+08,3,5056,5014,14.49,2.08,27,37,0,0
2.7911e+05,1.2868e+08,3,5011,4985,14.44,2.1,27,37,0,0
2.7956e+05,1.2879e+08,3,4982,4928,14.44,1.91,27,37,0,0
2.8046e+05,1.2901e+08,3,4929,4957,14.43,1.88,27,38,0,0
2.809e+05,1.2913e+08,3,4951,4900,14.47,1.99,27,38,0,0
2.8134e+05,1.2923e+08,3,4915,5028,14.49,2.06,27,38,0,0
2.8175e+05,1.2933e+08,3,5024,4985,14.44,2.14,27,38,0,0
2.822e+05,1.2945e+08,3,4977,4914,14.46,1.91,27,38,0,0
2.826e+05,1.2955e+08,3,4915,5028,14.44,2.02,27,38,0,0
2.8309e+05,1.2967e+08,3,5015,4914,14.45,1.93,27,38,0,0
2.835e+05,1.2977e+08,3,4909,4857,14.48,1.86,27,38,0,0
2.8484e+05,1.301e+08,3,4861,5042,14.45,2.16,27,38,0,0
2.8573e+05,1.3032e+08,3,5039,4942,14.51,1.93,27,38,0,0
2.8614e+05,1.3042e+08,3,4944,5000,14.45,2.33,27,38,0,0
2.8658e+05,1.3053e+08,3,5001,5114,14.47,2.35,27,38,0,0
2.8703e+05,1.3064e+08,3,5114,5142,14.51,2.26,27,38,0,0
2.8751e+05,1.3075e+08,3,5142,5157,14.45,2.43,27,39,0,0
2.8796e+05,1.3086e+08,3,5157,5171,14.44,2.35,27,39,0,0
2.8837e+05,1.3096e+08,3,5169,5057,14.41,2.21,27,39,0,0
2.8881e+05,1.3107e+08,3,5059,5228,14.4,2.67,27,39,0,0
2.8926e+05,1.3118e+08,3,5228,5271,14.31,2.76,27,39,0,0
2.897e+05,1.3129e+08,3,5274,5442,14.3,2.92,27,39,0,0
2.9015e+05,1.314e+08,3,5443,5528,14.39,2.87,27,39,0,0
2.9059e+05,1.3151e+08,3,5521,5357,14.41,2.46,27,39,0,0
2.9104e+05,1.3162e+08,3,5357,5357,14.37,2.56,27,39,0,0
2.9152e+05,1.3173e+08,3,5364,5457,14.39,2.8,27,39,0,0
2.9197e+05,1.3184e+08,3,5429,5157,14.38,2.23,27,39,0,0
2.9242e+05,1.3195e+08,3,5154,5128,14.39,2.51,27,39,0,0
2.9281e+05,1.3205e+08,3,5130,5242,14.46,2.74,27,39,0,0
2.9327e+05,1.3216e+08,3,5242,5242,14.42,2.42,27,40,0,0
2.9372e+05,1.3227e+08,3,5248,5314,14.45,2.5,27,40,0,0
2.9416e+05,1.3238e+08,3,5310,5100,14.49,2.02,27,40,0,0
2.946e+05,1.3249e+08,3,5095,5000,14.43,2.26,27,40,0,0
2.9509e+05,1.326e+08,3,5001,5028,14.47,2.42,27,40,0,0
2.9549e+05,1.327e+08,3,5026,4957,14.44,2.36,27,40,0,0
2.9599e+05,1.3282e+08,3,4955,4942,14.4,1.98,27,40,0,0
2.9683e+05,1.3303e+08,3,4945,5071,14.4,2.3,27,40,0,0
2.9728e+05,1.3314e+08,3,5072,5100,14.48,2.27,27,40,0,0
2.9769e+05,1.3325e+08,3,5097,5071,14.47,2.2,27,40,0,0
2.9854e+05,1.3346e+08,3,5071,5157,14.49,2.39,27,40,0,0
2.9903e+05,1.3358e+08,3,5163,5228,14.51,2.67,27,40,0,0
2.9943e+05,1.3368e+08,3,5225,5142,14.44,2.33,27,41,0,0
2.9992e+05,1.338e+08,3,5143,5171,14.48,2.17,27,41,0,0
3.0032e+05,1.339e+08,3,5171,5200,14.51,2.54,27,41,0,0
3.0085e+05,1.3402e+08,3,5204,5271,14.48,2.41,27,41,0,0
3.013e+05,1.3413e+08,3,5267,5214,14.45,2.3,27,41,0,0
3.021e+05,1.3433e+08,3,5214,5271,14.45,2.48,27,41,0,0
3.026e+05,1.3446e+08,3,5271,5271,14.47,2.31,27,41,0,0
3.0304e+05,1.3456e+08,3,5253,5028,14.44,2.22,27,41,0,0
3.0348e+05,1.3467e+08,3,5030,5057,14.48,2.02,27,41,0,0
3.0393e+05,1.3478e+08,3,5067,5171,14.48,2.25,27,41,0,0
3.0433e+05,1.3488e+08,3,5167,5042,14.43,2.19,27,41,0,0
3.0478e+05,1.3499e+08,3,5047,5114,14.49,2.09,27,41,0,0
3.0519e+05,1.351e+08,3,5110,5071,14.47,1.9,27,41,0,0
3.0564e+05,1.3521e+08,3,5067,4985,14.47,2.11,27,41,0,0
3.0609e+05,1.3532e+08,3,4987,5014,14.45,2.08,27,42,0,0
3.0654e+05,1.3543e+08,3,5014,5014,14.48,2.08,27,42,0,0
3.0694e+05,1.3553e+08,3,5005,4842,14.5,1.88,27,42,0,0
3.0784e+05,1.3576e+08,3,4841,4714,14.44,1.99,27,42,0,0
3.0829e+05,1.3586e+08,3,4722,4842,14.47,2.22,27,42,0,0
3.0878e+05,1.3598e+08,3,4831,4742,14.5,1.91,27,42,0,0
3.0918e+05,1.3608e+08,3,4744,4771,14.5,1.92,27,42,0,0
3.0963e+05,1.3619e+08,3,4766,4700,14.57,1.59,27,42,0,0
3.1008e+05,1.363e+08,3,4686,4542,14.55,1.71,27,42,0,0
3.1052e+05,1.3641e+08,3,4544,4685,14.51,1.91,27,42,0,0
3.1097e+05,1.3652e+08,3,4670,4485,14.54,1.52,27,42,0,0
3.1186e+05,1.3674e+08,3,4492,4685,14.53,1.86,27,42,0,0
3.1231e+05,1.3685e+08,3,4674,4585,14.47,1.73,27,42,0,0
3.1271e+05,1.3695e+08,3,4573,3585,15.21,0.39,27,42,0,0
3.132e+05,1.3707e+08,3,3487,2557,14.89,0.42,27,42,0,0
3.1361e+05,1.3717e+08,3,2518,2100,14.85,0.16,27,42,0,0
3.1405e+05,1.3728e+08,3,2100,2100,14.98,0.42,27,42,0,0
3.145e+05,1.3739e+08,3,2092,2014,14.95,0.09,27,42,0,0
3.149e+05,1.3749e+08,3,2011,1842,14.96,0.17,27,42,0,0
3.1535e+05,1.376e+08,3,1844,2042,14.97,0.28,27,42,0,0
3.158e+05,1.3771e+08,3,2033,1928,14.97,0.13,27,42,0,0
3.1625e+05,1.3782e+08,3,1931,1985,14.97,0.27,27,42,0,0
3.1669e+05,1.3793e+08,3,1983,1971,14.97,0.17,27,42,0,0
3.1714e+05,1.3804e+08,3,1969,1957,14.97,0.21,27,42,0,0
3.1843e+05,1.3836e+08,3,1957,2000,14.98,0.19,27,43,0,0
3.1888e+05,1.3847e+08,3,1998,1985,14.98,0.19,27,43,0,0
3.1932e+05,1.3857e+08,3,1985,1985,14.99,0.19,27,43,0,0
3.1981e+05,1.3869e+08,3,1984,1971,14.98,0.19,27,43,0,0
3.2025e+05,1.3879e+08,3,1971,1985,14.98,0.23,27,43,0,0
3.207e+05,1.389e+08,3,1984,1971,15.07,0.18,27,43,0,0
3.2115e+05,1.3901e+08,3,1957,1642,15.06,0.01,27,43,0,0
3.2162e+05,1.3912e+08,3,1627,1328,15.04,0.02,27,43,0,0
3.2207e+05,1.3923e+08,3,1322,1242,15.04,0.09,27,43,0,0
3.2297e+05,1.3944e+08,3,1241,1214,15.04,0.1,27,43,0,0
3.2342e+05,1.3955e+08,3,1214,1228,15.04,0.1,27,43,0,0
3.239e+05,1.3966e+08,3,1227,1214,15.04,0.1,27,43,0,0
3.2435e+05,1.3977e+08,3,1214,1228,15.05,0.1,27,43,0,0
3.2481e+05,1.3988e+08,3,1228,1228,15.05,0.1,27,43,0,0
3.2525e+05,1.3999e+08,3,1228,1228,15.05,0.1,27,43,0,0
3.257e+05,1.401e+08,3,1228,1228,15.05,0.1,27,43,0,0
3.2615e+05,1.4021e+08,3,1228,1228,15.05,0.1,27,43,0,0
3.2655e+05,1.4031e+08,3,1228,1228,15.05,0.1,27,43,0,0
3.2703e+05,1.4041e+08,3,1228,1228,15.05,0.1,27,43,0,0
3.2748e+05,1.4052e+08,3,1228,1228,15.05,0.1,27,43,0,0
3.2838e+05,1.4074e+08,3,1228,1228,15.06,0.1,27,43,0,0
3.2879e+05,1.4085e+08,3,1228,1228,15.05,0.1,27,43,0,0
3.2928e+05,1.4097e+08,3,1228,1228,15.06,0.1,27,43,0,0
3.2972e+05,1.4108e+08,3,1228,1228,15.06,0.1,27,43,0,0
3.3017e+05,1.4119e+08,3,1228,1228,15.07,0.1,27,43,0,0
3.3057e+05,1.4128e+08,3,1228,1228,15.06,0.1,27,43,0,0
3.3102e+05,1.4139e+08,3,1227,1214,15.07,0.1,27,43,0,0
3.3196e+05,1.4161e+08,3,1214,1214,15.07,0.1,27,43,0,0
3.3236e+05,1.4171e+08,3,1214,1214,15.07,0.1,27,43,0,0
3.3282e+05,1.4183e+08,3,1214,1228,15.07,0.1,27,43,0,0
3.3326e+05,1.4193e+08,3,1227,1214,15.08,0.1,27,43,0,0
3.3375e+05,1.4205e+08,3,1214,1214,15.08,0.1,27,43,0,0
3.3416e+05,1.4215e+08,3,1215,1228,15.08,0.1,27,43,0,0
3.344e+05,1.4226e+08,3,1227,1214,15.08,0.1,27,43,0,0
3.3513e+05,1.4246e+08,3,1228,1228,15.07,0.1,27,43,0,0
3.3562e+05,1.4258e+08,3,1228,1228,15.08,0.1,27,43,0,0
3.3603e+05,1.4268e+08,3,1228,1228,15.08,0.11,27,43,0,0
3.3648e+05,1.4279e+08,3,1227,1214,15.08,0.1,27,43,0,0
3.3692e+05,1.4289e+08,3,1214,1228,15.08,0.11,27,43,0,0
3.3741e+05,1.4301e+08,3,1228,1228,15.08,0.1,27,43,0,0
3.3782e+05,1.4311e+08,3,1228,1228,15.08,0.1,27,43,0,0
3.3827e+05,1.4322e+08,3,1228,1228,15.09,0.1,27,43,0,0
3.3871e+05,1.4333e+08,3,1228,1228,15.09,0.1,27,43,0,0
3.392e+05,1.4345e+08,3,1228,1228,15.09,0.1,27,43,0,0
3.3965e+05,1.4355e+08,3,1228,1228,15.1,0.11,27,43,0,0
3.401e+05,1.4366e+08,3,1228,1228,15.1,0.11,27,43,0,0
3.4055e+05,1.4377e+08,3,1228,1228,15.1,0.1,27,43,0,0
3.41e+05,1.4388e+08,3,1228,1228,15.09,0.11,27,43,0,0
3.4145e+05,1.4399e+08,3,1228,1228,15.11,0.11,27,43,0,0
3.419e+05,1.4409e+08,3,1227,1214,15.09,0.1,27,43,0,0
3.4234e+05,1.442e+08,3,1214,1228,15.1,0.1,27,43,0,0
3.4276e+05,1.4431e+08,3,1228,1228,15.1,0.11,27,43,0,0
3.4324e+05,1.4442e+08,3,1228,1228,15.1,0.1,27,43,0,0
3.441e+05,1.4463e+08,3,1228,1228,15.11,0.1,27,43,0,0
3.4455e+05,1.4474e+08,3,1228,1228,15.11,0.1,27,43,0,0
3.4503e+05,1.4486e+08,3,1228,1228,15.1,0.11,27,43,0,0
3.4548e+05,1.4497e+08,3,1228,1228,15.11,0.1,27,43,0,0
3.4588e+05,1.4506e+08,3,1228,1228,15.11,0.1,27,43,0,0
3.4637e+05,1.4518e+08,3,1228,1228,15.11,0.1,27,43,0,0
3.4685e+05,1.4529e+08,3,1228,1228,15.11,0.1,27,43,0,0
3.4726e+05,1.4539e+08,3,1228,1228,15.11,0.1,27,43,0,0
3.477e+05,1.455e+08,3,1228,1228,15.11,0.1,27,43,0,0
3.4815e+05,1.4561e+08,3,1228,1228,15.12,0.1,27,43,0,0
3.4856e+05,1.4571e+08,3,1228,1228,15.11,0.1,27,43,0,0
3.4905e+05,1.4583e+08,3,1228,1228,15.11,0.1,27,43,0,0
3.4951e+05,1.4594e+08,3,1228,1228,15.11,0.1,27,43,0,0
3.4996e+05,1.4605e+08,3,1228,1228,15.11,0.1,27,43,0,0
3.504e+05,1.4615e+08,3,1228,1228,15.12,0.1,27,43,0,0
3.513e+05,1.4637e+08,3,1228,1228,15.12,0.1,27,43,0,0
3.5178e+05,1.4648e+08,3,1228,1228,15.12,0.1,27,43,0,0
3.5223e+05,1.4659e+08,3,1228,1228,15.12,0.11,27,43,0,0
3.5268e+05,1.467e+08,3,1228,1228,15.12,0.11,27,43,0,0
3.5308e+05,1.468e+08,3,1228,1228,15.12,0.11,27,43,0,0
3.5353e+05,1.469e+08,3,1228,1228,15.12,0.1,27,43,0,0
3.5398e+05,1.4701e+08,3,1228,1228,15.13,0.1,27,43,0,0
3.5442e+05,1.4712e+08,3,1228,1228,15.13,0.1,27,43,0,0
3.5492e+05,1.4724e+08,3,1228,1228,15.12,0.1,27,43,0,0
3.5536e+05,1.4734e+08,3,1228,1228,15.13,0.1,27,43,0,0
3.5581e+05,1.4745e+08,3,1228,1228,15.12,0.11,27,43,0,0
3.5629e+05,1.4756e+08,3,1228,1228,15.12,0.1,27,43,0,0
3.5673e+05,1.4767e+08,3,1228,1228,15.13,0.1,27,43,0,0
3.5714e+05,1.4777e+08,3,1228,1228,15.13,0.11,27,43,0,0
3.576e+05,1.4788e+08,3,1228,1228,15.13,0.11,27,43,0,0
3.5805e+05,1.4799e+08,3,1228,1228,15.13,0.11,27,43,0,0
3.5846e+05,1.481e+08,3,1228,1228,15.13,0.1,27,43,0,0
3.589e+05,1.482e+08,3,1228,1228,15.13,0.11,27,43,0,0
3.5938e+05,1.4832e+08,3,1228,1228,15.13,0.11,27,43,0,0
3.5983e+05,1.4842e+08,3,1228,1228,15.14,0.11,27,43,0,0
3.6073e+05,1.4864e+08,3,1228,1228,15.13,0.1,27,43,0,0
3.6117e+05,1.4875e+08,3,1228,1228,15.13,0.11,27,43,0,0
3.6161e+05,1.4886e+08,3,1228,1228,15.14,0.11,26,43,0,0
3.6209e+05,1.4897e+08,3,1187,628,15.16,0.02,27,43,0,0
3.6251e+05,1.4908e+08,3,595,271,15.15,0.02,26,43,0,0
3.6292e+05,1.4918e+08,3,261,0,15.15,0.02,27,43,0,0
3.6336e+05,1.4929e+08,3,0,0,15.16,0.04,27,43,0,0
3.6377e+05,1.494e+08,3,0,0,15.16,0.04,26,43,0,0
3.6419e+05,1.4951e+08,3,0,0,15.15,0.04,26,43,0,0
3.646e+05,1.4961e+08,3,0,0,15.16,0.04,27,43,0,0
3.6505e+05,1.4972e+08,3,0,0,15.16,0.05,26,43,0,0
3.6546e+05,1.4983e+08,3,0,0,15.16,0.05,26,43,0,0
3.6591e+05,1.4994e+08,3,0,0,15.16,0.04,26,43,0,0
3.6632e+05,1.5004e+08,3,0,0,15.16,0.04,27,43,0,0
3.6674e+05,1.5016e+08,3,0,0,15.16,0.04,26,43,0,0
3.6715e+05,1.5026e+08,3,0,0,15.16,0.04,27,43,0,0
3.6761e+05,1.5037e+08,3,0,0,15.16,0.04,27,43,0,0
3.6802e+05,1.5048e+08,3,0,0,15.16,0.04,26,43,0,0
3.6843e+05,1.5058e+08,3,0,0,15.16,0.04,26,43,0,0
3.6885e+05,1.507e+08,3,0,0,15.16,0.04,26,43,0,0
3.6926e+05,1.508e+08,3,0,0,15.16,0.04,26,43,0,0
3.6968e+05,1.5091e+08,3,0,0,15.16,0.04,26,43,0,0
3.701e+05,1.5101e+08,3,0,0,15.16,0.04,26,43,0,0
3.7054e+05,1.5112e+08,3,0,0,15.16,0.04,27,43,0,0
3.7096e+05,1.5123e+08,3,0,0,15.16,0.04,27,43,0,0
3.7141e+05,1.5134e+08,3,0,0,15.16,0.05,26,43,0,0
3.7182e+05,1.5145e+08,3,0,0,15.16,0.05,26,43,0,0
3.7223e+05,1.5155e+08,3,0,0,15.17,0.04,26,43,0,0
3.7264e+05,1.5166e+08,3,0,0,15.17,0.04,26,43,0,0
3.7305e+05,1.5176e+08,3,0,0,15.17,0.05,26,43,0,0
3.735e+05,1.5188e+08,3,0,0,15.17,0.05,26,43,0,0
3.7392e+05,1.5198e+08,3,0,0,15.17,0.04,26,43,0,0
3.7433e+05,1.5209e+08,3,0,0,15.17,0.04,26,43,0,0
3.7478e+05,1.5221e+08,3,0,0,15.17,0.04,26,43,0,0
3.752e+05,1.5231e+08,3,0,0,15.17,0.04,26,43,0,0
3.7561e+05,1.5242e+08,3,0,0,15.17,0.04,26,43,0,0
3.7647e+05,1.5264e+08,3,0,0,15.17,0.04,26,43,0,0
3.7688e+05,1.5274e+08,3,0,0,15.17,0.04,26,43,0,0
3.7726e+05,1.5285e+08,3,0,0,15.17,0.05,26,43,0,0
3.7767e+05,1.5295e+08,3,0,0,15.18,0.04,26,43,0,0
3.7816e+05,1.5307e+08,3,0,0,15.17,0.04,26,43,0,0
3.7857e+05,1.5318e+08,3,0,0,15.17,0.04,26,43,0,0
3.7899e+05,1.5328e+08,3,0,0,15.17,0.04,26,43,0,0
3.794e+05,1.5339e+08,3,0,0,15.17,0.04,26,43,0,0
3.7981e+05,1.535e+08,3,0,0,15.17,0.04,26,43,0,0
3.8026e+05,1.5361e+08,3,0,0,15.17,0.04,26,43,0,0
3.8067e+05,1.5371e+08,3,0,0,15.17,0.04,26,43,0,0
3.8113e+05,1.5383e+08,3,0,0,15.17,0.04,26,43,0,0
3.815e+05,1.5393e+08,3,0,0,15.18,0.04,26,43,0,0
3.8195e+05,1.5404e+08,3,0,0,15.18,0.04,26,43,0,0
3.8236e+05,1.5415e+08,3,0,0,15.17,0.04,26,43,0,0
3.8277e+05,1.5425e+08,3,0,0,15.18,0.04,26,43,0,0
3.8322e+05,1.5437e+08,3,0,0,15.18,0.04,26,43,0,0
3.8363e+05,1.5447e+08,3,0,0,15.18,0.04,26,43,0,0
3.8405e+05,1.5457e+08,3,0,0,15.18,0.04,26,43,0,0
3.8446e+05,1.5469e+08,3,0,0,15.18,0.04,26,43,0,0
3.8492e+05,1.548e+08,3,0,0,15.18,0.04,26,43,0,0
3.8529e+05,1.5489e+08,3,0,0,15.19,0.04,26,43,0,0
3.8574e+05,1.5501e+08,3,0,0,15.18,0.04,26,43,0,0
3.8619e+05,1.5512e+08,3,0,0,15.18,0.04,26,43,0,0
3.866e+05,1.5522e+08,3,0,0,15.18,0.04,26,43,0,0
3.8705e+05,1.5534e+08,3,0,0,15.18,0.04,26,43,0,0
3.8746e+05,1.5544e+08,3,0,0,15.19,0.04,26,43,0,0
3.8787e+05,1.5554e+08,3,0,0,15.19,0.04,26,43,0,0
3.8832e+05,1.5566e+08,3,0,0,15.19,0.04,26,43,0,0
3.8956e+05,1.5597e+08,3,0,0,15.19,0.04,26,43,0,0
3.9001e+05,1.5609e+08,3,0,0,15.18,0.04,26,43,0,0
3.9046e+05,1.562e+08,3,0,0,15.19,0.05,26,43,0,0
3.9087e+05,1.5631e+08,3,0,0,15.19,0.05,26,43,0,0
3.9129e+05,1.5641e+08,3,0,0,15.19,0.05,26,43,0,0
