LineNo,TimeUS,Instance,RPM,RawRPM,Volt,Curr,Temp,CTot,MotTemp,Err
1927,60187541,3,0,0,15.35,0.06,25,0,0,0
2350,60295795,3,0,0,15.35,0.06,25,0,0,0
2764,60398551,3,0,0,15.35,0.05,25,0,0,0
3216,60510848,3,0,0,15.34,0.05,25,0,0,0
3673,60623863,3,0,0,15.34,0.05,25,0,0,0
4081,60724330,3,0,0,15.35,0.05,25,0,0,0
4497,60830851,3,0,0,15.35,0.05,25,0,0,0
4952,60945683,3,0,0,15.35,0.05,25,0,0,0
5363,61050552,3,0,0,15.35,0.05,25,0,0,0
6227,61267451,3,0,0,15.35,0.05,25,0,0,0
6639,61372152,3,0,0,15.35,0.05,25,0,0,0
7050,61478790,3,0,0,15.34,0.05,25,0,0,0
7504,61594974,3,0,0,15.34,0.05,25,0,0,0
7881,61694382,3,0,0,15.35,0.05,25,0,0,0
8299,61797906,3,0,0,15.35,0.05,25,0,0,0
8755,61910462,3,0,0,15.34,0.05,25,0,0,0
9171,62017957,3,0,0,15.35,0.05,25,0,0,0
9584,62124342,3,0,0,15.34,0.05,25,0,0,0
9998,62226403,3,0,0,15.35,0.05,25,0,0,0
10450,62339386,3,0,0,15.34,0.05,25,0,0,0
10794,62447094,3,0,0,15.34,0.05,25,0,0,0
11238,62557506,3,0,0,15.34,0.05,25,0,0,0
11656,62665248,3,0,0,15.35,0.05,25,0,0,0
12066,62767356,3,0,0,15.35,0.05,25,0,0,0
12527,62880451,3,0,0,15.35,0.05,25,0,0,0
12938,62984125,3,0,0,15.35,0.05,25,0,0,0
13385,63097795,3,0,0,15.35,0.05,25,0,0,0
13793,63199485,3,0,0,15.34,0.05,25,0,0,0
14251,63314847,3,0,0,15.35,0.05,25,0,0,0
14664,63415115,3,0,0,15.35,0.05,25,0,0,0
15115,63531326,3,0,0,15.35,0.05,25,0,0,0
15531,63636916,3,0,0,15.35,0.05,25,0,0,0
15942,63740726,3,0,0,15.35,0.05,25,0,0,0
16357,63843342,3,0,0,15.34,0.05,25,0,0,0
16812,63958189,3,0,0,15.35,0.05,25,0,0,0
17224,64063012,3,0,0,15.34,0.05,25,0,0,0
17637,64166989,3,0,0,15.34,0.05,25,0,0,0
18052,64272015,3,0,0,15.34,0.05,25,0,0,0
18504,64384847,3,0,0,15.35,0.05,25,0,0,0
18914,64486426,3,0,0,15.35,0.05,25,0,0,0
19368,64598233,3,0,0,15.34,0.05,25,0,0,0
19817,64713139,3,0,0,15.35,0.05,25,0,0,0
20204,64816869,3,0,0,15.35,0.05,25,0,0,0
20651,64925519,3,0,0,15.35,0.05,25,0,0,0
21070,65029526,3,0,0,15.35,0.05,25,0,0,0
21491,65141903,3,0,0,15.35,0.05,25,0,0,0
21906,65243861,3,0,0,15.34,0.05,25,0,0,0
22358,65356036,3,0,0,15.35,0.05,25,0,0,0
22769,65461303,3,0,0,15.35,0.05,25,0,0,0
23224,65576023,3,0,0,15.35,0.05,25,0,0,0
23630,65679554,3,0,0,15.35,0.05,25,0,0,0
24052,65785389,3,0,0,15.35,0.05,25,0,0,0
24500,65898851,3,0,0,15.35,0.05,25,0,0,0
24913,66001459,3,0,0,15.35,0.05,25,0,0,0
25326,66109399,3,0,0,15.34,0.05,25,0,0,0
25742,66214957,3,0,0,15.35,0.05,25,0,0,0
26197,66330487,3,0,0,15.34,0.05,25,0,0,0
26609,66440033,3,0,0,15.34,0.05,25,0,0,0
27022,66541124,3,0,0,15.35,0.05,25,0,0,0
27437,66646302,3,0,0,15.35,0.05,25,0,0,0
27890,66759686,3,0,0,15.35,0.05,25,0,0,0
28302,66864725,3,0,0,15.35,0.05,25,0,0,0
28718,66967752,3,0,0,15.35,0.05,25,0,0,0
29164,67079100,3,0,0,15.35,0.05,25,0,0,0
29580,67181850,3,0,0,15.35,0.05,25,0,0,0
29995,67290348,3,0,0,15.34,0.05,25,0,0,0
30449,67400818,3,0,0,15.35,0.05,25,0,0,0
30897,67515270,3,0,0,15.35,0.05,25,0,0,0
31311,67617356,3,0,0,15.35,0.05,25,0,0,0
31723,67721943,3,0,0,15.34,0.05,25,0,0,0
32180,67833825,3,0,0,15.35,0.05,25,0,0,0
32594,67940479,3,0,0,15.35,0.05,25,0,0,0
33045,68055851,3,0,0,15.35,0.05,25,0,0,0
33458,68159442,3,0,0,15.34,0.05,25,0,0,0
33869,68260856,3,0,0,15.34,0.05,25,0,0,0
34322,68372090,3,0,0,15.35,0.05,25,0,0,0
34731,68476174,3,0,0,15.35,0.05,25,0,0,0
35184,68588542,3,0,0,15.35,0.05,25,0,0,0
35596,68694256,3,0,0,15.35,0.05,25,0,0,0
36012,68797370,3,0,0,15.35,0.05,25,0,0,0
36457,68908365,3,0,0,15.35,0.05,25,0,0,0
36913,69020226,3,0,0,15.35,0.05,25,0,0,0
37325,69126055,3,0,0,15.35,0.05,25,0,0,0
37737,69228361,3,0,0,15.35,0.05,25,0,0,0
38154,69337134,3,0,0,15.34,0.05,25,0,0,0
38574,69445419,3,0,0,15.34,0.05,25,0,0,0
39027,69558706,3,0,0,15.34,0.05,25,0,0,0
39437,69663259,3,0,0,15.35,0.05,25,0,0,0
39852,69766514,3,0,0,15.34,0.05,25,0,0,0
40299,69879006,3,0,0,15.35,0.05,25,0,0,0
40754,69993014,3,0,0,15.35,0.05,25,0,0,0
41169,70103808,3,0,0,15.35,0.05,25,0,0,0
41582,70206093,3,0,0,15.34,0.05,25,0,0,0
42034,70319564,3,0,0,15.34,0.05,25,0,0,0
42446,70420259,3,0,0,15.35,0.05,25,0,0,0
42866,70531703,3,0,0,15.35,0.05,25,0,0,0
43283,70637909,3,0,0,15.35,0.05,25,0,0,0
44111,70851897,3,0,0,15.34,0.05,25,0,0,0
44565,70963892,3,0,0,15.35,0.05,25,0,0,0
44978,71070487,3,0,0,15.35,0.05,25,0,0,0
45391,71172936,3,0,0,15.35,0.05,25,0,0,0
45845,71289033,3,0,0,15.35,0.05,25,0,0,0
46258,71391299,3,0,0,15.35,0.05,25,0,0,0
46670,71497980,3,0,0,15.35,0.05,25,0,0,0
47129,71612002,3,0,0,15.35,0.05,25,0,0,0
47542,71719993,3,0,0,15.34,0.05,25,0,0,0
47962,71823668,3,0,0,15.35,0.05,25,0,0,0
48403,71929350,3,0,0,15.35,0.05,25,0,0,0
48861,72038426,3,0,0,15.35,0.05,25,0,0,0
49312,72142853,3,0,0,15.35,0.05,25,0,0,0
49810,72260041,3,0,0,15.35,0.05,25,0,0,0
50263,72366290,3,0,0,15.34,0.05,25,0,0,0
50713,72472247,3,0,0,15.35,0.05,25,0,0,0
51213,72588794,3,0,0,15.34,0.05,25,0,0,0
51659,72687502,3,0,0,15.34,0.05,25,0,0,0
52162,72803494,3,0,0,15.35,0.05,25,0,0,0
52610,72906716,3,0,0,15.34,0.05,25,0,0,0
53559,73125513,3,0,0,15.34,0.05,25,0,0,0
54016,73234344,3,0,0,15.34,0.05,25,0,0,0
54465,73338906,3,0,0,15.34,0.05,25,0,0,0
54919,73444726,3,0,0,15.34,0.05,25,0,0,0
55371,73550512,3,0,0,15.34,0.05,25,0,0,0
55825,73655826,3,0,0,15.35,0.05,25,0,0,0
56324,73769443,3,0,0,15.34,0.05,25,0,0,0
56776,73875370,3,0,0,15.35,0.04,25,0,0,0
57088,73990223,3,24,271,15.33,0.06,25,0,0,0
57505,74091988,3,285,642,15.31,0.11,25,0,0,0
57955,74194321,3,647,1042,15.32,0.17,25,0,0,0
58450,74310260,3,1049,1157,15.32,0.12,25,0,0,0
58902,74414059,3,1158,1200,15.33,0.11,25,0,0,0
59357,74522093,3,1201,1228,15.33,0.11,25,0,0,0
59857,74642479,3,1229,1242,15.32,0.11,25,0,0,0
60266,74734379,3,1241,1228,15.33,0.11,25,0,0,0
60759,74850016,3,1228,1242,15.33,0.11,25,0,0,0
61210,74950870,3,1242,1242,15.33,0.11,25,0,0,0
61924,75170491,3,1242,1242,15.33,0.11,25,0,0,0
62376,75274959,3,1242,1242,15.32,0.11,25,0,0,0
62877,75386483,3,1242,1242,15.33,0.11,25,0,0,0
63293,75493236,3,1242,1242,15.32,0.11,25,0,0,0
63748,75597300,3,1242,1242,15.33,0.11,25,0,0,0
64245,75712031,3,1242,1242,15.32,0.11,25,0,0,0
64706,75821357,3,1243,1257,15.32,0.14,25,0,0,0
65160,75927341,3,1276,1542,15.26,0.27,25,0,0,0
65612,76030724,3,1570,2157,15.19,0.59,25,0,0,0
66067,76140126,3,2162,2585,15.2,0.8100000000000001,25,0,0,0
66522,76247369,3,2588,2871,15.1,1.19,25,0,0,0
67019,76362236,3,2917,3542,14.98,1.97,25,0,0,0
67924,76581526,3,3595,4785,14.77,2.67,25,0,0,0
68830,76795560,3,4804,5700,14.54,3.93,25,0,0,0
69283,76906451,3,5703,5757,14.66,3.32,25,1,0,0
69735,77011864,3,5753,5685,14.61,2.95,25,1,0,0
70186,77121339,3,5680,5385,14.69,2.57,25,1,0,0
70686,77236499,3,5383,5357,14.7,2.54,25,1,0,0
71134,77341935,3,5355,5328,14.73,2.22,25,1,0,0
71591,77455264,3,5320,5242,14.62,2.41,25,1,0,0
72042,77558324,3,5239,5185,14.62,2.44,25,1,0,0
72502,77674071,3,5167,5000,14.69,1.9,25,1,0,0
72955,77780820,3,4995,4957,14.69,1.81,25,1,0,0
73411,77891786,3,4953,4914,14.67,2.49,25,1,0,0
73866,77997984,3,4917,5000,14.67,2.28,25,1,0,0
74358,78115099,3,4998,4971,14.66,2.06,25,1,0,0
74815,78223699,3,4966,4914,14.66,2.21,25,1,0,0
75270,78334076,3,4919,4971,14.63,2.32,25,2,0,0
76173,78550884,3,4978,5185,14.6,2.58,26,2,0,0
76627,78659290,3,5200,5357,14.66,2.65,26,2,0,0
77082,78767504,3,5341,5128,14.67,2.33,25,2,0,0
77530,78872356,3,5128,5157,14.66,2.29,25,2,0,0
77980,78978303,3,5159,5242,14.63,2.44,26,2,0,0
78470,79101512,3,5250,5342,14.63,2.69,26,2,0,0
78921,79212143,3,5330,5214,14.64,2.56,26,2,0,0
79322,79312216,3,5221,5357,14.63,2.72,26,2,0,0
79741,79418819,3,5357,5414,14.61,2.65,26,2,0,0
80222,79534088,3,5412,5400,14.6,2.86,25,2,0,0
80630,79638842,3,5407,5585,14.55,3.26,26,2,0,0
81080,79747671,3,5586,5600,14.57,3.05,26,3,0,0
81485,79850527,3,5599,5571,14.61,2.97,26,3,0,0
81978,79967127,3,5558,5428,14.61,2.59,26,3,0,0
82830,80176573,3,5426,5271,14.61,2.18,26,3,0,0
83272,80284852,3,5268,5100,14.59,2.08,26,3,0,0
83721,80392324,3,5098,5014,14.58,2.26,26,3,0,0
84167,80503352,3,5012,4971,14.59,2.48,26,3,0,0
85065,80723797,3,4971,4971,14.59,2.21,26,3,0,0
85517,80833581,3,4972,5000,14.64,2.17,26,3,0,0
85960,80942687,3,5003,5042,14.58,2.47,26,3,0,0
86409,81049868,3,5057,5271,14.73,2.47,26,3,0,0
86857,81163809,3,5271,5271,14.67,2.51,26,3,0,0
87715,81378819,3,5264,5071,14.7,2.14,26,4,0,0
88165,81489362,3,5059,4957,14.66,2.17,26,4,0,0
88567,81587519,3,4963,5071,14.66,2.5,26,4,0,0
89018,81700869,3,5084,5271,14.66,2.69,26,4,0,0
90316,82021962,3,5268,5142,14.72,2.43,26,4,0,0
90764,82132261,3,5139,5100,14.66,2.28,26,4,0,0
91214,82243486,3,5103,5185,14.72,2.47,26,4,0,0
91664,82352145,3,5179,5057,14.66,2.32,26,4,0,0
92116,82469954,3,5057,5057,14.73,2.18,26,4,0,0
92561,82576032,3,5053,5000,14.72,1.87,26,4,0,0
92963,82674866,3,4998,4900,14.7,2.07,26,5,0,0
93411,82782131,3,4899,4871,14.72,2.05,26,5,0,0
93900,82900884,3,4876,4942,14.65,2.33,26,5,0,0
94302,82997395,3,4941,4928,14.69,2.12,26,5,0,0
94755,83112717,3,4934,5028,14.67,2.29,26,5,0,0
95204,83223898,3,5020,4942,14.6,2.27,26,5,0,0
95609,83329128,3,4946,5000,14.64,2.15,26,5,0,0
96061,83441133,3,4984,4842,14.6,2.02,26,5,0,0
96507,83551231,3,4837,4771,14.62,1.96,26,5,0,0
96918,83656802,3,4775,4842,14.58,1.67,26,5,0,0
97810,83873862,3,4810,4171,14.57,0.88,26,5,0,0
98259,83984896,3,4147,3900,14.61,1.22,26,5,0,0
98660,84086255,3,3896,3700,14.56,1.48,26,5,0,0
99108,84193435,3,3701,3814,14.55,1.51,26,5,0,0
99553,84305864,3,3825,4385,14.52,2.65,26,5,0,0
100044,84423228,3,4449,5100,14.55,3.13,26,5,0,0
100481,84527820,3,5159,5757,14.59,4.24,26,5,0,0
100929,84633836,3,5811,6357,14.55,5.64,26,6,0,0
101372,84743810,3,6387,6714,14.52,6.14,26,6,0,0
101774,84842841,3,6739,7042,14.51,6.27,26,6,0,0
102221,84956080,3,7023,6828,14.53,5.28,26,6,0,0
102663,85062850,3,6827,6800,14.53,4.59,26,6,0,0
103555,85281415,3,6782,6000,14.5,2.96,26,7,0,0
104009,85395313,3,5958,5585,14.55,2.63,26,7,0,0
104453,85504500,3,5572,5428,14.52,2.32,26,7,0,0
104909,85614138,3,5391,5014,14.51,2.02,26,7,0,0
105351,85720308,3,5007,4914,14.54,1.86,26,7,0,0
105802,85828864,3,4908,4771,14.55,1.75,26,7,0,0
106249,85936897,3,4772,4800,14.43,1.95,26,7,0,0
106727,86053680,3,4791,4700,14.54,1.94,26,7,0,0
107138,86155888,3,4700,4700,14.54,1.78,26,7,0,0
107584,86267510,3,4698,4685,14.53,1.79,26,7,0,0
108066,86378876,3,4690,4742,14.55,1.91,26,7,0,0
108465,86479983,3,4743,4771,14.55,2.1,26,7,0,0
108914,86589274,3,4783,5042,14.55,2.75,26,7,0,0
109398,86702280,3,5057,5314,14.52,2.64,26,7,0,0
109851,86812818,3,5322,5428,14.53,2.99,26,8,0,0
110302,86926703,3,5425,5400,14.54,2.64,26,8,0,0
110749,87035373,3,5401,5428,14.46,2.83,26,8,0,0
111199,87143275,3,5417,5314,14.52,2.53,26,8,0,0
111647,87259855,3,5315,5328,14.51,2.63,26,8,0,0
112488,87462946,3,5329,5414,14.55,2.73,26,8,0,0
112934,87570045,3,5411,5271,14.61,2.4,26,8,0,0
113423,87692518,3,5257,5128,14.6,2.09,26,8,0,0
113829,87792080,3,5127,5100,14.63,2.2,26,8,0,0
114270,87900506,3,5100,5100,14.62,2.19,26,8,0,0
114726,88013361,3,5084,4928,14.65,1.9,26,8,0,0
115132,88115473,3,4926,4828,14.68,1.7,26,8,0,0
115581,88224116,3,4825,4642,14.66,1.64,26,8,0,0
116068,88345384,3,4653,4828,14.68,1.92,26,9,0,0
116519,88456676,3,4834,4885,14.55,2.37,26,9,0,0
116924,88559535,3,4892,5000,14.61,2.51,27,9,0,0
117813,88772853,3,5003,5157,14.66,2.51,26,9,0,0
118259,88884809,3,5146,5000,14.67,2.23,26,9,0,0
118671,88987936,3,5003,5085,14.69,2.09,26,9,0,0
119120,89099891,3,5084,5071,14.55,2.36,26,9,0,0
119569,89210359,3,5063,4985,14.57,2.13,26,9,0,0
120011,89317899,3,4998,5128,14.61,2.53,26,9,0,0
120420,89419521,3,5131,5200,14.62,2.3,26,9,0,0
120868,89533377,3,5197,5157,14.58,2.31,26,9,0,0
121318,89639861,3,5152,5085,14.63,2.19,26,9,0,0
121762,89747263,3,5070,4785,14.64,1.44,26,9,0,0
122167,89850846,3,4774,4571,14.6,1.49,26,9,0,0
122617,89958255,3,4571,4585,14.67,1.58,26,10,0,0
123515,90178083,3,4588,4728,14.58,2.15,26,10,0,0
123964,90291041,3,4744,4914,14.62,2.28,26,10,0,0
124413,90396814,3,4916,4985,14.6,2.04,26,10,0,0
124859,90509929,3,4984,4971,14.58,2.31,27,10,0,0
125308,90616516,3,4972,5071,14.62,2.43,26,10,0,0
125790,90732897,3,5050,4842,14.64,1.96,26,10,0,0
126241,90840909,3,4870,5157,14.57,2.83,27,10,0,0
126684,90948923,3,5159,5185,14.61,2.51,26,10,0,0
127303,91273687,3,5457,5457,14.46,3.15,27,10,0,0
127752,91383000,3,5455,5442,14.5,3.06,26,10,0,0
129089,91708319,3,5440,5400,14.54,2.61,27,11,0,0
129534,91814919,3,5410,5514,14.55,3.19,26,11,0,0
129984,91927931,3,5524,5628,14.52,3.03,26,11,0,0
130393,92030332,3,5628,5628,14.45,3.17,27,11,0,0
130805,92138988,3,5630,5728,14.49,3.15,27,11,0,0
131257,92247258,3,5726,5671,14.49,2.92,27,11,0,0
131735,92360676,3,5656,5485,14.5,2.9,27,11,0,0
132182,92472824,3,5490,5542,14.52,2.95,26,11,0,0
132637,92584140,3,5530,5414,14.54,2.76,27,11,0,0
133045,92690386,3,5411,5371,14.57,2.48,26,12,0,0
133491,92797133,3,5372,5385,14.52,2.77,27,12,0,0
133894,92900340,3,5387,5500,14.53,2.91,27,12,0,0
134343,93008961,3,5502,5557,14.48,2.77,27,12,0,0
134789,93118877,3,5557,5557,14.45,3.15,27,12,0,0
135236,93224915,3,5567,5714,14.42,3.48,27,12,0,0
135685,93340100,3,5714,5714,14.45,3.43,27,12,0,0
136130,93450371,3,5731,5942,14.45,3.52,27,12,0,0
136583,93558949,3,5943,5971,14.38,3.67,27,12,0,0
137029,93668525,3,5963,5857,14.48,3.29,27,12,0,0
137879,93879926,3,5857,5857,14.46,3.15,27,13,0,0
138403,94004380,3,5840,5728,14.42,3.32,27,13,0,0
138815,94104297,3,5728,5742,14.41,3.49,27,13,0,0
139266,94214824,3,5748,5828,14.47,3.48,27,13,0,0
139708,94323917,3,5834,5900,14.47,3.74,27,13,0,0
140156,94431952,3,5905,6014,14.52,3.68,27,13,0,0
140598,94547334,3,5981,5714,14.59,3.16,27,13,0,0
141495,94770819,3,5716,5757,14.55,3.16,27,13,0,0
141931,94873574,3,5758,5771,14.59,3.19,27,14,0,0
142382,94981836,3,5766,5657,14.52,2.82,27,14,0,0
142822,95088516,3,5651,5585,14.6,2.71,27,14,0,0
143271,95197343,3,5586,5614,14.6,2.79,27,14,0,0
143678,95300653,3,5612,5542,14.55,2.82,27,14,0,0
144132,95407956,3,5539,5485,14.52,3.02,27,14,0,0
144585,95525907,3,5499,5657,14.62,2.7,27,14,0,0
145033,95630888,3,5652,5600,14.58,3.15,27,14,0,0
146398,95958843,3,5602,5728,14.57,2.91,27,14,0,0
146808,96063490,3,5716,5542,14.56,3.1,27,14,0,0
147257,96174478,3,5544,5585,14.47,3.23,27,15,0,0
147705,96288014,3,5588,5614,14.51,3.16,27,15,0,0
148157,96399918,3,5601,5471,14.52,2.87,27,15,0,0
148523,96497078,3,5473,5500,14.55,3.05,27,15,0,0
148979,96606348,3,5492,5300,14.54,2.3,27,15,0,0
149424,96718930,3,5296,5257,14.54,2.35,27,15,0,0
149874,96827709,3,5264,5342,14.54,2.33,27,15,0,0
150276,96928035,3,5340,5242,14.49,2.68,27,15,0,0
150802,97051463,3,5246,5285,14.42,2.83,27,15,0,0
151211,97153067,3,5292,5385,14.46,2.66,27,15,0,0
151656,97263474,3,5396,5500,14.49,2.8,27,15,0,0
152103,97370870,3,5494,5442,14.51,2.85,27,15,0,0
152503,97471313,3,5444,5500,14.48,2.88,27,16,0,0
152953,97578836,3,5482,5257,14.57,2.13,27,16,0,0
153400,97688113,3,5244,5071,14.51,2.23,27,16,0,0
154297,97909105,3,5072,5100,14.51,2.4,27,16,0,0
154745,98014925,3,5083,4857,14.58,1.95,27,16,0,0
155193,98127827,3,4847,4757,14.53,1.63,27,16,0,0
155640,98236874,3,4743,4628,14.43,1.47,27,16,0,0
156042,98337242,3,4626,4571,14.5,1.65,27,16,0,0
156529,98449872,3,4590,4842,14.53,2.31,27,16,0,0
157424,98672352,3,4827,4500,14.56,1.62,27,16,0,0
157882,98785712,3,4510,4614,14.6,1.54,27,16,0,0
158282,98888278,3,4617,4657,14.55,1.81,27,16,0,0
159181,99106861,3,4662,4785,14.53,1.78,27,16,0,0
159625,99213447,3,4787,4828,14.59,1.91,27,17,0,0
160068,99320330,3,4833,4914,14.59,1.79,27,17,0,0
160517,99429871,3,4906,4800,14.56,1.66,27,17,0,0
160963,99539512,3,4808,4900,14.54,2.11,27,17,0,0
161418,99658105,3,4898,4885,14.55,2.07,27,17,0,0
161834,99761868,3,4893,4971,14.54,1.99,27,17,0,0
162280,99874967,3,4974,5014,14.5,1.86,27,17,0,0
162729,99983713,3,5007,4900,14.57,1.85,27,17,0,0
163173,100091027,3,4895,4842,14.57,1.98,27,17,0,0
163622,100201499,3,4840,4814,14.57,1.65,27,17,0,0
164067,100312028,3,4810,4771,14.58,1.74,27,17,0,0
164514,100418938,3,4761,4671,14.49,1.49,27,17,0,0
164924,100525349,3,4667,4614,14.52,1.47,27,17,0,0
165378,100636176,3,4598,4442,14.55,1.66,27,17,0,0
165821,100743675,3,4442,4457,14.58,1.52,27,17,0,0
166266,100852285,3,4456,4442,14.54,1.54,27,17,0,0
166757,100972530,3,4464,4671,14.57,2.09,27,17,0,0
167161,101077357,3,4704,4900,14.49,2.36,27,17,0,0
167612,101191024,3,4900,4900,14.46,2.37,27,18,0,0
168019,101287124,3,4905,5142,14.49,2.6,27,18,0,0
168506,101408955,3,5139,5114,14.48,2.7,27,18,0,0
168880,101501128,3,5116,5257,14.47,2.93,27,18,0,0
169327,101609296,3,5256,5242,14.4,2.74,27,18,0,0
169818,101735361,3,5244,5271,14.45,2.5,27,18,0,0
170225,101832466,3,5268,5100,14.48,2.22,27,18,0,0
170675,101949296,3,5103,5128,14.47,2.17,27,18,0,0
171081,102043963,3,5127,5085,14.53,2.47,27,18,0,0
171568,102165248,3,5097,5214,14.47,2.52,27,18,0,0
172013,102276079,3,5196,5085,14.51,2.7,27,18,0,0
172416,102369690,3,5088,5300,14.5,2.64,27,18,0,0
172866,102483079,3,5292,5200,14.49,2.53,27,18,0,0
173349,102601953,3,5197,5157,14.47,2.48,27,19,0,0
173719,102697369,3,5160,5414,14.55,2.87,27,19,0,0
174246,102820147,3,5409,5342,14.55,2.3,27,19,0,0
174651,102922316,3,5318,4728,14.6,1.87,27,19,0,0
175102,103028278,3,4736,4957,14.58,2.06,27,19,0,0
175589,103148913,3,4957,4957,14.58,2.41,27,19,0,0
175996,103253848,3,4970,5085,14.54,2.38,27,19,0,0
176922,103474003,3,5080,4985,14.57,2.22,27,19,0,0
177330,103571018,3,4982,4842,14.52,1.84,27,19,0,0
177776,103686511,3,4847,4914,14.53,2.18,27,19,0,0
178228,103800819,3,4900,4771,14.48,1.95,27,19,0,0
179076,104004261,3,4769,4657,14.56,1.54,27,19,0,0
179529,104118685,3,4667,4857,14.46,2.39,27,19,0,0
179982,104230254,3,4860,4914,14.51,1.76,27,19,0,0
180424,104338360,3,4905,4728,14.4,1.89,27,20,0,0
180915,104459248,3,4730,4757,14.47,1.8,27,20,0,0
181321,104557456,3,4760,4800,14.51,1.93,27,20,0,0
182619,104878553,3,4796,4557,14.6,1.47,27,20,0,0
183071,104987800,3,4557,4600,14.57,1.56,27,20,0,0
183515,105096974,3,4601,4671,14.54,1.61,27,20,0,0
183961,105204343,3,4668,4571,14.51,1.46,27,20,0,0
184417,105322862,3,4566,4528,14.51,1.46,27,20,0,0
184864,105429530,3,4516,4371,14.55,1.45,27,20,0,0
185268,105532695,3,4381,4514,14.52,1.66,27,20,0,0
185721,105641989,3,4517,4571,14.42,1.82,27,20,0,0
186126,105744327,3,4577,5042,14.51,3.02,27,20,0,0
186608,105862052,3,4997,4557,14.46,1.67,27,20,0,0
187015,105959274,3,4572,4885,14.51,1.9,27,20,0,0
187461,106071126,3,4868,4657,14.53,1.66,27,20,0,0
188102,106290219,3,4677,4771,14.54,1.91,27,20,0,0
188551,106399947,3,4765,4685,14.55,1.59,27,21,0,0
188957,106502270,3,4684,4671,14.61,1.67,27,21,0,0
189402,106606649,3,4671,4685,14.58,2.05,27,21,0,0
189845,106716683,3,4688,4871,14.47,2.12,27,21,0,0
190293,106824939,3,4872,4942,14.51,2.42,27,21,0,0
190738,106933676,3,4944,5042,14.51,2.21,27,21,0,0
191189,107043867,3,5043,5114,14.44,2.33,27,21,0,0
192087,107268476,3,5130,5471,14.37,3.15,27,21,0,0
192533,107374870,3,5485,5685,14.38,3.25,27,21,0,0
192940,107478310,3,5680,5585,14.43,3.32,27,21,0,0
193400,107593954,3,5589,5628,14.38,2.89,27,21,0,0
193797,107692355,3,5637,5771,14.36,3.37,27,21,0,0
194247,107800343,3,5773,5800,14.31,3.07,27,22,0,0
194691,107909149,3,5804,5871,14.29,4.24,27,22,0,0
195099,108009866,3,5876,6171,14.32,4.21,27,22,0,0
195578,108123837,3,6168,6128,14.28,3.61,27,22,0,0
196032,108239860,3,6121,6071,14.25,3.53,27,22,0,0
196472,108343821,3,6066,6000,14.22,3.91,27,22,0,0
196881,108446811,3,6000,6028,14.17,3.74,27,22,0,0
197380,108566895,3,6037,6128,14.17,3.87,27,22,0,0
197821,108673725,3,6133,6214,14.17,4.11,27,22,0,0
198272,108783253,3,6204,6114,14.21,4.01,27,23,0,0
199164,108999866,3,6087,5328,14.48,1.88,27,23,0,0
199570,109101726,3,5317,4628,14.46,1.3,27,23,0,0
200061,109218930,3,4628,4628,14.44,1.77,27,23,0,0
200505,109328258,3,4659,5000,14.29,2.91,27,23,0,0
200914,109428125,3,5001,5114,14.45,2.42,27,23,0,0
201359,109538514,3,5118,5228,14.46,2.56,27,23,0,0
201800,109644977,3,5229,5271,14.28,3.03,27,23,0,0
202249,109753127,3,5283,6171,14.2,5.12,27,23,0,0
202694,109865469,3,6175,6400,14.41,4.38,27,23,0,0
203187,109982093,3,6373,6114,14.33,3.65,27,24,0,0
203592,110083856,3,6116,6271,14.16,4.43,27,24,0,0
204083,110199513,3,6274,6328,14.18,4.74,27,24,0,0
204490,110303096,3,6327,6314,14.29,3.92,27,24,0,0
204940,110411831,3,6310,6128,14.25,3.97,27,24,0,0
205387,110522722,3,6122,6042,14.34,3.77,27,24,0,0
205838,110631321,3,6042,6057,14.3,3.54,27,24,0,0
206284,110741018,3,6052,5828,14.33,3,27,24,0,0
206776,110861549,3,5862,6085,14.23,3.76,27,25,0,0
207626,111074815,3,6055,5542,14.42,2.45,27,25,0,0
208079,111183611,3,5475,5014,14.44,1.93,27,25,0,0
208477,111283458,3,5024,5285,14.34,3.04,27,25,0,0
208923,111389591,3,5285,5285,14.34,2.45,27,25,0,0
209378,111502945,3,5299,5528,14.45,3.66,27,25,0,0
210263,111720294,3,5523,5400,14.5,2.85,27,25,0,0
210711,111826694,3,5409,5600,14.46,3.27,27,25,0,0
211113,111929391,3,5600,5628,14.56,2.74,27,25,0,0
212009,112147042,3,5623,5357,14.61,2.77,27,26,0,0
212490,112267363,3,5347,5257,14.61,2.39,27,26,0,0
212942,112378819,3,5257,5257,14.57,2.56,27,26,0,0
213303,112471947,3,5258,5342,14.45,2.89,27,26,0,0
213753,112583247,3,5343,5457,14.48,2.7,27,26,0,0
214241,112700880,3,5465,5557,14.48,3.33,27,26,0,0
214689,112810150,3,5558,5571,14.5,3.08,27,26,0,0
215091,112910468,3,5571,5571,14.56,2.93,27,26,0,0
215580,113026026,3,5576,5628,14.52,2.86,27,26,0,0
216012,113126033,3,5627,5614,14.51,2.79,27,26,0,0
216464,113235817,3,5607,5471,14.44,2.79,27,26,0,0
216909,113348028,3,5469,5371,14.43,2.95,27,26,0,0
217361,113459525,3,5384,5628,14.41,2.79,27,27,0,0
217810,113569939,3,5608,5428,14.44,2.59,27,27,0,0
218244,113670869,3,5424,5300,14.44,2.64,27,27,0,0
219145,113894971,3,5311,5571,14.39,2.87,27,27,0,0
219590,114001150,3,5568,5528,14.36,3.02,27,27,0,0
220030,114109450,3,5519,5400,14.39,2.75,27,27,0,0
220478,114217081,3,5393,5228,14.38,2.58,27,27,0,0
220960,114330910,3,5237,5328,14.41,2.63,27,27,0,0
221411,114439662,3,5320,5242,14.45,2.89,27,27,0,0
221817,114544832,3,5251,5457,14.39,2.89,27,27,0,0
222264,114659043,3,5459,5485,14.42,3.13,27,27,0,0
222712,114764912,3,5486,5514,14.38,3.13,27,28,0,0
223113,114865537,3,5513,5485,14.36,3.16,27,28,0,0
223602,114982563,3,5492,5571,14.47,2.9,27,28,0,0
224005,115086237,3,5558,5385,14.41,2.85,27,28,0,0
224453,115194580,3,5385,5442,14.41,2.62,27,28,0,0
224894,115302529,3,5432,5228,14.45,2.4,27,28,0,0
225350,115415897,3,5225,5185,14.44,2.24,27,28,0,0
225797,115526483,3,5167,5000,14.44,1.91,27,28,0,0
226239,115631489,3,4995,4914,14.43,2.15,27,28,0,0
226686,115743241,3,4913,4900,14.44,2.22,27,28,0,0
227131,115853672,3,4902,4928,14.46,2.21,27,28,0,0
227580,115963930,3,4935,5014,14.48,2.35,27,28,0,0
228024,116073847,3,5029,5185,14.43,2.53,27,29,0,0
228476,116185698,3,5183,5171,14.47,2.63,27,29,0,0
228873,116282873,3,5171,5171,14.44,2.6,27,29,0,0
229326,116393838,3,5175,5271,14.39,2.77,27,29,0,0
230215,116612294,3,5268,5157,14.45,2.33,27,29,0,0
230662,116725126,3,5155,5142,14.42,2.48,27,29,0,0
231111,116834334,3,5146,5257,14.39,2.6,27,29,0,0
231557,116943869,3,5257,5257,14.44,2.8,27,29,0,0
232004,117058072,3,5253,5228,14.39,2.79,27,29,0,0
232455,117167360,3,5243,5414,14.42,3.24,27,29,0,0
232856,117268307,3,5415,5542,14.31,3.53,27,30,0,0
233347,117385261,3,5556,5700,14.41,3.58,27,30,0,0
233746,117485861,3,5701,5785,14.33,3.55,27,30,0,0
234230,117597341,3,5784,5771,14.37,3.22,27,30,0,0
234635,117703496,3,5771,5771,14.41,3.3,27,30,0,0
235131,117830236,3,5754,5657,14.43,2.85,27,30,0,0
235534,117925872,3,5648,5457,14.47,2.48,27,30,0,0
236464,118152109,3,5457,5457,14.39,2.89,27,30,0,0
236912,118265138,3,5443,5285,14.44,2.5,27,30,0,0
237724,118469912,3,5288,5371,14.47,3.1,27,31,0,0
238173,118579715,3,5385,5557,14.47,3.14,27,31,0,0
238578,118681693,3,5558,5585,14.42,3.43,27,31,0,0
239030,118791079,3,5588,5800,14.36,3.65,27,31,0,0
239473,118907497,3,5796,5757,14.42,3.73,27,31,0,0
239921,119017834,3,5766,5842,14.38,3.72,27,31,0,0
240328,119120063,3,5846,5900,14.41,3.31,27,31,0,0
240776,119233663,3,5877,5642,14.39,3.12,27,31,0,0
241225,119342126,3,5645,5671,14.37,3.22,27,31,0,0
241629,119439894,3,5669,5642,14.38,2.94,27,31,0,0
242072,119554110,3,5631,5400,14.46,2.64,27,32,0,0
242561,119675504,3,5402,5428,14.36,2.56,27,32,0,0
242963,119771855,3,5428,5457,14.41,3.14,27,32,0,0
243372,119877261,3,5460,5628,14.4,2.88,27,32,0,0
243822,119988557,3,5620,5471,14.41,2.72,27,32,0,0
244266,120096237,3,5471,5485,14.37,2.98,28,32,0,0
244712,120206097,3,5487,5657,14.43,3.24,27,32,0,0
245119,120310433,3,5647,5428,14.44,2.85,27,32,0,0
245611,120427845,3,5429,5442,14.42,2.97,27,32,0,0
246011,120531234,3,5443,5557,14.41,3.62,27,32,0,0
246503,120649279,3,5582,5828,14.34,3.32,28,32,0,0
246951,120763681,3,5820,5742,14.42,2.99,27,33,0,0
247794,120971441,3,5742,5757,14.38,3.53,27,33,0,0
248236,121080899,3,5769,5928,14.39,3.24,27,33,0,0
248684,121186852,3,5916,5671,14.34,2.98,27,33,0,0
249135,121295496,3,5662,5557,14.43,2.79,27,33,0,0
249583,121403706,3,5545,5314,14.38,2.36,27,33,0,0
250030,121515914,3,5303,5171,14.48,2.52,27,33,0,0
250479,121626255,3,5161,5028,14.42,2.05,27,33,0,0
250886,121730123,3,5025,4971,14.42,2.32,27,33,0,0
251379,121852835,3,4967,4942,14.43,1.95,27,33,0,0
251780,121950543,3,4933,4757,14.43,1.83,27,33,0,0
252674,122172011,3,4759,4800,14.44,2.25,27,34,0,0
253161,122286628,3,4804,4857,14.41,2.33,27,34,0,0
253568,122389948,3,4872,5057,14.5,2.39,27,34,0,0
254047,122504291,3,5071,5285,14.42,2.69,27,34,0,0
254495,122612748,3,5281,5214,14.41,2.8,27,34,0,0
254942,122724030,3,5214,5214,14.39,2.67,28,34,0,0
255349,122822498,3,5215,5285,14.51,2.52,27,34,0,0
255799,122938897,3,5280,5214,14.51,2.59,27,34,0,0
256242,123050097,3,5220,5271,14.42,2.98,27,34,0,0
256651,123154810,3,5287,5514,14.38,2.97,27,34,0,0
257094,123263517,3,5502,5385,14.38,2.8,27,34,0,0
257502,123364838,3,5387,5428,14.41,2.76,27,34,0,0
257916,123474020,3,5426,5385,14.41,2.74,27,34,0,0
258361,123579564,3,5383,5314,14.47,2.05,27,35,0,0
258805,123687478,3,5306,4828,14.51,1.56,27,35,0,0
259295,123801847,3,4810,4585,14.51,1.2,27,35,0,0
259739,123912256,3,4567,4314,14.51,1.4,27,35,0,0
260191,124024408,3,4312,4300,14.53,1.37,27,35,0,0
260638,124136528,3,4288,4171,14.51,1.42,27,35,0,0
261087,124249863,3,4169,4157,14.54,1.25,27,35,0,0
261485,124344480,3,4163,4300,14.6,1.54,27,35,0,0
261937,124462098,3,4292,4228,14.63,1.33,28,35,0,0
262382,124566883,3,4233,4285,14.65,1.36,27,35,0,0
262795,124676059,3,4297,4428,14.53,2.27,27,35,0,0
263687,124893678,3,4444,4928,14.53,2.28,27,35,0,0
264534,125101345,3,4928,4942,14.51,1.94,27,35,0,0
265028,125217321,3,4934,4842,14.48,1.85,27,35,0,0
265431,125319300,3,4829,4542,14.54,1.17,27,35,0,0
265876,125424055,3,4542,4557,14.56,1.88,27,35,0,0
266367,125542818,3,4564,4642,14.48,2.12,27,35,0,0
266815,125657125,3,4648,4814,14.5,2.12,27,36,0,0
267256,125758006,3,4819,4885,14.42,2.69,27,36,0,0
267708,125873024,3,4915,5242,14.42,2.52,27,36,0,0
268114,125975934,3,5243,5328,14.44,2.82,27,36,0,0
268563,126088540,3,5328,5342,14.51,2.39,27,36,0,0
269010,126197713,3,5330,5228,14.48,2.38,27,36,0,0
269865,126411987,3,5229,5271,14.47,1.94,27,36,0,0
270265,126514214,3,5264,5000,14.52,1.79,27,36,0,0
271202,126741868,3,4992,4828,14.47,1.77,27,36,0,0
271606,126841367,3,4827,4800,14.5,1.73,27,36,0,0
272097,126958318,3,4801,4814,14.47,1.74,27,36,0,0
272498,127059939,3,4813,4785,14.52,1.88,27,36,0,0
272946,127169408,3,4788,4871,14.5,2.09,27,36,0,0
273397,127283330,3,4874,4928,14.5,2.02,27,37,0,0
273845,127390850,3,4931,5014,14.51,2.02,27,37,0,0
274287,127500677,3,5019,5100,14.52,2.11,27,37,0,0
274736,127611063,3,5098,5085,14.46,2.29,27,37,0,0
275146,127717058,3,5093,5171,14.49,2.33,27,37,0,0
275554,127816105,3,5172,5214,14.46,2.2,27,37,0,0
276030,127927322,3,5211,5157,14.49,1.97,27,37,0,0
276484,128041224,3,5141,5000,14.49,1.95,27,37,0,0
276930,128148573,3,5005,5071,14.44,2.15,27,37,0,0
277373,128257231,3,5064,5000,14.47,2.08,27,37,0,0
277820,128364790,3,5005,5057,14.51,1.95,27,37,0,0
278664,128572223,3,5056,5014,14.49,2.08,27,37,0,0
279113,128683086,3,5011,4985,14.44,2.1,27,37,0,0
279562,128790539,3,4982,4928,14.44,1.91,27,37,0,0
280456,129014302,3,4929,4957,14.43,1.88,27,38,0,0
280897,129125377,3,4951,4900,14.47,1.99,27,38,0,0
281344,129229966,3,4915,5028,14.49,2.06,27,38,0,0
281750,129334361,3,5024,4985,14.44,2.14,27,38,0,0
282199,129448911,3,4977,4914,14.46,1.91,27,38,0,0
282603,129545277,3,4915,5028,14.44,2.02,27,38,0,0
283090,129670893,3,5015,4914,14.45,1.93,27,38,0,0
283499,129770317,3,4909,4857,14.48,1.86,27,38,0,0
284840,130104309,3,4861,5042,14.45,2.16,27,38,0,0
285728,130316987,3,5039,4942,14.51,1.93,27,38,0,0
286138,130419261,3,4944,5000,14.45,2.33,27,38,0,0
286581,130530315,3,5001,5114,14.47,2.35,27,38,0,0
287028,130635518,3,5114,5142,14.51,2.26,27,38,0,0
287512,130750806,3,5142,5157,14.45,2.43,27,39,0,0
287958,130862054,3,5157,5171,14.44,2.35,27,39,0,0
288366,130962921,3,5169,5057,14.41,2.21,27,39,0,0
288810,131073720,3,5059,5228,14.4,2.67,27,39,0,0
289256,131180145,3,5228,5271,14.31,2.76,27,39,0,0
289698,131287891,3,5274,5442,14.3,2.92,27,39,0,0
290150,131398350,3,5443,5528,14.39,2.87,27,39,0,0
290592,131509944,3,5521,5357,14.41,2.46,27,39,0,0
291039,131617852,3,5357,5357,14.37,2.56,27,39,0,0
291523,131732337,3,5364,5457,14.39,2.8,27,39,0,0
291974,131842926,3,5429,5157,14.38,2.23,27,39,0,0
292418,131953683,3,5154,5128,14.39,2.51,27,39,0,0
292814,132050588,3,5130,5242,14.46,2.74,27,39,0,0
293266,132160544,3,5242,5242,14.42,2.42,27,40,0,0
293715,132273062,3,5248,5314,14.45,2.5,27,40,0,0
294161,132378864,3,5310,5100,14.49,2.02,27,40,0,0
294605,132490819,3,5095,5000,14.43,2.26,27,40,0,0
295091,132602538,3,5001,5028,14.47,2.42,27,40,0,0
295491,132704138,3,5026,4957,14.44,2.36,27,40,0,0
295989,132823682,3,4955,4942,14.4,1.98,27,40,0,0
296834,133033020,3,4945,5071,14.4,2.3,27,40,0,0
297280,133143721,3,5072,5100,14.48,2.27,27,40,0,0
297694,133253288,3,5097,5071,14.47,2.2,27,40,0,0
298542,133461445,3,5071,5157,14.49,2.39,27,40,0,0
299033,133580405,3,5163,5228,14.51,2.67,27,40,0,0
299433,133680916,3,5225,5142,14.44,2.33,27,41,0,0
299923,133797779,3,5143,5171,14.48,2.17,27,41,0,0
300323,133899277,3,5171,5200,14.51,2.54,27,41,0,0
300848,134019925,3,5204,5271,14.48,2.41,27,41,0,0
301297,134130504,3,5267,5214,14.45,2.3,27,41,0,0
302105,134333918,3,5214,5271,14.45,2.48,27,41,0,0
302600,134461294,3,5271,5271,14.47,2.31,27,41,0,0
303039,134563481,3,5253,5028,14.44,2.22,27,41,0,0
303481,134672896,3,5030,5057,14.48,2.02,27,41,0,0
303931,134781917,3,5067,5171,14.48,2.25,27,41,0,0
304328,134879071,3,5167,5042,14.43,2.19,27,41,0,0
304780,134991697,3,5047,5114,14.49,2.09,27,41,0,0
305186,135098175,3,5110,5071,14.47,1.9,27,41,0,0
305638,135207451,3,5067,4985,14.47,2.11,27,41,0,0
306089,135323274,3,4987,5014,14.45,2.08,27,42,0,0
306537,135431366,3,5014,5014,14.48,2.08,27,42,0,0
306938,135533215,3,5005,4842,14.5,1.88,27,42,0,0
307843,135755150,3,4841,4714,14.44,1.99,27,42,0,0
308289,135862933,3,4722,4842,14.47,2.22,27,42,0,0
308775,135981801,3,4831,4742,14.5,1.91,27,42,0,0
309181,136083919,3,4744,4771,14.5,1.92,27,42,0,0
309634,136193936,3,4766,4700,14.57,1.59,27,42,0,0
310079,136302897,3,4686,4542,14.55,1.71,27,42,0,0
310523,136409387,3,4544,4685,14.51,1.91,27,42,0,0
310969,136524943,3,4670,4485,14.54,1.52,27,42,0,0
311862,136740849,3,4492,4685,14.53,1.86,27,42,0,0
312310,136854094,3,4674,4585,14.47,1.73,27,42,0,0
312712,136953146,3,4573,3585,15.21,0.39,27,42,0,0
313197,137070013,3,3487,2557,14.89,0.42,27,42,0,0
313606,137170932,3,2518,2100,14.85,0.16,27,42,0,0
314049,137278135,3,2100,2100,14.98,0.42,27,42,0,0
314501,137389278,3,2092,2014,14.95,0.09,27,42,0,0
314905,137491455,3,2011,1842,14.96,0.17,27,42,0,0
315350,137596353,3,1844,2042,14.97,0.28,27,42,0,0
315799,137711064,3,2033,1928,14.97,0.13,27,42,0,0
316246,137819359,3,1931,1985,14.97,0.27,27,42,0,0
316689,137928473,3,1983,1971,14.97,0.17,27,42,0,0
317137,138038331,3,1969,1957,14.97,0.21,27,42,0,0
318432,138358032,3,1957,2000,14.98,0.19,27,43,0,0
318878,138470469,3,1998,1985,14.98,0.19,27,43,0,0
319323,138573453,3,1985,1985,14.99,0.19,27,43,0,0
319807,138688337,3,1984,1971,14.98,0.19,27,43,0,0
320253,138793529,3,1971,1985,14.98,0.23,27,43,0,0
320695,138899816,3,1984,1971,15.07,0.18,27,43,0,0
321146,139010033,3,1957,1642,15.06,0.01,27,43,0,0
321623,139118029,3,1627,1328,15.04,0.02,27,43,0,0
322074,139226451,3,1322,1242,15.04,0.09,27,43,0,0
322971,139443137,3,1241,1214,15.04,0.09999999,27,43,0,0
323417,139550401,3,1214,1228,15.04,0.09999999,27,43,0,0
323905,139663931,3,1227,1214,15.04,0.09999999,27,43,0,0
324353,139770263,3,1214,1228,15.05,0.09999999,27,43,0,0
324807,139884716,3,1228,1228,15.05,0.09999999,27,43,0,0
325252,139988894,3,1228,1228,15.05,0.09999999,27,43,0,0
325700,140100058,3,1228,1228,15.05,0.09999999,27,43,0,0
326146,140205062,3,1228,1228,15.05,0.09999999,27,43,0,0
326548,140305236,3,1228,1228,15.05,0.09999999,27,43,0,0
327034,140414814,3,1228,1228,15.05,0.09999999,27,43,0,0
327481,140522888,3,1228,1228,15.05,0.09999999,27,43,0,0
328380,140743817,3,1228,1228,15.06,0.09999999,27,43,0,0
328787,140847816,3,1228,1228,15.05,0.09999999,27,43,0,0
329280,140968509,3,1228,1228,15.06,0.09999999,27,43,0,0
329721,141078956,3,1228,1228,15.06,0.09999999,27,43,0,0
330171,141186343,3,1228,1228,15.07,0.09999999,27,43,0,0
330573,141283304,3,1228,1228,15.06,0.09999999,27,43,0,0
331022,141390086,3,1227,1214,15.07,0.09999999,27,43,0,0
331962,141613373,3,1214,1214,15.07,0.09999999,27,43,0,0
332359,141711468,3,1214,1214,15.07,0.09999999,27,43,0,0
332818,141825671,3,1214,1228,15.07,0.09999999,27,43,0,0
333259,141931792,3,1227,1214,15.08,0.09999999,27,43,0,0
333750,142053255,3,1214,1214,15.08,0.09999999,27,43,0,0
334156,142149804,3,1215,1228,15.08,0.09999999,27,43,0,0
334401,142256248,3,1227,1214,15.08,0.09999999,27,43,0,0
335131,142463749,3,1228,1228,15.07,0.09999999,27,43,0,0
335625,142578889,3,1228,1228,15.08,0.09999999,27,43,0,0
336028,142679452,3,1228,1228,15.08,0.11,27,43,0,0
336479,142787950,3,1227,1214,15.08,0.09999999,27,43,0,0
336917,142892484,3,1214,1228,15.08,0.11,27,43,0,0
337410,143009834,3,1228,1228,15.08,0.09999999,27,43,0,0
337815,143112862,3,1228,1228,15.08,0.09999999,27,43,0,0
338266,143222272,3,1228,1228,15.09,0.09999999,27,43,0,0
338713,143334131,3,1228,1228,15.09,0.09999999,27,43,0,0
339202,143450402,3,1228,1228,15.09,0.09999999,27,43,0,0
339647,143553906,3,1228,1228,15.1,0.11,27,43,0,0
340095,143660396,3,1228,1228,15.1,0.11,27,43,0,0
340546,143769932,3,1228,1228,15.1,0.09999999,27,43,0,0
340997,143879093,3,1228,1228,15.09,0.11,27,43,0,0
341446,143985527,3,1228,1228,15.11,0.11,27,43,0,0
341895,144094068,3,1227,1214,15.09,0.09999999,27,43,0,0
342343,144201492,3,1214,1228,15.1,0.09999999,27,43,0,0
342756,144308945,3,1228,1228,15.1,0.11,27,43,0,0
343245,144422945,3,1228,1228,15.1,0.09999999,27,43,0,0
344098,144630788,3,1228,1228,15.11,0.09999999,27,43,0,0
344546,144740989,3,1228,1228,15.11,0.09999999,27,43,0,0
345027,144859385,3,1228,1228,15.1,0.11,27,43,0,0
345478,144966516,3,1228,1228,15.11,0.09999999,27,43,0,0
345882,145063140,3,1228,1228,15.11,0.09999999,27,43,0,0
346368,145182704,3,1228,1228,15.11,0.09999999,27,43,0,0
346847,145293840,3,1228,1228,15.11,0.09999999,27,43,0,0
347256,145391504,3,1228,1228,15.11,0.09999999,27,43,0,0
347700,145500285,3,1228,1228,15.11,0.09999999,27,43,0,0
348152,145610322,3,1228,1228,15.12,0.09999999,27,43,0,0
348563,145712023,3,1228,1228,15.11,0.09999999,27,43,0,0
349053,145827332,3,1228,1228,15.11,0.09999999,27,43,0,0
349506,145937717,3,1228,1228,15.11,0.09999999,27,43,0,0
349957,146046245,3,1228,1228,15.11,0.09999999,27,43,0,0
350404,146153510,3,1228,1228,15.12,0.09999999,27,43,0,0
351295,146367311,3,1228,1228,15.12,0.09999999,27,43,0,0
351781,146482058,3,1228,1228,15.12,0.09999999,27,43,0,0
352228,146586787,3,1228,1228,15.12,0.11,27,43,0,0
352675,146697385,3,1228,1228,15.12,0.11,27,43,0,0
353082,146795984,3,1228,1228,15.12,0.11,27,43,0,0
353527,146904221,3,1228,1228,15.12,0.09999999,27,43,0,0
353977,147013213,3,1228,1228,15.13,0.09999999,27,43,0,0
354420,147119450,3,1228,1228,15.13,0.09999999,27,43,0,0
354916,147238855,3,1228,1228,15.12,0.09999999,27,43,0,0
355361,147342342,3,1228,1228,15.13,0.09999999,27,43,0,0
355806,147450945,3,1228,1228,15.12,0.11,27,43,0,0
356294,147563490,3,1228,1228,15.12,0.09999999,27,43,0,0
356734,147669972,3,1228,1228,15.13,0.09999999,27,43,0,0
357144,147771368,3,1228,1228,15.13,0.11,27,43,0,0
357596,147883052,3,1228,1228,15.13,0.11,27,43,0,0
358048,147993380,3,1228,1228,15.13,0.11,27,43,0,0
358458,148099108,3,1228,1228,15.13,0.09999999,27,43,0,0
358902,148203803,3,1228,1228,15.13,0.11,27,43,0,0
359383,148317076,3,1228,1228,15.13,0.11,27,43,0,0
359832,148424881,3,1228,1228,15.14,0.11,27,43,0,0
360726,148638845,3,1228,1228,15.13,0.09999999,27,43,0,0
361167,148746488,3,1228,1228,15.13,0.11,27,43,0,0
361610,148856813,3,1228,1228,15.14,0.11,26,43,0,0
362092,148973120,3,1187,628,15.16,0.02,27,43,0,0
362506,149082107,3,595,271,15.15,0.02,26,43,0,0
362917,149183925,3,261,0,15.15,0.02,27,43,0,0
363358,149292942,3,0,0,15.16,0.04,27,43,0,0
363772,149397256,3,0,0,15.16,0.04,26,43,0,0
364186,149506839,3,0,0,15.15,0.04,26,43,0,0
364599,149610063,3,0,0,15.16,0.04,27,43,0,0
365046,149723831,3,0,0,15.16,0.05,26,43,0,0
365458,149825699,3,0,0,15.16,0.05,26,43,0,0
365906,149936683,3,0,0,15.16,0.04,26,43,0,0
366318,150042822,3,0,0,15.16,0.04,27,43,0,0
366744,150155907,3,0,0,15.16,0.04,26,43,0,0
367154,150261807,3,0,0,15.16,0.04,27,43,0,0
367607,150372939,3,0,0,15.16,0.04,27,43,0,0
368018,150479095,3,0,0,15.16,0.04,26,43,0,0
368434,150584836,3,0,0,15.16,0.04,26,43,0,0
368852,150695371,3,0,0,15.16,0.04,26,43,0,0
369263,150799718,3,0,0,15.16,0.04,26,43,0,0
369678,150906562,3,0,0,15.16,0.04,26,43,0,0
370095,151010460,3,0,0,15.16,0.04,26,43,0,0
370544,151124890,3,0,0,15.16,0.04,27,43,0,0
370955,151225332,3,0,0,15.16,0.04,27,43,0,0
371407,151343748,3,0,0,15.16,0.05,26,43,0,0
371820,151446791,3,0,0,15.16,0.05,26,43,0,0
372231,151552054,3,0,0,15.17,0.04,26,43,0,0
372644,151660932,3,0,0,15.17,0.04,26,43,0,0
373054,151763265,3,0,0,15.17,0.05,26,43,0,0
373502,151878520,3,0,0,15.17,0.05,26,43,0,0
373919,151983671,3,0,0,15.17,0.04,26,43,0,0
374334,152093276,3,0,0,15.17,0.04,26,43,0,0
374785,152205878,3,0,0,15.17,0.04,26,43,0,0
375198,152314309,3,0,0,15.17,0.04,26,43,0,0
375609,152416022,3,0,0,15.17,0.04,26,43,0,0
376467,152639382,3,0,0,15.17,0.04,26,43,0,0
376881,152744265,3,0,0,15.17,0.04,26,43,0,0
377261,152849906,3,0,0,15.17,0.05,26,43,0,0
377673,152952086,3,0,0,15.18,0.04,26,43,0,0
378159,153071504,3,0,0,15.17,0.04,26,43,0,0
378573,153175882,3,0,0,15.17,0.04,26,43,0,0
378986,153284493,3,0,0,15.17,0.04,26,43,0,0
379397,153387884,3,0,0,15.17,0.04,26,43,0,0
379810,153496263,3,0,0,15.17,0.04,26,43,0,0
380264,153609504,3,0,0,15.17,0.04,26,43,0,0
380672,153714894,3,0,0,15.17,0.04,26,43,0,0
381130,153830499,3,0,0,15.17,0.04,26,43,0,0
381495,153926013,3,0,0,15.18,0.04,26,43,0,0
381949,154041040,3,0,0,15.18,0.04,26,43,0,0
382361,154146526,3,0,0,15.17,0.04,26,43,0,0
382771,154252453,3,0,0,15.18,0.04,26,43,0,0
383222,154365638,3,0,0,15.18,0.04,26,43,0,0
383632,154471422,3,0,0,15.18,0.04,26,43,0,0
384046,154574513,3,0,0,15.18,0.04,26,43,0,0
384462,154685462,3,0,0,15.18,0.04,26,43,0,0
384917,154796559,3,0,0,15.18,0.04,26,43,0,0
385291,154893514,3,0,0,15.19,0.04,26,43,0,0
385744,155006475,3,0,0,15.18,0.04,26,43,0,0
386191,155117271,3,0,0,15.18,0.04,26,43,0,0
386603,155222521,3,0,0,15.18,0.04,26,43,0,0
387051,155336534,3,0,0,15.18,0.04,26,43,0,0
387464,155440089,3,0,0,15.19,0.04,26,43,0,0
387872,155544795,3,0,0,15.19,0.04,26,43,0,0
388324,155659396,3,0,0,15.19,0.04,26,43,0,0
389557,155972714,3,0,0,15.19,0.04,26,43,0,0
390008,156085666,3,0,0,15.18,0.04,26,43,0,0
390459,156198322,3,0,0,15.19,0.05,26,43,0,0
390872,156305459,3,0,0,15.19,0.05,26,43,0,0
391286,156410065,3,0,0,15.19,0.05,26,43,0,0
