LineNo,TimeUS,Instance,RPM,RawRPM,Volt,Curr,Temp,CTot,MotTemp,Err
1727,6.0137e+07,0,0,0,15.31,0.04,30,0,0,0
2138,6.0239e+07,0,0,0,15.31,0.04,30,0,0,0
3012,6.046e+07,0,0,0,15.31,0.04,30,0,0,0
3427,6.0562e+07,0,0,0,15.31,0.04,30,0,0,0
4287,6.0778e+07,0,0,0,15.31,0.04,30,0,0,0
4704,6.0885e+07,0,0,0,15.31,0.04,30,0,0,0
5153,6.0999e+07,0,0,0,15.32,0.04,30,0,0,0
5564,6.1102e+07,0,0,0,15.31,0.04,30,0,0,0
5978,6.1207e+07,0,0,0,15.31,0.04,30,0,0,0
6431,6.1321e+07,0,0,0,15.31,0.04,30,0,0,0
6841,6.1426e+07,0,0,0,15.31,0.04,30,0,0,0
7258,6.1533e+07,0,0,0,15.31,0.04,30,0,0,0
7674,6.1637e+07,0,0,0,15.31,0.04,30,0,0,0
8093,6.1746e+07,0,0,0,15.31,0.04,30,0,0,0
8511,6.1849e+07,0,0,0,15.32,0.04,30,0,0,0
8964,6.1962e+07,0,0,0,15.32,0.04,30,0,0,0
9381,6.207e+07,0,0,0,15.31,0.04,30,0,0,0
9795,6.2175e+07,0,0,0,15.31,0.04,30,0,0,0
10250,6.2287e+07,0,0,0,15.32,0.04,30,0,0,0
10585,6.2391e+07,0,0,0,15.31,0.04,30,0,0,0
11002,6.2498e+07,0,0,0,15.31,0.04,30,0,0,0
11448,6.2613e+07,0,0,0,15.31,0.04,30,0,0,0
11900,6.2727e+07,0,0,0,15.31,0.04,30,0,0,0
12319,6.283e+07,0,0,0,15.31,0.04,30,0,0,0
12728,6.2933e+07,0,0,0,15.32,0.04,30,0,0,0
13176,6.3046e+07,0,0,0,15.31,0.04,30,0,0,0
13584,6.3149e+07,0,0,0,15.31,0.04,30,0,0,0
14000,6.3253e+07,0,0,0,15.32,0.04,30,0,0,0
14456,6.3365e+07,0,0,0,15.32,0.04,30,0,0,0
14864,6.3468e+07,0,0,0,15.31,0.04,30,0,0,0
15321,6.3583e+07,0,0,0,15.31,0.04,30,0,0,0
15733,6.3688e+07,0,0,0,15.32,0.04,30,0,0,0
16149,6.3791e+07,0,0,0,15.31,0.04,30,0,0,0
16566,6.3896e+07,0,0,0,15.31,0.04,30,0,0,0
17019,6.4008e+07,0,0,0,15.31,0.04,30,0,0,0
17433,6.4116e+07,0,0,0,15.31,0.04,30,0,0,0
17845,6.4217e+07,0,0,0,15.31,0.04,30,0,0,0
18301,6.4333e+07,0,0,0,15.32,0.04,30,0,0,0
18715,6.4436e+07,0,0,0,15.31,0.04,30,0,0,0
19162,6.4548e+07,0,0,0,15.32,0.04,30,0,0,0
19572,6.4649e+07,0,0,0,15.31,0.04,30,0,0,0
19999,6.4766e+07,0,0,0,15.31,0.04,30,0,0,0
20445,6.4874e+07,0,0,0,15.32,0.04,30,0,0,0
20858,6.4977e+07,0,0,0,15.32,0.04,30,0,0,0
21242,6.5081e+07,0,0,0,15.31,0.04,30,0,0,0
21695,6.5194e+07,0,0,0,15.32,0.04,30,0,0,0
22148,6.5305e+07,0,0,0,15.31,0.04,30,0,0,0
22563,6.5408e+07,0,0,0,15.31,0.04,30,0,0,0
22975,6.5514e+07,0,0,0,15.31,0.04,30,0,0,0
23429,6.5628e+07,0,0,0,15.31,0.04,30,0,0,0
23838,6.5733e+07,0,0,0,15.32,0.04,30,0,0,0
24256,6.5836e+07,0,0,0,15.32,0.04,30,0,0,0
24703,6.595e+07,0,0,0,15.31,0.04,30,0,0,0
25535,6.6161e+07,0,0,0,15.32,0.04,30,0,0,0
25952,6.627e+07,0,0,0,15.31,0.04,30,0,0,0
26406,6.6382e+07,0,0,0,15.31,0.04,30,0,0,0
26818,6.6491e+07,0,0,0,15.3,0.04,30,0,0,0
27232,6.6593e+07,0,0,0,15.32,0.04,30,0,0,0
27642,6.6697e+07,0,0,0,15.32,0.04,30,0,0,0
28099,6.681e+07,0,0,0,15.32,0.04,30,0,0,0
28514,6.6917e+07,0,0,0,15.31,0.04,30,0,0,0
28970,6.7033e+07,0,0,0,15.32,0.04,30,0,0,0
29416,6.7142e+07,0,0,0,15.31,0.04,30,0,0,0
29788,6.7236e+07,0,0,0,15.32,0.04,30,0,0,0
30240,6.735e+07,0,0,0,15.32,0.04,30,0,0,0
30649,6.7453e+07,0,0,0,15.31,0.04,30,0,0,0
31102,6.7567e+07,0,0,0,15.32,0.04,30,0,0,0
31515,6.7671e+07,0,0,0,15.31,0.04,30,0,0,0
31931,6.7773e+07,0,0,0,15.32,0.04,30,0,0,0
32384,6.7889e+07,0,0,0,15.32,0.04,30,0,0,0
32799,6.7991e+07,0,0,0,15.31,0.04,30,0,0,0
33210,6.8098e+07,0,0,0,15.32,0.04,30,0,0,0
33667,6.821e+07,0,0,0,15.31,0.04,30,0,0,0
34078,6.8312e+07,0,0,0,15.31,0.04,30,0,0,0
34531,6.8424e+07,0,0,0,15.31,0.05,30,0,0,0
34980,6.8537e+07,0,0,0,15.31,0.04,30,0,0,0
35391,6.8644e+07,0,0,0,15.31,0.04,30,0,0,0
35807,6.8745e+07,0,0,0,15.32,0.04,30,0,0,0
36252,6.8857e+07,0,0,0,15.32,0.04,30,0,0,0
36667,6.896e+07,0,0,0,15.31,0.04,30,0,0,0
37121,6.9076e+07,0,0,0,15.31,0.04,30,0,0,0
37534,6.9177e+07,0,0,0,15.32,0.04,30,0,0,0
37950,6.9287e+07,0,0,0,15.31,0.04,30,0,0,0
38403,6.9398e+07,0,0,0,15.32,0.04,30,0,0,0
38818,6.9508e+07,0,0,0,15.31,0.04,30,0,0,0
39232,6.9612e+07,0,0,0,15.31,0.04,30,0,0,0
39641,6.9715e+07,0,0,0,15.32,0.04,30,0,0,0
40097,6.9828e+07,0,0,0,15.31,0.04,30,0,0,0
40544,6.994e+07,0,0,0,15.31,0.04,30,0,0,0
40957,7.0049e+07,0,0,0,15.32,0.04,30,0,0,0
41373,7.0154e+07,0,0,0,15.31,0.04,30,0,0,0
42237,7.037e+07,0,0,0,15.31,0.05,30,0,0,0
42657,7.0478e+07,0,0,0,15.31,0.04,30,0,0,0
43074,7.0584e+07,0,0,0,15.31,0.04,30,0,0,0
43490,7.0692e+07,0,0,0,15.31,0.04,30,0,0,0
43945,7.0804e+07,0,0,0,15.32,0.04,30,0,0,0
44320,7.0903e+07,0,0,0,15.31,0.04,30,0,0,0
44776,7.1016e+07,0,0,0,15.31,0.04,30,0,0,0
45187,7.112e+07,0,0,0,15.31,0.04,30,0,0,0
45642,7.1234e+07,0,0,0,15.31,0.04,30,0,0,0
46053,7.134e+07,0,0,0,15.32,0.04,30,0,0,0
46466,7.1444e+07,0,0,0,15.31,0.04,30,0,0,0
46919,7.1561e+07,0,0,0,15.31,0.04,30,0,0,0
47291,7.1658e+07,0,0,0,15.31,0.04,30,0,0,0
47746,7.1771e+07,0,0,0,15.32,0.04,30,0,0,0
48175,7.1878e+07,0,0,0,15.31,0.05,30,0,0,0
48628,7.1984e+07,0,0,0,15.32,0.04,30,0,0,0
49084,7.2092e+07,0,0,0,15.31,0.04,30,0,0,0
49580,7.2206e+07,0,0,0,15.31,0.04,30,0,0,0
49990,7.2305e+07,0,0,0,15.31,0.04,30,0,0,0
50487,7.2417e+07,0,0,0,15.31,0.04,30,0,0,0
51393,7.2629e+07,0,0,0,15.32,0.04,30,0,0,0
51886,7.274e+07,0,0,0,15.31,0.03,30,0,0,0
52340,7.2845e+07,0,0,0,15.32,0.04,30,0,0,0
52839,7.2958e+07,0,0,0,15.31,0.04,30,0,0,0
53333,7.3072e+07,0,0,0,15.31,0.04,30,0,0,0
54196,7.3276e+07,0,0,0,15.31,0.04,30,0,0,0
54693,7.3391e+07,0,0,0,15.31,0.04,30,0,0,0
55143,7.3497e+07,0,0,0,15.31,0.04,30,0,0,0
55645,7.3611e+07,0,0,0,15.31,0.04,30,0,0,0
56100,7.3718e+07,0,0,0,15.31,0.04,30,0,0,0
56553,7.382e+07,0,0,0,15.31,0.04,30,0,0,0
57307,7.4042e+07,0,13,128,15.27,0.16,30,0,0,0
57726,7.4144e+07,0,137,842,15.29,0.17,30,0,0,0
58179,7.4248e+07,0,845,1100,15.29,0.14,30,0,0,0
58673,7.4362e+07,0,1104,1171,15.29,0.12,30,0,0,0
59128,7.4471e+07,0,1172,1214,15.29,0.11,30,0,0,0
59580,7.4576e+07,0,1214,1214,15.29,0.11,30,0,0,0
60036,7.4684e+07,0,1214,1228,15.29,0.11,30,0,0,0
60982,7.4901e+07,0,1228,1228,15.3,0.11,30,0,0,0
61701,7.5119e+07,0,1228,1228,15.29,0.11,30,0,0,0
62155,7.5222e+07,0,1228,1228,15.3,0.11,30,0,0,0
62651,7.5336e+07,0,1228,1228,15.3,0.11,30,0,0,0
63107,7.5446e+07,0,1228,1228,15.29,0.11,30,0,0,0
63522,7.5544e+07,0,1228,1228,15.29,0.11,30,0,0,0
64018,7.566e+07,0,1228,1228,15.29,0.11,30,0,0,0
64477,7.5765e+07,0,1228,1228,15.3,0.11,30,0,0,0
64935,7.5877e+07,0,1239,1357,15.26,0.21,30,0,0,0
65389,7.5978e+07,0,1394,1985,15.17,0.77,30,0,0,0
65843,7.6087e+07,0,2006,2528,15.14,0.97,30,0,0,0
66339,7.6203e+07,0,2567,2971,15.07,1.77,30,0,0,0
66792,7.6311e+07,0,3005,3442,15.03,1.66,30,0,0,0
67287,7.6425e+07,0,3494,4071,14.92,2.33,30,0,0,0
67696,7.6528e+07,0,4118,4714,14.8,2.87,30,0,0,0
68148,7.6634e+07,0,4745,5171,14.65,3.56,30,0,0,0
68602,7.6743e+07,0,5225,5742,14.52,4.1,30,0,0,0
69053,7.6852e+07,0,5774,6185,14.53,4.72,30,1,0,0
69507,7.6959e+07,0,6200,6357,14.59,4.6,30,1,0,0
69958,7.7069e+07,0,6361,6600,14.58,4.52,30,1,0,0
70457,7.7184e+07,0,6571,6285,14.6,4.56,30,1,0,0
70906,7.729e+07,0,6289,6357,14.66,4.81,30,1,0,0
71359,7.7394e+07,0,6356,6342,14.62,4.29,30,1,0,0
71814,7.7507e+07,0,6341,6328,14.63,4.51,30,1,0,0
72314,7.7625e+07,0,6337,6442,14.59,4.6,30,1,0,0
72726,7.7727e+07,0,6442,6442,14.64,4.72,30,2,0,0
73181,7.7833e+07,0,6439,6400,14.65,4.62,30,2,0,0
73638,7.7946e+07,0,6397,6357,14.66,4.45,30,2,0,0
74587,7.8167e+07,0,6356,6328,14.63,4.58,30,2,0,0
75002,7.8271e+07,0,6329,6385,14.58,4.49,30,2,0,0
75498,7.8387e+07,0,6379,6328,14.61,4.65,30,2,0,0
75945,7.8494e+07,0,6334,6414,14.61,4.74,30,3,0,0
76400,7.8603e+07,0,6416,6457,14.58,4.87,30,3,0,0
76857,7.8716e+07,0,6460,6500,14.6,4.79,30,3,0,0
77308,7.8819e+07,0,6486,6300,14.6,4.35,30,3,0,0
77758,7.8926e+07,0,6300,6300,14.55,4.53,30,3,0,0
78257,7.9044e+07,0,6307,6385,14.56,4.53,30,3,0,0
78700,7.9154e+07,0,6377,6271,14.6,4.43,30,4,0,0
79103,7.9258e+07,0,6272,6342,14.54,4.38,30,4,0,0
79552,7.9364e+07,0,6339,6228,14.59,4.34,30,4,0,0
79964,7.9472e+07,0,6225,6085,14.6,4.15,30,4,0,0
80449,7.9585e+07,0,6096,6214,14.5,4.43,30,4,0,0
80860,7.9692e+07,0,6220,6300,14.51,4.28,30,4,0,0
81307,7.9799e+07,0,6297,6171,14.57,4.39,30,4,0,0
81760,7.9912e+07,0,6190,6385,14.57,4.46,30,4,0,0
82207,8.0019e+07,0,6379,6328,14.54,4.43,30,4,0,0
82649,8.0132e+07,0,6322,6271,14.55,4.87,30,5,0,0
83060,8.0229e+07,0,6272,6328,14.52,4.67,30,5,0,0
83546,8.0348e+07,0,6336,6428,14.49,4.88,30,5,0,0
83991,8.0457e+07,0,6429,6471,14.54,4.8,30,5,0,0
84436,8.0568e+07,0,6456,6342,14.54,4.79,30,5,0,0
84886,8.0678e+07,0,6353,6457,14.48,4.89,30,5,0,0
85294,8.0776e+07,0,6457,6457,14.56,4.68,30,6,0,0
86188,8.0995e+07,0,6455,6242,14.6,4.22,30,6,0,0
86627,8.1109e+07,0,6242,6242,14.64,4.34,30,6,0,0
87081,8.1221e+07,0,6226,6100,14.7,3.55,30,6,0,0
87489,8.1327e+07,0,6081,5871,14.69,3.63,30,6,0,0
87939,8.1431e+07,0,5860,5742,14.67,3.28,30,6,0,0
88386,8.1542e+07,0,5742,5742,14.6,3.63,30,6,0,0
88797,8.1644e+07,0,5758,5928,14.61,3.77,30,7,0,0
89243,8.1758e+07,0,5926,5914,14.63,3.89,30,7,0,0
90132,8.1978e+07,0,5905,5814,14.68,3.61,30,7,0,0
90540,8.2079e+07,0,5821,5914,14.65,3.47,30,7,0,0
91435,8.2296e+07,0,5914,5914,14.69,3.94,30,7,0,0
92786,8.2632e+07,0,5912,5871,14.66,3.83,30,8,0,0
93183,8.2731e+07,0,5874,6071,14.66,3.75,30,8,0,0
93670,8.285e+07,0,6060,5971,14.61,4.05,31,8,0,0
94117,8.2957e+07,0,5972,6000,14.66,4.02,30,8,0,0
94975,8.3171e+07,0,6001,6028,14.62,4.25,31,8,0,0
95378,8.3275e+07,0,6031,6185,14.6,4.27,31,8,0,0
95830,8.3382e+07,0,6187,6342,14.54,4.67,31,8,0,0
96278,8.3499e+07,0,6332,6242,14.58,4.43,31,8,0,0
96687,8.3601e+07,0,6242,6242,14.56,5.05,31,9,0,0
97138,8.3714e+07,0,6260,6514,14.55,5.45,31,9,0,0
97587,8.382e+07,0,6543,6885,14.54,6.07,31,9,0,0
98032,8.3932e+07,0,6886,6900,14.41,6.29,31,9,0,0
98436,8.4031e+07,0,6900,6900,14.54,6.5,31,9,0,0
98881,8.4141e+07,0,6903,7171,14.48,6.2,31,10,0,0
99771,8.436e+07,0,7144,6628,14.42,5.16,31,10,0,0
1.0025e+05,8.4474e+07,0,6602,6242,14.55,3.8,31,10,0,0
1.007e+05,8.4581e+07,0,6203,5814,14.58,2.32,31,10,0,0
1.0114e+05,8.469e+07,0,5737,4985,14.58,1.25,31,10,0,0
1.0154e+05,8.4789e+07,0,4956,4400,14.52,1.2,31,10,0,0
1.0199e+05,8.4904e+07,0,4386,4242,14.56,1.43,31,10,0,0
1.0248e+05,8.5013e+07,0,4253,4414,14.57,2.07,31,10,0,0
1.0288e+05,8.5116e+07,0,4427,5200,14.54,3.76,31,10,0,0
1.0337e+05,8.5235e+07,0,5235,5585,14.48,4.28,31,11,0,0
1.0378e+05,8.5342e+07,0,5632,6085,14.52,4.77,31,11,0,0
1.0423e+05,8.5452e+07,0,6118,6442,14.48,5.39,31,11,0,0
1.0512e+05,8.5669e+07,0,6462,6871,14.48,6.13,31,11,0,0
1.0602e+05,8.5885e+07,0,6879,7071,14.51,5.99,31,11,0,0
1.0647e+05,8.5992e+07,0,7063,6957,14.51,5.96,31,12,0,0
1.0691e+05,8.6096e+07,0,6951,6757,14.39,5.69,31,12,0,0
1.0736e+05,8.6209e+07,0,6755,6728,14.55,5.32,31,12,0,0
1.078e+05,8.632e+07,0,6724,6685,14.47,5.31,31,12,0,0
1.0824e+05,8.6423e+07,0,6686,6742,14.47,5.25,31,12,0,0
1.0869e+05,8.6533e+07,0,6738,6671,14.51,5.25,31,13,0,0
1.0914e+05,8.6642e+07,0,6671,6671,14.45,5.38,31,13,0,0
1.0962e+05,8.6758e+07,0,6678,6785,14.44,5.35,31,13,0,0
1.1008e+05,8.6873e+07,0,6776,6685,14.42,5.02,31,13,0,0
1.1053e+05,8.6981e+07,0,6676,6585,14.46,5.1,31,13,0,0
1.1098e+05,8.7091e+07,0,6588,6628,14.46,4.94,31,13,0,0
1.1143e+05,8.7199e+07,0,6616,6500,14.48,4.77,31,13,0,0
1.1271e+05,8.7517e+07,0,6501,6700,14.45,4.94,31,14,0,0
1.1321e+05,8.7635e+07,0,6682,6442,14.55,4.78,31,14,0,0
1.1365e+05,8.7746e+07,0,6453,6571,14.55,4.76,31,14,0,0
1.145e+05,8.7956e+07,0,6568,6471,14.58,4.51,31,15,0,0
1.1495e+05,8.8069e+07,0,6463,6357,14.59,4.26,31,15,0,0
1.154e+05,8.8179e+07,0,6355,6342,14.53,4.59,31,15,0,0
1.1585e+05,8.8288e+07,0,6338,6300,14.57,4.03,32,15,0,0
1.163e+05,8.8396e+07,0,6300,6300,14.49,4.62,31,15,0,0
1.1675e+05,8.8512e+07,0,6281,6100,14.55,4.55,32,15,0,0
1.1715e+05,8.8611e+07,0,6101,6128,14.66,4.18,31,15,0,0
1.1756e+05,8.8713e+07,0,6129,6214,14.54,4.42,32,16,0,0
1.1849e+05,8.8939e+07,0,6219,6385,14.55,4.67,32,16,0,0
1.1895e+05,8.9051e+07,0,6386,6400,14.62,4.46,31,16,0,0
1.1935e+05,8.9154e+07,0,6400,6400,14.52,4.32,31,16,0,0
1.2024e+05,8.937e+07,0,6402,6485,14.53,4.46,32,16,0,0
1.2064e+05,8.9473e+07,0,6484,6471,14.49,4.94,32,16,0,0
1.211e+05,8.9586e+07,0,6471,6471,14.54,4.98,32,17,0,0
1.2154e+05,8.9694e+07,0,6471,6471,14.58,4.49,32,17,0,0
1.2199e+05,8.9802e+07,0,6476,6542,14.57,4.55,32,17,0,0
1.224e+05,8.9905e+07,0,6537,6442,14.62,4.68,32,17,0,0
1.2289e+05,9.0021e+07,0,6440,6428,14.61,4.7,32,17,0,0
1.233e+05,9.0123e+07,0,6429,6542,14.58,4.42,32,17,0,0
1.2374e+05,9.0232e+07,0,6542,6542,14.58,4.84,32,17,0,0
1.2419e+05,9.0343e+07,0,6537,6428,14.52,4.7,32,18,0,0
1.2509e+05,9.0562e+07,0,6428,6471,14.48,4.8,32,18,0,0
1.2553e+05,9.0674e+07,0,6471,6471,14.53,4.56,32,18,0,0
1.2601e+05,9.0787e+07,0,6459,6371,14.58,4.21,32,18,0,0
1.2646e+05,9.0897e+07,0,6359,6257,14.5,4.52,32,18,0,0
1.2691e+05,9.1009e+07,0,6269,6357,14.52,4.5,32,19,0,0
1.2707e+05,9.1213e+07,0,6356,6228,14.5,4.28,32,19,0,0
1.2752e+05,9.1327e+07,0,6237,6342,14.47,4.75,32,19,0,0
1.2793e+05,9.1428e+07,0,6342,6385,14.5,4.84,32,19,0,0
1.2842e+05,9.1547e+07,0,6404,6585,14.48,4.62,32,19,0,0
1.2886e+05,9.1656e+07,0,6572,6457,14.52,4.49,32,19,0,0
1.2931e+05,9.1763e+07,0,6458,6485,14.47,4.36,32,19,0,0
1.2976e+05,9.1876e+07,0,6464,6257,14.51,4.43,32,20,0,0
1.3016e+05,9.1975e+07,0,6258,6314,14.42,4.51,32,20,0,0
1.3058e+05,9.2086e+07,0,6313,6300,14.37,4.71,32,20,0,0
1.3151e+05,9.2308e+07,0,6312,6542,14.46,4.97,32,20,0,0
1.324e+05,9.253e+07,0,6536,6428,14.51,4.62,32,20,0,0
1.3282e+05,9.2633e+07,0,6436,6557,14.48,4.8,32,21,0,0
1.3326e+05,9.2743e+07,0,6552,6500,14.46,4.61,32,21,0,0
1.3366e+05,9.2847e+07,0,6500,6514,14.39,4.98,32,21,0,0
1.3456e+05,9.3067e+07,0,6507,6300,14.45,4.43,32,21,0,0
1.3501e+05,9.3172e+07,0,6305,6385,14.33,4.94,32,21,0,0
1.3546e+05,9.3287e+07,0,6388,6428,14.36,4.96,32,21,0,0
1.359e+05,9.3393e+07,0,6428,6428,14.41,4.69,32,22,0,0
1.3635e+05,9.3507e+07,0,6438,6585,14.36,4.74,32,22,0,0
1.368e+05,9.3615e+07,0,6570,6371,14.44,4.74,32,22,0,0
1.3725e+05,9.3725e+07,0,6377,6442,14.45,4.53,32,22,0,0
1.377e+05,9.3835e+07,0,6430,6285,14.45,4.49,32,22,0,0
1.381e+05,9.3937e+07,0,6286,6357,14.4,4.82,32,22,0,0
1.3858e+05,9.4049e+07,0,6346,6157,14.41,4.39,32,22,0,0
1.3904e+05,9.416e+07,0,6168,6285,14.42,4.74,32,23,0,0
1.3948e+05,9.427e+07,0,6286,6300,14.43,4.68,32,23,0,0
1.3993e+05,9.4379e+07,0,6281,6028,14.47,4.22,32,23,0,0
1.4083e+05,9.4602e+07,0,6033,6142,14.52,3.86,32,23,0,0
1.4123e+05,9.4703e+07,0,6141,6114,14.51,4.38,32,23,0,0
1.4168e+05,9.4812e+07,0,6115,6185,14.5,3.81,32,23,0,0
1.4216e+05,9.4928e+07,0,6182,6142,14.58,3.96,32,23,0,0
1.4305e+05,9.5143e+07,0,6135,6000,14.56,3.83,32,24,0,0
1.435e+05,9.5257e+07,0,6004,6057,14.57,3.92,32,24,0,0
1.4391e+05,9.5355e+07,0,6063,6157,14.57,3.76,32,24,0,0
1.4432e+05,9.546e+07,0,6155,6057,14.58,3.95,32,24,0,0
1.4477e+05,9.5569e+07,0,6056,6028,14.51,3.73,32,24,0,0
1.4522e+05,9.5677e+07,0,6026,5971,14.52,3.76,32,24,0,0
1.4615e+05,9.5902e+07,0,5978,6128,14.52,4.32,32,25,0,0
1.4663e+05,9.6014e+07,0,6141,6328,14.54,3.95,32,25,0,0
1.4704e+05,9.6117e+07,0,6327,6314,14.47,4.05,33,25,0,0
1.4749e+05,9.6229e+07,0,6312,6285,14.48,4.32,33,25,0,0
1.4794e+05,9.6343e+07,0,6293,6371,14.46,4.66,33,25,0,0
1.4838e+05,9.6456e+07,0,6382,6500,14.55,4.51,33,25,0,0
1.4876e+05,9.655e+07,0,6504,6557,14.46,5.02,33,25,0,0
1.492e+05,9.6661e+07,0,6554,6528,14.48,4.62,33,25,0,0
1.4965e+05,9.677e+07,0,6528,6542,14.48,4.82,33,26,0,0
1.501e+05,9.6882e+07,0,6536,6471,14.47,4.96,33,26,0,0
1.5055e+05,9.6991e+07,0,6473,6542,14.43,4.93,33,26,0,0
1.5099e+05,9.7096e+07,0,6538,6457,14.42,5.02,33,26,0,0
1.5144e+05,9.7205e+07,0,6457,6485,14.38,4.95,33,26,0,0
1.5273e+05,9.7524e+07,0,6484,6428,14.5,4.71,33,27,0,0
1.5323e+05,9.764e+07,0,6411,6242,14.47,4.65,33,27,0,0
1.5363e+05,9.7743e+07,0,6258,6471,14.49,4.78,33,27,0,0
1.5408e+05,9.7855e+07,0,6454,6314,14.47,4.34,33,27,0,0
1.5452e+05,9.7962e+07,0,6315,6328,14.55,4.61,33,27,0,0
1.5497e+05,9.8068e+07,0,6323,6214,14.48,4.63,33,27,0,0
1.5542e+05,9.8179e+07,0,6224,6371,14.53,4.41,33,28,0,0
1.5586e+05,9.8295e+07,0,6375,6414,14.52,5,33,28,0,0
1.5635e+05,9.8407e+07,0,6415,6428,14.54,4.55,33,28,0,0
1.5675e+05,9.8508e+07,0,6434,6500,14.49,4.54,33,28,0,0
1.572e+05,9.8615e+07,0,6466,5971,14.54,3.47,33,28,0,0
1.5765e+05,9.8733e+07,0,5984,6071,14.58,3.89,33,28,0,0
1.5811e+05,9.8846e+07,0,6068,6057,14.48,3.79,33,28,0,0
1.5855e+05,9.8952e+07,0,6060,6100,14.5,4.08,33,28,0,0
1.5895e+05,9.9054e+07,0,6101,6157,14.47,4.14,33,29,0,0
1.594e+05,9.916e+07,0,6165,6257,14.55,4.33,33,29,0,0
1.5984e+05,9.9268e+07,0,6256,6228,14.54,4.34,33,29,0,0
1.6029e+05,9.9377e+07,0,6231,6271,14.52,4.12,33,29,0,0
1.6073e+05,9.9484e+07,0,6261,6100,14.54,4.38,33,29,0,0
1.6119e+05,9.9599e+07,0,6144,6471,14.48,4.73,33,29,0,0
1.616e+05,9.9709e+07,0,6455,6328,14.47,4.57,33,29,0,0
1.625e+05,9.9932e+07,0,6322,6200,14.45,4.37,33,30,0,0
1.6379e+05,1.0025e+08,0,6201,6385,14.46,5.02,33,30,0,0
1.6424e+05,1.0036e+08,0,6383,6342,14.51,4.85,33,30,0,0
1.6469e+05,1.0047e+08,0,6358,6585,14.5,5.05,33,30,0,0
1.6515e+05,1.0058e+08,0,6597,6728,14.36,5.21,33,31,0,0
1.6559e+05,1.0069e+08,0,6707,6500,14.47,4.94,33,31,0,0
1.6604e+05,1.008e+08,0,6513,6714,14.46,5.43,33,31,0,0
1.6648e+05,1.0091e+08,0,6706,6428,14.5,4.97,33,31,0,0
1.6698e+05,1.0103e+08,0,6410,6228,14.44,4.29,33,31,0,0
1.678e+05,1.0123e+08,0,6229,6300,14.4,5.44,33,31,0,0
1.6824e+05,1.0134e+08,0,6301,6342,14.42,4.59,33,32,0,0
1.6869e+05,1.0146e+08,0,6338,6314,14.41,4.39,33,32,0,0
1.691e+05,1.0156e+08,0,6313,6300,14.42,4.83,33,32,0,0
1.6959e+05,1.0168e+08,0,6313,6457,14.41,5.22,33,32,0,0
1.7e+05,1.0178e+08,0,6464,6628,14.41,5.57,33,32,0,0
1.7044e+05,1.0189e+08,0,6619,6514,14.41,5.09,33,32,0,0
1.7085e+05,1.0199e+08,0,6514,6542,14.41,4.61,33,33,0,0
1.713e+05,1.021e+08,0,6531,6428,14.45,5.08,33,33,0,0
1.7174e+05,1.0221e+08,0,6433,6542,14.4,4.86,33,33,0,0
1.7219e+05,1.0232e+08,0,6525,6300,14.43,4.66,33,33,0,0
1.7264e+05,1.0243e+08,0,6300,6314,14.5,4.69,33,33,0,0
1.7308e+05,1.0254e+08,0,6319,6400,14.42,4.56,33,33,0,0
1.7353e+05,1.0264e+08,0,6396,6257,14.44,5.18,33,33,0,0
1.7394e+05,1.0275e+08,0,6262,6528,14.45,4.76,33,33,0,0
1.7443e+05,1.0287e+08,0,6530,6557,14.48,4.61,33,34,0,0
1.7488e+05,1.0298e+08,0,6543,6371,14.5,4.33,33,34,0,0
1.7533e+05,1.0308e+08,0,6361,6228,14.51,4.51,33,34,0,0
1.7578e+05,1.0319e+08,0,6225,6185,14.46,4.5,33,34,0,0
1.7622e+05,1.0331e+08,0,6185,6185,14.45,4.43,33,34,0,0
1.7666e+05,1.0341e+08,0,6184,6171,14.47,4.42,33,34,0,0
1.7715e+05,1.0353e+08,0,6204,6557,14.54,4.83,34,34,0,0
1.7756e+05,1.0362e+08,0,6548,6357,14.5,4.78,33,35,0,0
1.7801e+05,1.0374e+08,0,6360,6414,14.45,4.8,34,35,0,0
1.7841e+05,1.0384e+08,0,6416,6542,14.44,4.88,34,35,0,0
1.789e+05,1.0396e+08,0,6542,6542,14.5,4.78,33,35,0,0
1.7935e+05,1.0407e+08,0,6514,6300,14.42,4.76,33,35,0,0
1.7976e+05,1.0417e+08,0,6309,6500,14.41,5.21,34,35,0,0
1.802e+05,1.0428e+08,0,6470,6200,14.35,4.67,34,36,0,0
1.8065e+05,1.0439e+08,0,6216,6442,14.38,5.01,34,36,0,0
1.811e+05,1.045e+08,0,6442,6442,14.42,4.73,34,36,0,0
1.8155e+05,1.0461e+08,0,6444,6471,14.44,4.79,34,36,0,0
1.8196e+05,1.0472e+08,0,6469,6400,14.48,4.46,34,36,0,0
1.8245e+05,1.0483e+08,0,6401,6414,14.5,4.73,34,36,0,0
1.8289e+05,1.0494e+08,0,6412,6400,14.47,4.51,34,36,0,0
1.8334e+05,1.0505e+08,0,6383,6242,14.44,4.79,34,36,0,0
1.8379e+05,1.0516e+08,0,6246,6300,14.48,4.65,34,37,0,0
1.8419e+05,1.0526e+08,0,6295,6242,14.47,4.7,34,37,0,0
1.8465e+05,1.0537e+08,0,6255,6400,14.43,4.82,34,37,0,0
1.8505e+05,1.0548e+08,0,6399,6385,14.46,4.78,34,37,0,0
1.855e+05,1.0558e+08,0,6388,6471,14.41,4.89,34,37,0,0
1.8591e+05,1.0569e+08,0,6470,6457,14.42,4.94,34,37,0,0
1.864e+05,1.0581e+08,0,6458,6471,14.46,4.59,34,38,0,0
1.8679e+05,1.059e+08,0,6468,6371,14.3,5.17,34,38,0,0
1.8729e+05,1.0602e+08,0,6386,6542,14.38,5.01,34,38,0,0
1.8769e+05,1.0613e+08,0,6531,6385,14.46,4.25,34,38,0,0
1.8792e+05,1.0623e+08,0,6377,6271,14.45,4.64,34,38,0,0
1.8833e+05,1.0634e+08,0,6265,6185,14.49,4.61,34,38,0,0
1.8878e+05,1.0646e+08,0,6180,6157,14.55,4.13,34,38,0,0
1.8966e+05,1.0667e+08,0,6149,6000,14.47,4.27,34,39,0,0
1.9052e+05,1.0688e+08,0,6005,6285,14.39,4.56,34,39,0,0
1.9101e+05,1.07e+08,0,6281,6257,14.41,4.38,34,39,0,0
1.9142e+05,1.071e+08,0,6253,6128,14.39,4.56,34,39,0,0
1.919e+05,1.0722e+08,0,6155,6371,14.35,4.69,34,39,0,0
1.9231e+05,1.0732e+08,0,6358,6257,14.36,5,34,39,0,0
1.9276e+05,1.0743e+08,0,6274,6457,14.26,5.11,34,40,0,0
1.9317e+05,1.0754e+08,0,6458,6471,14.38,4.99,34,40,0,0
1.9358e+05,1.0764e+08,0,6469,6428,14.28,5.08,34,40,0,0
1.9403e+05,1.0775e+08,0,6431,6514,14.22,5.34,34,40,0,0
1.9492e+05,1.0797e+08,0,6520,6642,14.25,5.38,34,40,0,0
1.9584e+05,1.0819e+08,0,6640,6614,14.28,5.3,34,41,0,0
1.9629e+05,1.083e+08,0,6624,6714,14.24,5.83,34,41,0,0
1.967e+05,1.084e+08,0,6718,6800,14.13,5.91,34,41,0,0
1.9715e+05,1.0851e+08,0,6804,6842,14.1,5.35,34,41,0,0
1.976e+05,1.0862e+08,0,6844,6871,14.02,5.77,34,41,0,0
1.9804e+05,1.0873e+08,0,6885,7100,14.1,6.99,34,41,0,0
1.9849e+05,1.0884e+08,0,7102,7128,14.28,6.59,34,42,0,0
1.9893e+05,1.0895e+08,0,7129,7142,14.3,6.57,34,42,0,0
1.9934e+05,1.0905e+08,0,7136,7014,14.4,5.82,34,42,0,0
1.9979e+05,1.0916e+08,0,7007,6642,14.37,5.59,34,42,0,0
2.0023e+05,1.0927e+08,0,6644,6728,14.3,5.17,34,42,0,0
2.0073e+05,1.0939e+08,0,6726,6714,14.35,6.01,34,43,0,0
2.0113e+05,1.0949e+08,0,6714,6728,14.45,4.9,34,43,0,0
2.0158e+05,1.0959e+08,0,6722,6600,14.27,4.41,34,43,0,0
2.0251e+05,1.0982e+08,0,6598,6571,14.17,5.5,34,43,0,0
2.0296e+05,1.0993e+08,0,6548,6314,14.41,3.91,34,43,0,0
2.0337e+05,1.1003e+08,0,6310,6228,14.19,4.16,34,43,0,0
2.0386e+05,1.1015e+08,0,6247,6457,14.16,5.12,34,44,0,0
2.0471e+05,1.1036e+08,0,6461,6600,14.24,4.77,34,44,0,0
2.0516e+05,1.1047e+08,0,6611,6842,14.24,5.61,34,44,0,0
2.0561e+05,1.1058e+08,0,6831,6685,14.25,5.36,34,44,0,0
2.0606e+05,1.1069e+08,0,6686,6714,14.28,5.11,34,44,0,0
2.065e+05,1.1079e+08,0,6720,6857,14.25,6.33,34,45,0,0
2.0695e+05,1.1091e+08,0,6869,7128,14.32,5.81,34,45,0,0
2.074e+05,1.1101e+08,0,7120,7000,14.33,5.86,34,45,0,0
2.0781e+05,1.1112e+08,0,6991,6814,14.4,4.62,34,45,0,0
2.0826e+05,1.1123e+08,0,6798,6571,14.32,4.88,34,45,0,0
2.087e+05,1.1134e+08,0,6574,6657,14.35,4.65,34,45,0,0
2.0915e+05,1.1145e+08,0,6620,6271,14.35,3.83,34,46,0,0
2.096e+05,1.1156e+08,0,6286,6685,14.45,4.87,34,46,0,0
2.1004e+05,1.1166e+08,0,6638,6200,14.45,3.43,34,46,0,0
2.1049e+05,1.1177e+08,0,6191,6100,14.46,3.9,34,46,0,0
2.1089e+05,1.1187e+08,0,6101,6142,14.48,4.29,34,46,0,0
2.1183e+05,1.121e+08,0,6143,6171,14.54,3.42,34,46,0,0
2.1223e+05,1.122e+08,0,6169,6100,14.54,3.64,34,46,0,0
2.1268e+05,1.1231e+08,0,6099,6042,14.52,3.18,34,47,0,0
2.1313e+05,1.1242e+08,0,6029,5742,14.51,3.27,34,47,0,0
2.1398e+05,1.1264e+08,0,5744,5957,14.47,3.85,34,47,0,0
2.1447e+05,1.1275e+08,0,5970,6114,14.44,4.21,34,47,0,0
2.1491e+05,1.1286e+08,0,6107,6042,14.47,3.8,34,47,0,0
2.1536e+05,1.1297e+08,0,6038,6000,14.46,3.9,34,47,0,0
2.1579e+05,1.1307e+08,0,5999,5985,14.41,3.88,34,47,0,0
2.1624e+05,1.1318e+08,0,5988,6071,14.42,4.12,34,47,0,0
2.1672e+05,1.133e+08,0,6086,6271,14.39,4.48,34,48,0,0
2.1718e+05,1.1341e+08,0,6291,6485,14.36,4.97,34,48,0,0
2.1759e+05,1.1351e+08,0,6488,6585,14.36,5.17,34,48,0,0
2.1804e+05,1.1362e+08,0,6582,6514,14.33,5.06,34,48,0,0
2.1852e+05,1.1373e+08,0,6524,6657,14.35,5,34,48,0,0
2.1897e+05,1.1385e+08,0,6642,6557,14.35,5.09,34,48,0,0
2.1937e+05,1.1395e+08,0,6546,6457,14.33,5.17,34,49,0,0
2.1985e+05,1.1406e+08,0,6469,6642,14.31,5.06,34,49,0,0
2.2026e+05,1.1416e+08,0,6641,6614,14.37,5.22,34,49,0,0
2.207e+05,1.1427e+08,0,6612,6585,14.3,5.25,34,49,0,0
2.2119e+05,1.1438e+08,0,6583,6571,14.37,4.87,34,49,0,0
2.2164e+05,1.145e+08,0,6532,6314,14.36,4.2,34,49,0,0
2.2204e+05,1.146e+08,0,6306,6128,14.33,4.08,34,49,0,0
2.2249e+05,1.1471e+08,0,6114,5985,14.32,3.92,34,49,0,0
2.2294e+05,1.1482e+08,0,5992,6057,14.31,4.24,34,50,0,0
2.2338e+05,1.1493e+08,0,6066,6142,14.36,4.35,34,50,0,0
2.2383e+05,1.1504e+08,0,6149,6214,14.39,4.49,34,50,0,0
2.2423e+05,1.1514e+08,0,6216,6342,14.32,4.59,35,50,0,0
2.2471e+05,1.1525e+08,0,6354,6485,14.37,4.55,34,50,0,0
2.2517e+05,1.1537e+08,0,6455,6228,14.35,4.54,34,50,0,0
2.2557e+05,1.1547e+08,0,6226,6214,14.4,4.49,34,50,0,0
2.2605e+05,1.1559e+08,0,6238,6485,14.41,4.76,34,51,0,0
2.265e+05,1.157e+08,0,6463,6300,14.41,4.76,34,51,0,0
2.2691e+05,1.158e+08,0,6302,6357,14.41,4.8,34,51,0,0
2.2735e+05,1.1591e+08,0,6352,6285,14.4,4.47,34,51,0,0
2.278e+05,1.1602e+08,0,6285,6285,14.42,4.5,34,51,0,0
2.282e+05,1.1612e+08,0,6285,6314,14.35,4.22,34,51,0,0
2.287e+05,1.1624e+08,0,6295,6100,14.39,3.69,34,51,0,0
2.291e+05,1.1634e+08,0,6098,6042,14.39,3.74,34,52,0,0
2.2955e+05,1.1645e+08,0,6032,5842,14.41,3.72,34,52,0,0
2.2999e+05,1.1656e+08,0,5842,5857,14.39,3.84,34,52,0,0
2.3043e+05,1.1667e+08,0,5855,5828,14.41,3.8,34,52,0,0
2.3088e+05,1.1678e+08,0,5837,5928,14.49,3.76,34,52,0,0
2.3133e+05,1.1689e+08,0,5939,6100,14.39,4.08,34,52,0,0
2.3178e+05,1.17e+08,0,6094,6014,14.35,4.07,34,52,0,0
2.3218e+05,1.1711e+08,0,6008,5900,14.39,3.72,34,52,0,0
2.3263e+05,1.1722e+08,0,5900,5914,14.32,3.79,34,52,0,0
2.3308e+05,1.1732e+08,0,5912,5857,14.33,3.67,34,53,0,0
2.3356e+05,1.1744e+08,0,5850,5757,14.32,3.58,34,53,0,0
2.34e+05,1.1755e+08,0,5765,5885,14.3,3.86,34,53,0,0
2.3445e+05,1.1766e+08,0,5890,5942,14.38,3.96,34,53,0,0
2.349e+05,1.1777e+08,0,5944,5971,14.38,4.14,34,53,0,0
2.3531e+05,1.1787e+08,0,5978,6057,14.34,4.21,35,53,0,0
2.3579e+05,1.1798e+08,0,6060,6100,14.37,4.4,34,53,0,0
2.3619e+05,1.1808e+08,0,6102,6185,14.31,4.57,35,53,0,0
2.3664e+05,1.182e+08,0,6181,6100,14.29,3.74,34,54,0,0
2.371e+05,1.1831e+08,0,6104,6157,14.38,4.49,34,54,0,0
2.3754e+05,1.1842e+08,0,6157,6171,14.39,4.38,34,54,0,0
2.3795e+05,1.1853e+08,0,6151,5957,14.41,3.86,34,54,0,0
2.384e+05,1.1864e+08,0,5937,5757,14.37,3.68,34,54,0,0
2.388e+05,1.1874e+08,0,5754,5685,14.45,3.54,34,54,0,0
2.3925e+05,1.1885e+08,0,5687,5842,14.39,3.7,35,54,0,0
2.397e+05,1.1896e+08,0,5828,5700,14.4,3.52,34,54,0,0
2.401e+05,1.1906e+08,0,5710,5914,14.41,3.69,34,55,0,0
2.4055e+05,1.1918e+08,0,5905,5785,14.35,3.86,34,55,0,0
2.4095e+05,1.1928e+08,0,5789,5957,14.36,3.98,34,55,0,0
2.414e+05,1.1938e+08,0,5963,6214,14.39,4.4,34,55,0,0
2.4185e+05,1.195e+08,0,6212,6185,14.36,4.33,35,55,0,0
2.423e+05,1.1961e+08,0,6184,6171,14.35,4.42,35,55,0,0
2.4274e+05,1.1972e+08,0,6168,6100,14.33,4.03,35,55,0,0
2.432e+05,1.1983e+08,0,6114,6471,14.32,5.12,35,55,0,0
2.436e+05,1.1993e+08,0,6468,6414,14.36,4.83,35,56,0,0
2.4409e+05,1.2005e+08,0,6417,6457,14.32,4.75,34,56,0,0
2.4454e+05,1.2016e+08,0,6439,6271,14.38,4.32,34,56,0,0
2.4494e+05,1.2026e+08,0,6271,6271,14.41,4.27,35,56,0,0
2.4535e+05,1.2036e+08,0,6267,6071,14.44,3.82,35,56,0,0
2.4624e+05,1.2058e+08,0,6072,6214,14.33,4.26,35,56,0,0
2.4669e+05,1.207e+08,0,6214,6228,14.36,4.34,35,56,0,0
2.4714e+05,1.2081e+08,0,6218,6014,14.41,3.78,34,57,0,0
2.4758e+05,1.2092e+08,0,6018,6085,14.29,4.53,35,57,0,0
2.4802e+05,1.2102e+08,0,6090,6200,14.3,4.63,34,57,0,0
2.4846e+05,1.2113e+08,0,6201,6228,14.38,4.35,35,57,0,0
2.4892e+05,1.2124e+08,0,6229,6257,14.35,4.49,35,57,0,0
2.4937e+05,1.2135e+08,0,6257,6257,14.31,4.7,35,57,0,0
2.4981e+05,1.2146e+08,0,6267,6414,14.38,4.79,34,57,0,0
2.5026e+05,1.2157e+08,0,6408,6342,14.37,4.74,35,58,0,0
2.5066e+05,1.2167e+08,0,6342,6385,14.31,4.81,35,58,0,0
2.5116e+05,1.2179e+08,0,6392,6471,14.4,5.17,35,58,0,0
2.5156e+05,1.219e+08,0,6470,6442,14.39,5.18,35,58,0,0
2.5205e+05,1.2201e+08,0,6449,6528,14.37,4.86,35,58,0,0
2.5246e+05,1.2212e+08,0,6523,6428,14.31,4.88,35,58,0,0
2.529e+05,1.2223e+08,0,6437,6528,14.4,4.86,35,59,0,0
2.5335e+05,1.2233e+08,0,6513,6328,14.37,4.87,35,59,0,0
2.538e+05,1.2244e+08,0,6328,6357,14.36,4.77,35,59,0,0
2.5428e+05,1.2256e+08,0,6349,6271,14.39,4.56,35,59,0,0
2.5468e+05,1.2266e+08,0,6271,6285,14.4,4.56,35,59,0,0
2.5517e+05,1.2278e+08,0,6276,6200,14.39,4.4,35,59,0,0
2.5558e+05,1.2288e+08,0,6196,6114,14.46,3.97,35,59,0,0
2.5603e+05,1.2299e+08,0,6100,5928,14.38,4.07,34,59,0,0
2.5647e+05,1.2311e+08,0,5972,6257,14.35,4.66,35,60,0,0
2.5688e+05,1.2321e+08,0,6258,6300,14.33,4.91,35,60,0,0
2.5732e+05,1.2332e+08,0,6314,6457,14.32,5,35,60,0,0
2.5773e+05,1.2342e+08,0,6456,6442,14.32,5.27,35,60,0,0
2.5814e+05,1.2353e+08,0,6445,6657,14.35,5.33,35,60,0,0
2.5859e+05,1.2363e+08,0,6657,6685,14.36,5.07,35,60,0,0
2.5911e+05,1.2376e+08,0,6669,6585,14.41,4.81,35,60,0,0
2.5952e+05,1.2386e+08,0,6574,6471,14.39,4.93,35,61,0,0
2.5996e+05,1.2397e+08,0,6464,6414,14.41,4.71,35,61,0,0
2.6037e+05,1.2407e+08,0,6414,6428,14.4,4.59,35,61,0,0
2.6086e+05,1.2419e+08,0,6404,6214,14.52,4.04,35,61,0,0
2.6127e+05,1.2429e+08,0,6216,6285,14.51,4.29,35,61,0,0
2.6171e+05,1.244e+08,0,6283,6171,14.42,4.6,35,61,0,0
2.6216e+05,1.2452e+08,0,6182,6271,14.58,3.75,35,61,0,0
2.626e+05,1.2462e+08,0,6230,5828,14.44,3.49,35,62,0,0
2.6302e+05,1.2473e+08,0,5845,6000,14.39,4.73,35,62,0,0
2.6346e+05,1.2484e+08,0,6001,6085,14.44,4.29,35,62,0,0
2.6391e+05,1.2495e+08,0,6086,6114,14.5,4.18,35,62,0,0
2.6436e+05,1.2506e+08,0,6114,6114,14.46,4.15,35,62,0,0
2.648e+05,1.2516e+08,0,6127,6242,14.45,4.38,35,62,0,0
2.6525e+05,1.2527e+08,0,6257,6400,14.39,4.49,35,62,0,0
2.6614e+05,1.2549e+08,0,6401,6442,14.43,4.61,35,63,0,0
2.6659e+05,1.256e+08,0,6430,6271,14.43,4.76,35,63,0,0
2.6703e+05,1.257e+08,0,6268,6214,14.36,4.37,35,63,0,0
2.6748e+05,1.2581e+08,0,6229,6385,14.34,4.9,35,63,0,0
2.6789e+05,1.2592e+08,0,6385,6385,14.42,4.8,35,63,0,0
2.6834e+05,1.2604e+08,0,6389,6428,14.41,4.73,35,63,0,0
2.6878e+05,1.2615e+08,0,6429,6442,14.35,4.71,35,63,0,0
2.6923e+05,1.2626e+08,0,6449,6514,14.42,4.28,35,64,0,0
2.6964e+05,1.2636e+08,0,6481,6185,14.44,4.55,35,64,0,0
2.7008e+05,1.2647e+08,0,6191,6257,14.39,4.71,35,64,0,0
2.7049e+05,1.2657e+08,0,6269,6514,14.41,4.83,35,64,0,0
2.7138e+05,1.2679e+08,0,6512,6328,14.44,4.69,35,64,0,0
2.7182e+05,1.269e+08,0,6333,6457,14.4,4.72,35,64,0,0
2.7272e+05,1.2711e+08,0,6453,6314,14.44,4.58,35,65,0,0
2.7317e+05,1.2723e+08,0,6314,6314,14.44,4.52,35,65,0,0
2.7362e+05,1.2734e+08,0,6314,6328,14.43,4.41,35,65,0,0
2.7406e+05,1.2745e+08,0,6312,6157,14.39,4.16,35,65,0,0
2.745e+05,1.2755e+08,0,6154,6114,14.45,4.43,35,65,0,0
2.7533e+05,1.2776e+08,0,6115,6200,14.41,4.33,35,65,0,0
2.758e+05,1.2788e+08,0,6204,6257,14.43,4.49,35,66,0,0
2.7626e+05,1.2799e+08,0,6255,6242,14.42,4.26,35,66,0,0
2.7666e+05,1.2809e+08,0,6241,6228,14.42,4.47,35,66,0,0
2.7715e+05,1.282e+08,0,6242,6385,14.41,4.37,35,66,0,0
2.7804e+05,1.2842e+08,0,6380,6242,14.39,4.46,35,66,0,0
2.7844e+05,1.2852e+08,0,6240,6185,14.38,4.46,35,66,0,0
2.7888e+05,1.2862e+08,0,6185,6185,14.39,4.36,35,67,0,0
2.7933e+05,1.2874e+08,0,6190,6271,14.37,4.69,35,67,0,0
2.7978e+05,1.2885e+08,0,6279,6385,14.36,4.78,35,67,0,0
2.8023e+05,1.2896e+08,0,6390,6442,14.39,4.62,35,67,0,0
2.8063e+05,1.2906e+08,0,6431,6300,14.37,4.57,35,67,0,0
2.8108e+05,1.2917e+08,0,6300,6300,14.36,4.49,35,67,0,0
2.8152e+05,1.2927e+08,0,6295,6214,14.4,4.51,35,67,0,0
2.8243e+05,1.295e+08,0,6216,6271,14.41,4.64,35,68,0,0
2.8328e+05,1.2971e+08,0,6269,6142,14.36,4.35,35,68,0,0
2.8373e+05,1.2982e+08,0,6148,6271,14.39,4.58,35,68,0,0
2.8417e+05,1.2993e+08,0,6270,6257,14.37,4.69,35,68,0,0
2.8462e+05,1.3005e+08,0,6255,6214,14.44,4.6,35,68,0,0
2.8507e+05,1.3016e+08,0,6212,6185,14.38,4.63,35,68,0,0
2.8551e+05,1.3027e+08,0,6193,6271,14.42,4.5,35,69,0,0
2.8596e+05,1.3037e+08,0,6271,6285,14.42,4.27,35,69,0,0
2.8636e+05,1.3047e+08,0,6280,6157,14.4,4.34,35,69,0,0
2.8685e+05,1.3059e+08,0,6160,6200,14.46,4.46,35,69,0,0
2.8729e+05,1.3069e+08,0,6194,6100,14.39,4.38,35,69,0,0
2.8818e+05,1.3091e+08,0,6103,6271,14.39,4.33,35,69,0,0
2.8864e+05,1.3103e+08,0,6271,6271,14.38,4.58,35,70,0,0
2.8904e+05,1.3113e+08,0,6270,6228,14.3,4.93,35,70,0,0
2.8948e+05,1.3123e+08,0,6228,6242,14.25,5.14,35,70,0,0
2.8997e+05,1.3135e+08,0,6259,6442,14.29,5.45,35,70,0,0
2.9038e+05,1.3146e+08,0,6442,6500,14.33,5.32,35,70,0,0
2.9082e+05,1.3156e+08,0,6500,6542,14.29,4.93,35,70,0,0
2.913e+05,1.3168e+08,0,6542,6542,14.34,4.91,35,70,0,0
2.9175e+05,1.3178e+08,0,6536,6400,14.36,4.73,35,71,0,0
2.922e+05,1.319e+08,0,6399,6385,14.32,4.8,35,71,0,0
2.9265e+05,1.3201e+08,0,6387,6400,14.36,4.71,35,71,0,0
2.9309e+05,1.3212e+08,0,6393,6328,14.36,4.57,35,71,0,0
2.9354e+05,1.3223e+08,0,6326,6314,14.36,4.57,35,71,0,0
2.9394e+05,1.3233e+08,0,6315,6357,14.33,4.51,35,71,0,0
2.9438e+05,1.3244e+08,0,6349,6200,14.41,4.21,35,71,0,0
2.9531e+05,1.3266e+08,0,6200,6200,14.38,4.35,35,72,0,0
2.9576e+05,1.3277e+08,0,6208,6300,14.41,4.2,35,72,0,0
2.9661e+05,1.3298e+08,0,6298,6271,14.4,4.26,35,72,0,0
2.9746e+05,1.3319e+08,0,6268,6057,14.39,4.03,35,72,0,0
2.9791e+05,1.333e+08,0,6055,6042,14.39,4.1,35,73,0,0
2.9836e+05,1.3342e+08,0,6033,5957,14.37,4,35,73,0,0
2.9876e+05,1.3352e+08,0,5957,6014,14.38,4.17,35,73,0,0
2.9925e+05,1.3363e+08,0,6018,6085,14.45,3.97,35,73,0,0
2.997e+05,1.3375e+08,0,6095,6200,14.41,3.88,35,73,0,0
3.0014e+05,1.3386e+08,0,6190,6085,14.4,4.09,35,73,0,0
3.0058e+05,1.3396e+08,0,6085,6100,14.39,3.85,35,73,0,0
3.0107e+05,1.3408e+08,0,6096,6042,14.42,3.92,35,73,0,0
3.0148e+05,1.3418e+08,0,6035,5957,14.44,4.03,35,73,0,0
3.0188e+05,1.3428e+08,0,5957,5971,14.38,4.17,35,74,0,0
3.0232e+05,1.3439e+08,0,5973,6071,14.36,3.82,35,74,0,0
3.0281e+05,1.3451e+08,0,6054,5828,14.42,3.58,35,74,0,0
3.0326e+05,1.3462e+08,0,5843,6000,14.42,4.04,35,74,0,0
3.0366e+05,1.3472e+08,0,5999,5971,14.39,3.87,35,74,0,0
3.0415e+05,1.3483e+08,0,5963,5885,14.44,3.84,35,74,0,0
3.0455e+05,1.3494e+08,0,5905,6100,14.42,4.26,35,74,0,0
3.0496e+05,1.3505e+08,0,6101,6114,14.43,3.94,35,74,0,0
3.0541e+05,1.3516e+08,0,6106,6014,14.39,4.25,35,74,0,0
3.0586e+05,1.3527e+08,0,6024,6185,14.42,4.17,35,75,0,0
3.0627e+05,1.3537e+08,0,6183,6142,14.39,4.38,35,75,0,0
3.0671e+05,1.3548e+08,0,6151,6328,14.42,4.19,35,75,0,0
3.0716e+05,1.3559e+08,0,6320,6171,14.42,4.2,35,75,0,0
3.0762e+05,1.357e+08,0,6175,6285,14.41,4.15,35,75,0,0
3.0806e+05,1.3581e+08,0,6271,6100,14.36,4.36,35,75,0,0
3.0851e+05,1.3592e+08,0,6107,6257,14.39,4.18,35,75,0,0
3.0895e+05,1.3603e+08,0,6249,6100,14.5,3.9,35,76,0,0
3.094e+05,1.3614e+08,0,6092,5985,14.51,4.12,35,76,0,0
3.0985e+05,1.3625e+08,0,5973,5885,14.52,3.55,35,76,0,0
3.103e+05,1.3636e+08,0,5885,5885,14.47,3.68,35,76,0,0
3.1074e+05,1.3647e+08,0,5882,5828,14.48,3.46,35,76,0,0
3.112e+05,1.3658e+08,0,5820,5657,14.45,3.66,35,76,0,0
3.1164e+05,1.3669e+08,0,5675,5857,14.49,3.92,35,76,0,0
3.1209e+05,1.368e+08,0,5849,5771,14.45,3.32,35,76,0,0
3.1249e+05,1.369e+08,0,5773,5914,14.68,5.16,35,76,0,0
3.1294e+05,1.37e+08,0,5895,4842,14.42,3.86,35,77,0,0
3.1338e+05,1.3711e+08,0,4812,4228,15.04,0.58,35,77,0,0
3.1383e+05,1.3722e+08,0,4191,3171,14.95,0.24,35,77,0,0
3.1428e+05,1.3733e+08,0,3158,2985,14.91,0.45,35,77,0,0
3.1473e+05,1.3744e+08,0,2974,2871,14.92,0.38,35,77,0,0
3.1513e+05,1.3754e+08,0,2870,2857,14.89,0.54,35,77,0,0
3.1562e+05,1.3766e+08,0,2859,2900,14.9,0.52,35,77,0,0
3.1643e+05,1.3786e+08,0,2899,2871,14.91,0.54,35,77,0,0
3.1692e+05,1.3798e+08,0,2869,2857,14.91,0.49,35,77,0,0
3.1732e+05,1.3809e+08,0,2857,2857,14.92,0.47,35,77,0,0
3.1777e+05,1.3819e+08,0,2857,2857,14.91,0.5,35,77,0,0
3.1821e+05,1.3831e+08,0,2857,2857,14.92,0.56,35,77,0,0
3.1866e+05,1.3841e+08,0,2856,2842,14.93,0.5,35,77,0,0
3.1911e+05,1.3852e+08,0,2842,2857,14.94,0.54,35,77,0,0
3.1955e+05,1.3862e+08,0,2856,2842,14.94,0.53,35,77,0,0
3.2003e+05,1.3874e+08,0,2842,2842,14.94,0.5,35,77,0,0
3.2048e+05,1.3885e+08,0,2843,2857,14.94,0.53,35,77,0,0
3.2092e+05,1.3895e+08,0,2829,2271,15.02,0.06,35,77,0,0
3.2185e+05,1.3917e+08,0,2251,1285,14.99,0.06,35,77,0,0
3.2234e+05,1.3929e+08,0,1276,1228,14.98,0.09,35,77,0,0
3.2279e+05,1.394e+08,0,1226,1214,14.99,0.1,35,77,0,0
3.2319e+05,1.395e+08,0,1214,1214,14.99,0.11,35,77,0,0
3.2369e+05,1.3961e+08,0,1214,1214,15,0.11,35,77,0,0
3.2412e+05,1.3972e+08,0,1214,1214,15,0.11,35,77,0,0
3.2458e+05,1.3983e+08,0,1214,1214,15,0.11,35,77,0,0
3.2498e+05,1.3993e+08,0,1214,1214,15,0.11,35,77,0,0
3.2547e+05,1.4004e+08,0,1214,1228,15.01,0.11,35,77,0,0
3.2592e+05,1.4015e+08,0,1228,1228,15.01,0.1,35,77,0,0
3.2632e+05,1.4025e+08,0,1227,1214,15.01,0.11,35,77,0,0
3.268e+05,1.4036e+08,0,1214,1228,15,0.11,35,77,0,0
3.2725e+05,1.4047e+08,0,1227,1214,15.01,0.11,35,77,0,0
3.2771e+05,1.4058e+08,0,1215,1228,15.01,0.11,35,77,0,0
3.2811e+05,1.4068e+08,0,1228,1228,15.01,0.1,35,77,0,0
3.286e+05,1.408e+08,0,1226,1214,15.01,0.11,35,77,0,0
3.2901e+05,1.409e+08,0,1214,1228,15.01,0.11,35,77,0,0
3.2946e+05,1.4101e+08,0,1228,1228,15.02,0.11,35,77,0,0
3.299e+05,1.4112e+08,0,1228,1228,15.02,0.11,35,77,0,0
3.3035e+05,1.4123e+08,0,1227,1214,15.02,0.11,35,77,0,0
3.308e+05,1.4134e+08,0,1214,1228,15.02,0.11,35,77,0,0
3.3125e+05,1.4144e+08,0,1227,1214,15.02,0.11,35,77,0,0
3.317e+05,1.4155e+08,0,1214,1214,15.02,0.11,35,77,0,0
3.3214e+05,1.4166e+08,0,1214,1214,15.03,0.11,35,77,0,0
3.3263e+05,1.4177e+08,0,1214,1214,15.02,0.11,35,77,0,0
3.3304e+05,1.4188e+08,0,1214,1214,15.02,0.11,34,77,0,0
3.3349e+05,1.4198e+08,0,1214,1214,15.02,0.11,35,77,0,0
3.3394e+05,1.4209e+08,0,1214,1214,15.02,0.11,34,77,0,0
3.3463e+05,1.4231e+08,0,1214,1214,15.03,0.11,34,77,0,0
3.3496e+05,1.4241e+08,0,1214,1214,15.03,0.11,34,77,0,0
3.354e+05,1.4253e+08,0,1214,1214,15.03,0.11,34,77,0,0
3.3586e+05,1.4263e+08,0,1214,1214,15.04,0.11,34,77,0,0
3.363e+05,1.4274e+08,0,1214,1214,15.04,0.11,34,77,0,0
3.3675e+05,1.4286e+08,0,1214,1214,15.04,0.1,34,77,0,0
3.3719e+05,1.4296e+08,0,1214,1214,15.04,0.11,34,77,0,0
3.3764e+05,1.4307e+08,0,1214,1214,15.04,0.11,34,77,0,0
3.3809e+05,1.4318e+08,0,1214,1214,15.04,0.11,34,77,0,0
3.3849e+05,1.4328e+08,0,1214,1214,15.04,0.1,34,77,0,0
3.3897e+05,1.4339e+08,0,1215,1228,15.04,0.1,34,77,0,0
3.3942e+05,1.435e+08,0,1226,1214,15.04,0.1,34,77,0,0
3.4032e+05,1.4372e+08,0,1214,1228,15.05,0.1,34,77,0,0
3.4077e+05,1.4382e+08,0,1228,1228,15.04,0.1,34,77,0,0
3.4122e+05,1.4393e+08,0,1228,1228,15.05,0.11,34,77,0,0
3.4167e+05,1.4404e+08,0,1228,1228,15.05,0.11,34,77,0,0
3.4212e+05,1.4415e+08,0,1228,1228,15.05,0.11,34,77,0,0
3.4253e+05,1.4426e+08,0,1228,1228,15.05,0.11,34,77,0,0
3.4297e+05,1.4436e+08,0,1228,1228,15.05,0.11,34,77,0,0
3.4342e+05,1.4447e+08,0,1228,1228,15.05,0.1,34,77,0,0
3.4387e+05,1.4458e+08,0,1228,1228,15.05,0.1,34,77,0,0
3.4477e+05,1.448e+08,0,1228,1228,15.06,0.1,34,77,0,0
3.4521e+05,1.449e+08,0,1228,1228,15.06,0.1,34,77,0,0
3.4566e+05,1.4501e+08,0,1228,1228,15.06,0.1,34,77,0,0
3.461e+05,1.4512e+08,0,1228,1228,15.05,0.1,34,77,0,0
3.466e+05,1.4523e+08,0,1226,1214,15.05,0.1,34,77,0,0
3.4704e+05,1.4534e+08,0,1214,1228,15.05,0.11,34,77,0,0
3.4793e+05,1.4555e+08,0,1228,1228,15.07,0.1,34,77,0,0
3.4839e+05,1.4567e+08,0,1228,1228,15.06,0.11,34,77,0,0
3.4884e+05,1.4577e+08,0,1228,1228,15.06,0.11,34,77,0,0
3.4929e+05,1.4588e+08,0,1228,1228,15.07,0.1,34,77,0,0
3.4974e+05,1.4599e+08,0,1228,1228,15.07,0.1,34,77,0,0
3.5019e+05,1.461e+08,0,1228,1228,15.07,0.1,34,77,0,0
3.5063e+05,1.462e+08,0,1228,1228,15.06,0.1,34,77,0,0
3.5108e+05,1.4631e+08,0,1227,1214,15.07,0.1,34,77,0,0
3.5152e+05,1.4642e+08,0,1214,1228,15.07,0.1,34,77,0,0
3.5201e+05,1.4653e+08,0,1228,1228,15.07,0.1,34,77,0,0
3.5246e+05,1.4664e+08,0,1228,1228,15.07,0.1,34,77,0,0
3.5335e+05,1.4686e+08,0,1228,1228,15.07,0.1,34,77,0,0
3.538e+05,1.4697e+08,0,1228,1228,15.08,0.1,34,77,0,0
3.5425e+05,1.4708e+08,0,1228,1228,15.07,0.1,34,77,0,0
3.5465e+05,1.4717e+08,0,1228,1228,15.07,0.1,34,77,0,0
3.5513e+05,1.4729e+08,0,1226,1214,15.08,0.1,34,77,0,0
3.5558e+05,1.474e+08,0,1214,1228,15.07,0.11,34,77,0,0
3.5602e+05,1.475e+08,0,1227,1214,15.08,0.11,34,77,0,0
3.5647e+05,1.4761e+08,0,1214,1228,15.08,0.11,34,77,0,0
3.5691e+05,1.4772e+08,0,1228,1228,15.08,0.1,34,77,0,0
3.5737e+05,1.4783e+08,0,1228,1228,15.07,0.1,34,77,0,0
3.5782e+05,1.4794e+08,0,1228,1228,15.08,0.11,34,77,0,0
3.5828e+05,1.4806e+08,0,1228,1228,15.07,0.11,34,77,0,0
3.5868e+05,1.4815e+08,0,1228,1228,15.08,0.11,34,77,0,0
3.5916e+05,1.4827e+08,0,1226,1214,15.07,0.11,34,77,0,0
3.596e+05,1.4837e+08,0,1214,1214,15.08,0.11,34,77,0,0
3.6005e+05,1.4848e+08,0,1215,1228,15.08,0.11,34,77,0,0
3.605e+05,1.4859e+08,0,1228,1228,15.08,0.1,34,77,0,0
3.6094e+05,1.4869e+08,0,1228,1228,15.09,0.11,34,77,0,0
3.6139e+05,1.488e+08,0,1228,1228,15.08,0.11,34,77,0,0
3.6188e+05,1.4892e+08,0,1228,1228,15.08,0.11,34,77,0,0
3.623e+05,1.4902e+08,0,1175,428,15.1,0,34,77,0,0
3.6271e+05,1.4913e+08,0,390,0,15.1,0.02,34,77,0,0
3.6312e+05,1.4923e+08,0,0,0,15.1,0.04,34,77,0,0
3.6357e+05,1.4935e+08,0,0,0,15.1,0.04,34,77,0,0
3.6398e+05,1.4945e+08,0,0,0,15.1,0.04,33,77,0,0
3.644e+05,1.4956e+08,0,0,0,15.1,0.04,34,77,0,0
3.6484e+05,1.4967e+08,0,0,0,15.11,0.04,34,77,0,0
3.6525e+05,1.4977e+08,0,0,0,15.11,0.04,33,77,0,0
3.657e+05,1.4988e+08,0,0,0,15.11,0.04,33,77,0,0
3.6615e+05,1.5e+08,0,0,0,15.11,0.04,34,77,0,0
3.6654e+05,1.501e+08,0,0,0,15.11,0.04,34,77,0,0
3.6695e+05,1.5021e+08,0,0,0,15.11,0.04,33,77,0,0
3.6736e+05,1.5031e+08,0,0,0,15.11,0.04,33,77,0,0
3.6781e+05,1.5042e+08,0,0,0,15.11,0.04,33,77,0,0
3.6823e+05,1.5053e+08,0,0,0,15.11,0.04,33,77,0,0
3.6864e+05,1.5064e+08,0,0,0,15.11,0.04,33,77,0,0
3.6906e+05,1.5075e+08,0,0,0,15.12,0.04,33,77,0,0
3.6947e+05,1.5085e+08,0,0,0,15.12,0.04,33,77,0,0
3.6988e+05,1.5096e+08,0,0,0,15.11,0.04,33,77,0,0
3.703e+05,1.5106e+08,0,0,0,15.11,0.04,33,77,0,0
3.7075e+05,1.5118e+08,0,0,0,15.12,0.04,33,77,0,0
3.7116e+05,1.5128e+08,0,0,0,15.11,0.04,33,77,0,0
3.7162e+05,1.5139e+08,0,0,0,15.11,0.05,33,77,0,0
3.7203e+05,1.515e+08,0,0,0,15.11,0.04,33,77,0,0
3.7244e+05,1.516e+08,0,0,0,15.12,0.04,33,77,0,0
3.733e+05,1.5182e+08,0,0,0,15.12,0.04,33,77,0,0
3.7371e+05,1.5193e+08,0,0,0,15.12,0.04,33,77,0,0
3.7417e+05,1.5205e+08,0,0,0,15.13,0.04,33,77,0,0
3.7458e+05,1.5216e+08,0,0,0,15.12,0.04,33,77,0,0
3.7495e+05,1.5225e+08,0,0,0,15.11,0.04,33,77,0,0
3.754e+05,1.5236e+08,0,0,0,15.12,0.04,33,77,0,0
3.7581e+05,1.5247e+08,0,0,0,15.12,0.05,33,77,0,0
3.7626e+05,1.5259e+08,0,0,0,15.13,0.04,33,77,0,0
3.7667e+05,1.5269e+08,0,0,0,15.12,0.05,33,77,0,0
3.7706e+05,1.528e+08,0,0,0,15.13,0.04,33,77,0,0
3.7747e+05,1.529e+08,0,0,0,15.12,0.04,33,77,0,0
3.7792e+05,1.5301e+08,0,0,0,15.13,0.04,33,77,0,0
3.7837e+05,1.5312e+08,0,0,0,15.13,0.04,33,77,0,0
3.7878e+05,1.5323e+08,0,0,0,15.13,0.04,33,77,0,0
3.7919e+05,1.5334e+08,0,0,0,15.12,0.04,33,77,0,0
3.796e+05,1.5344e+08,0,0,0,15.13,0.04,33,77,0,0
3.8002e+05,1.5355e+08,0,0,0,15.13,0.04,33,77,0,0
3.8088e+05,1.5377e+08,0,0,0,15.13,0.04,33,77,0,0
3.813e+05,1.5387e+08,0,0,0,15.13,0.04,33,77,0,0
3.8174e+05,1.5399e+08,0,0,0,15.13,0.04,33,77,0,0
3.8216e+05,1.5409e+08,0,0,0,15.13,0.04,33,77,0,0
3.8257e+05,1.542e+08,0,0,0,15.13,0.04,33,77,0,0
3.8298e+05,1.543e+08,0,0,0,15.13,0.04,33,77,0,0
3.8343e+05,1.5442e+08,0,0,0,15.13,0.04,33,77,0,0
3.8384e+05,1.5452e+08,0,0,0,15.13,0.04,33,77,0,0
3.843e+05,1.5464e+08,0,0,0,15.13,0.04,33,77,0,0
3.8467e+05,1.5474e+08,0,0,0,15.13,0.04,33,77,0,0
3.8512e+05,1.5485e+08,0,0,0,15.14,0.04,33,77,0,0
3.8554e+05,1.5496e+08,0,0,0,15.14,0.04,33,77,0,0
3.8598e+05,1.5507e+08,0,0,0,15.13,0.04,33,77,0,0
3.868e+05,1.5528e+08,0,0,0,15.13,0.04,33,77,0,0
3.8726e+05,1.5539e+08,0,0,0,15.13,0.04,33,77,0,0
3.8766e+05,1.5549e+08,0,0,0,15.14,0.04,33,77,0,0
3.8808e+05,1.556e+08,0,0,0,15.14,0.04,33,77,0,0
3.8853e+05,1.5571e+08,0,0,0,15.14,0.04,33,77,0,0
3.8894e+05,1.5581e+08,0,0,0,15.14,0.04,33,77,0,0
3.8935e+05,1.5592e+08,0,0,0,15.14,0.04,33,77,0,0
3.8981e+05,1.5603e+08,0,0,0,15.14,0.04,33,77,0,0
3.9022e+05,1.5614e+08,0,0,0,15.14,0.04,33,77,0,0
3.9067e+05,1.5625e+08,0,0,0,15.14,0.04,33,77,0,0
3.9108e+05,1.5636e+08,0,0,0,15.14,0.04,33,77,0,0
