LineNo,TimeUS,C,Roll,Pitch,Yaw,VN,VE,VD,dPD,PN,PE,PD,GX,GY,GZ,OH
301,5.9711e+07,0,1.66,-1.14,16.35,-0.0027853,-0.0004553,-0.0043072,-0.13113,1.7366,0.0080613,0.35692,-0.01,0,-0.12,90.33
413,5.9738e+07,0,1.66,-1.14,16.35,-0.0029499,-0.00032061,-0.0048177,-0.12326,1.7366,0.0080613,0.35406,-0.01,0,-0.12,90.33
1216,6.0014e+07,0,1.66,-1.15,16.38,-0.0022729,-0.00027314,-0.57314,-0.5561,1.7032,0.016123,0.30597,-0.01,0,-0.11,90.33
1303,6.0043e+07,0,1.66,-1.15,16.38,-0.001838,-0.00022303,-0.57349,-0.56433,1.7032,0.016123,0.28743,-0.01,0,-0.12,90.33
1559,6.009e+07,0,1.66,-1.15,16.39,-0.0009434,-5.0577e-05,-0.57408,-0.59876,1.6587,0.032245,0.2552,-0.01,0,-0.12,90.33
1581,6.01e+07,0,1.66,-1.15,16.39,-0.00094515,2.1466e-05,-0.57429,-0.60872,1.6587,0.032245,0.24812,-0.01,0,-0.12,90.33
1621,6.0111e+07,0,1.66,-1.15,16.39,-0.00087412,-2.9964e-05,-0.57447,-0.61828,1.6587,0.032245,0.24111,-0.01,0,-0.12,90.33
1663,6.0121e+07,0,1.66,-1.15,16.39,-0.00091104,0.00015273,-0.57463,-0.62899,1.6587,0.032245,0.2336,-0.01,0,-0.12,90.33
1703,6.0132e+07,0,1.66,-1.15,16.39,-0.001099,0.00021231,-0.5748,-0.63843,1.6587,0.032245,0.22786,-0.01,0,-0.12,90.33
1744,6.0142e+07,0,1.66,-1.15,16.39,-0.0013286,0.00020522,-0.57516,-0.64836,1.6587,0.032245,0.21987,-0.01,0,-0.12,90.33
1781,6.0152e+07,0,1.66,-1.15,16.39,-0.0015871,0.00022452,-0.57525,-0.65651,1.6587,0.032245,0.21254,-0.01,0,-0.12,90.33
1822,6.0162e+07,0,1.66,-1.15,16.39,-0.0015914,7.4812e-05,-0.5755,-0.66367,1.6587,0.032245,0.20529,-0.01,0,-0.12,90.33
1863,6.0173e+07,0,1.66,-1.15,16.39,-0.0015579,2.4048e-05,-0.57579,-0.67026,1.6587,0.032245,0.19812,-0.01,0,-0.12,90.33
1903,6.0183e+07,0,1.66,-1.15,16.39,-0.0016866,3.7902e-05,-0.57596,-0.67759,1.6587,0.032245,0.19046,-0.01,0,-0.12,90.33
1944,6.0194e+07,0,1.66,-1.15,16.39,-0.0016611,-1.7736e-05,-0.57572,-0.68363,1.6587,0.032245,0.1847,-0.01,0,-0.12,90.33
1989,6.0204e+07,0,1.66,-1.15,16.39,-0.0016125,-1.0066e-05,-0.57598,-0.68795,1.6587,0.032245,0.17768,-0.01,0,-0.12,90.33
2031,6.0214e+07,0,1.66,-1.15,16.39,-0.0014543,-1.261e-05,-0.57625,-0.69107,1.6587,0.032245,0.17072,-0.01,0,-0.12,90.33
2073,6.0224e+07,0,1.66,-1.15,16.39,-0.0014747,7.5058e-05,-0.57647,-0.69372,1.6364,0.040306,0.16325,-0.01,0,-0.12,90.33
2114,6.0234e+07,0,1.66,-1.15,16.39,-0.0015025,2.6296e-05,-0.57651,-0.69301,1.6364,0.040306,0.15641,-0.01,0,-0.12,90.33
2155,6.0245e+07,0,1.66,-1.15,16.39,-0.0013799,6.5908e-05,-0.57639,-0.69272,1.6364,0.040306,0.15065,-0.01,0,-0.12,90.33
2195,6.0256e+07,0,1.66,-1.15,16.39,-0.0013029,0.00017998,-0.57662,-0.69302,1.6364,0.040306,0.14275,-0.01,0,-0.12,90.33
2237,6.0266e+07,0,1.66,-1.15,16.39,-0.0011915,0.00013317,-0.57677,-0.69461,1.6364,0.040306,0.13551,-0.01,0,-0.12,90.33
2278,6.0276e+07,0,1.66,-1.14,16.39,-0.0011557,4.0308e-05,-0.57704,-0.69624,1.6364,0.040306,0.12835,-0.01,0,-0.12,90.33
2318,6.0286e+07,0,1.66,-1.14,16.39,-0.00097816,1.8136e-05,-0.57706,-0.6981,1.6364,0.040306,0.12069,-0.01,0,-0.12,90.33
2361,6.0297e+07,0,1.66,-1.14,16.39,-0.0008297,-1.2478e-06,-0.57716,-0.6998,1.6364,0.040306,0.1131,-0.01,0,-0.12,90.33
2405,6.0307e+07,0,1.66,-1.14,16.39,-0.00064476,0.00020243,-0.57728,-0.70027,1.6364,0.040306,0.10615,-0.01,0,-0.12,90.33
2447,6.0317e+07,0,1.66,-1.15,16.39,-0.00033077,0.00034681,-0.57752,-0.69933,1.6364,0.040306,0.099253,-0.01,0,-0.12,90.33
2491,6.0327e+07,0,1.66,-1.15,16.39,-0.00018161,0.00021853,-0.5775,-0.69871,1.6364,0.040306,0.093484,-0.01,0,-0.12,90.33
2531,6.0338e+07,0,1.66,-1.15,16.39,-0.00021773,0.00023309,-0.5773,-0.69652,1.6364,0.040306,0.086648,-0.01,0,-0.12,90.33
2571,6.0348e+07,0,1.66,-1.15,16.39,-0.00027855,0.00038557,-0.57766,-0.69369,1.6364,0.040306,0.07931,-0.01,0,-0.12,90.33
2611,6.0359e+07,0,1.66,-1.15,16.39,-0.00040515,0.0004142,-0.57778,-0.6908,1.6364,0.040306,0.072604,-0.01,0,-0.12,90.33
2652,6.0369e+07,0,1.66,-1.15,16.39,-0.00067856,0.00040568,-0.57801,-0.68748,1.6364,0.040306,0.065947,-0.01,0,-0.12,90.33
2693,6.0379e+07,0,1.66,-1.15,16.39,-0.00070267,0.00011426,-0.57843,-0.68389,1.6364,0.040306,0.059337,-0.01,0,-0.12,90.33
2734,6.0389e+07,0,1.66,-1.15,16.39,-0.00086868,0.00024264,-0.57834,-0.67988,1.6364,0.040306,0.052981,-0.01,0,-0.12,90.33
2775,6.04e+07,0,1.66,-1.15,16.39,-0.00095883,0.00019021,-0.57859,-0.67562,1.6364,0.040306,0.046408,-0.01,0,-0.12,90.33
2819,6.041e+07,0,1.66,-1.15,16.39,-0.00099638,0.00022344,-0.57877,-0.67049,1.6364,0.040306,0.039299,-0.01,0,-0.12,90.33
2861,6.042e+07,0,1.66,-1.15,16.39,-0.0010603,0.00014071,-0.57882,-0.66566,1.6364,0.040306,0.032234,-0.01,0,-0.12,90.33
2902,6.043e+07,0,1.66,-1.15,16.39,-0.0011462,5.9159e-05,-0.57882,-0.66081,1.6364,0.040306,0.025784,-0.01,0,-0.12,90.33
2943,6.044e+07,0,1.66,-1.15,16.39,-0.001144,-5.3141e-06,-0.57893,-0.6561,1.6364,0.040306,0.019373,-0.01,0,-0.12,90.33
2985,6.0454e+07,0,1.67,-1.15,16.39,-0.0013527,-7.3922e-05,-0.57918,-0.65112,1.6141,0.048368,0.011241,-0.01,0,-0.12,90.33
3026,6.0464e+07,0,1.67,-1.15,16.39,-0.0013639,-9.5045e-05,-0.57922,-0.64636,1.6141,0.048368,0.0042985,-0.01,0,-0.12,90.33
3067,6.0474e+07,0,1.67,-1.15,16.39,-0.001491,-0.00010893,-0.5793,-0.64271,1.6141,0.048368,-0.0014877,-0.01,0,-0.12,90.33
3108,6.0484e+07,0,1.67,-1.15,16.39,-0.0014588,6.7411e-05,-0.5796,-0.63902,1.6141,0.048368,-0.0078235,-0.01,0,-0.12,90.33
3149,6.0495e+07,0,1.67,-1.15,16.39,-0.001314,0.00016201,-0.57974,-0.63424,1.6141,0.048368,-0.013614,-0.01,0,-0.12,90.33
3189,6.0504e+07,0,1.67,-1.14,16.39,-0.0012633,0.00019843,-0.57947,-0.62938,1.6141,0.048368,-0.019937,-0.01,0,-0.12,90.33
3234,6.0514e+07,0,1.67,-1.14,16.39,-0.0011099,0.00036029,-0.57936,-0.62461,1.6141,0.048368,-0.026231,-0.01,0,-0.12,90.33
3275,6.0525e+07,0,1.67,-1.14,16.39,-0.0010187,0.00045484,-0.57942,-0.62023,1.6141,0.048368,-0.033074,-0.01,0,-0.12,90.33
3316,6.0535e+07,0,1.66,-1.14,16.39,-0.00087108,0.0003968,-0.57924,-0.61702,1.6141,0.048368,-0.038861,-0.01,0,-0.12,90.33
3357,6.0545e+07,0,1.66,-1.15,16.4,-0.00081354,0.00039912,-0.5795,-0.61454,1.6141,0.048368,-0.045095,-0.01,0,-0.12,90.33
3400,6.0555e+07,0,1.66,-1.15,16.4,-0.00085657,0.00033756,-0.57983,-0.61254,1.6141,0.048368,-0.0513,-0.01,0,-0.12,90.33
3438,6.0566e+07,0,1.66,-1.15,16.4,-0.00072042,0.00038322,-0.57961,-0.60849,1.6141,0.048368,-0.056677,-0.01,0,-0.12,90.33
3479,6.0576e+07,0,1.66,-1.15,16.4,-0.0005893,0.00038737,-0.57941,-0.6027,1.6141,0.048368,-0.062065,-0.01,0,-0.12,90.33
3520,6.0586e+07,0,1.66,-1.15,16.4,-0.00075206,0.00053154,-0.5793,-0.59582,1.6141,0.048368,-0.067461,-0.01,0,-0.12,90.33
3560,6.0596e+07,0,1.66,-1.15,16.4,-0.00076053,0.00069234,-0.5791,-0.58719,1.6141,0.048368,-0.07344,-0.01,0,-0.12,90.33
3601,6.0607e+07,0,1.67,-1.15,16.4,-0.00078629,0.00073011,-0.57915,-0.5792,1.6141,0.048368,-0.079225,-0.01,0,-0.12,90.33
3645,6.0617e+07,0,1.67,-1.15,16.4,-0.00091571,0.00080276,-0.5789,-0.57072,1.6141,0.048368,-0.08521,-0.01,0,-0.12,90.33
3687,6.0628e+07,0,1.67,-1.15,16.4,-0.0010301,0.00098468,-0.57894,-0.5636,1.6141,0.048368,-0.090622,-0.01,0,-0.12,90.33
3728,6.0638e+07,0,1.67,-1.15,16.4,-0.0010289,0.00096242,-0.57898,-0.55712,1.6141,0.048368,-0.096044,-0.01,0,-0.12,90.33
3770,6.0648e+07,0,1.67,-1.15,16.39,-0.0010672,0.00082215,-0.5789,-0.55144,1.6141,0.048368,-0.10147,-0.01,0,-0.12,90.33
3807,6.0659e+07,0,1.67,-1.15,16.4,-0.0011027,0.00067622,-0.57874,-0.54508,1.5807,0.056429,-0.10805,-0.01,0,-0.12,90.33
3848,6.0669e+07,0,1.66,-1.15,16.39,-0.0011108,0.00057406,-0.5785,-0.54077,1.5807,0.056429,-0.11347,-0.01,0,-0.12,90.33
3888,6.068e+07,0,1.66,-1.15,16.39,-0.0011976,0.0006054,-0.57833,-0.53677,1.5807,0.056429,-0.11925,-0.01,0,-0.12,90.33
3928,6.069e+07,0,1.66,-1.15,16.39,-0.001151,0.0005543,-0.578,-0.53348,1.5807,0.056429,-0.12468,-0.01,0,-0.12,90.33
3970,6.07e+07,0,1.66,-1.15,16.39,-0.0010529,0.00053933,-0.57771,-0.53073,1.5807,0.056429,-0.13069,-0.01,0,-0.12,90.33
4011,6.071e+07,0,1.66,-1.15,16.39,-0.00082537,0.00075467,-0.57793,-0.52928,1.5807,0.056429,-0.13613,-0.01,0,-0.12,90.33
4057,6.072e+07,0,1.66,-1.15,16.39,-0.00068834,0.00093922,-0.57788,-0.5282,1.5807,0.056429,-0.14158,-0.01,0,-0.12,90.33
4099,6.0731e+07,0,1.66,-1.15,16.39,-0.00079855,0.0010184,-0.57768,-0.52701,1.5807,0.056429,-0.14735,-0.01,0,-0.12,90.33
4141,6.0741e+07,0,1.66,-1.14,16.39,-0.0009688,0.0011134,-0.5779,-0.5268,1.5807,0.056429,-0.15338,-0.01,0,-0.12,90.33
4182,6.0751e+07,0,1.66,-1.14,16.39,-0.00081357,0.0011262,-0.57776,-0.5267,1.5807,0.056429,-0.15884,-0.01,0,-0.12,90.33
4222,6.0764e+07,0,1.66,-1.14,16.38,-0.00079886,0.0011034,-0.57756,-0.52631,1.5807,0.056429,-0.16582,-0.01,0,-0.12,90.33
4263,6.0774e+07,0,1.66,-1.14,16.38,-0.00087576,0.0010586,-0.57747,-0.52592,1.5807,0.056429,-0.17109,-0.01,0,-0.12,90.33
4304,6.0785e+07,0,1.66,-1.14,16.38,-0.00072564,0.0010654,-0.5774,-0.52518,1.5807,0.056429,-0.17637,-0.01,0,-0.12,90.33
4347,6.0795e+07,0,1.66,-1.14,16.38,-0.00063558,0.0010422,-0.57708,-0.52425,1.5807,0.056429,-0.18166,-0.01,0,-0.12,90.33
4388,6.0805e+07,0,1.66,-1.15,16.38,-0.00060424,0.00099973,-0.57713,-0.52337,1.5807,0.056429,-0.18754,-0.01,0,-0.12,90.33
4428,6.0816e+07,0,1.66,-1.15,16.38,-0.00063479,0.00090253,-0.57712,-0.52241,1.5807,0.056429,-0.19388,-0.01,0,-0.12,90.33
4473,6.0826e+07,0,1.66,-1.15,16.38,-0.00071491,0.00071542,-0.57719,-0.52211,1.5807,0.056429,-0.1992,-0.01,0,-0.12,90.33
4517,6.0837e+07,0,1.66,-1.14,16.38,-0.00074331,0.00056092,-0.57732,-0.52195,1.5585,0.056429,-0.2051,-0.01,0,-0.12,90.33
4558,6.0847e+07,0,1.66,-1.14,16.38,-0.00090978,0.00061861,-0.57744,-0.52193,1.5585,0.056429,-0.21045,-0.01,0,-0.12,90.33
4599,6.0858e+07,0,1.66,-1.14,16.38,-0.00088138,0.00051759,-0.5774,-0.52019,1.5585,0.056429,-0.21488,-0.01,0,-0.12,90.33
4639,6.0871e+07,0,1.66,-1.14,16.38,-0.000944,0.00048114,-0.57737,-0.51518,1.5585,0.056429,-0.22109,-0.01,0,-0.12,90.33
4680,6.0881e+07,0,1.66,-1.14,16.38,-0.00098789,0.00061907,-0.57695,-0.51034,1.5585,0.056429,-0.22562,-0.01,0,-0.12,90.33
4721,6.0891e+07,0,1.66,-1.14,16.38,-0.0012295,0.00066972,-0.57662,-0.50475,1.5585,0.056429,-0.23077,-0.01,0,-0.12,90.33
4762,6.0901e+07,0,1.66,-1.14,16.38,-0.0013311,0.00071357,-0.57656,-0.49869,1.5585,0.056429,-0.23653,-0.01,0,-0.12,90.33
4803,6.0911e+07,0,1.66,-1.14,16.38,-0.001366,0.00076923,-0.57632,-0.49302,1.5585,0.056429,-0.24115,-0.01,0,-0.12,90.33
4843,6.0921e+07,0,1.66,-1.14,16.38,-0.0014851,0.00089238,-0.57605,-0.48834,1.5585,0.056429,-0.2458,-0.01,0,-0.12,90.33
4888,6.0931e+07,0,1.66,-1.14,16.38,-0.0014664,0.00071456,-0.57575,-0.48425,1.5585,0.056429,-0.2505,-0.01,0,-0.12,90.33
4928,6.0942e+07,0,1.66,-1.14,16.38,-0.0014808,0.00044697,-0.57584,-0.48083,1.5585,0.056429,-0.25523,-0.01,0,-0.12,90.33
4969,6.0952e+07,0,1.66,-1.14,16.38,-0.0013698,0.0003612,-0.5757,-0.47812,1.5585,0.056429,-0.26001,-0.01,0,-0.12,90.33
5011,6.0962e+07,0,1.66,-1.14,16.38,-0.0011935,0.00037589,-0.57565,-0.47526,1.5585,0.056429,-0.26576,-0.01,0,-0.12,90.33
5045,6.0972e+07,0,1.66,-1.14,16.38,-0.0011771,0.00022698,-0.57509,-0.47125,1.5585,0.056429,-0.27051,-0.01,0,-0.12,90.33
5085,6.0982e+07,0,1.66,-1.14,16.38,-0.00093539,-1.3669e-05,-0.57451,-0.46731,1.5585,0.056429,-0.27474,-0.01,0,-0.12,90.33
5126,6.0993e+07,0,1.66,-1.14,16.38,-0.00080104,-0.00023792,-0.57416,-0.46403,1.5585,0.056429,-0.27903,-0.01,0,-0.12,90.33
5167,6.1003e+07,0,1.66,-1.14,16.38,-0.0008288,8.0664e-05,-0.57367,-0.46053,1.5585,0.056429,-0.28394,-0.01,0,-0.12,90.33
5208,6.1014e+07,0,1.66,-1.14,16.38,-0.00078128,1.7553e-05,-0.57363,-0.45667,1.5585,0.056429,-0.28967,-0.01,0,-0.12,90.33
5248,6.1024e+07,0,1.66,-1.14,16.38,-0.0008924,-3.3111e-05,-0.57332,-0.45386,1.5585,0.056429,-0.29405,-0.01,0,-0.12,90.33
5294,6.1034e+07,0,1.66,-1.14,16.38,-0.00093351,0.00013099,-0.57285,-0.45137,1.5585,0.056429,-0.29849,-0.01,0,-0.12,90.33
5336,6.1044e+07,0,1.66,-1.14,16.39,-0.00099229,0.00026148,-0.57256,-0.44889,1.5251,0.06449,-0.30354,-0.01,0,-0.12,90.33
5377,6.1054e+07,0,1.66,-1.14,16.39,-0.0012036,0.00021557,-0.57252,-0.44781,1.5251,0.06449,-0.30807,-0.01,0,-0.12,90.33
5418,6.1067e+07,0,1.66,-1.14,16.39,-0.0015166,5.6148e-05,-0.57218,-0.44584,1.5251,0.06449,-0.31321,-0.01,0,-0.12,90.33
5459,6.1077e+07,0,1.66,-1.14,16.39,-0.0014928,0.00016816,-0.57168,-0.44072,1.5251,0.06449,-0.31673,-0.01,0,-0.12,90.33
5500,6.1087e+07,0,1.66,-1.14,16.39,-0.0015195,0.00015157,-0.57113,-0.43454,1.5251,0.06449,-0.32033,-0.01,0,-0.12,90.33
5540,6.1098e+07,0,1.66,-1.14,16.39,-0.0015819,0.00024254,-0.57125,-0.42639,1.5251,0.06449,-0.32603,-0.01,0,-0.12,90.33
5582,6.1108e+07,0,1.66,-1.14,16.39,-0.0016056,0.00026663,-0.5706,-0.41925,1.5251,0.06449,-0.32971,-0.01,0,-0.12,90.33
5622,6.1118e+07,0,1.67,-1.14,16.38,-0.0013921,-1.5808e-05,-0.56996,-0.41291,1.5251,0.06449,-0.33402,-0.01,0,-0.12,90.33
5670,6.1128e+07,0,1.67,-1.14,16.38,-0.0014086,-0.00019856,-0.56992,-0.40854,1.5251,0.06449,-0.33785,-0.01,0,-0.12,90.33
5710,6.1139e+07,0,1.67,-1.14,16.38,-0.0012611,-0.00046786,-0.56958,-0.40411,1.5251,0.06449,-0.34175,-0.01,0,-0.12,90.33
5751,6.1149e+07,0,1.66,-1.14,16.38,-0.0013061,-0.00048355,-0.56955,-0.40101,1.5251,0.06449,-0.34744,-0.01,0,-0.12,90.33
5792,6.1159e+07,0,1.66,-1.14,16.38,-0.0013001,-0.00035698,-0.56919,-0.39956,1.5251,0.06449,-0.3514,-0.01,0,-0.12,90.33
5832,6.1169e+07,0,1.66,-1.14,16.38,-0.0011851,-0.00033713,-0.56858,-0.39487,1.5251,0.06449,-0.35495,-0.01,0,-0.12,90.33
5870,6.118e+07,0,1.66,-1.14,16.38,-0.0012956,-0.0003586,-0.56822,-0.38949,1.5251,0.06449,-0.3586,-0.01,0,-0.12,90.33
5910,6.119e+07,0,1.66,-1.14,16.38,-0.0012313,-0.00052217,-0.56761,-0.38373,1.5251,0.06449,-0.36179,-0.01,0,-0.12,90.33
5950,6.12e+07,0,1.66,-1.14,16.38,-0.0010403,-0.00044156,-0.56706,-0.37946,1.5251,0.06449,-0.36507,-0.01,0,-0.12,90.33
5992,6.1211e+07,0,1.66,-1.14,16.38,-0.0011412,-0.00025397,-0.56719,-0.37339,1.5251,0.06449,-0.37074,-0.01,0,-0.12,90.33
6032,6.1221e+07,0,1.66,-1.14,16.38,-0.0011821,-0.00016223,-0.56657,-0.36852,1.5251,0.06449,-0.37467,-0.01,0,-0.12,90.33
6079,6.1231e+07,0,1.66,-1.14,16.38,-0.0011083,-2.2814e-05,-0.56623,-0.36596,1.4917,0.072551,-0.37813,-0.01,0,-0.12,90.33
6119,6.1241e+07,0,1.66,-1.14,16.38,-0.0010575,9.0607e-05,-0.56606,-0.36438,1.4917,0.072551,-0.38168,-0.01,0,-0.12,90.33
6160,6.1251e+07,0,1.66,-1.14,16.38,-0.00097443,5.6402e-05,-0.56572,-0.3647,1.4917,0.072551,-0.3853,-0.01,0,-0.12,90.33
6200,6.1261e+07,0,1.66,-1.14,16.38,-0.00090859,-4.9774e-05,-0.56572,-0.36376,1.4917,0.072551,-0.39096,-0.01,0,-0.12,90.33
6241,6.1274e+07,0,1.66,-1.14,16.38,-0.0009346,-8.5967e-05,-0.56549,-0.36468,1.4917,0.072551,-0.39579,-0.01,0,-0.12,90.33
6279,6.1284e+07,0,1.67,-1.14,16.37,-0.0010409,-0.00018259,-0.565,-0.36338,1.4917,0.072551,-0.39919,-0.01,0,-0.12,90.33
6321,6.1295e+07,0,1.67,-1.14,16.37,-0.00091171,-0.0002075,-0.56433,-0.35923,1.4917,0.072551,-0.40213,-0.01,0,-0.12,90.33
6364,6.1305e+07,0,1.67,-1.14,16.37,-0.0010496,-0.00018989,-0.56378,-0.35514,1.4917,0.072551,-0.40519,-0.01,0,-0.12,90.33
6404,6.1314e+07,0,1.67,-1.14,16.37,-0.0010633,-0.0002195,-0.56316,-0.35268,1.4917,0.072551,-0.40834,-0.01,0,-0.12,90.33
6445,6.1325e+07,0,1.66,-1.14,16.37,-0.0012195,-0.00046214,-0.5626,-0.35129,1.4917,0.072551,-0.41271,-0.01,0,-0.12,90.33
6490,6.1335e+07,0,1.66,-1.14,16.37,-0.001308,-0.000453,-0.56243,-0.34931,1.4917,0.072551,-0.41833,-0.01,0,-0.12,90.33
6530,6.1346e+07,0,1.66,-1.14,16.37,-0.001279,-0.00044269,-0.56186,-0.34897,1.4917,0.072551,-0.42166,-0.01,0,-0.12,90.33
6572,6.1356e+07,0,1.66,-1.14,16.36,-0.0013568,-0.00036504,-0.56139,-0.34927,1.4917,0.072551,-0.42509,-0.01,0,-0.12,90.33
6612,6.1366e+07,0,1.66,-1.14,16.36,-0.0013011,-0.00044327,-0.5609,-0.35133,1.4917,0.072551,-0.42859,-0.01,0,-0.12,90.33
6653,6.1382e+07,0,1.66,-1.14,16.36,-0.0013198,-0.00041184,-0.56039,-0.35184,1.4917,0.072551,-0.43426,-0.01,0,-0.11,90.33
6694,6.1392e+07,0,1.66,-1.14,16.36,-0.0013767,-0.00030722,-0.55949,-0.3502,1.4917,0.072551,-0.4367,-0.01,0,-0.11,90.33
6736,6.1402e+07,0,1.66,-1.14,16.36,-0.0013909,-0.00023015,-0.55881,-0.34714,1.4917,0.072551,-0.43981,-0.01,0,-0.11,90.33
6777,6.1413e+07,0,1.66,-1.13,16.36,-0.0012482,-0.00025764,-0.55882,-0.3412,1.4917,0.072551,-0.4454,-0.01,0,-0.11,90.33
6817,6.1423e+07,0,1.66,-1.13,16.35,-0.0012755,-0.00025023,-0.55832,-0.33657,1.4917,0.072551,-0.44807,-0.01,0,-0.11,90.33
6860,6.1433e+07,0,1.66,-1.13,16.35,-0.0011954,-0.00010354,-0.55803,-0.33244,1.4583,0.080613,-0.45086,-0.01,0,-0.11,90.33
6904,6.1443e+07,0,1.67,-1.13,16.35,-0.0010857,-8.6938e-05,-0.55731,-0.32998,1.4583,0.080613,-0.45376,-0.01,0,-0.11,90.33
6945,6.1453e+07,0,1.67,-1.13,16.35,-0.0010834,-0.00010231,-0.55665,-0.32831,1.4583,0.080613,-0.45677,-0.01,0,-0.11,90.33
6986,6.1463e+07,0,1.66,-1.13,16.35,-0.0011452,-9.1651e-05,-0.55609,-0.32546,1.4583,0.080613,-0.46044,-0.01,0,-0.11,90.33
7026,6.1474e+07,0,1.66,-1.13,16.35,-0.0010106,8.8053e-05,-0.55595,-0.32272,1.4583,0.080613,-0.46599,-0.01,0,-0.11,90.33
7070,6.1487e+07,0,1.66,-1.14,16.35,-0.0012898,0.00011296,-0.55427,-0.31809,1.4583,0.080613,-0.46667,-0.01,0,-0.11,90.33
7111,6.1498e+07,0,1.66,-1.14,16.34,-0.0012191,0.00027167,-0.55425,-0.3096,1.4583,0.080613,-0.4722,-0.01,0,-0.11,90.33
7153,6.1508e+07,0,1.66,-1.14,16.34,-0.0011946,0.00026973,-0.55362,-0.3029,1.4583,0.080613,-0.47441,-0.01,0,-0.11,90.33
7194,6.1518e+07,0,1.66,-1.14,16.34,-0.001227,0.00032819,-0.55297,-0.29734,1.4583,0.080613,-0.4773,-0.01,0,-0.11,90.33
7234,6.1529e+07,0,1.66,-1.14,16.34,-0.0013586,0.00029796,-0.55245,-0.29469,1.4583,0.080613,-0.47976,-0.01,0,-0.11,90.33
7279,6.1539e+07,0,1.66,-1.14,16.34,-0.0016162,0.00031338,-0.55177,-0.29299,1.4583,0.080613,-0.4829,-0.01,0,-0.11,90.33
7319,6.155e+07,0,1.66,-1.14,16.34,-0.0015995,0.00035104,-0.55108,-0.29034,1.4583,0.080613,-0.48616,-0.01,0,-0.11,90.33
7360,6.156e+07,0,1.66,-1.14,16.34,-0.00176,0.00046822,-0.55098,-0.2875,1.4583,0.080613,-0.49166,-0.01,0,-0.11,90.33
7401,6.157e+07,0,1.66,-1.14,16.34,-0.001796,0.00047104,-0.55063,-0.28661,1.4583,0.080613,-0.49448,-0.01,0,-0.11,90.33
7443,6.1583e+07,0,1.66,-1.14,16.34,-0.0018669,0.00046591,-0.5497,-0.28478,1.4583,0.080613,-0.49786,-0.01,0,-0.11,90.33
7483,6.1593e+07,0,1.66,-1.14,16.34,-0.001922,0.00045362,-0.54895,-0.28212,1.4583,0.080613,-0.49975,-0.01,0,-0.11,90.33
7524,6.1603e+07,0,1.66,-1.14,16.34,-0.0018234,0.00043165,-0.54837,-0.2789,1.4583,0.080613,-0.50179,-0.01,0,-0.11,90.33
7565,6.1613e+07,0,1.66,-1.14,16.34,-0.0017088,0.00043225,-0.54762,-0.27741,1.4583,0.080613,-0.50396,-0.01,0,-0.11,90.33
7607,6.1624e+07,0,1.66,-1.14,16.33,-0.0015961,0.00060508,-0.54731,-0.27274,1.4583,0.080613,-0.50943,-0.01,0,-0.11,90.33
7648,6.1634e+07,0,1.66,-1.14,16.33,-0.0014854,0.00061439,-0.54677,-0.27073,1.4583,0.080613,-0.51173,-0.01,0,-0.11,90.33
7695,6.1644e+07,0,1.66,-1.14,16.34,-0.0013172,0.00055109,-0.54596,-0.27335,1.436,0.088674,-0.51414,-0.01,0,-0.11,90.33
7735,6.1654e+07,0,1.66,-1.14,16.34,-0.0013301,0.00046576,-0.54532,-0.27682,1.436,0.088674,-0.51721,-0.01,0,-0.11,90.33
7776,6.1665e+07,0,1.66,-1.14,16.34,-0.0012154,0.00051153,-0.54501,-0.27759,1.436,0.088674,-0.52266,-0.01,0,-0.11,90.33
7816,6.1675e+07,0,1.66,-1.14,16.33,-0.0012116,0.00056081,-0.54427,-0.28014,1.436,0.088674,-0.5253,-0.01,0,-0.11,90.33
7857,6.1685e+07,0,1.66,-1.14,16.34,-0.0012678,0.00057556,-0.54354,-0.28309,1.436,0.088674,-0.52805,-0.01,0,-0.11,90.33
7892,6.1696e+07,0,1.66,-1.14,16.33,-0.0011593,0.00054601,-0.54237,-0.28125,1.436,0.088674,-0.52955,-0.01,0,-0.11,90.33
7933,6.1706e+07,0,1.66,-1.14,16.33,-0.0011514,0.00067099,-0.54139,-0.27256,1.436,0.088674,-0.53123,-0.01,0,-0.11,90.33
7975,6.1716e+07,0,1.66,-1.14,16.34,-0.0010478,0.00061049,-0.54022,-0.26332,1.436,0.088674,-0.53254,-0.01,0,-0.11,90.33
8017,6.1726e+07,0,1.66,-1.14,16.34,-0.0010813,0.00054866,-0.53935,-0.25662,1.436,0.088674,-0.53402,-0.01,0,-0.11,90.33
8057,6.1736e+07,0,1.66,-1.14,16.34,-0.0010166,0.00061272,-0.53944,-0.24674,1.436,0.088674,-0.53941,-0.01,0,-0.11,90.33
8104,6.1747e+07,0,1.66,-1.14,16.34,-0.0010965,0.00067469,-0.53859,-0.23955,1.436,0.088674,-0.54103,-0.01,0,-0.11,90.33
8144,6.1756e+07,0,1.66,-1.14,16.34,-0.0011643,0.00052129,-0.53784,-0.23377,1.436,0.088674,-0.54281,-0.01,0,-0.11,90.33
8186,6.1766e+07,0,1.66,-1.14,16.34,-0.0011268,0.00046442,-0.53731,-0.23156,1.436,0.088674,-0.54473,-0.01,0,-0.11,90.33
8226,6.1776e+07,0,1.66,-1.14,16.34,-0.0011545,0.00040924,-0.53647,-0.23072,1.436,0.088674,-0.54564,-0.01,0,-0.11,90.33
8269,6.1787e+07,0,1.66,-1.14,16.34,-0.0013276,0.00038813,-0.53548,-0.22303,1.436,0.088674,-0.54727,-0.01,0,-0.11,90.33
8310,6.1798e+07,0,1.66,-1.14,16.34,-0.0012506,0.00063158,-0.53451,-0.21299,1.436,0.088674,-0.54908,-0.01,0,-0.11,90.33
8350,6.1809e+07,0,1.66,-1.14,16.34,-0.0013888,0.00062246,-0.53447,-0.2028,1.436,0.088674,-0.55495,-0.01,0,-0.11,90.33
8392,6.1819e+07,0,1.66,-1.14,16.34,-0.001674,0.00075013,-0.53344,-0.19624,1.436,0.088674,-0.55638,-0.01,0,-0.11,90.33
8434,6.1829e+07,0,1.66,-1.14,16.34,-0.0018183,0.0009299,-0.53253,-0.19037,1.436,0.088674,-0.55797,-0.01,0,-0.11,90.33
8475,6.1839e+07,0,1.66,-1.14,16.35,-0.0017204,0.00091424,-0.53169,-0.1871,1.436,0.088674,-0.55972,-0.01,0,-0.11,90.33
8522,6.185e+07,0,1.66,-1.14,16.35,-0.0017107,0.0010066,-0.53101,-0.18648,1.4026,0.096735,-0.56161,-0.01,0,-0.11,90.33
8562,6.186e+07,0,1.66,-1.14,16.35,-0.0016974,0.0011511,-0.53028,-0.18676,1.4026,0.096735,-0.56365,-0.01,0,-0.11,90.33
8603,6.187e+07,0,1.66,-1.14,16.35,-0.0016541,0.0013255,-0.52936,-0.18948,1.4026,0.096735,-0.56582,-0.01,0,-0.11,90.33
8646,6.1883e+07,0,1.66,-1.14,16.35,-0.0016669,0.0011822,-0.52831,-0.18967,1.4026,0.096735,-0.56865,-0.01,0,-0.12,90.33
8687,6.1893e+07,0,1.66,-1.14,16.35,-0.0016669,0.0011692,-0.52738,-0.19068,1.4026,0.096735,-0.56902,-0.01,0,-0.12,90.33
8728,6.1904e+07,0,1.66,-1.14,16.35,-0.0017331,0.0012361,-0.52653,-0.18575,1.4026,0.096735,-0.57063,-0.01,0,-0.12,90.33
8772,6.1917e+07,0,1.66,-1.14,16.36,-0.0015387,0.001127,-0.52552,-0.17679,1.4026,0.096735,-0.57347,-0.01,0,-0.12,90.33
8813,6.1926e+07,0,1.66,-1.14,16.36,-0.0016167,0.0010539,-0.52471,-0.17414,1.4026,0.096735,-0.5749,-0.01,0,-0.12,90.33
8855,6.1937e+07,0,1.66,-1.14,16.36,-0.0015202,0.00092083,-0.52383,-0.17028,1.4026,0.096735,-0.577,-0.01,0,-0.12,90.33
8896,6.1948e+07,0,1.66,-1.14,16.36,-0.0014354,0.00099793,-0.52371,-0.16715,1.4026,0.096735,-0.58224,-0.01,0,-0.12,90.33
8940,6.1958e+07,0,1.66,-1.14,16.36,-0.0014801,0.00098442,-0.52259,-0.16788,1.4026,0.096735,-0.58395,-0.01,0,-0.12,90.33
8981,6.1968e+07,0,1.66,-1.14,16.36,-0.0016397,0.00096125,-0.52156,-0.17071,1.4026,0.096735,-0.58581,-0.01,0,-0.12,90.33
9021,6.1978e+07,0,1.66,-1.14,16.36,-0.0017213,0.00095467,-0.52071,-0.17715,1.4026,0.096735,-0.5878,-0.01,0,-0.12,90.33
9062,6.1991e+07,0,1.66,-1.14,16.36,-0.0018124,0.00091909,-0.51965,-0.18278,1.4026,0.096735,-0.58971,-0.01,0,-0.12,90.33
9107,6.2004e+07,0,1.66,-1.14,16.36,-0.0019643,0.00094314,-0.51849,-0.17845,1.4026,0.096735,-0.59234,-0.01,0,-0.12,90.33
9147,6.2014e+07,0,1.66,-1.14,16.36,-0.002083,0.00088807,-0.5173,-0.17242,1.4026,0.096735,-0.59309,-0.01,0,-0.12,90.33
9188,6.2024e+07,0,1.66,-1.14,16.37,-0.0020646,0.00092897,-0.51611,-0.16732,1.4026,0.096735,-0.59401,-0.01,0,-0.12,90.33
9231,6.2035e+07,0,1.66,-1.14,16.37,-0.0019494,0.0010782,-0.51519,-0.16671,1.3692,0.1048,-0.59561,-0.01,0,-0.12,90.33
9272,6.2045e+07,0,1.66,-1.14,16.37,-0.0019802,0.0010232,-0.51501,-0.16384,1.3692,0.1048,-0.60076,-0.01,0,-0.12,90.33
9317,6.2055e+07,0,1.66,-1.14,16.37,-0.0020718,0.00091615,-0.5139,-0.16371,1.3692,0.1048,-0.60199,-0.01,0,-0.12,90.33
9357,6.2065e+07,0,1.66,-1.14,16.37,-0.0021049,0.0010608,-0.51315,-0.16996,1.3692,0.1048,-0.60336,-0.01,0,-0.12,90.33
9398,6.2076e+07,0,1.66,-1.14,16.37,-0.0021404,0.0010965,-0.51229,-0.17587,1.3692,0.1048,-0.60489,-0.01,0,-0.12,90.33
9438,6.2086e+07,0,1.66,-1.14,16.37,-0.0021873,0.0010393,-0.51142,-0.17946,1.3692,0.1048,-0.60708,-0.01,0,-0.12,90.33
9479,6.2096e+07,0,1.66,-1.14,16.37,-0.0020443,0.0012157,-0.51112,-0.18139,1.3692,0.1048,-0.61218,-0.01,0,-0.12,90.33
9516,6.2107e+07,0,1.66,-1.14,16.37,-0.0019414,0.0013772,-0.50977,-0.18102,1.3692,0.1048,-0.61289,-0.01,0,-0.11,90.33
9557,6.2117e+07,0,1.66,-1.14,16.37,-0.001907,0.0012336,-0.50849,-0.17557,1.3692,0.1048,-0.61328,-0.01,0,-0.11,90.33
9599,6.2128e+07,0,1.66,-1.14,16.37,-0.0019552,0.0013464,-0.50717,-0.16965,1.3692,0.1048,-0.61387,-0.01,0,-0.11,90.33
9639,6.2138e+07,0,1.66,-1.14,16.37,-0.0020362,0.001148,-0.50605,-0.16164,1.3692,0.1048,-0.61514,-0.01,0,-0.11,90.33
9681,6.2148e+07,0,1.66,-1.14,16.37,-0.0018971,0.0012508,-0.50502,-0.15644,1.3692,0.1048,-0.61609,-0.01,0,-0.11,90.33
9726,6.2158e+07,0,1.66,-1.14,16.37,-0.0019545,0.0012499,-0.50412,-0.15181,1.3692,0.1048,-0.6172,-0.01,0,-0.12,90.33
9767,6.2168e+07,0,1.66,-1.13,16.37,-0.0020298,0.0012818,-0.50326,-0.15002,1.3692,0.1048,-0.61848,-0.01,0,-0.12,90.33
9809,6.2179e+07,0,1.66,-1.14,16.37,-0.0019742,0.0013914,-0.50245,-0.14775,1.3692,0.1048,-0.62042,-0.01,0,-0.12,90.33
9849,6.219e+07,0,1.66,-1.14,16.37,-0.0021161,0.0013903,-0.5025,-0.14648,1.3692,0.1048,-0.62544,-0.01,0,-0.12,90.33
9890,6.22e+07,0,1.66,-1.14,16.37,-0.0022297,0.0014632,-0.50146,-0.14407,1.3692,0.1048,-0.62585,-0.01,0,-0.12,90.33
9930,6.221e+07,0,1.66,-1.14,16.37,-0.0022197,0.001582,-0.50036,-0.13847,1.3692,0.1048,-0.62647,-0.01,0,-0.11,90.33
9971,6.222e+07,0,1.66,-1.13,16.37,-0.0022969,0.0015783,-0.49924,-0.13219,1.3692,0.1048,-0.62629,-0.01,0,-0.12,90.33
10012,6.223e+07,0,1.66,-1.13,16.37,-0.0022789,0.0015388,-0.49804,-0.12525,1.3692,0.1048,-0.6273,-0.01,0,-0.12,90.33
10054,6.224e+07,0,1.66,-1.13,16.37,-0.002311,0.0016212,-0.49673,-0.12568,1.3247,0.11286,-0.62798,-0.01,0,-0.11,90.33
10096,6.2251e+07,0,1.66,-1.13,16.37,-0.0023785,0.0015338,-0.49666,-0.12309,1.3247,0.11286,-0.63294,-0.01,0,-0.11,90.33
10140,6.2261e+07,0,1.67,-1.13,16.37,-0.0024167,0.0014528,-0.4954,-0.12326,1.3247,0.11286,-0.63378,-0.01,0,-0.11,90.33
10181,6.2271e+07,0,1.66,-1.13,16.37,-0.0024093,0.0012289,-0.49425,-0.12466,1.3247,0.11286,-0.63478,-0.01,0,-0.11,90.33
10223,6.2281e+07,0,1.67,-1.13,16.37,-0.0024912,0.0011391,-0.49326,-0.12943,1.3247,0.11286,-0.63593,-0.01,0,-0.11,90.33
10264,6.2291e+07,0,1.66,-1.13,16.37,-0.0024829,0.0010317,-0.49243,-0.13535,1.3247,0.11286,-0.63724,-0.01,0,-0.11,90.33
10305,6.2304e+07,0,1.66,-1.13,16.37,-0.0025144,0.00075262,-0.49131,-0.13718,1.3247,0.11286,-0.63925,-0.01,0,-0.11,90.33
10345,6.2315e+07,0,1.66,-1.13,16.37,-0.0023741,0.00069458,-0.49004,-0.13535,1.3247,0.11286,-0.6395,-0.01,0,-0.11,90.33
10386,6.2325e+07,0,1.66,-1.13,16.37,-0.0023855,0.00082554,-0.48886,-0.13342,1.3247,0.11286,-0.63993,-0.01,0,-0.11,90.33
10426,6.2335e+07,0,1.66,-1.13,16.37,-0.0023325,0.00086569,-0.48766,-0.12809,1.3247,0.11286,-0.64104,-0.01,0,-0.11,90.33
10467,6.2346e+07,0,1.66,-1.13,16.37,-0.0023888,0.00079427,-0.48769,-0.1226,1.3247,0.11286,-0.64591,-0.01,0,-0.11,90.33
10507,6.2356e+07,0,1.66,-1.13,16.37,-0.0023868,0.00071564,-0.48668,-0.12084,1.3247,0.11286,-0.64669,-0.01,0,-0.11,90.33
10561,6.2386e+07,0,1.66,-1.13,16.37,-0.0023194,0.0009722,-0.48386,-0.12544,1.3247,0.11286,-0.65048,-0.01,0,-0.11,90.33
10606,6.2399e+07,0,1.66,-1.13,16.37,-0.0023023,0.0010126,-0.48265,-0.12824,1.3247,0.11286,-0.65122,-0.01,0,-0.11,90.33
10646,6.2409e+07,0,1.66,-1.13,16.37,-0.0024083,0.00094083,-0.48131,-0.1241,1.3247,0.11286,-0.65075,-0.01,0,-0.11,90.33
10684,6.242e+07,0,1.66,-1.13,16.37,-0.0024587,0.00094912,-0.48016,-0.11904,1.3247,0.11286,-0.65096,-0.01,0,-0.11,90.33
10725,6.243e+07,0,1.66,-1.13,16.37,-0.0023828,0.00077779,-0.48015,-0.11023,1.3247,0.11286,-0.65576,-0.01,0,-0.11,90.33
10767,6.2441e+07,0,1.67,-1.13,16.37,-0.00254,0.00072939,-0.47882,-0.10383,1.3024,0.12898,-0.65567,-0.01,0,-0.11,90.33
10808,6.245e+07,0,1.67,-1.14,16.37,-0.0027214,0.00063795,-0.47766,-0.098449,1.3024,0.12898,-0.65579,-0.01,0,-0.11,90.33
10848,6.246e+07,0,1.67,-1.14,16.37,-0.002765,0.00049906,-0.47676,-0.096985,1.3024,0.12898,-0.65609,-0.01,0,-0.11,90.33
10893,6.2471e+07,0,1.66,-1.14,16.37,-0.0027185,0.00031165,-0.4756,-0.096538,1.3024,0.12898,-0.65657,-0.01,0,-0.11,90.33
10934,6.2481e+07,0,1.66,-1.13,16.37,-0.002681,0.000327,-0.4744,-0.094059,1.3024,0.12898,-0.6577,-0.01,0,-0.11,90.33
10975,6.2492e+07,0,1.66,-1.13,16.37,-0.0027844,0.00035476,-0.47436,-0.091825,1.3024,0.12898,-0.66244,-0.01,0,-0.11,90.33
11017,6.2502e+07,0,1.66,-1.13,16.37,-0.0028679,0.00038876,-0.47348,-0.093656,1.3024,0.12898,-0.66325,-0.01,0,-0.11,90.33
11051,6.2512e+07,0,1.66,-1.13,16.37,-0.0029929,0.00039868,-0.472,-0.091523,1.3024,0.12898,-0.66252,-0.01,0,-0.11,90.33
11092,6.2522e+07,0,1.66,-1.13,16.37,-0.0032022,0.00055363,-0.47087,-0.08366,1.3024,0.12898,-0.66157,-0.01,0,-0.11,90.33
11132,6.2533e+07,0,1.66,-1.13,16.37,-0.0032754,0.00074081,-0.46979,-0.071283,1.3024,0.12898,-0.66133,-0.01,0,-0.11,90.33
11173,6.2543e+07,0,1.66,-1.13,16.37,-0.003456,0.00051221,-0.4687,-0.064127,1.3024,0.12898,-0.66082,-0.01,0,-0.11,90.33
11214,6.2554e+07,0,1.67,-1.13,16.37,-0.0034336,0.00031631,-0.46737,-0.058184,1.3024,0.12898,-0.66053,-0.01,0,-0.11,90.33
11255,6.2564e+07,0,1.67,-1.13,16.37,-0.0033102,0.00037131,-0.46614,-0.049656,1.3024,0.12898,-0.66091,-0.01,0,-0.11,90.33
11300,6.2575e+07,0,1.67,-1.13,16.37,-0.0034122,0.00026718,-0.46627,-0.042213,1.3024,0.12898,-0.66557,-0.01,0,-0.11,90.33
11341,6.2584e+07,0,1.67,-1.13,16.37,-0.003394,0.00031185,-0.4655,-0.039946,1.3024,0.12898,-0.66566,-0.01,0,-0.11,90.33
11384,6.2595e+07,0,1.67,-1.13,16.37,-0.0034623,6.7241e-05,-0.46442,-0.045309,1.3024,0.12898,-0.66638,-0.01,0,-0.11,90.33
11427,6.2611e+07,0,1.67,-1.13,16.37,-0.0033347,0.00012517,-0.46292,-0.049219,1.3024,0.12898,-0.66712,-0.01,0,-0.11,90.33
11468,6.2621e+07,0,1.67,-1.13,16.37,-0.0034029,9.8758e-05,-0.46155,-0.049544,1.3024,0.12898,-0.66578,-0.01,0,-0.11,90.33
11511,6.2631e+07,0,1.66,-1.13,16.37,-0.003365,4.3446e-05,-0.46021,-0.047604,1.269,0.12898,-0.66513,-0.01,0,-0.11,90.33
11551,6.2641e+07,0,1.66,-1.13,16.37,-0.0032916,8.4023e-05,-0.46007,-0.039941,1.269,0.12898,-0.66973,-0.01,0,-0.11,90.33
11592,6.2651e+07,0,1.66,-1.13,16.37,-0.0033369,8.8334e-05,-0.45863,-0.032257,1.269,0.12898,-0.66884,-0.01,0,-0.11,90.33
11632,6.2661e+07,0,1.66,-1.13,16.37,-0.0032923,0.00018664,-0.45736,-0.028078,1.269,0.12898,-0.66817,-0.01,0,-0.11,90.33
11677,6.2671e+07,0,1.66,-1.13,16.37,-0.0033386,0.00041119,-0.45657,-0.025477,1.269,0.12898,-0.66772,-0.01,0,-0.11,90.33
11718,6.2681e+07,0,1.66,-1.13,16.37,-0.0032334,0.00054226,-0.4554,-0.026715,1.269,0.12898,-0.66747,-0.01,0,-0.11,90.33
11759,6.2692e+07,0,1.66,-1.13,16.37,-0.0034141,0.00056067,-0.45533,-0.024687,1.269,0.12898,-0.67202,-0.01,0,-0.11,90.33
11801,6.2702e+07,0,1.66,-1.13,16.37,-0.0033701,0.00060784,-0.45418,-0.026253,1.269,0.12898,-0.67195,-0.01,0,-0.11,90.33
11836,6.2713e+07,0,1.66,-1.13,16.37,-0.0033804,0.00057505,-0.45292,-0.025038,1.269,0.12898,-0.67084,-0.01,0,-0.11,90.33
11876,6.2722e+07,0,1.67,-1.13,16.37,-0.0034867,0.00049615,-0.45153,-0.026386,1.269,0.12898,-0.66951,-0.01,0,-0.11,90.33
11918,6.2733e+07,0,1.67,-1.13,16.37,-0.0038086,0.00032715,-0.45004,-0.026156,1.269,0.12898,-0.66886,-0.01,0,-0.11,90.33
11959,6.2744e+07,0,1.67,-1.13,16.37,-0.0037908,0.00038875,-0.44973,-0.020503,1.269,0.12898,-0.67335,-0.01,0,-0.11,90.33
11999,6.2753e+07,0,1.67,-1.13,16.37,-0.0038426,0.00029586,-0.44832,-0.017305,1.269,0.12898,-0.67246,-0.01,0,-0.11,90.33
12040,6.2764e+07,0,1.67,-1.13,16.37,-0.003998,0.00030328,-0.44723,-0.014891,1.269,0.12898,-0.6718,-0.01,0,-0.11,90.33
12089,6.2774e+07,0,1.67,-1.13,16.37,-0.0041557,0.00010609,-0.44608,-0.016042,1.269,0.12898,-0.67134,-0.01,0,-0.11,90.33
12129,6.2784e+07,0,1.67,-1.13,16.37,-0.0043293,0.00020831,-0.44477,-0.019144,1.269,0.12898,-0.67153,-0.01,0,-0.11,90.33
12171,6.2795e+07,0,1.67,-1.13,16.37,-0.0042761,0.00029548,-0.44449,-0.019486,1.269,0.12898,-0.67597,-0.01,0,-0.11,90.33
12212,6.2805e+07,0,1.67,-1.13,16.37,-0.0043424,0.00041752,-0.44321,-0.023008,1.269,0.12898,-0.67588,-0.01,0,-0.11,90.33
12253,6.2816e+07,0,1.66,-1.13,16.37,-0.0044603,0.00044906,-0.44143,-0.022078,1.269,0.12898,-0.67432,-0.01,0,-0.11,90.33
12293,6.2825e+07,0,1.66,-1.13,16.37,-0.0044563,0.00042704,-0.43987,-0.022812,1.269,0.12898,-0.67256,-0.01,0,-0.11,90.33
12336,6.2836e+07,0,1.66,-1.13,16.37,-0.0045927,0.00057682,-0.43814,-0.020114,1.2468,0.12898,-0.67105,-0.01,0,-0.11,90.33
12377,6.2846e+07,0,1.66,-1.13,16.37,-0.0047632,0.0006315,-0.43759,-0.010244,1.2468,0.12898,-0.67586,-0.01,0,-0.11,90.33
12417,6.2856e+07,0,1.66,-1.13,16.37,-0.004827,0.00036265,-0.43655,-0.0057862,1.2468,0.12898,-0.67456,-0.01,0,-0.11,90.33
12458,6.2866e+07,0,1.66,-1.13,16.37,-0.0048873,0.00045917,-0.43509,-0.00104,1.2468,0.12898,-0.67351,-0.01,0,-0.11,90.33
12503,6.2876e+07,0,1.66,-1.13,16.37,-0.0049539,0.00046327,-0.43376,-5.2016e-05,1.2468,0.12898,-0.67268,-0.01,0,-0.11,90.33
12544,6.2887e+07,0,1.66,-1.13,16.37,-0.0049815,0.00026512,-0.43259,-0.0011496,1.2468,0.12898,-0.67249,-0.01,0,-0.11,90.33
12584,6.2897e+07,0,1.66,-1.13,16.37,-0.0049582,0.00017844,-0.43236,0.00055034,1.2468,0.12898,-0.67681,-0.01,0,-0.11,90.33
12625,6.2907e+07,0,1.66,-1.13,16.37,-0.0051414,5.4395e-05,-0.43114,-0.0012433,1.2468,0.12898,-0.67638,-0.01,0,-0.11,90.33
12664,6.2919e+07,0,1.66,-1.13,16.37,-0.0051592,6.7301e-07,-0.42941,-0.00048134,1.2468,0.12898,-0.674,-0.01,0,-0.11,90.33
12704,6.2929e+07,0,1.66,-1.13,16.37,-0.005128,-0.00015123,-0.42806,0.0026467,1.2468,0.12898,-0.67148,-0.01,0,-0.11,90.33
12746,6.2939e+07,0,1.66,-1.13,16.37,-0.0052205,-0.00031433,-0.42637,0.0093914,1.2468,0.12898,-0.66967,-0.01,0,-0.11,90.33
12786,6.295e+07,0,1.66,-1.13,16.37,-0.0052182,-0.00036124,-0.42622,0.022135,1.2468,0.12898,-0.67393,-0.01,0,-0.11,90.33
12827,6.296e+07,0,1.66,-1.13,16.37,-0.0052542,-0.00037703,-0.42485,0.032847,1.2468,0.12898,-0.67237,-0.01,0,-0.11,90.33
12867,6.297e+07,0,1.66,-1.13,16.37,-0.005245,-0.00057823,-0.42311,0.040382,1.2468,0.12898,-0.67064,-0.01,0,-0.11,90.33
12914,6.298e+07,0,1.66,-1.13,16.37,-0.0053299,-0.00054107,-0.42165,0.046578,1.2468,0.12898,-0.66916,-0.01,0,-0.11,90.33
12955,6.299e+07,0,1.66,-1.13,16.37,-0.0053429,-0.00065805,-0.42015,0.048059,1.2468,0.12898,-0.66792,-0.01,0,-0.11,90.33
12995,6.3001e+07,0,1.66,-1.13,16.37,-0.0051971,-0.00080546,-0.42016,0.052908,1.2468,0.12898,-0.67211,-0.01,0,-0.11,90.33
13036,6.3011e+07,0,1.66,-1.13,16.37,-0.0052814,-0.00075061,-0.41906,0.05339,1.2468,0.12898,-0.67108,-0.01,0,-0.11,90.33
13070,6.3021e+07,0,1.66,-1.13,16.37,-0.0054606,-0.00071527,-0.41727,0.058817,1.2468,0.12898,-0.6683,-0.01,0,-0.11,90.33
13110,6.3032e+07,0,1.66,-1.13,16.37,-0.005562,-0.00067482,-0.41545,0.054725,1.2468,0.12898,-0.66536,-0.01,0,-0.11,90.33
13152,6.3042e+07,0,1.66,-1.13,16.37,-0.0056325,-0.00069261,-0.41365,0.062507,1.2245,0.13704,-0.66315,-0.01,0,-0.11,90.33
13194,6.3052e+07,0,1.66,-1.13,16.37,-0.0057875,-0.00089473,-0.41339,0.075576,1.2245,0.13704,-0.66728,-0.01,0,-0.11,90.33
13236,6.3062e+07,0,1.66,-1.13,16.37,-0.0057984,-0.00095769,-0.41169,0.085261,1.2245,0.13704,-0.66492,-0.01,0,-0.11,90.33
13276,6.3072e+07,0,1.66,-1.13,16.37,-0.0057382,-0.00097008,-0.41019,0.093618,1.2245,0.13704,-0.66283,-0.01,0,-0.11,90.33
13321,6.3082e+07,0,1.66,-1.13,16.37,-0.0058079,-0.0010386,-0.40877,0.096937,1.2245,0.13704,-0.66101,-0.01,0,-0.11,90.33
13361,6.3093e+07,0,1.66,-1.13,16.37,-0.0058277,-0.0011832,-0.40742,0.097461,1.2245,0.13704,-0.65984,-0.01,0,-0.11,90.33
13402,6.3104e+07,0,1.66,-1.13,16.37,-0.0057369,-0.001201,-0.40743,0.10015,1.2245,0.13704,-0.66391,-0.01,0,-0.11,90.33
13443,6.3114e+07,0,1.66,-1.13,16.37,-0.0057052,-0.0014459,-0.40617,0.098552,1.2245,0.13704,-0.66255,-0.01,0,-0.11,90.33
13478,6.3124e+07,0,1.66,-1.13,16.37,-0.0057508,-0.0016219,-0.40462,0.10067,1.2245,0.13704,-0.65973,-0.01,0,-0.11,90.33
13520,6.3134e+07,0,1.66,-1.13,16.37,-0.0057146,-0.0017293,-0.4031,0.10305,1.2245,0.13704,-0.65679,-0.01,0,-0.11,90.33
13560,6.3145e+07,0,1.66,-1.13,16.37,-0.0058548,-0.0016062,-0.40146,0.11152,1.2245,0.13704,-0.65497,-0.01,0,-0.11,90.33
13601,6.3155e+07,0,1.66,-1.13,16.37,-0.0058334,-0.0014916,-0.39985,0.11387,1.2245,0.13704,-0.65224,-0.01,0,-0.11,90.33
13642,6.3165e+07,0,1.66,-1.13,16.37,-0.0058585,-0.0014606,-0.39836,0.12265,1.2245,0.13704,-0.65059,-0.01,0,-0.11,90.33
13683,6.3175e+07,0,1.66,-1.13,16.37,-0.0059058,-0.0015436,-0.39809,0.13158,1.2245,0.13704,-0.65457,-0.01,0,-0.11,90.33
13727,6.3185e+07,0,1.66,-1.13,16.36,-0.0060044,-0.0016248,-0.39658,0.13687,1.2245,0.13704,-0.65277,-0.01,0,-0.11,90.33
13768,6.3195e+07,0,1.66,-1.13,16.36,-0.0059492,-0.0017477,-0.39527,0.14032,1.2245,0.13704,-0.65123,-0.01,0,-0.11,90.33
13811,6.3205e+07,0,1.66,-1.13,16.37,-0.0057907,-0.0017691,-0.39393,0.13965,1.2245,0.13704,-0.64993,-0.01,0,-0.11,90.33
13848,6.3216e+07,0,1.66,-1.13,16.37,-0.0057727,-0.0017111,-0.39234,0.13802,1.2245,0.13704,-0.64672,-0.01,0,-0.11,90.33
13892,6.3228e+07,0,1.66,-1.13,16.37,-0.0058571,-0.001919,-0.3905,0.14632,1.2245,0.13704,-0.645,-0.01,0,-0.11,90.33
13934,6.3239e+07,0,1.66,-1.13,16.37,-0.0059684,-0.0018597,-0.3889,0.14846,1.2245,0.13704,-0.64238,-0.01,0,-0.11,90.33
13976,6.325e+07,0,1.66,-1.13,16.37,-0.0060243,-0.0018997,-0.38874,0.14864,1.18,0.15316,-0.64665,-0.01,0,-0.11,90.33
14018,6.326e+07,0,1.66,-1.13,16.37,-0.0061143,-0.0018387,-0.38715,0.14547,1.18,0.15316,-0.64424,-0.01,0,-0.11,90.33
14060,6.327e+07,0,1.66,-1.13,16.37,-0.0061156,-0.001794,-0.38551,0.14273,1.18,0.15316,-0.64211,-0.01,0,-0.11,90.33
14102,6.328e+07,0,1.66,-1.13,16.37,-0.006071,-0.001948,-0.38418,0.13625,1.18,0.15316,-0.64023,-0.01,0,-0.11,90.33
14146,6.329e+07,0,1.66,-1.13,16.37,-0.0061366,-0.0019531,-0.38291,0.12919,1.18,0.15316,-0.6386,-0.01,0,-0.11,90.33
14187,6.33e+07,0,1.66,-1.13,16.37,-0.0061364,-0.0019225,-0.38146,0.12516,1.18,0.15316,-0.63761,-0.01,0,-0.11,90.33
14227,6.3311e+07,0,1.66,-1.13,16.37,-0.006095,-0.0019179,-0.3814,0.1224,1.18,0.15316,-0.64142,-0.01,0,-0.11,90.33
14269,6.3321e+07,0,1.66,-1.13,16.37,-0.0061281,-0.0019756,-0.38013,0.11525,1.18,0.15316,-0.64025,-0.01,0,-0.11,90.33
14310,6.3331e+07,0,1.66,-1.13,16.37,-0.006024,-0.0019489,-0.37859,0.11106,1.18,0.15316,-0.63713,-0.01,0,-0.11,90.33
14350,6.3341e+07,0,1.66,-1.13,16.37,-0.0061476,-0.0019459,-0.377,0.10754,1.18,0.15316,-0.6343,-0.01,0,-0.11,90.33
14392,6.3351e+07,0,1.66,-1.13,16.37,-0.0062128,-0.0020002,-0.3754,0.10652,1.18,0.15316,-0.63175,-0.01,0,-0.11,90.33
14432,6.3361e+07,0,1.66,-1.13,16.37,-0.0061958,-0.002065,-0.37507,0.11241,1.18,0.15316,-0.63549,-0.01,0,-0.11,90.33
14474,6.3371e+07,0,1.66,-1.13,16.37,-0.0060547,-0.001959,-0.37324,0.11524,1.18,0.15316,-0.63319,-0.01,0,-0.11,90.33
14514,6.3381e+07,0,1.66,-1.13,16.37,-0.0058966,-0.0020097,-0.37176,0.11685,1.18,0.15316,-0.63115,-0.01,0,-0.11,90.33
14559,6.3391e+07,0,1.66,-1.13,16.37,-0.0058475,-0.0021986,-0.3705,0.11395,1.18,0.15316,-0.62935,-0.01,0,-0.11,90.33
14600,6.3401e+07,0,1.66,-1.13,16.37,-0.0059645,-0.0022188,-0.36929,0.10973,1.18,0.15316,-0.62779,-0.01,0,-0.11,90.33
14640,6.3411e+07,0,1.66,-1.13,16.37,-0.0059663,-0.0023877,-0.36799,0.10793,1.18,0.15316,-0.62685,-0.01,0,-0.11,90.33
14681,6.3422e+07,0,1.66,-1.13,16.37,-0.0060488,-0.0023797,-0.36772,0.10697,1.18,0.15316,-0.63052,-0.01,0,-0.11,90.33
14718,6.3433e+07,0,1.66,-1.13,16.37,-0.0061644,-0.0024617,-0.36581,0.10011,1.18,0.15316,-0.62747,-0.01,0,-0.11,90.33
14761,6.3443e+07,0,1.66,-1.13,16.37,-0.0063048,-0.0024833,-0.36407,0.096606,1.18,0.15316,-0.62434,-0.01,0,-0.11,90.33
14798,6.3454e+07,0,1.66,-1.13,16.37,-0.0062847,-0.0025917,-0.36245,0.10201,1.1355,0.16929,-0.62189,-0.01,0,-0.11,90.33
14840,6.3464e+07,0,1.66,-1.13,16.37,-0.0065329,-0.0026086,-0.36104,0.10621,1.1355,0.16929,-0.61936,-0.01,0,-0.11,90.33
14881,6.3474e+07,0,1.66,-1.13,16.37,-0.0064719,-0.0024995,-0.3595,0.11566,1.1355,0.16929,-0.61747,-0.01,0,-0.11,90.33
14921,6.3485e+07,0,1.66,-1.13,16.37,-0.0064397,-0.0024287,-0.35923,0.12509,1.1355,0.16929,-0.62106,-0.01,0,-0.11,90.33
14967,6.3495e+07,0,1.66,-1.13,16.37,-0.0064103,-0.0023949,-0.35789,0.12888,1.1355,0.16929,-0.61903,-0.01,0,-0.11,90.33
15007,6.3505e+07,0,1.66,-1.13,16.37,-0.0065259,-0.0023083,-0.35654,0.13006,1.1355,0.16929,-0.61726,-0.01,0,-0.11,90.33
15048,6.3515e+07,0,1.66,-1.13,16.37,-0.006543,-0.0022862,-0.35534,0.12586,1.1355,0.16929,-0.61571,-0.01,0,-0.11,90.33
15091,6.3527e+07,0,1.66,-1.13,16.37,-0.006611,-0.0023318,-0.3536,0.12343,1.1355,0.16929,-0.61391,-0.01,0,-0.11,90.33
15132,6.3538e+07,0,1.66,-1.13,16.37,-0.006644,-0.0022462,-0.3518,0.12535,1.1355,0.16929,-0.61133,-0.01,0,-0.11,90.33
15174,6.3548e+07,0,1.66,-1.13,16.37,-0.0067207,-0.0023085,-0.35037,0.12655,1.1355,0.16929,-0.60901,-0.01,0,-0.11,90.33
15214,6.3558e+07,0,1.66,-1.13,16.37,-0.0066853,-0.0023642,-0.34924,0.13125,1.1355,0.16929,-0.60732,-0.01,0,-0.11,90.33
15256,6.3569e+07,0,1.66,-1.13,16.37,-0.0067945,-0.0024849,-0.34922,0.13649,1.1355,0.16929,-0.61081,-0.01,0,-0.11,90.33
15297,6.3579e+07,0,1.66,-1.13,16.37,-0.0067587,-0.0023783,-0.34787,0.13636,1.1355,0.16929,-0.60933,-0.01,0,-0.11,90.33
15339,6.3589e+07,0,1.66,-1.13,16.37,-0.0069399,-0.0023671,-0.34664,0.13206,1.1355,0.16929,-0.60773,-0.01,0,-0.11,90.33
15384,6.3599e+07,0,1.66,-1.13,16.37,-0.0068874,-0.0025517,-0.34532,0.12603,1.1355,0.16929,-0.60636,-0.01,0,-0.11,90.33
15424,6.361e+07,0,1.66,-1.13,16.37,-0.006964,-0.0026491,-0.34427,0.11981,1.1355,0.16929,-0.60521,-0.01,0,-0.11,90.33
15465,6.362e+07,0,1.66,-1.13,16.37,-0.0070349,-0.002734,-0.34397,0.11124,1.1355,0.16929,-0.60864,-0.01,0,-0.11,90.33
15507,6.363e+07,0,1.66,-1.13,16.37,-0.0070563,-0.0027902,-0.34286,0.09832,1.1355,0.16929,-0.608,-0.01,0,-0.11,90.33
15542,6.3641e+07,0,1.66,-1.13,16.37,-0.0071998,-0.00295,-0.34121,0.094023,1.0909,0.17735,-0.60549,-0.01,0,-0.11,90.33
15583,6.3651e+07,0,1.66,-1.13,16.37,-0.0071083,-0.0029794,-0.33965,0.096548,1.0909,0.17735,-0.60292,-0.01,0,-0.11,90.33
15624,6.3662e+07,0,1.66,-1.13,16.37,-0.007043,-0.0029956,-0.3382,0.099559,1.0909,0.17735,-0.60062,-0.01,0,-0.11,90.33
15665,6.3672e+07,0,1.66,-1.13,16.37,-0.007244,-0.0028292,-0.33688,0.09922,1.0909,0.17735,-0.59855,-0.01,0,-0.11,90.33
15706,6.3682e+07,0,1.66,-1.13,16.37,-0.0072015,-0.0028651,-0.33567,0.098164,1.0909,0.17735,-0.59673,-0.01,0,-0.11,90.33
15747,6.3692e+07,0,1.66,-1.13,16.37,-0.0072784,-0.002846,-0.33556,0.10084,1.0909,0.17735,-0.60008,-0.01,0,-0.11,90.33
15792,6.3702e+07,0,1.66,-1.13,16.37,-0.0073267,-0.0028191,-0.33436,0.099623,1.0909,0.17735,-0.59846,-0.01,0,-0.11,90.33
15833,6.3712e+07,0,1.66,-1.13,16.37,-0.007525,-0.0028484,-0.33292,0.097149,1.0909,0.17735,-0.59706,-0.01,0,-0.11,90.33
15875,6.3722e+07,0,1.66,-1.13,16.37,-0.0074002,-0.0028994,-0.33161,0.090607,1.0909,0.17735,-0.59586,-0.01,0,-0.11,90.33
15915,6.3734e+07,0,1.66,-1.13,16.37,-0.0074458,-0.002783,-0.32996,0.086291,1.0909,0.17735,-0.59379,-0.01,0,-0.11,90.33
15956,6.3744e+07,0,1.66,-1.13,16.37,-0.0073751,-0.0025939,-0.32827,0.083508,1.0909,0.17735,-0.591,-0.01,0,-0.11,90.33
15996,6.3755e+07,0,1.66,-1.13,16.37,-0.0073224,-0.0023909,-0.32839,0.089094,1.0909,0.17735,-0.59428,-0.01,0,-0.11,90.33
16039,6.3765e+07,0,1.66,-1.13,16.37,-0.0072596,-0.0025348,-0.32683,0.093561,1.0909,0.17735,-0.59173,-0.01,0,-0.11,90.33
16082,6.3775e+07,0,1.66,-1.13,16.37,-0.0071142,-0.002548,-0.32531,0.098231,1.0909,0.17735,-0.58944,-0.01,0,-0.11,90.33
16122,6.3785e+07,0,1.66,-1.13,16.37,-0.0071937,-0.0024041,-0.32346,0.099783,1.0909,0.17735,-0.58738,-0.01,0,-0.11,90.33
16172,6.3797e+07,0,1.66,-1.13,16.37,-0.0071032,-0.0023944,-0.32191,0.10378,1.0909,0.17735,-0.58651,-0.01,0,-0.11,90.33
16212,6.3807e+07,0,1.66,-1.13,16.37,-0.007162,-0.0024144,-0.32063,0.10087,1.0909,0.17735,-0.58489,-0.01,0,-0.11,90.33
16253,6.3818e+07,0,1.66,-1.13,16.37,-0.0070467,-0.0025341,-0.31918,0.10074,1.0909,0.17735,-0.58381,-0.01,0,-0.11,90.33
16293,6.3828e+07,0,1.66,-1.13,16.37,-0.0069474,-0.0025862,-0.31883,0.1013,1.0909,0.17735,-0.587,-0.01,0,-0.11,90.33
16336,6.3841e+07,0,1.66,-1.13,16.37,-0.0070774,-0.0025766,-0.31679,0.10394,1.0575,0.18541,-0.58458,-0.01,0,-0.11,90.33
16378,6.3851e+07,0,1.66,-1.13,16.37,-0.007087,-0.0024496,-0.31528,0.10963,1.0575,0.18541,-0.58148,-0.01,0,-0.11,90.33
16418,6.3862e+07,0,1.66,-1.13,16.37,-0.0070813,-0.0023771,-0.31364,0.11673,1.0575,0.18541,-0.57865,-0.01,0,-0.11,90.33
16459,6.3872e+07,0,1.66,-1.13,16.37,-0.0070502,-0.0022407,-0.31203,0.12076,1.0575,0.18541,-0.57608,-0.01,0,-0.11,90.33
16500,6.3882e+07,0,1.66,-1.13,16.38,-0.0069011,-0.0021386,-0.31072,0.12395,1.0575,0.18541,-0.57375,-0.01,0,-0.11,90.33
16542,6.3892e+07,0,1.66,-1.13,16.38,-0.0068496,-0.0021535,-0.30968,0.13069,1.0575,0.18541,-0.57169,-0.01,0,-0.11,90.33
16588,6.3902e+07,0,1.66,-1.13,16.38,-0.0067738,-0.0022522,-0.30964,0.13871,1.0575,0.18541,-0.5751,-0.01,0,-0.11,90.33
16628,6.3912e+07,0,1.66,-1.13,16.38,-0.0069917,-0.0021697,-0.30861,0.1413,1.0575,0.18541,-0.57325,-0.01,0,-0.11,90.33
16669,6.3922e+07,0,1.66,-1.13,16.38,-0.0070572,-0.0022288,-0.30743,0.1391,1.0575,0.18541,-0.57161,-0.01,0,-0.11,90.33
16710,6.3932e+07,0,1.66,-1.13,16.38,-0.0071614,-0.0023806,-0.30628,0.13468,1.0575,0.18541,-0.57018,-0.01,0,-0.11,90.33
16748,6.3943e+07,0,1.66,-1.13,16.38,-0.0071572,-0.0024089,-0.3044,0.13341,1.0575,0.18541,-0.5673,-0.01,0,-0.11,90.33
16788,6.3954e+07,0,1.66,-1.13,16.38,-0.0072186,-0.0025682,-0.30286,0.13702,1.0575,0.18541,-0.5644,-0.01,0,-0.11,90.33
16829,6.3964e+07,0,1.66,-1.13,16.37,-0.0071684,-0.0025636,-0.30165,0.14042,1.0575,0.18541,-0.56175,-0.01,0,-0.11,90.33
16870,6.3974e+07,0,1.66,-1.13,16.37,-0.0070639,-0.0025144,-0.30145,0.14848,1.0575,0.18541,-0.56477,-0.01,0,-0.11,90.33
16910,6.3984e+07,0,1.66,-1.13,16.37,-0.0071509,-0.0026255,-0.30009,0.15234,1.0575,0.18541,-0.56235,-0.01,0,-0.11,90.33
16951,6.3994e+07,0,1.66,-1.13,16.37,-0.0072617,-0.0026739,-0.29873,0.15447,1.0575,0.18541,-0.56017,-0.01,0,-0.11,90.33
16995,6.4004e+07,0,1.66,-1.13,16.37,-0.0072115,-0.0026012,-0.29752,0.15192,1.0575,0.18541,-0.55821,-0.01,0,-0.11,90.33
17038,6.4014e+07,0,1.66,-1.13,16.38,-0.0072891,-0.0027454,-0.2964,0.14636,1.0575,0.18541,-0.55675,-0.01,0,-0.11,90.33
17078,6.4025e+07,0,1.66,-1.13,16.38,-0.0073268,-0.0026169,-0.29613,0.14357,1.0575,0.18541,-0.55971,-0.01,0,-0.11,90.33
17119,6.4035e+07,0,1.66,-1.13,16.38,-0.0073984,-0.0027179,-0.29458,0.13766,1.0575,0.18541,-0.55814,-0.01,0,-0.1,90.33
17160,6.4045e+07,0,1.66,-1.13,16.38,-0.043031,0.039985,-0.29271,0.12746,1.0129,0.20165,-0.55493,-0.01,0,-0.1,90.33
17197,6.4056e+07,0,1.66,-1.13,16.38,-0.042989,0.040025,-0.29101,0.12444,1.0124,0.20215,-0.55229,-0.01,0,-0.1,90.33
17239,6.4066e+07,0,1.66,-1.13,16.38,-0.042779,0.039981,-0.28915,0.12414,1.012,0.20258,-0.54933,-0.01,0,-0.1,90.33
17279,6.4077e+07,0,1.66,-1.13,16.38,-0.042759,0.039861,-0.28765,0.13061,1.0115,0.20309,-0.54693,-0.01,0,-0.1,90.33
17320,6.4088e+07,0,1.66,-1.13,16.38,-0.042924,0.039876,-0.28735,0.13962,1.011,0.20348,-0.5498,-0.01,0,-0.1,90.33
17361,6.4098e+07,0,1.66,-1.13,16.38,-0.042897,0.039855,-0.286,0.14287,1.0105,0.20401,-0.5476,-0.01,0,-0.1,90.33
17405,6.4109e+07,0,1.66,-1.13,16.38,-0.042888,0.039526,-0.28464,0.14501,1.01,0.20451,-0.54536,-0.01,0,-0.1,90.33
17448,6.4119e+07,0,1.66,-1.13,16.38,-0.042698,0.039451,-0.28316,0.14829,1.0094,0.20507,-0.54364,-0.01,0,-0.1,90.33
17488,6.4129e+07,0,1.66,-1.13,16.38,-0.042571,0.039388,-0.28196,0.14814,1.0089,0.20561,-0.54186,-0.01,0,-0.1,90.33
17529,6.4139e+07,0,1.66,-1.13,16.38,-0.042542,0.039499,-0.28014,0.14324,1.0083,0.20617,-0.53851,-0.01,0,-0.1,90.33
17570,6.415e+07,0,1.66,-1.13,16.38,-0.042755,0.03948,-0.27873,0.14722,1.0077,0.20677,-0.53574,-0.01,0,-0.1,90.33
17610,6.4161e+07,0,1.66,-1.13,16.38,-0.042848,0.039424,-0.27815,0.15603,1.0073,0.20716,-0.53852,-0.01,0,-0.1,90.33
17652,6.4171e+07,0,1.66,-1.13,16.38,-0.042862,0.03942,-0.27671,0.16129,1.0067,0.20771,-0.53569,-0.01,0,-0.1,90.33
17692,6.4181e+07,0,1.66,-1.13,16.38,-0.042815,0.039631,-0.27526,0.16397,1.0061,0.20829,-0.53337,-0.01,0,-0.1,90.33
17733,6.4191e+07,0,1.66,-1.13,16.38,-0.042821,0.039814,-0.27408,0.16496,1.0055,0.20883,-0.53101,-0.01,0,-0.1,90.33
17773,6.4201e+07,0,1.66,-1.13,16.38,-0.042794,0.039705,-0.27265,0.16197,1.005,0.20936,-0.52887,-0.01,0,-0.1,90.33
17818,6.4211e+07,0,1.67,-1.13,16.38,-0.042743,0.03978,-0.27218,0.16254,1.0046,0.20975,-0.53159,-0.01,0,-0.1,90.33
17860,6.4221e+07,0,1.67,-1.13,16.38,-0.0428,0.03978,-0.27073,0.16121,1.004,0.21028,-0.52966,-0.01,0,-0.1,90.33
17902,6.4231e+07,0,1.67,-1.13,16.38,-0.042803,0.039463,-0.26946,0.16105,1.0035,0.2108,-0.52795,-0.01,0,-0.1,90.33
17938,6.4242e+07,0,1.67,-1.13,16.38,-0.040613,0.038381,-0.26697,0.16254,1.0022,0.21103,-0.52427,-0.01,0,-0.1,90.33
17978,6.4253e+07,0,1.67,-1.13,16.38,-0.038509,0.037199,-0.26433,0.17427,1.0011,0.21121,-0.51898,-0.01,0,-0.1,90.33
18021,6.4263e+07,0,1.67,-1.13,16.38,-0.036878,0.03623,-0.26201,0.18683,1.0001,0.21138,-0.51401,-0.01,0,-0.1,90.33
18063,6.4273e+07,0,1.67,-1.13,16.38,-0.035037,0.035272,-0.25979,0.20203,0.9991,0.21153,-0.50936,-0.01,0,-0.1,90.33
18103,6.4283e+07,0,1.67,-1.13,16.38,-0.033331,0.034326,-0.25745,0.22586,0.99816,0.21171,-0.50529,-0.01,0,-0.1,90.33
18144,6.4294e+07,0,1.67,-1.13,16.38,-0.033407,0.034399,-0.25722,0.24886,0.99783,0.21205,-0.50786,-0.01,0,-0.1,90.33
18184,6.4304e+07,0,1.67,-1.13,16.38,-0.031711,0.033405,-0.25538,0.26523,0.99701,0.21217,-0.50378,-0.01,0,-0.1,90.33
18230,6.4314e+07,0,1.66,-1.13,16.38,-0.03003,0.032584,-0.25362,0.26966,0.99624,0.21228,-0.49995,-0.01,0,-0.1,90.33
18270,6.4324e+07,0,1.66,-1.13,16.38,-0.028534,0.03187,-0.25178,0.27297,0.99553,0.21239,-0.49639,-0.01,0,-0.1,90.33
18312,6.4334e+07,0,1.66,-1.13,16.38,-0.02687,0.031041,-0.24993,0.27969,0.99485,0.21251,-0.49336,-0.01,0,-0.1,90.33
18353,6.4345e+07,0,1.66,-1.13,16.38,-0.026969,0.031136,-0.24949,0.28628,0.99458,0.21282,-0.49585,-0.01,0,-0.1,90.33
18393,6.4355e+07,0,1.66,-1.13,16.38,-0.025678,0.030256,-0.24742,0.29218,0.99397,0.21293,-0.4914,-0.01,0,-0.1,90.33
18434,6.4365e+07,0,1.66,-1.13,16.38,-0.024385,0.029586,-0.24551,0.29626,0.99343,0.21299,-0.48699,-0.01,0,-0.1,90.33
18474,6.4375e+07,0,1.66,-1.13,16.38,-0.023136,0.028949,-0.24351,0.3005,0.99294,0.21305,-0.48287,-0.01,0,-0.1,90.33
18515,6.4385e+07,0,1.66,-1.13,16.38,-0.022067,0.028121,-0.24165,0.30611,0.99249,0.21311,-0.47905,-0.01,0,-0.1,90.33
18556,6.4396e+07,0,1.66,-1.13,16.38,-0.021028,0.02756,-0.23964,0.30805,0.99206,0.21318,-0.47573,-0.01,0,-0.1,90.33
18598,6.4406e+07,0,1.66,-1.13,16.38,-0.021093,0.027588,-0.23937,0.31133,0.99185,0.21346,-0.47812,-0.01,0,-0.1,90.33
18643,6.4416e+07,0,1.66,-1.13,16.38,-0.020039,0.026933,-0.23765,0.30951,0.99149,0.21349,-0.47478,-0.01,0,-0.1,90.33
18683,6.4426e+07,0,1.66,-1.13,16.38,-0.019,0.026387,-0.23577,0.30566,0.99116,0.21352,-0.47168,-0.01,0,-0.1,90.33
18726,6.4437e+07,0,1.66,-1.13,16.38,-0.018021,0.025809,-0.23423,0.29664,0.99086,0.21355,-0.46881,-0.01,0,-0.1,90.33
18764,6.445e+07,0,1.66,-1.13,16.39,-0.015399,0.025105,-0.23111,0.29412,0.99013,0.21356,-0.46319,-0.01,0,-0.1,90.33
18805,6.446e+07,0,1.66,-1.13,16.39,-0.012838,0.024354,-0.22854,0.30011,0.98956,0.21347,-0.45701,-0.01,0,-0.1,90.33
18846,6.447e+07,0,1.66,-1.13,16.39,-0.010478,0.023793,-0.22587,0.3108,0.98906,0.21338,-0.45119,-0.01,0,-0.1,90.33
18887,6.448e+07,0,1.66,-1.13,16.39,-0.010475,0.023832,-0.22535,0.33087,0.98896,0.21362,-0.45344,-0.01,0,-0.1,90.33
18928,6.449e+07,0,1.66,-1.13,16.39,-0.0080121,0.023231,-0.22275,0.34984,0.98855,0.21352,-0.44793,-0.01,0,-0.1,90.33
18968,6.4501e+07,0,1.66,-1.13,16.39,-0.0057467,0.022532,-0.22034,0.36881,0.98821,0.21343,-0.44277,-0.01,0,-0.1,90.33
19009,6.4511e+07,0,1.66,-1.13,16.39,-0.0036847,0.021818,-0.2182,0.38326,0.98794,0.21333,-0.43791,-0.01,0,-0.1,90.33
19054,6.4521e+07,0,1.66,-1.13,16.39,-0.0016007,0.021206,-0.21556,0.39034,0.98772,0.21324,-0.43333,-0.01,0,-0.1,90.33
19095,6.4531e+07,0,1.66,-1.13,16.39,0.0002815,0.020697,-0.21355,0.39309,0.98756,0.21314,-0.42903,-0.01,0,-0.1,90.33
19135,6.4541e+07,0,1.66,-1.13,16.39,0.0021496,0.020255,-0.21174,0.39731,0.98746,0.21307,-0.42524,-0.01,0,-0.1,90.33
19177,6.4551e+07,0,1.66,-1.13,16.39,0.0019783,0.020189,-0.21156,0.40041,0.98748,0.21328,-0.42735,-0.01,0,-0.1,90.33
19217,6.4561e+07,0,1.66,-1.13,16.39,0.0036939,0.019677,-0.20958,0.40118,0.98744,0.21318,-0.42205,-0.01,0,-0.1,90.33
19258,6.4571e+07,0,1.66,-1.13,16.38,0.0054985,0.019134,-0.20729,0.40245,0.98745,0.21309,-0.41707,-0.01,0,-0.1,90.33
19300,6.4582e+07,0,1.66,-1.13,16.38,0.0068507,0.018687,-0.20535,0.40597,0.9875,0.21302,-0.41261,-0.01,0,-0.1,90.33
19341,6.4592e+07,0,1.66,-1.13,16.38,0.0084012,0.018196,-0.20351,0.40466,0.98757,0.21292,-0.40802,-0.01,0,-0.1,90.33
19382,6.4602e+07,0,1.66,-1.13,16.38,0.0099173,0.017816,-0.20146,0.39987,0.9877,0.21286,-0.40411,-0.01,0,-0.1,90.33
19422,6.4612e+07,0,1.66,-1.13,16.38,0.0099057,0.017813,-0.20101,0.39744,0.9878,0.21304,-0.40612,-0.01,0,-0.1,90.33
19467,6.4622e+07,0,1.66,-1.13,16.38,0.011007,0.017465,-0.19905,0.39234,0.98796,0.21295,-0.40224,-0.01,0,-0.1,90.33
19507,6.4632e+07,0,1.66,-1.13,16.38,0.012227,0.017042,-0.19741,0.38193,0.98815,0.21288,-0.3986,-0.01,0,-0.1,90.33
19548,6.4645e+07,0,1.66,-1.13,16.38,0.013056,0.016881,-0.19455,0.37038,0.98737,0.21314,-0.39349,-0.01,0,-0.1,90.33
19589,6.4655e+07,0,1.66,-1.13,16.38,0.013997,0.016662,-0.19159,0.36487,0.98663,0.21335,-0.38675,-0.01,0,-0.1,90.33
19630,6.4666e+07,0,1.66,-1.13,16.38,0.014795,0.016549,-0.18886,0.36641,0.98594,0.21355,-0.38037,-0.01,0,-0.1,90.33
19671,6.4677e+07,0,1.66,-1.13,16.38,0.015483,0.016327,-0.18614,0.3799,0.98533,0.21377,-0.37454,-0.01,0,-0.1,90.33
19711,6.4688e+07,0,1.66,-1.13,16.37,0.016414,0.016299,-0.18352,0.39746,0.98477,0.21398,-0.36905,-0.01,0,-0.1,90.33
19753,6.4698e+07,0,1.66,-1.13,16.37,0.017203,0.016142,-0.18104,0.41518,0.98427,0.21419,-0.36388,-0.01,0,-0.1,90.33
19793,6.4709e+07,0,1.66,-1.13,16.37,0.016894,0.01604,-0.1804,0.43129,0.98444,0.21435,-0.36569,-0.01,0,-0.1,90.33
19838,6.4719e+07,0,1.66,-1.13,16.37,0.017558,0.015799,-0.17789,0.43982,0.98399,0.21455,-0.36077,-0.01,0,-0.1,90.33
19878,6.473e+07,0,1.66,-1.13,16.37,0.018259,0.015781,-0.17547,0.44636,0.98357,0.21473,-0.35597,-0.01,0,-0.1,90.33
19920,6.474e+07,0,1.66,-1.13,16.37,0.018821,0.015802,-0.17337,0.44538,0.98321,0.21493,-0.35161,-0.01,0,-0.1,90.33
19961,6.475e+07,0,1.66,-1.13,16.37,0.01927,0.015687,-0.17105,0.43795,0.98287,0.21511,-0.34732,-0.01,0,-0.1,90.33
20010,6.4766e+07,0,1.66,-1.13,16.37,0.019799,0.015494,-0.16863,0.42691,0.98268,0.21539,-0.34309,-0.01,0,-0.1,90.33
20051,6.4776e+07,0,1.66,-1.13,16.37,0.020385,0.015326,-0.16649,0.41998,0.9824,0.21556,-0.33813,-0.01,0,-0.1,90.33
20091,6.4786e+07,0,1.66,-1.13,16.37,0.020969,0.015219,-0.16442,0.4157,0.98216,0.21574,-0.33348,-0.01,0,-0.1,90.33
20133,6.4796e+07,0,1.66,-1.13,16.37,0.021303,0.015218,-0.16264,0.40934,0.98196,0.21591,-0.3291,-0.01,0,-0.1,90.33
20174,6.4807e+07,0,1.66,-1.13,16.37,0.021725,0.015192,-0.16082,0.40533,0.9818,0.2161,-0.32515,-0.01,0,-0.1,90.33
20215,6.4818e+07,0,1.66,-1.13,16.37,0.022108,0.01508,-0.15901,0.40095,0.98167,0.21628,-0.32146,-0.01,0,-0.1,90.33
20265,6.4828e+07,0,1.66,-1.13,16.37,0.021973,0.015031,-0.15878,0.39662,0.98189,0.21643,-0.32304,-0.01,0,-0.1,90.33
20299,6.484e+07,0,1.66,-1.13,16.37,0.021273,0.014853,-0.15654,0.38863,0.98055,0.21689,-0.31873,-0.01,0,-0.1,90.33
20340,6.485e+07,0,1.66,-1.13,16.37,0.020755,0.014685,-0.15434,0.38371,0.97926,0.21731,-0.31452,-0.01,0,-0.1,90.33
20381,6.486e+07,0,1.66,-1.13,16.37,0.020327,0.014459,-0.15182,0.3846,0.97802,0.21772,-0.30956,-0.01,0,-0.1,90.33
20421,6.487e+07,0,1.66,-1.13,16.37,0.019682,0.014267,-0.14971,0.38181,0.97685,0.21813,-0.305,-0.01,0,-0.1,90.33
20463,6.4881e+07,0,1.66,-1.13,16.37,0.019145,0.014105,-0.14761,0.37552,0.97571,0.21851,-0.30054,-0.01,0,-0.1,90.33
20504,6.4891e+07,0,1.66,-1.12,16.37,0.018671,0.0139,-0.14579,0.36836,0.97461,0.21887,-0.29634,-0.01,0,-0.1,90.33
20545,6.4901e+07,0,1.66,-1.12,16.37,0.018041,0.013682,-0.14381,0.36437,0.97357,0.21924,-0.29253,-0.01,0,-0.1,90.33
20586,6.4911e+07,0,1.67,-1.12,16.37,0.017981,0.013836,-0.14321,0.36207,0.97375,0.21938,-0.29397,-0.01,0,-0.1,90.33
20627,6.4921e+07,0,1.67,-1.12,16.37,0.017487,0.013877,-0.14141,0.35498,0.97273,0.21972,-0.29022,-0.01,0,-0.1,90.33
20672,6.4932e+07,0,1.67,-1.12,16.37,0.017031,0.013652,-0.13968,0.34333,0.97177,0.22007,-0.28681,-0.01,0,-0.1,90.33
20712,6.4942e+07,0,1.67,-1.12,16.37,0.01667,0.013554,-0.13788,0.32489,0.97082,0.22039,-0.28344,-0.01,0,-0.1,90.33
20753,6.4953e+07,0,1.66,-1.12,16.37,0.01666,0.013681,-0.13748,0.31187,0.97098,0.22053,-0.28482,-0.01,0,-0.1,90.33
20793,6.4963e+07,0,1.67,-1.12,16.37,0.016111,0.013431,-0.13592,0.29719,0.97007,0.22084,-0.28163,-0.01,0,-0.1,90.33
20837,6.4975e+07,0,1.67,-1.12,16.37,0.015672,0.013472,-0.13391,0.27943,0.96924,0.22119,-0.27805,-0.01,0,-0.1,90.33
20878,6.4985e+07,0,1.67,-1.12,16.37,0.015,0.013452,-0.13238,0.26967,0.96839,0.22149,-0.27415,-0.01,0,-0.1,90.33
20920,6.4995e+07,0,1.66,-1.12,16.37,0.014537,0.013324,-0.13096,0.26197,0.96757,0.22177,-0.27048,-0.01,0,-0.1,90.33
20961,6.5005e+07,0,1.67,-1.12,16.37,0.014152,0.013139,-0.1294,0.25289,0.96677,0.22205,-0.26703,-0.01,0,-0.1,90.33
21001,6.5015e+07,0,1.67,-1.12,16.37,0.013968,0.013277,-0.12913,0.24916,0.96691,0.22218,-0.26832,-0.01,0,-0.1,90.33
21042,6.5025e+07,0,1.67,-1.12,16.37,0.013517,0.013116,-0.1277,0.2435,0.96615,0.22245,-0.26506,-0.01,0,-0.1,90.33
21086,6.5036e+07,0,1.67,-1.12,16.37,0.013141,0.012978,-0.12589,0.23818,0.96541,0.22271,-0.262,-0.01,0,-0.1,90.33
21123,6.5046e+07,0,1.67,-1.12,16.37,0.013078,0.012902,-0.12406,0.23138,0.96423,0.22328,-0.25838,-0.01,0,-0.1,90.33
21165,6.5056e+07,0,1.67,-1.12,16.37,0.013032,0.012477,-0.12244,0.22894,0.96309,0.22382,-0.25487,-0.01,0,-0.1,90.33
21212,6.5072e+07,0,1.67,-1.12,16.37,0.012687,0.012226,-0.12058,0.23166,0.96209,0.2244,-0.25171,-0.01,0,-0.1,90.33
21253,6.5082e+07,0,1.67,-1.12,16.37,0.012535,0.011911,-0.11912,0.2314,0.96105,0.22489,-0.24804,-0.01,0,-0.1,90.33
21295,6.5093e+07,0,1.67,-1.12,16.37,0.012365,0.011721,-0.1177,0.23332,0.96006,0.22536,-0.2446,-0.01,0,-0.1,90.33
21336,6.5103e+07,0,1.67,-1.12,16.37,0.012092,0.011636,-0.11619,0.23329,0.95912,0.22582,-0.24147,-0.01,0,-0.1,90.33
21376,6.5113e+07,0,1.67,-1.12,16.37,0.012037,0.011702,-0.11577,0.23537,0.95924,0.22593,-0.24263,-0.01,0,-0.1,90.33
21417,6.5123e+07,0,1.67,-1.12,16.37,0.01203,0.011457,-0.11425,0.23587,0.95834,0.22637,-0.23957,-0.01,0,-0.1,90.33
21461,6.5133e+07,0,1.67,-1.12,16.37,0.012001,0.011301,-0.11266,0.23614,0.95748,0.22678,-0.23672,-0.01,0,-0.1,90.33
21502,6.5143e+07,0,1.67,-1.11,16.37,0.011874,0.011057,-0.11109,0.23413,0.95665,0.22718,-0.23404,-0.01,0,-0.1,90.33
21542,6.5154e+07,0,1.67,-1.11,16.36,0.011842,0.010805,-0.10963,0.22815,0.95587,0.22756,-0.23152,-0.01,0,-0.1,90.33
21584,6.5164e+07,0,1.67,-1.11,16.36,0.011634,0.010806,-0.10789,0.21935,0.95513,0.22794,-0.22793,-0.01,0,-0.1,90.33
21625,6.5175e+07,0,1.67,-1.12,16.36,0.011674,0.010728,-0.10764,0.21831,0.95525,0.22805,-0.229,-0.01,0,-0.1,90.33
21665,6.5185e+07,0,1.67,-1.12,16.36,0.011718,0.010547,-0.10606,0.21729,0.95453,0.22841,-0.22548,-0.01,0,-0.1,90.33
21707,6.5195e+07,0,1.67,-1.11,16.36,0.011788,0.010648,-0.10493,0.21692,0.95385,0.22875,-0.22217,-0.01,0,-0.1,90.33
21747,6.5205e+07,0,1.67,-1.11,16.36,0.011758,0.01067,-0.10373,0.21466,0.9532,0.22908,-0.21905,-0.01,0,-0.1,90.33
21788,6.5215e+07,0,1.67,-1.11,16.36,0.011804,0.010585,-0.10363,0.2123,0.95332,0.22919,-0.22009,-0.01,0,-0.1,90.33
21830,6.5225e+07,0,1.67,-1.11,16.36,0.011786,0.010585,-0.10225,0.2091,0.9527,0.22951,-0.21712,-0.01,0,-0.1,90.33
21879,6.5237e+07,0,1.67,-1.11,16.36,0.011584,0.010478,-0.10083,0.20065,0.95213,0.22986,-0.2146,-0.01,0,-0.1,90.33
21917,6.5251e+07,0,1.67,-1.11,16.36,0.011595,0.01011,-0.098395,0.19705,0.95114,0.23036,-0.21098,-0.01,0,-0.1,90.33
21959,6.5261e+07,0,1.67,-1.11,16.36,0.011632,0.0097272,-0.096511,0.20123,0.95016,0.23081,-0.20719,-0.01,0,-0.1,90.33
22000,6.5271e+07,0,1.67,-1.11,16.36,0.011759,0.0092462,-0.094641,0.20009,0.94922,0.23123,-0.20358,-0.01,0,-0.1,90.33
22042,6.5281e+07,0,1.67,-1.11,16.36,0.011806,0.0092236,-0.094168,0.20526,0.94933,0.23132,-0.20452,-0.01,0,-0.1,90.33
22083,6.5291e+07,0,1.67,-1.11,16.36,0.012067,0.0088322,-0.092326,0.21223,0.94844,0.23171,-0.20005,-0.01,0,-0.1,90.33
22124,6.5301e+07,0,1.67,-1.11,16.36,0.012185,0.0083105,-0.090566,0.22157,0.9476,0.23209,-0.19583,-0.01,0,-0.1,90.33
22165,6.5312e+07,0,1.67,-1.11,16.36,0.012213,0.0079555,-0.088804,0.23521,0.94682,0.23244,-0.19194,-0.01,0,-0.1,90.33
22208,6.5322e+07,0,1.67,-1.11,16.36,0.012141,0.0076979,-0.087167,0.24596,0.94607,0.23277,-0.18819,-0.01,0,-0.1,90.33
22249,6.5332e+07,0,1.67,-1.11,16.36,0.01221,0.0074234,-0.085618,0.25222,0.94535,0.23309,-0.18463,-0.01,0,-0.1,90.33
22294,6.5342e+07,0,1.67,-1.11,16.36,0.012181,0.0074416,-0.084983,0.2612,0.94548,0.23316,-0.18549,-0.01,0,-0.1,90.33
