LineNo,TimeUS,C,Roll,Pitch,Yaw,VN,VE,VD,dPD,PN,PE,PD,GX,GY,GZ,OH
301,59711083,0,1.66,-1.14,16.35,-0.002785271,-0.0004553048,-0.004307215,-0.1311314,1.736574,0.008061273000000001,0.3569212,-0.01,0,-0.12,90.33
413,59737913,0,1.66,-1.14,16.35,-0.002949887,-0.0003206087,-0.004817717,-0.1232636,1.736574,0.008061273000000001,0.3540567,-0.01,0,-0.12,90.33
1216,60013991,0,1.66,-1.15,16.38,-0.002272866,-0.0002731445,-0.5731368999999999,-0.5561019,1.703178,0.01612255,0.3059739,-0.01,0,-0.11,90.33
1303,60042977,0,1.66,-1.15,16.38,-0.001837954,-0.0002230302,-0.5734915,-0.5643321,1.703178,0.01612255,0.2874259,-0.01,0,-0.12,90.33
1559,60089988,0,1.66,-1.15,16.39,-0.0009433994,-5.057685e-05,-0.5740782,-0.5987601,1.658651,0.03224509,0.2551961,-0.01,0,-0.12,90.33
1581,60100335,0,1.66,-1.15,16.39,-0.0009451458,2.14657e-05,-0.5742931,-0.6087233,1.658651,0.03224509,0.248115,-0.01,0,-0.12,90.33
1621,60110962,0,1.66,-1.15,16.39,-0.0008741171,-2.996393e-05,-0.5744726,-0.6182767,1.658651,0.03224509,0.241108,-0.01,0,-0.12,90.33
1663,60121267,0,1.66,-1.15,16.39,-0.0009110407,0.0001527252,-0.5746262,-0.6289876,1.658651,0.03224509,0.2335993,-0.01,0,-0.12,90.33
1703,60131883,0,1.66,-1.15,16.39,-0.001099019,0.0002123129,-0.5747962,-0.6384307,1.658651,0.03224509,0.2278585,-0.01,0,-0.12,90.33
1744,60141984,0,1.66,-1.15,16.39,-0.001328579,0.0002052196,-0.5751647,-0.6483557,1.658651,0.03224509,0.2198722,-0.01,0,-0.12,90.33
1781,60152348,0,1.66,-1.15,16.39,-0.001587127,0.0002245205,-0.5752477,-0.6565121,1.658651,0.03224509,0.2125428,-0.01,0,-0.12,90.33
1822,60162386,0,1.66,-1.15,16.39,-0.001591446,7.481188999999999e-05,-0.5754966,-0.6636725999999999,1.658651,0.03224509,0.2052947,-0.01,0,-0.12,90.33
1863,60172935,0,1.66,-1.15,16.39,-0.001557858,2.404789e-05,-0.5757927,-0.6702635,1.658651,0.03224509,0.1981243,-0.01,0,-0.12,90.33
1903,60183074,0,1.66,-1.15,16.39,-0.001686619,3.790241e-05,-0.5759597,-0.6775932,1.658651,0.03224509,0.1904561,-0.01,0,-0.12,90.33
1944,60193589,0,1.66,-1.15,16.39,-0.001661081,-1.773582e-05,-0.5757238,-0.6836265,1.658651,0.03224509,0.1847043,-0.01,0,-0.12,90.33
1989,60203521,0,1.66,-1.15,16.39,-0.001612514,-1.006551e-05,-0.5759757,-0.6879489,1.658651,0.03224509,0.1776786,-0.01,0,-0.12,90.33
2031,60213525,0,1.66,-1.15,16.39,-0.001454321,-1.260971e-05,-0.5762524999999999,-0.6910739,1.658651,0.03224509,0.1707197,-0.01,0,-0.12,90.33
2073,60224005,0,1.66,-1.15,16.39,-0.001474655,7.505801e-05,-0.5764714,-0.6937153,1.636387,0.04030636,0.1632507,-0.01,0,-0.12,90.33
2114,60234045,0,1.66,-1.15,16.39,-0.001502465,2.62961e-05,-0.5765148,-0.6930066,1.636387,0.04030636,0.15641,-0.01,0,-0.12,90.33
2155,60244951,0,1.66,-1.15,16.39,-0.00137986,6.590773e-05,-0.5763855,-0.6927215,1.636387,0.04030636,0.1506525,-0.01,0,-0.12,90.33
2195,60255593,0,1.66,-1.15,16.39,-0.001302896,0.0001799834,-0.5766199,-0.6930156,1.636387,0.04030636,0.1427532,-0.01,0,-0.12,90.33
2237,60265618,0,1.66,-1.15,16.39,-0.001191459,0.0001331721,-0.5767726,-0.6946077000000001,1.636387,0.04030636,0.1355138,-0.01,0,-0.12,90.33
2278,60275586,0,1.66,-1.14,16.39,-0.001155673,4.030822e-05,-0.5770354,-0.6962388,1.636387,0.04030636,0.1283507,-0.01,0,-0.12,90.33
2318,60286152,0,1.66,-1.14,16.39,-0.0009781563000000001,1.813641e-05,-0.5770552,-0.6980958,1.636387,0.04030636,0.1206879,-0.01,0,-0.12,90.33
2361,60296923,0,1.66,-1.14,16.39,-0.0008296982,-1.247798e-06,-0.5771578000000001,-0.6997982,1.636387,0.04030636,0.1130954,-0.01,0,-0.12,90.33
2405,60306937,0,1.66,-1.14,16.39,-0.0006447628,0.0002024279,-0.5772753,-0.700272,1.636387,0.04030636,0.1061451,-0.01,0,-0.12,90.33
2447,60317079,0,1.66,-1.15,16.39,-0.0003307732,0.0003468095,-0.5775211,-0.6993262,1.636387,0.04030636,0.09925335,-0.01,0,-0.12,90.33
2491,60327423,0,1.66,-1.15,16.39,-0.0001816066,0.000218531,-0.5774967,-0.6987115,1.636387,0.04030636,0.09348439,-0.01,0,-0.12,90.33
2531,60337539,0,1.66,-1.15,16.39,-0.0002177309,0.0002330866,-0.5772971,-0.6965225,1.636387,0.04030636,0.08664785,-0.01,0,-0.12,90.33
2571,60348011,0,1.66,-1.15,16.39,-0.0002785462,0.0003855693,-0.5776575,-0.69369,1.636387,0.04030636,0.07931028,-0.01,0,-0.12,90.33
2611,60358551,0,1.66,-1.15,16.39,-0.0004051507,0.0004141962,-0.577781,-0.6908003,1.636387,0.04030636,0.07260372,-0.01,0,-0.12,90.33
2652,60368523,0,1.66,-1.15,16.39,-0.0006785606,0.0004056753,-0.5780119,-0.6874835,1.636387,0.04030636,0.06594704999999999,-0.01,0,-0.12,90.33
2693,60378605,0,1.66,-1.15,16.39,-0.000702673,0.000114256,-0.5784262999999999,-0.6838896,1.636387,0.04030636,0.05933686,-0.01,0,-0.12,90.33
2734,60389248,0,1.66,-1.15,16.39,-0.0008686773,0.0002426404,-0.5783384,-0.6798801,1.636387,0.04030636,0.05298131,-0.01,0,-0.12,90.33
2775,60399504,0,1.66,-1.15,16.39,-0.0009588291000000001,0.0001902141,-0.5785857,-0.6756174,1.636387,0.04030636,0.04640821,-0.01,0,-0.12,90.33
2819,60409542,0,1.66,-1.15,16.39,-0.0009963800000000001,0.000223444,-0.5787663,-0.6704909,1.636387,0.04030636,0.03929868,-0.01,0,-0.12,90.33
2861,60420044,0,1.66,-1.15,16.39,-0.001060325,0.0001407058,-0.5788181,-0.6656619,1.636387,0.04030636,0.03223364,-0.01,0,-0.12,90.33
2902,60430413,0,1.66,-1.15,16.39,-0.001146232,5.915888e-05,-0.5788246,-0.6608079,1.636387,0.04030636,0.02578388,-0.01,0,-0.12,90.33
2943,60440448,0,1.66,-1.15,16.39,-0.001143982,-5.314083e-06,-0.5789328,-0.6561009,1.636387,0.04030636,0.0193731,-0.01,0,-0.12,90.33
2985,60453858,0,1.67,-1.15,16.39,-0.001352699,-7.392170999999999e-05,-0.5791825,-0.6511202,1.614123,0.04836764,0.01124075,-0.01,0,-0.12,90.33
3026,60464070,0,1.67,-1.15,16.39,-0.001363897,-9.504525e-05,-0.5792192,-0.6463553,1.614123,0.04836764,0.004298476,-0.01,0,-0.12,90.33
3067,60474443,0,1.67,-1.15,16.39,-0.001491018,-0.0001089314,-0.5792959,-0.6427069,1.614123,0.04836764,-0.001487725,-0.01,0,-0.12,90.33
3108,60484461,0,1.67,-1.15,16.39,-0.001458846,6.741082e-05,-0.5796038,-0.6390215,1.614123,0.04836764,-0.007823518,-0.01,0,-0.12,90.33
3149,60494554,0,1.67,-1.15,16.39,-0.001314016,0.0001620107,-0.5797439,-0.6342407,1.614123,0.04836764,-0.0136143,-0.01,0,-0.12,90.33
3189,60504475,0,1.67,-1.14,16.39,-0.001263286,0.0001984251,-0.5794671,-0.6293841,1.614123,0.04836764,-0.01993705,-0.01,0,-0.12,90.33
3234,60514408,0,1.67,-1.14,16.39,-0.001109932,0.0003602876,-0.5793573,-0.6246116,1.614123,0.04836764,-0.02623118,-0.01,0,-0.12,90.33
3275,60525025,0,1.67,-1.14,16.39,-0.001018743,0.0004548416,-0.5794199,-0.6202307,1.614123,0.04836764,-0.03307381,-0.01,0,-0.12,90.33
3316,60535244,0,1.66,-1.14,16.39,-0.0008710818,0.000396802,-0.5792362,-0.6170244,1.614123,0.04836764,-0.03886059,-0.01,0,-0.12,90.33
3357,60545176,0,1.66,-1.15,16.4,-0.0008135368,0.0003991195,-0.5794975,-0.6145393,1.614123,0.04836764,-0.04509452,-0.01,0,-0.12,90.33
3400,60555175,0,1.66,-1.15,16.4,-0.0008565662,0.0003375642,-0.5798315000000001,-0.6125446,1.614123,0.04836764,-0.05129953,-0.01,0,-0.12,90.33
3438,60565724,0,1.66,-1.15,16.4,-0.0007204225,0.0003832194,-0.5796103,-0.6084855,1.614123,0.04836764,-0.05667741,-0.01,0,-0.12,90.33
3479,60575617,0,1.66,-1.15,16.4,-0.0005893042,0.0003873665,-0.5794123,-0.6026972,1.614123,0.04836764,-0.06206526,-0.01,0,-0.12,90.33
3520,60585583,0,1.66,-1.15,16.4,-0.0007520559,0.0005315353,-0.5792969,-0.5958182,1.614123,0.04836764,-0.06746094,-0.01,0,-0.12,90.33
3560,60596408,0,1.66,-1.15,16.4,-0.0007605277,0.0006923439,-0.5790983,-0.5871936,1.614123,0.04836764,-0.07343985,-0.01,0,-0.12,90.33
3601,60606603,0,1.67,-1.15,16.4,-0.0007862869,0.0007301053,-0.5791468,-0.5792003999999999,1.614123,0.04836764,-0.07922464999999999,-0.01,0,-0.12,90.33
3645,60616999,0,1.67,-1.15,16.4,-0.0009157091,0.0008027638,-0.5789042,-0.5707174,1.614123,0.04836764,-0.08520954,-0.01,0,-0.12,90.33
3687,60627873,0,1.67,-1.15,16.4,-0.001030078,0.0009846754000000001,-0.5789447,-0.5635985999999999,1.614123,0.04836764,-0.09062201,-0.01,0,-0.12,90.33
3728,60637894,0,1.67,-1.15,16.4,-0.001028885,0.0009624239,-0.5789751,-0.5571226,1.614123,0.04836764,-0.09604391,-0.01,0,-0.12,90.33
3770,60647906,0,1.67,-1.15,16.39,-0.001067177,0.0008221479000000001,-0.5788974,-0.5514405,1.614123,0.04836764,-0.1014747,-0.01,0,-0.12,90.33
3807,60658895,0,1.67,-1.15,16.4,-0.001102679,0.0006762206,-0.5787407,-0.5450848,1.580728,0.05642892,-0.1080496,-0.01,0,-0.12,90.33
3848,60669150,0,1.66,-1.15,16.39,-0.001110773,0.0005740552,-0.5784962,-0.5407707,1.580728,0.05642892,-0.1134736,-0.01,0,-0.12,90.33
3888,60679966,0,1.66,-1.15,16.39,-0.001197552,0.0006054046,-0.5783305,-0.5367744,1.580728,0.05642892,-0.1192504,-0.01,0,-0.12,90.33
3928,60690004,0,1.66,-1.15,16.39,-0.001151009,0.0005542972,-0.5779957999999999,-0.53348,1.580728,0.05642892,-0.124678,-0.01,0,-0.12,90.33
3970,60700376,0,1.66,-1.15,16.39,-0.001052929,0.0005393329,-0.5777054,-0.5307259,1.580728,0.05642892,-0.1306874,-0.01,0,-0.12,90.33
4011,60710312,0,1.66,-1.15,16.39,-0.0008253652,0.0007546677,-0.577935,-0.5292758,1.580728,0.05642892,-0.1361271,-0.01,0,-0.12,90.33
4057,60720297,0,1.66,-1.15,16.39,-0.0006883421,0.0009392241,-0.5778801,-0.5282012,1.580728,0.05642892,-0.1415756,-0.01,0,-0.12,90.33
4099,60730593,0,1.66,-1.15,16.39,-0.0007985492,0.001018387,-0.5776764,-0.5270061,1.580728,0.05642892,-0.1473469,-0.01,0,-0.12,90.33
4141,60741017,0,1.66,-1.14,16.39,-0.0009687987,0.001113406,-0.5779012,-0.5268008,1.580728,0.05642892,-0.1533797,-0.01,0,-0.12,90.33
4182,60751084,0,1.66,-1.14,16.39,-0.0008135696,0.001126201,-0.5777566,-0.5267022,1.580728,0.05642892,-0.1588421,-0.01,0,-0.12,90.33
4222,60764258,0,1.66,-1.14,16.38,-0.000798856,0.001103443,-0.5775573000000001,-0.5263114,1.580728,0.05642892,-0.1658247,-0.01,0,-0.12,90.33
4263,60774020,0,1.66,-1.14,16.38,-0.000875759,0.001058593,-0.5774708,-0.5259208,1.580728,0.05642892,-0.1710905,-0.01,0,-0.12,90.33
4304,60785020,0,1.66,-1.14,16.38,-0.0007256415,0.001065388,-0.5773992999999999,-0.5251796,1.580728,0.05642892,-0.1763697,-0.01,0,-0.12,90.33
4347,60795052,0,1.66,-1.14,16.38,-0.0006355802,0.001042176,-0.5770758,-0.5242527,1.580728,0.05642892,-0.1816607,-0.01,0,-0.12,90.33
4388,60805256,0,1.66,-1.15,16.38,-0.0006042403999999999,0.0009997331999999999,-0.5771294,-0.5233673,1.580728,0.05642892,-0.1875402,-0.01,0,-0.12,90.33
4428,60815633,0,1.66,-1.15,16.38,-0.0006347887,0.000902526,-0.5771192000000001,-0.5224119,1.580728,0.05642892,-0.1938812,-0.01,0,-0.12,90.33
4473,60826003,0,1.66,-1.15,16.38,-0.0007149134,0.0007154151,-0.5771937,-0.5221063,1.580728,0.05642892,-0.1991979,-0.01,0,-0.12,90.33
4517,60836645,0,1.66,-1.14,16.38,-0.000743313,0.00056092,-0.5773224,-0.5219479,1.558464,0.05642892,-0.2051034,-0.01,0,-0.12,90.33
4558,60847296,0,1.66,-1.14,16.38,-0.0009097827,0.0006186138,-0.5774373,-0.5219255,1.558464,0.05642892,-0.2104451,-0.01,0,-0.12,90.33
4599,60857617,0,1.66,-1.14,16.38,-0.0008813819,0.0005175874,-0.5773951,-0.5201882,1.558464,0.05642892,-0.2148779,-0.01,0,-0.12,90.33
4639,60870588,0,1.66,-1.14,16.38,-0.0009439962,0.0004811372,-0.5773739,-0.5151824,1.558464,0.05642892,-0.2210914,-0.01,0,-0.12,90.33
4680,60880900,0,1.66,-1.14,16.38,-0.0009878863,0.0006190707,-0.5769497,-0.510342,1.558464,0.05642892,-0.2256219,-0.01,0,-0.12,90.33
4721,60891042,0,1.66,-1.14,16.38,-0.001229458,0.0006697204,-0.5766225,-0.5047527000000001,1.558464,0.05642892,-0.2307738,-0.01,0,-0.12,90.33
4762,60901079,0,1.66,-1.14,16.38,-0.001331118,0.0007135743,-0.5765591,-0.4986926,1.558464,0.05642892,-0.2365331,-0.01,0,-0.12,90.33
4803,60911148,0,1.66,-1.14,16.38,-0.001366013,0.0007692328,-0.5763224,-0.4930179,1.558464,0.05642892,-0.2411475,-0.01,0,-0.12,90.33
4843,60921038,0,1.66,-1.14,16.38,-0.001485083,0.0008923755,-0.5760458000000001,-0.4883426,1.558464,0.05642892,-0.2458026,-0.01,0,-0.12,90.33
4888,60931033,0,1.66,-1.14,16.38,-0.001466416,0.0007145552,-0.5757534,-0.48425,1.558464,0.05642892,-0.2504979,-0.01,0,-0.12,90.33
4928,60941583,0,1.66,-1.14,16.38,-0.001480846,0.0004469703,-0.575838,-0.4808257,1.558464,0.05642892,-0.2552331,-0.01,0,-0.12,90.33
4969,60951572,0,1.66,-1.14,16.38,-0.001369793,0.000361202,-0.5757033,-0.478117,1.558464,0.05642892,-0.2600052,-0.01,0,-0.12,90.33
5011,60961520,0,1.66,-1.14,16.38,-0.001193512,0.0003758904,-0.5756536,-0.4752564,1.558464,0.05642892,-0.2657554,-0.01,0,-0.12,90.33
5045,60972248,0,1.66,-1.14,16.38,-0.001177055,0.000226985,-0.5750885999999999,-0.4712462,1.558464,0.05642892,-0.2705075,-0.01,0,-0.12,90.33
5085,60982103,0,1.66,-1.14,16.38,-0.0009353906,-1.366903e-05,-0.5745149000000001,-0.4673117,1.558464,0.05642892,-0.27474,-0.01,0,-0.12,90.33
5126,60992884,0,1.66,-1.14,16.38,-0.0008010445,-0.0002379214,-0.5741575,-0.4640339,1.558464,0.05642892,-0.2790269,-0.01,0,-0.12,90.33
5167,61003190,0,1.66,-1.14,16.38,-0.0008287992,8.066402e-05,-0.5736717,-0.4605349,1.558464,0.05642892,-0.2839393,-0.01,0,-0.12,90.33
5208,61013980,0,1.66,-1.14,16.38,-0.0007812801,1.755252e-05,-0.5736256,-0.4566669,1.558464,0.05642892,-0.2896693,-0.01,0,-0.12,90.33
5248,61023955,0,1.66,-1.14,16.38,-0.0008924032,-3.311141e-05,-0.5733220999999999,-0.4538564,1.558464,0.05642892,-0.2940547,-0.01,0,-0.12,90.33
5294,61033883,0,1.66,-1.14,16.38,-0.000933511,0.0001309851,-0.5728521,-0.4513743,1.558464,0.05642892,-0.2984897,-0.01,0,-0.12,90.33
5336,61044264,0,1.66,-1.14,16.39,-0.0009922940999999999,0.0002614788,-0.5725639,-0.4488876,1.525068,0.06449019,-0.3035438,-0.01,0,-0.12,90.33
5377,61054290,0,1.66,-1.14,16.39,-0.001203641,0.0002155698,-0.5725181,-0.4478133,1.525068,0.06449019,-0.3080732,-0.01,0,-0.12,90.33
5418,61067083,0,1.66,-1.14,16.39,-0.001516561,5.614822e-05,-0.5721809,-0.4458403,1.525068,0.06449019,-0.313211,-0.01,0,-0.12,90.33
5459,61077258,0,1.66,-1.14,16.39,-0.001492816,0.0001681594,-0.5716836,-0.4407156,1.525068,0.06449019,-0.3167259,-0.01,0,-0.12,90.33
5500,61086974,0,1.66,-1.14,16.39,-0.001519499,0.0001515709,-0.5711342,-0.4345445,1.525068,0.06449019,-0.3203254,-0.01,0,-0.12,90.33
5540,61097937,0,1.66,-1.14,16.39,-0.001581891,0.0002425406,-0.5712523,-0.4263939,1.525068,0.06449019,-0.326031,-0.01,0,-0.12,90.33
5582,61107971,0,1.66,-1.14,16.39,-0.00160559,0.0002666345,-0.5705953,-0.419248,1.525068,0.06449019,-0.3297054,-0.01,0,-0.12,90.33
5622,61118360,0,1.67,-1.14,16.38,-0.001392146,-1.580842e-05,-0.569964,-0.4129097,1.525068,0.06449019,-0.3340223,-0.01,0,-0.12,90.33
5670,61128309,0,1.67,-1.14,16.38,-0.001408578,-0.000198557,-0.5699173,-0.4085353,1.525068,0.06449019,-0.3378467,-0.01,0,-0.12,90.33
5710,61138954,0,1.67,-1.14,16.38,-0.001261119,-0.0004678581,-0.5695808,-0.4041068,1.525068,0.06449019,-0.3417484,-0.01,0,-0.12,90.33
5751,61149071,0,1.66,-1.14,16.38,-0.001306051,-0.0004835492,-0.5695505,-0.4010053,1.525068,0.06449019,-0.3474375,-0.01,0,-0.12,90.33
5792,61158995,0,1.66,-1.14,16.38,-0.001300052,-0.0003569752,-0.5691912,-0.3995633,1.525068,0.06449019,-0.3513993,-0.01,0,-0.12,90.33
5832,61169419,0,1.66,-1.14,16.38,-0.00118514,-0.0003371325,-0.5685789999999999,-0.3948673,1.525068,0.06449019,-0.3549483,-0.01,0,-0.12,90.33
5870,61180139,0,1.66,-1.14,16.38,-0.001295614,-0.0003586036,-0.5682221,-0.389492,1.525068,0.06449019,-0.3586031,-0.01,0,-0.12,90.33
5910,61190170,0,1.66,-1.14,16.38,-0.00123132,-0.0005221727999999999,-0.5676146,-0.3837295,1.525068,0.06449019,-0.3617924,-0.01,0,-0.12,90.33
5950,61199976,0,1.66,-1.14,16.38,-0.001040283,-0.0004415648,-0.5670613,-0.3794565,1.525068,0.06449019,-0.3650746,-0.01,0,-0.12,90.33
5992,61210915,0,1.66,-1.14,16.38,-0.001141236,-0.0002539658,-0.5671874,-0.3733882,1.525068,0.06449019,-0.3707395,-0.01,0,-0.12,90.33
6032,61221145,0,1.66,-1.14,16.38,-0.001182058,-0.0001622336,-0.5665658,-0.36852,1.525068,0.06449019,-0.3746742,-0.01,0,-0.12,90.33
6079,61231068,0,1.66,-1.14,16.38,-0.001108339,-2.281413e-05,-0.5662311,-0.365956,1.491673,0.07255146,-0.3781307,-0.01,0,-0.12,90.33
6119,61241029,0,1.66,-1.14,16.38,-0.001057529,9.060693e-05,-0.5660595,-0.3643786,1.491673,0.07255146,-0.3816776,-0.01,0,-0.12,90.33
6160,61251100,0,1.66,-1.14,16.38,-0.0009744265,5.640248e-05,-0.5657225,-0.3647043,1.491673,0.07255146,-0.3853046,-0.01,0,-0.12,90.33
6200,61261009,0,1.66,-1.14,16.38,-0.0009085874,-4.977426e-05,-0.5657188,-0.3637565,1.491673,0.07255146,-0.3909557,-0.01,0,-0.12,90.33
6241,61273867,0,1.66,-1.14,16.38,-0.0009345984000000001,-8.596695e-05,-0.5654876,-0.3646757,1.491673,0.07255146,-0.3957897,-0.01,0,-0.12,90.33
6279,61284081,0,1.67,-1.14,16.37,-0.001040872,-0.0001825856,-0.5650029,-0.3633796,1.491673,0.07255146,-0.3991858,-0.01,0,-0.12,90.33
6321,61294529,0,1.67,-1.14,16.37,-0.0009117097,-0.0002074994,-0.5643252,-0.3592346,1.491673,0.07255146,-0.4021343,-0.01,0,-0.12,90.33
6364,61304595,0,1.67,-1.14,16.37,-0.001049573,-0.0001898899,-0.5637777,-0.3551427,1.491673,0.07255146,-0.405189,-0.01,0,-0.12,90.33
6404,61314492,0,1.67,-1.14,16.37,-0.001063311,-0.0002194968,-0.5631623,-0.352682,1.491673,0.07255146,-0.4083423,-0.01,0,-0.12,90.33
6445,61325073,0,1.66,-1.14,16.37,-0.001219484,-0.0004621448,-0.5625966999999999,-0.3512947,1.491673,0.07255146,-0.4127139,-0.01,0,-0.12,90.33
6490,61335310,0,1.66,-1.14,16.37,-0.001308017,-0.0004529991,-0.5624274,-0.3493075,1.491673,0.07255146,-0.4183329,-0.01,0,-0.12,90.33
6530,61345938,0,1.66,-1.14,16.37,-0.001279028,-0.0004426869,-0.5618647,-0.3489669,1.491673,0.07255146,-0.4216644,-0.01,0,-0.12,90.33
6572,61355574,0,1.66,-1.14,16.36,-0.001356806,-0.000365041,-0.5613871,-0.349267,1.491673,0.07255146,-0.4250863,-0.01,0,-0.12,90.33
6612,61365574,0,1.66,-1.14,16.36,-0.001301064,-0.0004432693,-0.5609041,-0.35133,1.491673,0.07255146,-0.4285919,-0.01,0,-0.12,90.33
6653,61381865,0,1.66,-1.14,16.36,-0.001319789,-0.0004118411,-0.5603928,-0.351836,1.491673,0.07255146,-0.4342581,-0.01,0,-0.11,90.33
6694,61391809,0,1.66,-1.14,16.36,-0.0013767,-0.0003072185,-0.5594937,-0.3501978,1.491673,0.07255146,-0.4366954,-0.01,0,-0.11,90.33
6736,61402138,0,1.66,-1.14,16.36,-0.001390925,-0.0002301493,-0.5588104,-0.3471374,1.491673,0.07255146,-0.4398146,-0.01,0,-0.11,90.33
6777,61412913,0,1.66,-1.13,16.36,-0.001248183,-0.0002576402,-0.5588193,-0.341196,1.491673,0.07255146,-0.4453968,-0.01,0,-0.11,90.33
6817,61422904,0,1.66,-1.13,16.35,-0.001275465,-0.0002502297,-0.5583169,-0.3365734,1.491673,0.07255146,-0.4480695,-0.01,0,-0.11,90.33
6860,61432916,0,1.66,-1.13,16.35,-0.001195374,-0.0001035434,-0.5580262,-0.3324448,1.458277,0.08061272999999999,-0.4508612,-0.01,0,-0.11,90.33
6904,61442980,0,1.67,-1.13,16.35,-0.001085718,-8.693836e-05,-0.5573119,-0.3299769,1.458277,0.08061272999999999,-0.453763,-0.01,0,-0.11,90.33
6945,61452904,0,1.67,-1.13,16.35,-0.001083423,-0.0001023128,-0.556647,-0.3283059,1.458277,0.08061272999999999,-0.4567717,-0.01,0,-0.11,90.33
6986,61463239,0,1.66,-1.13,16.35,-0.001145174,-9.165084e-05,-0.5560862,-0.325463,1.458277,0.08061272999999999,-0.46044,-0.01,0,-0.11,90.33
7026,61473510,0,1.66,-1.13,16.35,-0.001010609,8.805333e-05,-0.5559451,-0.3227153,1.458277,0.08061272999999999,-0.4659944,-0.01,0,-0.11,90.33
7070,61487139,0,1.66,-1.14,16.35,-0.0012898,0.000112955,-0.5542702,-0.3180908,1.458277,0.08061272999999999,-0.4666676,-0.01,0,-0.11,90.33
7111,61497894,0,1.66,-1.14,16.34,-0.001219092,0.0002716695,-0.5542506,-0.3095977,1.458277,0.08061272999999999,-0.4722041,-0.01,0,-0.11,90.33
7153,61507879,0,1.66,-1.14,16.34,-0.001194594,0.0002697317,-0.5536197,-0.3029003,1.458277,0.08061272999999999,-0.4744106,-0.01,0,-0.11,90.33
7194,61518291,0,1.66,-1.14,16.34,-0.001227041,0.0003281881,-0.5529733999999999,-0.2973374,1.458277,0.08061272999999999,-0.4772999,-0.01,0,-0.11,90.33
7234,61529036,0,1.66,-1.14,16.34,-0.001358621,0.0002979595,-0.5524464,-0.294693,1.458277,0.08061272999999999,-0.4797634,-0.01,0,-0.11,90.33
7279,61539032,0,1.66,-1.14,16.34,-0.001616243,0.0003133782,-0.5517717,-0.292987,1.458277,0.08061272999999999,-0.4828994,-0.01,0,-0.11,90.33
7319,61550039,0,1.66,-1.14,16.34,-0.00159946,0.00035104,-0.5510833000000001,-0.2903417,1.458277,0.08061272999999999,-0.4861563,-0.01,0,-0.11,90.33
7360,61560009,0,1.66,-1.14,16.34,-0.001760037,0.0004682192,-0.5509825,-0.2875012,1.458277,0.08061272999999999,-0.4916604,-0.01,0,-0.11,90.33
7401,61570014,0,1.66,-1.14,16.34,-0.001796035,0.0004710369,-0.5506305,-0.2866124,1.458277,0.08061272999999999,-0.4944754,-0.01,0,-0.11,90.33
7443,61582903,0,1.66,-1.14,16.34,-0.001866946,0.0004659117,-0.5496963,-0.2847826,1.458277,0.08061272999999999,-0.4978645,-0.01,0,-0.11,90.33
7483,61592924,0,1.66,-1.14,16.34,-0.001921971,0.0004536224,-0.5489491,-0.2821174,1.458277,0.08061272999999999,-0.4997532,-0.01,0,-0.11,90.33
7524,61602962,0,1.66,-1.14,16.34,-0.001823362,0.0004316513,-0.5483732,-0.2788993,1.458277,0.08061272999999999,-0.5017897,-0.01,0,-0.11,90.33
7565,61613078,0,1.66,-1.14,16.34,-0.001708759,0.0004322511,-0.5476238,-0.2774115,1.458277,0.08061272999999999,-0.5039626,-0.01,0,-0.11,90.33
7607,61623572,0,1.66,-1.14,16.33,-0.001596064,0.000605076,-0.5473071,-0.2727393,1.458277,0.08061272999999999,-0.5094312,-0.01,0,-0.11,90.33
7648,61633539,0,1.66,-1.14,16.33,-0.001485354,0.0006143886,-0.5467689999999999,-0.2707293,1.458277,0.08061272999999999,-0.5117254,-0.01,0,-0.11,90.33
7695,61643562,0,1.66,-1.14,16.34,-0.001317192,0.0005510894,-0.5459613,-0.2733498,1.436013,0.08867401,-0.5141355,-0.01,0,-0.11,90.33
7735,61654150,0,1.66,-1.14,16.34,-0.001330064,0.0004657554,-0.5453234,-0.2768177,1.436013,0.08867401,-0.5172128,-0.01,0,-0.11,90.33
7776,61665024,0,1.66,-1.14,16.34,-0.001215407,0.0005115257,-0.5450064,-0.2775856,1.436013,0.08867401,-0.5226585,-0.01,0,-0.11,90.33
7816,61675021,0,1.66,-1.14,16.33,-0.001211632,0.0005608061,-0.5442706,-0.2801443,1.436013,0.08867401,-0.5252978,-0.01,0,-0.11,90.33
7857,61685067,0,1.66,-1.14,16.34,-0.001267752,0.0005755622,-0.5435416,-0.2830896,1.436013,0.08867401,-0.528051,-0.01,0,-0.11,90.33
7892,61695674,0,1.66,-1.14,16.33,-0.001159253,0.0005460076,-0.5423732,-0.2812454,1.436013,0.08867401,-0.5295455999999999,-0.01,0,-0.11,90.33
7933,61706330,0,1.66,-1.14,16.33,-0.001151389,0.0006709858,-0.54139,-0.272556,1.436013,0.08867401,-0.531228,-0.01,0,-0.11,90.33
7975,61716002,0,1.66,-1.14,16.34,-0.001047754,0.0006104850999999999,-0.5402246000000001,-0.2633177,1.436013,0.08867401,-0.5325438,-0.01,0,-0.11,90.33
8017,61726065,0,1.66,-1.14,16.34,-0.001081317,0.0005486631,-0.5393461000000001,-0.2566189,1.436013,0.08867401,-0.5340213,-0.01,0,-0.11,90.33
8057,61736327,0,1.66,-1.14,16.34,-0.001016559,0.0006127179,-0.5394414,-0.2467354,1.436013,0.08867401,-0.539409,-0.01,0,-0.11,90.33
8104,61746501,0,1.66,-1.14,16.34,-0.001096521,0.0006746879,-0.5385924,-0.2395546,1.436013,0.08867401,-0.5410326,-0.01,0,-0.11,90.33
8144,61756356,0,1.66,-1.14,16.34,-0.001164314,0.0005212924000000001,-0.5378398,-0.2337694,1.436013,0.08867401,-0.5428103,-0.01,0,-0.11,90.33
8186,61766362,0,1.66,-1.14,16.34,-0.001126769,0.0004644183,-0.5373083,-0.2315569,1.436013,0.08867401,-0.5447325,-0.01,0,-0.11,90.33
8226,61776360,0,1.66,-1.14,16.34,-0.001154522,0.0004092441,-0.5364731,-0.2307204,1.436013,0.08867401,-0.5456355000000001,-0.01,0,-0.11,90.33
8269,61787394,0,1.66,-1.14,16.34,-0.001327623,0.0003881316,-0.5354797,-0.2230344,1.436013,0.08867401,-0.5472665,-0.01,0,-0.11,90.33
8310,61798384,0,1.66,-1.14,16.34,-0.001250582,0.0006315802,-0.5345129,-0.2129878,1.436013,0.08867401,-0.5490792,-0.01,0,-0.11,90.33
8350,61809180,0,1.66,-1.14,16.34,-0.001388769,0.0006224642,-0.5344676,-0.2028009,1.436013,0.08867401,-0.5549520999999999,-0.01,0,-0.11,90.33
8392,61819373,0,1.66,-1.14,16.34,-0.001674001,0.0007501314,-0.5334449999999999,-0.1962395,1.436013,0.08867401,-0.5563804999999999,-0.01,0,-0.11,90.33
8434,61829465,0,1.66,-1.14,16.34,-0.001818281,0.0009298958,-0.5325347,-0.1903701,1.436013,0.08867401,-0.5579734,-0.01,0,-0.11,90.33
8475,61839323,0,1.66,-1.14,16.35,-0.001720391,0.0009142402,-0.5316902,-0.1870984,1.436013,0.08867401,-0.5597178,-0.01,0,-0.11,90.33
8522,61849525,0,1.66,-1.14,16.35,-0.001710673,0.001006646,-0.5310097,-0.1864793,1.402617,0.09673529,-0.5616099,-0.01,0,-0.11,90.33
8562,61859960,0,1.66,-1.14,16.35,-0.001697395,0.001151099,-0.5302839,-0.1867581,1.402617,0.09673529,-0.5636474,-0.01,0,-0.11,90.33
8603,61869922,0,1.66,-1.14,16.35,-0.001654121,0.001325493,-0.529358,-0.1894783,1.402617,0.09673529,-0.5658179,-0.01,0,-0.11,90.33
8646,61882956,0,1.66,-1.14,16.35,-0.001666898,0.001182189,-0.5283068,-0.1896732,1.402617,0.09673529,-0.5686464,-0.01,0,-0.12,90.33
8687,61892867,0,1.66,-1.14,16.35,-0.001666893,0.001169172,-0.5273816,-0.1906799,1.402617,0.09673529,-0.5690207,-0.01,0,-0.12,90.33
8728,61903503,0,1.66,-1.14,16.35,-0.001733079,0.001236068,-0.5265317,-0.1857532,1.402617,0.09673529,-0.5706335,-0.01,0,-0.12,90.33
8772,61916826,0,1.66,-1.14,16.36,-0.001538657,0.001127,-0.5255219,-0.1767941,1.402617,0.09673529,-0.5734721,-0.01,0,-0.12,90.33
8813,61926457,0,1.66,-1.14,16.36,-0.00161672,0.001053927,-0.5247058,-0.1741381,1.402617,0.09673529,-0.5748956,-0.01,0,-0.12,90.33
8855,61937074,0,1.66,-1.14,16.36,-0.001520245,0.0009208282,-0.523833,-0.1702787,1.402617,0.09673529,-0.5770037,-0.01,0,-0.12,90.33
8896,61947925,0,1.66,-1.14,16.36,-0.001435376,0.0009979317000000001,-0.5237127,-0.1671495,1.402617,0.09673529,-0.5822356,-0.01,0,-0.12,90.33
8940,61957966,0,1.66,-1.14,16.36,-0.001480114,0.0009844208,-0.5225942,-0.1678777,1.402617,0.09673529,-0.5839531,-0.01,0,-0.12,90.33
8981,61967922,0,1.66,-1.14,16.36,-0.001639693,0.0009612546,-0.5215596,-0.1707059,1.402617,0.09673529,-0.5858096,-0.01,0,-0.12,90.33
9021,61977867,0,1.66,-1.14,16.36,-0.001721283,0.0009546657,-0.5207060999999999,-0.1771467,1.402617,0.09673529,-0.5877964,-0.01,0,-0.12,90.33
9062,61990592,0,1.66,-1.14,16.36,-0.001812383,0.000919089,-0.5196506,-0.1827791,1.402617,0.09673529,-0.5897102,-0.01,0,-0.12,90.33
9107,62004133,0,1.66,-1.14,16.36,-0.001964272,0.0009431393,-0.5184947,-0.1784549,1.402617,0.09673529,-0.5923421,-0.01,0,-0.12,90.33
9147,62014044,0,1.66,-1.14,16.36,-0.002082957,0.0008880738999999999,-0.5173049,-0.172424,1.402617,0.09673529,-0.5930922,-0.01,0,-0.12,90.33
9188,62024390,0,1.66,-1.14,16.37,-0.002064642,0.0009289669,-0.516109,-0.1673194,1.402617,0.09673529,-0.5940149,-0.01,0,-0.12,90.33
9231,62034978,0,1.66,-1.14,16.37,-0.001949357,0.001078249,-0.5151926999999999,-0.1667059,1.369222,0.1047966,-0.5956148999999999,-0.01,0,-0.12,90.33
9272,62045312,0,1.66,-1.14,16.37,-0.001980219,0.001023215,-0.5150115,-0.1638402,1.369222,0.1047966,-0.6007602,-0.01,0,-0.12,90.33
9317,62055322,0,1.66,-1.14,16.37,-0.002071799,0.0009161462999999999,-0.5139002,-0.1637108,1.369222,0.1047966,-0.6019916,-0.01,0,-0.12,90.33
9357,62065255,0,1.66,-1.14,16.37,-0.002104891,0.001060792,-0.5131547,-0.169964,1.369222,0.1047966,-0.6033622,-0.01,0,-0.12,90.33
9398,62075906,0,1.66,-1.14,16.37,-0.002140404,0.001096545,-0.5122885,-0.1758651,1.369222,0.1047966,-0.6048879,-0.01,0,-0.12,90.33
9438,62086055,0,1.66,-1.14,16.37,-0.002187287,0.001039292,-0.5114166,-0.179459,1.369222,0.1047966,-0.6070774,-0.01,0,-0.12,90.33
9479,62096343,0,1.66,-1.14,16.37,-0.002044272,0.001215654,-0.5111248,-0.1813851,1.369222,0.1047966,-0.6121848,-0.01,0,-0.12,90.33
9516,62107060,0,1.66,-1.14,16.37,-0.001941368,0.001377235,-0.5097654,-0.1810166,1.369222,0.1047966,-0.6128867,-0.01,0,-0.11,90.33
9557,62117064,0,1.66,-1.14,16.37,-0.001906985,0.00123358,-0.5084874,-0.175572,1.369222,0.1047966,-0.6132815,-0.01,0,-0.11,90.33
9599,62127970,0,1.66,-1.14,16.37,-0.001955156,0.001346417,-0.507174,-0.1696509,1.369222,0.1047966,-0.6138665,-0.01,0,-0.11,90.33
9639,62138310,0,1.66,-1.14,16.37,-0.002036244,0.001148014,-0.5060518000000001,-0.1616354,1.369222,0.1047966,-0.6151439,-0.01,0,-0.11,90.33
9681,62148378,0,1.66,-1.14,16.37,-0.001897061,0.001250841,-0.5050235,-0.1564379,1.369222,0.1047966,-0.6160884,-0.01,0,-0.11,90.33
9726,62158500,0,1.66,-1.14,16.37,-0.001954522,0.001249943,-0.5041208,-0.1518074,1.369222,0.1047966,-0.6172045,-0.01,0,-0.12,90.33
9767,62168497,0,1.66,-1.13,16.37,-0.002029847,0.001281833,-0.5032638,-0.1500159,1.369222,0.1047966,-0.6184807,-0.01,0,-0.12,90.33
9809,62179144,0,1.66,-1.14,16.37,-0.001974232,0.001391427,-0.5024545,-0.1477541,1.369222,0.1047966,-0.6204199,-0.01,0,-0.12,90.33
9849,62190036,0,1.66,-1.14,16.37,-0.002116066,0.001390287,-0.5025041,-0.1464809,1.369222,0.1047966,-0.6254394,-0.01,0,-0.12,90.33
9890,62200315,0,1.66,-1.14,16.37,-0.002229687,0.00146317,-0.5014602,-0.1440687,1.369222,0.1047966,-0.6258467,-0.01,0,-0.12,90.33
9930,62210255,0,1.66,-1.14,16.37,-0.002219705,0.001581962,-0.5003641,-0.1384731,1.369222,0.1047966,-0.6264676,-0.01,0,-0.11,90.33
9971,62220318,0,1.66,-1.13,16.37,-0.002296851,0.00157827,-0.4992397,-0.1321876,1.369222,0.1047966,-0.6262905,-0.01,0,-0.12,90.33
10012,62230360,0,1.66,-1.13,16.37,-0.002278943,0.001538838,-0.4980362,-0.1252452,1.369222,0.1047966,-0.6273004,-0.01,0,-0.12,90.33
10054,62240343,0,1.66,-1.13,16.37,-0.002311044,0.001621224,-0.4967305,-0.1256833,1.324694,0.1128578,-0.6279798,-0.01,0,-0.11,90.33
10096,62250684,0,1.66,-1.13,16.37,-0.002378501,0.001533768,-0.4966599,-0.123092,1.324694,0.1128578,-0.6329408,-0.01,0,-0.11,90.33
10140,62260936,0,1.67,-1.13,16.37,-0.002416701,0.001452807,-0.4954042,-0.1232607,1.324694,0.1128578,-0.6337768,-0.01,0,-0.11,90.33
10181,62270987,0,1.66,-1.13,16.37,-0.002409273,0.001228858,-0.4942465,-0.1246569,1.324694,0.1128578,-0.6347779,-0.01,0,-0.11,90.33
10223,62280856,0,1.67,-1.13,16.37,-0.002491234,0.001139118,-0.4932579,-0.1294338,1.324694,0.1128578,-0.6359331,-0.01,0,-0.11,90.33
10264,62290679,0,1.66,-1.13,16.37,-0.002482871,0.00103175,-0.4924334,-0.1353498,1.324694,0.1128578,-0.6372423,-0.01,0,-0.11,90.33
10305,62304217,0,1.66,-1.13,16.37,-0.002514446,0.0007526211,-0.4913111,-0.1371768,1.324694,0.1128578,-0.6392489,-0.01,0,-0.11,90.33
10345,62315074,0,1.66,-1.13,16.37,-0.002374134,0.0006945821,-0.4900402,-0.1353467,1.324694,0.1128578,-0.6394957,-0.01,0,-0.11,90.33
10386,62325020,0,1.66,-1.13,16.37,-0.002385502,0.0008255432,-0.4888593,-0.1334239,1.324694,0.1128578,-0.6399309,-0.01,0,-0.11,90.33
10426,62335248,0,1.66,-1.13,16.37,-0.00233248,0.0008656908,-0.4876592,-0.1280936,1.324694,0.1128578,-0.6410391,-0.01,0,-0.11,90.33
10467,62345571,0,1.66,-1.13,16.37,-0.002388781,0.0007942677,-0.4876905,-0.1226013,1.324694,0.1128578,-0.6459104,-0.01,0,-0.11,90.33
10507,62355567,0,1.66,-1.13,16.37,-0.002386775,0.0007156437,-0.4866797,-0.120837,1.324694,0.1128578,-0.6466858,-0.01,0,-0.11,90.33
10561,62386425,0,1.66,-1.13,16.37,-0.002319393,0.0009722009,-0.483857,-0.1254431,1.324694,0.1128578,-0.6504769,-0.01,0,-0.11,90.33
10606,62399327,0,1.66,-1.13,16.37,-0.002302287,0.001012577,-0.4826536,-0.1282368,1.324694,0.1128578,-0.6512188,-0.01,0,-0.11,90.33
10646,62409460,0,1.66,-1.13,16.37,-0.002408256,0.0009408252,-0.4813116,-0.1240996,1.324694,0.1128578,-0.6507468,-0.01,0,-0.11,90.33
10684,62419999,0,1.66,-1.13,16.37,-0.002458691,0.0009491214,-0.4801616,-0.1190437,1.324694,0.1128578,-0.6509597,-0.01,0,-0.11,90.33
10725,62430438,0,1.66,-1.13,16.37,-0.002382802,0.0007777918,-0.4801486,-0.1102289,1.324694,0.1128578,-0.6557562,-0.01,0,-0.11,90.33
10767,62440506,0,1.67,-1.13,16.37,-0.002539998,0.0007293932,-0.4788226,-0.1038278,1.302431,0.1289804,-0.6556747000000001,-0.01,0,-0.11,90.33
10808,62450488,0,1.67,-1.14,16.37,-0.002721376,0.0006379503,-0.4776649,-0.09844884,1.302431,0.1289804,-0.6557886000000001,-0.01,0,-0.11,90.33
10848,62460431,0,1.67,-1.14,16.37,-0.002765011,0.000499059,-0.4767592,-0.09698477,1.302431,0.1289804,-0.6560859999999999,-0.01,0,-0.11,90.33
10893,62470966,0,1.66,-1.14,16.37,-0.002718506,0.0003116507,-0.4756045,-0.09653797,1.302431,0.1289804,-0.6565679,-0.01,0,-0.11,90.33
10934,62481034,0,1.66,-1.13,16.37,-0.002680978,0.0003269969,-0.4743989,-0.09405889000000001,1.302431,0.1289804,-0.6577045,-0.01,0,-0.11,90.33
10975,62491523,0,1.66,-1.13,16.37,-0.002784361,0.0003547567,-0.4743638,-0.09182499,1.302431,0.1289804,-0.6624428999999999,-0.01,0,-0.11,90.33
11017,62501516,0,1.66,-1.13,16.37,-0.002867936,0.0003887556,-0.473478,-0.09365602000000001,1.302431,0.1289804,-0.6632541,-0.01,0,-0.11,90.33
11051,62512475,0,1.66,-1.13,16.37,-0.002992861,0.0003986768,-0.4719987,-0.0915226,1.302431,0.1289804,-0.6625219,-0.01,0,-0.11,90.33
11092,62522366,0,1.66,-1.13,16.37,-0.00320225,0.0005536345,-0.4708702,-0.08365980000000001,1.302431,0.1289804,-0.6615686,-0.01,0,-0.11,90.33
11132,62533085,0,1.66,-1.13,16.37,-0.00327537,0.0007408059,-0.4697932,-0.07128346000000001,1.302431,0.1289804,-0.6613251999999999,-0.01,0,-0.11,90.33
11173,62543495,0,1.66,-1.13,16.37,-0.003456038,0.0005122055,-0.4687003,-0.06412656999999999,1.302431,0.1289804,-0.6608225,-0.01,0,-0.11,90.33
11214,62553528,0,1.67,-1.13,16.37,-0.003433601,0.0003163127,-0.467367,-0.05818418,1.302431,0.1289804,-0.6605299,-0.01,0,-0.11,90.33
11255,62564052,0,1.67,-1.13,16.37,-0.003310232,0.0003713062,-0.4661435,-0.04965584,1.302431,0.1289804,-0.6609125,-0.01,0,-0.11,90.33
11300,62574523,0,1.67,-1.13,16.37,-0.003412211,0.0002671784,-0.4662684,-0.0422133,1.302431,0.1289804,-0.6655698,-0.01,0,-0.11,90.33
11341,62584490,0,1.67,-1.13,16.37,-0.003394034,0.0003118512,-0.4654993,-0.03994595,1.302431,0.1289804,-0.6656644,-0.01,0,-0.11,90.33
11384,62595024,0,1.67,-1.13,16.37,-0.003462293,6.724118e-05,-0.4644203,-0.04530897,1.302431,0.1289804,-0.6663839,-0.01,0,-0.11,90.33
11427,62610844,0,1.67,-1.13,16.37,-0.00333469,0.000125172,-0.4629183,-0.04921932,1.302431,0.1289804,-0.6671169,-0.01,0,-0.11,90.33
11468,62620837,0,1.67,-1.13,16.37,-0.003402872,9.87579e-05,-0.461549,-0.04954367,1.302431,0.1289804,-0.6657761,-0.01,0,-0.11,90.33
11511,62631164,0,1.66,-1.13,16.37,-0.003364999,4.344605e-05,-0.4602081,-0.04760401,1.269035,0.1289804,-0.665131,-0.01,0,-0.11,90.33
11551,62641075,0,1.66,-1.13,16.37,-0.003291566,8.402299e-05,-0.4600728,-0.03994121,1.269035,0.1289804,-0.6697268,-0.01,0,-0.11,90.33
11592,62651088,0,1.66,-1.13,16.37,-0.00333685,8.833371000000001e-05,-0.4586309,-0.03225704,1.269035,0.1289804,-0.6688408,-0.01,0,-0.11,90.33
11632,62661065,0,1.66,-1.13,16.37,-0.003292281,0.0001866374,-0.4573649,-0.02807846,1.269035,0.1289804,-0.6681701,-0.01,0,-0.11,90.33
11677,62671063,0,1.66,-1.13,16.37,-0.003338565,0.0004111875,-0.4565741,-0.02547691,1.269035,0.1289804,-0.6677206,-0.01,0,-0.11,90.33
11718,62681147,0,1.66,-1.13,16.37,-0.003233416,0.0005422566,-0.455399,-0.02671532,1.269035,0.1289804,-0.6674712,-0.01,0,-0.11,90.33
11759,62691965,0,1.66,-1.13,16.37,-0.003414073,0.0005606659,-0.4553342,-0.02468698,1.269035,0.1289804,-0.6720194,-0.01,0,-0.11,90.33
11801,62701949,0,1.66,-1.13,16.37,-0.0033701,0.0006078385,-0.4541814,-0.02625275,1.269035,0.1289804,-0.6719472,-0.01,0,-0.11,90.33
11836,62712827,0,1.66,-1.13,16.37,-0.003380397,0.0005750498,-0.4529233,-0.02503782,1.269035,0.1289804,-0.6708395,-0.01,0,-0.11,90.33
11876,62722499,0,1.67,-1.13,16.37,-0.003486677,0.0004961464,-0.4515257,-0.02638571,1.269035,0.1289804,-0.6695095,-0.01,0,-0.11,90.33
11918,62733091,0,1.67,-1.13,16.37,-0.00380859,0.0003271516,-0.450041,-0.02615569,1.269035,0.1289804,-0.6688612,-0.01,0,-0.11,90.33
11959,62743532,0,1.67,-1.13,16.37,-0.003790809,0.0003887463,-0.4497348,-0.02050262,1.269035,0.1289804,-0.6733546,-0.01,0,-0.11,90.33
11999,62753434,0,1.67,-1.13,16.37,-0.003842581,0.0002958636,-0.448319,-0.01730451,1.269035,0.1289804,-0.6724635,-0.01,0,-0.11,90.33
12040,62763518,0,1.67,-1.13,16.37,-0.003997953,0.0003032773,-0.4472252,-0.01489082,1.269035,0.1289804,-0.6717981,-0.01,0,-0.11,90.33
12089,62773929,0,1.67,-1.13,16.37,-0.004155723,0.0001060853,-0.4460763,-0.01604243,1.269035,0.1289804,-0.6713406,-0.01,0,-0.11,90.33
12129,62784258,0,1.67,-1.13,16.37,-0.004329273,0.0002083124,-0.4447744,-0.01914441,1.269035,0.1289804,-0.6715252,-0.01,0,-0.11,90.33
12171,62794930,0,1.67,-1.13,16.37,-0.004276125,0.0002954814,-0.4444929,-0.01948615,1.269035,0.1289804,-0.6759666,-0.01,0,-0.11,90.33
12212,62804894,0,1.67,-1.13,16.37,-0.004342382,0.0004175163,-0.4432106,-0.02300758,1.269035,0.1289804,-0.6758819,-0.01,0,-0.11,90.33
12253,62815503,0,1.66,-1.13,16.37,-0.004460322,0.000449061,-0.4414267,-0.02207801,1.269035,0.1289804,-0.6743188,-0.01,0,-0.11,90.33
12293,62825418,0,1.66,-1.13,16.37,-0.004456268,0.0004270358,-0.4398658,-0.0228116,1.269035,0.1289804,-0.6725581,-0.01,0,-0.11,90.33
12336,62836022,0,1.66,-1.13,16.37,-0.004592712,0.0005768182,-0.4381423,-0.02011435,1.246771,0.1289804,-0.6710491,-0.01,0,-0.11,90.33
12377,62846219,0,1.66,-1.13,16.37,-0.004763171,0.0006315042,-0.4375889,-0.01024434,1.246771,0.1289804,-0.6758596,-0.01,0,-0.11,90.33
12417,62856274,0,1.66,-1.13,16.37,-0.004826983,0.0003626542,-0.4365506,-0.005786222,1.246771,0.1289804,-0.6745649,-0.01,0,-0.11,90.33
12458,62866261,0,1.66,-1.13,16.37,-0.00488725,0.0004591719,-0.4350885,-0.001040021,1.246771,0.1289804,-0.6735128,-0.01,0,-0.11,90.33
12503,62876362,0,1.66,-1.13,16.37,-0.004953864,0.0004632718,-0.4337623,-5.2016e-05,1.246771,0.1289804,-0.6726796,-0.01,0,-0.11,90.33
12544,62886629,0,1.66,-1.13,16.37,-0.004981476,0.0002651195,-0.4325933,-0.001149584,1.246771,0.1289804,-0.6724888,-0.01,0,-0.11,90.33
12584,62897490,0,1.66,-1.13,16.37,-0.004958234,0.0001784374,-0.432364,0.0005503384,1.246771,0.1289804,-0.6768089,-0.01,0,-0.11,90.33
12625,62907445,0,1.66,-1.13,16.37,-0.005141436,5.43947e-05,-0.4311418,-0.001243316,1.246771,0.1289804,-0.6763753,-0.01,0,-0.11,90.33
12664,62918503,0,1.66,-1.13,16.37,-0.005159173,6.730115e-07,-0.4294075,-0.0004813422,1.246771,0.1289804,-0.6740007,-0.01,0,-0.11,90.33
12704,62928609,0,1.66,-1.13,16.37,-0.005128031,-0.0001512333,-0.4280559,0.002646687,1.246771,0.1289804,-0.6714845,-0.01,0,-0.11,90.33
12746,62939102,0,1.66,-1.13,16.37,-0.005220476,-0.0003143332,-0.4263692,0.009391442999999999,1.246771,0.1289804,-0.6696742999999999,-0.01,0,-0.11,90.33
12786,62950086,0,1.66,-1.13,16.37,-0.005218188,-0.0003612429,-0.4262162,0.02213478,1.246771,0.1289804,-0.673933,-0.01,0,-0.11,90.33
12827,62960056,0,1.66,-1.13,16.37,-0.005254223,-0.0003770331,-0.4248537,0.03284691,1.246771,0.1289804,-0.6723695,-0.01,0,-0.11,90.33
12867,62970039,0,1.66,-1.13,16.37,-0.005245044,-0.0005782321,-0.4231124,0.04038159,1.246771,0.1289804,-0.6706368,-0.01,0,-0.11,90.33
12914,62980057,0,1.66,-1.13,16.37,-0.005329861,-0.0005410725,-0.4216523,0.04657764,1.246771,0.1289804,-0.6691594,-0.01,0,-0.11,90.33
12955,62990077,0,1.66,-1.13,16.37,-0.005342886,-0.0006580483,-0.420153,0.04805942,1.246771,0.1289804,-0.6679153,-0.01,0,-0.11,90.33
12995,63000535,0,1.66,-1.13,16.37,-0.005197135,-0.0008054576,-0.4201643,0.05290802,1.246771,0.1289804,-0.6721118,-0.01,0,-0.11,90.33
13036,63010576,0,1.66,-1.13,16.37,-0.005281449,-0.0007506069,-0.4190629,0.05338982,1.246771,0.1289804,-0.6710824,-0.01,0,-0.11,90.33
13070,63021332,0,1.66,-1.13,16.37,-0.005460648,-0.000715271,-0.4172674,0.05881749,1.246771,0.1289804,-0.6683031,-0.01,0,-0.11,90.33
13110,63031512,0,1.66,-1.13,16.37,-0.00556201,-0.0006748198,-0.4154505,0.05472481,1.246771,0.1289804,-0.6653596000000001,-0.01,0,-0.11,90.33
13152,63042038,0,1.66,-1.13,16.37,-0.005632465,-0.0006926063,-0.413648,0.06250749,1.224507,0.1370416,-0.6631482,-0.01,0,-0.11,90.33
13194,63052442,0,1.66,-1.13,16.37,-0.005787461,-0.0008947257,-0.4133941,0.07557551999999999,1.224507,0.1370416,-0.6672789,-0.01,0,-0.11,90.33
13236,63062461,0,1.66,-1.13,16.37,-0.005798417,-0.0009576929,-0.4116906,0.08526091,1.224507,0.1370416,-0.664915,-0.01,0,-0.11,90.33
13276,63072395,0,1.66,-1.13,16.37,-0.005738162,-0.0009700842,-0.4101865,0.09361752,1.224507,0.1370416,-0.6628315,-0.01,0,-0.11,90.33
13321,63082412,0,1.66,-1.13,16.37,-0.005807856,-0.001038632,-0.4087717,0.09693705,1.224507,0.1370416,-0.6610075,-0.01,0,-0.11,90.33
13361,63093181,0,1.66,-1.13,16.37,-0.005827658,-0.001183176,-0.4074242,0.09746104999999999,1.224507,0.1370416,-0.6598366,-0.01,0,-0.11,90.33
13402,63103961,0,1.66,-1.13,16.37,-0.005736897,-0.001200972,-0.4074325,0.1001541,1.224507,0.1370416,-0.6639062,-0.01,0,-0.11,90.33
13443,63113922,0,1.66,-1.13,16.37,-0.00570524,-0.001445928,-0.4061692,0.09855231,1.224507,0.1370416,-0.6625531,-0.01,0,-0.11,90.33
13478,63124304,0,1.66,-1.13,16.37,-0.005750786,-0.001621863,-0.4046175,0.1006718,1.224507,0.1370416,-0.6597253,-0.01,0,-0.11,90.33
13520,63134287,0,1.66,-1.13,16.37,-0.005714607,-0.00172925,-0.4030965,0.1030459,1.224507,0.1370416,-0.6567903,-0.01,0,-0.11,90.33
13560,63145024,0,1.66,-1.13,16.37,-0.005854846,-0.001606178,-0.4014604,0.1115245,1.224507,0.1370416,-0.6549729,-0.01,0,-0.11,90.33
13601,63155026,0,1.66,-1.13,16.37,-0.005833401,-0.001491645,-0.3998516,0.1138735,1.224507,0.1370416,-0.6522386999999999,-0.01,0,-0.11,90.33
13642,63165080,0,1.66,-1.13,16.37,-0.005858463,-0.001460639,-0.3983557,0.1226486,1.224507,0.1370416,-0.6505924,-0.01,0,-0.11,90.33
13683,63175115,0,1.66,-1.13,16.37,-0.005905809,-0.001543643,-0.3980873,0.1315823,1.224507,0.1370416,-0.6545695,-0.01,0,-0.11,90.33
13727,63185036,0,1.66,-1.13,16.36,-0.00600443,-0.00162484,-0.3965772,0.1368672,1.224507,0.1370416,-0.6527699,-0.01,0,-0.11,90.33
13768,63195046,0,1.66,-1.13,16.36,-0.005949214,-0.001747723,-0.3952708,0.140318,1.224507,0.1370416,-0.6512327999999999,-0.01,0,-0.11,90.33
13811,63205064,0,1.66,-1.13,16.37,-0.00579074,-0.001769139,-0.3939322,0.1396549,1.224507,0.1370416,-0.6499344,-0.01,0,-0.11,90.33
13848,63215568,0,1.66,-1.13,16.37,-0.005772678,-0.001711127,-0.3923427,0.13802,1.224507,0.1370416,-0.6467203,-0.01,0,-0.11,90.33
13892,63228291,0,1.66,-1.13,16.37,-0.005857095,-0.001919024,-0.3905021,0.1463173,1.224507,0.1370416,-0.6449962,-0.01,0,-0.11,90.33
13934,63238571,0,1.66,-1.13,16.37,-0.005968371,-0.001859729,-0.3888957,0.1484572,1.224507,0.1370416,-0.6423756,-0.01,0,-0.11,90.33
13976,63249545,0,1.66,-1.13,16.37,-0.006024315,-0.001899721,-0.3887399,0.1486355,1.17998,0.1531642,-0.6466483,-0.01,0,-0.11,90.33
14018,63259579,0,1.66,-1.13,16.37,-0.006114288,-0.001838671,-0.3871474,0.1454719,1.17998,0.1531642,-0.6442413,-0.01,0,-0.11,90.33
14060,63269646,0,1.66,-1.13,16.37,-0.006115634,-0.001794013,-0.3855126,0.1427275,1.17998,0.1531642,-0.64211,-0.01,0,-0.11,90.33
14102,63279559,0,1.66,-1.13,16.37,-0.006070953,-0.001947993,-0.3841836,0.1362452,1.17998,0.1531642,-0.6402283,-0.01,0,-0.11,90.33
14146,63289552,0,1.66,-1.13,16.37,-0.006136566,-0.001953109,-0.3829091,0.1291861,1.17998,0.1531642,-0.6386018,-0.01,0,-0.11,90.33
14187,63300078,0,1.66,-1.13,16.37,-0.006136382,-0.001922478,-0.3814606,0.1251588,1.17998,0.1531642,-0.6376074,-0.01,0,-0.11,90.33
14227,63310667,0,1.66,-1.13,16.37,-0.006095037,-0.001917931,-0.3813973,0.1223952,1.17998,0.1531642,-0.6414179,-0.01,0,-0.11,90.33
14269,63320884,0,1.66,-1.13,16.37,-0.0061281,-0.001975623,-0.3801283,0.1152457,1.17998,0.1531642,-0.6402463,-0.01,0,-0.11,90.33
14310,63330939,0,1.66,-1.13,16.37,-0.006023964,-0.001948896,-0.378594,0.1110614,1.17998,0.1531642,-0.637127,-0.01,0,-0.11,90.33
14350,63340906,0,1.66,-1.13,16.37,-0.006147634,-0.001945853,-0.3769984,0.1075376,1.17998,0.1531642,-0.6342950000000001,-0.01,0,-0.11,90.33
14392,63350919,0,1.66,-1.13,16.37,-0.006212841,-0.002000183,-0.375403,0.1065236,1.17998,0.1531642,-0.6317452,-0.01,0,-0.11,90.33
14432,63360918,0,1.66,-1.13,16.37,-0.006195837,-0.002065032,-0.3750736,0.1124112,1.17998,0.1531642,-0.6354941,-0.01,0,-0.11,90.33
14474,63370962,0,1.66,-1.13,16.37,-0.006054692,-0.001958978,-0.3732415,0.1152434,1.17998,0.1531642,-0.633189,-0.01,0,-0.11,90.33
14514,63380701,0,1.66,-1.13,16.37,-0.005896564,-0.002009701,-0.371758,0.1168465,1.17998,0.1531642,-0.6311463,-0.01,0,-0.11,90.33
14559,63390838,0,1.66,-1.13,16.37,-0.005847486,-0.002198602,-0.3704994,0.1139473,1.17998,0.1531642,-0.6293453,-0.01,0,-0.11,90.33
14600,63400976,0,1.66,-1.13,16.37,-0.005964485,-0.002218765,-0.3692867,0.1097339,1.17998,0.1531642,-0.6277903,-0.01,0,-0.11,90.33
14640,63411059,0,1.66,-1.13,16.37,-0.005966269,-0.002387746,-0.3679923,0.1079313,1.17998,0.1531642,-0.6268463,-0.01,0,-0.11,90.33
14681,63421519,0,1.66,-1.13,16.37,-0.00604876,-0.002379685,-0.3677179,0.1069667,1.17998,0.1531642,-0.6305208,-0.01,0,-0.11,90.33
14718,63432962,0,1.66,-1.13,16.37,-0.006164412,-0.00246165,-0.365812,0.100112,1.17998,0.1531642,-0.6274677,-0.01,0,-0.11,90.33
14761,63442956,0,1.66,-1.13,16.37,-0.006304769,-0.00248333,-0.3640689,0.09660649,1.17998,0.1531642,-0.624342,-0.01,0,-0.11,90.33
14798,63453950,0,1.66,-1.13,16.37,-0.006284673,-0.002591665,-0.3624461,0.1020143,1.135452,0.1692868,-0.6218900000000001,-0.01,0,-0.11,90.33
14840,63463983,0,1.66,-1.13,16.37,-0.006532936,-0.002608638,-0.3610361,0.1062087,1.135452,0.1692868,-0.6193557,-0.01,0,-0.11,90.33
14881,63474419,0,1.66,-1.13,16.37,-0.006471939,-0.002499549,-0.3594997,0.1156585,1.135452,0.1692868,-0.617465,-0.01,0,-0.11,90.33
14921,63484986,0,1.66,-1.13,16.37,-0.006439674,-0.002428734,-0.3592314,0.1250916,1.135452,0.1692868,-0.621055,-0.01,0,-0.11,90.33
14967,63495003,0,1.66,-1.13,16.37,-0.006410311,-0.002394917,-0.3578938,0.1288775,1.135452,0.1692868,-0.6190329,-0.01,0,-0.11,90.33
15007,63505053,0,1.66,-1.13,16.37,-0.006525858,-0.002308278,-0.3565371,0.1300643,1.135452,0.1692868,-0.6172590999999999,-0.01,0,-0.11,90.33
15048,63515023,0,1.66,-1.13,16.37,-0.006542972,-0.002286154,-0.3553416,0.1258594,1.135452,0.1692868,-0.6157117,-0.01,0,-0.11,90.33
15091,63527439,0,1.66,-1.13,16.37,-0.006610956,-0.00233182,-0.3535978,0.1234257,1.135452,0.1692868,-0.6139053,-0.01,0,-0.11,90.33
15132,63537853,0,1.66,-1.13,16.37,-0.006643975,-0.002246235,-0.3517997,0.1253474,1.135452,0.1692868,-0.6113262,-0.01,0,-0.11,90.33
15174,63547868,0,1.66,-1.13,16.37,-0.006720654,-0.002308479,-0.3503692,0.1265455,1.135452,0.1692868,-0.6090140000000001,-0.01,0,-0.11,90.33
15214,63558047,0,1.66,-1.13,16.37,-0.006685327,-0.002364242,-0.3492401,0.1312549,1.135452,0.1692868,-0.6073202,-0.01,0,-0.11,90.33
15256,63569070,0,1.66,-1.13,16.37,-0.00679451,-0.002484901,-0.349223,0.1364879,1.135452,0.1692868,-0.610809,-0.01,0,-0.11,90.33
15297,63579046,0,1.66,-1.13,16.37,-0.006758693,-0.002378278,-0.3478731,0.1363587,1.135452,0.1692868,-0.6093339,-0.01,0,-0.11,90.33
15339,63589162,0,1.66,-1.13,16.37,-0.006939912,-0.002367052,-0.3466364,0.1320592,1.135452,0.1692868,-0.6077327,-0.01,0,-0.11,90.33
15384,63599082,0,1.66,-1.13,16.37,-0.00688738,-0.00255166,-0.3453191,0.1260317,1.135452,0.1692868,-0.6063568,-0.01,0,-0.11,90.33
15424,63610072,0,1.66,-1.13,16.37,-0.006963972,-0.002649115,-0.3442718,0.1198138,1.135452,0.1692868,-0.6052070000000001,-0.01,0,-0.11,90.33
15465,63620024,0,1.66,-1.13,16.37,-0.007034892,-0.002733957,-0.3439735,0.111241,1.135452,0.1692868,-0.6086444,-0.01,0,-0.11,90.33
15507,63630116,0,1.66,-1.13,16.37,-0.007056322,-0.002790248,-0.3428601,0.09832024,1.135452,0.1692868,-0.607998,-0.01,0,-0.11,90.33
15542,63641116,0,1.66,-1.13,16.37,-0.007199834,-0.002950047,-0.3412094,0.0940228,1.090925,0.177348,-0.605488,-0.01,0,-0.11,90.33
15583,63651052,0,1.66,-1.13,16.37,-0.007108278,-0.002979422,-0.3396474,0.09654798000000001,1.090925,0.177348,-0.6029226,-0.01,0,-0.11,90.33
15624,63661917,0,1.66,-1.13,16.37,-0.007043037,-0.00299565,-0.3381991,0.09955861000000001,1.090925,0.177348,-0.6006186999999999,-0.01,0,-0.11,90.33
15665,63671608,0,1.66,-1.13,16.37,-0.007243974,-0.002829154,-0.3368762,0.09921966,1.090925,0.177348,-0.5985518,-0.01,0,-0.11,90.33
15706,63681606,0,1.66,-1.13,16.37,-0.007201488,-0.002865093,-0.3356677,0.09816369,1.090925,0.177348,-0.5967253,-0.01,0,-0.11,90.33
15747,63691594,0,1.66,-1.13,16.37,-0.007278359,-0.002845995,-0.3355615,0.1008438,1.090925,0.177348,-0.6000777,-0.01,0,-0.11,90.33
15792,63701702,0,1.66,-1.13,16.37,-0.00732669,-0.002819096,-0.3343638,0.09962296,1.090925,0.177348,-0.5984576,-0.01,0,-0.11,90.33
15833,63711586,0,1.66,-1.13,16.37,-0.00752504,-0.002848431,-0.3329184,0.0971494,1.090925,0.177348,-0.5970592,-0.01,0,-0.11,90.33
15875,63721877,0,1.66,-1.13,16.37,-0.007400162,-0.002899382,-0.3316119,0.09060694,1.090925,0.177348,-0.5958565,-0.01,0,-0.11,90.33
15915,63734283,0,1.66,-1.13,16.37,-0.007445786,-0.002782971,-0.3299553,0.08629052,1.090925,0.177348,-0.5937936,-0.01,0,-0.11,90.33
15956,63744096,0,1.66,-1.13,16.37,-0.00737515,-0.002593904,-0.3282679,0.0835079,1.090925,0.177348,-0.5910027,-0.01,0,-0.11,90.33
15996,63755052,0,1.66,-1.13,16.37,-0.007322416,-0.002390929,-0.3283904,0.0890939,1.090925,0.177348,-0.594282,-0.01,0,-0.11,90.33
16039,63765001,0,1.66,-1.13,16.37,-0.007259614,-0.002534845,-0.3268341,0.09356085,1.090925,0.177348,-0.5917334,-0.01,0,-0.11,90.33
16082,63775059,0,1.66,-1.13,16.37,-0.007114237,-0.002548038,-0.3253077,0.09823095,1.090925,0.177348,-0.5894395,-0.01,0,-0.11,90.33
16122,63785024,0,1.66,-1.13,16.37,-0.007193698,-0.00240405,-0.3234605,0.09978276,1.090925,0.177348,-0.5873758,-0.01,0,-0.11,90.33
16172,63797336,0,1.66,-1.13,16.37,-0.007103167,-0.002394444,-0.3219089,0.1037766,1.090925,0.177348,-0.5865101,-0.01,0,-0.11,90.33
16212,63807220,0,1.66,-1.13,16.37,-0.007161962,-0.00241443,-0.3206304,0.1008709,1.090925,0.177348,-0.5848881,-0.01,0,-0.11,90.33
16253,63818024,0,1.66,-1.13,16.37,-0.007046707,-0.002534078,-0.3191808,0.1007386,1.090925,0.177348,-0.583811,-0.01,0,-0.11,90.33
16293,63828416,0,1.66,-1.13,16.37,-0.006947429,-0.002586172,-0.3188263,0.1012966,1.090925,0.177348,-0.586998,-0.01,0,-0.11,90.33
16336,63841284,0,1.66,-1.13,16.37,-0.007077367,-0.002576567,-0.3167853,0.103941,1.057529,0.1854093,-0.5845832,-0.01,0,-0.11,90.33
16378,63851319,0,1.66,-1.13,16.37,-0.007087006,-0.002449564,-0.3152778,0.1096309,1.057529,0.1854093,-0.5814840999999999,-0.01,0,-0.11,90.33
16418,63861929,0,1.66,-1.13,16.37,-0.007081292,-0.002377148,-0.3136442,0.1167328,1.057529,0.1854093,-0.5786523,-0.01,0,-0.11,90.33
16459,63872021,0,1.66,-1.13,16.37,-0.007050243,-0.002240675,-0.312034,0.1207648,1.057529,0.1854093,-0.5760773,-0.01,0,-0.11,90.33
16500,63881967,0,1.66,-1.13,16.38,-0.00690113,-0.002138588,-0.3107198,0.1239456,1.057529,0.1854093,-0.5737543000000001,-0.01,0,-0.11,90.33
16542,63892003,0,1.66,-1.13,16.38,-0.006849632,-0.002153503,-0.309684,0.1306852,1.057529,0.1854093,-0.5716928999999999,-0.01,0,-0.11,90.33
16588,63902058,0,1.66,-1.13,16.38,-0.006773769,-0.002252233,-0.3096424,0.1387059,1.057529,0.1854093,-0.5750953,-0.01,0,-0.11,90.33
16628,63912079,0,1.66,-1.13,16.38,-0.006991678,-0.002169722,-0.3086057,0.1413039,1.057529,0.1854093,-0.5732476,-0.01,0,-0.11,90.33
16669,63922038,0,1.66,-1.13,16.38,-0.007057219,-0.002228801,-0.3074292,0.1391039,1.057529,0.1854093,-0.5716099,-0.01,0,-0.11,90.33
16710,63932034,0,1.66,-1.13,16.38,-0.00716139,-0.002380577,-0.3062828,0.1346786,1.057529,0.1854093,-0.5701845,-0.01,0,-0.11,90.33
16748,63943071,0,1.66,-1.13,16.38,-0.007157189,-0.002408872,-0.3044035,0.1334072,1.057529,0.1854093,-0.5673008,-0.01,0,-0.11,90.33
16788,63953649,0,1.66,-1.13,16.38,-0.007218625,-0.002568213,-0.3028628,0.1370228,1.057529,0.1854093,-0.5643968,-0.01,0,-0.11,90.33
16829,63963844,0,1.66,-1.13,16.37,-0.007168376,-0.002563619,-0.3016508,0.1404158,1.057529,0.1854093,-0.5617533,-0.01,0,-0.11,90.33
16870,63973850,0,1.66,-1.13,16.37,-0.007063928,-0.002514401,-0.3014531,0.1484783,1.057529,0.1854093,-0.5647659,-0.01,0,-0.11,90.33
16910,63983942,0,1.66,-1.13,16.37,-0.007150942,-0.002625549,-0.3000927,0.1523441,1.057529,0.1854093,-0.5623452,-0.01,0,-0.11,90.33
16951,63993930,0,1.66,-1.13,16.37,-0.007261734,-0.002673912,-0.2987334,0.1544741,1.057529,0.1854093,-0.5601672,-0.01,0,-0.11,90.33
16995,64003900,0,1.66,-1.13,16.37,-0.007211458,-0.002601179,-0.2975228,0.1519243,1.057529,0.1854093,-0.5582062,-0.01,0,-0.11,90.33
17038,64014273,0,1.66,-1.13,16.38,-0.00728914,-0.002745433,-0.296405,0.1463576,1.057529,0.1854093,-0.556749,-0.01,0,-0.11,90.33
17078,64024576,0,1.66,-1.13,16.38,-0.007326771,-0.002616927,-0.2961325,0.1435705,1.057529,0.1854093,-0.5597088,-0.01,0,-0.11,90.33
17119,64034556,0,1.66,-1.13,16.38,-0.007398444,-0.00271787,-0.2945786,0.1376635,1.057529,0.1854093,-0.5581417,-0.01,0,-0.1,90.33
17160,64044945,0,1.66,-1.13,16.38,-0.04303102,0.03998483,-0.2927088,0.1274571,1.012873,0.2016517,-0.5549314,-0.01,0,-0.1,90.33
17197,64056341,0,1.66,-1.13,16.38,-0.04298901,0.04002452,-0.2910052,0.124442,1.012387,0.2021469,-0.5522873,-0.01,0,-0.1,90.33
17239,64066357,0,1.66,-1.13,16.38,-0.04277882,0.03998107,-0.2891474,0.1241361,1.011961,0.202585,-0.5493287,-0.01,0,-0.1,90.33
17279,64077009,0,1.66,-1.13,16.38,-0.0427589,0.0398607,-0.2876481,0.1306133,1.011465,0.2030862,-0.5469289000000001,-0.01,0,-0.1,90.33
17320,64087514,0,1.66,-1.13,16.38,-0.04292429,0.03987646,-0.2873502,0.1396244,1.011037,0.2034843,-0.5498003,-0.01,0,-0.1,90.33
17361,64098399,0,1.66,-1.13,16.38,-0.04289663,0.0398545,-0.2859969,0.1428666,1.010515,0.2040065,-0.5476049,-0.01,0,-0.1,90.33
17405,64109119,0,1.66,-1.13,16.38,-0.04288818,0.0395265,-0.284638,0.1450105,1.01001,0.2045086,-0.5453625,-0.01,0,-0.1,90.33
17448,64119054,0,1.66,-1.13,16.38,-0.042698,0.03945113,-0.2831622,0.1482863,1.009439,0.2050683,-0.5436425,-0.01,0,-0.1,90.33
17488,64129045,0,1.66,-1.13,16.38,-0.04257112,0.03938793,-0.2819584,0.1481434,1.008889,0.2056082,-0.541856,-0.01,0,-0.1,90.33
17529,64139078,0,1.66,-1.13,16.38,-0.04254162,0.03949875,-0.2801431,0.1432423,1.008312,0.2061715,-0.5385145,-0.01,0,-0.1,90.33
17570,64150089,0,1.66,-1.13,16.38,-0.04275495,0.03948043,-0.27873,0.1472162,1.007698,0.2067677,-0.5357355,-0.01,0,-0.1,90.33
17610,64160533,0,1.66,-1.13,16.38,-0.04284754,0.03942387,-0.2781478,0.1560348,1.007271,0.2071614,-0.5385166,-0.01,0,-0.1,90.33
17652,64170937,0,1.66,-1.13,16.38,-0.04286159,0.03941984,-0.2767106,0.1612942,1.006703,0.2077088,-0.535686,-0.01,0,-0.1,90.33
17692,64181061,0,1.66,-1.13,16.38,-0.042815,0.03963085,-0.2752571,0.1639683,1.006098,0.2082899,-0.5333677,-0.01,0,-0.1,90.33
17733,64191082,0,1.66,-1.13,16.38,-0.04282072,0.03981381,-0.2740769,0.1649599,1.005543,0.2088266,-0.5310118,-0.01,0,-0.1,90.33
17773,64200982,0,1.66,-1.13,16.38,-0.04279405,0.0397054,-0.2726549,0.1619664,1.004991,0.2093577,-0.5288729,-0.01,0,-0.1,90.33
17818,64211046,0,1.67,-1.13,16.38,-0.04274267,0.03977954,-0.2721796,0.1625364,1.004564,0.2097545,-0.5315942,-0.01,0,-0.1,90.33
17860,64221101,0,1.67,-1.13,16.38,-0.0428003,0.03978048,-0.2707287,0.1612094,1.004019,0.2102793,-0.5296594999999999,-0.01,0,-0.1,90.33
17902,64230956,0,1.67,-1.13,16.38,-0.04280281,0.03946278,-0.2694589,0.1610486,1.003477,0.2107962,-0.5279521,-0.01,0,-0.1,90.33
17938,64242102,0,1.67,-1.13,16.38,-0.04061257,0.03838085,-0.2669709,0.1625427,1.002239,0.211031,-0.5242689,-0.01,0,-0.1,90.33
17978,64252899,0,1.67,-1.13,16.38,-0.03850949,0.03719854,-0.2643333,0.1742695,1.001121,0.2112125,-0.5189817,-0.01,0,-0.1,90.33
18021,64262683,0,1.67,-1.13,16.38,-0.0368781,0.03623014,-0.2620095,0.1868278,1.000076,0.2113804,-0.51401,-0.01,0,-0.1,90.33
18063,64272975,0,1.67,-1.13,16.38,-0.03503722,0.03527217,-0.2597856,0.2020292,0.9991023,0.2115346,-0.5093588999999999,-0.01,0,-0.1,90.33
18103,64283363,0,1.67,-1.13,16.38,-0.03333085,0.03432586,-0.2574548,0.2258613,0.998165,0.2117108,-0.505287,-0.01,0,-0.1,90.33
18144,64294001,0,1.67,-1.13,16.38,-0.03340701,0.03439936,-0.257218,0.2488582,0.9978317,0.2120539,-0.5078573,-0.01,0,-0.1,90.33
18184,64303939,0,1.67,-1.13,16.38,-0.03171134,0.03340464,-0.2553799,0.2652301,0.9970105,0.2121736,-0.5037826,-0.01,0,-0.1,90.33
18230,64314027,0,1.66,-1.13,16.38,-0.03003001,0.03258421,-0.2536184,0.2696639,0.9962432,0.2122839,-0.4999484,-0.01,0,-0.1,90.33
18270,64323981,0,1.66,-1.13,16.38,-0.02853388,0.03186976,-0.2517796,0.2729663,0.9955311,0.2123862,-0.4963919,-0.01,0,-0.1,90.33
18312,64334281,0,1.66,-1.13,16.38,-0.02686987,0.03104106,-0.2499313,0.2796892,0.9948531,0.2125086,-0.4933592,-0.01,0,-0.1,90.33
18353,64344900,0,1.66,-1.13,16.38,-0.02696858,0.03113554,-0.2494934,0.2862841,0.9945843,0.2128191,-0.4958535,-0.01,0,-0.1,90.33
18393,64355056,0,1.66,-1.13,16.38,-0.0256785,0.03025594,-0.2474219,0.2921846,0.9939723,0.212925,-0.4913997,-0.01,0,-0.1,90.33
18434,64365287,0,1.66,-1.13,16.38,-0.0243847,0.02958596,-0.2455083,0.2962579,0.993435,0.2129912,-0.4869873,-0.01,0,-0.1,90.33
18474,64375081,0,1.66,-1.13,16.38,-0.02313632,0.028949,-0.2435118,0.3005008,0.992943,0.2130513,-0.4828714,-0.01,0,-0.1,90.33
18515,64385440,0,1.66,-1.13,16.38,-0.02206674,0.02812054,-0.2416479,0.3061143,0.9924927,0.2131051,-0.4790536,-0.01,0,-0.1,90.33
18556,64396017,0,1.66,-1.13,16.38,-0.02102761,0.02755958,-0.2396418,0.3080491,0.9920595,0.2131804,-0.4757282,-0.01,0,-0.1,90.33
18598,64406316,0,1.66,-1.13,16.38,-0.02109319,0.02758774,-0.2393685,0.3113338,0.9918488,0.2134558,-0.478121,-0.01,0,-0.1,90.33
18643,64416295,0,1.66,-1.13,16.38,-0.02003929,0.02693337,-0.2376462,0.3095115,0.9914875,0.2134904,-0.4747771,-0.01,0,-0.1,90.33
18683,64426293,0,1.66,-1.13,16.38,-0.01900002,0.02638718,-0.2357744,0.3056643,0.99116,0.2135219,-0.4716821,-0.01,0,-0.1,90.33
18726,64436524,0,1.66,-1.13,16.38,-0.01802117,0.0258087,-0.2342272,0.2966364,0.9908605,0.2135517,-0.4688145,-0.01,0,-0.1,90.33
18764,64450080,0,1.66,-1.13,16.39,-0.01539866,0.02510477,-0.231106,0.2941183,0.9901335,0.2135625,-0.4631894,-0.01,0,-0.1,90.33
18805,64460468,0,1.66,-1.13,16.39,-0.01283801,0.02435416,-0.2285438,0.3001109,0.9895596,0.2134699,-0.4570106,-0.01,0,-0.1,90.33
18846,64470385,0,1.66,-1.13,16.39,-0.01047835,0.02379327,-0.2258745,0.3107997,0.9890599,0.213378,-0.4511884,-0.01,0,-0.1,90.33
18887,64480403,0,1.66,-1.13,16.39,-0.01047464,0.02383239,-0.2253519,0.3308661,0.988955,0.2136158,-0.4534418,-0.01,0,-0.1,90.33
18928,64490247,0,1.66,-1.13,16.39,-0.008012137000000001,0.02323092,-0.2227465,0.3498366,0.9885466000000001,0.2135205,-0.4479341,-0.01,0,-0.1,90.33
18968,64500709,0,1.66,-1.13,16.39,-0.005746714,0.02253212,-0.2203424,0.3688108,0.9882102,0.2134259,-0.4427657,-0.01,0,-0.1,90.33
19009,64510904,0,1.66,-1.13,16.39,-0.003684738,0.02181816,-0.2181957,0.3832598,0.9879378,0.2133306,-0.4379077,-0.01,0,-0.1,90.33
19054,64520867,0,1.66,-1.13,16.39,-0.001600738,0.02120556,-0.215564,0.3903376,0.9877212,0.213236,-0.4333293,-0.01,0,-0.1,90.33
19095,64530977,0,1.66,-1.13,16.39,0.0002815005,0.02069727,-0.213553,0.3930925,0.9875628,0.2131432,-0.4290326,-0.01,0,-0.1,90.33
19135,64541043,0,1.66,-1.13,16.39,0.002149602,0.02025501,-0.2117422,0.3973054,0.9874608,0.2130733,-0.4252369,-0.01,0,-0.1,90.33
19177,64551428,0,1.66,-1.13,16.39,0.001978306,0.020189,-0.2115609,0.4004092,0.9874809,0.2132751,-0.4273507,-0.01,0,-0.1,90.33
19217,64561458,0,1.66,-1.13,16.39,0.003693937,0.01967654,-0.2095782,0.4011787,0.9874409,0.2131823,-0.4220533,-0.01,0,-0.1,90.33
19258,64571386,0,1.66,-1.13,16.38,0.005498478,0.01913423,-0.207293,0.402451,0.987445,0.2130921,-0.4170701,-0.01,0,-0.1,90.33
19300,64582007,0,1.66,-1.13,16.38,0.006850685,0.01868704,-0.2053513,0.405968,0.9874986,0.2130234,-0.4126078,-0.01,0,-0.1,90.33
19341,64592017,0,1.66,-1.13,16.38,0.008401249,0.01819571,-0.2035128,0.404657,0.9875724,0.2129202,-0.408024,-0.01,0,-0.1,90.33
19382,64601969,0,1.66,-1.13,16.38,0.009917268999999999,0.01781612,-0.2014579,0.3998719,0.9876969,0.2128573,-0.4041063,-0.01,0,-0.1,90.33
19422,64611970,0,1.66,-1.13,16.38,0.009905690999999999,0.01781289,-0.2010118,0.3974387,0.9877958,0.2130351,-0.4061166,-0.01,0,-0.1,90.33
19467,64622096,0,1.66,-1.13,16.38,0.01100737,0.01746516,-0.1990486,0.3923444,0.9879588,0.2129537,-0.4022377,-0.01,0,-0.1,90.33
19507,64631965,0,1.66,-1.13,16.38,0.01222748,0.01704207,-0.197411,0.3819255,0.9881469000000001,0.2128757,-0.3985986,-0.01,0,-0.1,90.33
19548,64645317,0,1.66,-1.13,16.38,0.0130558,0.01688051,-0.194551,0.3703755,0.9873732,0.2131406,-0.3934913,-0.01,0,-0.1,90.33
19589,64655330,0,1.66,-1.13,16.38,0.01399718,0.0166616,-0.1915864,0.3648678,0.9866267,0.2133487,-0.3867476,-0.01,0,-0.1,90.33
19630,64666064,0,1.66,-1.13,16.38,0.0147951,0.01654883,-0.1888553,0.3664084,0.9859403,0.2135519,-0.380366,-0.01,0,-0.1,90.33
19671,64677027,0,1.66,-1.13,16.38,0.01548258,0.01632657,-0.1861399,0.3798954,0.9853269,0.2137678,-0.3745361,-0.01,0,-0.1,90.33
19711,64687585,0,1.66,-1.13,16.37,0.01641397,0.01629915,-0.1835204,0.3974617,0.9847707,0.21398,-0.3690465,-0.01,0,-0.1,90.33
19753,64698060,0,1.66,-1.13,16.37,0.01720306,0.01614162,-0.1810425,0.4151849,0.9842708999999999,0.2141882,-0.3638808,-0.01,0,-0.1,90.33
19793,64709087,0,1.66,-1.13,16.37,0.01689394,0.01604012,-0.1804015,0.4312945,0.984441,0.2143488,-0.3656859,-0.01,0,-0.1,90.33
19838,64719079,0,1.66,-1.13,16.37,0.01755811,0.01579946,-0.1778859,0.4398192,0.9839919,0.214551,-0.3607693,-0.01,0,-0.1,90.33
19878,64729554,0,1.66,-1.13,16.37,0.01825934,0.0157807,-0.1754671,0.446359,0.9835719000000001,0.2147346,-0.3559733,-0.01,0,-0.1,90.33
19920,64740059,0,1.66,-1.13,16.37,0.01882138,0.01580212,-0.1733733,0.4453766,0.9832107,0.2149335,-0.3516079,-0.01,0,-0.1,90.33
