LineNo,TimeUS,DesRoll,Roll,DesPitch,Pitch,DesYaw,Yaw,ErrRP,ErrYaw,AEKF
187,1.1864e+08,0,0.86,-0.01,0.89,38.52,11.53,0,0.01,3
522,1.1873e+08,0,0.86,-0.01,0.88,38.56,11.53,0,0.01,3
973,1.1883e+08,0,0.85,-0.01,0.88,38.51,11.53,0,0.01,3
1301,1.1904e+08,0,0.86,-0.01,0.87,38.45,11.53,0.01,0.01,3
1386,1.1906e+08,0,0.86,-0.01,0.87,38.44,11.53,0.01,0.01,3
1599,1.1909e+08,0,0.85,-0.01,0.88,38.42,11.53,0.01,0.01,3
1645,1.191e+08,0,0.85,-0.01,0.88,38.41,11.53,0.01,0.01,3
1689,1.1911e+08,0,0.85,-0.01,0.88,38.41,11.53,0.01,0.01,3
1734,1.1912e+08,0,0.85,-0.01,0.88,38.4,11.53,0.01,0.01,3
1778,1.1913e+08,0,0.85,-0.01,0.88,38.39,11.53,0.01,0.01,3
1823,1.1914e+08,0,0.85,-0.01,0.87,38.39,11.54,0.01,0.01,3
1872,1.1915e+08,0,0.86,0,0.87,38.38,11.54,0.01,0.02,3
1917,1.1916e+08,0,0.86,0,0.87,38.38,11.54,0.01,0.02,3
1965,1.1917e+08,0.01,0.86,0,0.87,38.37,11.54,0.01,0.02,3
2009,1.1919e+08,0.01,0.86,0,0.87,38.36,11.54,0.01,0.02,3
2055,1.192e+08,0.01,0.87,0,0.87,38.36,11.54,0.01,0.02,3
2099,1.1921e+08,0.01,0.87,0,0.87,38.35,11.54,0.01,0.02,3
2144,1.1922e+08,0.01,0.86,0,0.87,38.35,11.54,0.01,0.02,3
2190,1.1923e+08,0.01,0.86,0,0.87,38.34,11.55,0.01,0.02,3
2233,1.1924e+08,0.01,0.86,0,0.87,38.33,11.55,0.01,0.02,3
2277,1.1925e+08,0.01,0.86,0,0.87,38.33,11.55,0.01,0.02,3
2326,1.1926e+08,0.01,0.85,0,0.87,38.32,11.55,0.01,0.02,3
2371,1.1927e+08,0.01,0.85,0,0.87,38.32,11.55,0.01,0.02,3
2415,1.1928e+08,0.01,0.85,0,0.86,38.31,11.55,0.01,0.02,3
2460,1.1929e+08,0.01,0.85,0,0.86,38.3,11.55,0.01,0.02,3
2505,1.193e+08,0.01,0.85,0,0.86,38.3,11.55,0.01,0.02,3
2550,1.1931e+08,0.01,0.85,0,0.86,38.29,11.55,0.01,0.02,3
2595,1.1932e+08,0.01,0.85,0,0.86,38.28,11.55,0.01,0.02,3
2640,1.1933e+08,0.01,0.85,0,0.86,38.28,11.55,0.01,0.02,3
2685,1.1934e+08,0.01,0.86,0,0.86,38.27,11.55,0.01,0.02,3
2729,1.1935e+08,0.01,0.86,0,0.86,38.27,11.56,0.01,0.02,3
2778,1.1936e+08,0.01,0.86,0,0.87,38.26,11.56,0.01,0.02,3
2822,1.1937e+08,0.01,0.86,0,0.87,38.25,11.56,0.01,0.02,3
2868,1.1938e+08,0.01,0.86,0,0.87,38.25,11.56,0.01,0.02,3
2912,1.1939e+08,0.01,0.86,0,0.87,38.24,11.56,0.01,0.02,3
2958,1.194e+08,0.01,0.85,0,0.87,38.24,11.56,0.01,0.02,3
3004,1.1942e+08,0.01,0.85,0,0.86,38.23,11.56,0.02,0.02,3
3046,1.1943e+08,0.01,0.85,0,0.86,38.23,11.56,0.02,0.02,3
3093,1.1944e+08,0.01,0.85,0,0.86,38.23,11.57,0.02,0.02,3
3138,1.1945e+08,0.01,0.84,0,0.86,38.23,11.57,0.02,0.02,3
3185,1.1946e+08,0.01,0.84,0,0.86,38.23,11.57,0.02,0.02,3
3231,1.1947e+08,0.01,0.84,0,0.86,38.23,11.57,0.02,0.02,3
3276,1.1948e+08,0.01,0.84,0,0.86,38.23,11.57,0.02,0.02,3
3321,1.1949e+08,0.01,0.84,0,0.86,38.23,11.57,0.02,0.02,3
3366,1.195e+08,0.01,0.84,0,0.86,38.23,11.57,0.02,0.02,3
3411,1.1951e+08,0.01,0.84,0,0.86,38.23,11.57,0.02,0.02,3
3455,1.1952e+08,0.01,0.85,0,0.86,38.23,11.57,0.02,0.02,3
3501,1.1953e+08,0.01,0.85,0,0.86,38.23,11.57,0.02,0.02,3
3547,1.1954e+08,0.01,0.85,0,0.86,38.23,11.58,0.02,0.02,3
3591,1.1955e+08,0.01,0.85,0,0.86,38.23,11.58,0.02,0.02,3
3639,1.1956e+08,0.01,0.85,0,0.86,38.23,11.58,0.02,0.02,3
3684,1.1957e+08,0.01,0.85,0,0.86,38.23,11.58,0.02,0.02,3
3729,1.1958e+08,0.01,0.85,0,0.86,38.23,11.58,0.02,0.02,3
3775,1.1959e+08,0.01,0.85,0,0.86,38.23,11.58,0.02,0.02,3
3819,1.196e+08,0.01,0.85,0,0.86,38.23,11.58,0.02,0.02,3
3869,1.1962e+08,0.01,0.85,0,0.86,38.23,11.58,0.02,0.02,3
3910,1.1963e+08,0.01,0.85,0,0.86,38.23,11.58,0.02,0.02,3
3957,1.1964e+08,0.01,0.85,0,0.86,38.23,11.58,0.02,0.02,3
4004,1.1965e+08,0.01,0.85,0,0.86,38.23,11.58,0.02,0.02,3
4048,1.1966e+08,0.01,0.85,0,0.86,38.23,11.59,0.02,0.02,3
4098,1.1967e+08,0.01,0.85,0,0.86,38.23,11.59,0.02,0.02,3
4142,1.1968e+08,0.01,0.85,0,0.86,38.23,11.59,0.02,0.02,3
4187,1.1969e+08,0.01,0.86,0,0.86,38.23,11.59,0.02,0.02,3
4231,1.197e+08,0.01,0.86,0,0.86,38.23,11.59,0.02,0.02,3
4276,1.1971e+08,0.01,0.86,0,0.86,38.23,11.59,0.02,0.02,3
4321,1.1972e+08,0.01,0.86,0,0.86,38.23,11.59,0.02,0.02,3
4365,1.1973e+08,0.01,0.86,0,0.86,38.23,11.59,0.02,0.02,3
4410,1.1974e+08,0.01,0.86,0,0.86,38.23,11.59,0.02,0.02,3
4455,1.1975e+08,0.01,0.86,0,0.86,38.23,11.59,0.02,0.02,3
4500,1.1976e+08,0.01,0.85,0,0.86,38.23,11.6,0.02,0.02,3
4548,1.1977e+08,0.01,0.85,0,0.86,38.23,11.6,0.02,0.02,3
4593,1.1978e+08,0.01,0.85,0,0.86,38.23,11.6,0.02,0.02,3
4637,1.1979e+08,0.01,0.85,0,0.86,38.23,11.6,0.02,0.02,3
4682,1.198e+08,0.01,0.85,0,0.86,38.23,11.6,0.02,0.02,3
4728,1.1981e+08,0.01,0.85,0,0.86,38.23,11.6,0.02,0.02,3
4774,1.1982e+08,0.01,0.85,0,0.86,38.23,11.6,0.02,0.02,3
4813,1.1983e+08,0.01,0.85,0,0.86,38.23,11.6,0.02,0.02,3
4858,1.1984e+08,0.01,0.86,0,0.86,38.23,11.6,0.02,0.02,3
4903,1.1985e+08,0.01,0.86,0,0.86,38.23,11.6,0.02,0.02,3
4949,1.1986e+08,0.01,0.86,0,0.86,38.23,11.6,0.02,0.02,3
4997,1.1988e+08,0.01,0.86,0,0.86,38.23,11.6,0.02,0.02,3
5042,1.1989e+08,0.01,0.86,0,0.86,38.23,11.6,0.02,0.02,3
5086,1.199e+08,0.01,0.86,0,0.86,38.23,11.6,0.02,0.02,3
5132,1.1991e+08,0.01,0.86,0,0.86,38.23,11.61,0.02,0.02,3
5176,1.1992e+08,0.01,0.86,0,0.86,38.23,11.61,0.02,0.02,3
5221,1.1993e+08,0.01,0.86,0,0.86,38.23,11.61,0.02,0.02,3
5268,1.1994e+08,0.01,0.86,0,0.86,38.23,11.61,0.02,0.02,3
5312,1.1995e+08,0.01,0.86,0,0.86,38.23,11.61,0.02,0.02,3
5357,1.1996e+08,0.01,0.86,0,0.86,38.23,11.61,0.02,0.02,3
5401,1.1997e+08,0.01,0.86,0,0.86,38.23,11.61,0.02,0.02,3
5450,1.1998e+08,0.01,0.86,0,0.86,38.23,11.61,0.02,0.02,3
5496,1.1999e+08,0.01,0.86,0,0.86,38.23,11.61,0.02,0.02,3
5541,1.2e+08,0.01,0.86,0,0.86,38.23,11.62,0.02,0.02,3
5588,1.2001e+08,0.01,0.87,0,0.86,38.23,11.62,0.01,0.02,3
5626,1.2002e+08,0.01,0.87,0,0.86,38.23,11.62,0.01,0.02,3
5671,1.2003e+08,0.01,0.87,0,0.86,38.23,11.62,0.01,0.02,3
5716,1.2004e+08,0.01,0.87,0,0.86,38.23,11.62,0.01,0.02,3
5760,1.2005e+08,0.01,0.87,0,0.86,38.23,11.63,0.01,0.02,3
5805,1.2006e+08,0.01,0.87,0,0.86,38.23,11.63,0.01,0.02,3
5849,1.2007e+08,0.01,0.87,0,0.86,38.23,11.63,0.01,0.02,3
5897,1.2008e+08,0.01,0.87,0,0.86,38.23,11.63,0.01,0.02,3
5943,1.2009e+08,0.01,0.87,0,0.86,38.24,11.63,0.01,0.02,3
5987,1.201e+08,0.01,0.87,0,0.86,38.26,11.63,0.01,0.02,3
6032,1.2011e+08,0.01,0.87,0,0.86,38.29,11.63,0.01,0.02,3
6076,1.2012e+08,0.01,0.86,0,0.86,38.32,11.63,0.01,0.02,3
6121,1.2013e+08,0.01,0.86,0,0.86,38.31,11.63,0.01,0.02,3
6165,1.2014e+08,0.01,0.87,0,0.86,38.31,11.63,0.01,0.02,3
6210,1.2015e+08,0.01,0.87,0,0.86,38.3,11.63,0.01,0.02,3
6256,1.2016e+08,0.01,0.87,0,0.87,11.64,11.63,0.01,0.02,3
6300,1.2018e+08,0.01,0.87,0,0.87,11.64,11.63,0.01,0.02,3
6350,1.2019e+08,0.01,0.87,0,0.87,11.64,11.63,0.01,0.02,3
6394,1.202e+08,0.01,0.87,0,0.87,11.64,11.63,0.01,0.02,3
6440,1.2021e+08,0.01,0.87,0,0.87,11.63,11.62,0.01,0.02,3
6487,1.2022e+08,0.01,0.87,0,0.86,11.63,11.61,0.02,0.02,3
6526,1.2023e+08,0.01,0.87,0,0.86,11.64,11.63,0.02,0.02,3
6571,1.2024e+08,0.01,0.87,0,0.86,11.65,11.64,0.02,0.02,3
6615,1.2025e+08,0.01,0.88,0,0.86,11.66,11.65,0.02,0.02,3
6660,1.2026e+08,0.01,0.87,0,0.86,11.67,11.66,0.02,0.02,3
6704,1.2027e+08,0.01,0.87,0,0.86,11.67,11.66,0.02,0.02,3
6749,1.2028e+08,0.01,0.87,0,0.86,11.67,11.66,0.02,0.02,3
6797,1.2029e+08,0.01,0.87,0,0.87,11.67,11.66,0.02,0.01,3
6842,1.203e+08,0.01,0.87,0,0.87,11.66,11.65,0.02,0.01,3
6887,1.2031e+08,0.01,0.87,0,0.87,11.66,11.65,0.02,0.01,3
6933,1.2032e+08,0.01,0.89,0,0.86,11.65,11.64,0.02,0.01,3
6978,1.2033e+08,0.01,0.89,0,0.86,11.64,11.63,0.02,0.01,3
7022,1.2034e+08,0.01,0.89,0,0.86,11.63,11.62,0.02,0.01,3
7067,1.2035e+08,0.01,0.88,0,0.86,11.63,11.62,0.02,0.01,3
7113,1.2036e+08,0.01,0.87,0,0.86,11.64,11.63,0.02,0.01,3
7157,1.2037e+08,0.01,0.88,0,0.86,11.64,11.63,0.02,0.01,3
7202,1.2038e+08,0.01,0.88,0,0.86,11.65,11.64,0.02,0.01,3
7250,1.2039e+08,0.01,0.88,0,0.86,11.66,11.65,0.02,0.01,3
7296,1.204e+08,0.01,0.88,0,0.86,11.66,11.65,0.02,0.01,3
7340,1.2041e+08,0.01,0.87,0,0.87,11.67,11.66,0.02,0.01,3
7387,1.2042e+08,0.01,0.88,0,0.87,11.67,11.66,0.02,0.01,3
7431,1.2043e+08,0.01,0.89,0,0.88,11.67,11.66,0.02,0.01,3
7473,1.2045e+08,0.01,0.9,0,0.87,11.67,11.66,0.02,0.01,3
7518,1.2046e+08,0.01,0.9,0,0.86,11.67,11.66,0.02,0.01,3
7563,1.2047e+08,0.01,0.9,0,0.86,11.67,11.66,0.02,0.01,3
7608,1.2048e+08,0.01,0.9,0,0.87,11.66,11.65,0.02,0.01,3
7653,1.2049e+08,0.01,0.9,0,0.85,11.65,11.64,0.02,0.01,3
7701,1.205e+08,0.01,0.91,0,0.86,11.65,11.64,0.02,0.01,3
7746,1.2051e+08,0.01,0.91,0,0.85,11.65,11.64,0.02,0.01,3
7790,1.2052e+08,0.01,0.9,0,0.86,11.65,11.64,0.02,0.01,3
7835,1.2053e+08,0.01,0.89,0,0.87,11.66,11.64,0.02,0.01,3
7880,1.2054e+08,0.01,0.9,0,0.88,11.65,11.64,0.02,0.01,3
7926,1.2055e+08,0.01,0.91,0,0.88,11.66,11.65,0.02,0.01,3
7972,1.2056e+08,0.01,0.92,0,0.87,11.68,11.66,0.02,0.01,3
8016,1.2057e+08,0.01,0.92,0,0.87,11.67,11.66,0.02,0.01,3
8061,1.2058e+08,0.01,0.91,0,0.86,11.68,11.67,0.02,0.01,3
8105,1.2059e+08,0.01,0.91,0,0.86,11.68,11.67,0.02,0.01,3
8154,1.206e+08,0.01,0.91,0,0.86,11.69,11.68,0.02,0.01,3
8200,1.2061e+08,0.01,0.92,0,0.85,11.68,11.67,0.02,0.01,3
8243,1.2062e+08,0.01,0.92,0,0.84,11.67,11.66,0.02,0.01,3
8287,1.2063e+08,0.01,0.92,0,0.86,11.66,11.65,0.02,0.01,3
8332,1.2065e+08,0.01,0.9,0,0.86,11.66,11.65,0.02,0.01,3
8379,1.2066e+08,0.01,0.89,0,0.88,11.65,11.64,0.02,0.01,3
8426,1.2067e+08,0.01,0.9,0,0.87,11.65,11.64,0.02,0.01,3
8472,1.2068e+08,0.01,0.89,0,0.88,11.64,11.63,0.02,0.01,3
8516,1.2069e+08,0.01,0.89,0,0.87,11.65,11.64,0.02,0.01,3
8562,1.207e+08,0.01,0.88,0,0.88,11.65,11.63,0.02,0.01,3
8610,1.2071e+08,0.01,0.89,0,0.87,11.66,11.64,0.02,0.01,3
8656,1.2072e+08,0.01,0.92,0,0.87,11.65,11.64,0.02,0.01,3
8701,1.2073e+08,0.01,0.92,0,0.85,11.67,11.66,0.02,0.01,3
8748,1.2074e+08,0.01,0.9,0,0.87,11.67,11.66,0.02,0.01,3
8793,1.2075e+08,0.01,0.9,0,0.85,11.68,11.67,0.02,0.01,3
8837,1.2076e+08,0.01,0.9,0,0.86,11.67,11.66,0.02,0.01,3
8882,1.2077e+08,0.01,0.91,0,0.86,11.69,11.67,0.02,0.01,3
8926,1.2078e+08,0.01,0.9,0,0.89,11.67,11.66,0.02,0.01,3
8973,1.2079e+08,0.01,0.91,0,0.89,11.68,11.67,0.02,0.01,3
9021,1.208e+08,0.01,0.9,0,0.89,11.66,11.65,0.02,0.01,3
9066,1.2081e+08,0.01,0.91,0,0.89,11.67,11.66,0.02,0.01,3
9110,1.2082e+08,0.01,0.89,0,0.89,11.65,11.64,0.02,0.01,3
9152,1.2083e+08,0.01,0.91,0,0.89,11.66,11.65,0.02,0.01,3
9196,1.2084e+08,0.01,0.89,0,0.87,11.65,11.64,0.02,0.01,3
9244,1.2086e+08,0.01,0.94,0,0.86,11.66,11.65,0.02,0.01,3
9289,1.2087e+08,0.01,0.94,0,0.85,11.66,11.65,0.02,0.01,3
9334,1.2088e+08,0.01,0.95,0,0.86,11.66,11.65,0.02,0.01,3
9380,1.2089e+08,0.01,0.94,0,0.83,11.68,11.66,0.02,0.01,3
9424,1.209e+08,0.01,0.94,0,0.85,11.67,11.66,0.02,0.01,3
9472,1.2091e+08,0.01,0.94,0,0.87,11.69,11.67,0.02,0.01,3
9518,1.2092e+08,0.01,0.92,0,0.88,11.67,11.66,0.02,0.01,3
9565,1.2093e+08,0.01,0.96,0,0.91,11.7,11.69,0.02,0.01,3
9610,1.2094e+08,0.01,0.96,0,0.87,11.68,11.66,0.02,0.01,3
9654,1.2095e+08,0.01,0.98,0,0.89,11.69,11.69,0.02,0.01,3
9703,1.2096e+08,0.01,0.97,0,0.87,11.69,11.69,0.02,0.01,3
9748,1.2097e+08,0.02,0.99,0,0.83,11.69,11.66,0.02,0.01,3
9793,1.2098e+08,0.03,0.96,0.01,0.84,11.69,11.69,0.02,0.01,3
9837,1.2099e+08,0.04,0.96,0.02,0.82,11.69,11.67,0.02,0.01,3
9882,1.21e+08,0.06,1,0.02,0.85,11.69,11.68,0.02,0.01,3
9930,1.2102e+08,0.07,0.97,0.03,0.85,11.69,11.68,0.02,0.01,3
9977,1.2103e+08,0.09,0.97,0.03,0.83,11.69,11.68,0.01,0.01,3
10021,1.2104e+08,0.11,1.04,0.03,0.85,11.69,11.67,0.01,0.01,3
10068,1.2105e+08,0.12,1.02,0.04,0.89,11.69,11.68,0.01,0.01,3
10112,1.2106e+08,0.13,0.85,0.04,0.88,11.69,11.69,0.01,0.01,3
10156,1.2107e+08,0.14,0.78,0.04,0.91,11.69,11.7,0.01,0.01,3
10201,1.2109e+08,0.14,0.8,0.04,0.86,11.69,11.7,0.01,0.01,3
10245,1.211e+08,0.15,0.92,0.04,0.84,11.69,11.7,0.01,0.01,3
10290,1.2111e+08,0.15,1.09,0.03,0.82,11.69,11.7,0.01,0.01,3
10339,1.2112e+08,0.15,1.15,0.03,0.83,11.69,11.7,0.01,0.01,3
10384,1.2113e+08,0.15,1.06,0.03,0.82,11.69,11.71,0.01,0.01,3
10429,1.2114e+08,0.16,0.95,0.03,0.79,11.69,11.71,0.01,0.01,3
10473,1.2115e+08,0.16,0.92,0.03,0.78,11.69,11.73,0.01,0.01,3
10522,1.2116e+08,0.18,0.9,0.03,0.75,11.69,11.74,0.01,0.01,3
10567,1.2117e+08,0.2,0.91,0.02,0.76,11.69,11.74,0.01,0.01,3
10611,1.2118e+08,0.22,0.98,0.02,0.84,11.69,11.75,0.01,0.01,3
10656,1.2119e+08,0.23,1.07,0.02,0.81,11.69,11.76,0.01,0.01,3
10701,1.2121e+08,0.25,1.03,0.01,0.78,11.69,11.73,0.01,0.01,3
10748,1.2122e+08,0.26,0.98,0,0.86,11.69,11.73,0.01,0.01,3
10797,1.2123e+08,0.27,0.91,0,0.8,11.69,11.72,0.01,0.01,3
10843,1.2124e+08,0.28,0.97,0,0.83,11.69,11.72,0.01,0.01,3
10891,1.2126e+08,0.28,0.97,0,0.8,11.69,11.71,0.01,0.01,3
10936,1.2127e+08,0.28,0.92,-0.01,0.82,11.69,11.71,0.01,0.01,3
10981,1.2128e+08,0.27,0.92,-0.02,0.8,11.69,11.72,0.01,0.01,3
11026,1.2129e+08,0.26,0.92,-0.03,0.81,11.69,11.73,0.01,0.01,3
11070,1.213e+08,0.25,0.95,-0.04,0.86,11.69,11.74,0.01,0.01,3
11114,1.2131e+08,0.24,1.13,-0.06,0.85,11.69,11.76,0.01,0.01,3
11159,1.2132e+08,0.24,1.18,-0.08,0.86,11.69,11.75,0.01,0.01,3
11207,1.2133e+08,0.24,1.16,-0.09,0.89,11.69,11.76,0.01,0.01,3
11253,1.2134e+08,0.25,0.94,-0.1,0.85,11.69,11.76,0.01,0.01,3
11298,1.2135e+08,0.26,0.81,-0.11,0.82,11.69,11.75,0.01,0.01,3
11342,1.2137e+08,0.28,0.83,-0.13,0.83,11.69,11.76,0.01,0.01,3
11387,1.2138e+08,0.29,0.91,-0.14,0.84,11.69,11.76,0.01,0.01,3
11432,1.2139e+08,0.3,1,-0.15,0.86,11.69,11.76,0.01,0.01,3
11476,1.214e+08,0.3,1.01,-0.16,0.84,11.69,11.75,0.01,0.01,3
11525,1.2141e+08,0.29,1.06,-0.18,0.85,11.69,11.75,0.02,0.01,3
11569,1.2142e+08,0.29,1.01,-0.19,0.87,11.69,11.74,0.02,0.01,3
11616,1.2143e+08,0.29,1.1,-0.2,0.86,11.69,11.75,0.02,0.01,3
11665,1.2144e+08,0.29,1.16,-0.2,0.87,11.69,11.74,0.02,0.01,3
11710,1.2146e+08,0.29,1.13,-0.21,0.88,11.69,11.75,0.02,0.01,3
11754,1.2147e+08,0.3,1.04,-0.22,0.88,11.69,11.74,0.02,0.01,3
11799,1.2148e+08,0.31,0.84,-0.23,0.89,11.69,11.76,0.02,0.01,3
11843,1.2149e+08,0.33,0.75,-0.24,0.91,11.69,11.77,0.02,0.01,3
11888,1.215e+08,0.34,0.83,-0.24,0.95,11.69,11.78,0.02,0.01,3
11934,1.2151e+08,0.34,0.93,-0.26,0.96,11.69,11.79,0.02,0.01,3
11978,1.2152e+08,0.32,1,-0.27,0.97,11.69,11.79,0.02,0.01,3
12023,1.2153e+08,0.29,0.96,-0.27,0.96,11.69,11.8,0.02,0.01,3
12068,1.2154e+08,0.27,0.9,-0.28,1.01,11.69,11.8,0.02,0.01,3
12116,1.2155e+08,0.24,0.93,-0.29,1.05,11.69,11.82,0.02,0.02,3
12160,1.2156e+08,0.22,0.98,-0.32,1.09,11.69,11.83,0.02,0.02,3
12205,1.2157e+08,0.2,1.05,-0.33,1.1,11.69,11.84,0.02,0.02,3
12254,1.2159e+08,0.17,1.15,-0.35,0.92,11.69,11.83,0.02,0.02,3
12298,1.216e+08,0.15,1.17,-0.36,0.92,11.69,11.86,0.02,0.02,3
12343,1.2161e+08,0.12,1.17,-0.35,0.9,11.69,11.9,0.02,0.02,3
12387,1.2162e+08,0.09,1.16,-0.34,0.87,11.69,11.93,0.02,0.02,3
12434,1.2163e+08,0.05,1.29,-0.32,0.84,11.69,12,0.02,0.02,3
12479,1.2164e+08,0.02,1.26,-0.31,0.81,11.69,12.05,0.02,0.02,3
12530,1.2165e+08,-0.01,1.28,-0.3,0.79,11.69,12.1,0.02,0.02,3
12575,1.2166e+08,-0.05,1.33,-0.3,0.76,11.69,12.15,0.02,0.02,3
12620,1.2168e+08,-0.09,1.38,-0.3,0.73,11.69,12.23,0.02,0.02,3
12664,1.2169e+08,-0.15,1.45,-0.29,0.74,11.69,12.31,0.02,0.02,3
12709,1.217e+08,-0.21,1.51,-0.3,0.7,11.69,12.39,0.02,0.02,3
12753,1.2171e+08,-0.27,1.6,-0.3,0.67,11.69,12.47,0.02,0.02,3
12798,1.2172e+08,-0.34,1.65,-0.3,0.67,11.69,12.57,0.02,0.02,3
12845,1.2173e+08,-0.42,1.75,-0.3,0.61,11.69,12.67,0.02,0.02,3
12889,1.2174e+08,-0.5,1.88,-0.31,0.59,11.69,12.78,0.02,0.02,3
12935,1.2175e+08,-0.59,1.95,-0.31,0.6,11.69,12.88,0.02,0.02,3
12983,1.2176e+08,-0.67,2.03,-0.31,0.51,11.69,12.98,0.02,0.02,3
13028,1.2177e+08,-0.75,2.11,-0.31,0.47,11.69,13.08,0.02,0.02,3
13073,1.2178e+08,-0.83,2.11,-0.3,0.44,11.69,13.21,0.02,0.02,3
13117,1.2179e+08,-0.92,2.17,-0.29,0.39,11.69,13.32,0.02,0.02,3
13162,1.218e+08,-1,2.25,-0.29,0.37,11.69,13.43,0.02,0.02,3
13208,1.2182e+08,-1.13,2.38,-0.28,0.29,11.69,13.62,0.02,0.02,3
13253,1.2183e+08,-1.24,2.42,-0.28,0.27,11.69,13.74,0.02,0.02,3
13298,1.2184e+08,-1.36,2.45,-0.26,0.22,11.69,13.83,0.02,0.02,3
13342,1.2185e+08,-1.49,2.5,-0.24,0.15,11.69,13.96,0.02,0.02,3
13391,1.2186e+08,-1.63,2.52,-0.2,0.09,11.68,14.08,0.02,0.02,3
13438,1.2188e+08,-1.76,2.57,-0.16,-0.02,11.68,14.2,0.02,0.03,3
13482,1.2189e+08,-1.9,2.58,-0.11,-0.13,11.68,14.32,0.02,0.03,3
13528,1.219e+08,-2.03,2.53,-0.05,-0.19,11.68,14.43,0.02,0.03,3
13572,1.2191e+08,-2.16,2.5,0,-0.29,11.68,14.54,0.02,0.03,3
13619,1.2192e+08,-2.3,2.5,0.06,-0.37,11.67,14.66,0.02,0.03,3
13664,1.2193e+08,-2.44,2.46,0.12,-0.44,11.67,14.79,0.02,0.03,3
13708,1.2194e+08,-2.59,2.4,0.18,-0.48,11.67,14.89,0.02,0.03,3
13752,1.2195e+08,-2.74,2.31,0.23,-0.5,11.67,15,0.02,0.03,3
13797,1.2196e+08,-2.87,2.2,0.28,-0.55,11.66,15.14,0.02,0.03,3
13845,1.2197e+08,-3.01,2.1,0.33,-0.55,11.66,15.25,0.02,0.03,3
13891,1.2198e+08,-3.15,2.01,0.37,-0.51,11.66,15.38,0.02,0.02,3
13936,1.2199e+08,-3.29,1.89,0.42,-0.44,11.66,15.5,0.02,0.02,3
13981,1.22e+08,-3.43,1.76,0.46,-0.43,11.65,15.64,0.02,0.02,3
14025,1.2201e+08,-3.56,1.63,0.51,-0.38,11.65,15.75,0.02,0.02,3
14070,1.2202e+08,-3.69,1.44,0.56,-0.3,11.65,15.87,0.02,0.02,3
14113,1.2203e+08,-3.8,1.22,0.61,-0.29,11.65,15.98,0.02,0.02,3
14155,1.2204e+08,-3.9,1.04,0.66,-0.26,11.64,16.09,0.02,0.02,3
14200,1.2205e+08,-4.04,0.89,0.73,-0.16,11.64,16.18,0.02,0.02,3
14244,1.2207e+08,-4.2,0.67,0.8,-0.05,11.63,16.31,0.02,0.02,3
14292,1.2208e+08,-4.4,0.49,0.86,0,11.63,16.41,0.02,0.02,3
14338,1.2209e+08,-4.61,0.35,0.92,0.04,11.62,16.5,0.02,0.02,3
14382,1.221e+08,-4.84,0.24,0.97,0.14,11.62,16.61,0.02,0.02,3
14427,1.2211e+08,-5.07,0.11,1.02,0.24,11.61,16.71,0.02,0.02,3
14475,1.2212e+08,-5.37,-0.13,1.07,0.36,11.61,16.85,0.02,0.02,3
14520,1.2213e+08,-5.61,-0.3,1.11,0.48,11.61,16.97,0.02,0.02,3
14565,1.2214e+08,-5.84,-0.5,1.14,0.59,11.6,17.06,0.02,0.02,3
14609,1.2215e+08,-6.06,-0.73,1.16,0.7,11.6,17.2,0.02,0.02,3
14653,1.2216e+08,-6.28,-0.92,1.19,0.77,11.6,17.3,0.02,0.02,3
14698,1.2217e+08,-6.49,-1.09,1.22,0.79,11.59,17.41,0.02,0.02,3
14746,1.2218e+08,-6.72,-1.27,1.25,0.87,11.59,17.51,0.02,0.01,3
14791,1.2219e+08,-6.93,-1.52,1.29,0.95,11.59,17.65,0.02,0.01,3
14836,1.2221e+08,-7.14,-1.79,1.32,0.97,11.58,17.78,0.02,0.01,3
14882,1.2222e+08,-7.34,-2.06,1.35,1,11.58,17.9,0.02,0.01,3
14926,1.2223e+08,-7.54,-2.38,1.38,1.1,11.57,18.08,0.03,0.01,3
14970,1.2224e+08,-7.73,-2.6,1.42,1.1,11.57,18.22,0.03,0.01,3
15015,1.2225e+08,-7.92,-2.82,1.46,1.11,11.56,18.34,0.03,0.01,3
15060,1.2226e+08,-8.1,-3.06,1.5,1.11,11.56,18.47,0.03,0.01,3
15105,1.2227e+08,-8.3,-3.31,1.54,1.16,11.55,18.6,0.03,0.01,3
15149,1.2228e+08,-8.49,-3.51,1.58,1.19,11.55,18.71,0.03,0.01,3
15198,1.223e+08,-8.68,-3.71,1.6,1.22,11.54,18.84,0.03,0.01,3
15243,1.2231e+08,-8.87,-3.95,1.62,1.26,11.54,18.96,0.03,0.01,3
15288,1.2232e+08,-9.05,-4.21,1.64,1.36,11.54,19.06,0.03,0.01,3
15332,1.2233e+08,-9.21,-4.44,1.65,1.43,11.54,19.18,0.03,0.01,3
15377,1.2234e+08,-9.41,-4.67,1.66,1.48,11.53,19.3,0.03,0.01,3
15421,1.2235e+08,-9.56,-4.88,1.65,1.59,11.53,19.38,0.03,0.01,3
15466,1.2236e+08,-9.72,-5.1,1.64,1.77,11.54,19.46,0.03,0.01,3
15511,1.2237e+08,-9.87,-5.29,1.62,1.89,11.54,19.52,0.03,0.01,3
15557,1.2238e+08,-10.03,-5.51,1.6,1.97,11.54,19.58,0.03,0.01,3
15601,1.2239e+08,-10.17,-5.76,1.58,2.06,11.55,19.63,0.03,0.01,3
15651,1.224e+08,-10.29,-6,1.56,2.19,11.55,19.67,0.03,0.01,3
15699,1.2241e+08,-10.41,-6.23,1.53,2.28,11.56,19.71,0.04,0.01,3
15738,1.2243e+08,-10.52,-6.51,1.51,2.48,11.56,19.76,0.04,0.01,3
15783,1.2244e+08,-10.62,-6.72,1.48,2.53,11.57,19.81,0.04,0.01,3
15827,1.2245e+08,-10.72,-6.91,1.44,2.59,11.57,19.84,0.04,0.01,3
15871,1.2246e+08,-10.8,-7.1,1.41,2.67,11.58,19.88,0.04,0.01,3
15916,1.2247e+08,-10.89,-7.33,1.39,2.72,11.58,19.92,0.04,0.01,3
15961,1.2248e+08,-10.99,-7.51,1.36,2.8,11.59,19.96,0.04,0.01,3
16006,1.2249e+08,-11.08,-7.66,1.33,2.79,11.6,20,0.04,0.01,3
16051,1.225e+08,-11.16,-7.77,1.29,2.78,11.6,20.04,0.04,0.01,3
16099,1.2251e+08,-11.26,-7.89,1.26,2.8,11.61,20.06,0.04,0.01,3
16144,1.2252e+08,-11.36,-8.01,1.23,2.8,11.61,20.09,0.04,0.01,3
16189,1.2253e+08,-11.47,-8.12,1.19,2.83,11.62,20.12,0.04,0.01,3
16234,1.2254e+08,-11.57,-8.2,1.15,2.84,11.63,20.15,0.04,0.01,3
16283,1.2256e+08,-11.7,-8.25,1.1,2.76,11.63,20.2,0.04,0.01,3
16327,1.2257e+08,-11.79,-8.3,1.06,2.75,11.62,20.22,0.04,0.01,3
16373,1.2258e+08,-11.89,-8.38,1.06,2.72,11.59,20.26,0.04,0.01,3
16418,1.2259e+08,-11.98,-8.43,1.04,2.67,11.53,20.3,0.04,0.01,3
16462,1.226e+08,-12.08,-8.48,1.01,2.58,11.44,20.33,0.04,0.01,3
16506,1.2261e+08,-12.16,-8.57,0.97,2.57,11.33,20.36,0.04,0.01,3
16551,1.2262e+08,-12.26,-8.65,0.93,2.57,11.19,20.39,0.04,0.01,3
16596,1.2263e+08,-12.34,-8.73,0.9,2.46,11.02,20.43,0.04,0.01,3
16641,1.2265e+08,-12.4,-8.8,0.85,2.4,10.82,20.45,0.04,0.01,3
16689,1.2266e+08,-12.47,-8.92,0.8,2.37,10.54,20.47,0.04,0.01,3
16735,1.2267e+08,-12.52,-9.02,0.75,2.3,10.32,20.5,0.04,0.01,3
16780,1.2268e+08,-12.56,-9.11,0.71,2.14,10.1,20.5,0.04,0.01,3
16824,1.2269e+08,-12.61,-9.22,0.68,2.08,9.88,20.5,0.04,0.01,3
16870,1.227e+08,-12.65,-9.36,0.67,2.04,9.65,20.5,0.04,0.01,3
16914,1.2271e+08,-12.69,-9.48,0.66,1.96,9.41,20.49,0.04,0.01,3
16962,1.2272e+08,-12.72,-9.6,0.65,1.91,9.17,20.47,0.04,0.01,3
17008,1.2273e+08,-12.75,-9.7,0.66,1.83,8.93,20.45,0.04,0.01,3
17053,1.2274e+08,-12.78,-9.79,0.66,1.77,8.69,20.39,0.04,0.01,3
17098,1.2276e+08,-12.81,-9.94,0.66,1.71,8.42,20.35,0.04,0.01,3
17142,1.2277e+08,-12.83,-10.07,0.67,1.68,8.06,20.26,0.04,0.01,3
17187,1.2278e+08,-12.83,-10.19,0.69,1.71,7.74,20.19,0.04,0.01,3
17233,1.2279e+08,-12.84,-10.27,0.7,1.72,7.41,20.1,0.04,0.01,3
17281,1.228e+08,-12.84,-10.41,0.7,1.75,7.09,20.01,0.03,0.01,3
17320,1.2281e+08,-12.84,-10.46,0.7,1.76,6.77,19.89,0.03,0.01,3
17366,1.2282e+08,-12.83,-10.54,0.72,1.81,6.44,19.8,0.03,0.01,3
17415,1.2283e+08,-12.82,-10.59,0.73,1.8,6.11,19.67,0.03,0.01,3
17459,1.2284e+08,-12.79,-10.68,0.75,1.78,5.79,19.55,0.03,0.01,3
17504,1.2286e+08,-12.77,-10.73,0.78,1.8,5.46,19.4,0.03,0.01,3
17549,1.2287e+08,-12.74,-10.8,0.8,1.82,5.1,19.27,0.03,0.01,3
17594,1.2288e+08,-12.71,-10.8,0.83,1.84,4.74,19.11,0.03,0.01,3
17639,1.2289e+08,-12.66,-10.83,0.87,1.92,4.35,18.94,0.03,0.01,3
17684,1.229e+08,-12.6,-10.86,0.9,1.97,3.97,18.76,0.03,0.01,3
17732,1.2291e+08,-12.52,-10.88,0.94,2.03,3.6,18.57,0.03,0.01,3
17777,1.2292e+08,-12.45,-10.88,0.98,2.09,3.23,18.34,0.03,0.01,3
17821,1.2293e+08,-12.39,-10.85,1.01,2.18,2.85,18.14,0.03,0.01,3
17869,1.2294e+08,-12.33,-10.81,1.04,2.27,2.46,17.92,0.03,0.02,3
17913,1.2295e+08,-12.28,-10.73,1.06,2.35,2.06,17.66,0.03,0.02,3
17958,1.2296e+08,-12.23,-10.65,1.08,2.44,1.66,17.41,0.03,0.02,3
18005,1.2298e+08,-12.19,-10.56,1.12,2.54,1.15,17.09,0.03,0.02,3
18050,1.2299e+08,-12.18,-10.44,1.15,2.62,0.75,16.82,0.03,0.02,3
18095,1.23e+08,-12.16,-10.31,1.19,2.76,0.34,16.52,0.03,0.02,3
18139,1.2301e+08,-12.14,-10.2,1.23,2.89,359.94,16.22,0.03,0.02,3
18186,1.2302e+08,-12.11,-10.14,1.31,3.15,359.45,15.74,0.04,0.02,3
18230,1.2303e+08,-12.07,-10.03,1.37,3.28,359.06,15.43,0.04,0.02,3
18279,1.2305e+08,-12.01,-9.89,1.43,3.42,358.66,15.1,0.04,0.03,3
18325,1.2306e+08,-11.94,-9.8,1.49,3.57,358.27,14.76,0.04,0.03,3
18369,1.2307e+08,-11.86,-9.77,1.55,3.73,357.88,14.42,0.04,0.03,3
18414,1.2308e+08,-11.77,-9.76,1.6,3.84,357.5,14.07,0.04,0.03,3
18461,1.2324e+08,-10.67,-7.98,2.81,5.71,355.41,11.43,0.05,0.04,3
18505,1.2325e+08,-10.62,-7.81,2.89,5.79,355.05,10.98,0.05,0.04,3
18554,1.2326e+08,-10.57,-7.63,2.97,5.9,354.71,10.57,0.05,0.05,3
18598,1.2327e+08,-10.51,-7.46,3.04,5.97,354.38,10.16,0.05,0.05,3
18643,1.2328e+08,-10.46,-7.34,3.1,6.08,354.07,9.7,0.05,0.05,3
18688,1.233e+08,-10.39,-7.08,3.16,6.09,353.75,9.07,0.05,0.05,3
18732,1.2331e+08,-10.32,-6.98,3.2,6.25,353.43,8.46,0.05,0.05,3
18777,1.2332e+08,-10.23,-6.92,3.22,6.31,353.12,7.99,0.05,0.05,3
18821,1.2333e+08,-10.13,-6.88,3.24,6.36,352.83,7.54,0.05,0.05,3
18866,1.2334e+08,-10.04,-6.86,3.26,6.35,352.57,7.12,0.05,0.05,3
18911,1.2335e+08,-9.94,-6.81,3.28,6.36,352.33,6.64,0.05,0.05,3
18960,1.2336e+08,-9.85,-6.67,3.3,6.33,352.12,6.21,0.05,0.04,3
19005,1.2337e+08,-9.76,-6.61,3.34,6.35,351.94,5.73,0.05,0.04,3
19050,1.2339e+08,-9.68,-6.62,3.39,6.32,351.78,5.26,0.05,0.04,3
19094,1.234e+08,-9.6,-6.65,3.45,6.25,351.65,4.83,0.05,0.04,3
19138,1.2341e+08,-9.52,-6.62,3.5,6.27,351.57,4.14,0.05,0.04,3
19185,1.2342e+08,-9.41,-6.61,3.57,6.25,351.48,3.63,0.04,0.04,3
19226,1.2343e+08,-9.31,-6.6,3.63,6.23,351.43,3.14,0.04,0.04,3
19268,1.2344e+08,-9.2,-6.55,3.68,6.2,351.41,2.64,0.04,0.04,3
19314,1.2346e+08,-9.1,-6.48,3.73,6.17,351.4,2.2,0.04,0.04,3
19359,1.2347e+08,-9.01,-6.4,3.77,6.15,351.4,1.7,0.04,0.04,3
19408,1.2348e+08,-8.93,-6.29,3.8,6.15,351.39,1.24,0.04,0.04,3
19452,1.2349e+08,-8.87,-6.17,3.84,6.13,351.38,0.78,0.04,0.04,3
19497,1.235e+08,-8.8,-6.14,3.89,6.06,351.38,0.37,0.04,0.04,3
19541,1.2351e+08,-8.74,-6.02,3.93,6,351.37,359.93,0.04,0.04,3
19583,1.2352e+08,-8.71,-5.89,3.93,6.01,351.37,359.5,0.04,0.04,3
19625,1.2353e+08,-8.67,-5.79,3.93,5.95,351.37,359.05,0.04,0.04,3
19670,1.2354e+08,-8.62,-5.71,3.9,5.92,351.37,358.68,0.04,0.04,3
19715,1.2355e+08,-8.56,-5.68,3.87,5.94,351.38,358.29,0.04,0.04,3
19761,1.2356e+08,-8.49,-5.63,3.82,5.89,351.39,357.93,0.04,0.04,3
19805,1.2357e+08,-8.42,-5.56,3.77,5.91,351.39,357.55,0.04,0.04,3
19855,1.2358e+08,-8.36,-5.53,3.71,5.86,351.4,357.23,0.04,0.04,3
19899,1.2359e+08,-8.29,-5.54,3.64,5.74,351.41,356.9,0.04,0.04,3
19944,1.2361e+08,-8.23,-5.51,3.54,5.74,351.43,356.56,0.04,0.04,3
19990,1.2362e+08,-8.17,-5.49,3.44,5.73,351.44,356.28,0.04,0.04,3
20029,1.2363e+08,-8.13,-5.58,3.32,5.75,351.48,356,0.06,0.04,3
20071,1.2364e+08,-8.09,-5.57,3.18,5.72,351.53,355.75,0.06,0.04,3
20116,1.2365e+08,-8.03,-5.62,2.99,5.69,351.62,355.52,0.06,0.04,3
20161,1.2366e+08,-7.96,-5.67,2.79,5.68,351.74,355.28,0.06,0.04,3
20209,1.2367e+08,-7.89,-5.7,2.61,5.64,351.88,355.11,0.06,0.04,3
20253,1.2368e+08,-7.83,-5.74,2.43,5.55,352.01,354.95,0.06,0.04,3
20301,1.237e+08,-7.74,-5.74,2.27,5.43,352.12,354.8,0.06,0.03,3
20346,1.2371e+08,-7.66,-5.67,2.1,5.27,352.25,354.65,0.06,0.03,3
20390,1.2372e+08,-7.59,-5.67,1.93,5.13,352.39,354.52,0.06,0.03,3
20435,1.2373e+08,-7.52,-5.65,1.77,4.88,352.56,354.38,0.06,0.03,3
20480,1.2374e+08,-7.44,-5.65,1.6,4.7,352.74,354.26,0.06,0.03,3
20524,1.2375e+08,-7.36,-5.64,1.42,4.53,352.93,354.19,0.06,0.03,3
20566,1.2376e+08,-7.3,-5.68,1.29,4.28,353.07,354.11,0.06,0.03,3
20611,1.2377e+08,-7.21,-5.65,1.11,4.05,353.25,354.04,0.06,0.03,3
20656,1.2378e+08,-7.12,-5.61,0.92,3.81,353.43,353.99,0.06,0.03,3
20704,1.2379e+08,-7.03,-5.56,0.74,3.59,353.62,353.93,0.06,0.03,3
20750,1.2381e+08,-6.94,-5.56,0.55,3.39,353.78,353.89,0.06,0.03,3
20797,1.2382e+08,-6.86,-5.49,0.37,3.09,353.93,353.87,0.06,0.03,3
20838,1.2383e+08,-6.79,-5.4,0.19,2.76,354.06,353.83,0.08,0.03,3
20880,1.2384e+08,-6.74,-5.22,0.06,2.42,354.16,353.78,0.08,0.03,3
20925,1.2385e+08,-6.69,-5.1,-0.08,2.1,354.25,353.74,0.08,0.03,3
20966,1.2387e+08,-6.65,-5.03,-0.19,1.85,354.3,353.71,0.08,0.03,3
21013,1.2388e+08,-6.6,-4.93,-0.35,1.6,354.35,353.71,0.08,0.03,3
21058,1.2389e+08,-6.57,-4.69,-0.5,1.33,354.4,353.68,0.08,0.03,3
21104,1.239e+08,-6.57,-4.54,-0.64,1.08,354.45,353.66,0.08,0.03,3
21153,1.2391e+08,-6.57,-4.35,-0.77,0.86,354.49,353.65,0.08,0.03,3
21199,1.2392e+08,-6.6,-4.22,-0.88,0.65,354.54,353.63,0.08,0.03,3
21243,1.2393e+08,-6.63,-4.16,-0.98,0.42,354.6,353.63,0.08,0.03,3
21289,1.2394e+08,-6.67,-4.08,-1.07,0.22,354.65,353.61,0.08,0.03,3
21333,1.2395e+08,-6.71,-3.98,-1.14,0.03,354.7,353.62,0.08,0.03,3
21378,1.2396e+08,-6.76,-3.92,-1.19,-0.16,354.75,353.61,0.08,0.03,3
21421,1.2398e+08,-6.79,-3.87,-1.23,-0.29,354.79,353.6,0.08,0.03,3
21466,1.2399e+08,-6.83,-3.89,-1.27,-0.41,354.83,353.6,0.08,0.03,3
21510,1.24e+08,-6.87,-3.92,-1.31,-0.54,354.87,353.59,0.08,0.03,3
21555,1.2401e+08,-6.9,-3.95,-1.35,-0.68,354.88,353.59,0.08,0.03,3
21608,1.2402e+08,-6.95,-4.06,-1.37,-0.8,354.88,353.61,0.09,0.02,3
21652,1.2404e+08,-6.99,-4.1,-1.39,-0.87,354.89,353.59,0.09,0.02,3
21696,1.2405e+08,-7.04,-4.15,-1.39,-0.96,354.89,353.56,0.09,0.02,3
21741,1.2406e+08,-7.1,-4.19,-1.38,-1.06,354.89,353.52,0.09,0.02,3
21786,1.2407e+08,-7.18,-4.22,-1.37,-1.1,354.88,353.48,0.09,0.02,3
21827,1.2408e+08,-7.25,-4.3,-1.36,-1.18,354.88,353.47,0.09,0.02,3
21871,1.2409e+08,-7.34,-4.32,-1.33,-1.26,354.88,353.44,0.09,0.02,3
21915,1.241e+08,-7.44,-4.38,-1.28,-1.26,354.87,353.42,0.09,0.02,3
21959,1.2411e+08,-7.54,-4.45,-1.23,-1.26,354.87,353.4,0.09,0.02,3
22008,1.2412e+08,-7.64,-4.55,-1.17,-1.25,354.86,353.39,0.09,0.02,3
22054,1.2413e+08,-7.75,-4.68,-1.11,-1.27,354.85,353.41,0.09,0.02,3
22099,1.2414e+08,-7.86,-4.75,-1.04,-1.28,354.84,353.41,0.09,0.02,3
22144,1.2416e+08,-7.97,-4.81,-0.98,-1.28,354.83,353.42,0.09,0.02,3
22188,1.2417e+08,-8.08,-4.97,-0.91,-1.15,354.82,353.43,0.09,0.02,3
22230,1.2418e+08,-8.17,-5.13,-0.87,-1.07,354.82,353.46,0.09,0.02,3
22275,1.2419e+08,-8.27,-5.23,-0.81,-1.01,354.81,353.48,0.09,0.02,3
22319,1.242e+08,-8.38,-5.35,-0.7,-0.96,354.79,353.51,0.09,0.02,3
22366,1.2421e+08,-8.47,-5.52,-0.59,-0.85,354.77,353.55,0.09,0.02,3
22416,1.2423e+08,-8.62,-5.75,-0.41,-0.77,354.75,353.62,0.1,0.02,3
22464,1.2424e+08,-8.7,-5.93,-0.3,-0.59,354.73,353.64,0.1,0.03,3
22508,1.2425e+08,-8.77,-6.1,-0.2,-0.44,354.72,353.66,0.1,0.03,3
22552,1.2426e+08,-8.84,-6.24,-0.1,-0.31,354.7,353.69,0.1,0.03,3
22597,1.2428e+08,-8.92,-6.41,-0.01,-0.1,354.69,353.75,0.1,0.03,3
22642,1.2429e+08,-8.98,-6.55,0.07,0.06,354.67,353.78,0.1,0.03,3
22683,1.243e+08,-9.02,-6.65,0.11,0.27,354.67,353.84,0.1,0.03,3
22728,1.2431e+08,-9.08,-6.76,0.17,0.39,354.66,353.88,0.1,0.03,3
22772,1.2432e+08,-9.12,-6.83,0.23,0.47,354.65,353.93,0.1,0.03,3
22818,1.2433e+08,-9.16,-6.93,0.29,0.58,354.64,353.99,0.1,0.03,3
22866,1.2434e+08,-9.19,-7,0.34,0.77,354.63,354.06,0.1,0.03,3
22912,1.2435e+08,-9.22,-7.06,0.39,0.9,354.62,354.13,0.1,0.03,3
22958,1.2436e+08,-9.25,-7.16,0.43,0.95,354.61,354.22,0.1,0.03,3
23002,1.2437e+08,-9.26,-7.21,0.46,1,354.61,354.3,0.1,0.03,3
23044,1.2438e+08,-9.28,-7.26,0.49,1.09,354.6,354.39,0.1,0.03,3
23089,1.244e+08,-9.29,-7.4,0.52,1.14,354.6,354.5,0.1,0.03,3
23133,1.2441e+08,-9.29,-7.45,0.55,1.18,354.6,354.57,0.1,0.03,3
23183,1.2442e+08,-9.29,-7.59,0.57,1.29,354.59,354.79,0.13,0.03,3
23229,1.2443e+08,-9.28,-7.66,0.56,1.38,354.59,355.02,0.13,0.03,3
23274,1.2444e+08,-9.25,-7.64,0.51,1.48,354.6,355.24,0.13,0.03,3
23323,1.2446e+08,-9.22,-7.65,0.43,1.56,354.61,355.46,0.13,0.03,3
23368,1.2447e+08,-9.18,-7.7,0.32,1.66,354.63,355.69,0.13,0.03,3
23412,1.2448e+08,-9.13,-7.73,0.19,1.76,354.65,355.93,0.13,0.03,3
23457,1.2449e+08,-9.08,-7.72,0.04,1.84,354.68,356.18,0.13,0.03,3
23498,1.245e+08,-9.04,-7.73,-0.07,1.85,354.7,356.42,0.13,0.03,3
23543,1.2451e+08,-8.97,-7.72,-0.24,1.92,354.72,356.73,0.13,0.03,3
23589,1.2452e+08,-8.88,-7.69,-0.42,1.88,354.75,357,0.13,0.03,3
23633,1.2453e+08,-8.79,-7.65,-0.62,1.87,354.78,357.26,0.13,0.03,3
23679,1.2455e+08,-8.69,-7.59,-0.81,1.84,354.81,357.51,0.13,0.03,3
23727,1.2456e+08,-8.58,-7.56,-1,1.81,354.84,357.76,0.13,0.03,3
23773,1.2457e+08,-8.47,-7.55,-1.18,1.7,354.87,358.04,0.13,0.03,3
23817,1.2458e+08,-8.36,-7.49,-1.36,1.56,354.89,358.29,0.13,0.03,3
23861,1.2459e+08,-8.26,-7.39,-1.54,1.42,354.92,358.53,0.13,0.03,3
23906,1.246e+08,-8.16,-7.33,-1.7,1.28,354.94,358.77,0.13,0.03,3
23947,1.2461e+08,-8.1,-7.23,-1.78,1.07,354.96,359.04,0.15,0.03,3
23986,1.2462e+08,-8.02,-7.14,-1.91,0.8,354.97,359.28,0.15,0.03,3
24030,1.2463e+08,-7.91,-7.06,-2.09,0.63,355,359.48,0.15,0.03,3
24075,1.2464e+08,-7.79,-6.97,-2.27,0.46,355.02,359.68,0.15,0.03,3
24120,1.2465e+08,-7.69,-6.89,-2.44,0.31,355.05,359.85,0.15,0.03,3
24168,1.2467e+08,-7.59,-6.81,-2.62,0.06,355.07,0.03,0.15,0.03,3
24214,1.2468e+08,-7.49,-6.7,-2.78,-0.11,355.09,0.21,0.15,0.02,3
24259,1.2469e+08,-7.42,-6.52,-2.93,-0.35,355.11,0.37,0.15,0.02,3
24304,1.247e+08,-7.35,-6.41,-3.08,-0.54,355.13,0.52,0.15,0.02,3
24349,1.2471e+08,-7.29,-6.27,-3.2,-0.72,355.15,0.67,0.15,0.02,3
24394,1.2472e+08,-7.24,-6.14,-3.32,-0.88,355.16,0.79,0.15,0.02,3
24432,1.2473e+08,-7.22,-5.96,-3.38,-1.11,355.17,0.96,0.15,0.02,3
24477,1.2474e+08,-7.17,-5.85,-3.48,-1.37,355.18,1.09,0.15,0.02,3
24522,1.2475e+08,-7.11,-5.75,-3.58,-1.52,355.2,1.2,0.15,0.02,3
24566,1.2476e+08,-7.06,-5.62,-3.67,-1.68,355.21,1.3,0.15,0.02,3
24616,1.2477e+08,-7.01,-5.54,-3.76,-1.85,355.22,1.4,0.15,0.02,3
24661,1.2478e+08,-6.96,-5.45,-3.84,-2,355.23,1.48,0.15,0.03,3
24706,1.2479e+08,-6.91,-5.41,-3.9,-2.17,355.23,1.56,0.15,0.03,3
24750,1.248e+08,-6.86,-5.38,-3.96,-2.33,355.24,1.64,0.15,0.03,3
24795,1.2481e+08,-6.81,-5.35,-4.01,-2.49,355.25,1.68,0.15,0.03,3
24838,1.2483e+08,-6.78,-5.32,-4.05,-2.62,355.25,1.71,0.15,0.03,3
24877,1.2484e+08,-6.74,-5.37,-4.08,-2.74,355.26,1.74,0.14,0.03,3
24921,1.2485e+08,-6.69,-5.4,-4.12,-2.86,355.26,1.72,0.14,0.03,3
24966,1.2486e+08,-6.64,-5.39,-4.15,-2.98,355.26,1.67,0.14,0.03,3
25012,1.2487e+08,-6.59,-5.45,-4.16,-3.14,355.27,1.62,0.14,0.03,3
25059,1.2488e+08,-6.54,-5.5,-4.16,-3.19,355.26,1.58,0.14,0.03,3
25107,1.2489e+08,-6.49,-5.58,-4.14,-3.31,355.26,1.51,0.14,0.02,3
25153,1.249e+08,-6.44,-5.6,-4.11,-3.3,355.26,1.42,0.14,0.02,3
25198,1.2491e+08,-6.4,-5.68,-4.07,-3.3,355.26,1.35,0.14,0.02,3
25240,1.2492e+08,-6.38,-5.74,-4.04,-3.33,355.25,1.28,0.14,0.02,3
25281,1.2494e+08,-6.35,-5.77,-4.01,-3.33,355.25,1.19,0.14,0.02,3
25326,1.2495e+08,-6.31,-5.78,-3.96,-3.28,355.24,1.11,0.14,0.02,3
25373,1.2496e+08,-6.28,-5.81,-3.91,-3.26,355.24,1.01,0.14,0.02,3
25417,1.2497e+08,-6.26,-5.79,-3.86,-3.16,355.23,0.92,0.14,0.02,3
25463,1.2498e+08,-6.24,-5.8,-3.82,-3.18,355.23,0.83,0.14,0.02,3
25510,1.2499e+08,-6.22,-5.77,-3.77,-3.09,355.22,0.75,0.14,0.02,3
25556,1.25e+08,-6.21,-5.69,-3.72,-3.02,355.22,0.65,0.14,0.02,3
25601,1.2501e+08,-6.2,-5.66,-3.67,-2.97,355.21,0.57,0.14,0.02,3
25647,1.2502e+08,-6.2,-5.61,-3.61,-2.85,355.2,0.49,0.14,0.02,3
25690,1.2503e+08,-6.19,-5.64,-3.55,-2.66,355.2,0.4,0.14,0.02,3
25731,1.2504e+08,-6.18,-5.59,-3.5,-2.53,355.19,0.34,0.14,0.02,3
25770,1.2506e+08,-6.17,-5.53,-3.46,-2.49,355.19,0.26,0.14,0.02,3
25815,1.2507e+08,-6.14,-5.49,-3.4,-2.39,355.18,0.19,0.14,0.02,3
25860,1.2508e+08,-6.1,-5.47,-3.34,-2.29,355.18,0.12,0.14,0.02,3
25905,1.2509e+08,-6.05,-5.42,-3.29,-2.13,355.17,0.06,0.14,0.02,3
25953,1.251e+08,-6,-5.42,-3.25,-2.02,355.17,0.02,0.14,0.02,3
25998,1.2511e+08,-5.94,-5.42,-3.22,-1.94,355.16,359.97,0.14,0.02,3
26044,1.2512e+08,-5.87,-5.39,-3.19,-1.81,355.16,359.92,0.14,0.02,3
26089,1.2513e+08,-5.8,-5.39,-3.17,-1.76,355.16,359.88,0.14,0.02,3
26133,1.2515e+08,-5.74,-5.28,-3.16,-1.58,355.16,359.82,0.14,0.02,3
26177,1.2516e+08,-5.67,-5.21,-3.16,-1.52,355.16,359.77,0.14,0.02,3
26222,1.2517e+08,-5.6,-5.08,-3.15,-1.47,355.16,359.74,0.14,0.02,3
26267,1.2518e+08,-5.53,-5.07,-3.15,-1.42,355.16,359.69,0.14,0.02,3
26311,1.2519e+08,-5.47,-5.02,-3.14,-1.35,355.15,359.69,0.14,0.02,3
26356,1.252e+08,-5.44,-4.96,-3.14,-1.26,355.15,359.65,0.14,0.02,3
26405,1.2521e+08,-5.41,-4.89,-3.14,-1.26,355.15,359.64,0.14,0.02,3
26448,1.2522e+08,-5.45,-4.85,-3.14,-1.21,355.15,359.61,0.12,0.02,3
26491,1.2523e+08,-5.5,-4.74,-3.15,-1.27,355.16,359.6,0.12,0.02,3
26536,1.2524e+08,-5.58,-4.66,-3.17,-1.27,355.16,359.6,0.12,0.02,3
26578,1.2526e+08,-5.64,-4.6,-3.2,-1.31,355.16,359.6,0.12,0.02,3
26619,1.2527e+08,-5.71,-4.61,-3.21,-1.32,355.16,359.59,0.12,0.02,3
26663,1.2528e+08,-5.8,-4.6,-3.23,-1.33,355.16,359.6,0.12,0.02,3
26708,1.2529e+08,-5.9,-4.63,-3.25,-1.41,355.16,359.6,0.12,0.02,3
26752,1.253e+08,-5.99,-4.65,-3.27,-1.43,355.17,359.59,0.12,0.02,3
26799,1.2531e+08,-6.11,-4.77,-3.27,-1.41,355.17,359.61,0.12,0.02,3
26848,1.2532e+08,-6.23,-4.89,-3.28,-1.47,355.17,359.61,0.12,0.02,3
26893,1.2533e+08,-6.36,-5,-3.28,-1.52,355.17,359.63,0.12,0.02,3
26939,1.2534e+08,-6.5,-5.1,-3.26,-1.51,355.17,359.63,0.12,0.02,3
26983,1.2535e+08,-6.63,-5.24,-3.25,-1.54,355.16,359.66,0.12,0.02,3
27025,1.2536e+08,-6.74,-5.41,-3.23,-1.51,355.16,359.68,0.12,0.02,3
27070,1.2538e+08,-6.89,-5.7,-3.21,-1.54,355.16,359.71,0.12,0.02,3
27116,1.2539e+08,-7.03,-5.86,-3.18,-1.54,355.16,359.72,0.12,0.02,3
27161,1.254e+08,-7.17,-6.07,-3.15,-1.48,355.15,359.74,0.12,0.02,3
27205,1.2541e+08,-7.32,-6.31,-3.13,-1.47,355.15,359.72,0.12,0.02,3
27252,1.2542e+08,-7.48,-6.55,-3.11,-1.43,355.15,359.75,0.11,0.02,3
27295,1.2543e+08,-7.65,-6.81,-3.09,-1.27,355.14,359.76,0.11,0.03,3
27341,1.2544e+08,-7.81,-7.04,-3.06,-1.28,355.14,359.79,0.11,0.03,3
27386,1.2545e+08,-7.96,-7.26,-3.04,-1.26,355.14,359.8,0.11,0.03,3
27431,1.2546e+08,-8.11,-7.49,-3,-1.21,355.13,359.81,0.11,0.03,3
27472,1.2548e+08,-8.22,-7.81,-2.97,-1.14,355.13,359.84,0.11,0.03,3
27520,1.2549e+08,-8.38,-8.05,-2.93,-1.06,355.12,359.88,0.11,0.03,3
27565,1.255e+08,-8.48,-8.3,-2.89,-0.95,355.12,359.88,0.11,0.03,3
27609,1.2551e+08,-8.58,-8.51,-2.84,-0.9,355.11,359.89,0.11,0.03,3
27654,1.2552e+08,-8.68,-8.69,-2.79,-0.85,355.1,359.92,0.11,0.03,3
27699,1.2553e+08,-8.77,-8.9,-2.74,-0.82,355.09,359.96,0.11,0.03,3
27748,1.2554e+08,-8.85,-9.06,-2.7,-0.79,355.09,359.98,0.11,0.04,3
27794,1.2555e+08,-8.92,-9.26,-2.65,-0.71,355.08,359.99,0.11,0.04,3
27838,1.2556e+08,-8.99,-9.48,-2.59,-0.63,355.07,0,0.11,0.04,3
27883,1.2557e+08,-9.05,-9.66,-2.54,-0.53,355.06,0.01,0.11,0.04,3
27924,1.2558e+08,-9.08,-9.83,-2.49,-0.54,355.05,0.02,0.11,0.04,3
27969,1.2559e+08,-9.12,-9.98,-2.42,-0.45,355.04,0.04,0.11,0.04,3
28019,1.2561e+08,-9.15,-10.19,-2.35,-0.42,355.03,0.06,0.12,0.04,3
28059,1.2562e+08,-9.16,-10.33,-2.29,-0.31,355.02,0.02,0.12,0.04,3
28103,1.2563e+08,-9.15,-10.41,-2.24,-0.29,355.01,359.99,0.12,0.04,3
28152,1.2564e+08,-9.12,-10.48,-2.2,-0.32,355.01,359.92,0.12,0.04,3
28196,1.2565e+08,-9.07,-10.56,-2.16,-0.27,355,359.87,0.12,0.04,3
28242,1.2567e+08,-9.02,-10.63,-2.13,-0.19,355,359.8,0.12,0.04,3
28286,1.2568e+08,-8.95,-10.67,-2.1,-0.18,354.99,359.73,0.12,0.04,3
28331,1.2569e+08,-8.88,-10.63,-2.09,-0.13,354.99,359.67,0.12,0.04,3
28374,1.257e+08,-8.82,-10.54,-2.09,-0.23,355,359.61,0.12,0.04,3
28419,1.2571e+08,-8.72,-10.43,-2.09,-0.28,355,359.56,0.12,0.04,3
28464,1.2572e+08,-8.6,-10.32,-2.09,-0.28,355,359.5,0.12,0.04,3
28509,1.2573e+08,-8.48,-10.24,-2.1,-0.31,355,359.44,0.12,0.04,3
28553,1.2574e+08,-8.36,-10.15,-2.1,-0.35,355,359.38,0.12,0.04,3
28603,1.2575e+08,-8.25,-10.04,-2.1,-0.38,355,359.35,0.12,0.03,3
28647,1.2576e+08,-8.14,-9.88,-2.09,-0.44,355,359.31,0.12,0.03,3
28692,1.2577e+08,-8.02,-9.73,-2.08,-0.49,355,359.28,0.12,0.03,3
28736,1.2579e+08,-7.9,-9.45,-2.07,-0.59,355,359.23,0.12,0.03,3
28781,1.258e+08,-7.75,-9.26,-2.06,-0.66,354.99,359.2,0.12,0.03,3
28827,1.2581e+08,-7.59,-9.05,-2.04,-0.67,354.99,359.17,0.12,0.03,3
28875,1.2583e+08,-7.4,-8.9,-2.03,-0.73,354.99,359.16,0.12,0.03,3
28916,1.2584e+08,-7.15,-8.55,-2.01,-0.91,354.99,359.16,0.13,0.03,3
28961,1.2585e+08,-6.93,-8.34,-1.98,-0.94,354.98,359.23,0.13,0.03,3
29011,1.2586e+08,-6.72,-8.13,-1.95,-1.01,354.98,359.31,0.13,0.03,3
29055,1.2587e+08,-6.49,-7.89,-1.94,-1.02,354.98,359.39,0.13,0.03,3
29102,1.2588e+08,-6.28,-7.64,-1.92,-0.97,354.98,359.48,0.13,0.03,3
29146,1.2589e+08,-6.01,-7.36,-1.92,-1,354.98,359.55,0.13,0.03,3
29192,1.259e+08,-5.72,-7.05,-1.91,-1.01,354.98,359.65,0.13,0.03,3
29231,1.2592e+08,-5.58,-6.69,-1.9,-1.12,354.97,359.75,0.13,0.03,3
29275,1.2593e+08,-5.27,-6.38,-1.88,-1.14,354.97,359.84,0.13,0.03,3
29319,1.2594e+08,-4.97,-6.12,-1.84,-1.16,354.97,359.93,0.13,0.03,3
29364,1.2595e+08,-4.68,-5.78,-1.79,-1.22,354.96,0.03,0.13,0.03,3
29408,1.2596e+08,-4.42,-5.46,-1.73,-1.25,354.96,0.11,0.13,0.03,3
29457,1.2597e+08,-4.19,-5.05,-1.64,-1.28,354.95,0.19,0.13,0.02,3
29502,1.2598e+08,-3.97,-4.71,-1.55,-1.34,354.95,0.27,0.13,0.02,3
29546,1.2599e+08,-3.77,-4.37,-1.45,-1.29,354.94,0.35,0.13,0.02,3
29592,1.26e+08,-3.59,-4.06,-1.34,-1.3,354.93,0.42,0.13,0.02,3
29637,1.2602e+08,-3.41,-3.45,-1.23,-1.31,354.93,0.51,0.13,0.02,3
29677,1.2603e+08,-3.24,-3.12,-1.1,-1.23,354.92,0.55,0.12,0.02,3
29725,1.2604e+08,-3.07,-2.83,-0.97,-1.22,354.91,0.6,0.12,0.02,3
29769,1.2605e+08,-2.9,-2.58,-0.85,-1.16,354.91,0.63,0.12,0.02,3
29814,1.2606e+08,-2.74,-2.34,-0.74,-1.07,354.9,0.66,0.12,0.02,3
29858,1.2607e+08,-2.59,-2.1,-0.63,-0.98,354.89,0.69,0.12,0.02,3
29907,1.2608e+08,-2.46,-1.82,-0.52,-0.93,354.89,0.72,0.12,0.03,3
29952,1.2609e+08,-2.34,-1.52,-0.42,-0.85,354.89,0.72,0.12,0.03,3
29996,1.261e+08,-2.23,-1.35,-0.33,-0.75,354.88,0.73,0.12,0.03,3
30041,1.2611e+08,-2.13,-1.19,-0.23,-0.69,354.88,0.73,0.12,0.03,3
30082,1.2613e+08,-2.06,-0.78,-0.16,-0.59,354.88,0.72,0.12,0.03,3
30127,1.2614e+08,-1.96,-0.64,-0.06,-0.52,354.87,0.71,0.12,0.03,3
30173,1.2615e+08,-1.86,-0.61,0.03,-0.45,354.87,0.69,0.12,0.03,3
30218,1.2616e+08,-1.77,-0.57,0.12,-0.34,354.87,0.67,0.12,0.03,3
30264,1.2617e+08,-1.68,-0.47,0.2,-0.22,354.86,0.64,0.12,0.03,3
30312,1.2618e+08,-1.6,-0.35,0.27,-0.16,354.86,0.61,0.12,0.03,3
30357,1.2619e+08,-1.53,-0.31,0.34,-0.01,354.86,0.56,0.12,0.02,3
30402,1.262e+08,-1.46,-0.3,0.4,0.14,354.86,0.52,0.12,0.02,3
30448,1.2622e+08,-1.39,-0.34,0.46,0.23,354.87,0.45,0.12,0.02,3
30493,1.2623e+08,-1.31,-0.39,0.51,0.47,354.89,0.36,0.11,0.02,3
30536,1.2624e+08,-1.24,-0.42,0.54,0.57,354.92,0.31,0.11,0.02,3
30578,1.2626e+08,-1.19,-0.44,0.55,0.68,354.96,0.21,0.11,0.02,3
30623,1.2627e+08,-1.12,-0.47,0.57,0.85,355.04,0.15,0.11,0.02,3
30668,1.2628e+08,-1.05,-0.54,0.56,1.03,355.14,0.07,0.11,0.02,3
30714,1.2629e+08,-0.99,-0.61,0.54,1.16,355.26,0,0.11,0.02,3
30762,1.263e+08,-0.93,-0.67,0.51,1.28,355.38,359.92,0.11,0.03,3
30807,1.2631e+08,-0.87,-0.76,0.48,1.42,355.5,359.87,0.11,0.03,3
30851,1.2632e+08,-0.81,-0.83,0.44,1.55,355.63,359.8,0.11,0.03,3
30896,1.2633e+08,-0.75,-0.88,0.4,1.63,355.75,359.75,0.11,0.03,3
30935,1.2634e+08,-0.72,-0.93,0.38,1.61,355.82,359.69,0.11,0.03,3
30979,1.2635e+08,-0.66,-1.03,0.34,1.68,355.95,359.63,0.11,0.03,3
31024,1.2636e+08,-0.59,-1.07,0.3,1.67,356.08,359.61,0.11,0.03,3
31072,1.2637e+08,-0.54,-1.08,0.25,1.7,356.22,359.59,0.11,0.03,3
31116,1.2639e+08,-0.49,-1.07,0.21,1.76,356.34,359.58,0.11,0.03,3
31161,1.264e+08,-0.45,-1.12,0.17,1.73,356.45,359.58,0.11,0.03,3
31210,1.2641e+08,-0.41,-1.08,0.11,1.68,356.56,359.57,0.11,0.02,3
31256,1.2642e+08,-0.38,-1.05,0.05,1.66,356.67,359.59,0.09,0.02,3
31297,1.2643e+08,-0.36,-1.01,-0.01,1.54,356.78,359.59,0.09,0.02,3
31344,1.2644e+08,-0.33,-0.95,-0.09,1.52,356.85,359.61,0.09,0.02,3
31382,1.2645e+08,-0.32,-0.87,-0.14,1.36,356.88,359.64,0.09,0.02,3
31427,1.2646e+08,-0.29,-0.8,-0.24,1.28,356.91,359.65,0.09,0.02,3
31472,1.2647e+08,-0.25,-0.75,-0.36,1.18,356.91,359.68,0.09,0.02,3
31517,1.2649e+08,-0.21,-0.72,-0.47,1.09,356.91,359.72,0.09,0.02,3
31564,1.265e+08,-0.17,-0.63,-0.57,1.01,356.92,359.77,0.09,0.02,3
31609,1.2651e+08,-0.14,-0.56,-0.67,0.86,356.92,359.8,0.09,0.02,3
31657,1.2652e+08,-0.11,-0.49,-0.77,0.63,356.92,359.83,0.09,0.02,3
31702,1.2653e+08,-0.08,-0.42,-0.86,0.5,356.92,359.87,0.09,0.02,3
31746,1.2654e+08,-0.05,-0.34,-0.94,0.37,356.92,359.91,0.09,0.02,3
31792,1.2655e+08,-0.03,-0.33,-1.01,0.22,356.92,359.96,0.09,0.02,3
31833,1.2656e+08,-0.01,-0.29,-1.06,0.06,356.92,0,0.09,0.02,3
31875,1.2657e+08,0,-0.31,-1.1,-0.09,356.92,0.05,0.09,0.02,3
31922,1.2658e+08,0.03,-0.25,-1.16,-0.16,356.92,0.09,0.09,0.02,3
31966,1.2659e+08,0.06,-0.24,-1.21,-0.27,356.92,0.14,0.09,0.02,3
32011,1.266e+08,0.08,-0.22,-1.24,-0.39,356.92,0.18,0.09,0.02,3
32058,1.2661e+08,0.1,-0.17,-1.27,-0.5,356.92,0.23,0.1,0.02,3
32100,1.2663e+08,0.1,-0.11,-1.3,-0.59,356.92,0.3,0.1,0.02,3
32145,1.2664e+08,0.1,-0.07,-1.32,-0.74,356.92,0.34,0.1,0.02,3
32190,1.2665e+08,0.1,-0.02,-1.33,-0.83,356.92,0.37,0.1,0.02,3
32234,1.2666e+08,0.09,0,-1.35,-0.93,356.92,0.4,0.1,0.02,3
32276,1.2667e+08,0.08,0.05,-1.35,-0.99,356.92,0.44,0.1,0.02,3
32321,1.2668e+08,0.07,0.04,-1.36,-1.02,356.93,0.51,0.1,0.02,3
32363,1.2669e+08,0.06,0.08,-1.37,-1.05,356.94,0.55,0.1,0.02,3
32409,1.267e+08,0.05,0.12,-1.38,-1.16,356.98,0.59,0.1,0.02,3
32454,1.2671e+08,0.05,0.15,-1.38,-1.23,357.05,0.62,0.1,0.02,3
32499,1.2672e+08,0.04,0.18,-1.36,-1.28,357.15,0.67,0.1,0.02,3
32548,1.2673e+08,0.03,0.21,-1.32,-1.31,357.27,0.69,0.1,0.02,3
32593,1.2674e+08,0.02,0.22,-1.29,-1.37,357.42,0.74,0.1,0.02,3
32637,1.2675e+08,0.01,0.23,-1.25,-1.36,357.6,0.76,0.1,0.02,3
32682,1.2676e+08,0,0.22,-1.23,-1.35,357.81,0.81,0.1,0.02,3
32726,1.2678e+08,-0.01,0.22,-1.21,-1.29,358.03,0.9,0.1,0.02,3
32773,1.2679e+08,-0.02,0.2,-1.2,-1.22,358.24,0.96,0.1,0.02,3
32820,1.268e+08,-0.02,0.16,-1.2,-1.18,358.45,1.04,0.1,0.02,3
32859,1.2682e+08,-0.03,0.16,-1.21,-1.15,358.64,1.12,0.08,0.02,3
32904,1.2683e+08,-0.04,0.13,-1.22,-1.1,358.8,1.19,0.08,0.02,3
32948,1.2684e+08,-0.04,0.14,-1.23,-1.05,358.94,1.27,0.08,0.02,3
32997,1.2685e+08,-0.06,0.06,-1.22,-1,359.08,1.35,0.08,0.02,3
33041,1.2686e+08,-0.07,0.03,-1.21,-0.96,359.22,1.45,0.08,0.02,3
33088,1.2687e+08,-0.1,-0.01,-1.19,-0.95,359.36,1.54,0.08,0.02,3
33133,1.2688e+08,-0.12,-0.03,-1.17,-0.95,359.49,1.64,0.08,0.02,3
33174,1.2689e+08,-0.14,-0.08,-1.16,-0.86,359.6,1.75,0.08,0.02,3
33219,1.2691e+08,-0.16,-0.16,-1.14,-0.84,359.74,1.92,0.08,0.02,3
33263,1.2692e+08,-0.18,-0.21,-1.12,-0.84,359.88,2.02,0.08,0.02,3
33310,1.2693e+08,-0.2,-0.24,-1.11,-0.79,0.02,2.13,0.08,0.02,3
33355,1.2694e+08,-0.22,-0.3,-1.11,-0.73,0.16,2.24,0.08,0.02,3
33403,1.2695e+08,-0.23,-0.39,-1.12,-0.65,0.3,2.38,0.08,0.02,3
33448,1.2696e+08,-0.25,-0.42,-1.12,-0.62,0.44,2.5,0.08,0.02,3
33492,1.2697e+08,-0.27,-0.44,-1.13,-0.65,0.57,2.63,0.08,0.02,3
33538,1.2698e+08,-0.28,-0.45,-1.13,-0.64,0.7,2.76,0.08,0.02,3
33583,1.2699e+08,-0.3,-0.54,-1.13,-0.56,0.81,2.95,0.08,0.02,3
33628,1.27e+08,-0.32,-0.59,-1.14,-0.57,0.91,3.08,0.08,0.02,3
33671,1.2702e+08,-0.32,-0.63,-1.14,-0.58,0.98,3.22,0.08,0.02,3
33724,1.2703e+08,-0.33,-0.66,-1.16,-0.6,1.08,3.43,0.08,0.02,3
33768,1.2704e+08,-0.34,-0.68,-1.17,-0.58,1.14,3.54,0.08,0.02,3
33813,1.2705e+08,-0.33,-0.71,-1.19,-0.58,1.2,3.67,0.08,0.02,3
33861,1.2706e+08,-0.32,-0.75,-1.2,-0.59,1.25,3.78,0.08,0.02,3
33906,1.2707e+08,-0.32,-0.77,-1.21,-0.61,1.3,3.88,0.08,0.02,3
33950,1.2709e+08,-0.31,-0.79,-1.22,-0.62,1.36,3.98,0.08,0.02,3
33995,1.271e+08,-0.3,-0.84,-1.22,-0.59,1.4,4.15,0.08,0.02,3
34037,1.2711e+08,-0.29,-0.87,-1.22,-0.61,1.42,4.27,0.08,0.02,3
34085,1.2712e+08,-0.28,-0.86,-1.24,-0.65,1.47,4.38,0.08,0.02,3
34130,1.2713e+08,-0.26,-0.86,-1.26,-0.72,1.54,4.49,0.08,0.02,3
34175,1.2714e+08,-0.24,-0.81,-1.27,-0.74,1.62,4.57,0.08,0.02,3
34219,1.2715e+08,-0.22,-0.82,-1.29,-0.76,1.7,4.68,0.08,0.02,3
34268,1.2716e+08,-0.2,-0.85,-1.29,-0.79,1.76,4.78,0.08,0.02,3
34313,1.2717e+08,-0.18,-0.84,-1.3,-0.82,1.83,4.89,0.08,0.02,3
34358,1.2719e+08,-0.15,-0.87,-1.31,-0.84,1.87,4.98,0.08,0.02,3
34403,1.272e+08,-0.13,-0.88,-1.32,-0.86,1.89,5.08,0.08,0.02,3
34447,1.2721e+08,-0.11,-0.83,-1.33,-0.91,1.89,5.2,0.08,0.02,3
34491,1.2722e+08,-0.1,-0.81,-1.34,-0.94,1.89,5.35,0.07,0.02,3
34536,1.2723e+08,-0.07,-0.81,-1.37,-0.94,1.89,5.46,0.07,0.02,3
34578,1.2725e+08,-0.05,-0.84,-1.4,-0.96,1.89,5.58,0.07,0.02,3
34622,1.2726e+08,-0.03,-0.84,-1.44,-0.93,1.89,5.67,0.07,0.02,3
34667,1.2727e+08,-0.01,-0.79,-1.48,-0.92,1.89,5.79,0.07,0.02,3
34715,1.2728e+08,0,-0.8,-1.52,-0.99,1.89,5.9,0.07,0.01,3
34761,1.2729e+08,0,-0.78,-1.56,-1.04,1.89,5.98,0.07,0.01,3
34806,1.273e+08,0.01,-0.75,-1.6,-1.07,1.89,6.07,0.07,0.01,3
34850,1.2731e+08,0.01,-0.7,-1.64,-1.09,1.89,6.16,0.07,0.01,3
34889,1.2732e+08,0.01,-0.7,-1.66,-1.05,1.89,6.27,0.07,0.01,3
34934,1.2733e+08,0.01,-0.71,-1.69,-1.11,1.89,6.35,0.07,0.01,3
34979,1.2734e+08,0.01,-0.68,-1.73,-1.25,1.89,6.43,0.07,0.01,3
35024,1.2735e+08,0,-0.64,-1.76,-1.31,1.89,6.49,0.07,0.01,3
35071,1.2736e+08,0,-0.64,-1.78,-1.42,1.89,6.57,0.07,0.01,3
35116,1.2738e+08,0,-0.66,-1.79,-1.48,1.89,6.64,0.07,0.01,3
35165,1.2739e+08,0,-0.71,-1.8,-1.55,1.89,6.69,0.07,0.01,3
35209,1.274e+08,0,-0.74,-1.81,-1.6,1.89,6.74,0.07,0.01,3
35253,1.2741e+08,0,-0.81,-1.82,-1.66,1.89,6.8,0.07,0.01,3
35296,1.2742e+08,0.01,-0.83,-1.83,-1.81,1.89,6.83,0.06,0.01,3
35338,1.2743e+08,0.01,-0.93,-1.85,-1.87,1.89,6.86,0.06,0.01,3
35382,1.2745e+08,0.02,-1.02,-1.86,-1.96,1.89,6.88,0.06,0.01,3
35427,1.2746e+08,0.03,-1.09,-1.88,-2.05,1.89,6.87,0.06,0.01,3
35473,1.2747e+08,0.05,-1.12,-1.9,-2.14,1.89,6.88,0.06,0.01,3
35518,1.2748e+08,0.06,-1.16,-1.91,-2.21,1.89,6.87,0.06,0.01,3
35567,1.2749e+08,0.07,-1.19,-1.92,-2.25,1.89,6.84,0.06,0.01,3
35611,1.275e+08,0.09,-1.25,-1.93,-2.25,1.89,6.83,0.06,0.01,3
35656,1.2751e+08,0.1,-1.36,-1.94,-2.2,1.89,6.81,0.06,0.01,3
35701,1.2752e+08,0.12,-1.42,-1.95,-2.21,1.89,6.78,0.06,0.01,3
35746,1.2754e+08,0.13,-1.46,-1.97,-2.21,1.89,6.73,0.06,0.01,3
35791,1.2755e+08,0.15,-1.51,-1.98,-2.19,1.89,6.7,0.06,0.01,3
35837,1.2756e+08,0.17,-1.55,-2,-2.14,1.89,6.67,0.06,0.01,3
35881,1.2757e+08,0.19,-1.56,-2.02,-2.1,1.89,6.64,0.06,0.01,3
35928,1.2758e+08,0.2,-1.58,-2.03,-2.1,1.89,6.61,0.06,0.01,3
35973,1.2759e+08,0.21,-1.54,-2.03,-2.08,1.89,6.58,0.06,0.01,3
36021,1.276e+08,0.22,-1.53,-2.03,-2.06,1.89,6.52,0.06,0.01,3
36065,1.2762e+08,0.23,-1.45,-2.02,-2.12,1.89,6.45,0.06,0.01,3
36109,1.2763e+08,0.25,-1.44,-2.01,-2.09,1.89,6.38,0.06,0.01,3
36154,1.2764e+08,0.26,-1.45,-2,-2.08,1.89,6.34,0.06,0.01,3
36195,1.2765e+08,0.28,-1.43,-1.98,-2.06,1.89,6.26,0.06,0.01,3
36236,1.2766e+08,0.29,-1.41,-1.97,-2.09,1.89,6.2,0.06,0.01,3
36282,1.2767e+08,0.32,-1.35,-1.96,-2.12,1.89,6.13,0.06,0.01,3
36326,1.2768e+08,0.36,-1.29,-1.94,-2.13,1.89,6.06,0.06,0.01,3
36372,1.2769e+08,0.39,-1.22,-1.92,-2.13,1.89,5.96,0.06,0.01,3
36416,1.277e+08,0.43,-1.2,-1.9,-2.07,1.89,5.9,0.06,0.01,3
36464,1.2771e+08,0.46,-1.14,-1.88,-2.07,1.89,5.82,0.06,0.01,3
36510,1.2772e+08,0.48,-1.07,-1.86,-2.05,1.89,5.74,0.06,0.01,3
36554,1.2773e+08,0.5,-0.97,-1.85,-2,1.89,5.65,0.06,0.01,3
36598,1.2774e+08,0.52,-0.89,-1.84,-2,1.89,5.57,0.06,0.01,3
36640,1.2775e+08,0.53,-0.74,-1.83,-2.05,1.89,5.46,0.06,0.01,3
36682,1.2777e+08,0.54,-0.63,-1.82,-2.01,1.9,5.34,0.06,0.01,3
36727,1.2778e+08,0.56,-0.56,-1.81,-2.01,1.93,5.25,0.06,0.01,3
36771,1.2779e+08,0.58,-0.49,-1.8,-1.96,1.99,5.16,0.06,0.01,3
36816,1.278e+08,0.6,-0.43,-1.79,-1.92,2.08,5.06,0.06,0.01,3
36862,1.2781e+08,0.61,-0.41,-1.79,-1.89,2.19,4.95,0.06,0.01,3
36910,1.2782e+08,0.63,-0.35,-1.79,-1.87,2.33,4.84,0.06,0.01,3
36957,1.2783e+08,0.65,-0.26,-1.79,-1.82,2.5,4.73,0.05,0.01,3
36998,1.2784e+08,0.66,-0.22,-1.8,-1.79,2.7,4.62,0.05,0.01,3
37043,1.2785e+08,0.67,-0.17,-1.8,-1.74,2.93,4.53,0.05,0.01,3
37086,1.2786e+08,0.67,-0.18,-1.8,-1.69,3.12,4.44,0.05,0.01,3
37132,1.2788e+08,0.67,-0.12,-1.8,-1.65,3.39,4.3,0.05,0.01,3
37176,1.2789e+08,0.67,-0.1,-1.81,-1.59,3.7,4.23,0.05,0.01,3
37222,1.279e+08,0.67,-0.14,-1.83,-1.56,4.02,4.18,0.05,0.01,3
37267,1.2791e+08,0.66,-0.11,-1.84,-1.55,4.34,4.1,0.05,0.01,3
37315,1.2792e+08,0.66,-0.08,-1.86,-1.51,4.65,4.03,0.05,0.01,3
37360,1.2793e+08,0.65,-0.11,-1.87,-1.44,4.93,4.01,0.05,0.01,3
37406,1.2794e+08,0.63,-0.15,-1.89,-1.36,5.18,3.99,0.05,0.01,3
37450,1.2795e+08,0.63,-0.19,-1.9,-1.32,5.41,3.99,0.05,0.01,3
37495,1.2796e+08,0.62,-0.2,-1.9,-1.33,5.61,3.99,0.05,0.01,3
37536,1.2797e+08,0.61,-0.21,-1.91,-1.28,5.75,4,0.05,0.01,3
37578,1.2798e+08,0.6,-0.23,-1.92,-1.27,5.87,4.03,0.05,0.01,3
37623,1.2799e+08,0.59,-0.25,-1.93,-1.23,6,4.07,0.05,0.01,3
37667,1.2801e+08,0.58,-0.28,-1.94,-1.17,6.1,4.12,0.05,0.01,3
37713,1.2802e+08,0.57,-0.32,-1.96,-1.12,6.18,4.18,0.05,0.01,3
37761,1.2803e+08,0.56,-0.37,-1.98,-1.07,6.24,4.27,0.05,0.01,3
37805,1.2804e+08,0.55,-0.37,-2,-1.03,6.25,4.29,0.05,0.01,3
37850,1.2805e+08,0.53,-0.33,-2.01,-1.01,6.25,4.33,0.05,0.01,3
37894,1.2806e+08,0.52,-0.32,-2.01,-1,6.25,4.35,0.05,0.01,3
37939,1.2807e+08,0.5,-0.32,-2,-0.99,6.25,4.38,0.05,0.01,3
37979,1.2809e+08,0.49,-0.3,-2,-0.97,6.25,4.46,0.05,0.01,3
38023,1.281e+08,0.47,-0.29,-1.98,-1,6.25,4.49,0.05,0.01,3
38068,1.2811e+08,0.45,-0.28,-1.96,-1,6.25,4.52,0.05,0.01,3
38113,1.2812e+08,0.43,-0.28,-1.93,-1.01,6.25,4.56,0.05,0.01,3
38158,1.2813e+08,0.41,-0.28,-1.91,-1.02,6.25,4.61,0.05,0.01,3
38207,1.2814e+08,0.4,-0.26,-1.89,-0.98,6.25,4.65,0.05,0.01,3
38252,1.2815e+08,0.38,-0.23,-1.87,-0.94,6.25,4.7,0.05,0.01,3
38296,1.2816e+08,0.37,-0.24,-1.85,-0.94,6.25,4.76,0.05,0.01,3
38341,1.2817e+08,0.35,-0.28,-1.84,-0.96,6.25,4.82,0.05,0.01,3
38385,1.2818e+08,0.33,-0.26,-1.82,-0.95,6.25,4.87,0.05,0.01,3
38424,1.2819e+08,0.32,-0.31,-1.81,-0.9,6.25,4.94,0.05,0.01,3
38470,1.282e+08,0.3,-0.31,-1.8,-0.89,6.25,5.02,0.05,0.01,3
38515,1.2821e+08,0.28,-0.29,-1.79,-0.91,6.25,5.08,0.05,0.01,3
38556,1.2823e+08,0.24,-0.27,-1.77,-0.92,6.25,5.17,0.05,0.01,3
38600,1.2824e+08,0.21,-0.27,-1.75,-0.92,6.25,5.23,0.05,0.01,3
38649,1.2825e+08,0.17,-0.25,-1.72,-0.92,6.26,5.3,0.05,0.01,3
38694,1.2826e+08,0.13,-0.22,-1.7,-0.98,6.27,5.38,0.05,0.01,3
38739,1.2827e+08,0.09,-0.23,-1.67,-1.02,6.28,5.46,0.05,0.01,3
38783,1.2828e+08,0.05,-0.22,-1.63,-1.07,6.31,5.53,0.05,0.01,3
38828,1.2829e+08,0.01,-0.17,-1.6,-1.12,6.34,5.61,0.05,0.01,3
38869,1.283e+08,-0.01,-0.2,-1.58,-1.14,6.38,5.74,0.05,0.01,3
38914,1.2831e+08,-0.03,-0.21,-1.58,-1.2,6.45,5.82,0.05,0.01,3
38959,1.2832e+08,-0.03,-0.22,-1.59,-1.23,6.54,5.9,0.05,0.01,3
39000,1.2833e+08,-0.02,-0.23,-1.62,-1.17,6.64,6.03,0.05,0.01,3
39045,1.2834e+08,-0.01,-0.22,-1.67,-1.15,6.78,6.12,0.05,0.01,3
39096,1.2835e+08,0.01,-0.25,-1.74,-1.21,6.93,6.24,0.05,0.01,3
39141,1.2837e+08,0.05,-0.25,-1.82,-1.23,7.1,6.34,0.05,0.01,3
39187,1.2838e+08,0.09,-0.22,-1.91,-1.25,7.29,6.45,0.05,0.01,3
39231,1.2839e+08,0.15,-0.24,-2.01,-1.27,7.51,6.58,0.05,0.01,3
39276,1.284e+08,0.21,-0.22,-2.12,-1.31,7.73,6.74,0.05,0.01,3
39322,1.2841e+08,0.28,-0.2,-2.24,-1.41,7.95,6.88,0.05,0.01,3
39364,1.2843e+08,0.36,-0.18,-2.37,-1.45,8.16,7.09,0.05,0.01,3
39406,1.2844e+08,0.44,-0.12,-2.51,-1.56,8.37,7.28,0.05,0.01,3
39451,1.2845e+08,0.53,-0.1,-2.66,-1.65,8.55,7.45,0.05,0.01,3
39496,1.2846e+08,0.61,-0.05,-2.81,-1.74,8.72,7.62,0.05,0.01,3
39545,1.2847e+08,0.69,0.02,-2.96,-1.87,8.85,7.83,0.05,0,3
39590,1.2848e+08,0.77,0.08,-3.1,-2.04,8.97,8.03,0.05,0,3
39635,1.2849e+08,0.84,0.13,-3.23,-2.17,9.07,8.22,0.05,0,3
39679,1.285e+08,0.91,0.19,-3.35,-2.25,9.16,8.45,0.05,0,3
39717,1.2851e+08,0.94,0.28,-3.41,-2.44,9.19,8.71,0.05,0,3
39762,1.2852e+08,1,0.4,-3.52,-2.61,9.24,8.92,0.05,0,3
39806,1.2853e+08,1.05,0.52,-3.62,-2.78,9.25,9.15,0.05,0,3
39851,1.2854e+08,1.1,0.57,-3.72,-2.93,9.25,9.36,0.05,0,3
39897,1.2855e+08,1.14,0.63,-3.81,-3.14,9.25,9.63,0.05,0,3
39941,1.2856e+08,1.18,0.69,-3.89,-3.27,9.25,9.84,0.05,0,3
39991,1.2858e+08,1.21,0.75,-3.97,-3.39,9.25,10.06,0.05,0.01,3
40036,1.2859e+08,1.24,0.79,-4.05,-3.48,9.25,10.3,0.05,0.01,3
40081,1.286e+08,1.27,0.84,-4.12,-3.53,9.24,10.53,0.05,0.01,3
40125,1.2861e+08,1.29,0.86,-4.2,-3.65,9.24,10.78,0.05,0.01,3
40166,1.2862e+08,1.31,0.87,-4.25,-3.7,9.24,11.11,0.05,0.01,3
40210,1.2863e+08,1.33,0.9,-4.31,-3.81,9.24,11.36,0.05,0.01,3
40252,1.2865e+08,1.33,0.99,-4.37,-3.86,9.24,11.59,0.05,0.01,3
40297,1.2866e+08,1.31,0.99,-4.42,-3.94,9.24,11.81,0.05,0.01,3
40343,1.2867e+08,1.29,1.01,-4.45,-4.01,9.24,12.05,0.05,0.01,3
40388,1.2868e+08,1.26,1.07,-4.48,-4.05,9.24,12.26,0.05,0.01,3
40437,1.2869e+08,1.21,1.08,-4.5,-4.11,9.24,12.5,0.05,0,3
40482,1.287e+08,1.16,1.12,-4.52,-4.19,9.24,12.68,0.05,0,3
40526,1.2871e+08,1.11,1.19,-4.53,-4.28,9.24,12.87,0.05,0,3
40571,1.2872e+08,1.05,1.24,-4.53,-4.4,9.24,13.06,0.05,0,3
40613,1.2873e+08,1,1.24,-4.53,-4.44,9.24,13.26,0.05,0,3
40655,1.2874e+08,0.95,1.29,-4.53,-4.49,9.24,13.45,0.05,0,3
40699,1.2875e+08,0.88,1.29,-4.52,-4.57,9.24,13.59,0.05,0,3
40744,1.2876e+08,0.8,1.31,-4.52,-4.65,9.24,13.77,0.05,0,3
40789,1.2877e+08,0.7,1.28,-4.49,-4.68,9.24,13.9,0.05,0,3
40834,1.2878e+08,0.59,1.25,-4.45,-4.68,9.24,14.06,0.05,0,3
40883,1.2879e+08,0.42,1.2,-4.4,-4.7,9.24,14.19,0.05,0,3
40929,1.2881e+08,0.25,1.14,-4.33,-4.69,9.24,14.35,0.05,0,3
40973,1.2882e+08,0.03,1.08,-4.26,-4.68,9.24,14.46,0.05,0,3
41018,1.2883e+08,-0.13,0.97,-4.19,-4.71,9.24,14.59,0.05,0,3
41057,1.2884e+08,-0.26,0.81,-4.14,-4.65,9.24,14.72,0.05,0,3
41100,1.2885e+08,-0.54,0.63,-4.04,-4.53,9.24,14.82,0.05,0,3
41145,1.2886e+08,-0.85,0.46,-3.92,-4.49,9.24,14.92,0.05,0,3
41189,1.2887e+08,-1.18,0.25,-3.79,-4.42,9.23,15,0.05,0,3
41234,1.2888e+08,-1.51,0.04,-3.67,-4.32,9.23,15.07,0.05,0,3
41279,1.2889e+08,-1.83,-0.22,-3.55,-4.25,9.23,15.14,0.05,0,3
41328,1.289e+08,-2.17,-0.54,-3.44,-4.16,9.22,15.19,0.05,0,3
41373,1.2892e+08,-2.5,-0.9,-3.32,-3.99,9.22,15.24,0.05,0,3
41418,1.2893e+08,-2.84,-1.28,-3.21,-3.81,9.21,15.29,0.05,0,3
41463,1.2894e+08,-3.18,-1.65,-3.1,-3.67,9.21,15.34,0.05,0,3
41504,1.2895e+08,-3.43,-2.07,-3.02,-3.41,9.2,15.37,0.05,0,3
41548,1.2896e+08,-3.77,-2.51,-2.93,-3.3,9.2,15.4,0.05,0,3
41592,1.2897e+08,-4.09,-2.93,-2.84,-3.1,9.19,15.41,0.05,0,3
41636,1.2898e+08,-4.41,-3.29,-2.76,-2.95,9.18,15.42,0.05,0,3
41680,1.2899e+08,-4.71,-3.7,-2.67,-2.77,9.18,15.44,0.05,0,3
41730,1.2901e+08,-5.01,-4.11,-2.59,-2.58,9.17,15.44,0.05,0,3
41774,1.2902e+08,-5.29,-4.52,-2.51,-2.36,9.16,15.44,0.05,0.02,3
41822,1.2903e+08,-5.63,-4.95,-2.42,-2.2,9.15,15.43,0.05,0.02,3
41864,1.2904e+08,-5.89,-5.37,-2.35,-2,9.15,15.4,0.05,0.02,3
41905,1.2905e+08,-6.08,-5.75,-2.3,-1.81,9.14,15.35,0.05,0.02,3
41946,1.2906e+08,-6.26,-6.14,-2.26,-1.7,9.14,15.33,0.05,0.02,3
41992,1.2907e+08,-6.49,-6.42,-2.2,-1.6,9.13,15.28,0.05,0.02,3
42036,1.2909e+08,-6.69,-6.73,-2.14,-1.52,9.12,15.24,0.05,0.02,3
42081,1.291e+08,-6.89,-7.01,-2.09,-1.44,9.12,15.17,0.05,0.02,3
42125,1.2911e+08,-7.08,-7.28,-2.04,-1.35,9.11,15.13,0.05,0.02,3
42174,1.2912e+08,-7.26,-7.54,-2,-1.23,9.11,15.06,0.05,0.02,3
42220,1.2913e+08,-7.44,-7.74,-1.96,-1.14,9.1,15,0.05,0.02,3
42264,1.2914e+08,-7.59,-7.93,-1.92,-1.06,9.1,14.95,0.05,0.02,3
42309,1.2915e+08,-7.74,-8.16,-1.9,-0.95,9.09,14.87,0.05,0.02,3
42350,1.2916e+08,-7.84,-8.38,-1.88,-0.85,9.09,14.8,0.05,0.02,3
42395,1.2917e+08,-7.98,-8.52,-1.87,-0.81,9.09,14.73,0.05,0.02,3
42436,1.2918e+08,-8.07,-8.63,-1.86,-0.81,9.09,14.67,0.05,0.02,3
42481,1.2919e+08,-8.17,-8.78,-1.86,-0.78,9.09,14.59,0.05,0.02,3
42526,1.292e+08,-8.26,-8.92,-1.85,-0.76,9.09,14.53,0.05,0.02,3
42572,1.2921e+08,-8.35,-9.01,-1.84,-0.71,9.09,14.48,0.05,0.02,3
42618,1.2923e+08,-8.43,-9.15,-1.83,-0.66,9.08,14.39,0.05,0.01,3
42662,1.2924e+08,-8.51,-9.24,-1.83,-0.72,9.08,14.31,0.05,0.01,3
42706,1.2925e+08,-8.58,-9.25,-1.82,-0.77,9.08,14.21,0.05,0.01,3
42751,1.2926e+08,-8.64,-9.25,-1.81,-0.77,9.08,14.12,0.05,0.01,3
42796,1.2927e+08,-8.69,-9.34,-1.79,-0.73,9.08,14,0.05,0.01,3
42842,1.2929e+08,-8.75,-9.31,-1.78,-0.86,9.08,13.86,0.05,0.01,3
42887,1.293e+08,-8.8,-9.26,-1.77,-0.88,9.08,13.78,0.05,0.01,3
42931,1.2931e+08,-8.83,-9.25,-1.77,-0.89,9.07,13.66,0.05,0.01,3
42976,1.2932e+08,-8.86,-9.23,-1.76,-0.89,9.07,13.57,0.05,0.01,3
43022,1.2933e+08,-8.88,-9.22,-1.75,-0.92,9.07,13.48,0.05,0.01,3
43071,1.2934e+08,-8.9,-9.16,-1.74,-0.92,9.07,13.36,0.05,0.01,3
43118,1.2935e+08,-8.92,-9.11,-1.73,-0.93,9.07,13.27,0.05,0.01,3
43162,1.2936e+08,-8.94,-9.08,-1.73,-0.92,9.07,13.16,0.05,0.01,3
43207,1.2937e+08,-8.95,-9.06,-1.72,-0.96,9.07,13.07,0.05,0.01,3
43251,1.2939e+08,-8.96,-9.07,-1.71,-0.99,9.07,12.91,0.05,0.01,3
43296,1.294e+08,-8.95,-9,-1.71,-0.97,9.06,12.81,0.05,0.01,3
43347,1.2941e+08,-8.92,-8.98,-1.69,-1,9.06,12.71,0.05,0.01,3
43389,1.2942e+08,-8.88,-8.96,-1.68,-1.06,9.06,12.6,0.05,0.01,3
43431,1.2943e+08,-8.85,-8.97,-1.66,-1.09,9.06,12.54,0.05,0.01,3
43480,1.2945e+08,-8.83,-8.98,-1.64,-1.09,9.06,12.47,0.05,0.01,3
43524,1.2946e+08,-8.82,-8.92,-1.63,-1.11,9.05,12.41,0.05,0.01,3
43570,1.2947e+08,-8.82,-8.89,-1.6,-1.14,9.05,12.34,0.05,0.01,3
43615,1.2948e+08,-8.83,-8.78,-1.58,-1.15,9.05,12.28,0.05,0.01,3
43659,1.2949e+08,-8.84,-8.69,-1.56,-1.16,9.04,12.22,0.05,0.01,3
43701,1.295e+08,-8.85,-8.6,-1.55,-1.14,9.04,12.16,0.05,0.01,3
43746,1.2951e+08,-8.86,-8.51,-1.52,-1.13,9.04,12.12,0.05,0.01,3
43790,1.2952e+08,-8.86,-8.45,-1.51,-1.07,9.03,12.07,0.05,0.01,3
43836,1.2954e+08,-8.87,-8.34,-1.5,-1.06,9.03,12.03,0.05,0.01,3
43881,1.2955e+08,-8.89,-8.24,-1.49,-1.07,9.03,12.01,0.05,0.01,3
43931,1.2956e+08,-8.9,-8.16,-1.48,-1.01,9.03,11.99,0.05,0.02,3
43976,1.2957e+08,-8.92,-8.09,-1.47,-0.99,9.03,11.95,0.05,0.02,3
44020,1.2958e+08,-8.94,-8.07,-1.46,-0.97,9.03,11.93,0.05,0.02,3
44066,1.2959e+08,-8.97,-8,-1.45,-0.96,9.02,11.9,0.05,0.02,3
44110,1.296e+08,-9,-7.95,-1.43,-0.93,9.02,11.9,0.05,0.02,3
44151,1.2961e+08,-9.01,-7.96,-1.42,-0.87,9.02,11.88,0.05,0.02,3
44193,1.2962e+08,-9.04,-7.96,-1.4,-0.82,9.02,11.87,0.05,0.02,3
44238,1.2963e+08,-9.06,-7.93,-1.38,-0.83,9.01,11.87,0.05,0.02,3
44283,1.2965e+08,-9.08,-7.93,-1.36,-0.88,9.01,11.87,0.05,0.02,3
44331,1.2966e+08,-9.1,-7.91,-1.33,-0.86,9.01,11.86,0.05,0.02,3
44377,1.2967e+08,-9.12,-7.9,-1.3,-0.88,9,11.85,0.05,0.01,3
44423,1.2968e+08,-9.15,-7.94,-1.25,-0.87,8.99,11.86,0.05,0.01,3
44467,1.2969e+08,-9.2,-7.94,-1.21,-0.85,8.99,11.86,0.05,0.01,3
44509,1.297e+08,-9.23,-8.01,-1.18,-0.86,8.98,11.86,0.05,0.01,3
44554,1.2971e+08,-9.25,-8.05,-1.13,-0.9,8.97,11.85,0.05,0.01,3
44598,1.2972e+08,-9.26,-8.08,-1.09,-0.92,8.97,11.85,0.05,0.01,3
44641,1.2973e+08,-9.24,-8.11,-1.06,-0.97,8.96,11.82,0.05,0.01,3
44685,1.2974e+08,-9.21,-8.18,-1.02,-0.97,8.96,11.8,0.05,0.01,3
44730,1.2975e+08,-9.14,-8.23,-0.99,-0.91,8.95,11.77,0.05,0.01,3
44778,1.2976e+08,-9.08,-8.29,-0.98,-0.89,8.95,11.76,0.05,0.01,3
44824,1.2977e+08,-9.01,-8.39,-0.97,-0.82,8.95,11.73,0.05,0.01,3
44869,1.2978e+08,-8.92,-8.4,-0.97,-0.8,8.95,11.71,0.05,0.01,3
44914,1.2979e+08,-8.8,-8.44,-0.96,-0.78,8.95,11.67,0.05,0.01,3
44959,1.2981e+08,-8.69,-8.4,-0.95,-0.72,8.94,11.63,0.05,0.01,3
45005,1.2982e+08,-8.59,-8.33,-0.92,-0.68,8.94,11.59,0.05,0.01,3
45044,1.2983e+08,-8.5,-8.27,-0.9,-0.54,8.94,11.53,0.05,0.01,3
45090,1.2985e+08,-8.41,-8.17,-0.86,-0.41,8.93,11.5,0.05,0.01,3
