LineNo,TimeUS,DesRoll,Roll,DesPitch,Pitch,DesYaw,Yaw,ErrRP,ErrYaw,AEKF
187,118643548,0,0.86,-0.01,0.89,38.52,11.53,0,0.01,3
522,118727679,0,0.86,-0.01,0.88,38.56,11.53,0,0.01,3
973,118834361,0,0.85,-0.01,0.88,38.51,11.53,0,0.01,3
1301,119044836,0,0.86,-0.01,0.87,38.45,11.53,0.01,0.01,3
1386,119056309,0,0.86,-0.01,0.87,38.44,11.53,0.01,0.01,3
1599,119092416,0,0.85,-0.01,0.88,38.42,11.53,0.01,0.01,3
1645,119102395,0,0.85,-0.01,0.88,38.41,11.53,0.01,0.01,3
1689,119112798,0,0.85,-0.01,0.88,38.41,11.53,0.01,0.01,3
1734,119123494,0,0.85,-0.01,0.88,38.4,11.53,0.01,0.01,3
1778,119133711,0,0.85,-0.01,0.88,38.39,11.53,0.01,0.01,3
1823,119144275,0,0.85,-0.01,0.87,38.39,11.54,0.01,0.01,3
1872,119154530,0,0.86,0,0.87,38.38,11.54,0.01,0.02,3
1917,119164197,0,0.86,0,0.87,38.38,11.54,0.01,0.02,3
1965,119174881,0.01,0.86,0,0.87,38.37,11.54,0.01,0.02,3
2009,119185321,0.01,0.86,0,0.87,38.36,11.54,0.01,0.02,3
2055,119195607,0.01,0.87,0,0.87,38.36,11.54,0.01,0.02,3
2099,119206338,0.01,0.87,0,0.87,38.35,11.54,0.01,0.02,3
2144,119216493,0.01,0.86,0,0.87,38.35,11.54,0.01,0.02,3
2190,119229381,0.01,0.86,0,0.87,38.34,11.55,0.01,0.02,3
2233,119240580,0.01,0.86,0,0.87,38.33,11.55,0.01,0.02,3
2277,119250645,0.01,0.86,0,0.87,38.33,11.55,0.01,0.02,3
2326,119260785,0.01,0.85,0,0.87,38.32,11.55,0.01,0.02,3
2371,119270902,0.01,0.85,0,0.87,38.32,11.55,0.01,0.02,3
2415,119281616,0.01,0.85,0,0.86,38.31,11.55,0.01,0.02,3
2460,119291928,0.01,0.85,0,0.86,38.3,11.55,0.01,0.02,3
2505,119301694,0.01,0.85,0,0.86,38.3,11.55,0.01,0.02,3
2550,119311594,0.01,0.85,0,0.86,38.29,11.55,0.01,0.02,3
2595,119321706,0.01,0.85,0,0.86,38.28,11.55,0.01,0.02,3
2640,119332108,0.01,0.85,0,0.86,38.28,11.55,0.01,0.02,3
2685,119342260,0.01,0.86,0,0.86,38.27,11.55,0.01,0.02,3
2729,119352352,0.01,0.86,0,0.86,38.27,11.56,0.01,0.02,3
2778,119362714,0.01,0.86,0,0.87,38.26,11.56,0.01,0.02,3
2822,119373100,0.01,0.86,0,0.87,38.25,11.56,0.01,0.02,3
2868,119383038,0.01,0.86,0,0.87,38.25,11.56,0.01,0.02,3
2912,119394045,0.01,0.86,0,0.87,38.24,11.56,0.01,0.02,3
2958,119404856,0.01,0.85,0,0.87,38.24,11.56,0.01,0.02,3
3004,119417994,0.01,0.85,0,0.86,38.23,11.56,0.02,0.02,3
3046,119428933,0.01,0.85,0,0.86,38.23,11.56,0.02,0.02,3
3093,119439279,0.01,0.85,0,0.86,38.23,11.57,0.02,0.02,3
3138,119449066,0.01,0.84,0,0.86,38.23,11.57,0.02,0.02,3
3185,119459312,0.01,0.84,0,0.86,38.23,11.57,0.02,0.02,3
3231,119468954,0.01,0.84,0,0.86,38.23,11.57,0.02,0.02,3
3276,119479512,0.01,0.84,0,0.86,38.23,11.57,0.02,0.02,3
3321,119489517,0.01,0.84,0,0.86,38.23,11.57,0.02,0.02,3
3366,119499665,0.01,0.84,0,0.86,38.23,11.57,0.02,0.02,3
3411,119509907,0.01,0.84,0,0.86,38.23,11.57,0.02,0.02,3
3455,119519941,0.01,0.85,0,0.86,38.23,11.57,0.02,0.02,3
3501,119530078,0.01,0.85,0,0.86,38.23,11.57,0.02,0.02,3
3547,119540580,0.01,0.85,0,0.86,38.23,11.58,0.02,0.02,3
3591,119551074,0.01,0.85,0,0.86,38.23,11.58,0.02,0.02,3
3639,119561627,0.01,0.85,0,0.86,38.23,11.58,0.02,0.02,3
3684,119571701,0.01,0.85,0,0.86,38.23,11.58,0.02,0.02,3
3729,119581640,0.01,0.85,0,0.86,38.23,11.58,0.02,0.02,3
3775,119591715,0.01,0.85,0,0.86,38.23,11.58,0.02,0.02,3
3819,119602284,0.01,0.85,0,0.86,38.23,11.58,0.02,0.02,3
3869,119615260,0.01,0.85,0,0.86,38.23,11.58,0.02,0.02,3
3910,119628935,0.01,0.85,0,0.86,38.23,11.58,0.02,0.02,3
3957,119638959,0.01,0.85,0,0.86,38.23,11.58,0.02,0.02,3
4004,119649310,0.01,0.85,0,0.86,38.23,11.58,0.02,0.02,3
4048,119659572,0.01,0.85,0,0.86,38.23,11.59,0.02,0.02,3
4098,119670219,0.01,0.85,0,0.86,38.23,11.59,0.02,0.02,3
4142,119680104,0.01,0.85,0,0.86,38.23,11.59,0.02,0.02,3
4187,119690123,0.01,0.86,0,0.86,38.23,11.59,0.02,0.02,3
4231,119700283,0.01,0.86,0,0.86,38.23,11.59,0.02,0.02,3
4276,119710063,0.01,0.86,0,0.86,38.23,11.59,0.02,0.02,3
4321,119720376,0.01,0.86,0,0.86,38.23,11.59,0.02,0.02,3
4365,119730055,0.01,0.86,0,0.86,38.23,11.59,0.02,0.02,3
4410,119740172,0.01,0.86,0,0.86,38.23,11.59,0.02,0.02,3
4455,119750640,0.01,0.86,0,0.86,38.23,11.59,0.02,0.02,3
4500,119760705,0.01,0.85,0,0.86,38.23,11.6,0.02,0.02,3
4548,119770824,0.01,0.85,0,0.86,38.23,11.6,0.02,0.02,3
4593,119780945,0.01,0.85,0,0.86,38.23,11.6,0.02,0.02,3
4637,119791579,0.01,0.85,0,0.86,38.23,11.6,0.02,0.02,3
4682,119802087,0.01,0.85,0,0.86,38.23,11.6,0.02,0.02,3
4728,119812318,0.01,0.85,0,0.86,38.23,11.6,0.02,0.02,3
4774,119822148,0.01,0.85,0,0.86,38.23,11.6,0.02,0.02,3
4813,119834374,0.01,0.85,0,0.86,38.23,11.6,0.02,0.02,3
4858,119844506,0.01,0.86,0,0.86,38.23,11.6,0.02,0.02,3
4903,119854525,0.01,0.86,0,0.86,38.23,11.6,0.02,0.02,3
4949,119864882,0.01,0.86,0,0.86,38.23,11.6,0.02,0.02,3
4997,119875597,0.01,0.86,0,0.86,38.23,11.6,0.02,0.02,3
5042,119885695,0.01,0.86,0,0.86,38.23,11.6,0.02,0.02,3
5086,119896390,0.01,0.86,0,0.86,38.23,11.6,0.02,0.02,3
5132,119906940,0.01,0.86,0,0.86,38.23,11.61,0.02,0.02,3
5176,119917015,0.01,0.86,0,0.86,38.23,11.61,0.02,0.02,3
5221,119926886,0.01,0.86,0,0.86,38.23,11.61,0.02,0.02,3
5268,119937385,0.01,0.86,0,0.86,38.23,11.61,0.02,0.02,3
5312,119947521,0.01,0.86,0,0.86,38.23,11.61,0.02,0.02,3
5357,119958068,0.01,0.86,0,0.86,38.23,11.61,0.02,0.02,3
5401,119968355,0.01,0.86,0,0.86,38.23,11.61,0.02,0.02,3
5450,119978373,0.01,0.86,0,0.86,38.23,11.61,0.02,0.02,3
5496,119988104,0.01,0.86,0,0.86,38.23,11.61,0.02,0.02,3
5541,119998616,0.01,0.86,0,0.86,38.23,11.62,0.02,0.02,3
5588,120008928,0.01,0.87,0,0.86,38.23,11.62,0.01,0.02,3
5626,120020116,0.01,0.87,0,0.86,38.23,11.62,0.01,0.02,3
5671,120030342,0.01,0.87,0,0.86,38.23,11.62,0.01,0.02,3
5716,120040342,0.01,0.87,0,0.86,38.23,11.62,0.01,0.02,3
5760,120050596,0.01,0.87,0,0.86,38.23,11.63,0.01,0.02,3
5805,120060815,0.01,0.87,0,0.86,38.23,11.63,0.01,0.02,3
5849,120071199,0.01,0.87,0,0.86,38.23,11.63,0.01,0.02,3
5897,120081914,0.01,0.87,0,0.86,38.23,11.63,0.01,0.02,3
5943,120092370,0.01,0.87,0,0.86,38.24,11.63,0.01,0.02,3
5987,120102571,0.01,0.87,0,0.86,38.26,11.63,0.01,0.02,3
6032,120112591,0.01,0.87,0,0.86,38.29,11.63,0.01,0.02,3
6076,120122406,0.01,0.86,0,0.86,38.32,11.63,0.01,0.02,3
6121,120133515,0.01,0.86,0,0.86,38.31,11.63,0.01,0.02,3
6165,120143639,0.01,0.87,0,0.86,38.31,11.63,0.01,0.02,3
6210,120154019,0.01,0.87,0,0.86,38.3,11.63,0.01,0.02,3
6256,120164900,0.01,0.87,0,0.87,11.64,11.63,0.01,0.02,3
6300,120175276,0.01,0.87,0,0.87,11.64,11.63,0.01,0.02,3
6350,120185920,0.01,0.87,0,0.87,11.64,11.63,0.01,0.02,3
6394,120195954,0.01,0.87,0,0.87,11.64,11.63,0.01,0.02,3
6440,120205936,0.01,0.87,0,0.87,11.63,11.62,0.01,0.02,3
6487,120216253,0.01,0.87,0,0.86,11.63,11.61,0.02,0.02,3
6526,120227940,0.01,0.87,0,0.86,11.64,11.63,0.02,0.02,3
6571,120238521,0.01,0.87,0,0.86,11.65,11.64,0.02,0.02,3
6615,120249030,0.01,0.88,0,0.86,11.66,11.65,0.02,0.02,3
6660,120259401,0.01,0.87,0,0.86,11.67,11.66,0.02,0.02,3
6704,120269599,0.01,0.87,0,0.86,11.67,11.66,0.02,0.02,3
6749,120280019,0.01,0.87,0,0.86,11.67,11.66,0.02,0.02,3
6797,120290500,0.01,0.87,0,0.87,11.67,11.66,0.02,0.01,3
6842,120300870,0.01,0.87,0,0.87,11.66,11.65,0.02,0.01,3
6887,120311056,0.01,0.87,0,0.87,11.66,11.65,0.02,0.01,3
6933,120321715,0.01,0.89,0,0.86,11.65,11.64,0.02,0.01,3
6978,120332223,0.01,0.89,0,0.86,11.64,11.63,0.02,0.01,3
7022,120342805,0.01,0.89,0,0.86,11.63,11.62,0.02,0.01,3
7067,120352814,0.01,0.88,0,0.86,11.63,11.62,0.02,0.01,3
7113,120362582,0.01,0.87,0,0.86,11.64,11.63,0.02,0.01,3
7157,120372632,0.01,0.88,0,0.86,11.64,11.63,0.02,0.01,3
7202,120383027,0.01,0.88,0,0.86,11.65,11.64,0.02,0.01,3
7250,120393321,0.01,0.88,0,0.86,11.66,11.65,0.02,0.01,3
7296,120403417,0.01,0.88,0,0.86,11.66,11.65,0.02,0.01,3
7340,120413596,0.01,0.87,0,0.87,11.67,11.66,0.02,0.01,3
7387,120423548,0.01,0.88,0,0.87,11.67,11.66,0.02,0.01,3
7431,120434202,0.01,0.89,0,0.88,11.67,11.66,0.02,0.01,3
7473,120445589,0.01,0.9,0,0.87,11.67,11.66,0.02,0.01,3
7518,120455973,0.01,0.9,0,0.86,11.67,11.66,0.02,0.01,3
7563,120466560,0.01,0.9,0,0.86,11.67,11.66,0.02,0.01,3
7608,120477239,0.01,0.9,0,0.87,11.66,11.65,0.02,0.01,3
7653,120487224,0.01,0.9,0,0.85,11.65,11.64,0.02,0.01,3
7701,120498040,0.01,0.91,0,0.86,11.65,11.64,0.02,0.01,3
7746,120508569,0.01,0.91,0,0.85,11.65,11.64,0.02,0.01,3
7790,120519092,0.01,0.9,0,0.86,11.65,11.64,0.02,0.01,3
7835,120529282,0.01,0.89,0,0.87,11.66,11.64,0.02,0.01,3
7880,120539689,0.01,0.9,0,0.88,11.65,11.64,0.02,0.01,3
7926,120549899,0.01,0.91,0,0.88,11.66,11.65,0.02,0.01,3
7972,120559940,0.01,0.92,0,0.87,11.68,11.66,0.02,0.01,3
8016,120570021,0.01,0.92,0,0.87,11.67,11.66,0.02,0.01,3
8061,120580356,0.01,0.91,0,0.86,11.68,11.67,0.02,0.01,3
8105,120590536,0.01,0.91,0,0.86,11.68,11.67,0.02,0.01,3
8154,120601105,0.01,0.91,0,0.86,11.69,11.68,0.02,0.01,3
8200,120613980,0.01,0.92,0,0.85,11.68,11.67,0.02,0.01,3
8243,120624898,0.01,0.92,0,0.84,11.67,11.66,0.02,0.01,3
8287,120634748,0.01,0.92,0,0.86,11.66,11.65,0.02,0.01,3
8332,120645252,0.01,0.9,0,0.86,11.66,11.65,0.02,0.01,3
8379,120655875,0.01,0.89,0,0.88,11.65,11.64,0.02,0.01,3
8426,120666583,0.01,0.9,0,0.87,11.65,11.64,0.02,0.01,3
8472,120676941,0.01,0.89,0,0.88,11.64,11.63,0.02,0.01,3
8516,120686491,0.01,0.89,0,0.87,11.65,11.64,0.02,0.01,3
8562,120696617,0.01,0.88,0,0.88,11.65,11.63,0.02,0.01,3
8610,120706873,0.01,0.89,0,0.87,11.66,11.64,0.02,0.01,3
8656,120717365,0.01,0.92,0,0.87,11.65,11.64,0.02,0.01,3
8701,120727714,0.01,0.92,0,0.85,11.67,11.66,0.02,0.01,3
8748,120740551,0.01,0.9,0,0.87,11.67,11.66,0.02,0.01,3
8793,120751260,0.01,0.9,0,0.85,11.68,11.67,0.02,0.01,3
8837,120761456,0.01,0.9,0,0.86,11.67,11.66,0.02,0.01,3
8882,120771429,0.01,0.91,0,0.86,11.69,11.67,0.02,0.01,3
8926,120781238,0.01,0.9,0,0.89,11.67,11.66,0.02,0.01,3
8973,120791663,0.01,0.91,0,0.89,11.68,11.67,0.02,0.01,3
9021,120802365,0.01,0.9,0,0.89,11.66,11.65,0.02,0.01,3
9066,120812538,0.01,0.91,0,0.89,11.67,11.66,0.02,0.01,3
9110,120823386,0.01,0.89,0,0.89,11.65,11.64,0.02,0.01,3
9152,120833899,0.01,0.91,0,0.89,11.66,11.65,0.02,0.01,3
9196,120843944,0.01,0.89,0,0.87,11.65,11.64,0.02,0.01,3
9244,120857066,0.01,0.9399999999999999,0,0.86,11.66,11.65,0.02,0.01,3
9289,120867398,0.01,0.9399999999999999,0,0.85,11.66,11.65,0.02,0.01,3
9334,120878067,0.01,0.95,0,0.86,11.66,11.65,0.02,0.01,3
9380,120888077,0.01,0.9399999999999999,0,0.83,11.68,11.66,0.02,0.01,3
9424,120898626,0.01,0.9399999999999999,0,0.85,11.67,11.66,0.02,0.01,3
9472,120908892,0.01,0.9399999999999999,0,0.87,11.69,11.67,0.02,0.01,3
9518,120918708,0.01,0.92,0,0.88,11.67,11.66,0.02,0.01,3
9565,120929186,0.01,0.96,0,0.91,11.7,11.69,0.02,0.01,3
9610,120939605,0.01,0.96,0,0.87,11.68,11.66,0.02,0.01,3
9654,120949919,0.01,0.98,0,0.89,11.69,11.69,0.02,0.01,3
9703,120962956,0.01,0.97,0,0.87,11.69,11.69,0.02,0.01,3
9748,120973530,0.02,0.99,0,0.83,11.69,11.66,0.02,0.01,3
9793,120983804,0.03,0.96,0.01,0.84,11.69,11.69,0.02,0.01,3
9837,120994065,0.04,0.96,0.02,0.82,11.69,11.67,0.02,0.01,3
9882,121004844,0.06,1,0.02,0.85,11.69,11.68,0.02,0.01,3
9930,121015538,0.07000000000000001,0.97,0.03,0.85,11.69,11.68,0.02,0.01,3
9977,121032178,0.09,0.97,0.03,0.83,11.69,11.68,0.01,0.01,3
10021,121042636,0.11,1.04,0.03,0.85,11.69,11.67,0.01,0.01,3
10068,121053411,0.12,1.02,0.04,0.89,11.69,11.68,0.01,0.01,3
10112,121064342,0.13,0.85,0.04,0.88,11.69,11.69,0.01,0.01,3
10156,121074935,0.14,0.78,0.04,0.91,11.69,11.7,0.01,0.01,3
10201,121085835,0.14,0.8,0.04,0.86,11.69,11.7,0.01,0.01,3
10245,121096803,0.15,0.92,0.04,0.84,11.69,11.7,0.01,0.01,3
10290,121106984,0.15,1.09,0.03,0.82,11.69,11.7,0.01,0.01,3
10339,121117408,0.15,1.15,0.03,0.83,11.69,11.7,0.01,0.01,3
10384,121127866,0.15,1.06,0.03,0.82,11.69,11.71,0.01,0.01,3
10429,121137996,0.16,0.95,0.03,0.79,11.69,11.71,0.01,0.01,3
10473,121149213,0.16,0.92,0.03,0.78,11.69,11.73,0.01,0.01,3
10522,121162323,0.18,0.9,0.03,0.75,11.69,11.74,0.01,0.01,3
10567,121172602,0.2,0.91,0.02,0.76,11.69,11.74,0.01,0.01,3
10611,121183709,0.22,0.98,0.02,0.84,11.69,11.75,0.01,0.01,3
10656,121194819,0.23,1.07,0.02,0.8100000000000001,11.69,11.76,0.01,0.01,3
10701,121205544,0.25,1.03,0.01,0.78,11.69,11.73,0.01,0.01,3
10748,121218579,0.26,0.98,0,0.86,11.69,11.73,0.01,0.01,3
10797,121229573,0.27,0.91,0,0.8,11.69,11.72,0.01,0.01,3
10843,121243550,0.28,0.97,0,0.83,11.69,11.72,0.01,0.01,3
10891,121256895,0.28,0.97,0,0.8,11.69,11.71,0.01,0.01,3
10936,121267528,0.28,0.92,-0.01,0.82,11.69,11.71,0.01,0.01,3
10981,121280605,0.27,0.92,-0.02,0.8,11.69,11.72,0.01,0.01,3
11026,121291098,0.26,0.92,-0.03,0.8100000000000001,11.69,11.73,0.01,0.01,3
11070,121301478,0.25,0.95,-0.04,0.86,11.69,11.74,0.01,0.01,3
11114,121312014,0.24,1.13,-0.06,0.85,11.69,11.76,0.01,0.01,3
11159,121322917,0.24,1.18,-0.08,0.86,11.69,11.75,0.01,0.01,3
11207,121333523,0.24,1.16,-0.09,0.89,11.69,11.76,0.01,0.01,3
11253,121344279,0.25,0.9399999999999999,-0.1,0.85,11.69,11.76,0.01,0.01,3
11298,121354724,0.26,0.8100000000000001,-0.11,0.82,11.69,11.75,0.01,0.01,3
11342,121365564,0.28,0.83,-0.13,0.83,11.69,11.76,0.01,0.01,3
11387,121376345,0.29,0.91,-0.14,0.84,11.69,11.76,0.01,0.01,3
11432,121386593,0.3,1,-0.15,0.86,11.69,11.76,0.01,0.01,3
11476,121396556,0.3,1.01,-0.16,0.84,11.69,11.75,0.01,0.01,3
11525,121409547,0.29,1.06,-0.18,0.85,11.69,11.75,0.02,0.01,3
11569,121423615,0.29,1.01,-0.19,0.87,11.69,11.74,0.02,0.01,3
11616,121434103,0.29,1.1,-0.2,0.86,11.69,11.75,0.02,0.01,3
11665,121444886,0.29,1.16,-0.2,0.87,11.69,11.74,0.02,0.01,3
11710,121455563,0.29,1.13,-0.21,0.88,11.69,11.75,0.02,0.01,3
11754,121466559,0.3,1.04,-0.22,0.88,11.69,11.74,0.02,0.01,3
11799,121476723,0.31,0.84,-0.23,0.89,11.69,11.76,0.02,0.01,3
11843,121487406,0.33,0.75,-0.24,0.91,11.69,11.77,0.02,0.01,3
11888,121498412,0.34,0.83,-0.24,0.95,11.69,11.78,0.02,0.01,3
11934,121508881,0.34,0.93,-0.26,0.96,11.69,11.79,0.02,0.01,3
11978,121519341,0.32,1,-0.27,0.97,11.69,11.79,0.02,0.01,3
12023,121529412,0.29,0.96,-0.27,0.96,11.69,11.8,0.02,0.01,3
12068,121540040,0.27,0.9,-0.28,1.01,11.69,11.8,0.02,0.01,3
12116,121550582,0.24,0.93,-0.29,1.05,11.69,11.82,0.02,0.02,3
12160,121561426,0.22,0.98,-0.32,1.09,11.69,11.83,0.02,0.02,3
12205,121572127,0.2,1.05,-0.33,1.1,11.69,11.84,0.02,0.02,3
12254,121585064,0.17,1.15,-0.35,0.92,11.69,11.83,0.02,0.02,3
12298,121595925,0.15,1.17,-0.36,0.92,11.69,11.86,0.02,0.02,3
12343,121606115,0.12,1.17,-0.35,0.9,11.69,11.9,0.02,0.02,3
12387,121616506,0.09,1.16,-0.34,0.87,11.69,11.93,0.02,0.02,3
12434,121633279,0.05,1.29,-0.32,0.84,11.69,12,0.02,0.02,3
12479,121643816,0.02,1.26,-0.31,0.8100000000000001,11.69,12.05,0.02,0.02,3
12530,121654330,-0.01,1.28,-0.3,0.79,11.69,12.1,0.02,0.02,3
12575,121664615,-0.05,1.33,-0.3,0.76,11.69,12.15,0.02,0.02,3
12620,121675880,-0.09,1.38,-0.3,0.73,11.69,12.23,0.02,0.02,3
12664,121687040,-0.15,1.45,-0.29,0.74,11.69,12.31,0.02,0.02,3
12709,121697957,-0.21,1.51,-0.3,0.7,11.69,12.39,0.02,0.02,3
12753,121708720,-0.27,1.6,-0.3,0.67,11.69,12.47,0.02,0.02,3
12798,121719803,-0.34,1.65,-0.3,0.67,11.69,12.57,0.02,0.02,3
12845,121730614,-0.42,1.75,-0.3,0.61,11.69,12.67,0.02,0.02,3
12889,121741421,-0.5,1.88,-0.31,0.59,11.69,12.78,0.02,0.02,3
12935,121751503,-0.59,1.95,-0.31,0.6,11.69,12.88,0.02,0.02,3
12983,121762324,-0.67,2.03,-0.31,0.51,11.69,12.98,0.02,0.02,3
13028,121772712,-0.75,2.11,-0.31,0.47,11.69,13.08,0.02,0.02,3
13073,121783554,-0.83,2.11,-0.3,0.44,11.69,13.21,0.02,0.02,3
13117,121794415,-0.92,2.17,-0.29,0.39,11.69,13.32,0.02,0.02,3
13162,121804657,-1,2.25,-0.29,0.37,11.69,13.43,0.02,0.02,3
13208,121821806,-1.13,2.38,-0.28,0.29,11.69,13.62,0.02,0.02,3
13253,121832501,-1.24,2.42,-0.28,0.27,11.69,13.74,0.02,0.02,3
13298,121842918,-1.36,2.45,-0.26,0.22,11.69,13.83,0.02,0.02,3
13342,121853622,-1.49,2.5,-0.24,0.15,11.69,13.96,0.02,0.02,3
13391,121864607,-1.63,2.52,-0.2,0.09,11.68,14.08,0.02,0.02,3
13438,121875299,-1.76,2.57,-0.16,-0.02,11.68,14.2,0.02,0.03,3
13482,121886567,-1.9,2.58,-0.11,-0.13,11.68,14.32,0.02,0.03,3
13528,121896863,-2.03,2.53,-0.05,-0.19,11.68,14.43,0.02,0.03,3
13572,121907108,-2.16,2.5,0,-0.29,11.68,14.54,0.02,0.03,3
13619,121917839,-2.3,2.5,0.06,-0.37,11.67,14.66,0.02,0.03,3
13664,121928122,-2.44,2.46,0.12,-0.44,11.67,14.79,0.02,0.03,3
13708,121938371,-2.59,2.4,0.18,-0.48,11.67,14.89,0.02,0.03,3
13752,121948903,-2.74,2.31,0.23,-0.5,11.67,15,0.02,0.03,3
13797,121959576,-2.87,2.2,0.28,-0.55,11.66,15.14,0.02,0.03,3
13845,121969833,-3.01,2.1,0.33,-0.55,11.66,15.25,0.02,0.03,3
13891,121980033,-3.15,2.01,0.37,-0.51,11.66,15.38,0.02,0.02,3
13936,121990668,-3.29,1.89,0.42,-0.44,11.66,15.5,0.02,0.02,3
13981,122000923,-3.43,1.76,0.46,-0.43,11.65,15.64,0.02,0.02,3
14025,122011706,-3.56,1.63,0.51,-0.38,11.65,15.75,0.02,0.02,3
14070,122021853,-3.69,1.44,0.5600000000000001,-0.3,11.65,15.87,0.02,0.02,3
14113,122033346,-3.8,1.22,0.61,-0.29,11.65,15.98,0.02,0.02,3
14155,122044138,-3.9,1.04,0.66,-0.26,11.64,16.09,0.02,0.02,3
14200,122054869,-4.04,0.89,0.73,-0.16,11.64,16.18,0.02,0.02,3
14244,122065396,-4.2,0.67,0.8,-0.05,11.63,16.31,0.02,0.02,3
14292,122075616,-4.4,0.49,0.86,0,11.63,16.41,0.02,0.02,3
14338,122086209,-4.61,0.35,0.92,0.04,11.62,16.5,0.02,0.02,3
14382,122096545,-4.84,0.24,0.97,0.14,11.62,16.61,0.02,0.02,3
14427,122107370,-5.07,0.11,1.02,0.24,11.61,16.71,0.02,0.02,3
14475,122120371,-5.37,-0.13,1.07,0.36,11.61,16.85,0.02,0.02,3
14520,122130922,-5.61,-0.3,1.11,0.48,11.61,16.97,0.02,0.02,3
14565,122141874,-5.84,-0.5,1.14,0.59,11.6,17.06,0.02,0.02,3
14609,122152840,-6.06,-0.73,1.16,0.7,11.6,17.2,0.02,0.02,3
14653,122163064,-6.28,-0.92,1.19,0.77,11.6,17.3,0.02,0.02,3
14698,122173360,-6.49,-1.09,1.22,0.79,11.59,17.41,0.02,0.02,3
14746,122183878,-6.72,-1.27,1.25,0.87,11.59,17.51,0.02,0.01,3
14791,122194938,-6.93,-1.52,1.29,0.95,11.59,17.65,0.02,0.01,3
14836,122205846,-7.14,-1.79,1.32,0.97,11.58,17.78,0.02,0.01,3
14882,122216650,-7.34,-2.06,1.35,1,11.58,17.9,0.02,0.01,3
14926,122231986,-7.54,-2.38,1.38,1.1,11.57,18.08,0.03,0.01,3
14970,122242889,-7.73,-2.6,1.42,1.1,11.57,18.22,0.03,0.01,3
15015,122253353,-7.92,-2.82,1.46,1.11,11.56,18.34,0.03,0.01,3
15060,122263829,-8.1,-3.06,1.5,1.11,11.56,18.47,0.03,0.01,3
15105,122274036,-8.300000000000001,-3.31,1.54,1.16,11.55,18.6,0.03,0.01,3
15149,122284581,-8.49,-3.51,1.58,1.19,11.55,18.71,0.03,0.01,3
15198,122295059,-8.68,-3.71,1.6,1.22,11.54,18.84,0.03,0.01,3
15243,122305850,-8.869999999999999,-3.95,1.62,1.26,11.54,18.96,0.03,0.01,3
15288,122316587,-9.050000000000001,-4.21,1.64,1.36,11.54,19.06,0.03,0.01,3
15332,122326915,-9.210000000000001,-4.44,1.65,1.43,11.54,19.18,0.03,0.01,3
15377,122340621,-9.41,-4.67,1.66,1.48,11.53,19.3,0.03,0.01,3
15421,122351930,-9.56,-4.88,1.65,1.59,11.53,19.38,0.03,0.01,3
15466,122362302,-9.720000000000001,-5.1,1.64,1.77,11.54,19.46,0.03,0.01,3
15511,122372570,-9.869999999999999,-5.29,1.62,1.89,11.54,19.52,0.03,0.01,3
15557,122383520,-10.03,-5.51,1.6,1.97,11.54,19.58,0.03,0.01,3
15601,122393791,-10.17,-5.76,1.58,2.06,11.55,19.63,0.03,0.01,3
15651,122404357,-10.29,-6,1.56,2.19,11.55,19.67,0.03,0.01,3
15699,122414930,-10.41,-6.23,1.53,2.28,11.56,19.71,0.04,0.01,3
15738,122426883,-10.52,-6.51,1.51,2.48,11.56,19.76,0.04,0.01,3
15783,122437950,-10.62,-6.72,1.48,2.53,11.57,19.81,0.04,0.01,3
15827,122448158,-10.72,-6.91,1.44,2.59,11.57,19.84,0.04,0.01,3
15871,122459329,-10.8,-7.1,1.41,2.67,11.58,19.88,0.04,0.01,3
15916,122470290,-10.89,-7.33,1.39,2.72,11.58,19.92,0.04,0.01,3
15961,122480658,-10.99,-7.51,1.36,2.8,11.59,19.96,0.04,0.01,3
16006,122490963,-11.08,-7.66,1.33,2.79,11.6,20,0.04,0.01,3
16051,122501493,-11.16,-7.77,1.29,2.78,11.6,20.04,0.04,0.01,3
16099,122512386,-11.26,-7.89,1.26,2.8,11.61,20.06,0.04,0.01,3
16144,122522819,-11.36,-8.01,1.23,2.8,11.61,20.09,0.04,0.01,3
16189,122533316,-11.47,-8.119999999999999,1.19,2.83,11.62,20.12,0.04,0.01,3
16234,122543566,-11.57,-8.199999999999999,1.15,2.84,11.63,20.15,0.04,0.01,3
16283,122557551,-11.7,-8.25,1.1,2.76,11.63,20.2,0.04,0.01,3
16327,122568219,-11.79,-8.300000000000001,1.06,2.75,11.62,20.22,0.04,0.01,3
16373,122579258,-11.89,-8.380000000000001,1.06,2.72,11.59,20.26,0.04,0.01,3
16418,122590013,-11.98,-8.43,1.04,2.67,11.53,20.3,0.04,0.01,3
16462,122600482,-12.08,-8.48,1.01,2.58,11.44,20.33,0.04,0.01,3
16506,122613317,-12.16,-8.57,0.97,2.57,11.33,20.36,0.04,0.01,3
16551,122623693,-12.26,-8.65,0.93,2.57,11.19,20.39,0.04,0.01,3
16596,122634700,-12.34,-8.73,0.9,2.46,11.02,20.43,0.04,0.01,3
16641,122645261,-12.4,-8.800000000000001,0.85,2.4,10.82,20.45,0.04,0.01,3
16689,122659537,-12.47,-8.92,0.8,2.37,10.54,20.47,0.04,0.01,3
16735,122670515,-12.52,-9.02,0.75,2.3,10.32,20.5,0.04,0.01,3
16780,122681225,-12.56,-9.109999999999999,0.71,2.14,10.1,20.5,0.04,0.01,3
16824,122691829,-12.61,-9.220000000000001,0.68,2.08,9.880000000000001,20.5,0.04,0.01,3
16870,122702835,-12.65,-9.359999999999999,0.67,2.04,9.65,20.5,0.04,0.01,3
16914,122713254,-12.69,-9.48,0.66,1.96,9.41,20.49,0.04,0.01,3
16962,122723619,-12.72,-9.6,0.65,1.91,9.17,20.47,0.04,0.01,3
17008,122734007,-12.75,-9.699999999999999,0.66,1.83,8.93,20.45,0.04,0.01,3
17053,122744118,-12.78,-9.789999999999999,0.66,1.77,8.69,20.39,0.04,0.01,3
17098,122755629,-12.81,-9.94,0.66,1.71,8.42,20.35,0.04,0.01,3
17142,122769396,-12.83,-10.07,0.67,1.68,8.06,20.26,0.04,0.01,3
17187,122779715,-12.83,-10.19,0.6899999999999999,1.71,7.74,20.19,0.04,0.01,3
17233,122790372,-12.84,-10.27,0.7,1.72,7.41,20.1,0.04,0.01,3
17281,122800819,-12.84,-10.41,0.7,1.75,7.09,20.01,0.03,0.01,3
17320,122812821,-12.84,-10.46,0.7,1.76,6.77,19.89,0.03,0.01,3
17366,122823154,-12.83,-10.54,0.72,1.81,6.44,19.8,0.03,0.01,3
17415,122833643,-12.82,-10.59,0.73,1.8,6.11,19.67,0.03,0.01,3
17459,122844675,-12.79,-10.68,0.75,1.78,5.79,19.55,0.03,0.01,3
17504,122855502,-12.77,-10.73,0.78,1.8,5.46,19.4,0.03,0.01,3
17549,122865918,-12.74,-10.8,0.8,1.82,5.1,19.27,0.03,0.01,3
17594,122876645,-12.71,-10.8,0.83,1.84,4.74,19.11,0.03,0.01,3
17639,122886941,-12.66,-10.83,0.87,1.92,4.35,18.94,0.03,0.01,3
17684,122898079,-12.6,-10.86,0.9,1.97,3.97,18.76,0.03,0.01,3
17732,122909152,-12.52,-10.88,0.9399999999999999,2.03,3.6,18.57,0.03,0.01,3
17777,122919515,-12.45,-10.88,0.98,2.09,3.23,18.34,0.03,0.01,3
17821,122929570,-12.39,-10.85,1.01,2.18,2.85,18.14,0.03,0.01,3
17869,122939859,-12.33,-10.81,1.04,2.27,2.46,17.92,0.03,0.02,3
17913,122950571,-12.28,-10.73,1.06,2.35,2.06,17.66,0.03,0.02,3
17958,122961487,-12.23,-10.65,1.08,2.44,1.66,17.41,0.03,0.02,3
18005,122975234,-12.19,-10.56,1.12,2.54,1.15,17.09,0.03,0.02,3
18050,122985630,-12.18,-10.44,1.15,2.62,0.75,16.82,0.03,0.02,3
18095,122996535,-12.16,-10.31,1.19,2.76,0.34,16.52,0.03,0.02,3
18139,123007204,-12.14,-10.2,1.23,2.89,359.94,16.22,0.03,0.02,3
18186,123024317,-12.11,-10.14,1.31,3.15,359.45,15.74,0.04,0.02,3
18230,123034618,-12.07,-10.03,1.37,3.28,359.06,15.43,0.04,0.02,3
18279,123045646,-12.01,-9.890000000000001,1.43,3.42,358.66,15.1,0.04,0.03,3
18325,123056558,-11.94,-9.800000000000001,1.49,3.57,358.27,14.76,0.04,0.03,3
18369,123066622,-11.86,-9.77,1.55,3.73,357.88,14.42,0.04,0.03,3
18414,123077306,-11.77,-9.76,1.6,3.84,357.5,14.07,0.04,0.03,3
18461,123240605,-10.67,-7.98,2.81,5.71,355.41,11.43,0.05,0.04,3
18505,123250883,-10.62,-7.81,2.89,5.79,355.05,10.98,0.05,0.04,3
18554,123261233,-10.57,-7.63,2.97,5.9,354.71,10.57,0.05,0.05,3
18598,123271768,-10.51,-7.46,3.04,5.97,354.38,10.16,0.05,0.05,3
18643,123282873,-10.46,-7.34,3.1,6.08,354.07,9.699999999999999,0.05,0.05,3
18688,123297285,-10.39,-7.08,3.16,6.09,353.75,9.07,0.05,0.05,3
18732,123311443,-10.32,-6.98,3.2,6.25,353.43,8.460000000000001,0.05,0.05,3
18777,123321899,-10.23,-6.92,3.22,6.31,353.12,7.99,0.05,0.05,3
18821,123332443,-10.13,-6.88,3.24,6.36,352.83,7.54,0.05,0.05,3
18866,123343278,-10.04,-6.86,3.26,6.35,352.57,7.12,0.05,0.05,3
18911,123353522,-9.94,-6.81,3.28,6.36,352.33,6.64,0.05,0.05,3
18960,123363842,-9.85,-6.67,3.3,6.33,352.12,6.21,0.05,0.04,3
19005,123374484,-9.76,-6.61,3.34,6.35,351.94,5.73,0.05,0.04,3
19050,123385052,-9.68,-6.62,3.39,6.32,351.78,5.26,0.05,0.04,3
19094,123396337,-9.6,-6.65,3.45,6.25,351.65,4.83,0.05,0.04,3
19138,123411603,-9.52,-6.62,3.5,6.27,351.57,4.14,0.05,0.04,3
19185,123422309,-9.41,-6.61,3.57,6.25,351.48,3.63,0.04,0.04,3
19226,123433285,-9.31,-6.6,3.63,6.23,351.43,3.14,0.04,0.04,3
19268,123444493,-9.199999999999999,-6.55,3.68,6.2,351.41,2.64,0.04,0.04,3
19314,123455379,-9.1,-6.48,3.73,6.17,351.4,2.2,0.04,0.04,3
19359,123465858,-9.01,-6.4,3.77,6.15,351.4,1.7,0.04,0.04,3
19408,123476873,-8.93,-6.29,3.8,6.15,351.39,1.24,0.04,0.04,3
19452,123487397,-8.869999999999999,-6.17,3.84,6.13,351.38,0.78,0.04,0.04,3
19497,123497888,-8.800000000000001,-6.14,3.89,6.06,351.38,0.37,0.04,0.04,3
19541,123508053,-8.74,-6.02,3.93,6,351.37,359.93,0.04,0.04,3
19583,123519620,-8.710000000000001,-5.89,3.93,6.01,351.37,359.5,0.04,0.04,3
19625,123530947,-8.67,-5.79,3.93,5.95,351.37,359.05,0.04,0.04,3
19670,123541992,-8.619999999999999,-5.71,3.9,5.92,351.37,358.68,0.04,0.04,3
19715,123552391,-8.56,-5.68,3.87,5.94,351.38,358.29,0.04,0.04,3
19761,123562802,-8.49,-5.63,3.82,5.89,351.39,357.93,0.04,0.04,3
19805,123573477,-8.42,-5.56,3.77,5.91,351.39,357.55,0.04,0.04,3
19855,123584027,-8.359999999999999,-5.53,3.71,5.86,351.4,357.23,0.04,0.04,3
19899,123594875,-8.289999999999999,-5.54,3.64,5.74,351.41,356.9,0.04,0.04,3
19944,123605357,-8.23,-5.51,3.54,5.74,351.43,356.56,0.04,0.04,3
19990,123615850,-8.17,-5.49,3.44,5.73,351.44,356.28,0.04,0.04,3
20029,123627683,-8.130000000000001,-5.58,3.32,5.75,351.48,356,0.06,0.04,3
20071,123639446,-8.09,-5.57,3.18,5.72,351.53,355.75,0.06,0.04,3
20116,123649649,-8.029999999999999,-5.62,2.99,5.69,351.62,355.52,0.06,0.04,3
20161,123663346,-7.96,-5.67,2.79,5.68,351.74,355.28,0.06,0.04,3
20209,123673855,-7.89,-5.7,2.61,5.64,351.88,355.11,0.06,0.04,3
20253,123684545,-7.83,-5.74,2.43,5.55,352.01,354.95,0.06,0.04,3
20301,123695020,-7.74,-5.74,2.27,5.43,352.12,354.8,0.06,0.03,3
20346,123705608,-7.66,-5.67,2.1,5.27,352.25,354.65,0.06,0.03,3
20390,123716467,-7.59,-5.67,1.93,5.13,352.39,354.52,0.06,0.03,3
20435,123730519,-7.52,-5.65,1.77,4.88,352.56,354.38,0.06,0.03,3
20480,123740942,-7.44,-5.65,1.6,4.7,352.74,354.26,0.06,0.03,3
20524,123751623,-7.36,-5.64,1.42,4.53,352.93,354.19,0.06,0.03,3
20566,123763107,-7.3,-5.68,1.29,4.28,353.07,354.11,0.06,0.03,3
20611,123773512,-7.21,-5.65,1.11,4.05,353.25,354.04,0.06,0.03,3
20656,123784478,-7.12,-5.61,0.92,3.81,353.43,353.99,0.06,0.03,3
20704,123794961,-7.03,-5.56,0.74,3.59,353.62,353.93,0.06,0.03,3
20750,123805602,-6.94,-5.56,0.55,3.39,353.78,353.89,0.06,0.03,3
20797,123816838,-6.86,-5.49,0.37,3.09,353.93,353.87,0.06,0.03,3
20838,123831615,-6.79,-5.4,0.19,2.76,354.06,353.83,0.08,0.03,3
20880,123843504,-6.74,-5.22,0.06,2.42,354.16,353.78,0.08,0.03,3
20925,123854105,-6.69,-5.1,-0.08,2.1,354.25,353.74,0.08,0.03,3
20966,123865770,-6.65,-5.03,-0.19,1.85,354.3,353.71,0.08,0.03,3
21013,123876646,-6.6,-4.93,-0.35,1.6,354.35,353.71,0.08,0.03,3
21058,123887439,-6.57,-4.69,-0.5,1.33,354.4,353.68,0.08,0.03,3
21104,123897840,-6.57,-4.54,-0.64,1.08,354.45,353.66,0.08,0.03,3
21153,123908393,-6.57,-4.35,-0.77,0.86,354.49,353.65,0.08,0.03,3
21199,123919068,-6.6,-4.22,-0.88,0.65,354.54,353.63,0.08,0.03,3
21243,123929378,-6.63,-4.16,-0.98,0.42,354.6,353.63,0.08,0.03,3
21289,123940320,-6.67,-4.08,-1.07,0.22,354.65,353.61,0.08,0.03,3
21333,123954217,-6.71,-3.98,-1.14,0.03,354.7,353.62,0.08,0.03,3
21378,123964820,-6.76,-3.92,-1.19,-0.16,354.75,353.61,0.08,0.03,3
21421,123976559,-6.79,-3.87,-1.23,-0.29,354.79,353.6,0.08,0.03,3
21466,123987243,-6.83,-3.89,-1.27,-0.41,354.83,353.6,0.08,0.03,3
21510,123998309,-6.87,-3.92,-1.31,-0.54,354.87,353.59,0.08,0.03,3
21555,124009263,-6.9,-3.95,-1.35,-0.68,354.88,353.59,0.08,0.03,3
21608,124022598,-6.95,-4.06,-1.37,-0.8,354.88,353.61,0.09,0.02,3
21652,124037222,-6.99,-4.1,-1.39,-0.87,354.89,353.59,0.09,0.02,3
21696,124047413,-7.04,-4.15,-1.39,-0.96,354.89,353.56,0.09,0.02,3
21741,124061432,-7.1,-4.19,-1.38,-1.06,354.89,353.52,0.09,0.02,3
21786,124072050,-7.18,-4.22,-1.37,-1.1,354.88,353.48,0.09,0.02,3
21827,124083514,-7.25,-4.3,-1.36,-1.18,354.88,353.47,0.09,0.02,3
21871,124093721,-7.34,-4.32,-1.33,-1.26,354.88,353.44,0.09,0.02,3
21915,124104050,-7.44,-4.38,-1.28,-1.26,354.87,353.42,0.09,0.02,3
21959,124114324,-7.54,-4.45,-1.23,-1.26,354.87,353.4,0.09,0.02,3
22008,124124649,-7.64,-4.55,-1.17,-1.25,354.86,353.39,0.09,0.02,3
22054,124134961,-7.75,-4.68,-1.11,-1.27,354.85,353.41,0.09,0.02,3
22099,124144880,-7.86,-4.75,-1.04,-1.28,354.84,353.41,0.09,0.02,3
22144,124155358,-7.97,-4.81,-0.98,-1.28,354.83,353.42,0.09,0.02,3
22188,124169291,-8.08,-4.97,-0.91,-1.15,354.82,353.43,0.09,0.02,3
22230,124180891,-8.17,-5.13,-0.87,-1.07,354.82,353.46,0.09,0.02,3
22275,124191303,-8.27,-5.23,-0.8100000000000001,-1.01,354.81,353.48,0.09,0.02,3
22319,124201676,-8.380000000000001,-5.35,-0.7,-0.96,354.79,353.51,0.09,0.02,3
22366,124212688,-8.470000000000001,-5.52,-0.59,-0.85,354.77,353.55,0.09,0.02,3
22416,124229854,-8.619999999999999,-5.75,-0.41,-0.77,354.75,353.62,0.1,0.02,3
22464,124240212,-8.699999999999999,-5.93,-0.3,-0.59,354.73,353.64,0.1,0.03,3
22508,124250780,-8.77,-6.1,-0.2,-0.44,354.72,353.66,0.1,0.03,3
22552,124261458,-8.84,-6.24,-0.1,-0.31,354.7,353.69,0.1,0.03,3
22597,124275908,-8.92,-6.41,-0.01,-0.1,354.69,353.75,0.1,0.03,3
22642,124286493,-8.98,-6.55,0.07000000000000001,0.06,354.67,353.78,0.1,0.03,3
22683,124298046,-9.02,-6.65,0.11,0.27,354.67,353.84,0.1,0.03,3
22728,124308490,-9.08,-6.76,0.17,0.39,354.66,353.88,0.1,0.03,3
22772,124319058,-9.119999999999999,-6.83,0.23,0.47,354.65,353.93,0.1,0.03,3
22818,124329916,-9.16,-6.93,0.29,0.58,354.64,353.99,0.1,0.03,3
22866,124340827,-9.19,-7,0.34,0.77,354.63,354.06,0.1,0.03,3
22912,124351667,-9.220000000000001,-7.06,0.39,0.9,354.62,354.13,0.1,0.03,3
22958,124362312,-9.25,-7.16,0.43,0.95,354.61,354.22,0.1,0.03,3
23002,124372576,-9.26,-7.21,0.46,1,354.61,354.3,0.1,0.03,3
23044,124384222,-9.279999999999999,-7.26,0.49,1.09,354.6,354.39,0.1,0.03,3
23089,124396298,-9.289999999999999,-7.4,0.52,1.14,354.6,354.5,0.1,0.03,3
23133,124407279,-9.289999999999999,-7.45,0.55,1.18,354.6,354.57,0.1,0.03,3
23183,124424260,-9.289999999999999,-7.59,0.57,1.29,354.59,354.79,0.13,0.03,3
23229,124434640,-9.279999999999999,-7.66,0.5600000000000001,1.38,354.59,355.02,0.13,0.03,3
23274,124444898,-9.25,-7.64,0.51,1.48,354.6,355.24,0.13,0.03,3
23323,124455613,-9.220000000000001,-7.65,0.43,1.56,354.61,355.46,0.13,0.03,3
23368,124466305,-9.18,-7.7,0.32,1.66,354.63,355.69,0.13,0.03,3
23412,124476720,-9.130000000000001,-7.73,0.19,1.76,354.65,355.93,0.13,0.03,3
23457,124486871,-9.08,-7.72,0.04,1.84,354.68,356.18,0.13,0.03,3
23498,124498602,-9.039999999999999,-7.73,-0.07000000000000001,1.85,354.7,356.42,0.13,0.03,3
23543,124512818,-8.970000000000001,-7.72,-0.24,1.92,354.72,356.73,0.13,0.03,3
23589,124523923,-8.880000000000001,-7.69,-0.42,1.88,354.75,357,0.13,0.03,3
23633,124534553,-8.789999999999999,-7.65,-0.62,1.87,354.78,357.26,0.13,0.03,3
23679,124545396,-8.69,-7.59,-0.8100000000000001,1.84,354.81,357.51,0.13,0.03,3
23727,124555928,-8.58,-7.56,-1,1.81,354.84,357.76,0.13,0.03,3
23773,124566630,-8.470000000000001,-7.55,-1.18,1.7,354.87,358.04,0.13,0.03,3
23817,124577431,-8.359999999999999,-7.49,-1.36,1.56,354.89,358.29,0.13,0.03,3
23861,124587717,-8.26,-7.39,-1.54,1.42,354.92,358.53,0.13,0.03,3
23906,124597876,-8.16,-7.33,-1.7,1.28,354.94,358.77,0.13,0.03,3
23947,124610953,-8.1,-7.23,-1.78,1.07,354.96,359.04,0.15,0.03,3
23986,124623518,-8.02,-7.14,-1.91,0.8,354.97,359.28,0.15,0.03,3
24030,124633868,-7.91,-7.06,-2.09,0.63,355,359.48,0.15,0.03,3
24075,124644498,-7.79,-6.97,-2.27,0.46,355.02,359.68,0.15,0.03,3
24120,124654858,-7.69,-6.89,-2.44,0.31,355.05,359.85,0.15,0.03,3
24168,124665584,-7.59,-6.81,-2.62,0.06,355.07,0.03,0.15,0.03,3
24214,124675796,-7.49,-6.7,-2.78,-0.11,355.09,0.21,0.15,0.02,3
24259,124686295,-7.42,-6.52,-2.93,-0.35,355.11,0.37,0.15,0.02,3
24304,124696615,-7.35,-6.41,-3.08,-0.54,355.13,0.52,0.15,0.02,3
24349,124707385,-7.29,-6.27,-3.2,-0.72,355.15,0.67,0.15,0.02,3
24394,124717863,-7.24,-6.14,-3.32,-0.88,355.16,0.79,0.15,0.02,3
24432,124730830,-7.22,-5.96,-3.38,-1.11,355.17,0.96,0.15,0.02,3
24477,124741266,-7.17,-5.85,-3.48,-1.37,355.18,1.09,0.15,0.02,3
24522,124751590,-7.11,-5.75,-3.58,-1.52,355.2,1.2,0.15,0.02,3
24566,124762224,-7.06,-5.62,-3.67,-1.68,355.21,1.3,0.15,0.02,3
24616,124772946,-7.01,-5.54,-3.76,-1.85,355.22,1.4,0.15,0.02,3
24661,124783403,-6.96,-5.45,-3.84,-2,355.23,1.48,0.15,0.03,3
24706,124793522,-6.91,-5.41,-3.9,-2.17,355.23,1.56,0.15,0.03,3
24750,124803906,-6.86,-5.38,-3.96,-2.33,355.24,1.64,0.15,0.03,3
24795,124814199,-6.81,-5.35,-4.01,-2.49,355.25,1.68,0.15,0.03,3
24838,124826176,-6.78,-5.32,-4.05,-2.62,355.25,1.71,0.15,0.03,3
24877,124838648,-6.74,-5.37,-4.08,-2.74,355.26,1.74,0.14,0.03,3
24921,124850058,-6.69,-5.4,-4.12,-2.86,355.26,1.72,0.14,0.03,3
24966,124860572,-6.64,-5.39,-4.15,-2.98,355.26,1.67,0.14,0.03,3
25012,124871248,-6.59,-5.45,-4.16,-3.14,355.27,1.62,0.14,0.03,3
25059,124881934,-6.54,-5.5,-4.16,-3.19,355.26,1.58,0.14,0.03,3
25107,124892577,-6.49,-5.58,-4.14,-3.31,355.26,1.51,0.14,0.02,3
25153,124903044,-6.44,-5.6,-4.11,-3.3,355.26,1.42,0.14,0.02,3
25198,124913309,-6.4,-5.68,-4.07,-3.3,355.26,1.35,0.14,0.02,3
25240,124924859,-6.38,-5.74,-4.04,-3.33,355.25,1.28,0.14,0.02,3
25281,124936361,-6.35,-5.77,-4.01,-3.33,355.25,1.19,0.14,0.02,3
25326,124946892,-6.31,-5.78,-3.96,-3.28,355.24,1.11,0.14,0.02,3
25373,124957365,-6.28,-5.81,-3.91,-3.26,355.24,1.01,0.14,0.02,3
25417,124967819,-6.26,-5.79,-3.86,-3.16,355.23,0.92,0.14,0.02,3
25463,124978411,-6.24,-5.8,-3.82,-3.18,355.23,0.83,0.14,0.02,3
25510,124989254,-6.22,-5.77,-3.77,-3.09,355.22,0.75,0.14,0.02,3
25556,124999606,-6.21,-5.69,-3.72,-3.02,355.22,0.65,0.14,0.02,3
25601,125009993,-6.2,-5.66,-3.67,-2.97,355.21,0.57,0.14,0.02,3
25647,125021477,-6.2,-5.61,-3.61,-2.85,355.2,0.49,0.14,0.02,3
25690,125032980,-6.19,-5.64,-3.55,-2.66,355.2,0.4,0.14,0.02,3
25731,125044568,-6.18,-5.59,-3.5,-2.53,355.19,0.34,0.14,0.02,3
25770,125056894,-6.17,-5.53,-3.46,-2.49,355.19,0.26,0.14,0.02,3
25815,125066987,-6.14,-5.49,-3.4,-2.39,355.18,0.19,0.14,0.02,3
25860,125077959,-6.1,-5.47,-3.34,-2.29,355.18,0.12,0.14,0.02,3
25905,125088608,-6.05,-5.42,-3.29,-2.13,355.17,0.06,0.14,0.02,3
25953,125099517,-6,-5.42,-3.25,-2.02,355.17,0.02,0.14,0.02,3
25998,125109718,-5.94,-5.42,-3.22,-1.94,355.16,359.97,0.14,0.02,3
26044,125120413,-5.87,-5.39,-3.19,-1.81,355.16,359.92,0.14,0.02,3
26089,125130920,-5.8,-5.39,-3.17,-1.76,355.16,359.88,0.14,0.02,3
26133,125148700,-5.74,-5.28,-3.16,-1.58,355.16,359.82,0.14,0.02,3
26177,125159380,-5.67,-5.21,-3.16,-1.52,355.16,359.77,0.14,0.02,3
26222,125170031,-5.6,-5.08,-3.15,-1.47,355.16,359.74,0.14,0.02,3
26267,125180200,-5.53,-5.07,-3.15,-1.42,355.16,359.69,0.14,0.02,3
26311,125190638,-5.47,-5.02,-3.14,-1.35,355.15,359.69,0.14,0.02,3
26356,125201389,-5.44,-4.96,-3.14,-1.26,355.15,359.65,0.14,0.02,3
26405,125211716,-5.41,-4.89,-3.14,-1.26,355.15,359.64,0.14,0.02,3
26448,125222946,-5.45,-4.85,-3.14,-1.21,355.15,359.61,0.12,0.02,3
26491,125234544,-5.5,-4.74,-3.15,-1.27,355.16,359.6,0.12,0.02,3
26536,125244703,-5.58,-4.66,-3.17,-1.27,355.16,359.6,0.12,0.02,3
26578,125255834,-5.64,-4.6,-3.2,-1.31,355.16,359.6,0.12,0.02,3
26619,125267104,-5.71,-4.61,-3.21,-1.32,355.16,359.59,0.12,0.02,3
26663,125278089,-5.8,-4.6,-3.23,-1.33,355.16,359.6,0.12,0.02,3
26708,125288869,-5.9,-4.63,-3.25,-1.41,355.16,359.6,0.12,0.02,3
26752,125299118,-5.99,-4.65,-3.27,-1.43,355.17,359.59,0.12,0.02,3
26799,125309370,-6.11,-4.77,-3.27,-1.41,355.17,359.61,0.12,0.02,3
26848,125319894,-6.23,-4.89,-3.28,-1.47,355.17,359.61,0.12,0.02,3
26893,125330307,-6.36,-5,-3.28,-1.52,355.17,359.63,0.12,0.02,3
26939,125340805,-6.5,-5.1,-3.26,-1.51,355.17,359.63,0.12,0.02,3
26983,125351004,-6.63,-5.24,-3.25,-1.54,355.16,359.66,0.12,0.02,3
27025,125362913,-6.74,-5.41,-3.23,-1.51,355.16,359.68,0.12,0.02,3
27070,125376849,-6.89,-5.7,-3.21,-1.54,355.16,359.71,0.12,0.02,3
27116,125387360,-7.03,-5.86,-3.18,-1.54,355.16,359.72,0.12,0.02,3
27161,125397899,-7.17,-6.07,-3.15,-1.48,355.15,359.74,0.12,0.02,3
27205,125408599,-7.32,-6.31,-3.13,-1.47,355.15,359.72,0.12,0.02,3
27252,125418911,-7.48,-6.55,-3.11,-1.43,355.15,359.75,0.11,0.02,3
27295,125431041,-7.65,-6.81,-3.09,-1.27,355.14,359.76,0.11,0.03,3
27341,125441308,-7.81,-7.04,-3.06,-1.28,355.14,359.79,0.11,0.03,3
27386,125451644,-7.96,-7.26,-3.04,-1.26,355.14,359.8,0.11,0.03,3
27431,125461987,-8.109999999999999,-7.49,-3,-1.21,355.13,359.81,0.11,0.03,3
27472,125477232,-8.220000000000001,-7.81,-2.97,-1.14,355.13,359.84,0.11,0.03,3
27520,125490136,-8.380000000000001,-8.050000000000001,-2.93,-1.06,355.12,359.88,0.11,0.03,3
27565,125500332,-8.48,-8.300000000000001,-2.89,-0.95,355.12,359.88,0.11,0.03,3
27609,125510407,-8.58,-8.51,-2.84,-0.9,355.11,359.89,0.11,0.03,3
27654,125520957,-8.68,-8.69,-2.79,-0.85,355.1,359.92,0.11,0.03,3
27699,125531480,-8.77,-8.9,-2.74,-0.82,355.09,359.96,0.11,0.03,3
27748,125542313,-8.85,-9.06,-2.7,-0.79,355.09,359.98,0.11,0.04,3
27794,125552512,-8.92,-9.26,-2.65,-0.71,355.08,359.99,0.11,0.04,3
27838,125562610,-8.99,-9.48,-2.59,-0.63,355.07,0,0.11,0.04,3
27883,125572886,-9.050000000000001,-9.66,-2.54,-0.53,355.06,0.01,0.11,0.04,3
27924,125584292,-9.08,-9.83,-2.49,-0.54,355.05,0.02,0.11,0.04,3
27969,125594870,-9.119999999999999,-9.98,-2.42,-0.45,355.04,0.04,0.11,0.04,3
28019,125611689,-9.15,-10.19,-2.35,-0.42,355.03,0.06,0.12,0.04,3
28059,125623599,-9.16,-10.33,-2.29,-0.31,355.02,0.02,0.12,0.04,3
28103,125633585,-9.15,-10.41,-2.24,-0.29,355.01,359.99,0.12,0.04,3
28152,125644055,-9.119999999999999,-10.48,-2.2,-0.32,355.01,359.92,0.12,0.04,3
28196,125654638,-9.07,-10.56,-2.16,-0.27,355,359.87,0.12,0.04,3
28242,125665248,-9.02,-10.63,-2.13,-0.19,355,359.8,0.12,0.04,3
28286,125676078,-8.949999999999999,-10.67,-2.1,-0.18,354.99,359.73,0.12,0.04,3
28331,125686567,-8.880000000000001,-10.63,-2.09,-0.13,354.99,359.67,0.12,0.04,3
28374,125701503,-8.82,-10.54,-2.09,-0.23,355,359.61,0.12,0.04,3
28419,125712024,-8.720000000000001,-10.43,-2.09,-0.28,355,359.56,0.12,0.04,3
28464,125722497,-8.6,-10.32,-2.09,-0.28,355,359.5,0.12,0.04,3
28509,125732677,-8.48,-10.24,-2.1,-0.31,355,359.44,0.12,0.04,3
28553,125742925,-8.359999999999999,-10.15,-2.1,-0.35,355,359.38,0.12,0.04,3
28603,125753537,-8.25,-10.04,-2.1,-0.38,355,359.35,0.12,0.03,3
28647,125764523,-8.140000000000001,-9.880000000000001,-2.09,-0.44,355,359.31,0.12,0.03,3
28692,125774589,-8.02,-9.73,-2.08,-0.49,355,359.28,0.12,0.03,3
28736,125792503,-7.9,-9.449999999999999,-2.07,-0.59,355,359.23,0.12,0.03,3
28781,125803387,-7.75,-9.26,-2.06,-0.66,354.99,359.2,0.12,0.03,3
28827,125814205,-7.59,-9.050000000000001,-2.04,-0.67,354.99,359.17,0.12,0.03,3
28875,125825307,-7.4,-8.9,-2.03,-0.73,354.99,359.16,0.12,0.03,3
28916,125840040,-7.15,-8.550000000000001,-2.01,-0.91,354.99,359.16,0.13,0.03,3
28961,125850250,-6.93,-8.34,-1.98,-0.9399999999999999,354.98,359.23,0.13,0.03,3
29011,125861221,-6.72,-8.130000000000001,-1.95,-1.01,354.98,359.31,0.13,0.03,3
29055,125871608,-6.49,-7.89,-1.94,-1.02,354.98,359.39,0.13,0.03,3
29102,125881882,-6.28,-7.64,-1.92,-0.97,354.98,359.48,0.13,0.03,3
29146,125892806,-6.01,-7.36,-1.92,-1,354.98,359.55,0.13,0.03,3
29192,125903205,-5.72,-7.05,-1.91,-1.01,354.98,359.65,0.13,0.03,3
29231,125915414,-5.58,-6.69,-1.9,-1.12,354.97,359.75,0.13,0.03,3
29275,125925609,-5.27,-6.38,-1.88,-1.14,354.97,359.84,0.13,0.03,3
29319,125935629,-4.97,-6.12,-1.84,-1.16,354.97,359.93,0.13,0.03,3
29364,125946062,-4.68,-5.78,-1.79,-1.22,354.96,0.03,0.13,0.03,3
29408,125957029,-4.42,-5.46,-1.73,-1.25,354.96,0.11,0.13,0.03,3
29457,125967624,-4.19,-5.05,-1.64,-1.28,354.95,0.19,0.13,0.02,3
29502,125978618,-3.97,-4.71,-1.55,-1.34,354.95,0.27,0.13,0.02,3
29546,125989644,-3.77,-4.37,-1.45,-1.29,354.94,0.35,0.13,0.02,3
29592,126000699,-3.59,-4.06,-1.34,-1.3,354.93,0.42,0.13,0.02,3
29637,126018580,-3.41,-3.45,-1.23,-1.31,354.93,0.51,0.13,0.02,3
29677,126030616,-3.24,-3.12,-1.1,-1.23,354.92,0.55,0.12,0.02,3
29725,126040935,-3.07,-2.83,-0.97,-1.22,354.91,0.6,0.12,0.02,3
29769,126051332,-2.9,-2.58,-0.85,-1.16,354.91,0.63,0.12,0.02,3
29814,126061568,-2.74,-2.34,-0.74,-1.07,354.9,0.66,0.12,0.02,3
29858,126071926,-2.59,-2.1,-0.63,-0.98,354.89,0.6899999999999999,0.12,0.02,3
29907,126082511,-2.46,-1.82,-0.52,-0.93,354.89,0.72,0.12,0.03,3
29952,126092699,-2.34,-1.52,-0.42,-0.85,354.89,0.72,0.12,0.03,3
29996,126103085,-2.23,-1.35,-0.33,-0.75,354.88,0.73,0.12,0.03,3
30041,126114621,-2.13,-1.19,-0.23,-0.6899999999999999,354.88,0.73,0.12,0.03,3
30082,126130304,-2.06,-0.78,-0.16,-0.59,354.88,0.72,0.12,0.03,3
30127,126140513,-1.96,-0.64,-0.06,-0.52,354.87,0.71,0.12,0.03,3
30173,126150823,-1.86,-0.61,0.03,-0.45,354.87,0.6899999999999999,0.12,0.03,3
30218,126161038,-1.77,-0.57,0.12,-0.34,354.87,0.67,0.12,0.03,3
30264,126171419,-1.68,-0.47,0.2,-0.22,354.86,0.64,0.12,0.03,3
30312,126182527,-1.6,-0.35,0.27,-0.16,354.86,0.61,0.12,0.03,3
30357,126193493,-1.53,-0.31,0.34,-0.01,354.86,0.5600000000000001,0.12,0.02,3
30402,126204070,-1.46,-0.3,0.4,0.14,354.86,0.52,0.12,0.02,3
30448,126215704,-1.39,-0.34,0.46,0.23,354.87,0.45,0.12,0.02,3
30493,126232860,-1.31,-0.39,0.51,0.47,354.89,0.36,0.11,0.02,3
30536,126243946,-1.24,-0.42,0.54,0.57,354.92,0.31,0.11,0.02,3
30578,126255574,-1.19,-0.44,0.55,0.68,354.96,0.21,0.11,0.02,3
30623,126266550,-1.12,-0.47,0.57,0.85,355.04,0.15,0.11,0.02,3
30668,126277023,-1.05,-0.54,0.5600000000000001,1.03,355.14,0.07000000000000001,0.11,0.02,3
30714,126287627,-0.99,-0.61,0.54,1.16,355.26,0,0.11,0.02,3
30762,126298510,-0.93,-0.67,0.51,1.28,355.38,359.92,0.11,0.03,3
30807,126309386,-0.87,-0.76,0.48,1.42,355.5,359.87,0.11,0.03,3
30851,126319630,-0.8100000000000001,-0.83,0.44,1.55,355.63,359.8,0.11,0.03,3
30896,126330724,-0.75,-0.88,0.4,1.63,355.75,359.75,0.11,0.03,3
30935,126343389,-0.72,-0.93,0.38,1.61,355.82,359.69,0.11,0.03,3
30979,126353925,-0.66,-1.03,0.34,1.68,355.95,359.63,0.11,0.03,3
31024,126364276,-0.59,-1.07,0.3,1.67,356.08,359.61,0.11,0.03,3
31072,126374897,-0.54,-1.08,0.25,1.7,356.22,359.59,0.11,0.03,3
31116,126385860,-0.49,-1.07,0.21,1.76,356.34,359.58,0.11,0.03,3
31161,126396667,-0.45,-1.12,0.17,1.73,356.45,359.58,0.11,0.03,3
31210,126407211,-0.41,-1.08,0.11,1.68,356.56,359.57,0.11,0.02,3
31256,126417802,-0.38,-1.05,0.05,1.66,356.67,359.59,0.09,0.02,3
31297,126430390,-0.36,-1.01,-0.01,1.54,356.78,359.59,0.09,0.02,3
31344,126441083,-0.33,-0.95,-0.09,1.52,356.85,359.61,0.09,0.02,3
31382,126453852,-0.32,-0.87,-0.14,1.36,356.88,359.64,0.09,0.02,3
31427,126464554,-0.29,-0.8,-0.24,1.28,356.91,359.65,0.09,0.02,3
31472,126474973,-0.25,-0.75,-0.36,1.18,356.91,359.68,0.09,0.02,3
31517,126485804,-0.21,-0.72,-0.47,1.09,356.91,359.72,0.09,0.02,3
31564,126496318,-0.17,-0.63,-0.57,1.01,356.92,359.77,0.09,0.02,3
31609,126506815,-0.14,-0.5600000000000001,-0.67,0.86,356.92,359.8,0.09,0.02,3
31657,126517687,-0.11,-0.49,-0.77,0.63,356.92,359.83,0.09,0.02,3
31702,126528209,-0.08,-0.42,-0.86,0.5,356.92,359.87,0.09,0.02,3
31746,126539056,-0.05,-0.34,-0.9399999999999999,0.37,356.92,359.91,0.09,0.02,3
31792,126549745,-0.03,-0.33,-1.01,0.22,356.92,359.96,0.09,0.02,3
31833,126561152,-0.01,-0.29,-1.06,0.06,356.92,0,0.09,0.02,3
31875,126572869,0,-0.31,-1.1,-0.09,356.92,0.05,0.09,0.02,3
31922,126583025,0.03,-0.25,-1.16,-0.16,356.92,0.09,0.09,0.02,3
31966,126593089,0.06,-0.24,-1.21,-0.27,356.92,0.14,0.09,0.02,3
32011,126603366,0.08,-0.22,-1.24,-0.39,356.92,0.18,0.09,0.02,3
32058,126613702,0.1,-0.17,-1.27,-0.5,356.92,0.23,0.1,0.02,3
32100,126625812,0.1,-0.11,-1.3,-0.59,356.92,0.3,0.1,0.02,3
32145,126636295,0.1,-0.07000000000000001,-1.32,-0.74,356.92,0.34,0.1,0.02,3
32190,126646529,0.1,-0.02,-1.33,-0.83,356.92,0.37,0.1,0.02,3
32234,126656936,0.09,0,-1.35,-0.93,356.92,0.4,0.1,0.02,3
32276,126668515,0.08,0.05,-1.35,-0.99,356.92,0.44,0.1,0.02,3
32321,126678719,0.07000000000000001,0.04,-1.36,-1.02,356.93,0.51,0.1,0.02,3
32363,126690605,0.06,0.08,-1.37,-1.05,356.94,0.55,0.1,0.02,3
32409,126700982,0.05,0.12,-1.38,-1.16,356.98,0.59,0.1,0.02,3
32454,126711112,0.05,0.15,-1.38,-1.23,357.05,0.62,0.1,0.02,3
32499,126721226,0.04,0.18,-1.36,-1.28,357.15,0.67,0.1,0.02,3
32548,126731574,0.03,0.21,-1.32,-1.31,357.27,0.6899999999999999,0.1,0.02,3
32593,126742274,0.02,0.22,-1.29,-1.37,357.42,0.74,0.1,0.02,3
32637,126752808,0.01,0.23,-1.25,-1.36,357.6,0.76,0.1,0.02,3
32682,126763621,0,0.22,-1.23,-1.35,357.81,0.8100000000000001,0.1,0.02,3
32726,126781045,-0.01,0.22,-1.21,-1.29,358.03,0.9,0.1,0.02,3
32773,126791915,-0.02,0.2,-1.2,-1.22,358.24,0.96,0.1,0.02,3
32820,126802857,-0.02,0.16,-1.2,-1.18,358.45,1.04,0.1,0.02,3
32859,126815099,-0.03,0.16,-1.21,-1.15,358.64,1.12,0.08,0.02,3
32904,126826233,-0.04,0.13,-1.22,-1.1,358.8,1.19,0.08,0.02,3
32948,126836991,-0.04,0.14,-1.23,-1.05,358.94,1.27,0.08,0.02,3
32997,126847665,-0.06,0.06,-1.22,-1,359.08,1.35,0.08,0.02,3
33041,126858535,-0.07000000000000001,0.03,-1.21,-0.96,359.22,1.45,0.08,0.02,3
33088,126869303,-0.1,-0.01,-1.19,-0.95,359.36,1.54,0.08,0.02,3
33133,126879628,-0.12,-0.03,-1.17,-0.95,359.49,1.64,0.08,0.02,3
33174,126891129,-0.14,-0.08,-1.16,-0.86,359.6,1.75,0.08,0.02,3
33219,126905723,-0.16,-0.16,-1.14,-0.84,359.74,1.92,0.08,0.02,3
33263,126916547,-0.18,-0.21,-1.12,-0.84,359.88,2.02,0.08,0.02,3
33310,126926608,-0.2,-0.24,-1.11,-0.79,0.02,2.13,0.08,0.02,3
33355,126936802,-0.22,-0.3,-1.11,-0.73,0.16,2.24,0.08,0.02,3
33403,126947330,-0.23,-0.39,-1.12,-0.65,0.3,2.38,0.08,0.02,3
33448,126958317,-0.25,-0.42,-1.12,-0.62,0.44,2.5,0.08,0.02,3
33492,126969046,-0.27,-0.44,-1.13,-0.65,0.57,2.63,0.08,0.02,3
33538,126979835,-0.28,-0.45,-1.13,-0.64,0.7,2.76,0.08,0.02,3
33583,126994597,-0.3,-0.54,-1.13,-0.5600000000000001,0.8100000000000001,2.95,0.08,0.02,3
33628,127004879,-0.32,-0.59,-1.14,-0.57,0.91,3.08,0.08,0.02,3
33671,127016356,-0.32,-0.63,-1.14,-0.58,0.98,3.22,0.08,0.02,3
33724,127033310,-0.33,-0.66,-1.16,-0.6,1.08,3.43,0.08,0.02,3
33768,127043629,-0.34,-0.68,-1.17,-0.58,1.14,3.54,0.08,0.02,3
33813,127054338,-0.33,-0.71,-1.19,-0.58,1.2,3.67,0.08,0.02,3
33861,127064633,-0.32,-0.75,-1.2,-0.59,1.25,3.78,0.08,0.02,3
33906,127074533,-0.32,-0.77,-1.21,-0.61,1.3,3.88,0.08,0.02,3
33950,127085339,-0.31,-0.79,-1.22,-0.62,1.36,3.98,0.08,0.02,3
33995,127098995,-0.3,-0.84,-1.22,-0.59,1.4,4.15,0.08,0.02,3
34037,127110577,-0.29,-0.87,-1.22,-0.61,1.42,4.27,0.08,0.02,3
34085,127121912,-0.28,-0.86,-1.24,-0.65,1.47,4.38,0.08,0.02,3
34130,127132507,-0.26,-0.86,-1.26,-0.72,1.54,4.49,0.08,0.02,3
34175,127143349,-0.24,-0.8100000000000001,-1.27,-0.74,1.62,4.57,0.08,0.02,3
34219,127153440,-0.22,-0.82,-1.29,-0.76,1.7,4.68,0.08,0.02,3
34268,127164069,-0.2,-0.85,-1.29,-0.79,1.76,4.78,0.08,0.02,3
34313,127174633,-0.18,-0.84,-1.3,-0.82,1.83,4.89,0.08,0.02,3
34358,127185279,-0.15,-0.87,-1.31,-0.84,1.87,4.98,0.08,0.02,3
34403,127195381,-0.13,-0.88,-1.32,-0.86,1.89,5.08,0.08,0.02,3
34447,127209966,-0.11,-0.83,-1.33,-0.91,1.89,5.2,0.08,0.02,3
34491,127224802,-0.1,-0.8100000000000001,-1.34,-0.9399999999999999,1.89,5.35,0.07000000000000001,0.02,3
34536,127234868,-0.07000000000000001,-0.8100000000000001,-1.37,-0.9399999999999999,1.89,5.46,0.07000000000000001,0.02,3
34578,127245931,-0.05,-0.84,-1.4,-0.96,1.89,5.58,0.07000000000000001,0.02,3
34622,127256369,-0.03,-0.84,-1.44,-0.93,1.89,5.67,0.07000000000000001,0.02,3
34667,127266832,-0.01,-0.79,-1.48,-0.92,1.89,5.79,0.07000000000000001,0.02,3
34715,127277490,0,-0.8,-1.52,-0.99,1.89,5.9,0.07000000000000001,0.01,3
34761,127288309,0,-0.78,-1.56,-1.04,1.89,5.98,0.07000000000000001,0.01,3
34806,127299365,0.01,-0.75,-1.6,-1.07,1.89,6.07,0.07000000000000001,0.01,3
34850,127309829,0.01,-0.7,-1.64,-1.09,1.89,6.16,0.07000000000000001,0.01,3
34889,127322373,0.01,-0.7,-1.66,-1.05,1.89,6.27,0.07000000000000001,0.01,3
34934,127332861,0.01,-0.71,-1.69,-1.11,1.89,6.35,0.07000000000000001,0.01,3
34979,127343310,0.01,-0.68,-1.73,-1.25,1.89,6.43,0.07000000000000001,0.01,3
35024,127353704,0,-0.64,-1.76,-1.31,1.89,6.49,0.07000000000000001,0.01,3
35071,127364595,0,-0.64,-1.78,-1.42,1.89,6.57,0.07000000000000001,0.01,3
35116,127375285,0,-0.66,-1.79,-1.48,1.89,6.64,0.07000000000000001,0.01,3
35165,127385931,0,-0.71,-1.8,-1.55,1.89,6.69,0.07000000000000001,0.01,3
35209,127396362,0,-0.74,-1.81,-1.6,1.89,6.74,0.07000000000000001,0.01,3
35253,127406502,0,-0.8100000000000001,-1.82,-1.66,1.89,6.8,0.07000000000000001,0.01,3
35296,127421092,0.01,-0.83,-1.83,-1.81,1.89,6.83,0.06,0.01,3
35338,127432509,0.01,-0.93,-1.85,-1.87,1.89,6.86,0.06,0.01,3
35382,127446203,0.02,-1.02,-1.86,-1.96,1.89,6.88,0.06,0.01,3
35427,127457338,0.03,-1.09,-1.88,-2.05,1.89,6.87,0.06,0.01,3
35473,127467863,0.05,-1.12,-1.9,-2.14,1.89,6.88,0.06,0.01,3
35518,127478365,0.06,-1.16,-1.91,-2.21,1.89,6.87,0.06,0.01,3
35567,127488906,0.07000000000000001,-1.19,-1.92,-2.25,1.89,6.84,0.06,0.01,3
35611,127499843,0.09,-1.25,-1.93,-2.25,1.89,6.83,0.06,0.01,3
35656,127510338,0.1,-1.36,-1.94,-2.2,1.89,6.81,0.06,0.01,3
35701,127520617,0.12,-1.42,-1.95,-2.21,1.89,6.78,0.06,0.01,3
35746,127537864,0.13,-1.46,-1.97,-2.21,1.89,6.73,0.06,0.01,3
35791,127548135,0.15,-1.51,-1.98,-2.19,1.89,6.7,0.06,0.01,3
35837,127558402,0.17,-1.55,-2,-2.14,1.89,6.67,0.06,0.01,3
35881,127569313,0.19,-1.56,-2.02,-2.1,1.89,6.64,0.06,0.01,3
35928,127580303,0.2,-1.58,-2.03,-2.1,1.89,6.61,0.06,0.01,3
35973,127590480,0.21,-1.54,-2.03,-2.08,1.89,6.58,0.06,0.01,3
36021,127600818,0.22,-1.53,-2.03,-2.06,1.89,6.52,0.06,0.01,3
36065,127615152,0.23,-1.45,-2.02,-2.12,1.89,6.45,0.06,0.01,3
36109,127625159,0.25,-1.44,-2.01,-2.09,1.89,6.38,0.06,0.01,3
36154,127635922,0.26,-1.45,-2,-2.08,1.89,6.34,0.06,0.01,3
36195,127647577,0.28,-1.43,-1.98,-2.06,1.89,6.26,0.06,0.01,3
36236,127659432,0.29,-1.41,-1.97,-2.09,1.89,6.2,0.06,0.01,3
36282,127669567,0.32,-1.35,-1.96,-2.12,1.89,6.13,0.06,0.01,3
36326,127679653,0.36,-1.29,-1.94,-2.13,1.89,6.06,0.06,0.01,3
36372,127689977,0.39,-1.22,-1.92,-2.13,1.89,5.96,0.06,0.01,3
36416,127700523,0.43,-1.2,-1.9,-2.07,1.89,5.9,0.06,0.01,3
36464,127710595,0.46,-1.14,-1.88,-2.07,1.89,5.82,0.06,0.01,3
36510,127720724,0.48,-1.07,-1.86,-2.05,1.89,5.74,0.06,0.01,3
36554,127730963,0.5,-0.97,-1.85,-2,1.89,5.65,0.06,0.01,3
36598,127742052,0.52,-0.89,-1.84,-2,1.89,5.57,0.06,0.01,3
36640,127753546,0.53,-0.74,-1.83,-2.05,1.89,5.46,0.06,0.01,3
36682,127765295,0.54,-0.63,-1.82,-2.01,1.9,5.34,0.06,0.01,3
36727,127775584,0.5600000000000001,-0.5600000000000001,-1.81,-2.01,1.93,5.25,0.06,0.01,3
36771,127786204,0.58,-0.49,-1.8,-1.96,1.99,5.16,0.06,0.01,3
36816,127797006,0.6,-0.43,-1.79,-1.92,2.08,5.06,0.06,0.01,3
36862,127807477,0.61,-0.41,-1.79,-1.89,2.19,4.95,0.06,0.01,3
36910,127817882,0.63,-0.35,-1.79,-1.87,2.33,4.84,0.06,0.01,3
36957,127828309,0.65,-0.26,-1.79,-1.82,2.5,4.73,0.05,0.01,3
36998,127840387,0.66,-0.22,-1.8,-1.79,2.7,4.62,0.05,0.01,3
37043,127850612,0.67,-0.17,-1.8,-1.74,2.93,4.53,0.05,0.01,3
37086,127862951,0.67,-0.18,-1.8,-1.69,3.12,4.44,0.05,0.01,3
37132,127876628,0.67,-0.12,-1.8,-1.65,3.39,4.3,0.05,0.01,3
37176,127887048,0.67,-0.1,-1.81,-1.59,3.7,4.23,0.05,0.01,3
37222,127897785,0.67,-0.14,-1.83,-1.56,4.02,4.18,0.05,0.01,3
37267,127908597,0.66,-0.11,-1.84,-1.55,4.34,4.1,0.05,0.01,3
37315,127919607,0.66,-0.08,-1.86,-1.51,4.65,4.03,0.05,0.01,3
37360,127930353,0.65,-0.11,-1.87,-1.44,4.93,4.01,0.05,0.01,3
37406,127940725,0.63,-0.15,-1.89,-1.36,5.18,3.99,0.05,0.01,3
37450,127950892,0.63,-0.19,-1.9,-1.32,5.41,3.99,0.05,0.01,3
37495,127961842,0.62,-0.2,-1.9,-1.33,5.61,3.99,0.05,0.01,3
37536,127972952,0.61,-0.21,-1.91,-1.28,5.75,4,0.05,0.01,3
37578,127984306,0.6,-0.23,-1.92,-1.27,5.87,4.03,0.05,0.01,3
37623,127994936,0.59,-0.25,-1.93,-1.23,6,4.07,0.05,0.01,3
37667,128005325,0.58,-0.28,-1.94,-1.17,6.1,4.12,0.05,0.01,3
37713,128016196,0.57,-0.32,-1.96,-1.12,6.18,4.18,0.05,0.01,3
37761,128031305,0.5600000000000001,-0.37,-1.98,-1.07,6.24,4.27,0.05,0.01,3
37805,128041889,0.55,-0.37,-2,-1.03,6.25,4.29,0.05,0.01,3
37850,128052673,0.53,-0.33,-2.01,-1.01,6.25,4.33,0.05,0.01,3
37894,128063560,0.52,-0.32,-2.01,-1,6.25,4.35,0.05,0.01,3
37939,128073824,0.5,-0.32,-2,-0.99,6.25,4.38,0.05,0.01,3
37979,128086477,0.49,-0.3,-2,-0.97,6.25,4.46,0.05,0.01,3
38023,128096531,0.47,-0.29,-1.98,-1,6.25,4.49,0.05,0.01,3
38068,128106888,0.45,-0.28,-1.96,-1,6.25,4.52,0.05,0.01,3
38113,128117852,0.43,-0.28,-1.93,-1.01,6.25,4.56,0.05,0.01,3
38158,128127844,0.41,-0.28,-1.91,-1.02,6.25,4.61,0.05,0.01,3
38207,128138860,0.4,-0.26,-1.89,-0.98,6.25,4.65,0.05,0.01,3
38252,128149514,0.38,-0.23,-1.87,-0.9399999999999999,6.25,4.7,0.05,0.01,3
38296,128159582,0.37,-0.24,-1.85,-0.9399999999999999,6.25,4.76,0.05,0.01,3
38341,128169998,0.35,-0.28,-1.84,-0.96,6.25,4.82,0.05,0.01,3
38385,128180363,0.33,-0.26,-1.82,-0.95,6.25,4.87,0.05,0.01,3
38424,128192862,0.32,-0.31,-1.81,-0.9,6.25,4.94,0.05,0.01,3
38470,128203293,0.3,-0.31,-1.8,-0.89,6.25,5.02,0.05,0.01,3
38515,128213640,0.28,-0.29,-1.79,-0.91,6.25,5.08,0.05,0.01,3
38556,128225964,0.24,-0.27,-1.77,-0.92,6.25,5.17,0.05,0.01,3
38600,128236349,0.21,-0.27,-1.75,-0.92,6.25,5.23,0.05,0.01,3
38649,128246787,0.17,-0.25,-1.72,-0.92,6.26,5.3,0.05,0.01,3
38694,128257471,0.13,-0.22,-1.7,-0.98,6.27,5.38,0.05,0.01,3
38739,128267541,0.09,-0.23,-1.67,-1.02,6.28,5.46,0.05,0.01,3
38783,128278077,0.05,-0.22,-1.63,-1.07,6.31,5.53,0.05,0.01,3
38828,128288934,0.01,-0.17,-1.6,-1.12,6.34,5.61,0.05,0.01,3
38869,128300397,-0.01,-0.2,-1.58,-1.14,6.38,5.74,0.05,0.01,3
38914,128310807,-0.03,-0.21,-1.58,-1.2,6.45,5.82,0.05,0.01,3
38959,128321019,-0.03,-0.22,-1.59,-1.23,6.54,5.9,0.05,0.01,3
39000,128333524,-0.02,-0.23,-1.62,-1.17,6.64,6.03,0.05,0.01,3
39045,128343888,-0.01,-0.22,-1.67,-1.15,6.78,6.12,0.05,0.01,3
39096,128354831,0.01,-0.25,-1.74,-1.21,6.93,6.24,0.05,0.01,3
39141,128365584,0.05,-0.25,-1.82,-1.23,7.1,6.34,0.05,0.01,3
39187,128375836,0.09,-0.22,-1.91,-1.25,7.29,6.45,0.05,0.01,3
39231,128386262,0.15,-0.24,-2.01,-1.27,7.51,6.58,0.05,0.01,3
39276,128400031,0.21,-0.22,-2.12,-1.31,7.73,6.74,0.05,0.01,3
39322,128410616,0.28,-0.2,-2.24,-1.41,7.95,6.88,0.05,0.01,3
39364,128425612,0.36,-0.18,-2.37,-1.45,8.16,7.09,0.05,0.01,3
39406,128437106,0.44,-0.12,-2.51,-1.56,8.369999999999999,7.28,0.05,0.01,3
39451,128447376,0.53,-0.1,-2.66,-1.65,8.550000000000001,7.45,0.05,0.01,3
39496,128457789,0.61,-0.05,-2.81,-1.74,8.720000000000001,7.62,0.05,0.01,3
39545,128468372,0.6899999999999999,0.02,-2.96,-1.87,8.85,7.83,0.05,0,3
39590,128479340,0.77,0.08,-3.1,-2.04,8.970000000000001,8.029999999999999,0.05,0,3
39635,128489560,0.84,0.13,-3.23,-2.17,9.07,8.220000000000001,0.05,0,3
39679,128499549,0.91,0.19,-3.35,-2.25,9.16,8.449999999999999,0.05,0,3
39717,128511954,0.9399999999999999,0.28,-3.41,-2.44,9.19,8.710000000000001,0.05,0,3
39762,128522566,1,0.4,-3.52,-2.61,9.24,8.92,0.05,0,3
39806,128533322,1.05,0.52,-3.62,-2.78,9.25,9.15,0.05,0,3
39851,128543904,1.1,0.57,-3.72,-2.93,9.25,9.359999999999999,0.05,0,3
39897,128554868,1.14,0.63,-3.81,-3.14,9.25,9.630000000000001,0.05,0,3
39941,128564970,1.18,0.6899999999999999,-3.89,-3.27,9.25,9.84,0.05,0,3
39991,128575294,1.21,0.75,-3.97,-3.39,9.25,10.06,0.05,0.01,3
40036,128585410,1.24,0.79,-4.05,-3.48,9.25,10.3,0.05,0.01,3
40081,128596317,1.27,0.84,-4.12,-3.53,9.24,10.53,0.05,0.01,3
40125,128607220,1.29,0.86,-4.2,-3.65,9.24,10.78,0.05,0.01,3
40166,128622310,1.31,0.87,-4.25,-3.7,9.24,11.11,0.05,0.01,3
40210,128633656,1.33,0.9,-4.31,-3.81,9.24,11.36,0.05,0.01,3
40252,128645072,1.33,0.99,-4.37,-3.86,9.24,11.59,0.05,0.01,3
40297,128655796,1.31,0.99,-4.42,-3.94,9.24,11.81,0.05,0.01,3
40343,128666304,1.29,1.01,-4.45,-4.01,9.24,12.05,0.05,0.01,3
40388,128676712,1.26,1.07,-4.48,-4.05,9.24,12.26,0.05,0.01,3
40437,128687310,1.21,1.08,-4.5,-4.11,9.24,12.5,0.05,0,3
40482,128697630,1.16,1.12,-4.52,-4.19,9.24,12.68,0.05,0,3
40526,128708286,1.11,1.19,-4.53,-4.28,9.24,12.87,0.05,0,3
40571,128718560,1.05,1.24,-4.53,-4.4,9.24,13.06,0.05,0,3
40613,128730360,1,1.24,-4.53,-4.44,9.24,13.26,0.05,0,3
40655,128741674,0.95,1.29,-4.53,-4.49,9.24,13.45,0.05,0,3
40699,128751874,0.88,1.29,-4.52,-4.57,9.24,13.59,0.05,0,3
40744,128762299,0.8,1.31,-4.52,-4.65,9.24,13.77,0.05,0,3
40789,128773334,0.7,1.28,-4.49,-4.68,9.24,13.9,0.05,0,3
40834,128783627,0.59,1.25,-4.45,-4.68,9.24,14.06,0.05,0,3
40883,128794637,0.42,1.2,-4.4,-4.7,9.24,14.19,0.05,0,3
40929,128805242,0.25,1.14,-4.33,-4.69,9.24,14.35,0.05,0,3
40973,128815615,0.03,1.08,-4.26,-4.68,9.24,14.46,0.05,0,3
41018,128827301,-0.13,0.97,-4.19,-4.71,9.24,14.59,0.05,0,3
41057,128840269,-0.26,0.8100000000000001,-4.14,-4.65,9.24,14.72,0.05,0,3
41100,128851456,-0.54,0.63,-4.04,-4.53,9.24,14.82,0.05,0,3
41145,128862042,-0.85,0.46,-3.92,-4.49,9.24,14.92,0.05,0,3
41189,128872347,-1.18,0.25,-3.79,-4.42,9.23,15,0.05,0,3
41234,128883234,-1.51,0.04,-3.67,-4.32,9.23,15.07,0.05,0,3
41279,128893790,-1.83,-0.22,-3.55,-4.25,9.23,15.14,0.05,0,3
41328,128904908,-2.17,-0.54,-3.44,-4.16,9.220000000000001,15.19,0.05,0,3
41373,128915730,-2.5,-0.9,-3.32,-3.99,9.220000000000001,15.24,0.05,0,3
41418,128926249,-2.84,-1.28,-3.21,-3.81,9.210000000000001,15.29,0.05,0,3
41463,128936771,-3.18,-1.65,-3.1,-3.67,9.210000000000001,15.34,0.05,0,3
41504,128948654,-3.43,-2.07,-3.02,-3.41,9.199999999999999,15.37,0.05,0,3
41548,128962508,-3.77,-2.51,-2.93,-3.3,9.199999999999999,15.4,0.05,0,3
41592,128972674,-4.09,-2.93,-2.84,-3.1,9.19,15.41,0.05,0,3
41636,128983092,-4.41,-3.29,-2.76,-2.95,9.18,15.42,0.05,0,3
41680,128994099,-4.71,-3.7,-2.67,-2.77,9.18,15.44,0.05,0,3
41730,129005268,-5.01,-4.11,-2.59,-2.58,9.17,15.44,0.05,0,3
41774,129015525,-5.29,-4.52,-2.51,-2.36,9.16,15.44,0.05,0.02,3
41822,129029391,-5.63,-4.95,-2.42,-2.2,9.15,15.43,0.05,0.02,3
41864,129041074,-5.89,-5.37,-2.35,-2,9.15,15.4,0.05,0.02,3
41905,129052720,-6.08,-5.75,-2.3,-1.81,9.140000000000001,15.35,0.05,0.02,3
41946,129064255,-6.26,-6.14,-2.26,-1.7,9.140000000000001,15.33,0.05,0.02,3
41992,129074528,-6.49,-6.42,-2.2,-1.6,9.130000000000001,15.28,0.05,0.02,3
42036,129085289,-6.69,-6.73,-2.14,-1.52,9.119999999999999,15.24,0.05,0.02,3
42081,129095635,-6.89,-7.01,-2.09,-1.44,9.119999999999999,15.17,0.05,0.02,3
42125,129106864,-7.08,-7.28,-2.04,-1.35,9.109999999999999,15.13,0.05,0.02,3
42174,129117435,-7.26,-7.54,-2,-1.23,9.109999999999999,15.06,0.05,0.02,3
42220,129127621,-7.44,-7.74,-1.96,-1.14,9.1,15,0.05,0.02,3
42264,129137509,-7.59,-7.93,-1.92,-1.06,9.1,14.95,0.05,0.02,3
42309,129148508,-7.74,-8.16,-1.9,-0.95,9.09,14.87,0.05,0.02,3
42350,129160326,-7.84,-8.380000000000001,-1.88,-0.85,9.09,14.8,0.05,0.02,3
42395,129171472,-7.98,-8.52,-1.87,-0.8100000000000001,9.09,14.73,0.05,0.02,3
42436,129183083,-8.07,-8.630000000000001,-1.86,-0.8100000000000001,9.09,14.67,0.05,0.02,3
42481,129193388,-8.17,-8.779999999999999,-1.86,-0.78,9.09,14.59,0.05,0.02,3
42526,129203524,-8.26,-8.92,-1.85,-0.76,9.09,14.53,0.05,0.02,3
42572,129214002,-8.35,-9.01,-1.84,-0.71,9.09,14.48,0.05,0.02,3
42618,129225274,-8.43,-9.15,-1.83,-0.66,9.08,14.39,0.05,0.01,3
42662,129236376,-8.51,-9.24,-1.83,-0.72,9.08,14.31,0.05,0.01,3
42706,129246561,-8.58,-9.25,-1.82,-0.77,9.08,14.21,0.05,0.01,3
42751,129257280,-8.640000000000001,-9.25,-1.81,-0.77,9.08,14.12,0.05,0.01,3
42796,129271719,-8.69,-9.34,-1.79,-0.73,9.08,14,0.05,0.01,3
42842,129286086,-8.75,-9.31,-1.78,-0.86,9.08,13.86,0.05,0.01,3
42887,129296511,-8.800000000000001,-9.26,-1.77,-0.88,9.08,13.78,0.05,0.01,3
42931,129307070,-8.83,-9.25,-1.77,-0.89,9.07,13.66,0.05,0.01,3
42976,129317634,-8.859999999999999,-9.23,-1.76,-0.89,9.07,13.57,0.05,0.01,3
43022,129328352,-8.880000000000001,-9.220000000000001,-1.75,-0.92,9.07,13.48,0.05,0.01,3
43071,129338521,-8.9,-9.16,-1.74,-0.92,9.07,13.36,0.05,0.01,3
43118,129348947,-8.92,-9.109999999999999,-1.73,-0.93,9.07,13.27,0.05,0.01,3
43162,129359798,-8.94,-9.08,-1.73,-0.92,9.07,13.16,0.05,0.01,3
43207,129370672,-8.949999999999999,-9.06,-1.72,-0.96,9.07,13.07,0.05,0.01,3
43251,129388008,-8.960000000000001,-9.07,-1.71,-0.99,9.07,12.91,0.05,0.01,3
43296,129399068,-8.949999999999999,-9,-1.71,-0.97,9.06,12.81,0.05,0.01,3
43347,129412268,-8.92,-8.98,-1.69,-1,9.06,12.71,0.05,0.01,3
43389,129423489,-8.880000000000001,-8.960000000000001,-1.68,-1.06,9.06,12.6,0.05,0.01,3
43431,129434413,-8.85,-8.970000000000001,-1.66,-1.09,9.06,12.54,0.05,0.01,3
43480,129445353,-8.83,-8.98,-1.64,-1.09,9.06,12.47,0.05,0.01,3
43524,129455929,-8.82,-8.92,-1.63,-1.11,9.050000000000001,12.41,0.05,0.01,3
43570,129466934,-8.82,-8.890000000000001,-1.6,-1.14,9.050000000000001,12.34,0.05,0.01,3
43615,129480844,-8.83,-8.779999999999999,-1.58,-1.15,9.050000000000001,12.28,0.05,0.01,3
43659,129491355,-8.84,-8.69,-1.56,-1.16,9.039999999999999,12.22,0.05,0.01,3
43701,129503403,-8.85,-8.6,-1.55,-1.14,9.039999999999999,12.16,0.05,0.01,3
43746,129513912,-8.859999999999999,-8.51,-1.52,-1.13,9.039999999999999,12.12,0.05,0.01,3
43790,129524546,-8.859999999999999,-8.449999999999999,-1.51,-1.07,9.029999999999999,12.07,0.05,0.01,3
43836,129535112,-8.869999999999999,-8.34,-1.5,-1.06,9.029999999999999,12.03,0.05,0.01,3
