LineNo,TimeUS,ThI,ABst,ThO,ThH,DAlt,Alt,BAlt,DSAlt,SAlt,TAlt,DCRt,CRt
1297,119044564,-2.473593e-06,-5.734364e-10,0,0.2531423,-1.111446,-1.111446,-1.3,NaN,0,0.05570091,57,57
1868,119154158,-2.473593e-06,-5.688889e-10,0,0.2531423,-1.045912,-1.045912,-1.39,NaN,0,0.1212349,57,57
2319,119258327,-2.473593e-06,-5.638867e-10,0,0.2531423,-0.9937367,-0.9937367,-1.41,NaN,0,0.1734098,57,57
2771,119359528,-2.473593e-06,-5.668426e-10,0,0.2531423,-0.9546724,-0.9546724,-1.2,NaN,0,0.213321,56,56
3220,119464148,-2.473593e-06,-5.541096e-10,0,0.2531423,-0.9217070000000001,-0.9217070000000001,-1.45,NaN,0,0.2461186,55,55
3674,119566599,-2.473593e-06,-5.570655e-10,0,0.2531423,-0.8970317,-0.8970317,-1.48,NaN,0,0.2707939,54,54
4094,119669918,-2.473593e-06,-5.572929e-10,0,0.2531423,-0.8769205,-0.8769205,-1.42,NaN,0,0.2907372,52,52
4544,119770551,-2.473593e-06,-5.566107999999999e-10,0,0.2531423,-0.8523655999999999,-0.8523655999999999,-1.46,NaN,0,0.3169859,51,51
4993,119875345,-2.473593e-06,-5.650236e-10,0,0.2531423,-0.8423036,-0.8423036,-1.79,NaN,0,0.32688,50,50
5446,119978077,-2.473593e-06,-5.679794e-10,0,0.2531423,-0.8289995,-0.8289995,-1.39,NaN,0,0.3383302,49,49
5893,120081489,-2.473593e-06,-5.720722000000001e-10,0,0.2531423,-0.8227941,-0.8227941,-1.4,NaN,0,0.3445356,47,47
6346,120185577,-2.473593e-06,-5.75028e-10,0,0.2531423,-0.8108909,-0.8108909,-1.41,NaN,0,0.3554393,46,46
6793,120290120,-2.473593e-06,-5.752554e-10,0,0.2531423,-0.8112428,-0.8112428,-1.55,NaN,0,0.3548433,44,44
7246,120393030,-2.473593e-06,-5.800302e-10,0,0.2531423,-0.8035827,-0.8035827,-1.38,NaN,0,0.3625034,43,43
7697,120497842,-2.473593e-06,-5.943548e-10,0,0.2531423,-0.8039584,-0.8039584,-1.54,NaN,0,0.3620438,41,41
8150,120600805,-2.473593e-06,-5.970833e-10,0,0.2531423,-0.7951198,-0.7951198,-1.48,NaN,0,0.3708824,40,40
8603,120704589,-2.473593e-06,-6.000390999999999e-10,0,0.2531423,-0.79628,-0.79628,-1.55,NaN,0,0.3678682,39,39
9056,120807282,-2.473593e-06,-6.375558e-10,0,0.2531423,-0.7856042,-0.7856042,-1.31,NaN,0,0.378544,38,38
9504,120911679,-2.473593e-06,-6.546088e-10,0,0.2531423,-0.7868446,-0.7868446,-1.44,NaN,0,0.3771357,37,37
9926,121015092,0.005289167,1.353677e-06,0.0003191218,0.2531423,-0.764567,-0.7793176000000001,-1.35,NaN,0,0.3838235,38,36
10374,121122525,0.0418694,9.719281999999999e-06,0.01213675,0.2531423,-0.7284184,-0.7828674,-1.45,NaN,0,0.3800296,43,34
10793,121229153,0.07658205999999999,1.742691e-05,0.04260935,0.2531423,-0.6887248,-0.7766284,-1.76,NaN,0,0.3862686,50,33
11239,121336114,0.1391852,4.403293e-05,0.09464478,0.2531423,-0.6441583,-0.7766150000000001,-1.33,NaN,0,0.3861141,63,31
11658,121441685,0.2434762,7.288158e-05,0.1673988,0.2531423,-0.5891806000000001,-0.7698322,-1.32,NaN,0,0.392897,81,32
12109,121548077,0.3442772,0.0001034141,0.2663033,0.2531423,-0.5171229000000001,-0.769039,-1.23,NaN,0,0.3928508,106,32
12526,121654048,0.3864422,0.000133872,0.3549821,0.2531423,-0.426865,-0.7583202999999999,-1.24,NaN,0,0.4034018,137,46
12979,121762066,0.3277707,0.0002209246,0.3497885,0.2531423,-0.3114315,-0.7196798,-1.19,NaN,0,0.4422101,166,81
13428,121869822,0.3077504,0.0003062487,0.3291645,0.2531423,-0.1799494,-0.6462202,-1.4,NaN,0,0.5158299,189,118
13880,121974699,0.3168694,0.0002102852,0.316704,0.2531423,-0.02923,-0.5397807999999999,-1.32,NaN,0,0.6225211,208,149
14327,122080862,0.3116432,8.255242999999999e-06,0.3161977,0.2531423,0.126212,-0.3964232,-1.22,NaN,0,0.7665349,221,175
14778,122186342,0.3199515,0.0001316667,0.3118069,0.2531423,0.3004659,-0.2253006,-1.03,NaN,0,0.9383136,231,194
15194,122294863,0.296744,0.0006928444,0.3105144,0.2531423,0.4790072,-0.03806366,-0.74,NaN,0,1.126207,238,211
15643,122401339,0.3005923,0.001839757,0.301506,0.2531423,0.6693891,0.1639246,-0.8,NaN,0,1.329606,244,225
16092,122509482,0.3153304,0.003403455,0.3119791,0.2531423,0.865984,0.3674847,-0.86,NaN,0,1.53325,249,231
16541,122618892,0.2975258,0.003693759,0.311346,0.2531423,1.067461,0.5765525,-0.53,NaN,0,1.743165,252,238
16994,122726085,0.2949813,0.004384458,0.3004217,0.2531423,1.272282,0.796171,-0.53,NaN,0,1.964218,253,244
17411,122833477,0.2657107,0.004746735,0.2882366,0.2531423,1.476799,1.004089,0.03,NaN,0,2.17257,249,245
17865,122939584,0.2531543,0.004785061,0.2688058,0.2531423,1.676226,1.216331,0.07000000000000001,NaN,0,2.386682,241,243
18311,123048342,0.2593608,0.004354835,0.2614543,0.2531423,1.862568,1.431146,0.22,NaN,0,2.601687,230,236
18547,123259057,0.2271096,0.003158018,0.2507209,0.2531423,2.218176,1.817577,0.92,NaN,0,2.989949,212,221
18992,123366350,0.2136615,0.002888367,0.2289059,0.2531423,2.377008,2.017043,1.16,NaN,0,3.188706,197,211
19404,123476608,0.241225,0.002871633,0.2351331,0.2531423,2.524876,2.198234,1.52,NaN,0,3.367494,183,196
19851,123583807,0.2382374,0.002378389,0.2415659,0.2531423,2.664862,2.367927,2.07,NaN,0,3.534197,174,185
20294,123691970,0.2471509,0.002349824,0.2439334,0.2531423,2.797075,2.537791,2.15,NaN,0,3.699811,167,176
20740,123800188,0.2541962,0.001669258,0.2510805,0.2531423,2.929928,2.702422,1.79,NaN,0,3.858499,161,167
21185,123911487,0.2298939,0.0006997436000000001,0.2473515,0.2531423,3.056888,2.858845,2.17,NaN,0,4.009908,155,163
21601,124020517,0.2313301,0.0005827546,0.2304035,0.2531423,3.185215,3.006956,1.86,NaN,0,4.152077,151,161
22041,124127709,0.2428169,0.0008438677,0.2381242,0.2531423,3.308438,3.151193,2.46,NaN,0,4.291706,148,155
22453,124235542,0.2473831,0.001340255,0.2457917,0.2531423,3.43348,3.284178,2.39,NaN,0,4.422867,145,149
22898,124343792,0.2386684,0.00182642,0.2454361,0.2531423,3.557048,3.413553,2.48,NaN,0,4.548481,143,144
23316,124452553,0.2675973,0.002544641,0.251693,0.2531423,3.676889,3.541808,2.69,NaN,0,4.67305,136,135
23763,124561535,0.2609344,0.002390802,0.2669771,0.2531423,3.791631,3.657426,3.63,NaN,0,4.78136,131,126
24203,124671254,0.2589427,0.001783907,0.2627512,0.2531423,3.899344,3.771851,3.43,NaN,0,4.886874,127,122
24651,124778023,0.237771,0.001223326,0.2553882,0.2531423,4.005723,3.887618,3.56,NaN,0,4.995332,120,117
25097,124886987,0.2412916,0.00150986,0.2408783,0.2531423,4.10469,3.997096,3.59,NaN,0,5.09818,110,109
25546,124994570,0.251149,0.001623631,0.2496065,0.2531423,4.194715,4.093971,4.13,NaN,0,5.190195,100,99
25988,125104901,0.2362942,0.001194879,0.2461257,0.2531423,4.277181,4.195736,4.39,NaN,0,5.287016,91,93
26401,125211467,0.2213261,0.0008620471,0.2270897,0.2531423,4.351903,4.293864,4.56,NaN,0,5.378514,79,87
26844,125319598,0.2226843,0.0008867234,0.2245701,0.2531423,4.417663,4.394618,5.71,NaN,0,5.472547,67,77
27287,125428560,0.2291396,0.001668409,0.226724,0.2531423,4.475838,4.494116,5.84,NaN,0,5.565926,55,66
27734,125534276,0.2316328,0.002885476,0.232228,0.2531423,4.527742,4.603855,4.9,NaN,0,5.669706,44,56
28145,125641387,0.2332433,0.003960237,0.2347718,0.2531423,4.574489,4.702707,5.32,NaN,0,5.762271,33,46
28592,125748517,0.2360631,0.003763705,0.2371644,0.2531423,4.617014,4.786084,5.03,NaN,0,5.83818,25,37
29004,125858630,0.229324,0.002398893,0.2332986,0.2531423,4.656038,4.863446,5.08,NaN,0,5.909438,18,29
29449,125964950,0.2255964,0.0009959042,0.2275858,0.2531423,4.692225,4.925602,5.08,NaN,0,5.964964,13,24
29893,126075021,0.2300333,0.000179857,0.2232912,0.2531423,4.725971,4.97487,5.47,NaN,0,6.009983,9,18
30308,126182089,0.2407759,5.602837e-06,0.2334384,0.2531423,4.757666,5.013354,5.09,NaN,0,6.041836,6,10
30752,126292872,0.2454569,8.08537e-05,0.239548,0.2531423,4.787668,5.040084,5.59,NaN,0,6.062615,5,6
31199,126401929,0.2513908,0.0001614988,0.2469665,0.2531423,4.816268,5.059812,5.86,NaN,0,6.074866,5,2
31647,126512495,0.2517656,3.054738e-05,0.2474445,0.2531423,4.843766,5.079816,5.23,NaN,0,6.088241,4,0
32093,126623144,0.2425743,1.344085e-05,0.2482778,0.2531423,4.871021,5.097158,5.26,NaN,0,6.097419,4,0
32541,126729019,0.2627938,6.556510999999999e-05,0.251178,0.2531423,4.896797,5.106708,5,NaN,0,6.099821,5,0
32983,126840008,0.2569354,4.079938e-05,0.2556745,0.2531423,4.922124,5.110698,5.4,NaN,0,6.096815,7,0
33399,126947069,0.2573052,2.282858e-05,0.2562502,0.2531423,4.946936,5.113337,5.08,NaN,0,6.092632,9,1
33848,127057561,0.2620049,3.534555e-05,0.257682,0.2531423,4.971278,5.116184,5.18,NaN,0,6.08959,10,3
34264,127163846,0.2593204,5.370378e-05,0.2598155,0.2531423,4.995258,5.117617,5.4,NaN,0,6.084354,12,4
34705,127271972,0.2528442,6.175041e-05,0.258301,0.2531423,5.018333,5.123839,5.46,NaN,0,6.083916,14,7
35154,127380886,0.2439611,0.0001052171,0.2505372,0.2531423,5.041819,5.137116,5.12,NaN,0,6.091456,15,11
35563,127488571,0.2586335,0.000256449,0.2505453,0.2531423,5.065059,5.152449,5.14,NaN,0,6.100297,15,13
36011,127596072,0.2628574,0.0002727509,0.2595293,0.2531423,5.088124,5.166533,5.08,NaN,0,6.107872,16,11
36451,127703479,0.2551623,0.0002156496,0.2586212,0.2531423,5.111114,5.178871,5.49,NaN,0,6.114641,17,13
36897,127810405,0.2588135,0.0001482069,0.2560821,0.2531423,5.133989,5.196455,5.19,NaN,0,6.125725,17,14
37311,127919353,0.2637541,9.259581999999999e-05,0.2579648,0.2531423,5.156764,5.214176,5.25,NaN,0,6.137358,18,15
37757,128030993,0.2637123,5.224347e-05,0.2637511,0.2531423,5.180056,5.231788,5.27,NaN,0,6.14863,18,15
38203,128138508,0.2501411,3.993511e-05,0.2571515,0.2531423,5.20276,5.247908,5.03,NaN,0,6.160187,19,17
38645,128246522,0.255571,3.576279e-05,0.2542709,0.2531423,5.225523,5.264915,5.08,NaN,0,6.172723,20,19
39092,128354339,0.2650521,6.231666e-05,0.2578905,0.2531423,5.248259,5.281329,4.7,NaN,0,6.184652,20,18
39535,128463105,0.2632623,0.0001323223,0.2621018,0.2531423,5.270983,5.294212,4.91,NaN,0,6.192469,21,18
39980,128570558,0.2651417,0.0004588962,0.2646974,0.2531423,5.293653,5.304208,4.94,NaN,0,6.198398,22,18
40423,128679641,0.2638872,0.0007106661999999999,0.2642568,0.2531423,5.316293,5.314929,4.92,NaN,0,6.203275,23,20
40869,128786613,0.2650971,0.0009498894,0.2666626,0.2531423,5.338959,5.326163,4.93,NaN,0,6.210786,25,20
41314,128896846,0.2580481,0.0007197261,0.2632878,0.2531423,5.361022,5.338198,4.84,NaN,0,6.219929,26,22
41726,129004941,0.2583052,0.0009323359,0.2614933,0.2531423,5.383651,5.352132,4.87,NaN,0,6.230308,26,24
42167,129114659,0.2591397,0.002276897,0.2631498,0.2531423,5.406189,5.370462,5.01,NaN,0,6.245755,27,25
42610,129222590,0.2525223,0.00322327,0.2599294,0.2531423,5.428651,5.390727,4.89,NaN,0,6.264676,27,27
43057,129330879,0.2446141,0.00323002,0.256258,0.2531423,5.451122,5.414309,4.99,NaN,0,6.285717,27,29
43470,129439696,0.2523967,0.003169924,0.251508,0.2531423,5.47354,5.436801,4.89,NaN,0,6.307127,27,29
43916,129547819,0.2400619,0.002535805,0.2502007,0.2531423,5.495964,5.456803,5.01,NaN,0,6.325107,27,29
44327,129655701,0.2458408,0.002391383,0.2465717,0.2531423,5.518383,5.480467,5.21,NaN,0,6.347351,27,30
44774,129762137,0.2513296,0.002684087,0.2498561,0.2531423,5.540763,5.506886,5.49,NaN,0,6.373038,26,28
45218,129872274,0.2560696,0.002490669,0.2575314,0.2531423,5.563116,5.535493,5.57,NaN,0,6.399974,26,27
45662,129978364,0.2456117,0.001908973,0.2550406,0.2531423,5.58548,5.565511,5.8,NaN,0,6.429854,25,27
46106,130086059,0.2413211,0.001435906,0.2473916,0.2531423,5.607249,5.600982,6.17,NaN,0,6.461793,24,28
46519,130192858,0.2433977,0.0009831785999999999,0.2470584,0.2531423,5.629577,5.641697,5.61,NaN,0,6.49787,22,27
46962,130302238,0.2474182,0.00088121,0.2407744,0.2531423,5.651878,5.684985,5.79,NaN,0,6.537198,20,26
47412,130409579,0.2843294,0.0007631183,0.2650948,0.2531423,5.674185,5.719616,5.58,NaN,0,6.567023,18,18
47821,130517110,0.2578531,0.0006054044,0.2722047,0.2531423,5.696496,5.745942,5.29,NaN,0,6.588542,18,16
48269,130623495,0.2749027,0.0005237162,0.2691131,0.2531423,5.718892,5.765131,5.39,NaN,0,6.602918,18,15
48679,130732255,0.2544179,0.0002429187,0.2684813,0.2531423,5.741303,5.776332,5.59,NaN,0,6.609312,20,16
49122,130839328,0.2555657,0.0002039969,0.2543715,0.2531423,5.763209,5.790533,6.49,NaN,0,6.618538,20,19
49569,130945819,0.2619031,0.000304997,0.2626784,0.2531423,5.785748,5.813291,5.91,NaN,0,6.635795,20,18
49980,131055617,0.2599098,0.0005773902,0.2619002,0.2531423,5.808272,5.840524,6.13,NaN,0,6.657367,20,19
50424,131163402,0.2661886,0.0006529987,0.2619918,0.2531423,5.83081,5.86896,6,NaN,0,6.680303,19,19
50866,131273314,0.2618472,0.0004481673,0.2649373,0.2531423,5.853302,5.898571,5.55,NaN,0,6.703658,19,19
51313,131380233,0.2642618,0.0003478229,0.2643934,0.2531423,5.875785,5.922751,5.57,NaN,0,6.722329,18,18
51762,131490046,0.2550398,0.000261873,0.2599608,0.2531423,5.898281,5.94409,5.86,NaN,0,6.738343,19,19
52209,131596534,0.2548738,0.0001437068,0.2561703,0.2531423,5.920722,5.96406,6.47,NaN,0,6.753827,19,19
52620,131706577,0.2452798,0.0001050234,0.2507016,0.2531423,5.943125,5.993115,6.23,NaN,0,6.778555,18,22
53068,131815867,0.2260756,0.0001736134,0.2395709,0.2531423,5.965539,6.026716,6.38,NaN,0,6.806992,17,24
53512,131924904,0.2397582,0.0003511012,0.2383836,0.2531423,5.987977,6.064175,6.44,NaN,0,6.840552,15,24
53954,132033553,0.2415962,0.0002823919,0.2415178,0.2531423,6.010472,6.102228,6.2,NaN,0,6.873775,14,22
54399,132140390,0.26573,0.0003661811,0.2520988,0.2531423,6.032938,6.139586,6.04,NaN,0,6.905855,13,17
54808,132247832,0.2613338,0.0004212558,0.2575115,0.2531423,6.055511,6.168388,5.73,NaN,0,6.930322,12,14
55256,132355949,0.2545473,0.000410974,0.2554637,0.2531423,6.078021,6.190289,6.13,NaN,0,6.948996,12,13
55697,132463902,0.2551525,0.0003975034,0.2544016,0.2531423,6.099952,6.20916,6.23,NaN,0,6.964976,12,13
56145,132569305,0.2478896,0.000299558,0.253843,0.2531423,6.122477,6.228675,6.05,NaN,0,6.981599,13,13
56558,132678015,0.2483069,8.85874e-05,0.2492764,0.2531423,6.14497,6.248667,6.15,NaN,0,7.000737,13,14
57004,132785595,0.2442254,1.840293e-05,0.2475131,0.2531423,6.167524,6.268789,5.91,NaN,0,7.018303,13,14
57448,132894911,0.2623726,0.0001498759,0.2540569,0.2531423,6.190047,6.287268,5.94,NaN,0,7.034386,14,13
57893,133003297,0.2723958,0.0004967451,0.2644583,0.2531423,6.212601,6.300646,6.09,NaN,0,7.046741,14,11
58304,133110995,0.2639233,0.0007422864,0.268357,0.2531423,6.235086,6.314802,6.35,NaN,0,7.058509,15,10
58719,133218513,0.2551255,0.0007383525,0.2610523,0.2531423,6.257517,6.330657,6.29,NaN,0,7.073518,16,13
59161,133327502,0.23201,0.0005617887,0.2473414,0.2531423,6.27935,6.351018,6.21,NaN,0,7.092339,14,15
59603,133436249,0.2467784,0.0005804449,0.2425607,0.2531423,6.298078,6.370277,6.27,NaN,0,7.109041,10,12
60048,133543316,0.2358299,0.0005782098,0.2426397,0.2531423,6.313558,6.38825,6.33,NaN,0,7.12616,7,10
60493,133652171,0.2290098,0.0005349219,0.237967,0.2531423,6.326316,6.402378,6.23,NaN,0,7.139433,4,8
60908,133758207,0.2437467,0.0005254894,0.2349637,0.2531423,6.335773,6.413014,6.04,NaN,0,7.150069,0,4
61360,133867007,0.2257461,0.0004165769,0.2355226,0.2531423,6.341609,6.415013,6.25,NaN,0,7.150359,-2,1
61807,133976839,0.2379935,0.0003620386,0.2339847,0.2531423,6.344359,6.41386,6.36,NaN,0,7.149374,-5,-2
62247,134084550,0.2400429,0.000402078,0.245259,0.2531423,6.344633,6.407936,6.51,NaN,0,7.142602,-7,-7
62691,134188910,0.2237873,0.0004720837,0.2390879,0.2531423,6.34212,6.39933,6.27,NaN,0,7.134164,-10,-9
63138,134297627,0.2229442,0.0004353523,0.2267346,0.2531423,6.334323,6.390806,6.27,NaN,0,7.123932,-16,-14
63551,134405264,0.2373665,0.0006276071,0.2289596,0.2531423,6.32133,6.376768,6.19,NaN,0,7.110062,-21,-19
63996,134513549,0.2342948,0.00076662,0.2323985,0.2531423,6.303995,6.358957,6.44,NaN,0,7.091572,-25,-23
64436,134623537,0.2318741,0.001096457,0.2288581,0.2531423,6.283095,6.335814,6.2,NaN,0,7.068596,-28,-27
64886,134729641,0.244697,0.001676172,0.2380187,0.2531423,6.259343,6.31132,6.21,NaN,0,7.044103,-31,-31
65333,134840886,0.2474629,0.001972184,0.2420559,0.2531423,6.233237,6.280249,6.47,NaN,0,7.014046,-33,-34
65747,134948365,0.2307722,0.001739636,0.2428762,0.2531423,6.20514,6.247347,6.41,NaN,0,6.982853,-34,-37
66187,135057055,0.2392376,0.001528233,0.2434186,0.2531423,6.176187,6.214217,6.35,NaN,0,6.950822,-35,-38
66632,135164064,0.239086,0.001301676,0.2431718,0.2531423,6.145037,6.179249,6.45,NaN,0,6.918425,-36,-39
67041,135272113,0.2505583,0.001491338,0.247458,0.2531423,6.112772,6.143108,6.43,NaN,0,6.88484,-37,-40
67491,135379510,0.2585756,0.001559108,0.2499531,0.2531423,6.079541,6.106354,6.5,NaN,0,6.853197,-38,-41
67932,135485802,0.2377184,0.001494899,0.246768,0.2531423,6.046523,6.071688,7.17,NaN,0,6.821934,-38,-39
68378,135593008,0.2593516,0.001851559,0.2504663,0.2531423,6.011942,6.038401,7.62,NaN,0,6.794621,-39,-41
68819,135699578,0.2429442,0.002049059,0.246762,0.2531423,5.97784,6.00964,6.53,NaN,0,6.77098,-40,-41
69238,135805829,0.2442199,0.002390265,0.2444619,0.2531423,5.942301,5.979705,6.65,NaN,0,6.747865,-41,-40
69680,135912253,0.2462992,0.002744913,0.2485994,0.2531423,5.907317,5.945957,5.73,NaN,0,6.72196,-41,-41
70122,136020590,0.2334653,0.002623871,0.2438672,0.2531423,5.872171,5.907835,6.99,NaN,0,6.693215,-41,-40
70569,136127687,0.2243645,0.002411261,0.2393208,0.2531423,5.835784,5.875227,6.54,NaN,0,6.671944,-42,-38
71011,136236372,0.2352825,0.002362549,0.237301,0.2531423,5.800195,5.843703,6.49,NaN,0,6.65175,-42,-40
71426,136343836,0.2508913,0.002520472,0.240218,0.2531423,5.76347,5.815131,7.05,NaN,0,6.636307,-43,-41
71872,136451950,0.2455827,0.002548888,0.239497,0.2531423,5.726573,5.786239,6.73,NaN,0,6.621561,-44,-42
72285,136558553,0.2317321,0.002343819,0.2430504,0.2531423,5.689613,5.758631,6.75,NaN,0,6.61047,-45,-43
72728,136667885,0.2298211,0.002204865,0.2444068,0.2531423,5.652475,5.736265,6.58,NaN,0,6.604042,-47,-44
73175,136774659,0.2329129,0.001947969,0.2337882,0.2531423,5.615187,5.723063,6.11,NaN,0,6.607198,-50,-43
73589,136885102,0.2286004,0.001362696,0.232842,0.2531423,5.577788,5.711857,6.15,NaN,0,6.613371,-52,-46
74038,136992349,0.23699,0.001022622,0.2330542,0.2531423,5.54027,5.688542,6.29,NaN,0,6.607687,-54,-47
74480,137102330,0.2347507,0.0006576627,0.2332179,0.2531423,5.5027,5.666985,6.7,NaN,0,6.603342,-56,-49
74925,137209585,0.2290841,0.0002465397,0.2324407,0.2531423,5.465032,5.647464,6.01,NaN,0,6.599417,-57,-51
75338,137318327,0.2297213,7.064641e-05,0.2328524,0.2531423,5.427283,5.621989,6.51,NaN,0,6.590383,-59,-53
75779,137427527,0.2410011,2.421439e-05,0.2363337,0.2531423,5.389522,5.592968,5.71,NaN,0,6.576178,-60,-55
76225,137533818,0.2413959,1.479685e-05,0.2392002,0.2531423,5.351715,5.560768,5.51,NaN,0,6.558802,-60,-58
76665,137643902,0.2568741,8.493662000000001e-06,0.2464873,0.2531423,5.313883,5.513935,5.52,NaN,0,6.52796,-59,-61
77083,137750287,0.2605841,1.141429e-05,0.2568761,0.2531423,5.276053,5.460093,5.58,NaN,0,6.48866,-58,-63
77495,137860062,0.2518449,5.26607e-05,0.2568471,0.2531423,5.23833,5.400697,5.87,NaN,0,6.443882,-55,-62
77942,137968507,0.2534875,9.316206e-05,0.2566869,0.2531423,5.20064,5.343879,5.26,NaN,0,6.399728,-53,-60
78385,138077093,0.2508416,0.0003483891,0.2521148,0.2531423,5.163985,5.285547,5.24,NaN,0,6.354473,-51,-58
78831,138183391,0.2602323,0.0005047321,0.255879,0.2531423,5.126395,5.225945,5.17,NaN,0,6.308101,-49,-55
79275,138293050,0.2669255,0.0002503693,0.2597309,0.2531423,5.088773,5.16211,5.39,NaN,0,6.258593,-46,-54
79719,138401872,0.2534772,8.824468e-05,0.2599871,0.2531423,5.051178,5.102936,5.56,NaN,0,6.213915,-44,-52
80130,138509791,0.2696135,0.0002099872,0.2609016,0.2531423,5.014138,5.054743,5.28,NaN,0,6.180035,-41,-47
80575,138619194,0.2722344,0.001140386,0.2714479,0.2531423,4.980674,5.009995,4.73,NaN,0,6.149081,-35,-42
81023,138728045,0.2566116,0.001978844,0.2669119,0.2531423,4.951922,4.976017,4.77,NaN,0,6.128568,-30,-34
81472,138837662,0.2458401,0.00226967,0.2599429,0.2531423,4.926818,4.946914,4.69,NaN,0,6.112687,-26,-27
81917,138945417,0.2677753,0.002689272,0.2638701,0.2531423,4.90411,4.921327,4.49,NaN,0,6.099536,-23,-25
82364,139055592,0.2634851,0.002543569,0.2664434,0.2531423,4.88445,4.898288,4.17,NaN,0,6.088545,-20,-23
82810,139162552,0.2490014,0.002047792,0.257812,0.2531423,4.866722,4.880796,4.15,NaN,0,6.08316,-19,-18
83252,139272438,0.2340747,0.001675621,0.2466818,0.2531423,4.850676,4.866951,4.13,NaN,0,6.081026,-17,-13
83699,139381609,0.2443781,0.001730859,0.2462428,0.2531423,4.835938,4.855058,4.21,NaN,0,6.079135,-16,-12
84142,139490150,0.2597231,0.002223134,0.249129,0.2531423,4.822312,4.843814,4.08,NaN,0,6.079602,-15,-12
84558,139598480,0.2692861,0.002592266,0.2654888,0.2531423,4.809654,4.829273,4.04,NaN,0,6.07482,-14,-16
84999,139707018,0.2644158,0.002607286,0.2684128,0.2531423,4.797709,4.815927,4.3,NaN,0,6.071926,-14,-16
85447,139813503,0.2417445,0.002304941,0.2593053,0.2531423,4.786027,4.801348,4.71,NaN,0,6.065854,-14,-15
85891,139922502,0.2110816,0.001429901,0.2383062,0.2531423,4.771643,4.784017,4.49,NaN,0,6.057876,-19,-15
86331,140032395,0.190622,0.0005733967,0.2100333,0.2531423,4.750366,4.764423,4.58,NaN,0,6.046796,-28,-18
86780,140138685,0.2130139,0.0002747774,0.2071614,0.2531423,4.720487,4.739447,4.3,NaN,0,6.030159,-37,-26
87190,140247587,0.2058652,0.0002000034,0.2144621,0.2531423,4.683195,4.701997,4.21,NaN,0,6.001056,-44,-35
87639,140356651,0.2271774,0.0003704429,0.2052121,0.2531423,4.639785,4.656596,3.68,NaN,0,5.964161,-50,-41
88082,140466494,0.2497851,0.0006962121,0.2355576,0.2531423,4.591378,4.597677,3.8,NaN,0,5.91391,-53,-54
88527,140573328,0.2520161,0.001197577,0.2406446,0.2531423,4.538755,4.529355,4.02,NaN,0,5.854254,-56,-60
88972,140681975,0.2461177,0.00116989,0.2460864,0.2531423,4.482812,4.452638,4.92,NaN,0,5.783657,-57,-63
89420,140789631,0.232633,0.0009219199,0.2437012,0.2531423,4.424932,4.37693,4.37,NaN,0,5.714387,-55,-61
89831,140897525,0.2752482,0.0008668303,0.258422,0.2531423,4.368941,4.304737,4.17,NaN,0,5.647696,-50,-58
90277,141003802,0.2702367,0.0006112456,0.2666277,0.2531423,4.317561,4.237103,4.46,NaN,0,5.584105,-43,-53
90719,141111108,0.2807095,0.0003216863,0.2725448,0.2531423,4.27024,4.17753,3.86,NaN,0,5.527561,-38,-49
91134,141221606,0.2666584,8.761883e-05,0.2723979,0.2531423,4.226282,4.122905,3.86,NaN,0,5.474264,-34,-43
91581,141329272,0.2713129,0.0002049804,0.2703053,0.2531423,4.185075,4.079406,4.13,NaN,0,5.433664,-31,-39
92023,141438034,0.2660424,0.0004622936,0.2675355,0.2531423,4.146289,4.038419,4.04,NaN,0,5.394805,-29,-33
92470,141543062,0.2747427,0.0005416572,0.2709022,0.2531423,4.109323,4.000279,4.15,NaN,0,5.358183,-27,-31
92881,141651990,0.2752788,0.0003959537,0.2718082,0.2531423,4.073794,3.965424,4.13,NaN,0,5.326868,-25,-29
93329,141759091,0.2641906,0.0002563894,0.2731276,0.2531423,4.039548,3.933696,4.39,NaN,0,5.2973,-24,-28
93771,141868259,0.257214,0.0002327561,0.2656859,0.2531423,4.006332,3.910656,4.26,NaN,0,5.276731,-24,-23
94215,141973492,0.2603256,0.0002102852,0.2600767,0.2531423,3.974011,3.895261,4.55,NaN,0,5.263816,-25,-22
94659,142083086,0.2542877,0.0001886785,0.2589062,0.2531423,3.943312,3.880207,4.29,NaN,0,5.251799,-26,-22
95105,142188393,0.2575496,0.0001426339,0.2564604,0.2531423,3.912354,3.86626,4.14,NaN,0,5.239103,-27,-22
95520,142296407,0.2606259,8.571148e-05,0.259865,0.2531423,3.882731,3.851132,4.5,NaN,0,5.226248,-28,-24
95966,142403403,0.2615488,5.662441e-05,0.2607971,0.2531423,3.852687,3.837598,4.36,NaN,0,5.213286,-29,-25
96406,142510415,0.2594369,5.334616e-05,0.2595929,0.2531423,3.824619,3.829932,4.57,NaN,0,5.20659,-31,-26
96851,142617577,0.2612847,7.122755e-05,0.2597795,0.2531423,3.795234,3.823024,4.68,NaN,0,5.202504,-33,-27
97297,142725812,0.2525948,0.0001012683,0.2572824,0.2531423,3.766092,3.825488,4.52,NaN,0,5.206189,-36,-29
97740,142834923,0.2543439,0.0001015961,0.2564619,0.2531423,3.73716,3.825845,4.35,NaN,0,5.208858,-39,-31
98187,142943231,0.255248,8.7291e-05,0.2570263,0.2531423,3.708406,3.820604,4.45,NaN,0,5.206073,-41,-35
98596,143052798,0.2532231,7.069111e-05,0.2569036,0.2531423,3.679819,3.812676,4.59,NaN,0,5.199923,-43,-36
99044,143160554,0.2632901,0.0001133978,0.2571519,0.2531423,3.65135,3.804003,4.63,NaN,0,5.193195,-45,-39
99488,143268534,0.2630656,0.001326621,0.2605078,0.2531423,3.622967,3.791928,4.75,NaN,0,5.182906,-46,-42
99903,143377290,0.2550572,0.002987057,0.2630801,0.2531423,3.593969,3.780903,4.59,NaN,0,5.172575,-48,-44
100345,143484902,0.262497,0.003996074,0.2625968,0.2531423,3.565696,3.771532,4.34,NaN,0,5.164752,-50,-46
100790,143592111,0.2602222,0.004067451,0.2649828,0.2531423,3.537486,3.759902,4.54,NaN,0,5.15503,-51,-48
101233,143701998,0.2634195,0.003862083,0.2663079,0.2531423,3.509316,3.737872,4.41,NaN,0,5.134603,-52,-50
101680,143808547,0.293498,0.003746212,0.2802439,0.2531423,3.482064,3.713557,4.27,NaN,0,5.110639,-50,-51
102094,143917375,0.2724292,0.002840549,0.2860257,0.2531423,3.458668,3.684321,4.16,NaN,0,5.082196,-44,-48
102540,144023597,0.2732137,0.002454817,0.28014,0.2531423,3.439329,3.6565,3.89,NaN,0,5.054169,-40,-43
102982,144133616,0.264576,0.001780689,0.2752634,0.2531423,3.423344,3.637423,4.06,NaN,0,5.036328,-36,-38
103395,144242538,0.2746119,0.001377225,0.2705275,0.2531423,3.410133,3.617528,3.84,NaN,0,5.017837,-33,-34
103841,144349372,0.2829845,0.001523554,0.2810434,0.2531423,3.399213,3.598271,3.61,NaN,0,4.998054,-30,-33
104284,144456926,0.2831272,0.001686901,0.2851422,0.2531423,3.390186,3.573623,4.05,NaN,0,4.973313,-26,-32
104697,144562716,0.2691406,0.001471609,0.2785268,0.2531423,3.382726,3.547899,3.87,NaN,0,4.946582,-23,-27
105138,144672947,0.2571304,0.0008050501,0.2680718,0.2531423,3.376707,3.527278,3.67,NaN,0,4.926649,-20,-22
105587,144778387,0.256023,0.000488013,0.2590276,0.2531423,3.371584,3.514108,4.04,NaN,0,4.913913,-19,-18
106029,144887360,0.2693006,0.0004583895,0.2658286,0.2531423,3.36735,3.500529,3.78,NaN,0,4.900013,-17,-16
106442,144993087,0.2578747,0.0004973412,0.2644682,0.2531423,3.36385,3.486504,3.67,NaN,0,4.887354,-15,-15
106888,145103275,0.2851598,0.0009910762000000001,0.2758499,0.2531423,3.360957,3.470145,3.59,NaN,0,4.872277,-13,-16
107335,145209707,0.2632966,0.001111686,0.2761932,0.2531423,3.358566,3.452973,3.13,NaN,0,4.85631,-11,-14
107748,145317309,0.2537491,0.0007203817,0.2653528,0.2531423,3.356637,3.441677,3.42,NaN,0,4.847982,-10,-10
108194,145426112,0.2344799,0.0004067868,0.2459283,0.2531423,3.354956,3.435298,3.56,NaN,0,4.843572,-9,-4
108640,145534878,0.2383534,0.000547111,0.2416969,0.2531423,3.353605,3.435663,3.5,NaN,0,4.845982,-9,-2
109086,145643408,0.2354191,0.0009394437,0.2343692,0.2531423,3.352516,3.438502,3.51,NaN,0,4.851712,-9,0
109533,145751286,0.2330291,0.001536936,0.2345619,0.2531423,3.351589,3.444012,3.69,NaN,0,4.860869,-10,0
109943,145860403,0.2355327,0.002027988,0.235419,0.2531423,3.350823,3.448078,3.59,NaN,0,4.868429,-10,-2
110391,145967858,0.2300923,0.002166331,0.2318635,0.2531423,3.350189,3.450004,3.37,NaN,0,4.872758,-10,-2
110834,146076694,0.2242944,0.001966357,0.2270109,0.2531423,3.349666,3.44847,3.34,NaN,0,4.874559,-10,-2
111248,146184640,0.2386625,0.001763061,0.2298064,0.2531423,3.349233,3.443974,3.33,NaN,0,4.874831,-9,-4
111693,146295885,0.2347073,0.001614466,0.237051,0.2531423,3.348875,3.439131,3.28,NaN,0,4.872147,-9,-6
112139,146404050,0.2501451,0.00172016,0.2407494,0.2531423,3.348663,3.432058,3.57,NaN,0,4.867928,-8,-7
112582,146513557,0.2475224,0.001732066,0.2487246,0.2531423,3.349794,3.427234,3.03,NaN,0,4.865796,-5,-7
113028,146624563,0.2632575,0.002131462,0.2569959,0.2531423,3.353164,3.416569,3.03,NaN,0,4.857047,-1,-6
113445,146731281,0.2576243,0.002125561,0.2638836,0.2531423,3.358394,3.401282,3.7,NaN,0,4.842606,2,-5
113889,146840048,0.2374652,0.001363486,0.2522942,0.2531423,3.365119,3.392912,3.54,NaN,0,4.834839,4,0
114335,146946400,0.2380315,0.0006377995,0.2401634,0.2531423,3.373193,3.395787,3.58,NaN,0,4.837554,6,6
114777,147054646,0.2321911,0.0001936704,0.237189,0.2531423,3.382075,3.406357,3.41,NaN,0,4.847964,7,9
115221,147161079,0.2270641,2.622604e-05,0.2309918,0.2531423,3.391873,3.421433,3.28,NaN,0,4.862361,7,12
115667,147268394,0.2488048,0.0002021641,0.2317153,0.2531423,3.402333,3.434556,3.09,NaN,0,4.875484,8,11
116083,147374896,0.2599148,0.0003019869,0.251403,0.2531423,3.413429,3.440005,3.44,NaN,0,4.881093,9,8
116524,147484631,0.234582,0.0002576411,0.2466792,0.2531423,3.425001,3.44637,3.7,NaN,0,4.885573,10,9
116972,147591985,0.2274948,0.0002155453,0.2339681,0.2531423,3.437032,3.460261,3.59,NaN,0,4.899495,10,13
117418,147701642,0.2608258,0.0001178384,0.2395972,0.2531423,3.44944,3.479599,3.22,NaN,0,4.918108,10,11
117864,147807298,0.2383464,1.202524e-05,0.2486163,0.2531423,3.462083,3.491119,3.64,NaN,0,4.928224,10,10
118276,147916874,0.2349272,0.0002977252,0.2366912,0.2531423,3.474565,3.508796,3.29,NaN,0,4.945589,10,11
118723,148024589,0.2598944,0.001239538,0.2467907,0.2531423,3.487515,3.523248,3.47,NaN,0,4.959713,10,8
119130,148133144,0.255966,0.002244264,0.256391,0.2531423,3.500539,3.532072,3.43,NaN,0,4.967132,10,7
119575,148241025,0.2480897,0.002538845,0.2551385,0.2531423,3.513633,3.539485,3.48,NaN,0,4.973225,11,7
120020,148348872,0.2628607,0.002541482,0.2570022,0.2531423,3.526802,3.547534,3.72,NaN,0,4.980794,11,7
120432,148458698,0.2670859,0.002279103,0.2655604,0.2531423,3.540092,3.556853,3.65,NaN,0,4.988549,12,6
120878,148566390,0.2521256,0.001840323,0.2628818,0.2531423,3.553405,3.566624,3.56,NaN,0,4.996596,12,8
121323,148674935,0.2551363,0.001741827,0.2575479,0.2531423,3.566819,3.579931,3.54,NaN,0,5.007256,12,10
121771,148783148,0.2533742,0.001479626,0.2543613,0.2531423,3.580401,3.59468,3.65,NaN,0,5.017602,12,11
122180,148891999,0.2538184,0.001571327,0.2589286,0.2531423,3.593747,3.609026,3.64,NaN,0,5.027546,12,12
122629,148998375,0.21402,0.0009050518,0.2367243,0.2531423,3.607578,3.626456,4.26,NaN,0,5.039811,12,17
123071,149107586,0.2186419,0.0005862862,0.2235492,0.2531423,3.621469,3.654643,3.72,NaN,0,5.061749,11,20
123489,149213906,0.2332345,0.0006467402,0.2289413,0.2531423,3.635473,3.682946,3.71,NaN,0,5.083041,9,17
123928,149321571,0.2194422,0.0006797016,0.2257409,0.2531423,3.649447,3.709089,3.75,NaN,0,5.103782,8,16
124337,149429366,0.2262828,0.00104256,0.2292927,0.2531423,3.663332,3.731858,3.9,NaN,0,5.119464,7,14
124784,149536437,0.2348887,0.001312092,0.2335171,0.2531423,3.677236,3.750549,4.25,NaN,0,5.131913,7,11
125226,149645005,0.2266242,0.001019359,0.2357589,0.2531423,3.691108,3.769217,4.28,NaN,0,5.142731,6,10
125674,149751347,0.2332272,0.0007906258,0.2337233,0.2531423,3.704942,3.78931,4.19,NaN,0,5.153378,6,9
126086,149860262,0.2367274,0.0006663948,0.2375288,0.2531423,3.718358,3.810524,4.43,NaN,0,5.165994,5,7
126533,149967707,0.2429763,0.0006306022,0.2388109,0.2531423,3.732141,3.831228,4.37,NaN,0,5.176414,4,7
126974,150076839,0.2435113,0.0006546526999999999,0.2391227,0.2531423,3.745968,3.853298,4.36,NaN,0,5.189962,3,5
127421,150182566,0.2471882,0.0007398874,0.244916,0.2531423,3.759855,3.875102,4.19,NaN,0,5.20165,3,2
127863,150292189,0.2457734,0.001119167,0.2424521,0.2531423,3.77379,3.895328,4.19,NaN,0,5.210912,2,1
128279,150399040,0.2426956,0.001563296,0.243046,0.2531423,3.787689,3.911045,4.22,NaN,0,5.21491,2,2
128725,150508953,0.236746,0.001778513,0.2424535,0.2531423,3.80193,3.927157,4.38,NaN,0,5.217389,2,2
129172,150620819,0.230776,0.001488954,0.239371,0.2531423,3.816163,3.942257,4.29,NaN,0,5.218008,1,2
129622,150727565,0.2325102,0.00104104,0.2351359,0.2531423,3.830012,3.952698,4.68,NaN,0,5.215052,2,4
130067,150840537,0.2456375,0.001026437,0.238776,0.2531423,3.844161,3.96683,4.32,NaN,0,5.213879,2,2
130519,150947929,0.2409397,0.001029268,0.2421787,0.2531423,3.858041,3.979948,4.54,NaN,0,5.212356,2,1
130962,151056411,0.242631,0.001054123,0.2427391,0.2531423,3.871902,3.994359,4.41,NaN,0,5.210448,2,2
131375,151162538,0.2385624,0.001142591,0.2416768,0.2531423,3.885734,4.007987,4.3,NaN,0,5.208688,2,1
131816,151270347,0.2433769,0.001328871,0.2420921,0.2531423,3.899541,4.020866,4.63,NaN,0,5.204844,2,1
132265,151377921,0.2301774,0.001279086,0.236113,0.2531423,3.913328,4.03544,4.53,NaN,0,5.202945,2,3
132706,151485299,0.2307551,0.0009308457,0.2359858,0.2531423,3.926778,4.04999,4.36,NaN,0,5.20094,2,4
133153,151591919,0.2315145,0.000618875,0.2326852,0.2531423,3.940559,4.066318,4.11,NaN,0,5.199781,1,4
133598,151700042,0.2382145,0.0005718619,0.2366581,0.2531423,3.954329,4.080666,4.38,NaN,0,5.197496,1,2
134045,151809307,0.2374043,0.0007003546,0.2357218,0.2531423,3.968127,4.094436,4.43,NaN,0,5.19378,1,3
134454,151917337,0.2283005,0.0008288771,0.231493,0.2531423,3.981899,4.107271,4.49,NaN,0,5.188305,1,3
134906,152024926,0.225184,0.0006251931000000001,0.2266964,0.2531423,3.995633,4.121266,4.43,NaN,0,5.184821,1,4
135346,152134084,0.2330624,0.0002959222,0.2259048,0.2531423,4.00935,4.136816,3.82,NaN,0,5.18306,1,4
135790,152242353,0.2270285,0.0002010018,0.2267181,0.2531423,4.023115,4.148514,4.02,NaN,0,5.176935,1,4
136235,152350566,0.2246602,0.0001673251,0.2322937,0.2531423,4.036871,4.155694,3.87,NaN,0,5.16698,2,3
136677,152460330,0.2381474,0.0001180768,0.2321087,0.2531423,4.050621,4.157803,4.08,NaN,0,5.151449,3,3
137123,152566337,0.2337445,0.0001898408,0.2332648,0.2531423,4.064384,4.158616,3.95,NaN,0,5.134531,5,3
137567,152674779,0.2430286,0.0005567372,0.2351086,0.2531423,4.077779,4.158717,3.89,NaN,0,5.116993,6,2
138012,152781571,0.2446682,0.001038015,0.2398297,0.2531423,4.091629,4.156748,3.8,NaN,0,5.098897,8,3
138454,152889335,0.2507255,0.001461416,0.2477745,0.2531423,4.104742,4.152662,4.15,NaN,0,5.078941,9,2
138869,152996867,0.2489399,0.001824424,0.2506149,0.2531423,4.1186,4.150536,4.1,NaN,0,5.062373,11,4
139313,153104154,0.244404,0.001710445,0.2501249,0.2531423,4.132117,4.150429,4.52,NaN,0,5.048663,12,5
139759,153210712,0.2440315,0.001508817,0.2487209,0.2531423,4.145991,4.156277,4.02,NaN,0,5.041922,13,7
140199,153318931,0.2505268,0.001435995,0.2489429,0.2531423,4.159813,4.164296,4.18,NaN,0,5.038863,14,9
140642,153429527,0.2412275,0.001354486,0.2464403,0.2531423,4.173564,4.173512,3.95,NaN,0,5.037665,14,10
141055,153536856,0.2314503,0.001103729,0.2410667,0.2531423,4.187356,4.183129,4.12,NaN,0,5.038554,14,13
141502,153644824,0.2400582,0.0009960532000000001,0.2381971,0.2531423,4.201192,4.195181,4.27,NaN,0,5.042641,15,15
141947,153751613,0.2377187,0.0008593351,0.2373205,0.2531423,4.214984,4.209377,4.23,NaN,0,5.050626,15,15
142359,153860513,0.2482989,0.0007711202,0.2411566,0.2531423,4.22841,4.225023,4.11,NaN,0,5.060733,14,14
142805,153966959,0.2480599,0.0006564706999999999,0.2479923,0.2531423,4.242155,4.23837,4.2,NaN,0,5.068549,14,13
143247,154074652,0.2437678,0.0005394071,0.2446681,0.2531423,4.255583,4.253164,4.49,NaN,0,5.080162,14,13
143696,154180706,0.2448267,0.0003984421,0.2449203,0.2531423,4.269366,4.270651,4.26,NaN,0,5.094628,14,14
144104,154290527,0.2454195,0.0001969784,0.2430609,0.2531423,4.283153,4.289795,4.06,NaN,0,5.109743,13,14
144550,154396620,0.2445009,0.0001394153,0.2453462,0.2531423,4.296982,4.305888,4.21,NaN,0,5.124333,13,13
144991,154506626,0.2419211,9.129941e-05,0.2457049,0.2531423,4.310852,4.320891,4.43,NaN,0,5.136979,13,13
145438,154612924,0.2439098,6.100535e-05,0.2435808,0.2531423,4.324811,4.335979,4.29,NaN,0,5.149809,13,13
145887,154721290,0.2449486,4.470348e-05,0.2437189,0.2531423,4.338745,4.351591,4.45,NaN,0,5.164077,13,13
146298,154829507,0.2466105,0.0001439899,0.244433,0.2531423,4.352274,4.367439,4.32,NaN,0,5.178331,13,13
146743,154937574,0.2558969,0.0005793869,0.2509579,0.2531423,4.366108,4.381863,4.23,NaN,0,5.191336,12,11
147155,155046501,0.253181,0.001264811,0.2535461,0.2531423,4.37986,4.394849,4.11,NaN,0,5.203475,12,10
147602,155151998,0.2498551,0.001702249,0.2524778,0.2531423,4.393636,4.406171,4.17,NaN,0,5.213127,13,11
148047,155261036,0.2429664,0.001712054,0.2484643,0.2531423,4.407415,4.416743,4.24,NaN,0,5.222524,13,12
148495,155368868,0.2487032,0.001619324,0.2481687,0.2531423,4.421213,4.428536,4.23,NaN,0,5.232462,13,13
148937,155480040,0.247945,0.001779914,0.2499907,0.2531423,4.434978,4.439883,4.33,NaN,0,5.242208,13,13
149382,155585293,0.252794,0.002094507,0.2519702,0.2531423,4.448657,4.450719,4.04,NaN,0,5.251518,14,13
149794,155691612,0.261276,0.002438992,0.2551125,0.2531423,4.461998,4.45705,4.14,NaN,0,5.257001,14,12
150243,155799924,0.2546742,0.002388477,0.257567,0.2531423,4.475742,4.460513,4.2,NaN,0,5.257771,16,12
150684,155907076,0.2454911,0.002188981,0.2524799,0.2531423,4.489486,4.465508,3.95,NaN,0,5.261149,16,14
151098,156015516,0.2562403,0.002211779,0.2547414,0.2531423,4.503289,4.470704,4.02,NaN,0,5.264735,17,14
151543,156123616,0.2512333,0.002155095,0.2561234,0.2531423,4.517047,4.474727,3.8,NaN,0,5.266126,18,15
151956,156232088,0.2527629,0.002432644,0.2539181,0.2531423,4.530849,4.478319,3.85,NaN,0,5.267681,19,17
152401,156339299,0.2539798,0.00269866,0.2562228,0.2531423,4.544277,4.481862,3.92,NaN,0,5.269179,20,17
152840,156447083,0.2502736,0.002912223,0.2538649,0.2531423,4.558095,4.486505,4.06,NaN,0,5.272373,21,18
153288,156552799,0.2461832,0.003280386,0.2524678,0.2531423,4.571925,4.493575,3.78,NaN,0,5.278649,22,20
153700,156660385,0.2528299,0.003463328,0.2522801,0.2531423,4.58573,4.500701,3.93,NaN,0,5.283906,23,21
154146,156765720,0.2477029,0.003302544,0.2528445,0.2531423,4.599578,4.510096,3.86,NaN,0,5.292934,23,22
154590,156874080,0.2581502,0.003226489,0.2557156,0.2531423,4.612964,4.523955,3.92,NaN,0,5.306169,23,22
155036,156979097,0.2528345,0.002838045,0.2541374,0.2531423,4.626603,4.537173,4.02,NaN,0,5.318768,23,22
155479,157087355,0.2603674,0.003209114,0.2536666,0.2531423,4.639865,4.550938,3.87,NaN,0,5.330649,23,22
155924,157192539,0.2541094,0.003268778,0.2601127,0.2531423,4.653467,4.560409,4.03,NaN,0,5.338998,23,21
156367,157300861,0.2477599,0.003054202,0.2581019,0.2531423,4.666765,4.572071,3.94,NaN,0,5.350965,23,21
156781,157406698,0.2429306,0.002711222,0.2505924,0.2531423,4.680412,4.584877,3.93,NaN,0,5.363237,23,24
157221,157515553,0.2525595,0.002688795,0.2522564,0.2531423,4.694006,4.594292,3.84,NaN,0,5.372034,24,24
157666,157623553,0.2530712,0.002750695,0.253486,0.2531423,4.707616,4.600534,4.09,NaN,0,5.378925,25,24
158081,157730859,0.2495452,0.002770975,0.255117,0.2531423,4.72126,4.612845,4.18,NaN,0,5.389946,25,24
158524,157837348,0.2497811,0.002423957,0.2528957,0.2531423,4.734895,4.625267,4.37,NaN,0,5.401247,25,24
158969,157943942,0.2499599,0.002420694,0.2554753,0.2531423,4.748518,4.64082,4.18,NaN,0,5.414763,25,25
159382,158051038,0.2459853,0.002547055,0.2527036,0.2531423,4.761779,4.657835,4.51,NaN,0,5.429733,24,25
159830,158159954,0.2304302,0.002432123,0.2427466,0.2531423,4.775386,4.678528,5.13,NaN,0,5.448893,23,27
160271,158269403,0.2398129,0.002666146,0.2411555,0.2531423,4.788282,4.707096,4.52,NaN,0,5.476774,22,26
160684,158374676,0.2417217,0.002777383,0.2413227,0.2531423,4.80199,4.73561,4.88,NaN,0,5.503762,21,25
161128,158483711,0.2373311,0.002947614,0.2435649,0.2531423,4.815696,4.764884,4.77,NaN,0,5.530244,19,24
161575,158588882,0.234472,0.002960816,0.2447064,0.2531423,4.829405,4.792442,5.21,NaN,0,5.555941,18,23
161988,158696892,0.2121322,0.002260074,0.2320267,0.2531423,4.842827,4.82459,5.27,NaN,0,5.58792,16,24
162435,158804268,0.2218115,0.001997933,0.2215454,0.2531423,4.856639,4.861314,4.68,NaN,0,5.623477,14,24
162877,158912822,0.2424584,0.002443746,0.2370809,0.2531423,4.870604,4.889717,4.68,NaN,0,5.651125,12,18
163327,159020070,0.236434,0.002773643,0.2420212,0.2531423,4.88463,4.908463,4.72,NaN,0,5.66939,12,15
163737,159130377,0.2368504,0.003005087,0.2401634,0.2531423,4.898688,4.92196,5.01,NaN,0,5.682063,12,14
164177,159237308,0.2422177,0.002907842,0.2422306,0.2531423,4.912748,4.93535,4.95,NaN,0,5.6954,12,12
164623,159343786,0.2485238,0.002833277,0.2418429,0.2531423,4.926775,4.949134,5.03,NaN,0,5.710244,12,12
165064,159450414,0.2427084,0.002979755,0.246428,0.2531423,4.94084,4.961886,5.15,NaN,0,5.722867,12,11
165511,159556396,0.2371896,0.002777472,0.2410485,0.2531423,4.95475,4.975314,5.38,NaN,0,5.736096,12,13
165927,159665050,0.229376,0.001161531,0.2353419,0.2531423,4.968565,4.993821,6.07,NaN,0,5.755343,11,13
166372,159771598,0.2196771,0.0004406124,0.2316749,0.2531423,4.982357,5.019734,5.88,NaN,0,5.781401,10,14
166815,159879805,0.2041685,0.003116921,0.2163524,0.2531423,4.996167,5.058066,5.15,NaN,0,5.820481,8,19
167261,159985280,0.2329179,0.006539971,0.2193104,0.2531423,5.010009,5.094206,4.55,NaN,0,5.857697,6,17
167708,160093018,0.2355182,0.007213533,0.2376281,0.2531423,5.02383,5.114623,5.02,NaN,0,5.879967,5,11
168123,160199994,0.2445488,0.006662562,0.2431296,0.2531423,5.037687,5.127051,5.69,NaN,0,5.893975,5,6
168562,160308391,0.2412443,0.005656347,0.2470798,0.2531423,5.051554,5.139954,5.37,NaN,0,5.907092,5,6
169010,160414685,0.2389055,0.004824385,0.2426186,0.2531423,5.065453,5.154078,5.53,NaN,0,5.921421,5,5
169417,160522400,0.2469648,0.004122064,0.2408956,0.2531423,5.079351,5.170275,5.62,NaN,0,5.938412,5,6
169862,160630262,0.2518126,0.003931671,0.2516073,0.2531423,5.09282,5.186542,5.76,NaN,0,5.954115,5,3
170309,160735986,0.2359134,0.00343363,0.2460861,0.2531423,5.10662,5.208133,5.68,NaN,0,5.975034,4,4
170718,160842568,0.2413542,0.003090248,0.2429459,0.2531423,5.120018,5.229918,5.67,NaN,0,5.996651,3,5
171164,160948924,0.2407971,0.002428666,0.2431643,0.2531423,5.133792,5.249067,5.89,NaN,0,6.015274,3,4
171607,161058882,0.2378712,0.002079517,0.2401185,0.2531423,5.147674,5.27086,5.89,NaN,0,6.036044,2,4
172054,161165491,0.2454199,0.001154602,0.2434556,0.2531423,5.161478,5.293227,6.02,NaN,0,6.05925,1,3
172494,161274307,0.2462192,0.0003752857,0.2476758,0.2531423,5.175294,5.31393,5.7,NaN,0,6.08035,0,1
172940,161382510,0.2457225,0.0004502833,0.24657,0.2531423,5.189075,5.334687,5.97,NaN,0,6.101008,0,0
173352,161492093,0.2463883,0.0005152971,0.2471187,0.2531423,5.2029,5.352046,5.75,NaN,0,6.121655,0,0
173768,161600376,0.2470483,0.0003918409,0.2454039,0.2531423,5.216721,5.368862,5.67,NaN,0,6.141004,0,0
174212,161709035,0.2525954,0.0002354681,0.2473148,0.2531423,5.230495,5.383738,5.65,NaN,0,6.159512,0,-1
174657,161817526,0.2507598,0.0001453161,0.2513086,0.2531423,5.244242,5.393722,5.94,NaN,0,6.17399,0,-2
175101,161927311,0.2572009,0.0001467764,0.2539884,0.2531423,5.257937,5.404832,5.55,NaN,0,6.1906,0,-2
175548,162038043,0.2516905,0.00024876,0.254085,0.2531423,5.271658,5.414275,5.87,NaN,0,6.207421,0,-2
175994,162146610,0.2428178,0.0002665371,0.2469666,0.2531423,5.285414,5.423075,5.55,NaN,0,6.222058,0,0
176402,162253595,0.2530302,0.0003642738,0.2501252,0.2531423,5.29909,5.430353,5.71,NaN,0,6.238057,1,0
176847,162362796,0.2526422,0.0005185902,0.2541058,0.2531423,5.312809,5.437015,5.72,NaN,0,6.253438,2,0
177287,162471570,0.2580487,0.0005729198,0.2531153,0.2531423,5.326212,5.443446,5.75,NaN,0,6.27139,2,0
177701,162578020,0.2541991,0.000490427,0.2547574,0.2531423,5.339924,5.449801,5.62,NaN,0,6.28935,3,0
178142,162687578,0.260121,0.0003835559,0.2562283,0.2531423,5.353647,5.455726,5.58,NaN,0,6.306864,4,1
178590,162794919,0.268231,0.0003519058,0.2589891,0.2531423,5.36731,5.460238,5.58,NaN,0,6.323734,5,1
179001,162902542,0.2523766,0.0003584623,0.2569332,0.2531423,5.380966,5.463968,5.76,NaN,0,6.340588,6,2
179447,163008031,0.2567514,0.0005097687,0.2550614,0.2531423,5.394615,5.471275,5.52,NaN,0,6.360163,6,4
179894,163117025,0.2541213,0.0007549226,0.2579352,0.2531423,5.408267,5.478896,5.74,NaN,0,6.38157,7,4
180337,163229104,0.2626332,0.0007013977,0.2602729,0.2531423,5.422241,5.48831,5.49,NaN,0,6.403153,7,4
180781,163336324,0.2553114,0.0004589558,0.2611217,0.2531423,5.43587,5.496404,5.34,NaN,0,6.424865,8,5
181189,163442593,0.2568726,0.0003017187,0.2593065,0.2531423,5.449493,5.503246,5.39,NaN,0,6.444639,8,6
181634,163549712,0.2629361,0.0002805591,0.2630427,0.2531423,5.463168,5.508335,5.54,NaN,0,6.461637,9,6
182077,163658902,0.2600511,0.0003100038,0.2616538,0.2531423,5.476459,5.514479,5.58,NaN,0,6.479683,10,7
182523,163764518,0.2646695,0.0007096529000000001,0.2624983,0.2531423,5.490094,5.522704,5.45,NaN,0,6.500664,11,8
182968,163872487,0.2682945,0.001830965,0.2659416,0.2531423,5.503289,5.531346,5.43,NaN,0,6.521033,11,8
183381,163979471,0.2670567,0.002926797,0.2709396,0.2531423,5.516785,5.538675,5.4,NaN,0,6.538395,11,8
183826,164089494,0.2658355,0.003862143,0.271023,0.2531423,5.530197,5.545737,5.48,NaN,0,6.554467,12,9
184270,164197440,0.2702677,0.004103363,0.2715429,0.2531423,5.543608,5.553092,5.32,NaN,0,6.568978,13,10
184680,164306403,0.2770415,0.004031897,0.275798,0.2531423,5.557033,5.557131,5.32,NaN,0,6.578305,14,9
185121,164411569,0.2620454,0.00332278,0.2750674,0.2531423,5.57044,5.560946,5.41,NaN,0,6.583852,14,11
185533,164521076,0.2462507,0.00219886,0.2626819,0.2531423,5.583552,5.563706,5.22,NaN,0,6.588343,15,13
185978,164630086,0.256368,0.001541495,0.2530665,0.2531423,5.59522,5.568841,5.45,NaN,0,6.594127,13,14
186422,164736631,0.2641795,0.00150758,0.2577083,0.2531423,5.604595,5.571181,5.37,NaN,0,6.596337,12,12
186863,164844593,0.2660748,0.002021164,0.2652929,0.2531423,5.612342,5.572641,5.49,NaN,0,6.597507,11,9
187310,164952399,0.2632045,0.002113074,0.2664739,0.2531423,5.618747,5.574064,5.3,NaN,0,6.597381,10,8
187754,165061414,0.2559986,0.001885355,0.2639725,0.2531423,5.623786,5.577028,5.57,NaN,0,6.598629,9,9
188169,165167075,0.2512951,0.001556367,0.2554633,0.2531423,5.628209,5.58314,5.52,NaN,0,6.602185,8,10
188607,165275720,0.2485225,0.001369476,0.2514216,0.2531423,5.631861,5.590037,5.53,NaN,0,6.605428,7,10
189053,165381149,0.2371158,0.0007943362,0.2457409,0.2531423,5.63488,5.597106,5.44,NaN,0,6.608925,6,10
189493,165488194,0.2351236,0.0004453212,0.2407225,0.2531423,5.637258,5.604922,5.28,NaN,0,6.61224,5,10
189939,165593599,0.2335541,0.0004720539,0.2369459,0.2531423,5.638484,5.610162,5.12,NaN,0,6.614512,3,9
190349,165700825,0.2283015,0.0005012304,0.2354687,0.2531423,5.638507,5.610671,5.07,NaN,0,6.610513,2,8
190796,165806809,0.2813517,0.001308143,0.2520638,0.2531423,5.637502,5.607362,4.48,NaN,0,6.60432,1,1
191236,165913051,0.2915203,0.001882881,0.2786469,0.2531423,5.635634,5.597111,4.95,NaN,0,6.589491,1,-6
191677,166019849,0.2712037,0.002022684,0.2769784,0.2531423,5.633168,5.584465,4.78,NaN,0,6.573869,2,-5
192096,166126855,0.2778965,0.002231836,0.2753027,0.2531423,5.630172,5.572127,4.89,NaN,0,6.556703,2,-5
192535,166235537,0.2528038,0.002071172,0.269324,0.2531423,5.626158,5.56109,5.19,NaN,0,6.540836,1,-4
192981,166340391,0.2363239,0.002022445,0.2517775,0.2531423,5.618638,5.552423,5.02,NaN,0,6.528956,-4,-4
193390,166448879,0.2318254,0.001860082,0.2446715,0.2531423,5.606025,5.542215,5.15,NaN,0,6.515354,-9,-7
193839,166556355,0.2289298,0.00200662,0.2386113,0.2531423,5.587849,5.529505,4.84,NaN,0,6.500103,-16,-12
194281,166664790,0.2261205,0.002269506,0.2259072,0.2531423,5.563275,5.509983,5.11,NaN,0,6.479574,-25,-18
194726,166771691,0.2364627,0.002523333,0.2311195,0.2531423,5.529791,5.481121,4.8,NaN,0,6.45046,-34,-28
195168,166879604,0.2313451,0.002381235,0.2281003,0.2531423,5.488491,5.441607,5.32,NaN,0,6.411794,-43,-38
195582,166987380,0.2365107,0.002000496,0.2347251,0.2531423,5.438316,5.390681,5.38,NaN,0,6.363156,-52,-50
196028,167097106,0.2284832,0.001613215,0.2346059,0.2531423,5.38206,5.332432,5.6,NaN,0,6.307036,-59,-56
196472,167203842,0.2302362,0.001457781,0.2275723,0.2531423,5.318044,5.271285,5.32,NaN,0,6.24624,-65,-63
196913,167312127,0.2287801,0.001181558,0.2338302,0.2531423,5.248813,5.202053,5.27,NaN,0,6.181417,-70,-69
197323,167422216,0.2411313,0.0007825345,0.2355112,0.2531423,5.175282,5.124888,5.36,NaN,0,6.107823,-74,-73
197766,167527920,0.2079854,0.0003279448,0.223368,0.2531423,5.098157,5.051998,5.02,NaN,0,6.036726,-78,-74
198180,167635863,0.2046758,0.0002850592,0.2106948,0.2531423,5.018046,4.976763,5.26,NaN,0,5.965054,-81,-74
198625,167742590,0.2133788,0.0005861968,0.210317,0.2531423,4.935487,4.897066,5.22,NaN,0,5.888004,-84,-76
199068,167851530,0.2376985,0.0005975515,0.2164148,0.2531423,4.850871,4.810738,4.43,NaN,0,5.806933,-86,-81
199514,167958497,0.2252108,0.0003446341,0.224773,0.2531423,4.764518,4.713978,4.53,NaN,0,5.717139,-86,-87
199959,168066793,0.2235792,8.872151e-05,0.2224904,0.2531423,4.676927,4.615935,4.53,NaN,0,5.625542,-86,-87
200407,168176129,0.235422,0.0002198815,0.2276843,0.2531423,4.588212,4.518094,4.5,NaN,0,5.535994,-86,-88
200848,168285349,0.2420781,0.0007641912,0.2358848,0.2531423,4.498636,4.427746,4.42,NaN,0,5.453276,-87,-91
201259,168392209,0.2376005,0.001318291,0.2330083,0.2531423,4.408216,4.340029,4.24,NaN,0,5.371319,-88,-90
201700,168501353,0.2256763,0.001647681,0.2292134,0.2531423,4.317093,4.256265,4.38,NaN,0,5.291545,-90,-89
202147,168608699,0.2395169,0.001545414,0.234139,0.2531423,4.225514,4.174584,4.15,NaN,0,5.212153,-91,-91
202589,168717867,0.2516261,0.001082361,0.2446342,0.2531423,4.13349,4.090798,4.11,NaN,0,5.129656,-92,-94
203038,168827607,0.2466095,0.0007108748,0.2502615,0.2531423,4.038697,3.999374,3.89,NaN,0,5.038576,-93,-96
203479,168935722,0.2430453,0.0005427599,0.2470101,0.2531423,3.945979,3.899547,4.06,NaN,0,4.939786,-93,-96
203890,169043592,0.2324963,0.0004460514,0.2394676,0.2531423,3.852919,3.798534,4.98,NaN,0,4.83811,-92,-94
204335,169151279,0.2514037,0.0003821254,0.2463738,0.2531423,3.759692,3.699957,3.82,NaN,0,4.73896,-92,-95
204780,169261477,0.2389919,0.0004110187,0.2446467,0.2531423,3.668658,3.595818,4.12,NaN,0,4.634325,-91,-94
205192,169366389,0.2255236,0.0004171878,0.2360326,0.2531423,3.57343,3.492477,3.54,NaN,0,4.531336,-94,-96
205633,169474938,0.2354359,0.000392586,0.2354071,0.2531423,3.473433,3.380341,3.63,NaN,0,4.41939,-98,-100
206048,169579894,0.2366199,0.0003022701,0.2356179,0.2531423,3.368787,3.271599,3.24,NaN,0,4.311762,-102,-103
206490,169690017,0.2439781,0.0002874434,0.2390031,0.2531423,3.260338,3.146281,3.16,NaN,0,4.186115,-104,-108
206904,169796156,0.2478781,0.0003900528,0.2498578,0.2531423,3.148654,3.019633,2.95,NaN,0,4.059979,-106,-111
207345,169905616,0.252895,0.0005783141000000001,0.2529618,0.2531423,3.034379,2.875401,3.06,NaN,0,3.917281,-105,-114
207758,170012274,0.2352704,0.0004450381,0.2485679,0.2531423,2.917957,2.740464,3.14,NaN,0,3.783023,-105,-111
208202,170119849,0.2445427,0.0003955662,0.2411124,0.2531423,2.799788,2.606768,2.77,NaN,0,3.650861,-105,-110
208649,170232058,0.2438194,0.0003487915,0.2445038,0.2531423,2.673835,2.474041,2.54,NaN,0,3.519666,-106,-110
209099,170337639,0.2182988,0.000265643,0.2385366,0.2531423,2.552936,2.345317,2.33,NaN,0,3.392805,-106,-107
209508,170444830,0.2192923,0.0001982003,0.2160312,0.2531423,2.431173,2.220203,1.89,NaN,0,3.270391,-107,-102
209954,170550961,0.2224346,0.0002240688,0.2233582,0.2531423,2.308821,2.09181,0.93,NaN,0,3.143173,-106,-104
210394,170659066,0.2423576,0.001036182,0.2280333,0.2531423,2.186804,1.956901,1.18,NaN,0,3.010622,-105,-104
210839,170764899,0.2180697,0.002035066,0.2297367,0.2531423,2.06526,1.821852,1.24,NaN,0,2.876237,-103,-102
211246,170872535,0.2133688,0.002416611,0.2153554,0.2531423,1.947227,1.693452,1.32,NaN,0,2.748576,-102,-98
211691,170977845,0.2269201,0.002659783,0.2221507,0.2531423,1.82628,1.572266,1.42,NaN,0,2.625338,-101,-98
212103,171086491,0.2267973,0.00256215,0.2224929,0.2531423,1.708717,1.451959,2.04,NaN,0,2.503833,-101,-99
212548,171191098,0.228265,0.002047658,0.2263104,0.2531423,1.588151,1.344933,1.76,NaN,0,2.394679,-102,-100
212989,171298031,0.2153002,0.001536071,0.2217726,0.2531423,1.467793,1.238171,1.12,NaN,0,2.286468,-103,-99
213435,171404612,0.2108386,0.001291558,0.2133504,0.2531423,1.347522,1.13401,0.99,NaN,0,2.180017,-105,-99
213703,171511648,0.1958494,0.001238659,0.2105948,0.2531423,1.227319,1.02638,0.49,NaN,0,2.068474,-106,-99
214150,171617845,0.2139146,0.0009595156,0.2140972,0.2531423,1.107231,0.9140454,0.52,NaN,0,1.953079,-106,-101
214560,171725308,0.2210358,0.0006305426,0.2205101,0.2531423,0.9872863,0.7887781,0.59,NaN,0,1.823234,-106,-105
215002,171834915,0.2305428,0.0007749051,0.2278788,0.2531423,0.8673438999999999,0.6590558,0.77,NaN,0,1.690781,-105,-109
215414,171940182,0.2305242,0.0008819848,0.2277115,0.2531423,0.7474086,0.5345976,0.83,NaN,0,1.561653,-104,-106
215857,172049363,0.2455184,0.001068026,0.2334615,0.2531423,0.6285627,0.4130583,-0.28,NaN,0,1.436215,-101,-104
216303,172156195,0.2609221,0.001594663,0.2467062,0.2531423,0.514619,0.2955461,0.24,NaN,0,1.314797,-93,-99
216743,172264266,0.2692333,0.002122521,0.2677813,0.2531423,0.412457,0.1835712,0.12,NaN,0,1.198588,-81,-90
217189,172373372,0.2559366,0.001832664,0.2628667,0.2531423,0.3188629,0.08768581,0.26,NaN,0,1.097621,-69,-76
217632,172482214,0.2615029,0.001662374,0.2603099,0.2531423,0.2352059,0.008240190999999999,0.7,NaN,0,1.012926,-60,-66
218079,172589048,0.2485978,0.001457319,0.2589302,0.2531423,0.1598162,-0.05630581,0.47,NaN,0,0.9441462,-53,-57
218489,172697284,0.2447192,0.001425564,0.2482406,0.2531423,0.09469948,-0.1070332,0.49,NaN,0,0.8893522,-49,-48
218935,172802908,0.2507166,0.001672298,0.2527324,0.2531423,0.03145887,-0.1486036,0.05,NaN,0,0.8445547,-45,-44
219376,172910902,0.2547474,0.001722127,0.2566945,0.2531423,-0.02708928,-0.1870266,0.29,NaN,0,0.8012183,-43,-41
219789,173017528,0.24352,0.001269788,0.255277,0.2531423,-0.08182172,-0.224658,0.14,NaN,0,0.7593526,-41,-38
220231,173123620,0.2488863,0.0008307248,0.2488032,0.2531423,-0.1334196,-0.2609479,-0.03,NaN,0,0.7152808,-40,-35
220675,173235815,0.2452362,0.000404045,0.248785,0.2531423,-0.1835695,-0.2962618,0.25,NaN,0,0.6731919,-38,-35
221119,173343247,0.2445939,0.0001453459,0.2443769,0.2531423,-0.2301795,-0.3264176,0.04,NaN,0,0.6354143,-38,-33
221559,173450399,0.2386014,0.0001150817,0.2465351,0.2531423,-0.274984,-0.3574126,-0.1,NaN,0,0.5978122,-38,-33
221977,173557380,0.2402023,0.0002824515,0.2425244,0.2531423,-0.3182757,-0.3893902,-0.35,NaN,0,0.5585486,-37,-33
222418,173666521,0.2638358,0.000557512,0.2492228,0.2531423,-0.3592121,-0.4242374,-0.36,NaN,0,0.5164077,-37,-34
222865,173773326,0.2621646,0.0009328722999999999,0.2610928,0.2531423,-0.400269,-0.4620496,-0.16,NaN,0,0.4721563,-36,-38
223274,173881601,0.2601516,0.001166463,0.2628879,0.2531423,-0.4405066,-0.5031316,-0.27,NaN,0,0.4237958,-35,-37
223719,173988586,0.2604081,0.001310885,0.2645368,0.2531423,-0.4800683,-0.5440566,-0.03,NaN,0,0.3772709,-35,-38
224161,174096323,0.2508221,0.001217008,0.2582371,0.2531423,-0.51815,-0.5869005,0.02,NaN,0,0.3306046,-34,-36
224607,174202819,0.2415592,0.001063213,0.2489025,0.2531423,-0.5567716,-0.6255733,0.07000000000000001,NaN,0,0.2882011,-33,-33
225048,174310376,0.2373909,0.001024485,0.2433973,0.2531423,-0.5950001,-0.6570286,0.24,NaN,0,0.2530226,-33,-29
225456,174418381,0.2351784,0.001473486,0.240975,0.2531423,-0.6308913,-0.6819624,0.32,NaN,0,0.2262196,-30,-25
225905,174523538,0.2283272,0.001812935,0.2365018,0.2531423,-0.6624878,-0.6987409999999999,-0.01,NaN,0,0.2074727,-27,-20
226346,174630980,0.25255,0.00179103,0.2421311,0.2531423,-0.6904199,-0.7130106,-0.33,NaN,0,0.1937066,-25,-20
226792,174736979,0.2684972,0.001215279,0.2551614,0.2531423,-0.7152752,-0.730077,-0.37,NaN,0,0.177136,-23,-22
227201,174845032,0.2696492,0.001355946,0.2667216,0.2531423,-0.7376401,-0.7490793,-0.33,NaN,0,0.1596597,-21,-23
227647,174952596,0.2472562,0.001382068,0.258276,0.2531423,-0.7578458,-0.7662207,-0.24,NaN,0,0.143266,-19,-20
228088,175060239,0.2508402,0.001365066,0.253512,0.2531423,-0.7763504,-0.7818692,-0.23,NaN,0,0.1298147,-18,-17
228534,175165883,0.263367,0.001398623,0.2590844,0.2531423,-0.7934369,-0.7966244,-0.51,NaN,0,0.1162344,-17,-18
228976,175274509,0.2541463,0.001342386,0.2622249,0.2531423,-0.8093626,-0.8118135,-0.4,NaN,0,0.1015489,-15,-16
229421,175379833,0.2347352,0.00118649,0.2488344,0.2531423,-0.8243298999999999,-0.8236539,-0.26,NaN,0,0.0917379,-15,-12
229833,175487518,0.2656474,0.001641452,0.2507165,0.2531423,-0.8381262,-0.8333954,-0.47,NaN,0,0.08325526,-15,-13
230278,175595289,0.2668257,0.002061993,0.2641661,0.2531423,-0.8515748,-0.8459195,-0.27,NaN,0,0.07173827000000001,-14,-16
230720,175703498,0.2626548,0.001945913,0.2632496,0.2531423,-0.8644047,-0.8569688,-0.45,NaN,0,0.06068894,-14,-15
231166,175810540,0.260717,0.001704127,0.2650853,0.2531423,-0.8767564,-0.8688394,-0.14,NaN,0,0.05051973,-13,-15
231606,175919925,0.2422343,0.001098931,0.2524538,0.2531423,-0.8887943,-0.8795469,-0.23,NaN,0,0.04217729,-13,-12
232018,176027757,0.2486417,0.0006956011,0.2452346,0.2531423,-0.9006150000000001,-0.8863791,-0.14,NaN,0,0.03763399,-13,-10
232462,176133888,0.2502295,0.0004771352,0.2498692,0.2531423,-0.9123678,-0.8924641,-0.06,NaN,0,0.03307477,-14,-11
232906,176242703,0.2442359,0.0004079938,0.2500676,0.2531423,-0.9240474,-0.8965455,-0.11,NaN,0,0.03051928,-15,-12
233351,176351322,0.2474239,0.0003909022,0.2479843,0.2531423,-0.9359204,-0.8976041,-0.27,NaN,0,0.03183344,-15,-12
233760,176458899,0.2474894,0.0004131049,0.2533473,0.2531423,-0.9474699,-0.9020503,-0.06,NaN,0,0.02976766,-16,-14
234178,176564594,0.2245452,0.0003025234,0.235742,0.2531423,-0.9607728,-0.9069198000000001,-0.18,NaN,0,0.02624854,-21,-15
234618,176672492,0.243508,0.000312984,0.2366626,0.2531423,-0.9783009,-0.9152444,-0.11,NaN,0,0.02030423,-26,-21
235067,176779617,0.2432968,0.0003254116,0.2406878,0.2531423,-0.9995999,-0.9306236,-0.22,NaN,0,0.007290199,-31,-27
235508,176888083,0.2322587,0.000302732,0.2374526,0.2531423,-1.02397,-0.9512521,-0.21,NaN,0,-0.01096557,-34,-30
235954,176995397,0.2321164,0.000281468,0.2367342,0.2531423,-1.050899,-0.9759501,0.03,NaN,0,-0.03261189,-37,-32
236399,177104958,0.2326616,0.0003325194,0.2334653,0.2531423,-1.080008,-0.9995705,-0.14,NaN,0,-0.05385952,-39,-35
236810,177212298,0.2414538,0.0006079078,0.2374043,0.2531423,-1.110852,-1.026241,-0.32,NaN,0,-0.07798943999999999,-41,-38
237253,177320318,0.2654154,0.001036078,0.2519403,0.2531423,-1.142348,-1.057443,-0.35,NaN,0,-0.1068262,-40,-41
237668,177427009,0.2508764,0.001481205,0.2627,0.2531423,-1.170995,-1.089517,-0.2,NaN,0,-0.138298,-35,-38
238109,177534225,0.2593417,0.001776993,0.2557569,0.2531423,-1.194816,-1.109332,-0.53,NaN,0,-0.1567466,-31,-32
238554,177644121,0.2379055,0.001729086,0.2463378,0.2531423,-1.214505,-1.125792,-0.48,NaN,0,-0.1752362,-27,-25
238967,177750558,0.2334083,0.001339167,0.2371579,0.2531423,-1.23078,-1.137094,-0.27,NaN,0,-0.1877285,-24,-20
239411,177860328,0.2275964,0.0008576363,0.2361,0.2531423,-1.244232,-1.143654,-0.27,NaN,0,-0.1971491,-22,-16
239857,177966624,0.2282791,0.0005509853,0.2296656,0.2531423,-1.255351,-1.14562,-0.49,NaN,0,-0.2019074,-21,-15
240266,178073539,0.2241863,0.0005164593,0.2245132,0.2531423,-1.264321,-1.145898,-0.66,NaN,0,-0.2058248,-20,-13
240712,178180268,0.2378526,0.0006531923999999999,0.2335771,0.2531423,-1.271957,-1.147745,-1.01,NaN,0,-0.2137681,-19,-14
241153,178290503,0.2432171,0.0008489639,0.236854,0.2531423,-1.278267,-1.150777,-1.06,NaN,0,-0.2222851,-18,-16
241597,178398723,0.2400546,0.0007975847,0.2427401,0.2531423,-1.283494,-1.159868,-0.97,NaN,0,-0.2376404,-17,-17
242042,178508380,0.2187239,0.0004404932,0.2267671,0.2531423,-1.288752,-1.170875,-0.87,NaN,0,-0.2540564,-17,-15
242488,178616789,0.242435,0.0002739429,0.2344737,0.2531423,-1.295011,-1.184091,-0.85,NaN,0,-0.2737044,-18,-17
242896,178724843,0.2143621,0.0001567155,0.2255177,0.2531423,-1.302256,-1.198236,-0.36,NaN,0,-0.2958749,-19,-16
243338,178834597,0.1956253,1.998246e-05,0.2045149,0.2531423,-1.312765,-1.209836,-0.86,NaN,0,-0.3164554,-24,-16
243787,178941581,0.1412392,1.046062e-05,0.1887422,0.2531423,-1.328556,-1.220856,-0.92,NaN,0,-0.3347455,-29,-15
244228,179049411,-0.006452829,-6.002421e-05,0.04479848,0.2531423,-1.348006,-1.213314,-0.83,NaN,0,-0.3324531,-35,11
244642,179155888,0.1275806,0.002379552,0.1133472,0.2531423,-1.370803,-1.201886,-0.83,NaN,0,-0.3218715,-42,-7
245084,179264054,0.04317477,0.0007850714,0.06441908,0.2531423,-1.395535,-1.197808,-0.53,NaN,0,-0.3177935,-47,-5
245529,179370219,0.04070631,0.0004701652,0.05627942,0.2531423,-1.423175,-1.196409,-1.11,NaN,0,-0.3155473,-52,-10
245972,179477410,0.01006229,2.720021e-05,0.03314106,0.2531423,-1.452686,-1.201396,-1.29,NaN,0,-0.3178269,-57,-12
246415,179583791,-0.1203321,-2.019107e-06,0,0.2531423,-1.472893,-1.205759,-0.95,NaN,0,-0.3186266,-59,-1
246826,179691631,-0.05657548,-2.011657e-07,0,0.2531423,-1.472893,-1.206311,-1,NaN,0,-0.3176603,-59,-6
247271,179797257,-0.09229666,-3.100187e-05,0,0.2531423,-1.472893,-1.208243,-0.98,NaN,0,-0.3195919,-59,-4
247714,179903509,-0.1135844,-3.20375e-05,0,0.2531423,-1.472893,-1.204379,-1.16,NaN,0,-0.3157287,-59,-4
248131,180009984,-0.1403903,-2.008677e-05,0,0.2531423,-1.472893,-1.201794,-0.91,NaN,0,-0.3133187,-59,-4
248572,180117402,-0.1661353,-4.224479e-05,0,0.2531423,-1.472893,-1.199374,-0.96,NaN,0,-0.3108989,-60,-4
249020,180225836,-0.1652407,-2.665818e-05,0,0.2531423,-1.472893,-1.198082,-1.11,NaN,0,-0.3087526,-60,-4
249459,180334098,-0.1597172,-2.640486e-05,0,0.2531423,-1.472893,-1.198509,-1.29,NaN,0,-0.3096984,-60,-5
249870,180441707,-0.1626349,-3.528595e-05,0,0.2531423,-1.472893,-1.201187,-1.13,NaN,0,-0.3123762,-59,-5
250315,180549621,-0.1555268,-2.484024e-05,0,0.2531423,-1.472893,-1.201721,-1.11,NaN,0,-0.3129096,-59,-4
250723,180657861,-0.1565291,-2.942979e-05,0,0.2531423,-1.472893,-1.203644,-1.07,NaN,0,-0.3148326,-59,-5
