LineNo,TimeUS,Instance,RPM,RawRPM,Volt,Curr,Temp,CTot,MotTemp,Err
1595,1.1909e+08,0,0,0,15.69,0.04,31,0,0,0
2051,1.1919e+08,0,0,0,15.69,0.04,31,0,0,0
2543,1.1931e+08,0,0,0,15.68,0.04,31,0,0,0
3039,1.1942e+08,0,0,0,15.69,0.04,31,0,0,0
3493,1.1953e+08,0,0,0,15.69,0.04,31,0,0,0
3942,1.1963e+08,0,0,0,15.69,0.04,31,0,0,0
4400,1.1973e+08,0,0,0,15.68,0.04,31,0,0,0
4893,1.1985e+08,0,0,0,15.69,0.04,31,0,0,0
5347,1.1995e+08,0,0,0,15.69,0.04,31,0,0,0
5801,1.2006e+08,0,0,0,15.69,0.03,31,0,0,0
6252,1.2016e+08,0,0,0,15.69,0.04,31,0,0,0
6745,1.2028e+08,0,0,0,15.69,0.03,31,0,0,0
7198,1.2038e+08,0,7,485,15.66,0.09,31,0,0,0
7649,1.2049e+08,0,492,885,15.67,0.14,31,0,0,0
8149,1.206e+08,0,888,1157,15.67,0.13,31,0,0,0
8648,1.2071e+08,0,1161,1214,15.67,0.11,31,0,0,0
9106,1.2082e+08,0,1216,1242,15.66,0.12,31,0,0,0
9561,1.2093e+08,0,1251,1471,15.65,0.24,31,0,0,0
10056,1.2105e+08,0,1525,2100,15.53,0.75,31,0,0,0
10508,1.2115e+08,0,2165,2771,15.44,1.66,31,0,0,0
10926,1.2126e+08,0,2795,2971,15.41,1.43,31,0,0,0
11380,1.2137e+08,0,3015,3357,15.36,2.44,31,0,0,0
11789,1.2147e+08,0,3411,4100,15.19,2.95,31,0,0,0
12240,1.2158e+08,0,4155,5242,15.02,4.28,31,0,0,0
12699,1.2169e+08,0,5302,6085,14.85,5.64,31,0,0,0
13152,1.218e+08,0,6127,6685,14.95,5.49,31,0,0,0
13609,1.2191e+08,0,6681,6628,14.98,5.49,31,0,0,0
14060,1.2201e+08,0,6641,6814,14.97,5.39,31,1,0,0
14510,1.2212e+08,0,6814,6814,14.98,5.96,31,1,0,0
15005,1.2225e+08,0,6812,6800,14.9,5.69,31,1,0,0
15456,1.2235e+08,0,6810,6914,15.01,5.69,31,1,0,0
15906,1.2246e+08,0,6920,6985,14.94,5.48,31,1,0,0
16362,1.2257e+08,0,6982,6957,14.91,6.24,31,1,0,0
16770,1.2267e+08,0,6956,6942,15,5.96,31,2,0,0
17219,1.2278e+08,0,6950,7057,14.99,6.04,31,2,0,0
17635,1.2289e+08,0,7054,6971,15.08,5.9,31,2,0,0
18088,1.2299e+08,0,6971,6971,15.05,6.47,31,2,0,0
19258,1.2343e+08,0,6876,6285,15.11,3.86,31,3,0,0
19708,1.2355e+08,0,6283,6271,15.15,4.09,32,3,0,0
20112,1.2365e+08,0,6267,6085,15.11,3.56,31,3,0,0
20559,1.2375e+08,0,6078,5928,15.13,3.24,32,3,0,0
21006,1.2387e+08,0,5915,5785,15.05,3.55,32,3,0,0
21414,1.2397e+08,0,5787,5971,15.19,3.73,32,3,0,0
22262,1.2418e+08,0,5969,5871,15.13,3.79,32,4,0,0
22715,1.243e+08,0,5880,6014,15.13,3.99,32,4,0,0
23173,1.2441e+08,0,6020,6085,15.09,3.86,32,4,0,0
23575,1.2451e+08,0,6092,6171,15.01,4.26,32,4,0,0
23982,1.2462e+08,0,6174,6457,15.01,4.8,32,4,0,0
24473,1.2474e+08,0,6460,6500,15.03,5.26,32,4,0,0
24953,1.2485e+08,0,6500,6514,15.1,4.4,32,4,0,0
25358,1.2495e+08,0,6507,6257,15.05,4.29,32,5,0,0
25811,1.2507e+08,0,6268,6385,15.07,4.59,32,5,0,0
26257,1.2517e+08,0,6379,6328,15.1,4.16,32,5,0,0
26698,1.2528e+08,0,6327,6314,15.19,4.26,32,5,0,0
27148,1.2539e+08,0,6308,6200,15.14,4.04,32,5,0,0
27561,1.255e+08,0,6196,6114,15.12,4.01,32,5,0,0
28054,1.2561e+08,0,6105,6057,15.12,3.93,32,5,0,0
28451,1.2571e+08,0,6069,6242,15.05,4.14,32,5,0,0
28862,1.2582e+08,0,6242,6242,15.12,4.07,32,5,0,0
29713,1.2603e+08,0,6242,6314,15.12,4.4,32,6,0,0
30162,1.2614e+08,0,6318,6357,15.05,4.62,32,6,0,0
30568,1.2624e+08,0,6349,6228,15.09,4.03,32,6,0,0
31020,1.2636e+08,0,6208,6000,15.05,3.72,32,6,0,0
31459,1.2647e+08,0,6007,6157,15.06,4.24,32,6,0,0
31913,1.2658e+08,0,6157,6157,15.06,4.22,32,6,0,0
32353,1.2668e+08,0,6162,6271,15.07,4.54,32,6,0,0
32805,1.2679e+08,0,6275,6357,15.05,4.26,32,7,0,0
33215,1.269e+08,0,6344,6157,15.04,4.1,32,7,0,0
33663,1.2701e+08,0,6141,6000,15.07,4.2,32,7,0,0
34120,1.2713e+08,0,6001,6014,14.96,4.54,32,7,0,0
34523,1.2723e+08,0,6025,6228,15.01,4.58,32,7,0,0
34930,1.2733e+08,0,6231,6471,15.02,4.92,32,7,0,0
35414,1.2745e+08,0,6447,6242,15.07,4.43,33,7,0,0
35824,1.2755e+08,0,6239,6185,15.01,4.39,33,8,0,0
36268,1.2766e+08,0,6191,6285,15.04,4.55,33,8,0,0
36720,1.2777e+08,0,6291,6357,15.05,4.56,33,8,0,0
37208,1.2789e+08,0,6344,6214,15.08,3.78,33,8,0,0
37616,1.2799e+08,0,6176,5800,15.02,3.24,33,8,0,0
38064,1.2811e+08,0,5815,5971,14.98,3.92,33,8,0,0
38511,1.2821e+08,0,5965,5914,15.06,3.91,33,8,0,0
38949,1.2831e+08,0,5938,6285,14.98,4.29,33,8,0,0
39396,1.2843e+08,0,6259,6000,15.02,3.72,33,8,0,0
39838,1.2853e+08,0,5986,5857,14.94,4.17,33,9,0,0
40284,1.2865e+08,0,5887,6171,14.96,4.62,33,9,0,0
40737,1.2876e+08,0,6198,6471,14.98,5.22,33,9,0,0
41138,1.2886e+08,0,6489,6742,14.97,5.54,33,9,0,0
41984,1.2907e+08,0,6740,6514,14.98,4.86,33,9,0,0
42474,1.2919e+08,0,6512,6500,14.99,4.89,33,10,0,0
42877,1.2929e+08,0,6494,6357,14.98,4.8,33,10,0,0
43331,1.294e+08,0,6366,6457,15,4.45,33,10,0,0
43736,1.2951e+08,0,6447,6328,14.97,4.65,33,10,0,0
44225,1.2962e+08,0,6333,6400,15.04,4.4,33,10,0,0
45525,1.2994e+08,0,6400,6414,14.96,4.63,33,11,0,0
45932,1.3005e+08,0,6411,6357,14.97,4.41,33,11,0,0
46420,1.3016e+08,0,6349,6271,15,4.48,33,11,0,0
46819,1.3027e+08,0,6265,6200,15.04,3.61,33,11,0,0
47278,1.3038e+08,0,6195,6114,14.94,4.5,33,11,0,0
47724,1.3049e+08,0,6147,6485,14.94,4.63,33,11,0,0
48126,1.3059e+08,0,6482,6385,14.97,4.61,33,11,0,0
48541,1.307e+08,0,6389,6485,14.9,4.79,33,11,0,0
49032,1.3082e+08,0,6466,6300,15.04,4.33,33,12,0,0
49473,1.3092e+08,0,6295,6200,14.97,4.34,33,12,0,0
49924,1.3104e+08,0,6207,6285,14.96,4.56,33,12,0,0
50817,1.3126e+08,0,6283,6257,14.94,4.42,33,12,0,0
51220,1.3136e+08,0,6259,6285,14.9,4.45,33,12,0,0
51669,1.3147e+08,0,6288,6371,14.99,4.37,33,12,0,0
52116,1.3157e+08,0,6366,6314,15.01,4.34,33,13,0,0
52520,1.3168e+08,0,6307,6171,14.97,3.87,33,13,0,0
52974,1.3179e+08,0,6172,6185,15.02,4.15,33,13,0,0
53416,1.319e+08,0,6180,6071,15.06,3.62,33,13,0,0
53864,1.3201e+08,0,6072,6100,15,3.83,33,13,0,0
54302,1.3211e+08,0,6098,6071,14.98,4.12,34,13,0,0
54749,1.3223e+08,0,6089,6285,14.94,4.49,34,13,0,0
55164,1.3233e+08,0,6289,6328,14.92,4.64,34,13,0,0
56015,1.3254e+08,0,6328,6400,14.92,4.88,34,14,0,0
56459,1.3265e+08,0,6400,6428,14.98,4.79,34,14,0,0
56952,1.3277e+08,0,6432,6500,14.95,4.98,34,14,0,0
57402,1.3288e+08,0,6497,6471,14.9,4.72,34,14,0,0
57807,1.3298e+08,0,6471,6471,14.91,4.83,34,14,0,0
58254,1.331e+08,0,6473,6500,14.89,4.97,34,14,0,0
58704,1.3321e+08,0,6494,6414,14.91,4.76,34,14,0,0
59113,1.3332e+08,0,6400,6228,14.97,4.54,34,15,0,0
59561,1.3343e+08,0,6226,6214,14.99,4.05,34,15,0,0
60000,1.3353e+08,0,6215,6242,14.96,4.45,34,15,0,0
60454,1.3365e+08,0,6238,6200,14.96,4.26,34,15,0,0
60901,1.3375e+08,0,6207,6314,15.03,4.4,34,15,0,0
61311,1.3385e+08,0,6316,6442,14.97,4.47,34,15,0,0
61800,1.3397e+08,0,6423,6171,14.98,4.38,34,15,0,0
62240,1.3408e+08,0,6182,6328,14.94,4.44,34,16,0,0
62684,1.3418e+08,0,6325,6285,15,4.36,34,16,0,0
63134,1.343e+08,0,6280,6228,15.04,4.41,34,16,0,0
63587,1.3441e+08,0,6219,6114,15.02,4.09,34,16,0,0
64035,1.3452e+08,0,6124,6228,15,4.26,34,16,0,0
64440,1.3462e+08,0,6225,6185,15,4.01,34,16,0,0
64890,1.3473e+08,0,6190,6242,15.01,4.04,34,16,0,0
65293,1.3484e+08,0,6239,6085,15.01,3.8,34,17,0,0
66191,1.3506e+08,0,6084,6071,15,4.07,34,17,0,0
66639,1.3517e+08,0,6085,6285,15.01,3.99,34,17,0,0
67083,1.3528e+08,0,6278,6185,14.94,4.3,34,17,0,0
67495,1.3538e+08,0,6186,6285,14.99,4.4,34,17,0,0
67981,1.355e+08,0,6279,6228,14.95,4.19,34,17,0,0
68467,1.3561e+08,0,6219,6128,14.92,4.34,34,17,0,0
68867,1.3571e+08,0,6132,6257,14.95,4.49,34,18,0,0
69323,1.3582e+08,0,6258,6271,14.92,4.56,34,18,0,0
69769,1.3593e+08,0,6278,6357,14.99,4.47,34,18,0,0
70171,1.3603e+08,0,6359,6428,14.97,4.68,34,18,0,0
70621,1.3614e+08,0,6424,6342,14.95,4.22,34,18,0,0
71066,1.3625e+08,0,6339,6285,14.97,4.1,34,18,0,0
71517,1.3636e+08,0,6288,6342,14.98,4.02,34,18,0,0
71926,1.3647e+08,0,6335,6200,15,4.05,34,18,0,0
72417,1.3659e+08,0,6180,5985,15,3.99,34,19,0,0
72819,1.3669e+08,0,5992,6100,14.96,4.11,34,19,0,0
73271,1.368e+08,0,6100,6114,15.02,3.64,34,19,0,0
73718,1.3691e+08,0,6103,5971,14.98,3.89,34,19,0,0
74168,1.3702e+08,0,5963,5914,14.95,3.8,34,19,0,0
74608,1.3713e+08,0,5920,6014,15.02,3.87,34,19,0,0
75059,1.3724e+08,0,6021,6128,14.98,4.13,34,19,0,0
75466,1.3734e+08,0,6129,6157,14.95,3.98,34,19,0,0
75914,1.3746e+08,0,6153,6114,15.01,3.86,34,20,0,0
76323,1.3756e+08,0,6111,6042,15,3.85,34,20,0,0
76757,1.3766e+08,0,6043,6100,14.93,4.05,34,20,0,0
77257,1.3778e+08,0,6105,6171,14.9,4.64,34,20,0,0
78071,1.3799e+08,0,6172,6242,14.93,4.61,34,20,0,0
78518,1.381e+08,0,6248,6400,14.95,4.97,34,20,0,0
78972,1.3822e+08,0,6405,6457,14.91,4.48,34,21,0,0
79815,1.3843e+08,0,6457,6485,14.91,4.88,34,21,0,0
80262,1.3854e+08,0,6483,6428,14.9,4.73,34,21,0,0
80747,1.3865e+08,0,6428,6428,14.85,4.75,34,21,0,0
81156,1.3875e+08,0,6426,6385,14.87,4.77,34,21,0,0
81610,1.3887e+08,0,6382,6314,14.96,4.72,35,21,0,0
82055,1.3898e+08,0,6314,6328,14.89,4.62,35,21,0,0
82495,1.3908e+08,0,6330,6442,14.89,4.9,34,22,0,0
82988,1.392e+08,0,6442,6442,14.92,4.89,35,22,0,0
83393,1.3931e+08,0,6443,6471,14.95,4.62,35,22,0,0
83834,1.3941e+08,0,6465,6342,14.92,4.26,35,22,0,0
84279,1.3952e+08,0,6333,6214,14.87,4.21,34,22,0,0
84729,1.3964e+08,0,6231,6385,14.88,4.84,35,22,0,0
85175,1.3974e+08,0,6380,6314,14.86,4.66,35,22,0,0
85585,1.3985e+08,0,6312,6271,14.91,4.46,35,23,0,0
86070,1.3996e+08,0,6273,6300,15,4.22,35,23,0,0
86475,1.4007e+08,0,6286,5985,15.08,4.07,35,23,0,0
86962,1.4018e+08,0,5997,6157,15.04,3.78,35,23,0,0
87368,1.4028e+08,0,6158,6228,15.02,4.14,35,23,0,0
87817,1.404e+08,0,6209,5985,15.07,3.58,35,23,0,0
88258,1.405e+08,0,5992,6100,14.96,4.26,35,23,0,0
88712,1.4062e+08,0,6086,5971,14.88,3.95,35,23,0,0
89114,1.4072e+08,0,5974,6171,14.95,4.32,35,24,0,0
89562,1.4082e+08,0,6173,6300,14.97,4.37,35,24,0,0
90004,1.4093e+08,0,6304,6385,14.87,4.72,35,24,0,0
90449,1.4104e+08,0,6387,6485,14.82,4.81,35,24,0,0
90941,1.4116e+08,0,6480,6442,14.84,4.81,35,24,0,0
91351,1.4127e+08,0,6447,6514,14.84,5.27,35,24,0,0
91799,1.4138e+08,0,6522,6600,14.85,5.3,35,24,0,0
92246,1.4149e+08,0,6606,6685,14.85,5.09,35,25,0,0
92692,1.416e+08,0,6681,6657,14.82,5.23,35,25,0,0
93103,1.417e+08,0,6659,6700,14.84,4.91,35,25,0,0
93551,1.4181e+08,0,6699,6657,14.86,5.15,35,25,0,0
94845,1.4213e+08,0,6656,6542,14.85,4.91,35,26,0,0
95370,1.4226e+08,0,6538,6500,14.86,4.49,35,26,0,0
95784,1.4235e+08,0,6498,6471,14.88,4.6,35,26,0,0
96669,1.4257e+08,0,6468,6328,14.88,4.51,35,26,0,0
97118,1.4269e+08,0,6332,6371,14.87,4.52,35,26,0,0
97567,1.4279e+08,0,6366,6300,14.88,4.28,35,26,0,0
98054,1.4291e+08,0,6291,6200,14.88,4.23,35,27,0,0
98459,1.4301e+08,0,6209,6342,14.86,4.37,35,27,0,0
98905,1.4313e+08,0,6358,6528,14.89,4.39,35,27,0,0
99350,1.4323e+08,0,6501,6157,14.89,4.28,35,27,0,0
99807,1.4335e+08,0,6163,6228,14.86,4.22,35,27,0,0
1.0021e+05,1.4345e+08,0,6228,6242,14.87,4.49,35,27,0,0
1.011e+05,1.4368e+08,0,6241,6228,14.83,4.27,35,27,0,0
1.0155e+05,1.4378e+08,0,6222,6085,14.81,4.4,35,28,0,0
1.02e+05,1.4389e+08,0,6097,6228,14.74,4.89,35,28,0,0
1.0244e+05,1.4399e+08,0,6230,6342,14.77,4.69,35,28,0,0
1.0289e+05,1.4411e+08,0,6348,6414,14.82,5.05,35,28,0,0
1.033e+05,1.4421e+08,0,6423,6528,14.83,5.11,35,28,0,0
1.0375e+05,1.4433e+08,0,6521,6457,14.82,4.6,35,28,0,0
1.042e+05,1.4444e+08,0,6432,6300,14.82,4.84,35,28,0,0
1.0504e+05,1.4465e+08,0,6305,6442,14.84,4.95,35,29,0,0
1.055e+05,1.4476e+08,0,6440,6414,14.86,4.71,35,29,0,0
1.0594e+05,1.4487e+08,0,6425,6542,14.82,5.11,35,29,0,0
1.0639e+05,1.4498e+08,0,6545,6585,14.8,5.25,35,29,0,0
1.0684e+05,1.4509e+08,0,6585,6585,14.77,4.62,35,29,0,0
1.0728e+05,1.452e+08,0,6575,6485,14.75,5.58,35,30,0,0
1.0769e+05,1.453e+08,0,6486,6557,14.87,5.51,35,30,0,0
1.0818e+05,1.4542e+08,0,6558,6571,14.89,4.92,35,30,0,0
1.0859e+05,1.4552e+08,0,6561,6428,14.9,4.53,35,30,0,0
1.0904e+05,1.4563e+08,0,6427,6414,14.93,4.56,35,30,0,0
1.0949e+05,1.4574e+08,0,6394,6128,14.91,4.4,35,30,0,0
1.0989e+05,1.4584e+08,0,6132,6228,14.91,4.51,35,30,0,0
1.1034e+05,1.4595e+08,0,6246,6485,14.93,4.58,35,30,0,0
1.1079e+05,1.4607e+08,0,6471,6285,14.92,4.48,35,31,0,0
1.1124e+05,1.4618e+08,0,6276,6157,14.92,4.5,35,31,0,0
1.1164e+05,1.4628e+08,0,6176,6357,14.86,4.23,35,31,0,0
1.1209e+05,1.4639e+08,0,6356,6342,14.91,4.35,35,31,0,0
1.1254e+05,1.465e+08,0,6343,6371,14.81,4.64,35,31,0,0
1.1299e+05,1.4661e+08,0,6366,6314,14.91,4.15,35,31,0,0
1.1344e+05,1.4672e+08,0,6315,6328,14.87,4.86,35,31,0,0
1.1388e+05,1.4683e+08,0,6337,6500,14.85,4.84,35,32,0,0
1.1432e+05,1.4694e+08,0,6490,6371,14.87,4.76,35,32,0,0
1.1473e+05,1.4704e+08,0,6364,6228,14.89,4.3,36,32,0,0
1.1562e+05,1.4726e+08,0,6228,6242,14.95,4.21,35,32,0,0
1.1607e+05,1.4737e+08,0,6247,6357,14.83,4.67,35,32,0,0
1.1656e+05,1.4749e+08,0,6354,6328,14.89,4.8,36,33,0,0
1.1696e+05,1.4759e+08,0,6332,6442,14.92,4.7,36,33,0,0
1.1737e+05,1.4769e+08,0,6438,6214,14.89,4.3,36,33,0,0
1.1787e+05,1.4781e+08,0,6226,6457,14.88,5.09,36,33,0,0
1.1827e+05,1.4791e+08,0,6441,6142,14.89,4.29,36,33,0,0
1.1873e+05,1.4802e+08,0,6139,6100,14.91,3.95,36,33,0,0
1.1917e+05,1.4814e+08,0,6115,6314,14.84,4.56,36,33,0,0
1.2002e+05,1.4835e+08,0,6314,6328,14.82,4.49,36,33,0,0
1.2047e+05,1.4846e+08,0,6321,6228,14.78,4.75,36,34,0,0
1.2092e+05,1.4857e+08,0,6247,6528,14.83,5.04,36,34,0,0
1.2133e+05,1.4868e+08,0,6531,6585,14.83,4.99,36,34,0,0
1.2178e+05,1.4879e+08,0,6582,6514,14.84,5.14,36,34,0,0
1.2222e+05,1.489e+08,0,6516,6557,14.8,5.51,36,34,0,0
1.2268e+05,1.4901e+08,0,6564,6671,14.88,5.51,36,34,0,0
1.2312e+05,1.4912e+08,0,6660,6514,14.93,4.38,36,35,0,0
1.2357e+05,1.4923e+08,0,6506,6414,14.88,4.69,36,35,0,0
1.2398e+05,1.4933e+08,0,6418,6485,14.94,4.72,36,35,0,0
1.2438e+05,1.4943e+08,0,6475,6357,14.91,4.28,36,35,0,0
1.2483e+05,1.4954e+08,0,6359,6400,14.86,4.74,36,35,0,0
1.2572e+05,1.4976e+08,0,6396,6300,14.92,4.46,36,35,0,0
1.2613e+05,1.4987e+08,0,6298,6200,14.85,4.36,36,35,0,0
1.2662e+05,1.4998e+08,0,6200,6200,14.9,4.02,36,36,0,0
1.2702e+05,1.5009e+08,0,6194,6042,14.85,3.95,36,36,0,0
1.2747e+05,1.5019e+08,0,6047,6171,14.85,4.71,36,36,0,0
1.2796e+05,1.5031e+08,0,6171,6171,14.86,4.21,36,36,0,0
1.2877e+05,1.5052e+08,0,6170,6114,14.88,4.12,36,36,0,0
1.2922e+05,1.5063e+08,0,6109,6000,14.88,4.17,36,36,0,0
1.2971e+05,1.5075e+08,0,6005,6057,14.86,4.29,36,37,0,0
1.3015e+05,1.5085e+08,0,6059,6114,14.89,4.31,36,37,0,0
1.306e+05,1.5096e+08,0,6111,6057,14.88,4.49,36,37,0,0
1.3105e+05,1.5107e+08,0,6075,6314,14.88,4.8,36,37,0,0
1.315e+05,1.5118e+08,0,6311,6285,14.86,4.6,36,37,0,0
1.319e+05,1.5128e+08,0,6284,6257,14.83,4.69,36,37,0,0
1.3235e+05,1.514e+08,0,6263,6385,14.9,4.57,36,37,0,0
1.3276e+05,1.515e+08,0,6384,6342,14.84,5.05,36,38,0,0
1.3325e+05,1.5162e+08,0,6338,6300,14.87,4.67,36,38,0,0
1.3369e+05,1.5172e+08,0,6292,6200,14.91,4.89,36,38,0,0
1.3414e+05,1.5184e+08,0,6198,6185,14.91,4.79,36,38,0,0
1.3458e+05,1.5194e+08,0,6197,6371,14.86,4.62,36,38,0,0
1.3499e+05,1.5205e+08,0,6368,6300,14.86,4.42,36,38,0,0
1.3548e+05,1.5216e+08,0,6304,6357,14.91,4.65,36,38,0,0
1.3592e+05,1.5227e+08,0,6352,6314,14.88,4.5,36,38,0,0
1.3633e+05,1.5237e+08,0,6313,6271,14.89,4.44,36,39,0,0
1.3677e+05,1.5248e+08,0,6270,6257,14.89,4.74,36,39,0,0
1.3722e+05,1.5259e+08,0,6254,6185,14.8,4.55,36,39,0,0
1.377e+05,1.527e+08,0,6179,6128,14.88,4.08,36,39,0,0
1.3815e+05,1.5281e+08,0,6122,6057,14.89,4.31,36,39,0,0
1.3859e+05,1.5292e+08,0,6070,6200,14.86,4.45,36,39,0,0
1.39e+05,1.5302e+08,0,6200,6200,14.83,4.4,36,39,0,0
1.3945e+05,1.5313e+08,0,6201,6214,14.82,4.65,36,40,0,0
1.3985e+05,1.5324e+08,0,6215,6314,14.87,4.68,36,40,0,0
1.4034e+05,1.5335e+08,0,6308,6257,14.83,4.33,36,40,0,0
1.4078e+05,1.5346e+08,0,6255,6228,14.82,4.27,36,40,0,0
1.4123e+05,1.5357e+08,0,6220,6114,14.92,4.36,36,40,0,0
1.4168e+05,1.5368e+08,0,6126,6257,14.83,4.53,36,40,0,0
1.4213e+05,1.5379e+08,0,6242,6114,14.88,4.25,36,40,0,0
1.4253e+05,1.539e+08,0,6125,6285,14.86,4.3,36,41,0,0
1.4298e+05,1.54e+08,0,6276,6171,14.84,4.41,36,41,0,0
1.4388e+05,1.5423e+08,0,6178,6314,14.88,4.42,36,41,0,0
1.4428e+05,1.5432e+08,0,6305,6128,14.88,4.37,37,41,0,0
1.4472e+05,1.5444e+08,0,6139,6242,14.91,4.58,36,41,0,0
1.4513e+05,1.5454e+08,0,6243,6328,14.78,4.57,36,41,0,0
1.4562e+05,1.5466e+08,0,6312,6157,14.88,4.22,37,41,0,0
1.4607e+05,1.5476e+08,0,6163,6228,14.86,4.75,36,42,0,0
1.4648e+05,1.5487e+08,0,6237,6357,14.77,4.3,37,42,0,0
1.4692e+05,1.5498e+08,0,6347,6228,14.77,4.45,36,42,0,0
1.4733e+05,1.5508e+08,0,6225,6157,14.81,4.23,36,42,0,0
1.4778e+05,1.5519e+08,0,6157,6171,14.86,4.52,37,42,0,0
1.4826e+05,1.5531e+08,0,6177,6242,14.87,4.53,37,42,0,0
1.4871e+05,1.5542e+08,0,6252,6357,14.85,4.36,37,42,0,0
1.4912e+05,1.5552e+08,0,6354,6285,14.85,4.52,37,43,0,0
1.4956e+05,1.5563e+08,0,6290,6371,14.83,4.59,36,43,0,0
1.5001e+05,1.5574e+08,0,6378,6442,14.84,4.79,37,43,0,0
1.5091e+05,1.5597e+08,0,6439,6414,14.82,4.83,37,43,0,0
1.5127e+05,1.5606e+08,0,6415,6442,14.8,4.9,37,43,0,0
1.5172e+05,1.5617e+08,0,6452,6571,14.79,4.96,37,43,0,0
1.5217e+05,1.5628e+08,0,6552,6414,14.81,4.68,37,44,0,0
1.5262e+05,1.5639e+08,0,6422,6528,14.76,5.2,37,44,0,0
1.5306e+05,1.565e+08,0,6526,6500,14.85,4.79,37,44,0,0
1.5351e+05,1.5661e+08,0,6497,6471,14.78,5.06,37,44,0,0
1.5396e+05,1.5672e+08,0,6472,6485,14.79,4.88,37,44,0,0
1.5441e+05,1.5683e+08,0,6482,6457,14.8,4.91,37,44,0,0
1.5485e+05,1.5693e+08,0,6470,6642,14.8,5.36,37,44,0,0
1.553e+05,1.5704e+08,0,6641,6571,14.8,4.85,37,45,0,0
1.5578e+05,1.5716e+08,0,6565,6514,14.77,4.98,37,45,0,0
1.5623e+05,1.5727e+08,0,6522,6642,14.81,5.03,37,45,0,0
1.5664e+05,1.5737e+08,0,6637,6557,14.75,4.9,37,45,0,0
1.5704e+05,1.5747e+08,0,6548,6442,14.85,4.76,37,45,0,0
1.5753e+05,1.5759e+08,0,6451,6542,14.81,4.81,37,45,0,0
1.5794e+05,1.5769e+08,0,6544,6571,14.8,4.62,37,45,0,0
1.5839e+05,1.578e+08,0,6567,6514,14.81,4.87,37,46,0,0
1.5884e+05,1.5792e+08,0,6520,6585,14.82,4.59,37,46,0,0
1.5924e+05,1.5801e+08,0,6582,6457,14.86,4.59,37,46,0,0
1.5969e+05,1.5813e+08,0,6449,6342,14.8,4.41,37,46,0,0
1.601e+05,1.5823e+08,0,6338,6257,14.82,4.12,37,46,0,0
1.6058e+05,1.5835e+08,0,6262,6314,14.86,4.38,37,46,0,0
1.6103e+05,1.5846e+08,0,6314,6314,14.87,4.31,37,46,0,0
1.6144e+05,1.5856e+08,0,6311,6271,14.81,4.59,37,47,0,0
1.6189e+05,1.5867e+08,0,6280,6471,14.88,4.62,37,47,0,0
1.6234e+05,1.5878e+08,0,6465,6242,14.95,4.44,37,47,0,0
1.6278e+05,1.5889e+08,0,6262,6528,14.85,4.43,37,47,0,0
1.6323e+05,1.59e+08,0,6521,6457,14.88,4.78,37,47,0,0
1.6364e+05,1.591e+08,0,6455,6428,14.85,4.3,37,47,0,0
1.6409e+05,1.5921e+08,0,6430,6471,14.8,5.24,37,47,0,0
1.6449e+05,1.5931e+08,0,6470,6442,14.85,4.59,37,47,0,0
1.6497e+05,1.5943e+08,0,6443,6457,14.85,4.92,37,48,0,0
1.6542e+05,1.5954e+08,0,6458,6471,14.82,4.68,37,48,0,0
1.6583e+05,1.5964e+08,0,6457,6285,14.86,4.14,37,48,0,0
1.6628e+05,1.5975e+08,0,6297,6428,14.82,5.18,37,48,0,0
1.6673e+05,1.5986e+08,0,6449,6742,14.91,5.35,37,48,0,0
1.6717e+05,1.5996e+08,0,6731,6500,14.95,4.5,37,48,0,0
1.6762e+05,1.6008e+08,0,6505,6571,14.76,4.85,37,49,0,0
1.6803e+05,1.6017e+08,0,6571,6585,14.83,4.58,37,49,0,0
1.6892e+05,1.604e+08,0,6582,6471,14.75,4.72,37,49,0,0
1.6941e+05,1.6052e+08,0,6459,6342,14.89,4.24,37,49,0,0
1.6981e+05,1.6061e+08,0,6341,6328,14.84,4.33,37,49,0,0
1.7026e+05,1.6072e+08,0,6336,6442,14.85,4.69,37,49,0,0
1.7071e+05,1.6084e+08,0,6421,6214,14.83,4.58,37,49,0,0
1.7115e+05,1.6094e+08,0,6211,6185,14.85,4.47,37,50,0,0
1.7156e+05,1.6105e+08,0,6191,6342,14.8,4.68,37,50,0,0
1.7201e+05,1.6115e+08,0,6339,6185,14.84,4.5,37,50,0,0
1.7245e+05,1.6126e+08,0,6185,6200,14.8,4.23,37,50,0,0
1.729e+05,1.6137e+08,0,6202,6228,14.83,4.27,37,50,0,0
1.733e+05,1.6148e+08,0,6216,5985,14.83,4.03,37,50,0,0
1.7376e+05,1.6159e+08,0,5992,6100,14.81,4.44,37,50,0,0
1.7416e+05,1.617e+08,0,6099,6071,14.82,4.49,37,51,0,0
1.7461e+05,1.618e+08,0,6073,6214,14.84,4.45,37,51,0,0
1.7554e+05,1.6204e+08,0,6225,6414,14.79,4.66,37,51,0,0
1.7595e+05,1.6214e+08,0,6410,6228,14.8,4.22,37,51,0,0
1.7636e+05,1.6224e+08,0,6226,6128,14.81,4.25,37,51,0,0
1.7684e+05,1.6236e+08,0,6133,6185,14.82,4.16,37,51,0,0
1.7728e+05,1.6247e+08,0,6177,6100,14.85,4.43,37,51,0,0
1.7769e+05,1.6257e+08,0,6096,5971,14.78,4.11,37,52,0,0
1.7814e+05,1.6268e+08,0,5980,6185,14.75,4.45,37,52,0,0
1.7859e+05,1.6279e+08,0,6183,6157,14.76,4.27,37,52,0,0
1.7904e+05,1.629e+08,0,6157,6157,14.8,4.46,37,52,0,0
1.7949e+05,1.6301e+08,0,6151,6085,14.77,4.18,37,52,0,0
1.7994e+05,1.6312e+08,0,6094,6228,14.72,4.13,37,52,0,0
1.8038e+05,1.6324e+08,0,6219,6142,14.77,4.4,37,52,0,0
1.8083e+05,1.6334e+08,0,6150,6242,14.76,4.55,37,52,0,0
1.8123e+05,1.6345e+08,0,6242,6257,14.79,4.51,37,53,0,0
1.8168e+05,1.6356e+08,0,6255,6228,14.74,4.63,37,53,0,0
1.8212e+05,1.6367e+08,0,6249,6457,14.75,4.89,37,53,0,0
1.8257e+05,1.6377e+08,0,6448,6314,14.75,4.53,37,53,0,0
1.8302e+05,1.6389e+08,0,6311,6285,14.77,4.6,37,53,0,0
1.8347e+05,1.64e+08,0,6283,6271,14.78,4.79,37,53,0,0
1.8387e+05,1.641e+08,0,6278,6442,14.77,4.9,37,53,0,0
1.8432e+05,1.6421e+08,0,6445,6500,14.72,4.72,37,54,0,0
1.8477e+05,1.6432e+08,0,6504,6571,14.74,5.29,37,54,0,0
1.8521e+05,1.6443e+08,0,6586,6714,14.75,5.4,37,54,0,0
1.8562e+05,1.6454e+08,0,6706,6557,14.74,5.37,37,54,0,0
1.8652e+05,1.6476e+08,0,6555,6514,14.8,4.82,37,54,0,0
1.8691e+05,1.6486e+08,0,6512,6457,14.73,4.99,37,55,0,0
1.8736e+05,1.6497e+08,0,6457,6457,14.76,4.88,37,55,0,0
1.8781e+05,1.6508e+08,0,6458,6485,14.75,4.95,37,55,0,0
1.8826e+05,1.6518e+08,0,6482,6357,14.79,4.74,37,55,0,0
1.887e+05,1.6529e+08,0,6354,6300,14.83,4.74,37,55,0,0
1.8919e+05,1.6541e+08,0,6301,6314,14.75,4.76,37,55,0,0
1.8963e+05,1.6552e+08,0,6319,6371,14.8,4.74,37,55,0,0
1.9008e+05,1.6563e+08,0,6366,6285,14.83,4.42,37,56,0,0
1.9052e+05,1.6574e+08,0,6286,6314,14.87,3.98,37,56,0,0
1.91e+05,1.6585e+08,0,6298,6100,14.67,4.18,37,56,0,0
1.9146e+05,1.6596e+08,0,6108,6285,14.7,4.84,37,56,0,0
1.919e+05,1.6608e+08,0,6291,6357,14.71,4.77,37,56,0,0
1.9235e+05,1.6619e+08,0,6363,6442,14.76,5.01,37,56,0,0
1.9276e+05,1.6629e+08,0,6444,6485,14.79,4.8,37,56,0,0
1.9316e+05,1.6639e+08,0,6485,6557,14.8,4.75,37,57,0,0
1.9365e+05,1.6651e+08,0,6537,6328,14.79,4.67,37,57,0,0
1.941e+05,1.6662e+08,0,6350,6500,14.9,4.59,37,57,0,0
1.9455e+05,1.6673e+08,0,6492,6300,14.8,4.27,37,57,0,0
1.9499e+05,1.6684e+08,0,6302,6328,14.83,4.57,37,57,0,0
1.9544e+05,1.6695e+08,0,6324,6271,14.76,4.68,37,57,0,0
1.9584e+05,1.6705e+08,0,6271,6285,14.73,4.91,37,57,0,0
1.9629e+05,1.6716e+08,0,6286,6314,14.83,4.5,37,58,0,0
1.9673e+05,1.6727e+08,0,6311,6200,14.83,4.19,37,58,0,0
1.9718e+05,1.6738e+08,0,6213,6342,14.82,4.41,37,58,0,0
1.9763e+05,1.675e+08,0,6345,6385,14.84,4.41,37,58,0,0
1.9808e+05,1.676e+08,0,6373,6228,14.93,3.81,37,58,0,0
1.9848e+05,1.6771e+08,0,6204,6000,14.76,4.45,37,58,0,0
1.9893e+05,1.6781e+08,0,6008,6142,14.91,3.89,37,58,0,0
1.9938e+05,1.6792e+08,0,6142,6157,14.84,4.09,37,58,0,0
1.9983e+05,1.6804e+08,0,6170,6314,14.86,4.27,37,59,0,0
2.0028e+05,1.6815e+08,0,6312,6300,14.84,4.14,38,59,0,0
2.0067e+05,1.6825e+08,0,6296,6071,14.87,3.93,37,59,0,0
2.0156e+05,1.6846e+08,0,6071,6100,14.85,3.57,37,59,0,0
2.0201e+05,1.6857e+08,0,6096,5957,14.84,3.58,38,59,0,0
2.0249e+05,1.6869e+08,0,5960,6014,14.82,3.99,38,59,0,0
2.029e+05,1.6879e+08,0,6018,6114,14.79,4.04,38,59,0,0
2.038e+05,1.6901e+08,0,6118,6228,14.82,4,37,60,0,0
2.0424e+05,1.6912e+08,0,6221,6100,14.84,4.08,37,60,0,0
2.0465e+05,1.6923e+08,0,6103,6128,14.8,4.02,38,60,0,0
2.0554e+05,1.6945e+08,0,6129,6157,14.85,4.25,38,60,0,0
2.0595e+05,1.6955e+08,0,6161,6200,14.85,4.22,38,60,0,0
2.064e+05,1.6967e+08,0,6200,6200,14.85,4.23,38,60,0,0
2.0681e+05,1.6977e+08,0,6209,6300,14.77,4.29,38,61,0,0
2.0726e+05,1.6989e+08,0,6301,6314,14.8,4.12,38,61,0,0
2.0771e+05,1.6999e+08,0,6315,6328,14.81,4.81,38,61,0,0
2.0811e+05,1.701e+08,0,6317,6214,14.86,4.6,38,61,0,0
2.0856e+05,1.7021e+08,0,6222,6314,14.83,4.54,38,61,0,0
2.09e+05,1.7031e+08,0,6314,6314,14.83,4.39,38,61,0,0
2.0945e+05,1.7043e+08,0,6331,6471,14.9,4.05,38,61,0,0
2.099e+05,1.7053e+08,0,6454,6228,14.82,4.68,38,61,0,0
2.1034e+05,1.7065e+08,0,6217,6071,14.89,3.78,38,62,0,0
2.1079e+05,1.7075e+08,0,6073,6100,14.83,4.33,38,62,0,0
2.1123e+05,1.7086e+08,0,6108,6214,14.94,3.77,38,62,0,0
2.1168e+05,1.7097e+08,0,6198,6042,14.86,3.81,38,62,0,0
2.121e+05,1.7108e+08,0,6032,5928,14.93,3.61,38,62,0,0
2.1254e+05,1.7119e+08,0,5937,6057,14.85,3.62,38,62,0,0
2.1298e+05,1.713e+08,0,6050,5957,14.89,4.06,38,62,0,0
2.1344e+05,1.714e+08,0,5965,6157,14.95,4.04,38,62,0,0
2.1374e+05,1.7151e+08,0,6154,6100,14.91,3.56,38,62,0,0
2.142e+05,1.7163e+08,0,6083,5971,14.88,4.21,38,63,0,0
2.146e+05,1.7173e+08,0,5980,6171,14.9,4.3,38,63,0,0
2.1505e+05,1.7184e+08,0,6171,6171,14.78,4.34,38,63,0,0
2.155e+05,1.7195e+08,0,6186,6414,14.75,4.74,38,63,0,0
2.159e+05,1.7206e+08,0,6413,6400,14.86,4.18,38,63,0,0
2.1683e+05,1.7228e+08,0,6405,6542,14.7,5.48,38,63,0,0
2.1723e+05,1.7238e+08,0,6537,6485,14.74,5.35,38,64,0,0
2.1768e+05,1.7249e+08,0,6485,6500,14.75,5.02,38,64,0,0
2.1812e+05,1.726e+08,0,6503,6642,14.75,5.32,38,64,0,0
2.1858e+05,1.7271e+08,0,6642,6657,14.81,5.35,38,64,0,0
2.1903e+05,1.7282e+08,0,6655,6642,14.74,5.02,38,64,0,0
2.1943e+05,1.7292e+08,0,6642,6657,14.76,5.14,38,64,0,0
2.1987e+05,1.7303e+08,0,6658,6742,14.75,4.91,38,65,0,0
2.2032e+05,1.7314e+08,0,6734,6400,14.79,4.79,38,65,0,0
2.2076e+05,1.7325e+08,0,6400,6400,14.78,4.52,38,65,0,0
2.2121e+05,1.7336e+08,0,6392,6285,14.8,4.41,38,65,0,0
2.2161e+05,1.7346e+08,0,6284,6271,14.85,4.53,38,65,0,0
2.2211e+05,1.7358e+08,0,6254,6085,14.78,4.04,38,65,0,0
2.2251e+05,1.7369e+08,0,6085,6100,14.79,4,38,65,0,0
2.23e+05,1.738e+08,0,6104,6157,14.74,4.38,38,65,0,0
2.2385e+05,1.7401e+08,0,6167,6385,14.73,4.84,38,66,0,0
2.2429e+05,1.7412e+08,0,6396,6514,14.76,5.07,38,66,0,0
2.2474e+05,1.7424e+08,0,6519,6557,14.8,4.89,38,66,0,0
2.2518e+05,1.7434e+08,0,6553,6471,14.78,4.72,38,66,0,0
2.2559e+05,1.7444e+08,0,6469,6442,14.8,4.46,38,66,0,0
2.2608e+05,1.7456e+08,0,6433,6342,14.83,4.34,38,66,0,0
2.2648e+05,1.7466e+08,0,6340,6314,14.73,4.71,38,67,0,0
2.2697e+05,1.7477e+08,0,6314,6314,14.72,4.92,38,67,0,0
2.2738e+05,1.7489e+08,0,6338,6542,14.74,5.01,38,67,0,0
2.2783e+05,1.7499e+08,0,6556,6700,14.73,4.93,38,67,0,0
2.2823e+05,1.7509e+08,0,6697,6485,14.78,4.96,38,67,0,0
2.2868e+05,1.752e+08,0,6485,6500,14.74,4.94,38,67,0,0
2.2916e+05,1.7531e+08,0,6510,6642,14.73,5.03,38,67,0,0
2.296e+05,1.7542e+08,0,6643,6657,14.79,4.91,38,68,0,0
2.3005e+05,1.7554e+08,0,6618,6342,14.74,4.59,38,68,0,0
2.3041e+05,1.7563e+08,0,6345,6514,14.75,5.11,38,68,0,0
2.3086e+05,1.7574e+08,0,6515,6628,14.73,4.92,38,68,0,0
2.3134e+05,1.7585e+08,0,6629,6671,14.74,4.94,38,68,0,0
2.3183e+05,1.7597e+08,0,6648,6471,14.79,4.77,38,68,0,0
2.3268e+05,1.7618e+08,0,6472,6514,14.75,4.77,38,69,0,0
2.3313e+05,1.7629e+08,0,6506,6414,14.81,4.68,38,69,0,0
2.3358e+05,1.764e+08,0,6409,6357,14.75,4.66,38,69,0,0
2.3403e+05,1.7652e+08,0,6374,6542,14.82,4.87,38,69,0,0
2.3444e+05,1.7663e+08,0,6536,6471,14.77,4.35,38,69,0,0
2.3488e+05,1.7673e+08,0,6468,6314,14.75,4.73,38,69,0,0
2.3532e+05,1.7684e+08,0,6314,6328,14.76,4.77,38,70,0,0
2.3581e+05,1.7696e+08,0,6333,6400,14.8,4.6,38,70,0,0
2.3626e+05,1.7707e+08,0,6387,6214,14.8,4.57,38,70,0,0
2.3666e+05,1.7717e+08,0,6218,6400,14.82,4.35,38,70,0,0
2.3707e+05,1.7728e+08,0,6395,6171,14.77,4.19,38,70,0,0
2.3752e+05,1.7739e+08,0,6176,6271,14.72,4.67,38,70,0,0
2.3797e+05,1.775e+08,0,6273,6300,14.76,4.5,38,70,0,0
2.3841e+05,1.7761e+08,0,6310,6471,14.8,4.62,38,70,0,0
2.3887e+05,1.7772e+08,0,6462,6371,14.82,4.26,38,71,0,0
2.3928e+05,1.7782e+08,0,6365,6300,14.8,4.85,38,71,0,0
2.3972e+05,1.7793e+08,0,6308,6485,14.8,4.9,38,71,0,0
2.4017e+05,1.7805e+08,0,6485,6500,14.82,4.78,38,71,0,0
2.4061e+05,1.7816e+08,0,6489,6357,14.78,4.54,38,71,0,0
2.4106e+05,1.7827e+08,0,6341,6185,14.79,4.48,38,71,0,0
2.4191e+05,1.7848e+08,0,6185,6214,14.72,4.75,38,72,0,0
2.4239e+05,1.7859e+08,0,6218,6257,14.82,3.95,38,72,0,0
2.428e+05,1.787e+08,0,6240,6071,14.82,3.98,38,72,0,0
2.4324e+05,1.7881e+08,0,6069,6057,14.85,3.35,38,72,0,0
2.4365e+05,1.7891e+08,0,6047,5800,14.94,2.77,38,72,0,0
2.441e+05,1.7902e+08,0,5787,5200,15.21,1.98,38,72,0,0
2.4454e+05,1.7913e+08,0,5183,4957,15.15,2.74,38,72,0,0
2.4498e+05,1.7924e+08,0,4953,4900,15.16,1.85,38,72,0,0
2.4543e+05,1.7934e+08,0,4860,4357,15.17,1.29,38,72,0,0
2.4588e+05,1.7946e+08,0,4303,3757,15.25,0.45,38,72,0,0
2.4633e+05,1.7956e+08,0,3683,2957,15.23,0.12,38,72,0,0
2.4673e+05,1.7967e+08,0,2948,2785,15.23,0.38,38,72,0,0
2.4718e+05,1.7978e+08,0,2784,2728,15.23,0.43,38,72,0,0
2.4767e+05,1.7989e+08,0,2728,2728,15.22,0.37,38,72,0,0
2.4808e+05,1.7999e+08,0,2728,2757,15.23,0.5,38,72,0,0
2.4852e+05,1.801e+08,0,2759,2871,15.22,0.56,38,72,0,0
2.4942e+05,1.8033e+08,0,2871,2871,15.24,0.51,38,72,0,0
2.4987e+05,1.8044e+08,0,2875,2900,15.25,0.49,38,73,0,0
2.5027e+05,1.8054e+08,0,2901,2928,15.23,0.47,38,73,0,0
2.5113e+05,1.8076e+08,0,2927,2900,15.25,0.49,38,73,0,0
2.5157e+05,1.8086e+08,0,2900,2900,15.26,0.49,38,73,0,0
2.5246e+05,1.8108e+08,0,2900,2900,15.26,0.5,38,73,0,0
2.5291e+05,1.8119e+08,0,2899,2885,15.26,0.45,38,73,0,0
2.5336e+05,1.813e+08,0,2884,2871,15.25,0.43,38,73,0,0
2.5381e+05,1.8141e+08,0,2871,2871,15.26,0.45,38,73,0,0
2.5422e+05,1.8151e+08,0,2846,2328,15.33,0.06,38,73,0,0
2.5471e+05,1.8162e+08,0,2281,1628,15.32,0,38,73,0,0
2.5511e+05,1.8172e+08,0,1613,1342,15.3,0.03,38,73,0,0
2.5556e+05,1.8183e+08,0,1341,1271,15.3,0.09,38,73,0,0
2.5605e+05,1.8195e+08,0,1270,1257,15.3,0.1,38,73,0,0
2.5694e+05,1.8217e+08,0,1257,1257,15.31,0.1,38,73,0,0
2.5735e+05,1.8227e+08,0,1256,1242,15.3,0.1,38,73,0,0
2.578e+05,1.8238e+08,0,1242,1242,15.31,0.1,38,73,0,0
2.5825e+05,1.8249e+08,0,1242,1242,15.32,0.1,38,73,0,0
2.587e+05,1.8259e+08,0,1242,1242,15.32,0.1,38,73,0,0
2.5914e+05,1.827e+08,0,1242,1242,15.32,0.1,38,73,0,0
2.5959e+05,1.8281e+08,0,1243,1257,15.31,0.1,38,73,0,0
2.6003e+05,1.8291e+08,0,1257,1257,15.32,0.1,38,73,0,0
2.6049e+05,1.8303e+08,0,1254,1228,15.35,0.05,37,73,0,0
2.6094e+05,1.8313e+08,0,1191,314,15.34,0.01,37,73,0,0
2.6139e+05,1.8324e+08,0,309,0,15.34,0.04,37,73,0,0
2.6184e+05,1.8334e+08,0,0,0,15.34,0.04,37,73,0,0
2.6233e+05,1.8346e+08,0,0,0,15.34,0.04,37,73,0,0
2.6323e+05,1.8368e+08,0,0,0,15.34,0.04,37,73,0,0
2.6368e+05,1.8378e+08,0,0,0,15.34,0.03,37,73,0,0
2.6413e+05,1.8389e+08,0,0,0,15.35,0.03,37,73,0,0
2.6463e+05,1.8401e+08,0,0,0,15.35,0.03,37,73,0,0
2.6508e+05,1.8411e+08,0,0,0,15.35,0.03,37,73,0,0
2.6602e+05,1.8433e+08,0,0,0,15.35,0.04,37,73,0,0
2.6647e+05,1.8444e+08,0,0,0,15.35,0.03,37,73,0,0
2.6693e+05,1.8455e+08,0,0,0,15.35,0.03,37,73,0,0
2.6738e+05,1.8466e+08,0,0,0,15.35,0.03,37,73,0,0
2.6783e+05,1.8476e+08,0,0,0,15.35,0.04,37,73,0,0
2.6878e+05,1.8498e+08,0,0,0,15.36,0.03,37,73,0,0
2.6922e+05,1.8509e+08,0,0,0,15.36,0.03,37,73,0,0
2.6968e+05,1.852e+08,0,0,0,15.36,0.03,37,73,0,0
2.7017e+05,1.8531e+08,0,0,0,15.36,0.03,37,73,0,0
2.7063e+05,1.8542e+08,0,0,0,15.36,0.03,37,73,0,0
2.7108e+05,1.8553e+08,0,0,0,15.36,0.03,37,73,0,0
2.7153e+05,1.8564e+08,0,0,0,15.36,0.03,37,73,0,0
2.7198e+05,1.8574e+08,0,0,0,15.36,0.03,37,73,0,0
2.7243e+05,1.8585e+08,0,0,0,15.37,0.03,37,73,0,0
2.7293e+05,1.8597e+08,0,0,0,15.37,0.04,37,73,0,0
2.7335e+05,1.8607e+08,0,0,0,15.37,0.04,37,73,0,0
2.738e+05,1.8618e+08,0,0,0,15.37,0.04,37,73,0,0
2.7424e+05,1.8629e+08,0,0,0,15.37,0.03,37,73,0,0
2.7474e+05,1.864e+08,0,0,0,15.38,0.04,37,73,0,0
2.752e+05,1.8651e+08,0,0,0,15.37,0.04,37,73,0,0
2.7569e+05,1.8663e+08,0,0,0,15.38,0.03,37,73,0,0
2.7614e+05,1.8673e+08,0,0,0,15.38,0.03,37,73,0,0
2.7659e+05,1.8683e+08,0,0,0,15.38,0.03,37,73,0,0
2.7708e+05,1.8695e+08,0,0,0,15.38,0.03,37,73,0,0
2.7754e+05,1.8706e+08,0,0,0,15.38,0.04,37,73,0,0
2.7799e+05,1.8717e+08,0,0,0,15.38,0.04,37,73,0,0
2.7843e+05,1.8727e+08,0,0,0,15.38,0.04,37,73,0,0
2.7889e+05,1.8738e+08,0,0,0,15.38,0.04,37,73,0,0
2.7938e+05,1.875e+08,0,0,0,15.38,0.03,37,73,0,0
2.7983e+05,1.876e+08,0,0,0,15.39,0.04,37,73,0,0
2.8028e+05,1.8771e+08,0,0,0,15.38,0.04,37,73,0,0
2.8119e+05,1.8792e+08,0,0,0,15.38,0.03,37,73,0,0
2.8164e+05,1.8803e+08,0,0,0,15.39,0.04,37,73,0,0
2.8209e+05,1.8814e+08,0,0,0,15.39,0.04,37,73,0,0
2.8254e+05,1.8825e+08,0,0,0,15.38,0.04,37,73,0,0
2.8304e+05,1.8836e+08,0,0,0,15.39,0.04,37,73,0,0
2.8394e+05,1.8858e+08,0,0,0,15.39,0.04,37,73,0,0
2.8439e+05,1.8868e+08,0,0,0,15.39,0.04,37,73,0,0
2.8485e+05,1.8879e+08,0,0,0,15.39,0.03,37,73,0,0
2.8534e+05,1.8891e+08,0,0,0,15.39,0.04,37,73,0,0
2.8579e+05,1.8901e+08,0,0,0,15.39,0.04,37,73,0,0
2.8625e+05,1.8912e+08,0,0,0,15.39,0.04,37,73,0,0
2.867e+05,1.8923e+08,0,0,0,15.39,0.04,37,73,0,0
2.8715e+05,1.8934e+08,0,0,0,15.39,0.04,37,73,0,0
2.8761e+05,1.8944e+08,0,0,0,15.39,0.04,37,73,0,0
2.8807e+05,1.8955e+08,0,0,0,15.39,0.03,37,73,0,0
2.8856e+05,1.8967e+08,0,0,0,15.39,0.03,37,73,0,0
2.8901e+05,1.8977e+08,0,0,0,15.4,0.04,37,73,0,0
2.8947e+05,1.8988e+08,0,0,0,15.4,0.04,36,73,0,0
2.8996e+05,1.8999e+08,0,0,0,15.4,0.04,36,73,0,0
2.9042e+05,1.901e+08,0,0,0,15.4,0.04,37,73,0,0
2.9087e+05,1.9021e+08,0,0,0,15.4,0.04,37,73,0,0
2.9132e+05,1.9032e+08,0,0,0,15.4,0.04,36,73,0,0
2.9178e+05,1.9042e+08,0,0,0,15.41,0.03,37,73,0,0
2.9227e+05,1.9054e+08,0,0,0,15.41,0.03,37,73,0,0
2.9272e+05,1.9064e+08,0,0,0,15.41,0.04,36,73,0,0
2.9317e+05,1.9075e+08,0,0,0,15.41,0.04,36,73,0,0
2.9362e+05,1.9086e+08,0,0,0,15.41,0.04,36,73,0,0
2.9412e+05,1.9097e+08,0,0,0,15.41,0.03,36,73,0,0
2.9458e+05,1.9108e+08,0,0,0,15.41,0.03,37,73,0,0
2.9503e+05,1.9119e+08,0,0,0,15.41,0.03,36,73,0,0
2.9552e+05,1.913e+08,0,0,0,15.41,0.03,36,73,0,0
2.9597e+05,1.914e+08,0,0,0,15.41,0.04,36,73,0,0
2.9642e+05,1.9151e+08,0,0,0,15.41,0.03,36,73,0,0
2.9692e+05,1.9163e+08,0,0,0,15.41,0.04,36,73,0,0
2.9737e+05,1.9173e+08,0,0,0,15.41,0.03,36,73,0,0
2.9782e+05,1.9183e+08,0,0,0,15.41,0.03,36,73,0,0
2.9832e+05,1.9195e+08,0,0,0,15.41,0.03,36,73,0,0
2.9926e+05,1.9217e+08,0,0,0,15.41,0.04,36,73,0,0
2.9971e+05,1.9227e+08,0,0,0,15.42,0.03,36,73,0,0
3.0021e+05,1.9239e+08,0,0,0,15.41,0.04,36,73,0,0
3.0066e+05,1.9249e+08,0,0,0,15.42,0.04,36,73,0,0
3.0112e+05,1.926e+08,0,0,0,15.42,0.04,36,73,0,0
3.0157e+05,1.9271e+08,0,0,0,15.42,0.04,36,73,0,0
3.0202e+05,1.9281e+08,0,0,0,15.42,0.04,36,73,0,0
3.0248e+05,1.9292e+08,0,0,0,15.42,0.04,36,73,0,0
3.0297e+05,1.9304e+08,0,0,0,15.42,0.04,36,73,0,0
3.0342e+05,1.9314e+08,0,0,0,15.42,0.04,36,73,0,0
3.0392e+05,1.9326e+08,0,0,0,15.42,0.04,36,73,0,0
3.0437e+05,1.9336e+08,0,0,0,15.42,0.04,36,73,0,0
3.0482e+05,1.9347e+08,0,0,0,15.42,0.04,36,73,0,0
