LineNo,TimeUS,Instance,RPM,RawRPM,Volt,Curr,Temp,CTot,MotTemp,Err
1730,1.1912e+08,2,0,0,15.63,0.04,27,0,0,0
2225,1.1924e+08,2,0,0,15.63,0.04,28,0,0,0
2678,1.1934e+08,2,0,0,15.64,0.04,27,0,0,0
3131,1.1944e+08,2,0,0,15.64,0.04,27,0,0,0
3629,1.1956e+08,2,0,0,15.63,0.04,28,0,0,0
4083,1.1966e+08,2,0,0,15.63,0.04,27,0,0,0
4583,1.1977e+08,2,0,0,15.63,0.04,27,0,0,0
5032,1.1988e+08,2,0,0,15.63,0.04,27,0,0,0
5531,1.1999e+08,2,0,0,15.64,0.05,27,0,0,0
6436,1.202e+08,2,17,2242,15.63,0.04,27,0,0,0
6883,1.2031e+08,2,2203,200,15.63,0.05,27,0,0,0
7383,1.2042e+08,2,240,642,15.61,0.11,27,0,0,0
7831,1.2053e+08,2,657,1028,15.61,0.17,28,0,0,0
8325,1.2064e+08,2,1043,1200,15.62,0.12,27,0,0,0
8783,1.2074e+08,2,1201,1228,15.63,0.11,28,0,0,0
9240,1.2086e+08,2,1233,1300,15.61,0.16,28,0,0,0
9696,1.2096e+08,2,1306,1600,15.53,0.28,28,0,0,0
10191,1.2108e+08,2,1655,2471,15.33,1.22,27,0,0,0
10646,1.2119e+08,2,2524,2914,15.48,1.08,28,0,0,0
11016,1.2128e+08,2,2917,3214,15.47,1.26,28,0,0,0
11923,1.215e+08,2,3244,4414,15.15,2.96,28,0,0,0
12419,1.2162e+08,2,4477,5357,15.03,4.37,28,0,0,0
12835,1.2172e+08,2,5424,6257,14.88,4.81,28,0,0,0
13288,1.2184e+08,2,6257,6271,14.98,4.34,28,0,0,0
13787,1.2195e+08,2,6276,6342,15.02,4.62,28,0,0,0
14193,1.2205e+08,2,6348,6442,14.97,4.87,28,0,0,0
14688,1.2217e+08,2,6434,6357,15.01,4.51,28,1,0,0
15095,1.2227e+08,2,6357,6385,14.97,5.32,28,1,0,0
15546,1.2238e+08,2,6385,6414,15.01,4.44,28,1,0,0
16041,1.2249e+08,2,6422,6542,14.97,4.87,28,1,0,0
16499,1.226e+08,2,6539,6500,14.97,5.16,28,1,0,0
16949,1.2272e+08,2,6520,6714,14.98,5.81,28,1,0,0
17362,1.2282e+08,2,6729,6885,15,5.68,28,1,0,0
17773,1.2292e+08,2,6886,6957,15.05,5.58,28,2,0,0
18262,1.2304e+08,2,6941,6785,15.07,5.04,28,2,0,0
18537,1.2325e+08,2,6708,6514,15.07,4.32,28,2,0,0
18946,1.2336e+08,2,6499,6200,15.16,3.57,28,2,0,0
19394,1.2347e+08,2,6175,5828,15.14,2.99,28,2,0,0
19847,1.2358e+08,2,5806,5528,15.1,2.45,28,2,0,0
20739,1.238e+08,2,5513,5214,15.12,2.37,28,3,0,0
21142,1.239e+08,2,5200,5071,15.09,2.2,28,3,0,0
21548,1.24e+08,2,5072,5128,15.18,2.19,28,3,0,0
21991,1.2412e+08,2,5130,5157,15.12,2.37,28,3,0,0
22448,1.2423e+08,2,5169,5271,15.1,2.84,28,3,0,0
22853,1.2433e+08,2,5272,5300,15.1,2.5,28,3,0,0
23306,1.2445e+08,2,5307,5414,15.1,2.83,28,3,0,0
23714,1.2455e+08,2,5413,5400,15.02,3.03,28,3,0,0
24116,1.2465e+08,2,5409,5871,15.07,3.55,28,3,0,0
24609,1.2477e+08,2,5869,5842,15.05,3.73,29,3,0,0
25093,1.2488e+08,2,5847,5914,15.1,3.46,29,3,0,0
25542,1.2499e+08,2,5908,5842,15.1,2.99,29,4,0,0
25946,1.251e+08,2,5835,5657,15.11,2.94,29,4,0,0
26391,1.252e+08,2,5648,5471,15.2,2.59,28,4,0,0
26883,1.2532e+08,2,5466,5414,15.13,2.51,29,4,0,0
27291,1.2543e+08,2,5410,5385,15.1,2.61,28,4,0,0
27695,1.2553e+08,2,5395,5657,15.12,2.88,29,4,0,0
28138,1.2564e+08,2,5657,5671,15.11,3.15,29,4,0,0
28588,1.2575e+08,2,5662,5542,15.07,3.2,29,4,0,0
28993,1.2585e+08,2,5547,5657,15.06,3.14,29,4,0,0
29453,1.2597e+08,2,5659,5685,15.13,3.02,29,4,0,0
29897,1.2608e+08,2,5683,5671,15.14,2.77,29,4,0,0
30347,1.2619e+08,2,5665,5614,15.11,2.88,29,4,0,0
30703,1.2628e+08,2,5611,5557,15.16,2.61,29,5,0,0
31157,1.2639e+08,2,5558,5585,15.05,2.49,29,5,0,0
31596,1.265e+08,2,5583,5542,15.12,2.59,29,5,0,0
32051,1.2661e+08,2,5544,5671,15.01,2.95,29,5,0,0
32531,1.2672e+08,2,5675,5742,15.12,3.04,29,5,0,0
32900,1.2682e+08,2,5742,5771,15.07,2.41,29,5,0,0
33348,1.2693e+08,2,5769,5714,15.04,2.73,29,5,0,0
33800,1.2704e+08,2,5714,5728,15.06,2.93,29,5,0,0
34254,1.2716e+08,2,5733,5785,15.07,3.22,29,5,0,0
34657,1.2726e+08,2,5787,5814,15,3.23,29,5,0,0
35067,1.2736e+08,2,5817,5914,15.1,3.27,29,5,0,0
35553,1.2748e+08,2,5921,6000,15.09,3.33,29,6,0,0
35963,1.2758e+08,2,5995,5900,15.06,3.19,29,6,0,0
36854,1.278e+08,2,5898,5771,14.99,2.86,29,6,0,0
37350,1.2792e+08,2,5740,5442,15.07,2.01,29,6,0,0
37753,1.2802e+08,2,5434,5257,14.98,2.13,29,6,0,0
38199,1.2814e+08,2,5259,5314,15.05,2.76,29,6,0,0
38632,1.2824e+08,2,5317,5457,15.01,2.76,29,6,0,0
39082,1.2835e+08,2,5462,5585,15.02,2.66,29,6,0,0
39528,1.2846e+08,2,5570,5385,15,2.38,29,6,0,0
39976,1.2857e+08,2,5407,5742,15.01,3.15,29,6,0,0
40427,1.2868e+08,2,5744,5771,14.96,3.41,29,6,0,0
40827,1.2878e+08,2,5775,6000,14.98,3.81,29,7,0,0
41321,1.289e+08,2,6008,6100,14.98,3.59,29,7,0,0
41719,1.29e+08,2,6099,6085,14.99,3.53,29,7,0,0
42163,1.2911e+08,2,6073,5971,15.01,3.7,29,7,0,0
42614,1.2922e+08,2,5956,5857,14.97,3.4,29,7,0,0
43011,1.2932e+08,2,5857,5857,15.04,3.15,29,7,0,0
43463,1.2944e+08,2,5861,5971,15,3.04,29,7,0,0
43920,1.2955e+08,2,5947,5700,15.01,2.65,29,7,0,0
44366,1.2966e+08,2,5675,5442,15.04,2.84,29,7,0,0
44813,1.2977e+08,2,5464,5671,15.04,3.15,29,7,0,0
45214,1.2987e+08,2,5674,5742,15.01,3.06,29,8,0,0
45667,1.2998e+08,2,5737,5685,15.01,2.71,29,8,0,0
46067,1.3008e+08,2,5682,5557,15.02,2.82,29,8,0,0
46558,1.302e+08,2,5555,5528,15.07,2.48,29,8,0,0
46955,1.303e+08,2,5526,5485,14.98,3.32,29,8,0,0
47416,1.3041e+08,2,5488,5685,14.94,3.27,29,8,0,0
47863,1.3052e+08,2,5679,5628,14.95,3.57,29,8,0,0
48311,1.3064e+08,2,5643,5771,14.91,3.49,29,8,0,0
49129,1.3084e+08,2,5769,5528,15.02,3.06,29,8,0,0
49614,1.3095e+08,2,5528,5542,14.98,3.2,29,9,0,0
50063,1.3107e+08,2,5552,5657,14.95,3.3,29,9,0,0
50507,1.3118e+08,2,5657,5657,15,3.1,29,9,0,0
50912,1.3128e+08,2,5661,5785,14.95,3.27,29,9,0,0
51807,1.315e+08,2,5784,5742,14.93,2.95,29,9,0,0
52254,1.3161e+08,2,5735,5514,15,2.48,30,9,0,0
52704,1.3172e+08,2,5504,5371,14.99,3.03,30,9,0,0
53115,1.3182e+08,2,5369,5314,15.04,2.18,30,9,0,0
53598,1.3194e+08,2,5324,5428,15.02,2.5,30,9,0,0
54040,1.3205e+08,2,5428,5428,15,2.27,30,9,0,0
54488,1.3216e+08,2,5449,5657,14.93,3,30,9,0,0
54892,1.3226e+08,2,5659,5700,15.01,2.92,30,10,0,0
55301,1.3236e+08,2,5702,5814,15,3.23,30,10,0,0
55789,1.3249e+08,2,5822,5914,14.95,3.69,30,10,0,0
56199,1.3258e+08,2,5917,6014,14.99,3.22,30,10,0,0
56644,1.3269e+08,2,6007,5942,14.98,3.1,30,10,0,0
57091,1.328e+08,2,5942,5957,15.01,3.31,30,10,0,0
57541,1.3292e+08,2,5968,6128,15,3.31,30,10,0,0
58394,1.3313e+08,2,6125,6000,14.92,3.75,30,10,0,0
58838,1.3324e+08,2,5992,5828,14.93,3.31,30,10,0,0
59295,1.3336e+08,2,5814,5671,15,2.94,30,11,0,0
59699,1.3346e+08,2,5671,5685,14.96,3.22,30,11,0,0
60183,1.3357e+08,2,5693,5814,15,2.9,30,11,0,0
60595,1.3368e+08,2,5812,5771,15.04,3.19,30,11,0,0
61041,1.3379e+08,2,5772,5857,15,2.99,30,11,0,0
61494,1.339e+08,2,5852,5742,15.04,3.09,30,11,0,0
61983,1.3401e+08,2,5739,5714,14.95,2.91,30,11,0,0
62377,1.3411e+08,2,5715,5742,14.96,3.33,30,11,0,0
62825,1.3422e+08,2,5733,5600,15.05,2.59,30,11,0,0
63276,1.3433e+08,2,5595,5528,15.02,2.45,30,11,0,0
63720,1.3444e+08,2,5524,5471,15.02,2.95,30,11,0,0
64169,1.3455e+08,2,5481,5614,15.01,2.86,30,12,0,0
64575,1.3465e+08,2,5616,5671,15.02,2.82,30,12,0,0
65024,1.3476e+08,2,5669,5600,14.95,2.27,30,12,0,0
65433,1.3487e+08,2,5601,5657,15.01,2.51,30,12,0,0
65921,1.3499e+08,2,5634,5400,15.01,2.27,30,12,0,0
66369,1.351e+08,2,5388,5300,14.99,2.18,30,12,0,0
66814,1.3521e+08,2,5317,5471,14.99,2.77,30,12,0,0
67220,1.3531e+08,2,5474,5542,15,2.64,30,12,0,0
67669,1.3542e+08,2,5543,5642,14.98,2.64,30,12,0,0
69001,1.3574e+08,2,5640,5600,14.95,2.67,30,12,0,0
69454,1.3586e+08,2,5596,5557,14.93,2.86,30,12,0,0
69898,1.3596e+08,2,5558,5657,15,2.89,30,13,0,0
70338,1.3607e+08,2,5655,5628,14.98,2.62,30,13,0,0
70797,1.3618e+08,2,5619,5528,15.05,2.42,30,13,0,0
71199,1.3628e+08,2,5524,5428,15,2.44,30,13,0,0
71649,1.364e+08,2,5428,5485,15.01,2.46,30,13,0,0
72098,1.3651e+08,2,5469,5314,14.99,2.04,30,13,0,0
72548,1.3662e+08,2,5326,5457,15.02,2.35,30,13,0,0
72951,1.3672e+08,2,5452,5371,15,2.46,30,13,0,0
73398,1.3683e+08,2,5369,5300,15.02,2.09,30,13,0,0
73895,1.3696e+08,2,5293,5242,15.03,2.11,30,13,0,0
74290,1.3705e+08,2,5239,5200,15.01,2.22,30,13,0,0
75143,1.3727e+08,2,5200,5271,15.05,2.12,30,13,0,0
75598,1.3738e+08,2,5275,5328,15.04,2.24,30,14,0,0
76004,1.3748e+08,2,5329,5357,14.96,2.42,30,14,0,0
76934,1.3771e+08,2,5362,5514,15,2.36,30,14,0,0
77394,1.3782e+08,2,5504,5414,14.91,2.27,30,14,0,0
77752,1.3792e+08,2,5418,5614,14.94,2.54,30,14,0,0
78203,1.3803e+08,2,5614,5657,14.95,2.71,30,14,0,0
78649,1.3814e+08,2,5661,5757,14.95,2.83,30,14,0,0
79539,1.3836e+08,2,5755,5671,14.94,2.77,30,14,0,0
79948,1.3846e+08,2,5674,5914,14.92,2.89,30,14,0,0
80395,1.3857e+08,2,5912,5785,14.93,2.98,30,14,0,0
80879,1.3869e+08,2,5788,5828,14.93,3.05,30,14,0,0
81292,1.3879e+08,2,5827,5800,14.92,2.81,30,15,0,0
82220,1.3902e+08,2,5795,5700,14.91,3.18,30,15,0,0
82670,1.3913e+08,2,5709,5828,14.91,3.23,30,15,0,0
83118,1.3924e+08,2,5819,5757,14.95,3.19,30,15,0,0
83560,1.3935e+08,2,5757,5757,14.97,3.08,30,15,0,0
83958,1.3945e+08,2,5756,5714,14.97,2.89,30,15,0,0
84414,1.3956e+08,2,5722,5800,14.84,3.08,30,15,0,0
85308,1.3978e+08,2,5796,5728,14.92,3.16,30,15,0,0
85751,1.3989e+08,2,5728,5742,14.97,3.1,30,16,0,0
86201,1.4e+08,2,5731,5600,14.99,2.74,30,16,0,0
86642,1.4011e+08,2,5597,5542,15.05,2.31,30,16,0,0
87095,1.4022e+08,2,5530,5428,14.97,2.2,30,16,0,0
87497,1.4032e+08,2,5426,5342,15.03,2.54,30,16,0,0
88389,1.4054e+08,2,5348,5485,15,2.87,30,16,0,0
88795,1.4064e+08,2,5484,5471,14.95,2.55,30,16,0,0
89244,1.4075e+08,2,5470,5428,14.9,2.56,30,16,0,0
89692,1.4086e+08,2,5429,5500,14.93,2.6,30,16,0,0
90135,1.4097e+08,2,5504,5700,14.9,2.99,30,16,0,0
90622,1.4109e+08,2,5708,5828,14.88,3.31,30,16,0,0
91074,1.412e+08,2,5832,5871,14.89,3.34,30,17,0,0
91485,1.413e+08,2,5886,6057,14.89,3.43,30,17,0,0
91973,1.4143e+08,2,6062,6114,14.88,3.67,30,17,0,0
92380,1.4152e+08,2,6092,5842,14.9,3.67,30,17,0,0
92829,1.4164e+08,2,5856,5985,14.9,3.72,30,17,0,0
93234,1.4174e+08,2,5987,6100,14.86,3.91,30,17,0,0
93677,1.4184e+08,2,6096,6014,14.92,3.61,30,17,0,0
94126,1.4195e+08,2,6015,6057,14.85,3.73,30,17,0,0
94574,1.4207e+08,2,6041,5885,14.88,3.66,30,17,0,0
95060,1.4218e+08,2,5885,5885,14.91,3.61,30,18,0,0
95465,1.4228e+08,2,5889,5971,14.85,3.55,30,18,0,0
95915,1.4239e+08,2,5971,6028,14.86,3.74,30,18,0,0
96358,1.425e+08,2,6020,5871,14.89,3.67,30,18,0,0
96855,1.4262e+08,2,5892,6042,14.86,3.74,30,18,0,0
97255,1.4272e+08,2,6035,5871,14.89,3.56,30,18,0,0
97736,1.4283e+08,2,5871,5885,14.91,3.64,30,18,0,0
98145,1.4293e+08,2,5884,5842,14.89,3.47,30,18,0,0
98635,1.4306e+08,2,5845,5885,14.94,3.4,30,18,0,0
99040,1.4316e+08,2,5880,5771,14.89,3.77,30,19,0,0
99533,1.4328e+08,2,5782,5957,14.86,3.84,30,19,0,0
99945,1.4338e+08,2,5962,6042,14.86,3.78,30,19,0,0
1.0039e+05,1.4349e+08,2,6037,5942,14.92,3.9,30,19,0,0
1.0084e+05,1.436e+08,2,5946,5985,14.91,4.09,30,19,0,0
1.0124e+05,1.4371e+08,2,5986,6042,14.8,3.67,30,19,0,0
1.0174e+05,1.4383e+08,2,6032,5942,14.82,3.78,30,19,0,0
1.0214e+05,1.4393e+08,2,5942,5985,14.83,3.85,30,19,0,0
1.0262e+05,1.4404e+08,2,5975,5914,14.82,3.64,30,19,0,0
1.0303e+05,1.4414e+08,2,5926,6100,14.81,4.05,30,20,0,0
1.0344e+05,1.4425e+08,2,6093,6000,14.82,3.86,30,20,0,0
1.0389e+05,1.4436e+08,2,6020,6214,14.78,4.19,30,20,0,0
1.0434e+05,1.4447e+08,2,6210,6128,14.79,4.27,30,20,0,0
1.0478e+05,1.4458e+08,2,6113,5985,14.78,3.46,30,20,0,0
1.0523e+05,1.4469e+08,2,5971,5828,14.84,3.45,30,20,0,0
1.0564e+05,1.4479e+08,2,5831,6000,14.88,3.61,30,20,0,0
1.0608e+05,1.449e+08,2,5996,5914,14.82,3.99,30,20,0,0
1.0698e+05,1.4512e+08,2,5922,6157,14.85,4.21,30,21,0,0
1.0743e+05,1.4523e+08,2,6150,6028,14.84,3.55,30,21,0,0
1.0788e+05,1.4534e+08,2,6024,5971,14.83,3.53,30,21,0,0
1.0828e+05,1.4544e+08,2,5971,6014,14.96,3.12,30,21,0,0
1.0877e+05,1.4556e+08,2,6005,5914,14.9,3.43,30,21,0,0
1.0918e+05,1.4566e+08,2,5916,6057,14.93,3.32,30,21,0,0
1.0963e+05,1.4577e+08,2,6056,6000,14.89,3.18,30,21,0,0
1.1008e+05,1.4589e+08,2,6009,6100,14.89,3.03,30,21,0,0
1.1048e+05,1.4599e+08,2,6095,6000,14.9,3.09,30,21,0,0
1.1093e+05,1.461e+08,2,6001,6028,14.95,2.84,30,21,0,0
1.1138e+05,1.4621e+08,2,6016,5871,14.83,2.99,30,22,0,0
1.1178e+05,1.4631e+08,2,5870,5857,14.89,2.66,30,22,0,0
1.1223e+05,1.4643e+08,2,5855,5828,14.94,3.07,30,22,0,0
1.1268e+05,1.4653e+08,2,5832,6114,14.87,3.17,30,22,0,0
1.1312e+05,1.4665e+08,2,6108,5971,14.89,3.08,30,22,0,0
1.1357e+05,1.4676e+08,2,5973,6000,14.85,3.18,30,22,0,0
1.1402e+05,1.4686e+08,2,5994,5885,14.9,3.16,30,22,0,0
1.1446e+05,1.4697e+08,2,5886,5914,14.92,3.16,30,22,0,0
1.1491e+05,1.4708e+08,2,5923,6057,14.94,3.05,30,22,0,0
1.1536e+05,1.4719e+08,2,6038,5857,14.95,2.79,30,22,0,0
1.1581e+05,1.473e+08,2,5850,5785,14.88,2.97,30,22,0,0
1.1626e+05,1.4741e+08,2,5787,5814,14.88,3.03,30,23,0,0
1.167e+05,1.4752e+08,2,5817,5900,14.91,3,30,23,0,0
1.1715e+05,1.4763e+08,2,5894,5842,14.93,2.66,30,23,0,0
1.1756e+05,1.4773e+08,2,5831,5700,14.9,2.72,30,23,0,0
1.18e+05,1.4784e+08,2,5699,5657,14.84,3.08,30,23,0,0
1.1845e+05,1.4796e+08,2,5666,5771,14.91,3.01,30,23,0,0
1.1886e+05,1.4806e+08,2,5773,5857,14.87,2.96,30,23,0,0
1.1935e+05,1.4818e+08,2,5858,5871,14.92,3.2,30,23,0,0
1.1976e+05,1.4828e+08,2,5860,5757,14.91,3.24,30,23,0,0
1.202e+05,1.484e+08,2,5757,5757,14.82,3.33,30,23,0,0
1.206e+05,1.485e+08,2,5769,5914,14.81,3.61,30,23,0,0
1.2106e+05,1.486e+08,2,5912,5842,14.86,3.24,30,24,0,0
1.2151e+05,1.4872e+08,2,5855,5928,14.88,3.44,30,24,0,0
1.2192e+05,1.4882e+08,2,5929,6014,14.85,3.71,30,24,0,0
1.2236e+05,1.4893e+08,2,6010,5928,14.85,3.55,30,24,0,0
1.2281e+05,1.4904e+08,2,5938,6085,14.95,4.21,30,24,0,0
1.2326e+05,1.4915e+08,2,6099,6242,14.95,3.92,30,24,0,0
1.237e+05,1.4927e+08,2,6260,6442,14.89,3.72,30,24,0,0
1.2411e+05,1.4936e+08,2,6439,6300,14.94,3.28,30,24,0,0
1.2456e+05,1.4948e+08,2,6284,6157,14.84,3.29,30,24,0,0
1.2501e+05,1.4959e+08,2,6149,6071,14.88,3.32,30,25,0,0
1.2541e+05,1.4968e+08,2,6057,5800,14.88,3.33,30,25,0,0
1.2586e+05,1.498e+08,2,5802,5957,14.89,3.2,30,25,0,0
1.263e+05,1.4991e+08,2,5953,5857,14.89,2.94,30,25,0,0
1.2716e+05,1.5012e+08,2,5855,5728,14.91,3.27,30,25,0,0
1.2809e+05,1.5035e+08,2,5728,5742,14.9,2.75,30,25,0,0
1.285e+05,1.5045e+08,2,5743,5771,14.91,2.7,30,25,0,0
1.2894e+05,1.5056e+08,2,5769,5657,14.88,2.84,30,25,0,0
1.2939e+05,1.5067e+08,2,5655,5628,14.9,2.98,30,25,0,0
1.2984e+05,1.5078e+08,2,5631,5671,14.85,2.93,30,26,0,0
1.3033e+05,1.509e+08,2,5700,5957,14.94,3.67,30,26,0,0
1.3078e+05,1.5101e+08,2,5950,5814,14.85,3.72,30,26,0,0
1.3118e+05,1.5111e+08,2,5833,6000,14.92,3.36,30,26,0,0
1.3164e+05,1.5122e+08,2,5995,5928,14.86,3.45,30,26,0,0
1.3203e+05,1.5132e+08,2,5929,6014,14.92,3.72,30,26,0,0
1.3293e+05,1.5154e+08,2,6014,6028,14.94,3.65,30,26,0,0
1.3341e+05,1.5166e+08,2,6057,6300,14.87,4.08,30,26,0,0
1.3386e+05,1.5177e+08,2,6295,6257,14.86,3.77,30,27,0,0
1.3431e+05,1.5188e+08,2,6255,6242,14.91,3.47,30,27,0,0
1.3471e+05,1.5198e+08,2,6238,5957,14.92,3.48,30,27,0,0
1.3516e+05,1.5209e+08,2,5977,6171,14.95,3.41,30,27,0,0
1.3569e+05,1.5221e+08,2,6174,6214,14.9,3.46,30,27,0,0
1.3601e+05,1.523e+08,2,6211,6057,14.85,3.19,30,27,0,0
1.3646e+05,1.524e+08,2,6057,6071,14.9,3.13,30,27,0,0
1.369e+05,1.5252e+08,2,6068,5914,14.92,3.19,30,27,0,0
1.3738e+05,1.5263e+08,2,5913,5900,14.87,2.99,30,27,0,0
1.3827e+05,1.5285e+08,2,5898,5871,14.87,3.21,30,28,0,0
1.3868e+05,1.5295e+08,2,5878,6000,14.85,3.71,30,28,0,0
1.3913e+05,1.5306e+08,2,5999,5971,14.85,3.42,30,28,0,0
1.4003e+05,1.5328e+08,2,5973,6085,14.86,3.51,30,28,0,0
1.4047e+05,1.5339e+08,2,6061,5828,14.88,3.64,30,28,0,0
1.4091e+05,1.535e+08,2,5832,6014,14.87,3.18,30,28,0,0
1.4136e+05,1.5361e+08,2,6010,5885,14.92,3.37,30,28,0,0
1.4181e+05,1.5372e+08,2,5890,5942,14.9,3.31,30,28,0,0
1.4222e+05,1.5382e+08,2,5941,5928,14.85,3.07,30,28,0,0
1.4266e+05,1.5393e+08,2,5929,5942,14.89,3.57,30,29,0,0
1.431e+05,1.5404e+08,2,5953,6114,14.89,3.58,30,29,0,0
1.4356e+05,1.5415e+08,2,6109,6014,14.87,3.49,30,29,0,0
1.44e+05,1.5426e+08,2,6009,5971,14.89,3.68,30,29,0,0
1.4441e+05,1.5436e+08,2,5957,5814,14.91,3.31,30,29,0,0
1.4486e+05,1.5447e+08,2,5812,5800,14.85,3.39,30,29,0,0
1.453e+05,1.5458e+08,2,5810,5942,14.85,3.52,30,29,0,0
1.4575e+05,1.5469e+08,2,5949,6071,14.87,3.65,30,29,0,0
1.462e+05,1.548e+08,2,6052,5814,14.9,3.1,30,29,0,0
1.4661e+05,1.549e+08,2,5814,5814,14.88,3.26,30,30,0,0
1.4706e+05,1.5501e+08,2,5816,5857,14.84,3.36,30,30,0,0
1.4746e+05,1.5512e+08,2,5859,5957,14.85,3.15,30,30,0,0
1.4792e+05,1.5523e+08,2,5955,5900,14.82,3.11,30,30,0,0
1.484e+05,1.5534e+08,2,5903,5942,14.89,3.24,30,30,0,0
1.4884e+05,1.5546e+08,2,5932,5842,14.86,3.21,30,30,0,0
1.4924e+05,1.5555e+08,2,5844,5928,14.87,3.2,30,30,0,0
1.4969e+05,1.5566e+08,2,5928,5942,14.89,3.22,30,30,0,0
1.501e+05,1.5577e+08,2,5943,6014,14.88,3.07,30,30,0,0
1.5054e+05,1.5587e+08,2,6011,5914,14.85,3.3,30,30,0,0
1.51e+05,1.5599e+08,2,5919,5971,14.85,3.08,30,30,0,0
1.5141e+05,1.561e+08,2,5969,5942,14.86,3.27,30,31,0,0
1.5186e+05,1.5621e+08,2,5945,5985,14.85,3.39,30,31,0,0
1.523e+05,1.5631e+08,2,5993,6114,14.84,3.45,30,31,0,0
1.5279e+05,1.5643e+08,2,6095,5942,14.82,3.37,30,31,0,0
1.532e+05,1.5653e+08,2,5935,5842,14.85,3.45,30,31,0,0
1.5365e+05,1.5665e+08,2,5862,6071,14.82,3.3,30,31,0,0
1.5454e+05,1.5686e+08,2,6067,5985,14.84,3.48,30,31,0,0
1.5498e+05,1.5696e+08,2,5986,6014,14.84,3.71,30,31,0,0
1.5547e+05,1.5708e+08,2,6001,5871,14.82,3.61,30,32,0,0
1.5592e+05,1.5719e+08,2,5873,5914,14.79,3.6,30,32,0,0
1.5637e+05,1.573e+08,2,5926,6114,14.85,3.74,30,32,0,0
1.5677e+05,1.574e+08,2,6101,5842,14.82,3.3,30,32,0,0
1.5722e+05,1.5752e+08,2,5842,5842,14.79,3.24,30,32,0,0
1.5767e+05,1.5763e+08,2,5844,5871,14.83,3.25,30,32,0,0
1.5807e+05,1.5772e+08,2,5875,5957,14.85,3.33,30,32,0,0
1.5857e+05,1.5785e+08,2,5939,5785,14.81,2.86,30,32,0,0
1.5898e+05,1.5795e+08,2,5779,5728,14.85,2.93,30,32,0,0
1.5938e+05,1.5805e+08,2,5726,5657,14.83,2.83,30,32,0,0
1.5983e+05,1.5816e+08,2,5652,5557,14.86,3.17,30,33,0,0
1.6023e+05,1.5826e+08,2,5557,5585,14.9,2.86,30,33,0,0
1.6072e+05,1.5838e+08,2,5582,5542,14.89,2.84,30,33,0,0
1.6117e+05,1.5849e+08,2,5549,5700,14.92,3.28,30,33,0,0
1.6162e+05,1.586e+08,2,5702,5742,14.86,3.43,30,33,0,0
1.6207e+05,1.5871e+08,2,5747,5828,14.89,3.09,30,33,0,0
1.6252e+05,1.5882e+08,2,5815,5728,14.89,3.02,30,33,0,0
1.6296e+05,1.5893e+08,2,5749,5971,14.83,3.52,30,33,0,0
1.6337e+05,1.5903e+08,2,5970,5957,14.82,3.33,30,33,0,0
1.6382e+05,1.5914e+08,2,5965,6042,14.89,3.54,30,33,0,0
1.6422e+05,1.5925e+08,2,6034,5928,14.81,3.46,30,33,0,0
1.6467e+05,1.5935e+08,2,5934,6100,14.83,3.38,30,34,0,0
1.6511e+05,1.5946e+08,2,6091,5985,14.81,3.49,30,34,0,0
1.656e+05,1.5958e+08,2,5992,6071,14.8,3.9,30,34,0,0
1.6602e+05,1.5968e+08,2,6090,6285,14.86,3.82,30,34,0,0
1.6642e+05,1.5978e+08,2,6279,5885,14.91,2.78,30,34,0,0
1.6686e+05,1.5989e+08,2,5878,5742,14.99,2.56,30,34,0,0
1.6735e+05,1.6001e+08,2,5755,5900,14.89,3.19,30,34,0,0
1.6776e+05,1.6011e+08,2,5902,6100,14.88,3.36,30,34,0,0
1.6821e+05,1.6022e+08,2,6115,6328,14.81,3.1,30,34,0,0
1.6865e+05,1.6033e+08,2,6319,6228,14.88,3.04,30,34,0,0
1.6906e+05,1.6043e+08,2,6227,6185,14.85,3.09,30,35,0,0
1.6955e+05,1.6055e+08,2,6177,6057,14.83,3.25,30,35,0,0
1.6995e+05,1.6064e+08,2,6052,5871,14.86,3.17,30,35,0,0
1.704e+05,1.6075e+08,2,5878,6042,14.89,3.33,30,35,0,0
1.7085e+05,1.6087e+08,2,6031,5885,14.88,3.48,30,35,0,0
1.7129e+05,1.6097e+08,2,5893,6100,14.88,3.56,30,35,0,0
1.717e+05,1.6108e+08,2,6098,6014,14.89,3.07,30,35,0,0
1.7219e+05,1.6119e+08,2,5994,5800,14.91,3.8,30,35,0,0
1.7259e+05,1.613e+08,2,5802,5971,14.88,3.73,30,35,0,0
1.7308e+05,1.6142e+08,2,5976,6014,14.83,3.52,30,35,0,0
1.7349e+05,1.6152e+08,2,6021,6114,14.85,3.71,30,35,0,0
1.743e+05,1.6173e+08,2,6112,5914,14.84,3.32,30,36,0,0
1.7475e+05,1.6184e+08,2,5912,5828,14.87,3.28,30,36,0,0
1.7527e+05,1.6196e+08,2,5820,5742,14.85,3.31,30,36,0,0
1.7568e+05,1.6207e+08,2,5751,5942,14.88,3.16,30,36,0,0
1.7613e+05,1.6218e+08,2,5932,5842,14.85,2.91,30,36,0,0
1.7654e+05,1.6229e+08,2,5840,5800,14.82,3.26,30,36,0,0
1.7698e+05,1.6239e+08,2,5800,5857,14.85,3.37,30,36,0,0
1.7742e+05,1.625e+08,2,5858,5914,14.84,3.41,30,36,0,0
1.7788e+05,1.6261e+08,2,5918,6000,14.85,3.37,30,36,0,0
1.7832e+05,1.6273e+08,2,5984,5785,14.83,3.07,30,37,0,0
1.7872e+05,1.6283e+08,2,5781,5657,14.77,3.34,30,37,0,0
1.7917e+05,1.6293e+08,2,5660,5785,14.8,3.06,30,37,0,0
1.7962e+05,1.6304e+08,2,5780,5685,14.82,3.14,30,37,0,0
1.8051e+05,1.6327e+08,2,5687,5785,14.78,3.35,30,37,0,0
1.8096e+05,1.6337e+08,2,5786,5814,14.77,3.53,30,37,0,0
1.8141e+05,1.6349e+08,2,5817,5857,14.85,3.62,30,37,0,0
1.8185e+05,1.636e+08,2,5864,5914,14.82,3.66,30,37,0,0
1.8226e+05,1.637e+08,2,5925,6157,14.81,3.63,30,38,0,0
1.827e+05,1.6381e+08,2,6155,6071,14.82,3.58,30,38,0,0
1.8315e+05,1.6392e+08,2,6068,5900,14.75,4.01,30,38,0,0
1.836e+05,1.6403e+08,2,5910,6100,14.75,3.87,30,38,0,0
1.8405e+05,1.6414e+08,2,6092,6014,14.76,4.07,30,38,0,0
1.8449e+05,1.6426e+08,2,6037,6285,14.77,4.38,30,38,0,0
1.849e+05,1.6436e+08,2,6276,6200,14.75,4.14,30,38,0,0
1.8535e+05,1.6447e+08,2,6208,6300,14.77,4.32,30,38,0,0
1.8576e+05,1.6457e+08,2,6299,6285,14.78,4.45,30,39,0,0
1.862e+05,1.6468e+08,2,6285,6357,14.83,4.4,30,39,0,0
1.8669e+05,1.648e+08,2,6343,6214,14.77,4.38,30,39,0,0
1.8709e+05,1.649e+08,2,6232,6385,14.73,4.52,30,39,0,0
1.8754e+05,1.6501e+08,2,6366,6214,14.73,4.39,30,39,0,0
1.8794e+05,1.6511e+08,2,6214,6257,14.83,4.23,31,39,0,0
1.8838e+05,1.6522e+08,2,6254,6100,14.85,3.72,30,39,0,0
1.8932e+05,1.6545e+08,2,6086,5828,14.83,3.46,30,40,0,0
1.8976e+05,1.6555e+08,2,5828,5842,14.87,3.22,30,40,0,0
1.902e+05,1.6566e+08,2,5845,5985,14.85,2.91,30,40,0,0
1.9066e+05,1.6577e+08,2,5981,5728,14.87,2.89,30,40,0,0
1.9114e+05,1.6589e+08,2,5727,5700,14.73,3.26,30,40,0,0
1.9163e+05,1.6601e+08,2,5700,5700,14.73,3.51,30,40,0,0
1.9204e+05,1.6611e+08,2,5711,5828,14.73,3.72,30,40,0,0
1.9249e+05,1.6622e+08,2,5829,5842,14.83,3.79,30,40,0,0
1.9289e+05,1.6632e+08,2,5855,6057,14.79,3.45,30,40,0,0
1.9338e+05,1.6644e+08,2,6033,5700,14.8,3.21,30,40,0,0
1.9379e+05,1.6654e+08,2,5701,5742,14.85,3.59,31,41,0,0
1.9424e+05,1.6665e+08,2,5747,5900,14.82,3.56,30,41,0,0
1.9468e+05,1.6676e+08,2,5899,5885,14.86,3.31,30,41,0,0
1.9512e+05,1.6687e+08,2,5878,5742,14.87,3.46,31,41,0,0
1.9557e+05,1.6698e+08,2,5744,5785,14.83,3.21,31,41,0,0
1.9602e+05,1.6709e+08,2,5782,5757,14.86,3.32,30,41,0,0
1.9648e+05,1.672e+08,2,5763,5828,14.89,3.07,30,41,0,0
1.9691e+05,1.6731e+08,2,5822,5757,14.83,3.03,31,41,0,0
1.9732e+05,1.6742e+08,2,5745,5514,14.82,2.71,31,41,0,0
1.9776e+05,1.6753e+08,2,5515,5542,14.92,2.52,31,41,0,0
1.9822e+05,1.6764e+08,2,5557,5714,14.92,2.93,30,42,0,0
1.9867e+05,1.6775e+08,2,5733,5928,14.9,2.98,31,42,0,0
1.9906e+05,1.6785e+08,2,5926,5900,14.89,2.46,30,42,0,0
1.9951e+05,1.6796e+08,2,5904,6014,14.85,2.91,30,42,0,0
1.9997e+05,1.6807e+08,2,6005,5814,14.91,2.67,31,42,0,0
2.0041e+05,1.6818e+08,2,5814,5814,14.83,2.32,31,42,0,0
2.013e+05,1.684e+08,2,5796,5414,14.92,1.93,31,42,0,0
2.0174e+05,1.685e+08,2,5405,5285,14.96,1.76,30,42,0,0
2.0219e+05,1.6861e+08,2,5292,5385,14.88,2.3,30,42,0,0
2.0264e+05,1.6873e+08,2,5400,5557,14.82,2.29,30,42,0,0
2.0309e+05,1.6884e+08,2,5565,5628,14.82,2.44,31,42,0,0
2.0348e+05,1.6894e+08,2,5609,5271,14.86,1.87,30,42,0,0
2.0393e+05,1.6905e+08,2,5270,5257,14.86,2.09,31,42,0,0
2.0438e+05,1.6916e+08,2,5260,5342,14.88,2.54,30,43,0,0
2.0479e+05,1.6926e+08,2,5343,5371,14.87,2.2,30,43,0,0
2.0523e+05,1.6937e+08,2,5390,5642,14.9,2.54,30,43,0,0
2.0568e+05,1.6949e+08,2,5636,5571,14.86,2.27,31,43,0,0
2.0613e+05,1.696e+08,2,5564,5500,14.87,2.37,30,43,0,0
2.0654e+05,1.697e+08,2,5510,5614,14.83,2.6,30,43,0,0
2.0699e+05,1.6982e+08,2,5634,5785,14.81,2.97,31,43,0,0
2.0739e+05,1.6992e+08,2,5782,5714,14.82,2.8,30,43,0,0
2.0785e+05,1.7003e+08,2,5710,5685,14.86,2.88,30,43,0,0
2.0825e+05,1.7013e+08,2,5686,5728,14.86,2.51,30,43,0,0
2.087e+05,1.7024e+08,2,5737,6000,14.84,2.73,31,43,0,0
2.0914e+05,1.7034e+08,2,5994,5785,14.86,2.41,30,43,0,0
2.0959e+05,1.7046e+08,2,5769,5571,14.94,2.67,30,43,0,0
2.1004e+05,1.7057e+08,2,5561,5414,14.87,1.82,30,44,0,0
2.1048e+05,1.7068e+08,2,5407,5314,14.86,2.38,31,44,0,0
2.1093e+05,1.7079e+08,2,5314,5314,14.85,2.27,30,44,0,0
2.1138e+05,1.709e+08,2,5324,5457,14.95,2.25,30,44,0,0
2.1182e+05,1.71e+08,2,5462,5571,14.92,2.08,30,44,0,0
2.1224e+05,1.7111e+08,2,5572,5700,14.84,2.92,30,44,0,0
2.1268e+05,1.7122e+08,2,5697,5571,14.95,2.58,30,44,0,0
2.1317e+05,1.7134e+08,2,5569,5557,14.92,2.1,31,44,0,0
2.1364e+05,1.7145e+08,2,5515,5171,14.95,1.41,31,44,0,0
2.1388e+05,1.7155e+08,2,5167,5028,14.95,2.06,30,44,0,0
2.1433e+05,1.7166e+08,2,5059,5428,14.91,2.48,30,44,0,0
2.1563e+05,1.7199e+08,2,5430,5985,14.89,3.33,30,44,0,0
2.1608e+05,1.721e+08,2,5964,5785,14.89,1.98,30,45,0,0
2.1652e+05,1.722e+08,2,5789,5885,14.78,3.12,30,45,0,0
2.1696e+05,1.7231e+08,2,5920,6228,14.82,3.72,30,45,0,0
2.1741e+05,1.7242e+08,2,6229,6242,14.79,3.8,30,45,0,0
2.1786e+05,1.7253e+08,2,6249,6314,14.82,3.97,31,45,0,0
2.1826e+05,1.7264e+08,2,6313,6271,14.8,3.75,31,45,0,0
2.1875e+05,1.7276e+08,2,6278,6357,14.8,4.12,30,45,0,0
2.1916e+05,1.7286e+08,2,6351,6300,14.8,4.11,30,45,0,0
2.196e+05,1.7297e+08,2,6282,6142,14.83,3.89,31,45,0,0
2.2049e+05,1.7318e+08,2,6139,6057,14.85,3.3,30,46,0,0
2.2094e+05,1.733e+08,2,6028,5800,14.84,2.94,30,46,0,0
2.2134e+05,1.7339e+08,2,5799,5785,14.77,3.09,31,46,0,0
2.2179e+05,1.7351e+08,2,5784,5757,14.8,2.47,30,46,0,0
2.222e+05,1.7361e+08,2,5751,5385,14.81,2.47,31,46,0,0
2.2268e+05,1.7373e+08,2,5390,5442,14.79,2.7,31,46,0,0
2.2313e+05,1.7384e+08,2,5462,5628,14.83,3.27,30,46,0,0
2.2354e+05,1.7394e+08,2,5642,5800,14.75,3.47,31,46,0,0
2.2398e+05,1.7405e+08,2,5801,5828,14.78,3.32,30,46,0,0
2.2447e+05,1.7417e+08,2,5826,5814,14.76,3.11,30,46,0,0
2.249e+05,1.7427e+08,2,5823,5914,14.82,3.23,30,47,0,0
2.2531e+05,1.7437e+08,2,5914,5928,14.85,3.55,30,47,0,0
2.2572e+05,1.7448e+08,2,5932,6228,14.85,3.35,30,47,0,0
2.2665e+05,1.747e+08,2,6218,5957,14.85,2.62,30,47,0,0
2.271e+05,1.7481e+08,2,5939,5714,14.73,3.16,30,47,0,0
2.2751e+05,1.7492e+08,2,5734,5928,14.73,3.29,30,47,0,0
2.2795e+05,1.7503e+08,2,5922,5871,14.83,3.42,31,47,0,0
2.2836e+05,1.7513e+08,2,5871,5914,14.78,3.42,30,47,0,0
2.2884e+05,1.7524e+08,2,5919,5971,14.79,3.44,30,47,0,0
2.2973e+05,1.7546e+08,2,5965,5814,14.82,3.11,30,48,0,0
2.3018e+05,1.7557e+08,2,5830,6000,14.75,3.48,31,48,0,0
2.3107e+05,1.7579e+08,2,5993,5828,14.77,3.55,31,48,0,0
2.3147e+05,1.7589e+08,2,5831,6057,14.82,3.55,31,48,0,0
2.3192e+05,1.76e+08,2,6054,5942,14.81,3.52,31,48,0,0
2.3236e+05,1.7611e+08,2,5940,5914,14.76,3.11,31,48,0,0
2.3281e+05,1.7622e+08,2,5915,5942,14.75,3.51,31,48,0,0
2.3326e+05,1.7633e+08,2,5936,5871,14.82,3.29,31,48,0,0
2.3371e+05,1.7644e+08,2,5881,6114,14.79,3.88,30,49,0,0
2.3412e+05,1.7655e+08,2,6105,5914,14.82,3.59,31,49,0,0
2.3457e+05,1.7666e+08,2,5912,5842,14.84,3.17,30,49,0,0
2.3506e+05,1.7677e+08,2,5846,5914,14.81,3.71,31,49,0,0
2.355e+05,1.7688e+08,2,5912,5871,14.82,3.43,31,49,0,0
2.36e+05,1.77e+08,2,5890,6085,14.86,3.36,30,49,0,0
2.364e+05,1.771e+08,2,6068,5857,14.86,3.39,31,49,0,0
2.3685e+05,1.7721e+08,2,5873,6014,14.78,3.33,31,49,0,0
2.372e+05,1.7731e+08,2,6013,5985,14.8,3.63,30,49,0,0
2.3765e+05,1.7742e+08,2,5983,5942,14.75,3.3,31,49,0,0
2.381e+05,1.7753e+08,2,5949,6100,14.82,3.23,31,50,0,0
2.3855e+05,1.7764e+08,2,6091,5985,14.79,3.01,31,50,0,0
2.3901e+05,1.7775e+08,2,5990,6042,14.82,3.29,31,50,0,0
2.399e+05,1.7797e+08,2,6044,6142,14.8,4.18,31,50,0,0
2.4031e+05,1.7808e+08,2,6147,6257,14.85,3.91,31,50,0,0
2.4076e+05,1.7819e+08,2,6260,6328,14.72,4.41,31,50,0,0
2.412e+05,1.783e+08,2,6327,6314,14.7,4.32,31,50,0,0
2.4165e+05,1.7841e+08,2,6304,6214,14.8,4.14,31,51,0,0
2.4205e+05,1.7851e+08,2,6211,6057,14.83,4.06,31,51,0,0
2.4254e+05,1.7863e+08,2,6046,5957,14.79,3.84,31,51,0,0
2.4294e+05,1.7873e+08,2,5954,5828,14.82,3.35,31,51,0,0
2.4338e+05,1.7884e+08,2,5821,5728,14.92,3.27,31,51,0,0
2.4383e+05,1.7895e+08,2,5703,5457,14.96,1.62,31,51,0,0
2.4428e+05,1.7906e+08,2,5372,4057,15.33,0.3,31,51,0,0
2.4468e+05,1.7916e+08,2,4082,4557,15.05,2.86,31,51,0,0
2.4513e+05,1.7927e+08,2,4548,4357,15.22,1.08,31,51,0,0
2.4557e+05,1.7938e+08,2,4355,4328,15.17,1.08,31,51,0,0
2.4602e+05,1.7949e+08,2,4318,3914,15.23,0.29,31,51,0,0
2.4692e+05,1.7971e+08,2,3868,2857,15.19,0.21,31,51,0,0
2.4737e+05,1.7982e+08,2,2853,2800,15.19,0.57,31,51,0,0
2.4785e+05,1.7994e+08,2,2810,2914,15.2,0.54,31,51,0,0
2.4826e+05,1.8004e+08,2,2912,2900,15.2,0.41,31,51,0,0
2.4871e+05,1.8015e+08,2,2889,2785,15.19,0.43,31,51,0,0
2.4911e+05,1.8025e+08,2,2785,2828,15.22,0.47,31,51,0,0
2.4956e+05,1.8036e+08,2,2822,2742,15.22,0.34,31,51,0,0
2.5e+05,1.8047e+08,2,2745,2785,15.2,0.5,31,51,0,0
2.5041e+05,1.8057e+08,2,2785,2785,15.2,0.45,31,51,0,0
2.5086e+05,1.8069e+08,2,2783,2757,15.2,0.45,31,51,0,0
2.5127e+05,1.8079e+08,2,2758,2814,15.23,0.48,31,51,0,0
2.5171e+05,1.809e+08,2,2813,2800,15.22,0.43,31,51,0,0
2.5216e+05,1.8101e+08,2,2800,2800,15.22,0.43,30,51,0,0
2.526e+05,1.8111e+08,2,2799,2785,15.22,0.45,31,52,0,0
2.5309e+05,1.8123e+08,2,2786,2800,15.22,0.44,31,52,0,0
2.535e+05,1.8133e+08,2,2800,2800,15.22,0.48,31,52,0,0
2.539e+05,1.8143e+08,2,2800,2828,15.23,0.44,31,52,0,0
2.544e+05,1.8155e+08,2,2780,2000,15.27,0.02,31,52,0,0
2.5484e+05,1.8166e+08,2,1969,1542,15.28,0,30,52,0,0
2.557e+05,1.8187e+08,2,1540,1285,15.27,0.09,30,52,0,0
2.5622e+05,1.8199e+08,2,1283,1271,15.27,0.1,31,52,0,0
2.5663e+05,1.8209e+08,2,1271,1271,15.27,0.1,30,52,0,0
2.5708e+05,1.822e+08,2,1271,1271,15.27,0.1,30,52,0,0
2.5753e+05,1.8232e+08,2,1271,1271,15.27,0.1,30,52,0,0
2.5793e+05,1.8241e+08,2,1271,1271,15.28,0.1,31,52,0,0
2.5842e+05,1.8253e+08,2,1271,1271,15.27,0.1,30,52,0,0
2.5927e+05,1.8274e+08,2,1270,1257,15.28,0.1,30,52,0,0
2.5976e+05,1.8285e+08,2,1257,1257,15.29,0.1,30,52,0,0
2.6016e+05,1.8295e+08,2,1257,1257,15.28,0.1,30,52,0,0
2.6062e+05,1.8306e+08,2,1233,585,15.3,0.01,30,52,0,0
2.6107e+05,1.8317e+08,2,571,257,15.3,0.02,30,52,0,0
2.6157e+05,1.8328e+08,2,234,0,15.3,0.04,30,52,0,0
2.6202e+05,1.8339e+08,2,0,0,15.3,0.04,30,52,0,0
2.6251e+05,1.835e+08,2,0,0,15.3,0.04,30,52,0,0
2.6296e+05,1.8361e+08,2,0,0,15.3,0.04,30,52,0,0
2.6337e+05,1.8371e+08,2,0,0,15.31,0.04,30,52,0,0
2.6382e+05,1.8381e+08,2,0,0,15.3,0.04,30,52,0,0
2.6431e+05,1.8393e+08,2,0,0,15.3,0.04,30,52,0,0
2.6476e+05,1.8404e+08,2,0,0,15.31,0.03,30,52,0,0
2.6616e+05,1.8436e+08,2,0,0,15.32,0.04,30,52,0,0
2.6661e+05,1.8447e+08,2,0,0,15.32,0.04,30,52,0,0
2.6711e+05,1.8459e+08,2,0,0,15.31,0.04,30,52,0,0
2.6752e+05,1.8469e+08,2,0,0,15.32,0.03,30,52,0,0
2.6802e+05,1.848e+08,2,0,0,15.32,0.03,30,52,0,0
2.6846e+05,1.8491e+08,2,0,0,15.32,0.04,30,52,0,0
2.6892e+05,1.8501e+08,2,0,0,15.33,0.04,30,52,0,0
2.6936e+05,1.8512e+08,2,0,0,15.32,0.04,30,52,0,0
2.7031e+05,1.8535e+08,2,0,0,15.33,0.03,30,52,0,0
2.7076e+05,1.8545e+08,2,0,0,15.33,0.03,30,52,0,0
2.7126e+05,1.8557e+08,2,0,0,15.33,0.04,30,52,0,0
2.7167e+05,1.8567e+08,2,0,0,15.33,0.04,30,52,0,0
2.7216e+05,1.8578e+08,2,0,0,15.33,0.04,30,52,0,0
2.7261e+05,1.8589e+08,2,0,0,15.33,0.04,30,52,0,0
2.7307e+05,1.86e+08,2,0,0,15.33,0.04,30,52,0,0
2.7348e+05,1.861e+08,2,0,0,15.33,0.04,30,52,0,0
2.7442e+05,1.8633e+08,2,0,0,15.34,0.04,30,52,0,0
2.7488e+05,1.8644e+08,2,0,0,15.33,0.04,30,52,0,0
2.7537e+05,1.8655e+08,2,0,0,15.33,0.04,30,52,0,0
2.7582e+05,1.8666e+08,2,0,0,15.33,0.04,30,52,0,0
2.7627e+05,1.8676e+08,2,0,0,15.34,0.04,30,52,0,0
2.7676e+05,1.8688e+08,2,0,0,15.34,0.04,30,52,0,0
2.7767e+05,1.8709e+08,2,0,0,15.34,0.04,30,52,0,0
2.7816e+05,1.8721e+08,2,0,0,15.34,0.04,30,52,0,0
2.7857e+05,1.8731e+08,2,0,0,15.35,0.04,30,52,0,0
2.7907e+05,1.8742e+08,2,0,0,15.34,0.04,30,52,0,0
2.7952e+05,1.8753e+08,2,0,0,15.34,0.04,30,52,0,0
2.8001e+05,1.8764e+08,2,0,0,15.35,0.04,30,52,0,0
2.8046e+05,1.8775e+08,2,0,0,15.34,0.04,30,52,0,0
2.8086e+05,1.8785e+08,2,0,0,15.34,0.04,30,52,0,0
2.8137e+05,1.8797e+08,2,0,0,15.35,0.04,30,52,0,0
2.8182e+05,1.8807e+08,2,0,0,15.35,0.04,30,52,0,0
2.8227e+05,1.8818e+08,2,0,0,15.35,0.04,30,52,0,0
2.8318e+05,1.884e+08,2,0,0,15.35,0.04,30,52,0,0
2.8363e+05,1.8851e+08,2,0,0,15.35,0.04,30,52,0,0
2.8413e+05,1.8862e+08,2,0,0,15.35,0.04,30,52,0,0
2.8453e+05,1.8872e+08,2,0,0,15.35,0.04,30,52,0,0
2.8502e+05,1.8883e+08,2,0,0,15.35,0.04,30,52,0,0
2.8548e+05,1.8894e+08,2,0,0,15.35,0.04,30,52,0,0
2.8593e+05,1.8905e+08,2,0,0,15.35,0.04,30,52,0,0
2.8642e+05,1.8916e+08,2,0,0,15.36,0.04,30,52,0,0
2.8684e+05,1.8926e+08,2,0,0,15.35,0.04,30,52,0,0
2.8733e+05,1.8938e+08,2,0,0,15.35,0.04,30,52,0,0
2.8774e+05,1.8947e+08,2,0,0,15.35,0.04,30,52,0,0
2.8824e+05,1.8959e+08,2,0,0,15.35,0.04,30,52,0,0
2.8874e+05,1.8971e+08,2,0,0,15.36,0.04,30,52,0,0
2.8919e+05,1.8981e+08,2,0,0,15.36,0.04,30,52,0,0
2.8965e+05,1.8992e+08,2,0,0,15.36,0.04,30,52,0,0
2.901e+05,1.9002e+08,2,0,0,15.36,0.04,30,52,0,0
2.9055e+05,1.9013e+08,2,0,0,15.36,0.04,30,52,0,0
2.91e+05,1.9024e+08,2,0,0,15.36,0.04,30,52,0,0
2.915e+05,1.9036e+08,2,0,0,15.36,0.04,30,52,0,0
2.9195e+05,1.9047e+08,2,0,0,15.36,0.04,30,52,0,0
2.9241e+05,1.9057e+08,2,0,0,15.36,0.04,30,52,0,0
2.9335e+05,1.9079e+08,2,0,0,15.36,0.04,30,52,0,0
2.9381e+05,1.909e+08,2,0,0,15.36,0.04,30,52,0,0
2.9426e+05,1.91e+08,2,0,0,15.36,0.04,30,52,0,0
2.9471e+05,1.9111e+08,2,0,0,15.37,0.04,30,52,0,0
2.952e+05,1.9123e+08,2,0,0,15.37,0.04,30,52,0,0
2.9566e+05,1.9133e+08,2,0,0,15.37,0.04,30,52,0,0
2.9615e+05,1.9145e+08,2,0,0,15.37,0.04,30,52,0,0
2.966e+05,1.9155e+08,2,0,0,15.37,0.04,30,52,0,0
2.9706e+05,1.9166e+08,2,0,0,15.37,0.04,30,52,0,0
2.9755e+05,1.9177e+08,2,0,0,15.38,0.04,30,52,0,0
2.985e+05,1.9199e+08,2,0,0,15.38,0.04,30,52,0,0
2.9894e+05,1.921e+08,2,0,0,15.38,0.04,30,52,0,0
2.9989e+05,1.9231e+08,2,0,0,15.38,0.04,30,52,0,0
3.0035e+05,1.9242e+08,2,0,0,15.38,0.04,30,52,0,0
3.008e+05,1.9253e+08,2,0,0,15.38,0.04,30,52,0,0
3.013e+05,1.9265e+08,2,0,0,15.38,0.04,30,52,0,0
3.017e+05,1.9274e+08,2,0,0,15.38,0.04,30,52,0,0
3.0216e+05,1.9285e+08,2,0,0,15.38,0.04,30,52,0,0
3.0265e+05,1.9296e+08,2,0,0,15.38,0.04,30,52,0,0
3.031e+05,1.9307e+08,2,0,0,15.38,0.04,30,52,0,0
3.0355e+05,1.9317e+08,2,0,0,15.38,0.04,30,52,0,0
3.0405e+05,1.9329e+08,2,0,0,15.39,0.04,30,52,0,0
3.0451e+05,1.9339e+08,2,0,0,15.38,0.04,30,52,0,0
3.0496e+05,1.935e+08,2,0,0,15.39,0.04,30,52,0,0
