LineNo,TimeUS,Instance,RPM,RawRPM,Volt,Curr,Temp,CTot,MotTemp,Err
1961,119172160,5,0,0,15.85,0.05,25,0,0,0
2453,119286651,5,0,0,15.85,0.05,25,0,0,0
2951,119399364,5,0,0,15.85,0.05,25,0,0,0
3359,119494529,5,0,0,15.84,0.05,25,0,0,0
3857,119607328,5,0,0,15.85,0.05,25,0,0,0
4311,119712871,5,0,0,15.83,0.05,25,0,0,0
4809,119824685,5,0,0,15.85,0.05,25,0,0,0
5258,119929544,5,0,0,15.84,0.05,25,0,0,0
5712,120038536,5,0,0,15.85,0.05,25,0,0,0
6206,120151282,5,0,0,15.85,0.05,25,0,0,0
6656,120256706,5,6,185,15.83,0.04,25,0,0,0
7108,120360108,5,188,457,15.83,0.08,25,0,0,0
7604,120474257,5,490,828,15.82,0.14,25,0,0,0
8057,120577565,5,832,1142,15.82,0.15,25,0,0,0
8554,120692129,5,1146,1214,15.83,0.12,25,0,0,0
9008,120794630,5,1215,1242,15.82,0.12,25,0,0,0
9468,120906372,5,1249,1457,15.79,0.24,25,0,0,0
9968,121020924,5,1505,1971,15.61,0.66,25,0,0,0
10419,121130807,5,2067,3057,15.84,1.29,25,0,0,0
10875,121244570,5,3075,3242,15.8,0.96,25,0,0,0
11288,121347402,5,3271,3542,15.39,1.66,25,0,0,0
11700,121448023,5,3579,4271,15.41,2.37,25,0,0,0
12195,121564490,5,4342,5042,15.17,3.68,25,0,0,0
12610,121667922,5,5100,5885,14.98,5.05,25,0,0,0
13518,121889686,5,5896,6214,15.16,3.9,25,0,0,0
14420,122101923,5,6214,6228,15.17,4.33,25,1,0,0
14917,122222716,5,6233,6285,15.13,4.51,25,1,0,0
15367,122329919,5,6294,6428,15.13,4.84,25,1,0,0
15773,122429700,5,6430,6657,15.17,5.06,25,1,0,0
16269,122547391,5,6648,6542,15.04,4.78,25,1,0,0
16724,122662153,5,6532,6442,15.13,4.83,25,1,0,0
17174,122770312,5,6463,6657,15.12,5.05,25,1,0,0
17545,122863391,5,6653,6442,15.17,5.31,25,2,0,0
18043,122980722,5,6471,6742,15.21,4.73,25,2,0,0
18764,123312490,5,6357,6242,15.23,4.32,25,2,0,0
19170,123412562,5,6236,6000,15.34,3.22,26,2,0,0
19621,123525127,5,5981,5785,15.33,2.81,26,2,0,0
20067,123636853,5,5783,5728,15.26,3.22,26,3,0,0
20470,123733326,5,5725,5571,15.27,2.6,25,3,0,0
20915,123846515,5,5554,5371,15.29,2.51,25,3,0,0
21368,123957192,5,5363,5300,15.34,2.23,25,3,0,0
21773,124062408,5,5297,5271,15.3,2.37,26,3,0,0
22220,124170214,5,5268,5242,15.3,2.54,26,3,0,0
22629,124276935,5,5245,5300,15.28,3.01,26,3,0,0
23082,124391696,5,5313,5557,15.32,2.94,26,3,0,0
23533,124501528,5,5587,5842,15.22,3.94,26,3,0,0
23943,124608335,5,5858,5985,15.2,3.83,26,3,0,0
24390,124715294,5,5985,5985,15.24,3.71,26,3,0,0
24870,124827024,5,5980,5914,15.26,3.6,26,3,0,0
25313,124937317,5,5934,6114,15.23,3.47,26,4,0,0
25766,125054568,5,6090,5928,15.24,3.54,26,4,0,0
26212,125162047,5,5931,5971,15.26,3.68,26,4,0,0
27060,125365867,5,5969,5728,15.27,3.06,26,4,0,0
27516,125488518,5,5723,5657,15.29,3.29,26,4,0,0
27959,125587620,5,5681,5928,15.29,3.72,26,4,0,0
28366,125689158,5,5923,5828,15.29,3.66,26,4,0,0
28816,125806259,5,5833,5885,15.21,3.29,26,4,0,0
29227,125913327,5,5888,5914,15.24,3.42,26,4,0,0
29633,126008577,5,5910,5714,15.29,2.67,26,5,0,0
30117,126133317,5,5715,5728,15.26,3.08,26,5,0,0
30525,126233818,5,5745,5871,15.28,3.7,26,5,0,0
30931,126340746,5,5874,6128,15.24,3.86,26,5,0,0
31414,126454887,5,6116,5928,15.24,3.1,26,5,0,0
31868,126568394,5,5915,5771,15.23,3.3,26,5,0,0
32308,126669511,5,5788,5971,15.22,3.4,26,5,0,0
32758,126782138,5,5967,5942,15.22,3.46,26,5,0,0
33129,126877830,5,5941,5914,15.2,3.22,26,5,0,0
33618,126997286,5,5916,5942,15.23,3.55,26,5,0,0
34027,127100049,5,5940,5928,15.18,3.6,26,6,0,0
34482,127212917,5,5929,5942,15.2,3.84,26,6,0,0
34885,127319811,5,5972,6171,15.2,4.03,26,6,0,0
35328,127422209,5,6156,6014,15.19,3.71,26,6,0,0
35778,127538846,5,6018,6057,15.09,3.96,26,6,0,0
36675,127760650,5,6055,6028,15.17,3.53,26,6,0,0
37121,127865809,5,6013,5842,15.15,3.35,26,6,0,0
37571,127979812,5,5832,5771,15.17,2.72,26,7,0,0
37974,128084066,5,5772,5785,15.17,3.03,26,7,0,0
38420,128190180,5,5780,5671,15.2,3.39,26,7,0,0
38904,128303575,5,5679,5757,15.14,3.18,26,7,0,0
39354,128411607,5,5764,5914,15.16,3.76,26,7,0,0
39749,128512916,5,5914,5942,15.11,3.45,26,7,0,0
40198,128623295,5,5948,6057,15.12,4.14,26,7,0,0
40648,128737567,5,6063,6100,15.11,3.86,26,7,0,0
41053,128834018,5,6099,6028,15.11,3.89,26,7,0,0
42388,129165634,5,6036,6271,15.08,4.3,26,8,0,0
42792,129265043,5,6269,6171,15.16,3.81,26,8,0,0
43283,129389090,5,6155,6057,15.16,3.61,26,8,0,0
43691,129492351,5,6053,6014,15.19,3.22,26,8,0,0
44142,129600977,5,6006,5928,15.2,3.37,26,8,0,0
44544,129702321,5,5925,5785,15.26,3.07,27,8,0,0
45037,129823580,5,5795,5942,15.1,4.06,26,8,0,0
45438,129922168,5,5942,5942,15.16,3.59,27,9,0,0
45887,130038519,5,5948,6000,15.15,3.72,27,9,0,0
46327,130141698,5,5987,5871,15.18,3.28,27,9,0,0
46774,130255925,5,5884,6085,15.19,3.84,27,9,0,0
47190,130356866,5,6062,5771,15.19,2.85,27,9,0,0
47635,130470909,5,5789,5914,15.02,4.51,27,9,0,0
48081,130577372,5,5939,6157,15.13,4.1,27,9,0,0
48493,130685948,5,6157,6157,15.07,4.23,27,9,0,0
49386,130898334,5,6153,6057,15.13,3.92,27,10,0,0
49841,131014391,5,6063,6128,15.11,3.44,27,10,0,0
50281,131123972,5,6106,5871,15.15,3.55,27,10,0,0
50684,131229328,5,5871,5871,15.1,3.81,27,10,0,0
51131,131335642,5,5871,5885,15.11,3.74,27,10,0,0
51580,131445030,5,5887,5928,15.05,3.7,27,10,0,0
52026,131552037,5,5926,5900,15.13,3.39,27,10,0,0
52430,131656697,5,5902,6114,15.15,3.79,27,10,0,0
52885,131771024,5,6111,5942,15.15,3.03,27,10,0,0
53367,131886337,5,5921,5642,15.16,2.95,27,11,0,0
53817,131994639,5,5650,5742,15.1,3.45,27,11,0,0
54257,132103890,5,5753,5871,15.14,3.43,27,11,0,0
54705,132212606,5,5865,5800,15.13,3.64,27,11,0,0
55117,132322056,5,5821,6042,15.16,3.54,27,11,0,0
55562,132430697,5,6025,5900,15.1,3.51,27,11,0,0
56414,132641726,5,5900,5985,15.05,3.99,27,11,0,0
56861,132748989,5,5996,6157,15.16,3.8,27,11,0,0
57313,132863212,5,6137,5842,15.12,3.6,27,12,0,0
57761,132973536,5,5879,6242,15.1,4.67,27,12,0,0
58165,133077723,5,6246,6314,15.07,3.93,27,12,0,0
58614,133186868,5,6305,6100,15.1,3.86,27,12,0,0
59022,133293669,5,6100,6114,15.14,3.7,27,12,0,0
59473,133402090,5,6109,5814,15.14,3.27,27,12,0,0
59955,133519857,5,5814,5814,15.1,3.44,27,12,0,0
60365,133626353,5,5818,5928,15.1,3.57,27,12,0,0
60812,133732562,5,5916,5771,15.15,3.29,27,12,0,0
61707,133948095,5,5768,5600,15.21,2.98,27,13,0,0
62595,134164298,5,5602,5800,15.11,3.81,27,13,0,0
63043,134275380,5,5799,5785,15.24,2.79,27,13,0,0
63494,134385264,5,5788,5857,15.17,3.26,27,13,0,0
63938,134493568,5,5843,5571,15.13,2.91,27,13,0,0
64796,134710090,5,5569,5514,15.18,2.86,27,13,0,0
65248,134820862,5,5522,5600,15.09,3.31,27,13,0,0
65696,134932507,5,5605,5671,15.14,2.96,27,13,0,0
66098,135036056,5,5671,5685,15.11,3.03,27,14,0,0
66546,135145621,5,5685,5685,15.13,3.27,27,14,0,0
66989,135257084,5,5686,5714,15.11,3.27,27,14,0,0
67446,135368585,5,5721,5928,15.11,3.43,27,14,0,0
67887,135475333,5,5930,5985,15.11,3.71,27,14,0,0
68368,135585531,5,5983,5971,15.09,3.66,27,14,0,0
68774,135689576,5,5974,6014,15.12,3.18,27,14,0,0
69228,135798278,5,5997,5771,15.1,3.16,27,14,0,0
69676,135909307,5,5772,5785,15.11,3.24,27,14,0,0
70126,136020943,5,5783,5771,15.14,3.07,27,14,0,0
70527,136119580,5,5770,5757,15.13,3.03,27,15,0,0
70972,136230986,5,5755,5642,15.18,3.13,27,15,0,0
71471,136352073,5,5645,5685,15.15,3.12,27,15,0,0
71833,136447526,5,5684,5671,15.15,3,27,15,0,0
72327,136563503,5,5676,5728,15.13,3.18,27,15,0,0
72724,136664841,5,5726,5700,15.14,3.21,27,15,0,0
73628,136887862,5,5700,5700,15.14,3.09,27,15,0,0
74080,136997837,5,5710,5857,15.16,3.63,27,15,0,0
74519,137105700,5,5854,5800,15.17,3.32,27,15,0,0
74972,137217904,5,5800,5800,15.14,3.06,27,16,0,0
75377,137321633,5,5795,5700,15.14,3.24,27,16,0,0
75821,137433081,5,5700,5742,15.08,3.33,27,16,0,0
76232,137536694,5,5740,5685,15.16,3.41,27,16,0,0
76710,137652540,5,5702,5928,15.14,3.41,27,16,0,0
77166,137763723,5,5926,5914,15.08,3.71,27,16,0,0
77577,137871720,5,5906,5814,15.11,3.51,27,16,0,0
78025,137982012,5,5817,5857,15.14,3.5,27,16,0,0
78428,138083363,5,5838,5500,15.17,2.64,27,16,0,0
78876,138191991,5,5511,5728,15.14,3.5,27,16,0,0
79323,138303874,5,5729,5757,15.11,3.2,27,16,0,0
79770,138419571,5,5755,5742,15.11,3.29,27,17,0,0
80216,138525889,5,5765,6000,15.13,3.56,27,17,0,0
80657,138630824,5,6005,6114,15.06,4.01,27,17,0,0
81111,138744375,5,6114,6114,15.07,3.83,27,17,0,0
81521,138848659,5,6112,6071,15.07,3.56,27,17,0,0
81966,138954879,5,6072,6171,14.99,3.9,27,17,0,0
82406,139061316,5,6171,6185,15.09,3.47,27,17,0,0
82896,139178413,5,6169,5857,15.1,3.23,27,17,0,0
83304,139285525,5,5856,5842,15.11,3.21,27,17,0,0
83788,139399853,5,5820,5600,15.08,3.35,27,18,0,0
84187,139499040,5,5614,5885,15.08,3.6,27,18,0,0
84644,139614708,5,5888,5928,15.07,3.82,27,18,0,0
85085,139722359,5,5939,6128,14.97,4.16,27,18,0,0
85495,139828562,5,6125,6071,15.05,3.64,27,18,0,0
85981,139940100,5,6059,5885,15.14,2.94,27,18,0,0
86869,140157899,5,5878,5342,15.08,2.47,27,18,0,0
87323,140273725,5,5356,5514,15.22,2.91,27,18,0,0
87727,140372898,5,5511,5357,15.2,2.3,27,19,0,0
88168,140483086,5,5357,5371,15.03,3.28,27,19,0,0
88618,140591597,5,5397,5771,15.1,3.4,27,19,0,0
89025,140695220,5,5769,5700,15.14,2.84,27,19,0,0
89959,140921722,5,5695,5571,15.02,3.34,28,19,0,0
90407,141031349,5,5574,5714,15.01,3.53,27,19,0,0
90852,141137681,5,5728,6014,15.08,3.81,27,19,0,0
91309,141255909,5,6021,6100,15.05,3.53,27,19,0,0
92160,141466138,5,6099,6085,15.02,3.76,28,20,0,0
92609,141574622,5,6088,6142,15.01,4.1,28,20,0,0
93058,141692478,5,6147,6200,15,4.12,27,20,0,0
93509,141798390,5,6197,6171,15.02,4.26,27,20,0,0
93951,141910749,5,6163,6114,15.07,3.79,27,20,0,0
94356,142005562,5,6114,6142,15.04,3.88,27,20,0,0
94803,142119094,5,6135,5971,15.01,3.95,27,20,0,0
95286,142232504,5,5986,6142,15.01,4.22,27,20,0,0
95738,142345621,5,6139,6114,15.06,4.14,27,21,0,0
96176,142453261,5,6112,6100,14.97,4,28,21,0,0
96630,142559259,5,6100,6100,14.97,3.85,27,21,0,0
97032,142663547,5,6100,6100,14.98,3.77,28,21,0,0
97477,142772067,5,6099,6085,15.07,3.82,28,21,0,0
98412,143002608,5,6080,6014,15.02,3.82,28,21,0,0
98813,143103404,5,6009,5785,15.02,3.51,27,21,0,0
99311,143222930,5,5803,5971,15,3.84,28,21,0,0
100125,143430126,5,5972,6100,15.02,3.91,28,22,0,0
100611,143546965,5,6085,5942,15,3.92,28,22,0,0
101015,143655056,5,5938,5857,15,3.79,28,22,0,0
101462,143760907,5,5862,6000,14.93,4.1,28,22,0,0
102392,143983045,5,6006,6271,14.91,4.35,28,22,0,0
102795,144085950,5,6271,6271,14.93,4.26,28,22,0,0
103252,144201196,5,6256,6128,14.94,3.86,28,22,0,0
103658,144300974,5,6127,6114,14.97,4.39,28,23,0,0
104104,144410877,5,6118,6242,14.94,4.42,28,23,0,0
104508,144513365,5,6241,6214,14.91,4.37,28,23,0,0
105000,144638491,5,6202,6085,14.92,4.05,28,23,0,0
105451,144747862,5,6082,6057,15,3.9,28,23,0,0
105849,144845889,5,6058,6171,14.96,4.1,28,23,0,0
106299,144954713,5,6172,6200,15.01,4.23,28,23,0,0
106747,145065928,5,6196,6128,14.97,4.12,28,24,0,0
107642,145287098,5,6133,6300,15.01,3.55,28,24,0,0
108502,145500039,5,6293,5542,15.02,2.95,28,24,0,0
108952,145610596,5,5542,5585,15.12,3.09,28,24,0,0
109398,145718529,5,5584,5557,15.02,3.5,28,24,0,0
109844,145832554,5,5560,5600,15.11,3.18,28,24,0,0
110294,145941456,5,5606,5700,15.08,3.28,28,24,0,0
110698,146045399,5,5697,5657,15.1,2.8,28,24,0,0
111144,146153518,5,5653,5514,15.11,2.9,28,25,0,0
111554,146260860,5,5514,5585,15.07,3.12,28,25,0,0
112001,146370107,5,5586,5685,15.03,3.15,28,25,0,0
112447,146481415,5,5690,5828,15.05,3.54,28,25,0,0
112896,146590592,5,5826,5742,15.08,3.74,28,25,0,0
113344,146702854,5,5757,5942,15.03,3.91,28,25,0,0
113791,146810285,5,5947,6057,15,3.6,28,25,0,0
114684,147032190,5,6039,5657,15.11,2.96,28,25,0,0
115129,147138508,5,5641,5442,15.07,2.9,28,25,0,0
115580,147250015,5,5457,5628,15.07,3.19,28,26,0,0
116027,147356833,5,5633,5685,14.98,3.42,28,26,0,0
116469,147466065,5,5690,5771,15.05,3.28,28,26,0,0
116918,147576558,5,5756,5600,15.06,2.75,28,26,0,0
117326,147680328,5,5586,5457,15.04,3.06,28,26,0,0
117773,147786094,5,5465,5657,14.93,3.4,28,26,0,0
118226,147903926,5,5647,5557,15.11,2.59,28,26,0,0
118676,148013330,5,5557,5557,15.05,3.18,28,26,0,0
119072,148113098,5,5563,5828,14.97,3.67,28,26,0,0
119530,148230828,5,5825,5771,15.01,3.53,28,26,0,0
119975,148337939,5,5776,5828,15,3.45,28,27,0,0
120381,148442788,5,5844,5985,14.96,4.15,28,27,0,0
120827,148551037,5,5987,6142,14.99,3.85,28,27,0,0
121276,148663583,5,6126,5971,15.04,3.69,28,27,0,0
121688,148766534,5,5966,5900,15.04,3.42,28,27,0,0
122132,148878606,5,5910,6057,14.94,4.25,28,27,0,0
122583,148987555,5,6046,5900,15.03,2.88,28,27,0,0
123029,149099630,5,5878,5657,15.07,3.63,28,27,0,0
123477,149205406,5,5653,5600,15.12,3.11,28,27,0,0
123882,149311251,5,5603,5657,15.05,3.53,28,28,0,0
124289,149412111,5,5658,5771,15.1,3.55,28,28,0,0
125177,149631608,5,5772,5842,15.08,3.16,28,28,0,0
125629,149741261,5,5829,5571,14.98,3.13,28,28,0,0
126079,149854912,5,5579,5700,15.07,3.29,28,28,0,0
126526,149963040,5,5691,5571,15.11,2.94,28,28,0,0
126929,150066048,5,5570,5528,15.05,2.95,28,28,0,0
127425,150182863,5,5503,5271,15.08,2.64,28,28,0,0
127867,150292548,5,5280,5371,15.07,2.98,28,28,0,0
128318,150402286,5,5374,5414,15.06,3.05,28,28,0,0
128721,150506343,5,5419,5542,15.07,3.03,28,29,0,0
129176,150621054,5,5521,5357,14.98,2.63,28,29,0,0
129618,150725577,5,5347,5214,15.06,2.76,28,29,0,0
130103,150841678,5,5216,5257,15.02,2.91,28,29,0,0
130511,150943357,5,5265,5442,15.07,3.19,28,29,0,0
130958,151053993,5,5440,5400,15.01,2.97,28,29,0,0
131413,151163791,5,5406,5485,14.99,3.23,28,29,0,0
131855,151274043,5,5503,5742,15.04,3.26,28,29,0,0
132261,151374562,5,5735,5585,15.07,3.22,28,29,0,0
132713,151487613,5,5588,5671,15.05,3.03,28,29,0,0
133161,151594106,5,5668,5600,15.08,3.06,28,29,0,0
133602,151700350,5,5601,5628,15.05,3.16,28,30,0,0
134049,151809631,5,5624,5571,15.06,3.47,28,30,0,0
134493,151920084,5,5568,5528,15.06,3.34,28,30,0,0
134990,152045116,5,5541,5700,15.05,3.24,28,30,0,0
135392,152142541,5,5666,5371,15.04,2.87,28,30,0,0
136283,152361116,5,5367,5285,15.13,2.57,28,30,0,0
136681,152460587,5,5288,5414,15.1,2.95,28,30,0,0
138058,152789358,5,5415,5485,15.05,2.62,28,30,0,0
138502,152899861,5,5485,5485,15.01,2.79,28,31,0,0
138912,153002294,5,5488,5571,14.95,3.41,28,31,0,0
139359,153112405,5,5569,5500,15.05,3.15,28,31,0,0
139809,153224860,5,5513,5628,15.02,3.13,28,31,0,0
140251,153332481,5,5628,5628,15.01,3.64,28,31,0,0
140687,153437824,5,5631,5771,14.98,3.17,28,31,0,0
141140,153550189,5,5761,5528,15.01,3.25,28,31,0,0
141588,153660627,5,5531,5614,15,3.28,28,31,0,0
142040,153772395,5,5607,5542,15.01,3.17,28,31,0,0
142445,153876569,5,5556,5757,15.07,3.63,28,31,0,0
143336,154093053,5,5760,5871,15.03,3.56,28,32,0,0
143785,154199383,5,5869,5828,15.04,3.45,28,32,0,0
144231,154313806,5,5827,5814,15.02,3.88,28,32,0,0
144641,154415565,5,5823,5942,15.03,3.71,28,32,0,0
145084,154528052,5,5939,5914,15.04,3.38,28,32,0,0
145532,154635101,5,5913,5857,14.96,3.66,28,32,0,0
145981,154741625,5,5841,5628,15.05,3.25,28,32,0,0
146387,154847826,5,5629,5742,15.02,3.39,28,32,0,0
146834,154955290,5,5743,5828,15.06,3.23,28,32,0,0
147284,155070875,5,5826,5814,15.05,3.32,28,32,0,0
147693,155171011,5,5816,5971,15.04,3.47,28,33,0,0
148176,155285326,5,5957,5771,15.01,3.43,28,33,0,0
148626,155395951,5,5768,5742,15.05,3.4,28,33,0,0
149026,155497808,5,5741,5714,14.98,3.37,28,33,0,0
149478,155605825,5,5725,5971,15.03,3.64,28,33,0,0
149924,155715845,5,5962,5785,14.95,3.46,28,33,0,0
150373,155829610,5,5802,5957,14.99,3.62,28,33,0,0
150821,155937938,5,5948,5857,15.05,3.46,28,33,0,0
151229,156045301,5,5866,5971,15.02,3.39,28,33,0,0
151639,156147280,5,5970,5914,14.99,3.55,28,34,0,0
152084,156259713,5,5906,5814,15.03,3.63,28,34,0,0
152533,156365842,5,5814,5842,14.98,3.32,28,34,0,0
152975,156473607,5,5846,6042,14.97,3.76,28,34,0,0
153426,156584049,5,6036,5914,14.98,3.54,28,34,0,0
153875,156696632,5,5918,5985,15.05,3.57,28,34,0,0
154328,156809342,5,5981,5957,15.02,3.63,28,34,0,0
154806,156919634,5,5946,5871,14.97,3.34,28,34,0,0
155259,157025612,5,5863,5785,14.97,3.63,28,34,0,0
155698,157134952,5,5799,5971,14.97,3.73,28,35,0,0
156139,157243103,5,5973,6028,15,3.63,28,35,0,0
156590,157358048,5,6011,5842,14.99,3.18,28,35,0,0
156995,157460667,5,5837,5771,15,3.28,28,35,0,0
157447,157568949,5,5766,5728,15.06,3.33,28,35,0,0
157854,157668374,5,5731,5985,15,3.54,28,35,0,0
158345,157788535,5,5981,5942,15.03,3.29,28,35,0,0
159199,157999990,5,5932,5685,15.04,3.36,28,35,0,0
159643,158112499,5,5685,5685,15.01,2.79,28,35,0,0
160493,158323930,5,5683,5557,15.01,2.92,28,36,0,0
160938,158435100,5,5559,5585,15.02,2.91,28,36,0,0
161390,158542947,5,5597,5785,14.99,3.49,28,36,0,0
161841,158655492,5,5778,5714,15.05,2.98,28,36,0,0
162291,158765043,5,5705,5542,15.12,2.85,28,36,0,0
162688,158863378,5,5543,5600,14.98,3.34,28,36,0,0
163145,158978031,5,5609,5728,15.02,3.46,28,36,0,0
163592,159090082,5,5734,5800,14.98,3.26,28,36,0,0
164037,159197258,5,5803,5842,15.03,3.08,28,36,0,0
164443,159302488,5,5835,5771,15.03,3.15,28,37,0,0
164884,159403394,5,5771,5771,15.05,3.13,28,37,0,0
165333,159515086,5,5775,5885,14.98,3.46,28,37,0,0
165785,159628717,5,5877,5800,15.1,2.96,28,37,0,0
166237,159740370,5,5788,5685,15.07,2.86,28,37,0,0
166636,159837949,5,5684,5628,15.11,2.18,28,37,0,0
167084,159941709,5,5621,5171,15.11,2.2,28,37,0,0
167529,160053585,5,5167,5085,15.03,2.66,28,37,0,0
167982,160163599,5,5105,5300,15.05,2.52,28,37,0,0
168381,160263974,5,5300,5371,14.95,2.93,28,37,0,0
168833,160376514,5,5375,5557,15.02,3.1,28,37,0,0
169318,160494942,5,5559,5585,15.02,3.4,28,38,0,0
170167,160700380,5,5585,5600,14.97,3.17,28,38,0,0
170622,160810624,5,5598,5571,15.03,2.87,28,38,0,0
171064,160920540,5,5569,5557,15.02,3.14,28,38,0,0
171514,161035613,5,5555,5542,15.02,2.72,28,38,0,0
171917,161132281,5,5544,5642,15.03,3.51,28,38,0,0
172806,161351680,5,5637,5471,15.02,3.1,28,38,0,0
173256,161466258,5,5477,5571,14.96,3.08,28,38,0,0
173713,161581644,5,5574,5614,14.98,3.24,28,38,0,0
174119,161685701,5,5621,5685,15.04,3.2,28,38,0,0
174519,161782607,5,5684,5642,15,3.55,28,39,0,0
175003,161898708,5,5643,5685,14.97,3.55,28,39,0,0
175452,162012607,5,5699,5900,14.99,3.36,28,39,0,0
176753,162338714,5,5899,5814,14.94,3.29,28,39,0,0
177644,162560221,5,5808,5671,14.95,3.59,28,39,0,0
178090,162671293,5,5683,5814,14.99,3.73,28,39,0,0
178541,162782498,5,5815,5842,15,3.63,28,39,0,0
178944,162882543,5,5842,5842,14.96,3.27,28,40,0,0
179390,162988328,5,5844,5942,14.99,3.85,28,40,0,0
179842,163101602,5,5935,5842,14.94,3.58,28,40,0,0
180290,163211673,5,5857,6071,14.92,3.7,28,40,0,0
180733,163323523,5,6058,5885,14.99,3.5,28,40,0,0
181176,163433312,5,5883,5857,15.01,3.41,28,40,0,0
181580,163531782,5,5858,5900,14.94,3.54,28,40,0,0
182028,163644688,5,5892,5785,14.87,3.51,28,40,0,0
182478,163754076,5,5790,5942,14.97,3.73,28,40,0,0
182924,163864529,5,5958,6171,14.98,4.04,28,41,0,0
183374,163974557,5,6165,6100,14.88,4.07,28,41,0,0
183822,164086848,5,6103,6142,14.88,4.32,28,41,0,0
184228,164189950,5,6142,6200,14.86,4.32,28,41,0,0
184673,164301290,5,6197,6157,14.88,4.4,28,41,0,0
185526,164516356,5,6160,6314,14.92,4.05,28,41,0,0
186426,164736916,5,6305,6114,14.88,4.31,28,42,0,0
187317,164955286,5,6117,6200,14.94,4.42,28,42,0,0
187713,165055607,5,6202,6271,14.93,4.01,28,42,0,0
188162,165162849,5,6265,6014,14.96,3.94,28,42,0,0
188652,165283141,5,6018,6071,14.97,3.95,28,42,0,0
189101,165391449,5,6063,5957,15.04,3.43,28,42,0,0
189541,165499037,5,5937,5685,14.97,3.21,28,43,0,0
189988,165604289,5,5683,5642,14.97,3.17,28,43,0,0
190436,165716386,5,5640,5600,15.03,2.72,28,43,0,0
191367,165938845,5,5606,5914,14.85,3.77,28,43,0,0
191818,166051234,5,5919,6000,14.94,3.96,28,43,0,0
192271,166163361,5,5990,5857,14.9,3.73,28,43,0,0
192674,166266233,5,5864,6028,14.95,3.69,28,43,0,0
193122,166375533,5,6026,5971,15.02,3.72,28,43,0,0
193609,166500607,5,5949,5828,15.01,3.33,28,44,0,0
194050,166603556,5,5822,5771,14.99,3.42,28,44,0,0
194460,166707811,5,5761,5642,15.04,3.02,28,44,0,0
194950,166824594,5,5671,5942,14.9,3.97,28,44,0,0
195394,166936574,5,5922,5714,15.04,3.28,28,44,0,0
195794,167039522,5,5730,5885,15,3.83,28,44,0,0
196686,167254891,5,5883,5842,15,3.14,28,44,0,0
197137,167367279,5,5849,5914,15.01,3.66,28,44,0,0
197989,167578848,5,5911,5585,15.1,2.68,28,45,0,0
198443,167695354,5,5550,5200,15.09,1.85,28,45,0,0
198886,167803462,5,5177,5014,15.07,2.59,28,45,0,0
199328,167912368,5,5009,4957,15.01,2.01,28,45,0,0
199740,168016594,5,4959,5100,15.05,2.64,29,45,0,0
200185,168124928,5,5091,4985,14.99,2.29,28,45,0,0
201072,168342295,5,4999,5342,15,3.11,29,45,0,0
201512,168452390,5,5353,5442,15,2.93,28,45,0,0
201965,168560929,5,5436,5385,15.01,2.69,29,45,0,0
202404,168670799,5,5381,5314,14.97,2.7,29,45,0,0
202853,168780259,5,5314,5314,15,2.58,28,45,0,0
203257,168879556,5,5315,5400,14.99,3.01,28,46,0,0
203748,169002536,5,5409,5514,15,2.82,28,46,0,0
204605,169217966,5,5511,5471,15,2.99,28,46,0,0
205008,169320236,5,5471,5500,15.04,2.75,28,46,0,0
205457,169428244,5,5498,5400,15,2.47,28,46,0,0
205907,169544621,5,5400,5400,15,2.77,28,46,0,0
206310,169645326,5,5402,5428,15.02,2.83,28,46,0,0
206715,169746614,5,5427,5400,14.98,3.08,29,46,0,0
207166,169864341,5,5411,5571,14.95,3.28,28,46,0,0
207615,169972004,5,5576,5657,14.92,3.36,29,46,0,0
208471,170187030,5,5656,5628,14.94,3.12,28,47,0,0
208956,170302019,5,5615,5442,15,2.79,28,47,0,0
209408,170410617,5,5436,5385,15.05,2.62,28,47,0,0
210257,170620831,5,5381,5271,15.01,3.11,29,47,0,0
210704,170733511,5,5280,5414,14.95,2.85,29,47,0,0
211146,170841111,5,5409,5342,15.1,2.09,28,47,0,0
211591,170950895,5,5329,5157,15.02,2.64,29,47,0,0
212006,171061429,5,5160,5200,15.04,2.23,28,47,0,0
212451,171165048,5,5188,4914,15.08,2.05,28,47,0,0
212895,171275598,5,4914,4942,15.07,2.25,28,47,0,0
213346,171383961,5,4941,4928,15.1,1.86,28,47,0,0
214102,171605314,5,5129,4885,15.1,1.93,28,47,0,0
214553,171720485,5,4864,4657,15.07,1.26,28,48,0,0
214960,171820129,5,4667,4871,15.04,2.45,28,48,0,0
215404,171933054,5,4877,5014,15.08,2.05,28,48,0,0
215809,172036504,5,5012,4957,14.97,2.75,29,48,0,0
216290,172146541,5,4973,5600,14.98,3.28,28,48,0,0
216733,172257381,5,5610,5742,14.92,3.59,28,48,0,0
217141,172360374,5,5741,5714,14.95,3.15,28,48,0,0
217584,172469095,5,5707,5571,14.91,3.3,28,48,0,0
218031,172577245,5,5575,5742,14.95,3.66,28,48,0,0
218482,172692572,5,5746,5814,14.99,3.41,28,48,0,0
218931,172800323,5,5815,5842,14.95,3.91,28,48,0,0
219334,172902879,5,5844,5985,14.89,4.04,28,49,0,0
219828,173023767,5,5987,6028,14.95,3.58,28,49,0,0
220227,173121275,5,6024,5785,15.01,3.12,28,49,0,0
221115,173341083,5,5781,5628,15,2.62,28,49,0,0
221566,173453228,5,5625,5557,14.96,2.82,28,49,0,0
222016,173560394,5,5556,5542,15.01,3.15,28,49,0,0
222464,173674538,5,5545,5585,14.98,3.12,28,49,0,0
222910,173781483,5,5605,5814,14.92,3.59,28,49,0,0
223313,173884644,5,5813,5800,14.89,3.33,28,49,0,0
223763,173994559,5,5786,5614,14.88,3.65,28,50,0,0
224203,174102397,5,5625,5771,14.95,2.95,28,50,0,0
224649,174208081,5,5771,5814,14.95,3.32,28,50,0,0
225090,174315950,5,5810,5728,15.01,3.05,28,50,0,0
225496,174421438,5,5725,5500,14.98,2.85,28,50,0,0
225991,174539292,5,5503,5557,14.94,3.21,28,50,0,0
226394,174641190,5,5558,5657,15,3.4,28,50,0,0
226878,174754017,5,5668,5885,14.89,4.03,28,50,0,0
227288,174861053,5,5894,6014,14.88,4.02,28,50,0,0
227736,174971076,5,6010,5957,14.88,3.6,28,50,0,0
228181,175080868,5,5967,6071,14.95,3.56,28,51,0,0
228630,175189292,5,6051,5857,14.98,3.7,28,51,0,0
229065,175293323,5,5867,6071,14.91,3.68,29,51,0,0
229514,175400778,5,6062,5942,15.04,3.48,28,51,0,0
229961,175510973,5,5936,5857,14.94,3.92,28,51,0,0
230816,175727506,5,5862,5971,14.97,3.82,28,51,0,0
231743,175951344,5,5975,6071,15.01,3.44,28,51,0,0
232146,176052084,5,6055,5742,14.94,3.37,28,51,0,0
232594,176160649,5,5746,6000,14.91,3.85,28,52,0,0
233041,176271805,5,5991,5871,14.97,3.67,28,52,0,0
233489,176382532,5,5877,5971,14.96,3.48,28,52,0,0
233940,176499311,5,5963,5871,14.89,3.97,28,52,0,0
234395,176608603,5,5869,5842,14.95,3.28,28,52,0,0
234840,176719594,5,5839,5814,15,3.48,28,52,0,0
235323,176841288,5,5806,5742,14.97,3.47,28,52,0,0
235726,176936981,5,5741,5728,14.95,3.17,28,52,0,0
236172,177046306,5,5728,5800,14.96,3.41,29,52,0,0
237029,177263585,5,5802,5842,14.98,3.39,29,53,0,0
237473,177375339,5,5832,5757,14.94,3.86,28,53,0,0
237879,177474293,5,5772,6014,15,3.67,29,53,0,0
238372,177593547,5,6004,5900,14.94,3.89,28,53,0,0
238782,177699896,5,5913,6057,14.95,3.75,28,53,0,0
239229,177808152,5,6051,5971,15.01,3.64,28,53,0,0
239631,177911691,5,5973,6085,15,3.48,28,53,0,0
240124,178038117,5,6082,6057,15.02,3.92,29,53,0,0
240525,178134263,5,6058,6128,15.01,3.99,28,54,0,0
240935,178240237,5,6128,6171,14.95,4.03,29,54,0,0
241421,178359056,5,6185,6285,14.96,4.62,29,54,0,0
241822,178458963,5,6283,6157,14.96,4.63,28,54,0,0
242304,178572320,5,6149,6071,15.04,3.78,28,54,0,0
243159,178784078,5,6071,6085,15,3.25,29,54,0,0
243605,178896581,5,6050,5585,15.12,3.02,29,54,0,0
244053,179006324,5,5626,6028,15.25,3.97,29,55,0,0
244456,179104929,5,6008,4571,15,2.56,29,55,0,0
244939,179225543,5,4571,4571,15.31,1.74,29,55,0,0
245343,179323412,5,4520,3985,15.22,1.09,29,55,0,0
245833,179444858,5,3919,3042,15.38,0.17,29,55,0,0
246234,179539600,5,3008,2414,15.44,0.02,29,55,0,0
246683,179655381,5,2417,2457,15.41,0.53,29,55,0,0
247139,179767926,5,2483,2742,15.41,0.44,28,55,0,0
247575,179870316,5,2733,2414,15.4,0.19,29,55,0,0
248035,179983896,5,2410,2357,15.42,0.34,29,55,0,0
248479,180093869,5,2377,2585,15.41,0.49,29,55,0,0
248884,180194032,5,2582,2514,15.41,0.28,29,55,0,0
249326,180304910,5,2511,2485,15.39,0.4,29,55,0,0
249772,180411347,5,2494,2628,15.41,0.45,29,55,0,0
250180,180518916,5,2625,2600,15.42,0.36,29,55,0,0
250627,180632790,5,2604,2642,15.41,0.46,29,55,0,0
251037,180734723,5,2640,2614,15.42,0.36,29,55,0,0
251477,180842369,5,2611,2585,15.42,0.42,28,55,0,0
252374,181059887,5,2589,2700,15.43,0.49,28,55,0,0
252866,181177090,5,2704,2757,15.42,0.49,28,55,0,0
253266,181275183,5,2759,2814,15.44,0.5,28,55,0,0
253715,181382961,5,2815,2857,15.44,0.52,28,55,0,0
254171,181497616,5,2831,2571,15.52,0.15,28,55,0,0
254615,181602085,5,2532,1728,15.5,0,28,55,0,0
255063,181711592,5,1694,1357,15.48,0.03,28,55,0,0
255512,181824315,5,1346,1271,15.48,0.09,28,55,0,0
255953,181925581,5,1270,1257,15.47,0.09999999,28,55,0,0
256404,182040061,5,1257,1257,15.47,0.09999999,28,55,0,0
257307,182259074,5,1257,1257,15.48,0.09999999,28,55,0,0
257709,182358626,5,1257,1257,15.48,0.09999999,28,55,0,0
258154,182466340,5,1257,1257,15.48,0.09999999,28,55,0,0
258606,182574025,5,1257,1257,15.49,0.09999999,28,55,0,0
259052,182684576,5,1257,1257,15.49,0.09999999,28,55,0,0
259499,182788155,5,1257,1257,15.49,0.09999999,28,55,0,0
259985,182903937,5,1257,1257,15.49,0.09999999,28,55,0,0
260441,183017399,5,1257,1257,15.49,0.09,28,55,0,0
260848,183111356,5,1245,342,15.51,0,28,55,0,0
261302,183218489,5,337,0,15.51,0,28,55,0,0
261793,183333672,5,0,0,15.51,0.03,28,55,0,0
262239,183437593,5,0,0,15.51,0.03,28,55,0,0
262734,183553403,5,0,0,15.51,0.04,28,55,0,0
263141,183655328,5,0,0,15.52,0.04,28,55,0,0
263637,183770718,5,0,0,15.52,0.03,28,55,0,0
264087,183878285,5,0,0,15.52,0.03,28,55,0,0
264540,183985385,5,0,0,15.52,0.04,28,55,0,0
264987,184090337,5,0,0,15.52,0.03,28,55,0,0
265481,184205869,5,0,0,15.52,0.04,28,55,0,0
265931,184311027,5,0,0,15.52,0.03,28,55,0,0
266430,184426483,5,0,0,15.52,0.04,28,55,0,0
266881,184537858,5,0,0,15.52,0.03,28,55,0,0
267290,184636681,5,0,0,15.52,0.03,28,55,0,0
267786,184750586,5,0,0,15.53,0.03,28,55,0,0
268685,184960703,5,0,0,15.53,0.04,28,55,0,0
269136,185070300,5,0,0,15.54,0.03,28,55,0,0
269631,185185524,5,0,0,15.53,0.03,28,55,0,0
270081,185292503,5,0,0,15.53,0.03,28,55,0,0
270580,185407499,5,0,0,15.53,0.03,28,55,0,0
271030,185516507,5,0,0,15.54,0.04,28,55,0,0
271439,185618119,5,0,0,15.54,0.04,28,55,0,0
271935,185731991,5,0,0,15.54,0.04,28,55,0,0
272380,185837572,5,0,0,15.54,0.04,28,55,0,0
272841,185944970,5,0,0,15.54,0.04,28,55,0,0
273253,186048332,5,0,0,15.54,0.04,28,55,0,0
273704,186155387,5,0,0,15.54,0.03,28,55,0,0
274199,186275321,5,0,0,15.54,0.04,28,55,0,0
274652,186380358,5,0,0,15.55,0.04,28,55,0,0
275600,186603405,5,0,0,15.54,0.04,28,55,0,0
276048,186708386,5,0,0,15.55,0.04,28,55,0,0
276540,186824546,5,0,0,15.55,0.04,28,55,0,0
276994,186929937,5,0,0,15.54,0.04,28,55,0,0
277443,187038621,5,0,0,15.55,0.04,28,55,0,0
277941,187155407,5,0,0,15.55,0.04,28,55,0,0
278842,187369109,5,0,0,15.55,0.04,28,55,0,0
279293,187475352,5,0,0,15.55,0.04,28,55,0,0
279788,187589131,5,0,0,15.55,0.04,28,55,0,0
280235,187694565,5,0,0,15.55,0.04,28,55,0,0
280690,187802582,5,0,0,15.55,0.04,28,55,0,0
281144,187913914,5,0,0,15.56,0.04,27,55,0,0
281592,188020069,5,0,0,15.56,0.04,28,55,0,0
282046,188127968,5,0,0,15.56,0.04,28,55,0,0
282496,188237501,5,0,0,15.56,0.03,28,55,0,0
282950,188344617,5,0,0,15.56,0.04,27,55,0,0
283404,188453291,5,0,0,15.56,0.04,27,55,0,0
283854,188556332,5,0,0,15.56,0.04,27,55,0,0
284304,188664481,5,0,0,15.57,0.04,28,55,0,0
284801,188779081,5,0,0,15.57,0.04,27,55,0,0
285250,188884573,5,0,0,15.57,0.04,27,55,0,0
286153,189100491,5,0,0,15.57,0.04,27,55,0,0
286650,189215899,5,0,0,15.57,0.04,27,55,0,0
287059,189315391,5,0,0,15.57,0.04,27,55,0,0
287518,189424167,5,0,0,15.57,0.04,27,55,0,0
288018,189537624,5,0,0,15.57,0.04,28,55,0,0
288472,189645950,5,0,0,15.57,0.04,27,55,0,0
288924,189749321,5,0,0,15.57,0.04,27,55,0,0
289422,189869033,5,0,0,15.57,0.04,27,55,0,0
289873,189973622,5,0,0,15.57,0.04,27,55,0,0
290327,190082281,5,0,0,15.57,0.04,27,55,0,0
290778,190185045,5,0,0,15.57,0.04,27,55,0,0
291232,190295849,5,0,0,15.57,0.04,27,55,0,0
291731,190409855,5,0,0,15.57,0.04,27,55,0,0
292181,190517387,5,0,0,15.57,0.04,27,55,0,0
292630,190621149,5,0,0,15.57,0.04,27,55,0,0
293128,190739852,5,0,0,15.57,0.04,27,55,0,0
293534,190838610,5,0,0,15.57,0.04,27,55,0,0
294031,190951953,5,0,0,15.57,0.03,28,55,0,0
294485,191061525,5,0,0,15.57,0.03,27,55,0,0
294981,191174953,5,0,0,15.57,0.04,28,55,0,0
295881,191381126,5,0,0,15.58,0.04,27,55,0,0
296377,191498056,5,0,0,15.58,0.04,27,55,0,0
296829,191603080,5,0,0,15.58,0.04,27,55,0,0
297280,191709535,5,0,0,15.58,0.04,27,55,0,0
297774,191822823,5,0,0,15.58,0.04,27,55,0,0
298227,191930028,5,0,0,15.58,0.04,27,55,0,0
298722,192043360,5,0,0,15.58,0.04,27,55,0,0
299173,192146568,5,0,0,15.58,0.04,27,55,0,0
299619,192250081,5,0,0,15.58,0.04,27,55,0,0
300120,192365511,5,0,0,15.58,0.04,27,55,0,0
300570,192471252,5,0,0,15.58,0.04,27,55,0,0
301024,192577108,5,0,0,15.59,0.04,27,55,0,0
301479,192686935,5,0,0,15.59,0.04,27,55,0,0
301976,192800893,5,0,0,15.59,0.04,27,55,0,0
302430,192907066,5,0,0,15.58,0.04,27,55,0,0
302881,193010863,5,0,0,15.59,0.04,27,55,0,0
303331,193117653,5,0,0,15.59,0.04,27,55,0,0
303829,193231347,5,0,0,15.59,0.04,27,55,0,0
304280,193339724,5,0,0,15.6,0.04,27,55,0,0
304731,193449405,5,0,0,15.6,0.04,27,55,0,0
