LineNo,TimeUS,I,GyrX,GyrY,GyrZ,AccX,AccY,AccZ,EG,EA,T,GH,AH,GHz,AHz
184,118643360,0,-0.002729841,-0.001498016,-0.00287028,0.05478106,0.1081456,-9.751792999999999,0,0,44.84319,1,1,8008,4004
219,118646263,0,-0.003673531,-0.002445175,-0.003403659,0.05623968,0.1035534,-9.752381,0,0,44.84307,1,1,8008,4004
285,118671592,0,-0.001116414,-0.0046441,-2.683344e-05,0.02889442,0.1215236,-9.752274,0,0,44.84269,1,1,8008,4004
401,118699875,0,0.0019766,-0.0004900497,0.001525519,0.03506403,0.1130452,-9.76097,0,0,44.84258,1,1,8008,4004
516,118725357,0,-0.0005076021,0.001783711,0.002216391,0.04192816,0.09202201,-9.766302,0,0,44.84288,1,1,8008,4004
519,118727505,0,-0.0005165872,0.002209932,0.001197274,0.04284281,0.09068139,-9.76141,0,0,44.84286,1,1,8008,4004
554,118729949,0,-0.001112001,0.002649665,-0.0002043238,0.04460326,0.08896817,-9.757749,0,0,44.8428,1,1,8008,4004
624,118756567,0,-0.003898182,-0.003182503,0.001177231,0.05576404,0.07771923,-9.761016,0,0,44.8427,1,1,8008,4004
739,118775344,0,-0.005381651,-0.004994692,-0.0002641429,0.03625286,0.09920704,-9.731590000000001,0,0,44.84262,1,1,8008,4004
854,118795075,0,-0.00499386,-0.002994629,-0.001933433,0.03030864,0.09985685,-9.739848,0,0,44.84271,1,1,8008,4004
970,118834087,0,0.0007205811,0.0005366472,-0.00227986,0.02291344,0.1073402,-9.744897999999999,0,0,44.84193,1,1,8008,4004
1005,118837271,0,0.001821279,0.001005234,-0.002309478,0.02496767,0.1029191,-9.751426,0,0,44.84187,1,1,8008,4004
1079,118876381,0,0.001083399,-0.001320351,-0.001300813,0.0292023,0.09626701,-9.733032,0,0,44.84024,1,1,8008,4004
1194,118975334,0,0.003163366,0.001498003,-0.000504927,0.0361464,0.1002356,-9.756432999999999,0,0,44.83753,1,1,8008,4004
1298,119044594,0,-0.0008813676,-0.002672302,0.0007295856,0.003864542,0.1093167,-9.764868999999999,0,0,44.83897,1,1,8008,4004
1383,119056063,0,-0.002620115,0.000656557,-0.00206727,0.007380572,0.1007668,-9.760171,0,0,44.83942,1,1,8008,4004
1478,119074989,0,-0.003516687,0.002023133,-0.002513221,0.03380052,0.07560135,-9.760244,0,0,44.83938,1,1,8008,4004
1571,119089608,0,-0.005324247,-0.0001751942,-0.000597997,0.03820089,0.09188721,-9.769436000000001,0,0,44.83935,1,1,8008,4004
1596,119092199,0,-0.00386442,0.0001217632,-0.0006203225,0.03551692,0.09362505,-9.769406999999999,0,0,44.83934,1,1,8008,4004
1631,119094873,0,-0.00262538,0.0004062761,-0.0007637604,0.0320582,0.09597635,-9.769162,0,0,44.83934,1,1,8008,4004
1635,119097599,0,-0.002732351,0.0001052932,-0.0008132018,0.03054701,0.09876973,-9.766883999999999,0,0,44.83936,1,1,8008,4004
1638,119100258,0,-0.004210004,-1.195098e-06,-0.001316868,0.02847436,0.1030204,-9.761578,0,0,44.83942,1,1,8008,4004
1642,119102144,0,-0.004604822,0.0001337317,-0.001665944,0.02713979,0.106817,-9.759612000000001,0,0,44.83947,1,1,8008,4004
1677,119104880,0,-0.003462322,0.0008171763,-0.001668644,0.02552125,0.1104219,-9.757389999999999,0,0,44.83954,1,1,8008,4004
1680,119107344,0,-0.002914045,0.001214249,-0.001263328,0.0251941,0.1100718,-9.755512,0,0,44.83958,1,1,8008,4004
1683,119110272,0,-0.002476317,0.0007574474,-0.0004928028,0.02537154,0.1065307,-9.752827,0,0,44.83961,1,1,8008,4004
1686,119112577,0,-0.002424256,0.0006516223999999999,-0.0004602942,0.02559847,0.1042396,-9.749974999999999,0,0,44.83962,1,1,8008,4004
1721,119115115,0,-0.002633538,0.0002138581,-0.000789146,0.02516813,0.1050797,-9.743793999999999,0,0,44.83961,1,1,8008,4004
1724,119117266,0,-0.001976419,5.745472e-05,-0.001381811,0.02408826,0.1068764,-9.742006,0,0,44.83955,1,1,8008,4004
1727,119120022,0,-0.0006202186,-0.0009962087,-0.001612853,0.02464724,0.109835,-9.741771999999999,0,0,44.83945,1,1,8008,4004
1731,119123309,0,-0.0005515938,-0.001303434,-0.00120791,0.02477139,0.1114741,-9.742528,0,0,44.83936,1,1,8008,4004
1766,119126858,0,-9.867404e-05,-0.001179968,-0.0006651222,0.0257415,0.1107467,-9.746843999999999,0,0,44.83918,1,1,8008,4004
1769,119128534,0,0.0006972374,-0.001103846,-0.0003687791,0.02793278,0.1075941,-9.753624,0,0,44.83907,1,1,8008,4004
1772,119130698,0,0.001643055,-0.0006078939,-0.0006362516,0.02906831,0.1055241,-9.755819000000001,0,0,44.83902,1,1,8008,4004
1775,119133532,0,0.002662248,-0.0004866633,-0.0009087576,0.02998575,0.1038267,-9.757529,0,0,44.83897,1,1,8008,4004
1810,119136015,0,0.002903533,-0.001754234,7.477983e-05,0.03371571,0.1022946,-9.760223999999999,0,0,44.83889,1,1,8008,4004
1813,119139325,0,0.001495321,-0.002120304,0.001168416,0.0386584,0.1030357,-9.758891999999999,0,0,44.83878,1,1,8008,4004
1816,119140927,0,0.0009986664,-0.002255776,0.0009806141999999999,0.04030595,0.1044275,-9.757182999999999,0,0,44.83871,1,1,8008,4004
1820,119144019,0,0.001678039,-0.002487701,0.0005853771,0.04013695,0.1080415,-9.753795999999999,0,0,44.83862,1,1,8008,4004
1855,119146366,0,0.001814185,-0.00225356,-0.0008633442,0.04031012,0.1103657,-9.75211,0,0,44.83851,1,1,8008,4004
1862,119149715,0,0.001912108,-0.002710576,-0.001834915,0.03827836,0.1111108,-9.752331,0,0,44.83839,1,1,8008,4004
1865,119151920,0,0.002392713,-0.003425509,-0.001908315,0.03438842,0.1127751,-9.752606,0,0,44.83828,1,1,8008,4004
1869,119154283,0,0.002172067,-0.003653278,-0.001892018,0.03152708,0.1143427,-9.754692,0,0,44.83821,1,1,8008,4004
1904,119157330,0,0.002711945,-0.003484155,-0.001682911,0.02801675,0.1155556,-9.758483,0,0,44.83814,1,1,8008,4004
1907,119159306,0,0.003216658,-0.002744405,-0.0006332275,0.02736416,0.1154229,-9.761618,0,0,44.83812,1,1,8008,4004
1910,119162041,0,0.003681397,-0.00118066,0.0003178246,0.0288357,0.11194,-9.765663,0,0,44.83811,1,1,8008,4004
1914,119163946,0,0.004261482,-0.0003525381,0.0004735648,0.03084106,0.1087767,-9.766970000000001,0,0,44.83812,1,1,8008,4004
1949,119166439,0,0.004809724,-0.0002825371,0.0004343319,0.03327587,0.1058602,-9.766756000000001,0,0,44.83818,1,1,8008,4004
1952,119169851,0,0.005242661,-0.0001723888,0.000679123,0.0342436,0.1043886,-9.764398999999999,0,0,44.83827,1,1,8008,4004
1958,119171914,0,0.005438087,-0.000795455,0.000671103,0.03492452,0.1006537,-9.758114000000001,0,0,44.83837,1,1,8008,4004
1962,119174662,0,0.004453517,0.0001168241,-0.000101205,0.03601627,0.09612671,-9.754917000000001,0,0,44.8384,1,1,8008,4004
1997,119177248,0,0.002580036,0.001324608,-0.0007098681,0.03865397,0.09000416,-9.749390999999999,0,0,44.83839,1,1,8008,4004
2000,119180532,0,0.002880559,0.001099129,-0.0009373024,0.03985054,0.08409071999999999,-9.742991999999999,0,0,44.83833,1,1,8008,4004
2003,119182122,0,0.003139793,0.001215093,-0.001607756,0.03908536,0.08031023,-9.740576000000001,0,0,44.83825,1,1,8008,4004
2006,119185080,0,0.003191147,0.0007665773000000001,-0.002166208,0.03867848,0.07736303999999999,-9.741927,0,0,44.83817,1,1,8008,4004
2041,119187366,0,0.00261124,0.0008059077,-0.002029467,0.04128931,0.07664174999999999,-9.747643999999999,0,0,44.8381,1,1,8008,4004
2044,119190272,0,0.003056972,-3.268201e-05,-0.001429301,0.04417257,0.0761025,-9.752319999999999,0,0,44.83807,1,1,8008,4004
2048,119193645,0,0.002172359,-0.0008195733,-0.0003967534,0.0477891,0.07496964,-9.758808,0,0,44.8381,1,1,8008,4004
2052,119195439,0,0.0005944695,-0.0005014676,-4.305493e-05,0.0493603,0.07477109,-9.761631,0,0,44.83821,1,1,8008,4004
2087,119199251,0,-0.001111107,0.001498089,0.0008866305,0.04908495,0.07515387,-9.765852000000001,0,0,44.83836,1,1,8008,4004
2090,119200532,0,-0.001112073,0.001764929,0.001483457,0.04600934,0.07711693,-9.76825,0,0,44.83846,1,1,8008,4004
2093,119203381,0,-0.0008020924,0.0009790669000000001,0.001477459,0.04273421,0.07752144,-9.767162000000001,0,0,44.83852,1,1,8008,4004
2096,119206087,0,-0.0009144024,3.747091e-05,0.00143476,0.03975636,0.07739513000000001,-9.763798,0,0,44.83853,1,1,8008,4004
2131,119208331,0,-0.001528874,-0.0007231062,0.001363837,0.0383595,0.07561638,-9.759024,0,0,44.83848,1,1,8008,4004
2134,119211585,0,-0.001750712,-0.0005514786,0.001184682,0.03715718,0.07395757999999999,-9.757835999999999,0,0,44.83844,1,1,8008,4004
2137,119213629,0,-0.002457524,0.000281222,0.0009347379,0.03640156,0.07297051,-9.758694,0,0,44.83837,1,1,8008,4004
2141,119216145,0,-0.002715711,5.011916e-05,0.0006247335,0.03593754,0.07249274,-9.759696999999999,0,0,44.83832,1,1,8008,4004
2176,119219223,0,-0.003483139,-0.001250506,0.001079619,0.03268297,0.07292514,-9.761376,0,0,44.83829,1,1,8008,4004
2179,119221103,0,-0.004617041,-0.001804988,0.0008022304000000001,0.02936288,0.07591494999999999,-9.759883,0,0,44.83825,1,1,8008,4004
2184,119224060,0,-0.00567634,-0.0005057543,8.560711e-05,0.0264278,0.08328588000000001,-9.755155,0,0,44.83815,1,1,8008,4004
2187,119229068,0,-0.005199794,-0.00117243,-0.0009944851000000001,0.02689105,0.09457960999999999,-9.750107,0,0,44.83806,1,1,8008,4004
2222,119235041,0,-0.004749916,-0.001072416,-0.0003513002,0.0227219,0.103067,-9.739743000000001,0,0,44.8381,1,1,8008,4004
2226,119237633,0,-0.005100552,-0.0007517746,-0.0001729524,0.02068448,0.1026461,-9.736663999999999,0,0,44.83823,1,1,8008,4004
2230,119240405,0,-0.005399627,-0.0008546115,-3.35884e-05,0.02019522,0.1015676,-9.738324,0,0,44.83832,1,1,8008,4004
2265,119243337,0,-0.005434018,-0.0009566178,0.0004339098,0.02142677,0.1020169,-9.742259000000001,0,0,44.83849,1,1,8008,4004
2268,119245487,0,-0.005428704,-0.001541363,7.252841e-05,0.02594267,0.1031898,-9.742654999999999,0,0,44.83857,1,1,8008,4004
2271,119247867,0,-0.004495765,-0.001381072,-0.000310508,0.03013449,0.1030019,-9.742357999999999,0,0,44.83864,1,1,8008,4004
2274,119250378,0,-0.003771546,-0.0004133423,7.407273e-05,0.03667222,0.099595,-9.740095,0,0,44.8387,1,1,8008,4004
2312,119253382,0,-0.004451623,-0.0005997238,-0.001048535,0.0401029,0.09643732000000001,-9.738747,0,0,44.83873,1,1,8008,4004
2315,119255936,0,-0.004897352,-0.001219391,-0.003075105,0.04320566,0.09218469,-9.737655,0,0,44.83879,1,1,8008,4004
2320,119258350,0,-0.004602227,-0.001655831,-0.003009049,0.04514286,0.09027739,-9.738267,0,0,44.83884,1,1,8008,4004
2323,119260575,0,-0.004991511,-0.002333254,-0.001639612,0.04791651,0.09030726,-9.740805,0,0,44.83889,1,1,8008,4004
2358,119262945,0,-0.005459927,-0.003079059,-0.0007905182,0.04860086,0.09164277999999999,-9.742570000000001,0,0,44.83894,1,1,8008,4004
2361,119265527,0,-0.00577524,-0.003594967,-0.001342754,0.04766357,0.09258133,-9.74447,0,0,44.83903,1,1,8008,4004
2365,119268560,0,-0.005982777,-0.002432049,-0.001016711,0.04466498,0.09372263,-9.746314999999999,0,0,44.83909,1,1,8008,4004
2368,119270786,0,-0.005538752,-0.0006677541,-0.001562727,0.03849182,0.09958959000000001,-9.750435,0,0,44.8392,1,1,8008,4004
2403,119273070,0,-0.00412401,-0.0008315816,-0.002406689,0.03438869,0.1052416,-9.752981,0,0,44.83927,1,1,8008,4004
2406,119276058,0,-0.00203986,-0.001751215,-0.002240469,0.02865416,0.1110979,-9.757956999999999,0,0,44.83936,1,1,8008,4004
2409,119278366,0,-0.001219434,-0.002091347,-0.00145923,0.02508766,0.113394,-9.761008,0,0,44.83945,1,1,8008,4004
2412,119281432,0,-0.001559678,-0.00327771,-0.0010895,0.02059865,0.1172648,-9.761519,0,0,44.83958,1,1,8008,4004
2447,119284503,0,-0.001566281,-0.003180219,-0.0005459241,0.02151734,0.1209954,-9.757011,0,0,44.83965,1,1,8008,4004
2450,119286500,0,0.0002660757,-0.001681431,-0.0005343266,0.02354314,0.1242667,-9.748702,0,0,44.83967,1,1,8008,4004
2454,119288921,0,0.0009285686,-0.001609574,-0.0007592937,0.02426209,0.1246357,-9.745248999999999,0,0,44.83967,1,1,8008,4004
2457,119291707,0,0.0005905809,-0.001559435,-0.000555084,0.02418395,0.123064,-9.743112999999999,0,0,44.83968,1,1,8008,4004
2492,119294881,0,-0.0006809415,-0.0001278117,-0.0001905479,0.02304529,0.1196688,-9.738742,0,0,44.83975,1,1,8008,4004
2495,119297099,0,-0.000760139,-0.0002884456,-0.001278556,0.02257166,0.1195749,-9.738379,0,0,44.83984,1,1,8008,4004
2498,119299078,0,-0.0001390126,-0.0008138558,-0.001671517,0.02365956,0.120215,-9.739863,0,0,44.83993,1,1,8008,4004
2502,119301574,0,0.0008750486,-0.001370098,-0.001449553,0.02395475,0.1189793,-9.740828,0,0,44.84002,1,1,8008,4004
2537,119304158,0,0.0004880627,-0.000837813,-0.0005918365000000001,0.0229955,0.1157563,-9.739466999999999,0,0,44.8401,1,1,8008,4004
2540,119307088,0,-7.996964e-05,0.0001649044,2.435963e-06,0.02154047,0.1122637,-9.73579,0,0,44.84018,1,1,8008,4004
2544,119309590,0,0.0008572437,-0.000686288,-2.132822e-05,0.02055784,0.1120712,-9.733858,0,0,44.84021,1,1,8008,4004
2547,119311425,0,0.002622068,-0.001907371,-0.001299063,0.01950116,0.1130577,-9.73556,0,0,44.84025,1,1,8008,4004
2582,119313848,0,0.003229169,-0.002337878,-0.001665931,0.01960164,0.1131232,-9.739449,0,0,44.8403,1,1,8008,4004
2585,119316574,0,0.003722605,-0.002437413,-0.001189485,0.02261635,0.1120404,-9.744757999999999,0,0,44.84039,1,1,8008,4004
2589,119319515,0,0.003653963,-0.001719341,-0.0006822806,0.02693307,0.1108985,-9.747622,0,0,44.8405,1,1,8008,4004
2592,119321500,0,0.003763014,-0.0008101629,-0.001198812,0.03374702,0.1082774,-9.75353,0,0,44.84064,1,1,8008,4004
2627,119324861,0,0.003457682,-0.0001893356,-0.001042248,0.03686904,0.1056478,-9.758373000000001,0,0,44.84072,1,1,8008,4004
2630,119326584,0,0.00244156,0.0003179879,-0.0008798105,0.03884955,0.1024704,-9.764711,0,0,44.84081,1,1,8008,4004
2634,119329489,0,0.002613301,0.0002263049,-0.0007513316,0.03871568,0.1009888,-9.769583000000001,0,0,44.84086,1,1,8008,4004
2637,119331925,0,0.003516427,-0.0004490211,-0.0003441888,0.03693657,0.0993064,-9.774132,0,0,44.84096,1,1,8008,4004
2672,119334376,0,0.003986368,0.0012373,-0.0003616302,0.03239622,0.09700116,-9.777203999999999,0,0,44.84103,1,1,8008,4004
2675,119337555,0,0.003728516,0.00286596,-0.001113878,0.02738835,0.09627333,-9.77875,0,0,44.84108,1,1,8008,4004
2679,119339491,0,0.00281145,0.004217176,-0.00128928,0.01854902,0.09689708,-9.778117999999999,0,0,44.84115,1,1,8008,4004
2682,119342046,0,0.003079201,0.004708349,-0.0001553928,0.01225594,0.09834494000000001,-9.777456000000001,0,0,44.8412,1,1,8008,4004
2717,119344990,0,0.00275716,0.00374088,0.0009423197,0.001068473,0.1017573,-9.776014999999999,0,0,44.8413,1,1,8008,4004
2720,119346592,0,0.002404096,0.003343481,0.0007664051,-0.004685261,0.1034943,-9.776368,0,0,44.84134,1,1,8008,4004
2723,119350044,0,0.001761238,0.003469771,-0.0001490317,-0.008686005,0.1053611,-9.776664,0,0,44.84136,1,1,8008,4004
2726,119352116,0,0.002147335,0.00316713,-0.0007992186,-0.008542038,0.1065778,-9.776349,0,0,44.84139,1,1,8008,4004
2764,119354634,0,0.003334749,0.002679916,-0.000857076,-0.005166469,0.104208,-9.775753,0,0,44.84152,1,1,8008,4004
2767,119357558,0,0.004139824,0.002655745,-0.0005725505,-0.001142257,0.1005823,-9.773936000000001,0,0,44.84158,1,1,8008,4004
2772,119359551,0,0.003106364,0.00203167,0.0001085188,0.005793069,0.09387098000000001,-9.769861000000001,0,0,44.84169,1,1,8008,4004
2775,119362516,0,0.002090438,0.001934011,0.00028278,0.01078154,0.09057633,-9.769655,0,0,44.84175,1,1,8008,4004
2810,119364890,0,0.001209845,0.002544981,0.000168731,0.01803954,0.08862174,-9.772691999999999,0,0,44.84184,1,1,8008,4004
2813,119368227,0,0.0009204638,0.003008859,-0.0003207229,0.0245394,0.08904648,-9.772326,0,0,44.84186,1,1,8008,4004
2816,119369950,0,0.0008957184,0.002900714,0.0002774841,0.02825241,0.08922581,-9.767756,0,0,44.84186,1,1,8008,4004
2819,119372924,0,-0.0003138827,0.001908274,0.001364277,0.03114528,0.0871072,-9.758171000000001,0,0,44.84182,1,1,8008,4004
2854,119375816,0,-0.002208636,0.001210164,0.00142468,0.03171764,0.08798773999999999,-9.751521,0,0,44.84173,1,1,8008,4004
2857,119377937,0,-0.002526243,0.0008316022,0.001607175,0.03195338,0.09044069,-9.748428000000001,0,0,44.84166,1,1,8008,4004
2861,119380864,0,-0.001712758,0.0006771200999999999,0.001960337,0.03265186,0.09194025,-9.745718999999999,0,0,44.84155,1,1,8008,4004
2865,119382866,0,-0.001858906,-0.001327534,0.0009129328,0.0316771,0.09336928,-9.741413,0,0,44.84143,1,1,8008,4004
2900,119385072,0,-0.002338678,-0.001462136,0.0003882376,0.03058361,0.09490331,-9.741439,0,0,44.84137,1,1,8008,4004
2903,119387707,0,-0.002183921,-0.001537997,0.0003844752,0.03021647,0.09929796,-9.747590000000001,0,0,44.84131,1,1,8008,4004
2906,119390885,0,-0.001810245,-0.002275793,0.0002507879,0.0313738,0.1014247,-9.751687,0,0,44.84128,1,1,8008,4004
2909,119393912,0,-0.001883461,-0.003062232,-0.0003042168,0.0315083,0.1010524,-9.755456000000001,0,0,44.8412,1,1,8008,4004
2944,119396188,0,-0.003905735,-0.001712899,0.0001831594,0.03393449,0.09504512,-9.754477,0,0,44.8411,1,1,8008,4004
2948,119399216,0,-0.004356003,-0.001346509,0.001073286,0.03735722,0.09191795,-9.752083000000001,0,0,44.84105,1,1,8008,4004
2952,119401455,0,-0.004691561,-0.0008452813999999999,0.001339352,0.03926533,0.08840756,-9.750362000000001,0,0,44.84098,1,1,8008,4004
2955,119404568,0,-0.004563391,-0.0002403321,0.0012683,0.03945995,0.08475792,-9.749552,0,0,44.84088,1,1,8008,4004
2990,119407922,0,-0.005053664,-0.00151085,0.001056899,0.038461,0.08259751999999999,-9.749005,0,0,44.84076,1,1,8008,4004
2995,119410059,0,-0.005938082,-0.002703311,0.0004289184,0.03291432,0.08098655,-9.751868999999999,0,0,44.84064,1,1,8008,4004
2998,119412303,0,-0.005534063,-0.00190223,1.228081e-05,0.02703896,0.08340836,-9.754683,0,0,44.84054,1,1,8008,4004
3001,119417863,0,-0.00305257,-0.0005152676,-0.001666898,0.02004562,0.09633332999999999,-9.748784000000001,0,0,44.84024,1,1,8008,4004
3036,119423902,0,-0.005581968,-0.0005376493,-0.002581357,0.02196771,0.1042939,-9.755246,0,0,44.84002,1,1,8008,4004
3040,119426838,0,-0.005169866,-0.0003239076,-0.002101528,0.02175203,0.1061314,-9.756973,0,0,44.83996,1,1,8008,4004
3043,119428640,0,-0.004313746,-0.0007638135,-0.0019149,0.02361788,0.1044658,-9.754880999999999,0,0,44.83987,1,1,8008,4004
3080,119431453,0,-0.004260381,-0.002217086,-0.001554774,0.02560812,0.1030668,-9.753926999999999,0,0,44.83978,1,1,8008,4004
3083,119434398,0,-0.006030154,-0.003024193,-0.0009277295,0.02710697,0.1037476,-9.756748,0,0,44.83969,1,1,8008,4004
3087,119436145,0,-0.006768163,-0.002531962,-0.0003146899,0.0282148,0.1062166,-9.758554,0,0,44.83963,1,1,8008,4004
3090,119438886,0,-0.004987033,-0.001174684,0.0003089649,0.03020287,0.1106041,-9.756363,0,0,44.83951,1,1,8008,4004
3125,119441975,0,-0.003724425,-0.001152053,0.0004346815,0.03095664,0.1114081,-9.753182000000001,0,0,44.83937,1,1,8008,4004
3128,119444570,0,-0.004669973,-0.001074497,0.0006627193,0.03011524,0.111812,-9.753242999999999,0,0,44.83928,1,1,8008,4004
3132,119446108,0,-0.00521838,-0.001073615,0.0002603079,0.02925348,0.1136851,-9.754198000000001,0,0,44.83917,1,1,8008,4004
3135,119448706,0,-0.003993072,-0.0007624942,-0.0005277641,0.02833212,0.1156515,-9.758063999999999,0,0,44.8391,1,1,8008,4004
3170,119451342,0,-0.001518611,-0.0004123297,-0.0005658201,0.02903605,0.1162777,-9.760522,0,0,44.83906,1,1,8008,4004
3173,119454087,0,-0.0008181166,-0.0003495613,-0.0002753178,0.03305781,0.1164308,-9.76089,0,0,44.83899,1,1,8008,4004
3176,119456600,0,-0.001520318,0.000205607,-0.0004610695,0.03481594,0.1165262,-9.762548000000001,0,0,44.83894,1,1,8008,4004
3182,119458950,0,-0.001746678,0.0007691352,-0.001015835,0.03565707,0.115993,-9.768112,0,0,44.83884,1,1,8008,4004
3217,119461886,0,-0.001261132,0.0005398515,-0.001317894,0.03690238,0.1146247,-9.771421,0,0,44.83876,1,1,8008,4004
3221,119464250,0,-0.001585862,-8.11518e-05,-0.001471783,0.03703303,0.1136753,-9.774533,0,0,44.83871,1,1,8008,4004
3225,119466911,0,-0.001757801,-7.531059e-05,-0.001057741,0.03679767,0.1128165,-9.776788,0,0,44.83867,1,1,8008,4004
3228,119468588,0,-0.002151635,0.0005027773,-0.0004359498,0.03566043,0.1093617,-9.775687,0,0,44.83857,1,1,8008,4004
3263,119471129,0,-0.002380105,0.0007333713,-0.0001417973,0.03384325,0.1062193,-9.773013000000001,0,0,44.83852,1,1,8008,4004
3267,119474086,0,-0.001182469,0.0007852417,0.0005227652,0.02973663,0.1058904,-9.769278,0,0,44.83844,1,1,8008,4004
3270,119476493,0,0.0004547088,0.0004254557,0.0005681988,0.02545369,0.1077171,-9.767118,0,0,44.83837,1,1,8008,4004
3273,119479320,0,0.0009861061999999999,-0.000822974,-0.0005392741,0.01934854,0.1093381,-9.763325,0,0,44.83821,1,1,8008,4004
3308,119481485,0,0.0003389675,-0.0006785195,-0.0006388983,0.01765735,0.1107812,-9.760414000000001,0,0,44.83815,1,1,8008,4004
3311,119484390,0,-0.0004557587,-0.000342903,-0.0005182934,0.01885901,0.1121349,-9.758139999999999,0,0,44.83812,1,1,8008,4004
3315,119487611,0,-0.0001133795,-0.0003457203,-0.0005628463,0.02328268,0.1121407,-9.755295,0,0,44.83811,1,1,8008,4004
3318,119489339,0,0.0003718366,-7.273954999999999e-05,-0.0008351245,0.02738183,0.111928,-9.753034,0,0,44.83812,1,1,8008,4004
3353,119492405,0,0.001226156,-4.007966e-05,-0.0001835418,0.03235263,0.1134357,-9.749898999999999,0,0,44.83819,1,1,8008,4004
3356,119494168,0,0.002123226,-0.000568501,0.0003594938,0.03529594,0.1131767,-9.747180999999999,0,0,44.83823,1,1,8008,4004
3360,119497290,0,0.00340259,-0.00091145,-0.0001818956,0.04055145,0.1111154,-9.743152,0,0,44.83828,1,1,8008,4004
3363,119499543,0,0.00370034,-0.001510328,-0.0004253118,0.04435136,0.1084122,-9.742803,0,0,44.83829,1,1,8008,4004
3398,119501717,0,0.002007725,-0.00173323,-0.0004604,0.0469071,0.1036242,-9.744455,0,0,44.8383,1,1,8008,4004
3402,119505401,0,0.0008922452999999999,-0.001434561,-0.0002668702,0.04575587,0.1008613,-9.746968000000001,0,0,44.83829,1,1,8008,4004
3405,119506641,0,0.0005994585,-0.0002786362,9.995542e-05,0.04233464,0.09801976,-9.748949,0,0,44.83831,1,1,8008,4004
3408,119509618,0,0.0008671985,-0.0004679755,0.0002034721,0.04026966,0.09603056,-9.749670999999999,0,0,44.83833,1,1,8008,4004
3443,119513273,0,0.0006683528,-0.002305941,0.001931406,0.03873326,0.09174246,-9.752351000000001,0,0,44.83837,1,1,8008,4004
3446,119515286,0,0.0008312368,-0.003304657,0.00212129,0.03650156,0.09054357,-9.755599,0,0,44.83838,1,1,8008,4004
3449,119517374,0,0.001866967,-0.003614153,0.001359974,0.03570328,0.09234249999999999,-9.757507,0,0,44.83837,1,1,8008,4004
3452,119519646,0,0.003603156,-0.002770062,-0.0008912378,0.03651152,0.09671707,-9.759093999999999,0,0,44.83833,1,1,8008,4004
3487,119522795,0,0.003557751,-0.002273001,-0.0007133206,0.03720514,0.100514,-9.759677,0,0,44.83826,1,1,8008,4004
3490,119524839,0,0.002211731,-0.002014536,-0.0005599698,0.0385798,0.1068957,-9.762864,0,0,44.83818,1,1,8008,4004
3494,119527829,0,0.001319942,-0.001599084,-0.0003056318,0.038753,0.1116925,-9.767435000000001,0,0,44.83814,1,1,8008,4004
3498,119529909,0,0.001644812,-0.0003226412,3.503841e-05,0.03637829,0.1212159,-9.774126000000001,0,0,44.83812,1,1,8008,4004
3533,119532566,0,0.002480221,-0.0006795631,0.0002956584,0.03423648,0.1255664,-9.778184,0,0,44.83813,1,1,8008,4004
3537,119535323,0,0.002381594,-0.0008510633,8.026727e-05,0.03365382,0.1254902,-9.783341999999999,0,0,44.8382,1,1,8008,4004
3541,119537345,0,0.00197379,-0.0009201346,-6.817152e-05,0.03346794,0.1231512,-9.782698,0,0,44.83825,1,1,8008,4004
3544,119540394,0,0.001973283,-0.0009717434,0.000813904,0.03158677,0.1197787,-9.780042999999999,0,0,44.83829,1,1,8008,4004
3579,119543032,0,0.003088705,-0.001198,0.002216517,0.02839297,0.1150555,-9.778047000000001,0,0,44.83834,1,1,8008,4004
3582,119545519,0,0.003226533,-0.001384028,0.002537835,0.02640385,0.110838,-9.775747000000001,0,0,44.83834,1,1,8008,4004
3585,119548330,0,0.0008207971,-0.0008871063,0.002361989,0.02372163,0.1017515,-9.767569,0,0,44.83831,1,1,8008,4004
3588,119550897,0,-0.0004810676,-0.0005173979,0.002221138,0.02212587,0.0960312,-9.760066999999999,0,0,44.83828,1,1,8008,4004
3623,119553248,0,-0.0003565714,-0.001733391,0.00179246,0.01893703,0.09215503999999999,-9.74769,0,0,44.83827,1,1,8008,4004
3626,119556007,0,0.0004512177,-0.002218438,0.001910977,0.01889304,0.09207992,-9.741123,0,0,44.83827,1,1,8008,4004
3630,119558510,0,0.0002307103,-0.001358278,0.00202811,0.01951723,0.09162803999999999,-9.736221,0,0,44.83827,1,1,8008,4004
3636,119561453,0,-0.0006707826,-0.0009891046,0.001785646,0.02030509,0.09125316,-9.733627,0,0,44.83826,1,1,8008,4004
3671,119564280,0,-0.000899586,-0.0001304844,0.001346827,0.02250739,0.09206528999999999,-9.734064999999999,0,0,44.83829,1,1,8008,4004
3675,119566623,0,-0.001235907,0.0003535975,0.0003838247,0.02466906,0.09297693999999999,-9.738835999999999,0,0,44.8383,1,1,8008,4004
3678,119568952,0,-0.001409432,2.982423e-05,-4.958642e-05,0.02753044,0.09264018,-9.746084,0,0,44.83829,1,1,8008,4004
3681,119571488,0,-0.0002944349,-0.000507027,0.0004423576,0.03102441,0.08923295000000001,-9.752516,0,0,44.83824,1,1,8008,4004
3716,119574409,0,2.919124e-05,-0.0001626588,2.45549e-05,0.0330417,0.08789015,-9.756055,0,0,44.83823,1,1,8008,4004
3719,119577049,0,-0.0009239406,-0.0007265357,-0.001673511,0.03354833,0.08829645,-9.760896000000001,0,0,44.83821,1,1,8008,4004
3723,119579133,0,-0.001434665,-0.00144947,-0.001698907,0.03323307,0.08819177,-9.76421,0,0,44.83818,1,1,8008,4004
3726,119581467,0,-0.001486192,-0.002138849,-0.001602495,0.03263373,0.08668167,-9.766332999999999,0,0,44.83821,1,1,8008,4004
3761,119583816,0,-0.001540988,-0.002442794,-0.001437283,0.0301739,0.08525679,-9.764908999999999,0,0,44.83824,1,1,8008,4004
3764,119586827,0,-0.0008497907,-0.001808538,6.018348e-05,0.02350231,0.0844184,-9.763598,0,0,44.8383,1,1,8008,4004
3769,119589609,0,-0.0003160002,-0.001107477,0.0003350577,0.01501117,0.08459659999999999,-9.763705,0,0,44.83837,1,1,8008,4004
3772,119591537,0,-0.001364618,-0.0005540543,-0.0003834773,0.01071491,0.08419086000000001,-9.764174000000001,0,0,44.83844,1,1,8008,4004
3807,119593856,0,-0.003011256,-0.0002592898,-0.0007456394,0.007871646,0.08509208,-9.764497,0,0,44.83846,1,1,8008,4004
3810,119596414,0,-0.003087603,0.0003059052,-0.0006850711999999999,0.005811002,0.09038794999999999,-9.764153,0,0,44.83847,1,1,8008,4004
3813,119599870,0,-0.002273104,0.001148748,-1.809002e-05,0.005588116,0.09382301,-9.764481999999999,0,0,44.83844,1,1,8008,4004
3816,119602049,0,-0.0008865393,0.001660688,-0.0003967164,0.008259928,0.09428715999999999,-9.764405,0,0,44.83834,1,1,8008,4004
3851,119604578,0,-0.0002402619,0.0007884832,0.0003664429,0.01204275,0.09385278,-9.766673000000001,0,0,44.83827,1,1,8008,4004
3854,119607013,0,-0.0004408814,0.0005769366,0.000578631,0.01468372,0.09384407,-9.768808999999999,0,0,44.83825,1,1,8008,4004
3858,119610544,0,-0.001154464,0.0003433855,-0.0005531262,0.01799532,0.09284704000000001,-9.768979,0,0,44.8382,1,1,8008,4004
3861,119612951,0,-0.001070364,-0.0004556093,-0.0008744939,0.01758641,0.09119263,-9.767154,0,0,44.83818,1,1,8008,4004
3866,119614935,0,-0.001248519,-0.0006148724,-0.001344801,0.01567869,0.09126622,-9.762708,0,0,44.83815,1,1,8008,4004
3901,119617395,0,-0.002457401,0.0001629161,-0.003419011,0.01621743,0.09201287,-9.75596,0,0,44.83813,1,1,8008,4004
3904,119620236,0,-0.002309323,0.0002152584,-0.00328502,0.01525625,0.09286244,-9.753791,0,0,44.83813,1,1,8008,4004
3907,119628550,0,5.805127e-05,-0.001140764,-0.001489742,0.01407834,0.09663111000000001,-9.761276000000001,0,0,44.83826,1,1,8008,4004
3943,119631514,0,0.0006167197,-0.002017205,-0.002168043,0.0171108,0.09695929,-9.763271,0,0,44.83829,1,1,8008,4004
3948,119633955,0,-9.808548e-05,-0.001753959,-0.001696513,0.02080981,0.09963999,-9.76545,0,0,44.83832,1,1,8008,4004
3951,119636793,0,-0.000194376,-0.001526477,-0.00126035,0.02329458,0.1029326,-9.766681,0,0,44.83832,1,1,8008,4004
3954,119638678,0,0.0006378366,-0.001708482,-0.00124337,0.02840819,0.1086729,-9.764962000000001,0,0,44.83834,1,1,8008,4004
3990,119641307,0,0.001148562,-0.002605803,-0.001768891,0.03207987,0.1123312,-9.762681000000001,0,0,44.83833,1,1,8008,4004
3994,119644038,0,0.0001013145,-0.003352943,-0.002670614,0.03786581,0.1170207,-9.761979,0,0,44.8383,1,1,8008,4004
3997,119646480,0,-0.000352019,-0.003213594,-0.002400033,0.03768091,0.1184349,-9.762991,0,0,44.83828,1,1,8008,4004
4000,119649028,0,5.940933e-05,-0.001958232,-0.001367882,0.03461251,0.1232474,-9.767098000000001,0,0,44.83823,1,1,8008,4004
4036,119652220,0,0.001279494,-0.0005014144,-0.0008709526999999999,0.0302485,0.1276067,-9.767965999999999,0,0,44.8382,1,1,8008,4004
4039,119654047,0,0.001626365,-0.0007782508,-0.0007221772,0.02736117,0.128003,-9.766481000000001,0,0,44.83815,1,1,8008,4004
4042,119656064,0,0.001589488,-0.001158573,-0.0001508373,0.02392694,0.1247931,-9.764187,0,0,44.83812,1,1,8008,4004
4045,119659400,0,0.0009830304000000001,-0.000956635,0.0003455065,0.0208011,0.1214522,-9.761198,0,0,44.83811,1,1,8008,4004
4080,119662144,0,0.001424441,-0.0002118243,-3.480353e-06,0.01305917,0.1147688,-9.755532000000001,0,0,44.83816,1,1,8008,4004
4088,119664612,0,0.002214695,-0.0003092031,3.12814e-06,0.01066785,0.1115053,-9.753261,0,0,44.83821,1,1,8008,4004
4091,119666690,0,0.002700123,-0.0009582315,8.492242e-05,0.01069277,0.1060621,-9.754115000000001,0,0,44.8383,1,1,8008,4004
4095,119669942,0,0.001883136,-0.000474113,-0.0004249734,0.01362624,0.1001557,-9.762212999999999,0,0,44.83836,1,1,8008,4004
4130,119672637,0,0.002085037,0.0003125918,-0.0001334686,0.01675236,0.09914128,-9.77205,0,0,44.83845,1,1,8008,4004
4133,119675598,0,0.00295191,0.0004277578,-0.0003040892,0.01754957,0.09986319,-9.774747,0,0,44.83846,1,1,8008,4004
4136,119677499,0,0.003402895,8.790392e-05,-0.0001573006,0.01806867,0.1008994,-9.776116,0,0,44.83845,1,1,8008,4004
4139,119679927,0,0.001560282,-0.0002480924,-0.0002892451,0.0180886,0.1033183,-9.779158000000001,0,0,44.83844,1,1,8008,4004
4174,119682852,0,0.001200542,-0.0001706383,-0.0006105628,0.01831273,0.1045566,-9.780844,0,0,44.83841,1,1,8008,4004
4177,119684870,0,0.003257139,-0.00033527,-0.001064208,0.02007524,0.104855,-9.780822000000001,0,0,44.83836,1,1,8008,4004
4180,119687853,0,0.00420061,-7.105419e-05,-0.000751559,0.02176441,0.1045202,-9.780583,0,0,44.83831,1,1,8008,4004
4184,119689935,0,0.004545399,0.0007200853,-7.689565000000001e-05,0.02341961,0.1044774,-9.779719999999999,0,0,44.83819,1,1,8008,4004
4219,119693020,0,0.003027253,0.0005943324,-3.789796e-05,0.02533149,0.1044536,-9.779446999999999,0,0,44.83801,1,1,8008,4004
4222,119694933,0,0.002424401,0.0003314555,0.0001668184,0.02645564,0.1045636,-9.777107000000001,0,0,44.83793,1,1,8008,4004
4225,119697878,0,0.002134073,0.001285537,0.0002394648,0.026842,0.1040427,-9.769363999999999,0,0,44.83781,1,1,8008,4004
4228,119700029,0,0.001452313,0.001886221,0.0003621546,0.02780473,0.10299,-9.762401000000001,0,0,44.8377,1,1,8008,4004
4263,119702949,0,0.0004460089,0.002469876,-2.005043e-05,0.03181465,0.1024022,-9.752817,0,0,44.83752,1,1,8008,4004
4267,119706067,0,0.0002993815,0.003063567,-0.0004400203,0.03384387,0.1028791,-9.748438999999999,0,0,44.83742,1,1,8008,4004
4270,119707346,0,0.001319591,0.002879913,-3.26603e-05,0.0340926,0.1030584,-9.748229,0,0,44.83721,1,1,8008,4004
4273,119709886,0,0.002208898,0.002604933,-2.046472e-05,0.03329016,0.1014686,-9.749408000000001,0,0,44.83705,1,1,8008,4004
4308,119712627,0,0.001763047,0.00203129,0.0002806603,0.03230761,0.09742785,-9.750399,0,0,44.8369,1,1,8008,4004
4312,119714971,0,0.0008483769,0.0004552947,0.0006923754,0.0324323,0.0950405,-9.750977000000001,0,0,44.83683,1,1,8008,4004
4315,119717548,0,-0.0001104135,-0.0007612979,0.0009039555,0.03295336,0.09339575999999999,-9.754908,0,0,44.83673,1,1,8008,4004
4318,119720259,0,0.0004671705,-0.001531872,0.0004262035,0.0334494,0.0935419,-9.75896,0,0,44.83665,1,1,8008,4004
4353,119723093,0,0.0002724165,-0.002803803,0.0003817114,0.0354137,0.09110044,-9.766139000000001,0,0,44.83652,1,1,8008,4004
4356,119726097,0,-0.0005975639,-0.002841003,0.0003381663,0.03773727,0.08899288,-9.770103000000001,0,0,44.83645,1,1,8008,4004
4359,119727340,0,-0.0002969003,-0.001987576,0.0003065267,0.04048355,0.08732746,-9.777656,0,0,44.83633,1,1,8008,4004
4362,119729938,0,0.0003358035,-0.001454142,0.000701359,0.04059914,0.08625902000000001,-9.78266,0,0,44.83628,1,1,8008,4004
4397,119732539,0,1.929125e-06,-0.001099014,0.001319937,0.04037812,0.08467379999999999,-9.786099,0,0,44.83617,1,1,8008,4004
4401,119735410,0,-0.001464574,-0.001766295,0.001063196,0.04128793,0.08454251,-9.784174,0,0,44.83613,1,1,8008,4004
4404,119737921,0,-0.003336372,-0.00249656,-7.552471e-06,0.04095406,0.08664687,-9.776052,0,0,44.83603,1,1,8008,4004
4407,119739997,0,-0.00376221,-0.002218868,-0.0003426755,0.0398641,0.08823954000000001,-9.772183,0,0,44.83594,1,1,8008,4004
4442,119742553,0,-0.004688516,-0.002339398,-0.001112842,0.03715018,0.08930146,-9.767871,0,0,44.83587,1,1,8008,4004
4446,119745373,0,-0.005108004,-0.002699394,-0.001305774,0.03599324,0.08953242,-9.763996000000001,0,0,44.83585,1,1,8008,4004
4449,119747701,0,-0.004377052,-0.002364631,-0.001161782,0.03484548,0.088272,-9.757061,0,0,44.83582,1,1,8008,4004
4452,119750523,0,-0.004052409,-0.001844081,-0.001352859,0.03374517,0.08718827,-9.754594000000001,0,0,44.83583,1,1,8008,4004
4487,119753077,0,-0.002959074,-0.001580199,-0.001507284,0.0322575,0.08584596999999999,-9.753365000000001,0,0,44.8359,1,1,8008,4004
4491,119755543,0,-0.003067916,-0.00154835,-0.0006175558,0.0318392,0.08386784999999999,-9.749936,0,0,44.83599,1,1,8008,4004
4494,119757956,0,-0.00412255,-0.001788998,3.30994e-05,0.03266155,0.08240351999999999,-9.746240999999999,0,0,44.83608,1,1,8008,4004
4497,119760543,0,-0.004610585,-0.002574421,0.0002466739,0.03321593,0.08138321,-9.742535999999999,0,0,44.83617,1,1,8008,4004
4532,119763700,0,-0.00529499,-0.002773839,0.0002059492,0.0320171,0.08255916000000001,-9.743274,0,0,44.83621,1,1,8008,4004
4538,119766058,0,-0.004516657,-0.001951214,-0.0005611012,0.03135926,0.08633652,-9.746700000000001,0,0,44.83624,1,1,8008,4004
4541,119767931,0,-0.003315286,-0.001039033,-0.001531696,0.03260508,0.08915097,-9.748085,0,0,44.83624,1,1,8008,4004
4545,119770575,0,-0.003235997,-0.001640141,-0.001889057,0.03534351,0.09531481999999999,-9.749366,0,0,44.83617,1,1,8008,4004
4580,119772942,0,-0.00333074,-0.001855698,-0.00114315,0.03781146,0.09949825,-9.750966999999999,0,0,44.83606,1,1,8008,4004
4584,119775747,0,-0.003839264,-0.001872434,-0.0004314847,0.04043487,0.101959,-9.751944999999999,0,0,44.83598,1,1,8008,4004
4587,119778476,0,-0.004449058,-0.001083453,-0.001441733,0.0424424,0.1023852,-9.750999,0,0,44.83593,1,1,8008,4004
4590,119780829,0,-0.002438763,0.0006747174000000001,-0.001945773,0.04289859,0.1000801,-9.748017000000001,0,0,44.83594,1,1,8008,4004
4625,119783301,0,-0.001919699,0.001077818,-0.001881516,0.04037762,0.1007134,-9.748055000000001,0,0,44.83594,1,1,8008,4004
4628,119786101,0,-0.002888795,0.0006840677,-0.002403615,0.03792546,0.1019567,-9.751787,0,0,44.83595,1,1,8008,4004
4631,119788953,0,-0.004104777,0.0007371861,-0.003154709,0.03333783,0.1028561,-9.760115000000001,0,0,44.83598,1,1,8008,4004
4634,119791385,0,-0.003625941,0.0008175973,-0.002851855,0.03169497,0.1039678,-9.763802999999999,0,0,44.83602,1,1,8008,4004
4669,119793552,0,-0.001871153,0.0008738808,-0.001270983,0.03068035,0.1052945,-9.766006000000001,0,0,44.83609,1,1,8008,4004
4673,119796847,0,-0.0009127633999999999,0.0007596585,-0.0005176885,0.02918059,0.104777,-9.767362,0,0,44.8361,1,1,8008,4004
4676,119799252,0,0.0002869997,0.001235685,-0.0004659612,0.02735434,0.104989,-9.767096,0,0,44.8361,1,1,8008,4004
4679,119801918,0,0.001125882,0.002444981,-0.0005262012,0.02684344,0.1052405,-9.764834,0,0,44.8361,1,1,8008,4004
4714,119804917,0,0.002474183,0.001580136,-0.001076732,0.02691017,0.1023832,-9.764234999999999,0,0,44.8361,1,1,8008,4004
4718,119806603,0,0.002797052,0.0008834793000000001,-0.0009206532,0.0284349,0.1002962,-9.763305000000001,0,0,44.83607,1,1,8008,4004
4721,119809503,0,0.001575303,0.000655496,-0.0002478845,0.03221913,0.1006965,-9.757854,0,0,44.83603,1,1,8008,4004
4725,119812075,0,0.001138538,0.0004338829,0.0001593549,0.03511925,0.1013288,-9.755958,0,0,44.83599,1,1,8008,4004
4760,119814949,0,0.0006660996,0.0006407748,0.0003273552,0.03631409,0.1003694,-9.754837,0,0,44.83595,1,1,8008,4004
4763,119817343,0,0.0007409623,0.0003537978,0.0005604548,0.03506951,0.09828595,-9.754763000000001,0,0,44.83593,1,1,8008,4004
4768,119819715,0,0.0002570488,0.0006594032,-0.0002626871,0.03402574,0.09616183,-9.756363,0,0,44.83592,1,1,8008,4004
4771,119821722,0,-0.0002049471,1.392476e-05,-0.0006496208,0.03393519,0.09532768,-9.762392,0,0,44.83596,1,1,8008,4004
4806,119824331,0,0.001116447,-0.0007372368,-0.0001045636,0.03127921,0.09784967,-9.769254,0,0,44.83609,1,1,8008,4004
4810,119834108,0,0.0008692839,-0.0003903744,0.0008405648,0.02647338,0.1096288,-9.77069,0,0,44.83631,1,1,8008,4004
4845,119836718,0,0.002404228,-0.001093078,0.0002715341,0.02434171,0.1114755,-9.771685,0,0,44.83631,1,1,8008,4004
4849,119839757,0,0.003209956,-0.001898397,-0.0001518795,0.02198713,0.1112336,-9.772913000000001,0,0,44.83629,1,1,8008,4004
4852,119841693,0,0.003385636,-0.00191784,-0.0009488612,0.01980464,0.1089731,-9.772722,0,0,44.83619,1,1,8008,4004
4855,119844278,0,0.002893282,-0.001229292,-0.001304523,0.01994886,0.1077629,-9.772399,0,0,44.83611,1,1,8008,4004
4890,119847364,0,0.002377673,-0.001314898,-0.0009460007,0.02107771,0.104931,-9.771462,0,0,44.83604,1,1,8008,4004
4894,119848963,0,0.002194246,-0.001480741,-0.0007785188,0.02126837,0.1023683,-9.770720000000001,0,0,44.83602,1,1,8008,4004
4897,119852299,0,0.002157063,-0.001993976,-0.00117537,0.01960235,0.09812630999999999,-9.772040000000001,0,0,44.83602,1,1,8008,4004
4900,119854291,0,0.001780964,-0.002097151,-0.0008922513,0.01877458,0.09451827,-9.773069,0,0,44.836,1,1,8008,4004
4935,119856937,0,0.001480763,-0.001641155,-0.0003313294,0.01841511,0.09139535999999999,-9.771122,0,0,44.83602,1,1,8008,4004
4940,119859703,0,0.002422897,-0.001031741,-0.0003166546,0.01928336,0.08981698,-9.768753999999999,0,0,44.83603,1,1,8008,4004
4943,119861506,0,0.003538236,-0.001092882,0.0004356542,0.02225708,0.085295,-9.762238999999999,0,0,44.83601,1,1,8008,4004
4946,119864702,0,0.003477737,-0.001353818,0.000320935,0.02411595,0.08423695,-9.757180999999999,0,0,44.83599,1,1,8008,4004
4981,119866869,0,0.003227939,-0.001186148,5.719651e-05,0.02860155,0.08578226,-9.750874,0,0,44.83595,1,1,8008,4004
4987,119870347,0,0.003135779,-0.000825335,0.000673571,0.03205001,0.0880485,-9.746065,0,0,44.83594,1,1,8008,4004
4990,119872343,0,0.003485415,-0.0004894963,0.001027603,0.03388664,0.09025805000000001,-9.742820999999999,0,0,44.83595,1,1,8008,4004
4994,119875369,0,0.00366869,-0.0008173701,0.002604104,0.03551823,0.09415442,-9.737133999999999,0,0,44.83599,1,1,8008,4004
5029,119878153,0,0.00150045,-0.00103448,0.002953262,0.03463084,0.09735829999999999,-9.736305,0,0,44.83602,1,1,8008,4004
5033,119880525,0,-6.248958e-05,-0.001283182,0.002639752,0.03195493,0.1011428,-9.740131999999999,0,0,44.83602,1,1,8008,4004
5036,119883485,0,-0.000576883,-0.001072561,0.001823442,0.03023827,0.1041027,-9.744683999999999,0,0,44.83603,1,1,8008,4004
5039,119885579,0,0.0001713069,-0.001895162,0.0003929049,0.02987382,0.1073213,-9.748633,0,0,44.83601,1,1,8008,4004
5074,119888488,0,0.001068869,-0.002902948,-0.001211467,0.03056594,0.1100374,-9.752064000000001,0,0,44.83604,1,1,8008,4004
5077,119890559,0,0.0006960927,-0.001917746,-0.0008588865,0.03019192,0.1123991,-9.753012999999999,0,0,44.83607,1,1,8008,4004
5080,119892921,0,0.001195748,-0.001000192,0.0001740246,0.02948729,0.1133096,-9.753031999999999,0,0,44.83607,1,1,8008,4004
5083,119896035,0,0.001752513,0.0004917228,0.0008158936,0.03004071,0.1139323,-9.750170000000001,0,0,44.83606,1,1,8008,4004
5118,119899307,0,0.001902782,0.001711522,0.0007841205,0.03077634,0.111935,-9.748162000000001,0,0,44.83607,1,1,8008,4004
5122,119900954,0,0.001119146,0.001725417,0.0006961692,0.03125552,0.1079747,-9.747094000000001,0,0,44.83607,1,1,8008,4004
5125,119903716,0,-6.514796e-05,0.0008079171,0.001136011,0.03017143,0.1037478,-9.747489,0,0,44.83609,1,1,8008,4004
5129,119906714,0,0.0002436389,0.001140385,0.001153936,0.02818871,0.1029686,-9.747809999999999,0,0,44.83609,1,1,8008,4004
5164,119909101,0,0.001480355,0.001364924,0.00121107,0.02621428,0.1012753,-9.749242000000001,0,0,44.83606,1,1,8008,4004
5167,119912801,0,-0.0001106766,0.002093533,0.001256583,0.02366096,0.09885027,-9.752364,0,0,44.83598,1,1,8008,4004
5170,119914102,0,-0.002133289,0.002706588,0.0008794140999999999,0.02105902,0.09827397,-9.756532,0,0,44.83594,1,1,8008,4004
5173,119916793,0,-0.002334487,0.001337806,-9.452751000000001e-05,0.02089075,0.09988989,-9.764115,0,0,44.83591,1,1,8008,4004
5208,119920037,0,-0.0002403072,-0.001621772,-0.000665443,0.02532318,0.09960187,-9.773006000000001,0,0,44.83588,1,1,8008,4004
5212,119921912,0,0.000287811,-0.002443793,0.0001050273,0.02846935,0.09889405,-9.777794999999999,0,0,44.83587,1,1,8008,4004
5215,119924802,0,0.000125209,-0.001866267,0.001196968,0.02979014,0.09984902,-9.780390000000001,0,0,44.83585,1,1,8008,4004
5218,119926614,0,-0.0001993783,0.00151155,0.00186471,0.02929836,0.1051052,-9.781648000000001,0,0,44.83583,1,1,8008,4004
5255,119929339,0,-0.0002807003,0.003557087,0.001475145,0.02992106,0.1092249,-9.781473,0,0,44.83584,1,1,8008,4004
5259,119932481,0,-0.001001446,0.003537634,0.0005853725,0.03060949,0.1135845,-9.781720999999999,0,0,44.83593,1,1,8008,4004
5262,119933927,0,-0.001082278,0.002269165,-0.0004125097,0.03003078,0.1133953,-9.783113,0,0,44.83599,1,1,8008,4004
5265,119937145,0,-0.00186112,0.0006197575,-0.00118179,0.03002371,0.1106558,-9.784596000000001,0,0,44.83607,1,1,8008,4004
5300,119939815,0,-0.0008675411,-0.0002676592,-0.0002387765,0.03346529,0.1075353,-9.782436000000001,0,0,44.83615,1,1,8008,4004
5303,119942160,0,0.0003404471,-0.0003432625,0.0003657659,0.03681899,0.1061972,-9.780741000000001,0,0,44.83619,1,1,8008,4004
5306,119945320,0,0.0005913686,0.0007736253,0.001054415,0.04204297,0.1032054,-9.777205,0,0,44.83622,1,1,8008,4004
5309,119947347,0,-0.0004998471,0.00140923,0.001016487,0.04364051,0.09913759,-9.774834999999999,0,0,44.83622,1,1,8008,4004
5344,119950206,0,-0.001871868,0.001313458,-1.751542e-05,0.04321165,0.09404355,-9.773382,0,0,44.83617,1,1,8008,4004
5348,119952350,0,-0.001334345,0.0007398136,-0.0003177372,0.04402175,0.09185984,-9.772993,0,0,44.83612,1,1,8008,4004
5351,119954598,0,-0.0001109852,-0.001603786,-0.0008948337,0.04891326,0.08918826000000001,-9.771255,0,0,44.83601,1,1,8008,4004
5354,119957816,0,-3.536681e-05,-0.003029979,-0.001186665,0.05256463,0.08829265,-9.769674999999999,0,0,44.83593,1,1,8008,4004
5389,119960809,0,-0.002075675,-0.002565345,-0.0003843143,0.05341765,0.09071828999999999,-9.762285,0,0,44.83582,1,1,8008,4004
5392,119962950,0,-0.00202896,-0.001594553,-0.0003317905,0.05165835,0.09474133,-9.758067,0,0,44.83578,1,1,8008,4004
5395,119965488,0,-0.001008639,-0.001289771,-0.001255451,0.05060159,0.1005485,-9.753064999999999,0,0,44.83574,1,1,8008,4004
5398,119967979,0,-0.001792475,-0.001964408,-0.001849677,0.05005518,0.103493,-9.750154,0,0,44.83568,1,1,8008,4004
5433,119970942,0,-0.003271128,-0.002400522,-0.001997935,0.04688814,0.1112042,-9.748236,0,0,44.8356,1,1,8008,4004
5440,119973702,0,-0.003312313,-0.002114081,-0.0007614733,0.04465938,0.1179495,-9.746772,0,0,44.83556,1,1,8008,4004
5443,119975382,0,-0.00111599,-0.00182496,0.001343059,0.042885,0.124809,-9.741754999999999,0,0,44.83548,1,1,8008,4004
5447,119978236,0,0.0004237668,-0.001903519,0.001994659,0.04111074,0.1256177,-9.736231,0,0,44.83545,1,1,8008,4004
5482,119981065,0,0.0005250581,-0.001354062,0.001340761,0.03649323,0.1231837,-9.729574,0,0,44.83537,1,1,8008,4004
5485,119983042,0,-0.0009476852,-0.0003464227,-8.61404e-05,0.03258968,0.1213352,-9.727733000000001,0,0,44.83533,1,1,8008,4004
5490,119986024,0,-0.002405278,0.0005811968,-0.00193473,0.02883874,0.1197852,-9.731194,0,0,44.83522,1,1,8008,4004
5493,119987860,0,-0.001670332,0.0004768799,-0.003008128,0.0301659,0.1185631,-9.735559,0,0,44.83516,1,1,8008,4004
5528,119990600,0,-0.001446865,-0.0007225806,-0.00261421,0.03367529,0.1136699,-9.740963000000001,0,0,44.83502,1,1,8008,4004
5532,119992891,0,-0.001806705,-0.001375781,-0.001500131,0.03411241,0.1103354,-9.743701,0,0,44.83486,1,1,8008,4004
5535,119995701,0,-0.002160775,-0.001517273,0.0002094511,0.03454522,0.108392,-9.745668,0,0,44.83469,1,1,8008,4004
5538,119998353,0,-0.001502747,-0.001152589,0.002540708,0.03794547,0.1056569,-9.747828,0,0,44.83445,1,1,8008,4004
5573,120001309,0,0.001344868,-0.001237222,0.003011116,0.0403603,0.1033216,-9.751816,0,0,44.83427,1,1,8008,4004
5577,120003688,0,0.003437839,-0.001133145,0.002018036,0.03984213,0.1035571,-9.758336,0,0,44.8341,1,1,8008,4004
5582,120006325,0,0.003689601,-0.001148576,0.001019913,0.03779259,0.1038602,-9.763795,0,0,44.83398,1,1,8008,4004
5585,120008694,0,0.003617269,-0.002065576,-0.0007800211,0.03468934,0.1037235,-9.772532999999999,0,0,44.83377,1,1,8008,4004
5620,120017486,0,0.002478164,-0.0013276,0.003417463,0.03343936,0.1046039,-9.776463,0,0,44.83327,1,1,8008,4004
5623,120019879,0,0.002114939,-0.0008617002,0.003683152,0.03514852,0.1019608,-9.777098000000001,0,0,44.83302,1,1,8008,4004
5658,120023580,0,0.002183031,-0.0007997669999999999,0.002480337,0.03676686,0.1003611,-9.777589000000001,0,0,44.83282,1,1,8008,4004
5661,120026240,0,0.002398392,-0.001432074,0.0009109331,0.03744615,0.09875262999999999,-9.780435000000001,0,0,44.83267,1,1,8008,4004
5664,120027812,0,0.002724718,-0.002281894,-1.584024e-05,0.03811325,0.09573160999999999,-9.78608,0,0,44.83246,1,1,8008,4004
5668,120030218,0,0.001911186,-0.001672766,-0.0004244685,0.03802336,0.09343166,-9.788133999999999,0,0,44.83235,1,1,8008,4004
5703,120032888,0,0.001018269,0.0001132272,-0.0003260487,0.03707182,0.0934798,-9.786308,0,0,44.83219,1,1,8008,4004
5706,120035797,0,0.001351642,0.0008027712,0.0007273912,0.03577524,0.09662622999999999,-9.784663,0,0,44.83208,1,1,8008,4004
5709,120038210,0,0.002880415,0.0005407024,0.002448024,0.03210777,0.1011151,-9.783899,0,0,44.83192,1,1,8008,4004
5713,120039915,0,0.002994456,0.000732748,0.002934942,0.02912788,0.1028524,-9.784469,0,0,44.83175,1,1,8008,4004
5748,120042831,0,0.002088198,0.001504281,0.002573239,0.02494235,0.1050774,-9.786388000000001,0,0,44.83157,1,1,8008,4004
5751,120045332,0,0.002165207,0.0009944291000000001,0.002276449,0.02318538,0.1067698,-9.788838,0,0,44.83145,1,1,8008,4004
5754,120047824,0,0.003799054,0.0006742715,0.002513535,0.02007167,0.1050399,-9.792864,0,0,44.83126,1,1,8008,4004
5757,120050414,0,0.004374014,0.0004080723,0.002712553,0.01790117,0.09983011,-9.794480999999999,0,0,44.83114,1,1,8008,4004
5792,120053366,0,0.003463494,-9.654888000000001e-05,0.002489199,0.01697982,0.09004519,-9.792160000000001,0,0,44.83091,1,1,8008,4004
5795,120055273,0,0.002420262,-0.0005210071,0.002169323,0.01770474,0.08496212,-9.787372,0,0,44.83079,1,1,8008,4004
5798,120058336,0,0.0008053761,-0.0006074608,0.002992265,0.02015402,0.07909238,-9.777963,0,0,44.83054,1,1,8008,4004
5802,120060391,0,-0.0001716354,-0.0004605085,0.002707002,0.02441704,0.07535791,-9.771767000000001,0,0,44.83035,1,1,8008,4004
5837,120063081,0,-0.001610233,-0.001681866,0.001517455,0.03407589,0.07133914,-9.766363999999999,0,0,44.83012,1,1,8008,4004
5840,120066063,0,-0.003575486,-0.002233866,-0.0001834746,0.04162246,0.07054798,-9.764791000000001,0,0,44.82996,1,1,8008,4004
5843,120067965,0,-0.00419698,-0.002414218,-0.0006976227,0.04349712,0.07371552000000001,-9.763248000000001,0,0,44.82978,1,1,8008,4004
5846,120070994,0,-0.003436262,-0.001981538,-0.0004333728,0.04484382,0.0825453,-9.760160000000001,0,0,44.82952,1,1,8008,4004
5881,120073363,0,-0.001736362,-0.002135482,0.0003542542,0.04525037,0.09065138,-9.753774,0,0,44.82921,1,1,8008,4004
5887,120076234,0,-0.001815594,-0.002357287,0.0003754448,0.0427378,0.09542277,-9.749431,0,0,44.82899,1,1,8008,4004
5890,120079104,0,-0.00243239,-0.002584646,0.001154703,0.03641362,0.1039667,-9.744451,0,0,44.8287,1,1,8008,4004
5894,120081513,0,-0.002022591,-0.002393095,0.0007927403,0.03210216,0.110067,-9.741163,0,0,44.82855,1,1,8008,4004
5929,120084612,0,-0.001414925,-0.002069278,-0.0001679273,0.02917184,0.1155403,-9.73531,0,0,44.82822,1,1,8008,4004
5933,120086720,0,-0.002881013,-0.001973408,-0.0006017838,0.02644038,0.1133176,-9.731711000000001,0,0,44.82796,1,1,8008,4004
5936,120089350,0,-0.003347378,-0.001642928,-7.328102000000001e-05,0.02409275,0.1100274,-9.73287,0,0,44.8278,1,1,8008,4004
5940,120092119,0,-0.003361858,-0.0008519588,0.0006497863,0.0222247,0.104694,-9.738944999999999,0,0,44.82757,1,1,8008,4004
5975,120095306,0,-0.002431178,-0.001354694,0.0002665867,0.02295969,0.1002389,-9.746861000000001,0,0,44.82725,1,1,8008,4004
5978,120097157,0,-0.002206454,-0.001585878,0.0002638552,0.02403489,0.09814715,-9.753743,0,0,44.82707,1,1,8008,4004
5981,120099597,0,-0.003576159,-0.00233929,0.001053672,0.02471378,0.09423624999999999,-9.764189,0,0,44.82666,1,1,8008,4004
5984,120102249,0,-0.004008902,-0.002196968,0.0009473565,0.02405902,0.09164561,-9.772339000000001,0,0,44.82634,1,1,8008,4004
6019,120105414,0,-0.005018616,-0.0006521253,3.183584e-05,0.0228036,0.08880854000000001,-9.781434000000001,0,0,44.82589,1,1,8008,4004
6022,120107710,0,-0.006143443,-0.0007340163,-0.0001237971,0.02328702,0.08860324999999999,-9.783531999999999,0,0,44.82558,1,1,8008,4004
6025,120109827,0,-0.006421098,-0.001243513,8.992571e-05,0.02214232,0.09065291,-9.782575,0,0,44.82527,1,1,8008,4004
6029,120112293,0,-0.005341571,-0.001276579,0.0003882475,0.01899901,0.09243469999999999,-9.779961999999999,0,0,44.82495,1,1,8008,4004
6064,120114855,0,-0.004052742,-0.001827285,1.220525e-07,0.01112795,0.09558659,-9.773863,0,0,44.82447,1,1,8008,4004
6067,120117707,0,-0.002911473,-0.002359773,-0.0009928179000000001,0.006123398,0.09759095,-9.771212,0,0,44.82418,1,1,8008,4004
6070,120120094,0,-0.001380048,-0.002016793,-0.002112181,0.004044676,0.1027186,-9.769238,0,0,44.82388,1,1,8008,4004
6073,120122290,0,-0.001111145,-0.001027022,-0.002196087,0.00557909,0.1067303,-9.771845000000001,0,0,44.82369,1,1,8008,4004
6108,120124849,0,-0.000368631,0.0009803404,-0.002260623,0.008592551,0.1098956,-9.781279,0,0,44.82342,1,1,8008,4004
6111,120127380,0,0.0001297748,0.001398031,-0.00208171,0.01359065,0.1106021,-9.788214999999999,0,0,44.82324,1,1,8008,4004
6114,120130821,0,0.000199807,0.000310916,-0.001787584,0.02362807,0.1100611,-9.795684,0,0,44.82288,1,1,8008,4004
6118,120133375,0,-0.000514621,0.0004622042,-0.002166173,0.02824213,0.1082343,-9.797340999999999,0,0,44.82262,1,1,8008,4004
6153,120135800,0,-0.002293704,0.001312062,-0.002345425,0.0329677,0.1024286,-9.793058,0,0,44.8224,1,1,8008,4004
6156,120138528,0,-0.003033464,0.001423879,-0.001582208,0.03475092,0.09989673,-9.787879999999999,0,0,44.82227,1,1,8008,4004
6159,120141439,0,-0.001096812,0.001074677,-0.001766116,0.03802711,0.09707343,-9.779968,0,0,44.82202,1,1,8008,4004
6162,120143516,0,0.001397372,0.0004984199,-0.002227013,0.03866502,0.09653638,-9.777339,0,0,44.82189,1,1,8008,4004
6197,120146562,0,0.002085056,0.001340254,-0.001961797,0.03641717,0.09879895,-9.777437000000001,0,0,44.82168,1,1,8008,4004
6200,120148654,0,0.001469442,0.00166574,-0.0009394233,0.0330784,0.1034839,-9.777298999999999,0,0,44.82143,1,1,8008,4004
6203,120150918,0,0.001551784,0.001522379,-0.0009938702000000001,0.03123904,0.1072406,-9.777633,0,0,44.82119,1,1,8008,4004
6207,120153850,0,0.001765791,0.001075239,-0.001765981,0.02945128,0.1092794,-9.776913,0,0,44.82093,1,1,8008,4004
6242,120156513,0,0.002266364,0.0004433386,-0.003366066,0.02596407,0.1042691,-9.771405,0,0,44.82059,1,1,8008,4004
6246,120159076,0,0.001260518,0.001070367,-0.003271572,0.02795507,0.1013377,-9.768363000000001,0,0,44.82041,1,1,8008,4004
6249,120161332,0,0.0003479704,0.002633423,-0.002401682,0.03491984,0.1004349,-9.768473,0,0,44.82006,1,1,8008,4004
6253,120164646,0,0.001795704,0.003041048,-0.001654084,0.04001659,0.1001605,-9.76792,0,0,44.81989,1,1,8008,4004
6288,120167191,0,0.003079819,0.0021114,-0.001413638,0.04537553,0.09625489,-9.764958,0,0,44.81956,1,1,8008,4004
6291,120170094,0,0.002149957,0.0008711182,-0.002095369,0.04795585,0.09307604,-9.765216000000001,0,0,44.81927,1,1,8008,4004
6294,120172282,0,0.00184924,0.0001025245,-0.002286698,0.04864214,0.09132268,-9.765931,0,0,44.81896,1,1,8008,4004
6297,120175028,0,0.002725971,-0.001062901,-0.001728379,0.04219428,0.08650389,-9.763681,0,0,44.81865,1,1,8008,4004
6332,120177525,0,-0.000563385,0.002498979,-0.001389262,0.02902023,0.07610637000000001,-9.757865000000001,0,0,44.81834,1,1,8008,4004
6339,120180344,0,-0.001111564,0.00266695,-0.002879626,0.02774087,0.07920820000000001,-9.753717999999999,0,0,44.81812,1,1,8008,4004
6342,120182657,0,0.005373129,-0.0007002563,-0.004737694,0.02876681,0.08863793,-9.753206,0,0,44.81772,1,1,8008,4004
6347,120185601,0,0.004184148,-7.709527e-05,-0.005067385,0.01972157,0.08298382999999999,-9.759496,0,0,44.81742,1,1,8008,4004
6382,120188865,0,-0.002839941,0.003856857,-0.005856903,0.01233146,0.08260716,-9.771553000000001,0,0,44.81701,1,1,8008,4004
6385,120190396,0,-0.001181087,0.003544903,-0.005436564,0.0229647,0.09342209999999999,-9.765331,0,0,44.81673,1,1,8008,4004
6388,120193151,0,0.006529085,0.0001161372,-0.006388786,0.03003394,0.0915767,-9.750932000000001,0,0,44.81655,1,1,8008,4004
6391,120195838,0,0.005312084,-0.00212249,-0.007765215,0.03091125,0.07142279,-9.737253000000001,0,0,44.81622,1,1,8008,4004
6426,120198801,0,-0.005855467,0.0008472434,-0.01168413,0.03310729,0.06486088,-9.739539000000001,0,0,44.81598,1,1,8008,4004
6429,120201029,0,-0.002802154,0.001829506,-0.01399786,0.04214608,0.07904071,-9.743065,0,0,44.81585,1,1,8008,4004
6433,120203380,0,0.005904705,0.0001434353,-0.0153679,0.05497593,0.08884771,-9.746242000000001,0,0,44.81569,1,1,8008,4004
6437,120205664,0,0.003503599,-0.00234209,-0.0141811,0.06573384,0.07265188,-9.755266000000001,0,0,44.81547,1,1,8008,4004
6472,120208257,0,-0.009399395,0.000602198,-0.01220885,0.06001092,0.06446332,-9.765036,0,0,44.8153,1,1,8008,4004
6476,120211461,0,-0.008086773,0.002664273,-0.01223485,0.05486942,0.1008011,-9.778238,0,0,44.81512,1,1,8008,4004
6481,120213648,0,0.0117029,-0.002817148,-0.01205444,0.06210491,0.1285405,-9.777780999999999,0,0,44.81494,1,1,8008,4004
6484,120216059,0,0.01506911,-0.009352067,-0.008658512,0.06373972,0.1021474,-9.764756,0,0,44.81479,1,1,8008,4004
6519,120225571,0,0.03978391,-0.008644341999999999,0.01594503,0.04224112,0.1301264,-9.771948,0,0,44.81427,1,1,8008,4004
6523,120227808,0,0.0088979,-0.008792937000000001,0.01836943,0.03634546,0.0656101,-9.749651999999999,0,0,44.81416,1,1,8008,4004
6558,120230636,0,-0.04398874,0.003223154,0.01729591,0.02204742,0.05110424,-9.748461000000001,0,0,44.81407,1,1,8008,4004
6561,120233087,0,-0.02184917,0.004208836,0.01428085,0.02834377,0.1087535,-9.775547,0,0,44.814,1,1,8008,4004
6564,120236016,0,0.04101198,-0.01362317,0.01299263,0.060167,0.1215549,-9.795704000000001,0,0,44.8139,1,1,8008,4004
6568,120238348,0,0.02903722,-0.01616306,0.01689501,0.05833326,0.04992983,-9.785778000000001,0,0,44.81376,1,1,8008,4004
6603,120240832,0,-0.03515248,0.009697542999999999,0.02372409,0.02591247,0.01605499,-9.782921,0,0,44.81366,1,1,8008,4004
6606,120243355,0,-0.01256203,0.0102752,0.0227369,0.05126362,0.1130297,-9.792194,0,0,44.81361,1,1,8008,4004
6609,120245930,0,0.0275825,-0.01127446,0.01871534,0.07357324,0.1179592,-9.793666999999999,0,0,44.81358,1,1,8008,4004
6612,120248587,0,0.02791631,-0.02139995,0.01607439,0.05861144,0.05835214,-9.793298,0,0,44.81358,1,1,8008,4004
6647,120251687,0,-0.02534363,-0.003758096,0.01488023,0.02215712,0.03235573,-9.794362,0,0,44.81364,1,1,8008,4004
6650,120254588,0,-0.01251548,0.002542312,0.01239375,0.0537891,0.1206077,-9.803281999999999,0,0,44.81376,1,1,8008,4004
6653,120256523,0,0.01912144,-0.004620977,0.01134457,0.07098219,0.1293294,-9.799327999999999,0,0,44.81386,1,1,8008,4004
6657,120259242,0,0.006406283,-0.002161028,0.0102524,0.03888492,0.06744508,-9.773804,0,0,44.81402,1,1,8008,4004
6692,120262090,0,-0.02302107,0.01894491,0.01012626,0.009192315,0.0918809,-9.763722,0,0,44.81421,1,1,8008,4004
6695,120264296,0,-0.006381548,0.01086658,0.00945036,0.02913417,0.135433,-9.762734,0,0,44.81428,1,1,8008,4004
6698,120267371,0,0.02507075,-0.02561781,0.003368021,0.05492124,0.1263401,-9.764780999999999,0,0,44.8144,1,1,8008,4004
6701,120269301,0,0.008738905999999999,-0.02513065,0.003450965,0.02825622,0.08736379,-9.769428,0,0,44.81448,1,1,8008,4004
6736,120271983,0,-0.02542424,0.007110668,0.006496364,-0.001842806,0.09490498,-9.764137,0,0,44.81464,1,1,8008,4004
6739,120274849,0,-0.008598980000000001,0.01832319,0.004645565,0.02850039,0.1398992,-9.751429999999999,0,0,44.81472,1,1,8008,4004
6742,120276571,0,0.02765969,0.004256983,0.0001994076,0.06455687,0.1398293,-9.751386999999999,0,0,44.81485,1,1,8008,4004
6746,120279845,0,0.01524517,-0.003177623,-0.00132351,0.03645682,0.09980789,-9.765345,0,0,44.81493,1,1,8008,4004
6781,120282412,0,-0.02955992,0.006012095,0.0007430969,-0.002573461,0.1092802,-9.770892,0,0,44.81505,1,1,8008,4004
6787,120285636,0,-0.003261086,-0.002320219,-0.001624015,0.02500951,0.1494563,-9.767303,0,0,44.81507,1,1,8008,4004
6790,120287124,0,0.02741159,-0.01732767,-0.003192429,0.04480569,0.147875,-9.751855000000001,0,0,44.81508,1,1,8008,4004
6794,120290144,0,0.007812176,-0.004249785,-0.002503689,0.002732264,0.08213801,-9.738773999999999,0,0,44.81505,1,1,8008,4004
6829,120293268,0,-0.02225828,0.02772276,-0.002830949,-0.03162504,0.1064508,-9.756634999999999,0,0,44.81495,1,1,8008,4004
6832,120295914,0,0.008312066999999999,0.02003239,-0.008424467,-0.01092842,0.1512229,-9.758032,0,0,44.81489,1,1,8008,4004
6835,120298063,0,0.02550484,-0.004593899,-0.01432018,0.02080825,0.1364963,-9.737363,0,0,44.81482,1,1,8008,4004
6839,120300652,0,-0.004469414,-0.01204954,-0.01582257,-0.001041464,0.08517203,-9.749637999999999,0,0,44.81479,1,1,8008,4004
6874,120303319,0,-0.02438691,-0.001373467,-0.01143139,-0.01673889,0.1028189,-9.763239,0,0,44.8148,1,1,8008,4004
6877,120306382,0,0.0001463895,0.01383324,-0.006192323,0.002765693,0.1526036,-9.764787,0,0,44.81481,1,1,8008,4004
6880,120308870,0,0.02575329,0.005932861,-0.008810765999999999,0.0389725,0.1453625,-9.755248,0,0,44.81483,1,1,8008,4004
6884,120310859,0,0.01190872,-0.009179142,-0.01272468,0.05461401,0.08303563,-9.760282999999999,0,0,44.81488,1,1,8008,4004
6919,120313443,0,-0.0205718,0.0007753715,-0.01507214,0.02397632,0.06371684,-9.778204000000001,0,0,44.81493,1,1,8008,4004
6922,120315883,0,-0.02084051,0.02036747,-0.01692986,0.00675777,0.1128902,-9.790977,0,0,44.81502,1,1,8008,4004
6927,120319279,0,0.02935839,-0.001501011,-0.02256023,0.07064951999999999,0.1459341,-9.771029,0,0,44.81504,1,1,8008,4004
6930,120321585,0,0.03738739,-0.0241328,-0.02444191,0.08830366000000001,0.11472,-9.749988999999999,0,0,44.81506,1,1,8008,4004
6965,120324215,0,-0.01365775,-0.00666438,-0.01403078,0.01871515,0.06344915,-9.739343999999999,0,0,44.81505,1,1,8008,4004
6968,120326840,0,-0.03418552,0.03072036,-0.005876601,-0.001815688,0.09907626,-9.744356,0,0,44.81498,1,1,8008,4004
6971,120329337,0,-0.002439609,0.01910513,-0.008380762,0.04419986,0.1277548,-9.740055999999999,0,0,44.81495,1,1,8008,4004
6975,120331956,0,0.04034469,-0.02067383,-0.01836525,0.05831276,0.1058967,-9.735478000000001,0,0,44.8149,1,1,8008,4004
7010,120335709,0,0.01110318,-0.007688005,-0.01741486,-0.01611263,0.07096158,-9.730653999999999,0,0,44.81488,1,1,8008,4004
7013,120337824,0,-0.03289348,0.01599852,-0.01105475,-0.01845819,0.06700048,-9.732315,0,0,44.81487,1,1,8008,4004
7016,120339924,0,-0.02433103,0.002115092,-0.01175245,0.05975137,0.09151307,-9.750916,0,0,44.81485,1,1,8008,4004
7019,120342546,0,0.009115418,-0.02089551,-0.01289057,0.07774391,0.1138472,-9.765268000000001,0,0,44.81482,1,1,8008,4004
7054,120344899,0,0.03460246,-0.01560621,-0.006323444,0.02392467,0.1014144,-9.773726,0,0,44.8148,1,1,8008,4004
7057,120348025,0,0.01348413,0.006410282,-0.0005829157,0.0129753,0.06976082,-9.773469,0,0,44.8148,1,1,8008,4004
7060,120350941,0,-0.02629495,0.007585295,-0.002976769,0.07178182,0.05407926,-9.775072,0,0,44.81479,1,1,8008,4004
7064,120352564,0,-0.01582131,-0.01738872,-0.01013045,0.07804645,0.07231282,-9.792937,0,0,44.81479,1,1,8008,4004
7099,120355107,0,0.005147914,-0.02044524,-0.009846696,0.04277634,0.07759346,-9.812536,0,0,44.81479,1,1,8008,4004
7102,120357929,0,0.01088746,-0.007331797,-0.002593019,0.02718179,0.07004067,-9.826124,0,0,44.81478,1,1,8008,4004
7105,120359895,0,-0.004001651,-0.002884307,0.003138867,0.04533795,0.04317972,-9.821999,0,0,44.81475,1,1,8008,4004
7110,120362398,0,-0.0196449,-0.004499586,0.007447025,0.04296311,0.03546616,-9.813995999999999,0,0,44.81475,1,1,8008,4004
7145,120365521,0,-0.01744318,-0.004120626,0.008512286000000001,0.0107138,0.05763067,-9.815327999999999,0,0,44.81478,1,1,8008,4004
7148,120367595,0,-0.002643004,-0.002772141,0.006722733,-0.0009595745,0.07692169,-9.829810999999999,0,0,44.81482,1,1,8008,4004
7151,120370273,0,0.00742229,-0.004501527,0.001629289,-0.0003358925,0.08515188999999999,-9.847462,0,0,44.81488,1,1,8008,4004
