LineNo,TimeUS,I,GyrX,GyrY,GyrZ,AccX,AccY,AccZ,EG,EA,T,GH,AH,GHz,AHz
184,1.1864e+08,0,-0.0027298,-0.001498,-0.0028703,0.054781,0.10815,-9.7518,0,0,44.843,1,1,8008,4004
219,1.1865e+08,0,-0.0036735,-0.0024452,-0.0034037,0.05624,0.10355,-9.7524,0,0,44.843,1,1,8008,4004
285,1.1867e+08,0,-0.0011164,-0.0046441,-2.6833e-05,0.028894,0.12152,-9.7523,0,0,44.843,1,1,8008,4004
401,1.187e+08,0,0.0019766,-0.00049005,0.0015255,0.035064,0.11305,-9.761,0,0,44.843,1,1,8008,4004
516,1.1873e+08,0,-0.0005076,0.0017837,0.0022164,0.041928,0.092022,-9.7663,0,0,44.843,1,1,8008,4004
519,1.1873e+08,0,-0.00051659,0.0022099,0.0011973,0.042843,0.090681,-9.7614,0,0,44.843,1,1,8008,4004
554,1.1873e+08,0,-0.001112,0.0026497,-0.00020432,0.044603,0.088968,-9.7577,0,0,44.843,1,1,8008,4004
624,1.1876e+08,0,-0.0038982,-0.0031825,0.0011772,0.055764,0.077719,-9.761,0,0,44.843,1,1,8008,4004
739,1.1878e+08,0,-0.0053817,-0.0049947,-0.00026414,0.036253,0.099207,-9.7316,0,0,44.843,1,1,8008,4004
854,1.188e+08,0,-0.0049939,-0.0029946,-0.0019334,0.030309,0.099857,-9.7398,0,0,44.843,1,1,8008,4004
970,1.1883e+08,0,0.00072058,0.00053665,-0.0022799,0.022913,0.10734,-9.7449,0,0,44.842,1,1,8008,4004
1005,1.1884e+08,0,0.0018213,0.0010052,-0.0023095,0.024968,0.10292,-9.7514,0,0,44.842,1,1,8008,4004
1079,1.1888e+08,0,0.0010834,-0.0013204,-0.0013008,0.029202,0.096267,-9.733,0,0,44.84,1,1,8008,4004
1194,1.1898e+08,0,0.0031634,0.001498,-0.00050493,0.036146,0.10024,-9.7564,0,0,44.838,1,1,8008,4004
1298,1.1904e+08,0,-0.00088137,-0.0026723,0.00072959,0.0038645,0.10932,-9.7649,0,0,44.839,1,1,8008,4004
1383,1.1906e+08,0,-0.0026201,0.00065656,-0.0020673,0.0073806,0.10077,-9.7602,0,0,44.839,1,1,8008,4004
1478,1.1907e+08,0,-0.0035167,0.0020231,-0.0025132,0.033801,0.075601,-9.7602,0,0,44.839,1,1,8008,4004
1571,1.1909e+08,0,-0.0053242,-0.00017519,-0.000598,0.038201,0.091887,-9.7694,0,0,44.839,1,1,8008,4004
1596,1.1909e+08,0,-0.0038644,0.00012176,-0.00062032,0.035517,0.093625,-9.7694,0,0,44.839,1,1,8008,4004
1631,1.1909e+08,0,-0.0026254,0.00040628,-0.00076376,0.032058,0.095976,-9.7692,0,0,44.839,1,1,8008,4004
1635,1.191e+08,0,-0.0027324,0.00010529,-0.0008132,0.030547,0.09877,-9.7669,0,0,44.839,1,1,8008,4004
1638,1.191e+08,0,-0.00421,-1.1951e-06,-0.0013169,0.028474,0.10302,-9.7616,0,0,44.839,1,1,8008,4004
1642,1.191e+08,0,-0.0046048,0.00013373,-0.0016659,0.02714,0.10682,-9.7596,0,0,44.839,1,1,8008,4004
1677,1.191e+08,0,-0.0034623,0.00081718,-0.0016686,0.025521,0.11042,-9.7574,0,0,44.84,1,1,8008,4004
1680,1.1911e+08,0,-0.002914,0.0012142,-0.0012633,0.025194,0.11007,-9.7555,0,0,44.84,1,1,8008,4004
1683,1.1911e+08,0,-0.0024763,0.00075745,-0.0004928,0.025372,0.10653,-9.7528,0,0,44.84,1,1,8008,4004
1686,1.1911e+08,0,-0.0024243,0.00065162,-0.00046029,0.025598,0.10424,-9.75,0,0,44.84,1,1,8008,4004
1721,1.1912e+08,0,-0.0026335,0.00021386,-0.00078915,0.025168,0.10508,-9.7438,0,0,44.84,1,1,8008,4004
1724,1.1912e+08,0,-0.0019764,5.7455e-05,-0.0013818,0.024088,0.10688,-9.742,0,0,44.84,1,1,8008,4004
1727,1.1912e+08,0,-0.00062022,-0.00099621,-0.0016129,0.024647,0.10984,-9.7418,0,0,44.839,1,1,8008,4004
1731,1.1912e+08,0,-0.00055159,-0.0013034,-0.0012079,0.024771,0.11147,-9.7425,0,0,44.839,1,1,8008,4004
1766,1.1913e+08,0,-9.8674e-05,-0.00118,-0.00066512,0.025742,0.11075,-9.7468,0,0,44.839,1,1,8008,4004
1769,1.1913e+08,0,0.00069724,-0.0011038,-0.00036878,0.027933,0.10759,-9.7536,0,0,44.839,1,1,8008,4004
1772,1.1913e+08,0,0.0016431,-0.00060789,-0.00063625,0.029068,0.10552,-9.7558,0,0,44.839,1,1,8008,4004
1775,1.1913e+08,0,0.0026622,-0.00048666,-0.00090876,0.029986,0.10383,-9.7575,0,0,44.839,1,1,8008,4004
1810,1.1914e+08,0,0.0029035,-0.0017542,7.478e-05,0.033716,0.10229,-9.7602,0,0,44.839,1,1,8008,4004
1813,1.1914e+08,0,0.0014953,-0.0021203,0.0011684,0.038658,0.10304,-9.7589,0,0,44.839,1,1,8008,4004
1816,1.1914e+08,0,0.00099867,-0.0022558,0.00098061,0.040306,0.10443,-9.7572,0,0,44.839,1,1,8008,4004
1820,1.1914e+08,0,0.001678,-0.0024877,0.00058538,0.040137,0.10804,-9.7538,0,0,44.839,1,1,8008,4004
1855,1.1915e+08,0,0.0018142,-0.0022536,-0.00086334,0.04031,0.11037,-9.7521,0,0,44.839,1,1,8008,4004
1862,1.1915e+08,0,0.0019121,-0.0027106,-0.0018349,0.038278,0.11111,-9.7523,0,0,44.838,1,1,8008,4004
1865,1.1915e+08,0,0.0023927,-0.0034255,-0.0019083,0.034388,0.11278,-9.7526,0,0,44.838,1,1,8008,4004
1869,1.1915e+08,0,0.0021721,-0.0036533,-0.001892,0.031527,0.11434,-9.7547,0,0,44.838,1,1,8008,4004
1904,1.1916e+08,0,0.0027119,-0.0034842,-0.0016829,0.028017,0.11556,-9.7585,0,0,44.838,1,1,8008,4004
1907,1.1916e+08,0,0.0032167,-0.0027444,-0.00063323,0.027364,0.11542,-9.7616,0,0,44.838,1,1,8008,4004
1910,1.1916e+08,0,0.0036814,-0.0011807,0.00031782,0.028836,0.11194,-9.7657,0,0,44.838,1,1,8008,4004
1914,1.1916e+08,0,0.0042615,-0.00035254,0.00047356,0.030841,0.10878,-9.767,0,0,44.838,1,1,8008,4004
1949,1.1917e+08,0,0.0048097,-0.00028254,0.00043433,0.033276,0.10586,-9.7668,0,0,44.838,1,1,8008,4004
1952,1.1917e+08,0,0.0052427,-0.00017239,0.00067912,0.034244,0.10439,-9.7644,0,0,44.838,1,1,8008,4004
1958,1.1917e+08,0,0.0054381,-0.00079546,0.0006711,0.034925,0.10065,-9.7581,0,0,44.838,1,1,8008,4004
1962,1.1917e+08,0,0.0044535,0.00011682,-0.00010121,0.036016,0.096127,-9.7549,0,0,44.838,1,1,8008,4004
1997,1.1918e+08,0,0.00258,0.0013246,-0.00070987,0.038654,0.090004,-9.7494,0,0,44.838,1,1,8008,4004
2000,1.1918e+08,0,0.0028806,0.0010991,-0.0009373,0.039851,0.084091,-9.743,0,0,44.838,1,1,8008,4004
2003,1.1918e+08,0,0.0031398,0.0012151,-0.0016078,0.039085,0.08031,-9.7406,0,0,44.838,1,1,8008,4004
2006,1.1919e+08,0,0.0031911,0.00076658,-0.0021662,0.038678,0.077363,-9.7419,0,0,44.838,1,1,8008,4004
2041,1.1919e+08,0,0.0026112,0.00080591,-0.0020295,0.041289,0.076642,-9.7476,0,0,44.838,1,1,8008,4004
2044,1.1919e+08,0,0.003057,-3.2682e-05,-0.0014293,0.044173,0.076103,-9.7523,0,0,44.838,1,1,8008,4004
2048,1.1919e+08,0,0.0021724,-0.00081957,-0.00039675,0.047789,0.07497,-9.7588,0,0,44.838,1,1,8008,4004
2052,1.192e+08,0,0.00059447,-0.00050147,-4.3055e-05,0.04936,0.074771,-9.7616,0,0,44.838,1,1,8008,4004
2087,1.192e+08,0,-0.0011111,0.0014981,0.00088663,0.049085,0.075154,-9.7659,0,0,44.838,1,1,8008,4004
2090,1.192e+08,0,-0.0011121,0.0017649,0.0014835,0.046009,0.077117,-9.7683,0,0,44.838,1,1,8008,4004
2093,1.192e+08,0,-0.00080209,0.00097907,0.0014775,0.042734,0.077521,-9.7672,0,0,44.839,1,1,8008,4004
2096,1.1921e+08,0,-0.0009144,3.7471e-05,0.0014348,0.039756,0.077395,-9.7638,0,0,44.839,1,1,8008,4004
2131,1.1921e+08,0,-0.0015289,-0.00072311,0.0013638,0.038359,0.075616,-9.759,0,0,44.838,1,1,8008,4004
2134,1.1921e+08,0,-0.0017507,-0.00055148,0.0011847,0.037157,0.073958,-9.7578,0,0,44.838,1,1,8008,4004
2137,1.1921e+08,0,-0.0024575,0.00028122,0.00093474,0.036402,0.072971,-9.7587,0,0,44.838,1,1,8008,4004
2141,1.1922e+08,0,-0.0027157,5.0119e-05,0.00062473,0.035938,0.072493,-9.7597,0,0,44.838,1,1,8008,4004
2176,1.1922e+08,0,-0.0034831,-0.0012505,0.0010796,0.032683,0.072925,-9.7614,0,0,44.838,1,1,8008,4004
2179,1.1922e+08,0,-0.004617,-0.001805,0.00080223,0.029363,0.075915,-9.7599,0,0,44.838,1,1,8008,4004
2184,1.1922e+08,0,-0.0056763,-0.00050575,8.5607e-05,0.026428,0.083286,-9.7552,0,0,44.838,1,1,8008,4004
2187,1.1923e+08,0,-0.0051998,-0.0011724,-0.00099449,0.026891,0.09458,-9.7501,0,0,44.838,1,1,8008,4004
2222,1.1924e+08,0,-0.0047499,-0.0010724,-0.0003513,0.022722,0.10307,-9.7397,0,0,44.838,1,1,8008,4004
2226,1.1924e+08,0,-0.0051006,-0.00075177,-0.00017295,0.020684,0.10265,-9.7367,0,0,44.838,1,1,8008,4004
2230,1.1924e+08,0,-0.0053996,-0.00085461,-3.3588e-05,0.020195,0.10157,-9.7383,0,0,44.838,1,1,8008,4004
2265,1.1924e+08,0,-0.005434,-0.00095662,0.00043391,0.021427,0.10202,-9.7423,0,0,44.838,1,1,8008,4004
2268,1.1925e+08,0,-0.0054287,-0.0015414,7.2528e-05,0.025943,0.10319,-9.7427,0,0,44.839,1,1,8008,4004
2271,1.1925e+08,0,-0.0044958,-0.0013811,-0.00031051,0.030134,0.103,-9.7424,0,0,44.839,1,1,8008,4004
2274,1.1925e+08,0,-0.0037715,-0.00041334,7.4073e-05,0.036672,0.099595,-9.7401,0,0,44.839,1,1,8008,4004
2312,1.1925e+08,0,-0.0044516,-0.00059972,-0.0010485,0.040103,0.096437,-9.7387,0,0,44.839,1,1,8008,4004
2315,1.1926e+08,0,-0.0048974,-0.0012194,-0.0030751,0.043206,0.092185,-9.7377,0,0,44.839,1,1,8008,4004
2320,1.1926e+08,0,-0.0046022,-0.0016558,-0.003009,0.045143,0.090277,-9.7383,0,0,44.839,1,1,8008,4004
2323,1.1926e+08,0,-0.0049915,-0.0023333,-0.0016396,0.047917,0.090307,-9.7408,0,0,44.839,1,1,8008,4004
2358,1.1926e+08,0,-0.0054599,-0.0030791,-0.00079052,0.048601,0.091643,-9.7426,0,0,44.839,1,1,8008,4004
2361,1.1927e+08,0,-0.0057752,-0.003595,-0.0013428,0.047664,0.092581,-9.7445,0,0,44.839,1,1,8008,4004
2365,1.1927e+08,0,-0.0059828,-0.002432,-0.0010167,0.044665,0.093723,-9.7463,0,0,44.839,1,1,8008,4004
2368,1.1927e+08,0,-0.0055388,-0.00066775,-0.0015627,0.038492,0.09959,-9.7504,0,0,44.839,1,1,8008,4004
2403,1.1927e+08,0,-0.004124,-0.00083158,-0.0024067,0.034389,0.10524,-9.753,0,0,44.839,1,1,8008,4004
2406,1.1928e+08,0,-0.0020399,-0.0017512,-0.0022405,0.028654,0.1111,-9.758,0,0,44.839,1,1,8008,4004
2409,1.1928e+08,0,-0.0012194,-0.0020913,-0.0014592,0.025088,0.11339,-9.761,0,0,44.839,1,1,8008,4004
2412,1.1928e+08,0,-0.0015597,-0.0032777,-0.0010895,0.020599,0.11726,-9.7615,0,0,44.84,1,1,8008,4004
2447,1.1928e+08,0,-0.0015663,-0.0031802,-0.00054592,0.021517,0.121,-9.757,0,0,44.84,1,1,8008,4004
2450,1.1929e+08,0,0.00026608,-0.0016814,-0.00053433,0.023543,0.12427,-9.7487,0,0,44.84,1,1,8008,4004
2454,1.1929e+08,0,0.00092857,-0.0016096,-0.00075929,0.024262,0.12464,-9.7452,0,0,44.84,1,1,8008,4004
2457,1.1929e+08,0,0.00059058,-0.0015594,-0.00055508,0.024184,0.12306,-9.7431,0,0,44.84,1,1,8008,4004
2492,1.1929e+08,0,-0.00068094,-0.00012781,-0.00019055,0.023045,0.11967,-9.7387,0,0,44.84,1,1,8008,4004
2495,1.193e+08,0,-0.00076014,-0.00028845,-0.0012786,0.022572,0.11957,-9.7384,0,0,44.84,1,1,8008,4004
2498,1.193e+08,0,-0.00013901,-0.00081386,-0.0016715,0.02366,0.12022,-9.7399,0,0,44.84,1,1,8008,4004
2502,1.193e+08,0,0.00087505,-0.0013701,-0.0014496,0.023955,0.11898,-9.7408,0,0,44.84,1,1,8008,4004
2537,1.193e+08,0,0.00048806,-0.00083781,-0.00059184,0.022995,0.11576,-9.7395,0,0,44.84,1,1,8008,4004
2540,1.1931e+08,0,-7.997e-05,0.0001649,2.436e-06,0.02154,0.11226,-9.7358,0,0,44.84,1,1,8008,4004
2544,1.1931e+08,0,0.00085724,-0.00068629,-2.1328e-05,0.020558,0.11207,-9.7339,0,0,44.84,1,1,8008,4004
2547,1.1931e+08,0,0.0026221,-0.0019074,-0.0012991,0.019501,0.11306,-9.7356,0,0,44.84,1,1,8008,4004
2582,1.1931e+08,0,0.0032292,-0.0023379,-0.0016659,0.019602,0.11312,-9.7394,0,0,44.84,1,1,8008,4004
2585,1.1932e+08,0,0.0037226,-0.0024374,-0.0011895,0.022616,0.11204,-9.7448,0,0,44.84,1,1,8008,4004
2589,1.1932e+08,0,0.003654,-0.0017193,-0.00068228,0.026933,0.1109,-9.7476,0,0,44.84,1,1,8008,4004
2592,1.1932e+08,0,0.003763,-0.00081016,-0.0011988,0.033747,0.10828,-9.7535,0,0,44.841,1,1,8008,4004
2627,1.1932e+08,0,0.0034577,-0.00018934,-0.0010422,0.036869,0.10565,-9.7584,0,0,44.841,1,1,8008,4004
2630,1.1933e+08,0,0.0024416,0.00031799,-0.00087981,0.03885,0.10247,-9.7647,0,0,44.841,1,1,8008,4004
2634,1.1933e+08,0,0.0026133,0.0002263,-0.00075133,0.038716,0.10099,-9.7696,0,0,44.841,1,1,8008,4004
2637,1.1933e+08,0,0.0035164,-0.00044902,-0.00034419,0.036937,0.099306,-9.7741,0,0,44.841,1,1,8008,4004
2672,1.1933e+08,0,0.0039864,0.0012373,-0.00036163,0.032396,0.097001,-9.7772,0,0,44.841,1,1,8008,4004
2675,1.1934e+08,0,0.0037285,0.002866,-0.0011139,0.027388,0.096273,-9.7788,0,0,44.841,1,1,8008,4004
2679,1.1934e+08,0,0.0028115,0.0042172,-0.0012893,0.018549,0.096897,-9.7781,0,0,44.841,1,1,8008,4004
2682,1.1934e+08,0,0.0030792,0.0047083,-0.00015539,0.012256,0.098345,-9.7775,0,0,44.841,1,1,8008,4004
2717,1.1934e+08,0,0.0027572,0.0037409,0.00094232,0.0010685,0.10176,-9.776,0,0,44.841,1,1,8008,4004
2720,1.1935e+08,0,0.0024041,0.0033435,0.00076641,-0.0046853,0.10349,-9.7764,0,0,44.841,1,1,8008,4004
2723,1.1935e+08,0,0.0017612,0.0034698,-0.00014903,-0.008686,0.10536,-9.7767,0,0,44.841,1,1,8008,4004
2726,1.1935e+08,0,0.0021473,0.0031671,-0.00079922,-0.008542,0.10658,-9.7763,0,0,44.841,1,1,8008,4004
2764,1.1935e+08,0,0.0033347,0.0026799,-0.00085708,-0.0051665,0.10421,-9.7758,0,0,44.842,1,1,8008,4004
2767,1.1936e+08,0,0.0041398,0.0026557,-0.00057255,-0.0011423,0.10058,-9.7739,0,0,44.842,1,1,8008,4004
2772,1.1936e+08,0,0.0031064,0.0020317,0.00010852,0.0057931,0.093871,-9.7699,0,0,44.842,1,1,8008,4004
2775,1.1936e+08,0,0.0020904,0.001934,0.00028278,0.010782,0.090576,-9.7697,0,0,44.842,1,1,8008,4004
2810,1.1936e+08,0,0.0012098,0.002545,0.00016873,0.01804,0.088622,-9.7727,0,0,44.842,1,1,8008,4004
2813,1.1937e+08,0,0.00092046,0.0030089,-0.00032072,0.024539,0.089046,-9.7723,0,0,44.842,1,1,8008,4004
2816,1.1937e+08,0,0.00089572,0.0029007,0.00027748,0.028252,0.089226,-9.7678,0,0,44.842,1,1,8008,4004
2819,1.1937e+08,0,-0.00031388,0.0019083,0.0013643,0.031145,0.087107,-9.7582,0,0,44.842,1,1,8008,4004
2854,1.1938e+08,0,-0.0022086,0.0012102,0.0014247,0.031718,0.087988,-9.7515,0,0,44.842,1,1,8008,4004
2857,1.1938e+08,0,-0.0025262,0.0008316,0.0016072,0.031953,0.090441,-9.7484,0,0,44.842,1,1,8008,4004
2861,1.1938e+08,0,-0.0017128,0.00067712,0.0019603,0.032652,0.09194,-9.7457,0,0,44.842,1,1,8008,4004
2865,1.1938e+08,0,-0.0018589,-0.0013275,0.00091293,0.031677,0.093369,-9.7414,0,0,44.841,1,1,8008,4004
2900,1.1939e+08,0,-0.0023387,-0.0014621,0.00038824,0.030584,0.094903,-9.7414,0,0,44.841,1,1,8008,4004
2903,1.1939e+08,0,-0.0021839,-0.001538,0.00038448,0.030216,0.099298,-9.7476,0,0,44.841,1,1,8008,4004
2906,1.1939e+08,0,-0.0018102,-0.0022758,0.00025079,0.031374,0.10142,-9.7517,0,0,44.841,1,1,8008,4004
2909,1.1939e+08,0,-0.0018835,-0.0030622,-0.00030422,0.031508,0.10105,-9.7555,0,0,44.841,1,1,8008,4004
2944,1.194e+08,0,-0.0039057,-0.0017129,0.00018316,0.033934,0.095045,-9.7545,0,0,44.841,1,1,8008,4004
2948,1.194e+08,0,-0.004356,-0.0013465,0.0010733,0.037357,0.091918,-9.7521,0,0,44.841,1,1,8008,4004
2952,1.194e+08,0,-0.0046916,-0.00084528,0.0013394,0.039265,0.088408,-9.7504,0,0,44.841,1,1,8008,4004
2955,1.194e+08,0,-0.0045634,-0.00024033,0.0012683,0.03946,0.084758,-9.7496,0,0,44.841,1,1,8008,4004
2990,1.1941e+08,0,-0.0050537,-0.0015108,0.0010569,0.038461,0.082598,-9.749,0,0,44.841,1,1,8008,4004
2995,1.1941e+08,0,-0.0059381,-0.0027033,0.00042892,0.032914,0.080987,-9.7519,0,0,44.841,1,1,8008,4004
2998,1.1941e+08,0,-0.0055341,-0.0019022,1.2281e-05,0.027039,0.083408,-9.7547,0,0,44.841,1,1,8008,4004
3001,1.1942e+08,0,-0.0030526,-0.00051527,-0.0016669,0.020046,0.096333,-9.7488,0,0,44.84,1,1,8008,4004
3036,1.1942e+08,0,-0.005582,-0.00053765,-0.0025814,0.021968,0.10429,-9.7552,0,0,44.84,1,1,8008,4004
3040,1.1943e+08,0,-0.0051699,-0.00032391,-0.0021015,0.021752,0.10613,-9.757,0,0,44.84,1,1,8008,4004
3043,1.1943e+08,0,-0.0043137,-0.00076381,-0.0019149,0.023618,0.10447,-9.7549,0,0,44.84,1,1,8008,4004
3080,1.1943e+08,0,-0.0042604,-0.0022171,-0.0015548,0.025608,0.10307,-9.7539,0,0,44.84,1,1,8008,4004
3083,1.1943e+08,0,-0.0060302,-0.0030242,-0.00092773,0.027107,0.10375,-9.7567,0,0,44.84,1,1,8008,4004
3087,1.1944e+08,0,-0.0067682,-0.002532,-0.00031469,0.028215,0.10622,-9.7586,0,0,44.84,1,1,8008,4004
3090,1.1944e+08,0,-0.004987,-0.0011747,0.00030896,0.030203,0.1106,-9.7564,0,0,44.84,1,1,8008,4004
3125,1.1944e+08,0,-0.0037244,-0.0011521,0.00043468,0.030957,0.11141,-9.7532,0,0,44.839,1,1,8008,4004
3128,1.1944e+08,0,-0.00467,-0.0010745,0.00066272,0.030115,0.11181,-9.7532,0,0,44.839,1,1,8008,4004
3132,1.1945e+08,0,-0.0052184,-0.0010736,0.00026031,0.029253,0.11369,-9.7542,0,0,44.839,1,1,8008,4004
3135,1.1945e+08,0,-0.0039931,-0.00076249,-0.00052776,0.028332,0.11565,-9.7581,0,0,44.839,1,1,8008,4004
3170,1.1945e+08,0,-0.0015186,-0.00041233,-0.00056582,0.029036,0.11628,-9.7605,0,0,44.839,1,1,8008,4004
3173,1.1945e+08,0,-0.00081812,-0.00034956,-0.00027532,0.033058,0.11643,-9.7609,0,0,44.839,1,1,8008,4004
3176,1.1946e+08,0,-0.0015203,0.00020561,-0.00046107,0.034816,0.11653,-9.7625,0,0,44.839,1,1,8008,4004
3182,1.1946e+08,0,-0.0017467,0.00076914,-0.0010158,0.035657,0.11599,-9.7681,0,0,44.839,1,1,8008,4004
3217,1.1946e+08,0,-0.0012611,0.00053985,-0.0013179,0.036902,0.11462,-9.7714,0,0,44.839,1,1,8008,4004
3221,1.1946e+08,0,-0.0015859,-8.1152e-05,-0.0014718,0.037033,0.11368,-9.7745,0,0,44.839,1,1,8008,4004
3225,1.1947e+08,0,-0.0017578,-7.5311e-05,-0.0010577,0.036798,0.11282,-9.7768,0,0,44.839,1,1,8008,4004
3228,1.1947e+08,0,-0.0021516,0.00050278,-0.00043595,0.03566,0.10936,-9.7757,0,0,44.839,1,1,8008,4004
3263,1.1947e+08,0,-0.0023801,0.00073337,-0.0001418,0.033843,0.10622,-9.773,0,0,44.839,1,1,8008,4004
3267,1.1947e+08,0,-0.0011825,0.00078524,0.00052277,0.029737,0.10589,-9.7693,0,0,44.838,1,1,8008,4004
3270,1.1948e+08,0,0.00045471,0.00042546,0.0005682,0.025454,0.10772,-9.7671,0,0,44.838,1,1,8008,4004
3273,1.1948e+08,0,0.00098611,-0.00082297,-0.00053927,0.019349,0.10934,-9.7633,0,0,44.838,1,1,8008,4004
3308,1.1948e+08,0,0.00033897,-0.00067852,-0.0006389,0.017657,0.11078,-9.7604,0,0,44.838,1,1,8008,4004
3311,1.1948e+08,0,-0.00045576,-0.0003429,-0.00051829,0.018859,0.11213,-9.7581,0,0,44.838,1,1,8008,4004
3315,1.1949e+08,0,-0.00011338,-0.00034572,-0.00056285,0.023283,0.11214,-9.7553,0,0,44.838,1,1,8008,4004
3318,1.1949e+08,0,0.00037184,-7.274e-05,-0.00083512,0.027382,0.11193,-9.753,0,0,44.838,1,1,8008,4004
3353,1.1949e+08,0,0.0012262,-4.008e-05,-0.00018354,0.032353,0.11344,-9.7499,0,0,44.838,1,1,8008,4004
3356,1.1949e+08,0,0.0021232,-0.0005685,0.00035949,0.035296,0.11318,-9.7472,0,0,44.838,1,1,8008,4004
3360,1.195e+08,0,0.0034026,-0.00091145,-0.0001819,0.040551,0.11112,-9.7432,0,0,44.838,1,1,8008,4004
3363,1.195e+08,0,0.0037003,-0.0015103,-0.00042531,0.044351,0.10841,-9.7428,0,0,44.838,1,1,8008,4004
3398,1.195e+08,0,0.0020077,-0.0017332,-0.0004604,0.046907,0.10362,-9.7445,0,0,44.838,1,1,8008,4004
3402,1.1951e+08,0,0.00089225,-0.0014346,-0.00026687,0.045756,0.10086,-9.747,0,0,44.838,1,1,8008,4004
3405,1.1951e+08,0,0.00059946,-0.00027864,9.9955e-05,0.042335,0.09802,-9.7489,0,0,44.838,1,1,8008,4004
3408,1.1951e+08,0,0.0008672,-0.00046798,0.00020347,0.04027,0.096031,-9.7497,0,0,44.838,1,1,8008,4004
3443,1.1951e+08,0,0.00066835,-0.0023059,0.0019314,0.038733,0.091742,-9.7524,0,0,44.838,1,1,8008,4004
3446,1.1952e+08,0,0.00083124,-0.0033047,0.0021213,0.036502,0.090544,-9.7556,0,0,44.838,1,1,8008,4004
3449,1.1952e+08,0,0.001867,-0.0036142,0.00136,0.035703,0.092342,-9.7575,0,0,44.838,1,1,8008,4004
3452,1.1952e+08,0,0.0036032,-0.0027701,-0.00089124,0.036512,0.096717,-9.7591,0,0,44.838,1,1,8008,4004
3487,1.1952e+08,0,0.0035578,-0.002273,-0.00071332,0.037205,0.10051,-9.7597,0,0,44.838,1,1,8008,4004
3490,1.1952e+08,0,0.0022117,-0.0020145,-0.00055997,0.03858,0.1069,-9.7629,0,0,44.838,1,1,8008,4004
3494,1.1953e+08,0,0.0013199,-0.0015991,-0.00030563,0.038753,0.11169,-9.7674,0,0,44.838,1,1,8008,4004
3498,1.1953e+08,0,0.0016448,-0.00032264,3.5038e-05,0.036378,0.12122,-9.7741,0,0,44.838,1,1,8008,4004
3533,1.1953e+08,0,0.0024802,-0.00067956,0.00029566,0.034236,0.12557,-9.7782,0,0,44.838,1,1,8008,4004
3537,1.1954e+08,0,0.0023816,-0.00085106,8.0267e-05,0.033654,0.12549,-9.7833,0,0,44.838,1,1,8008,4004
3541,1.1954e+08,0,0.0019738,-0.00092013,-6.8172e-05,0.033468,0.12315,-9.7827,0,0,44.838,1,1,8008,4004
3544,1.1954e+08,0,0.0019733,-0.00097174,0.0008139,0.031587,0.11978,-9.78,0,0,44.838,1,1,8008,4004
3579,1.1954e+08,0,0.0030887,-0.001198,0.0022165,0.028393,0.11506,-9.778,0,0,44.838,1,1,8008,4004
3582,1.1955e+08,0,0.0032265,-0.001384,0.0025378,0.026404,0.11084,-9.7757,0,0,44.838,1,1,8008,4004
3585,1.1955e+08,0,0.0008208,-0.00088711,0.002362,0.023722,0.10175,-9.7676,0,0,44.838,1,1,8008,4004
3588,1.1955e+08,0,-0.00048107,-0.0005174,0.0022211,0.022126,0.096031,-9.7601,0,0,44.838,1,1,8008,4004
3623,1.1955e+08,0,-0.00035657,-0.0017334,0.0017925,0.018937,0.092155,-9.7477,0,0,44.838,1,1,8008,4004
3626,1.1956e+08,0,0.00045122,-0.0022184,0.001911,0.018893,0.09208,-9.7411,0,0,44.838,1,1,8008,4004
3630,1.1956e+08,0,0.00023071,-0.0013583,0.0020281,0.019517,0.091628,-9.7362,0,0,44.838,1,1,8008,4004
3636,1.1956e+08,0,-0.00067078,-0.0009891,0.0017856,0.020305,0.091253,-9.7336,0,0,44.838,1,1,8008,4004
3671,1.1956e+08,0,-0.00089959,-0.00013048,0.0013468,0.022507,0.092065,-9.7341,0,0,44.838,1,1,8008,4004
3675,1.1957e+08,0,-0.0012359,0.0003536,0.00038382,0.024669,0.092977,-9.7388,0,0,44.838,1,1,8008,4004
3678,1.1957e+08,0,-0.0014094,2.9824e-05,-4.9586e-05,0.02753,0.09264,-9.7461,0,0,44.838,1,1,8008,4004
3681,1.1957e+08,0,-0.00029443,-0.00050703,0.00044236,0.031024,0.089233,-9.7525,0,0,44.838,1,1,8008,4004
3716,1.1957e+08,0,2.9191e-05,-0.00016266,2.4555e-05,0.033042,0.08789,-9.7561,0,0,44.838,1,1,8008,4004
3719,1.1958e+08,0,-0.00092394,-0.00072654,-0.0016735,0.033548,0.088296,-9.7609,0,0,44.838,1,1,8008,4004
3723,1.1958e+08,0,-0.0014347,-0.0014495,-0.0016989,0.033233,0.088192,-9.7642,0,0,44.838,1,1,8008,4004
3726,1.1958e+08,0,-0.0014862,-0.0021388,-0.0016025,0.032634,0.086682,-9.7663,0,0,44.838,1,1,8008,4004
3761,1.1958e+08,0,-0.001541,-0.0024428,-0.0014373,0.030174,0.085257,-9.7649,0,0,44.838,1,1,8008,4004
3764,1.1959e+08,0,-0.00084979,-0.0018085,6.0183e-05,0.023502,0.084418,-9.7636,0,0,44.838,1,1,8008,4004
3769,1.1959e+08,0,-0.000316,-0.0011075,0.00033506,0.015011,0.084597,-9.7637,0,0,44.838,1,1,8008,4004
3772,1.1959e+08,0,-0.0013646,-0.00055405,-0.00038348,0.010715,0.084191,-9.7642,0,0,44.838,1,1,8008,4004
3807,1.1959e+08,0,-0.0030113,-0.00025929,-0.00074564,0.0078716,0.085092,-9.7645,0,0,44.838,1,1,8008,4004
3810,1.196e+08,0,-0.0030876,0.00030591,-0.00068507,0.005811,0.090388,-9.7642,0,0,44.838,1,1,8008,4004
3813,1.196e+08,0,-0.0022731,0.0011487,-1.809e-05,0.0055881,0.093823,-9.7645,0,0,44.838,1,1,8008,4004
3816,1.196e+08,0,-0.00088654,0.0016607,-0.00039672,0.0082599,0.094287,-9.7644,0,0,44.838,1,1,8008,4004
3851,1.196e+08,0,-0.00024026,0.00078848,0.00036644,0.012043,0.093853,-9.7667,0,0,44.838,1,1,8008,4004
3854,1.1961e+08,0,-0.00044088,0.00057694,0.00057863,0.014684,0.093844,-9.7688,0,0,44.838,1,1,8008,4004
3858,1.1961e+08,0,-0.0011545,0.00034339,-0.00055313,0.017995,0.092847,-9.769,0,0,44.838,1,1,8008,4004
3861,1.1961e+08,0,-0.0010704,-0.00045561,-0.00087449,0.017586,0.091193,-9.7672,0,0,44.838,1,1,8008,4004
3866,1.1961e+08,0,-0.0012485,-0.00061487,-0.0013448,0.015679,0.091266,-9.7627,0,0,44.838,1,1,8008,4004
3901,1.1962e+08,0,-0.0024574,0.00016292,-0.003419,0.016217,0.092013,-9.756,0,0,44.838,1,1,8008,4004
3904,1.1962e+08,0,-0.0023093,0.00021526,-0.003285,0.015256,0.092862,-9.7538,0,0,44.838,1,1,8008,4004
3907,1.1963e+08,0,5.8051e-05,-0.0011408,-0.0014897,0.014078,0.096631,-9.7613,0,0,44.838,1,1,8008,4004
3943,1.1963e+08,0,0.00061672,-0.0020172,-0.002168,0.017111,0.096959,-9.7633,0,0,44.838,1,1,8008,4004
3948,1.1963e+08,0,-9.8085e-05,-0.001754,-0.0016965,0.02081,0.09964,-9.7654,0,0,44.838,1,1,8008,4004
3951,1.1964e+08,0,-0.00019438,-0.0015265,-0.0012603,0.023295,0.10293,-9.7667,0,0,44.838,1,1,8008,4004
3954,1.1964e+08,0,0.00063784,-0.0017085,-0.0012434,0.028408,0.10867,-9.765,0,0,44.838,1,1,8008,4004
3990,1.1964e+08,0,0.0011486,-0.0026058,-0.0017689,0.03208,0.11233,-9.7627,0,0,44.838,1,1,8008,4004
3994,1.1964e+08,0,0.00010131,-0.0033529,-0.0026706,0.037866,0.11702,-9.762,0,0,44.838,1,1,8008,4004
3997,1.1965e+08,0,-0.00035202,-0.0032136,-0.0024,0.037681,0.11843,-9.763,0,0,44.838,1,1,8008,4004
4000,1.1965e+08,0,5.9409e-05,-0.0019582,-0.0013679,0.034613,0.12325,-9.7671,0,0,44.838,1,1,8008,4004
4036,1.1965e+08,0,0.0012795,-0.00050141,-0.00087095,0.030249,0.12761,-9.768,0,0,44.838,1,1,8008,4004
4039,1.1965e+08,0,0.0016264,-0.00077825,-0.00072218,0.027361,0.128,-9.7665,0,0,44.838,1,1,8008,4004
4042,1.1966e+08,0,0.0015895,-0.0011586,-0.00015084,0.023927,0.12479,-9.7642,0,0,44.838,1,1,8008,4004
4045,1.1966e+08,0,0.00098303,-0.00095663,0.00034551,0.020801,0.12145,-9.7612,0,0,44.838,1,1,8008,4004
4080,1.1966e+08,0,0.0014244,-0.00021182,-3.4804e-06,0.013059,0.11477,-9.7555,0,0,44.838,1,1,8008,4004
4088,1.1966e+08,0,0.0022147,-0.0003092,3.1281e-06,0.010668,0.11151,-9.7533,0,0,44.838,1,1,8008,4004
4091,1.1967e+08,0,0.0027001,-0.00095823,8.4922e-05,0.010693,0.10606,-9.7541,0,0,44.838,1,1,8008,4004
4095,1.1967e+08,0,0.0018831,-0.00047411,-0.00042497,0.013626,0.10016,-9.7622,0,0,44.838,1,1,8008,4004
4130,1.1967e+08,0,0.002085,0.00031259,-0.00013347,0.016752,0.099141,-9.7721,0,0,44.838,1,1,8008,4004
4133,1.1968e+08,0,0.0029519,0.00042776,-0.00030409,0.01755,0.099863,-9.7747,0,0,44.838,1,1,8008,4004
4136,1.1968e+08,0,0.0034029,8.7904e-05,-0.0001573,0.018069,0.1009,-9.7761,0,0,44.838,1,1,8008,4004
4139,1.1968e+08,0,0.0015603,-0.00024809,-0.00028925,0.018089,0.10332,-9.7792,0,0,44.838,1,1,8008,4004
4174,1.1968e+08,0,0.0012005,-0.00017064,-0.00061056,0.018313,0.10456,-9.7808,0,0,44.838,1,1,8008,4004
4177,1.1968e+08,0,0.0032571,-0.00033527,-0.0010642,0.020075,0.10486,-9.7808,0,0,44.838,1,1,8008,4004
4180,1.1969e+08,0,0.0042006,-7.1054e-05,-0.00075156,0.021764,0.10452,-9.7806,0,0,44.838,1,1,8008,4004
4184,1.1969e+08,0,0.0045454,0.00072009,-7.6896e-05,0.02342,0.10448,-9.7797,0,0,44.838,1,1,8008,4004
4219,1.1969e+08,0,0.0030273,0.00059433,-3.7898e-05,0.025331,0.10445,-9.7794,0,0,44.838,1,1,8008,4004
4222,1.1969e+08,0,0.0024244,0.00033146,0.00016682,0.026456,0.10456,-9.7771,0,0,44.838,1,1,8008,4004
4225,1.197e+08,0,0.0021341,0.0012855,0.00023946,0.026842,0.10404,-9.7694,0,0,44.838,1,1,8008,4004
4228,1.197e+08,0,0.0014523,0.0018862,0.00036215,0.027805,0.10299,-9.7624,0,0,44.838,1,1,8008,4004
4263,1.197e+08,0,0.00044601,0.0024699,-2.005e-05,0.031815,0.1024,-9.7528,0,0,44.838,1,1,8008,4004
4267,1.1971e+08,0,0.00029938,0.0030636,-0.00044002,0.033844,0.10288,-9.7484,0,0,44.837,1,1,8008,4004
4270,1.1971e+08,0,0.0013196,0.0028799,-3.266e-05,0.034093,0.10306,-9.7482,0,0,44.837,1,1,8008,4004
4273,1.1971e+08,0,0.0022089,0.0026049,-2.0465e-05,0.03329,0.10147,-9.7494,0,0,44.837,1,1,8008,4004
4308,1.1971e+08,0,0.001763,0.0020313,0.00028066,0.032308,0.097428,-9.7504,0,0,44.837,1,1,8008,4004
4312,1.1971e+08,0,0.00084838,0.00045529,0.00069238,0.032432,0.09504,-9.751,0,0,44.837,1,1,8008,4004
4315,1.1972e+08,0,-0.00011041,-0.0007613,0.00090396,0.032953,0.093396,-9.7549,0,0,44.837,1,1,8008,4004
4318,1.1972e+08,0,0.00046717,-0.0015319,0.0004262,0.033449,0.093542,-9.759,0,0,44.837,1,1,8008,4004
4353,1.1972e+08,0,0.00027242,-0.0028038,0.00038171,0.035414,0.0911,-9.7661,0,0,44.837,1,1,8008,4004
4356,1.1973e+08,0,-0.00059756,-0.002841,0.00033817,0.037737,0.088993,-9.7701,0,0,44.836,1,1,8008,4004
4359,1.1973e+08,0,-0.0002969,-0.0019876,0.00030653,0.040484,0.087327,-9.7777,0,0,44.836,1,1,8008,4004
4362,1.1973e+08,0,0.0003358,-0.0014541,0.00070136,0.040599,0.086259,-9.7827,0,0,44.836,1,1,8008,4004
4397,1.1973e+08,0,1.9291e-06,-0.001099,0.0013199,0.040378,0.084674,-9.7861,0,0,44.836,1,1,8008,4004
4401,1.1974e+08,0,-0.0014646,-0.0017663,0.0010632,0.041288,0.084543,-9.7842,0,0,44.836,1,1,8008,4004
4404,1.1974e+08,0,-0.0033364,-0.0024966,-7.5525e-06,0.040954,0.086647,-9.7761,0,0,44.836,1,1,8008,4004
4407,1.1974e+08,0,-0.0037622,-0.0022189,-0.00034268,0.039864,0.08824,-9.7722,0,0,44.836,1,1,8008,4004
4442,1.1974e+08,0,-0.0046885,-0.0023394,-0.0011128,0.03715,0.089301,-9.7679,0,0,44.836,1,1,8008,4004
4446,1.1975e+08,0,-0.005108,-0.0026994,-0.0013058,0.035993,0.089532,-9.764,0,0,44.836,1,1,8008,4004
4449,1.1975e+08,0,-0.0043771,-0.0023646,-0.0011618,0.034845,0.088272,-9.7571,0,0,44.836,1,1,8008,4004
4452,1.1975e+08,0,-0.0040524,-0.0018441,-0.0013529,0.033745,0.087188,-9.7546,0,0,44.836,1,1,8008,4004
4487,1.1975e+08,0,-0.0029591,-0.0015802,-0.0015073,0.032258,0.085846,-9.7534,0,0,44.836,1,1,8008,4004
4491,1.1976e+08,0,-0.0030679,-0.0015483,-0.00061756,0.031839,0.083868,-9.7499,0,0,44.836,1,1,8008,4004
4494,1.1976e+08,0,-0.0041225,-0.001789,3.3099e-05,0.032662,0.082404,-9.7462,0,0,44.836,1,1,8008,4004
4497,1.1976e+08,0,-0.0046106,-0.0025744,0.00024667,0.033216,0.081383,-9.7425,0,0,44.836,1,1,8008,4004
4532,1.1976e+08,0,-0.005295,-0.0027738,0.00020595,0.032017,0.082559,-9.7433,0,0,44.836,1,1,8008,4004
4538,1.1977e+08,0,-0.0045167,-0.0019512,-0.0005611,0.031359,0.086337,-9.7467,0,0,44.836,1,1,8008,4004
4541,1.1977e+08,0,-0.0033153,-0.001039,-0.0015317,0.032605,0.089151,-9.7481,0,0,44.836,1,1,8008,4004
4545,1.1977e+08,0,-0.003236,-0.0016401,-0.0018891,0.035344,0.095315,-9.7494,0,0,44.836,1,1,8008,4004
4580,1.1977e+08,0,-0.0033307,-0.0018557,-0.0011431,0.037811,0.099498,-9.751,0,0,44.836,1,1,8008,4004
4584,1.1978e+08,0,-0.0038393,-0.0018724,-0.00043148,0.040435,0.10196,-9.7519,0,0,44.836,1,1,8008,4004
4587,1.1978e+08,0,-0.0044491,-0.0010835,-0.0014417,0.042442,0.10239,-9.751,0,0,44.836,1,1,8008,4004
4590,1.1978e+08,0,-0.0024388,0.00067472,-0.0019458,0.042899,0.10008,-9.748,0,0,44.836,1,1,8008,4004
4625,1.1978e+08,0,-0.0019197,0.0010778,-0.0018815,0.040378,0.10071,-9.7481,0,0,44.836,1,1,8008,4004
4628,1.1979e+08,0,-0.0028888,0.00068407,-0.0024036,0.037925,0.10196,-9.7518,0,0,44.836,1,1,8008,4004
4631,1.1979e+08,0,-0.0041048,0.00073719,-0.0031547,0.033338,0.10286,-9.7601,0,0,44.836,1,1,8008,4004
4634,1.1979e+08,0,-0.0036259,0.0008176,-0.0028519,0.031695,0.10397,-9.7638,0,0,44.836,1,1,8008,4004
4669,1.1979e+08,0,-0.0018712,0.00087388,-0.001271,0.03068,0.10529,-9.766,0,0,44.836,1,1,8008,4004
4673,1.198e+08,0,-0.00091276,0.00075966,-0.00051769,0.029181,0.10478,-9.7674,0,0,44.836,1,1,8008,4004
4676,1.198e+08,0,0.000287,0.0012357,-0.00046596,0.027354,0.10499,-9.7671,0,0,44.836,1,1,8008,4004
4679,1.198e+08,0,0.0011259,0.002445,-0.0005262,0.026843,0.10524,-9.7648,0,0,44.836,1,1,8008,4004
4714,1.198e+08,0,0.0024742,0.0015801,-0.0010767,0.02691,0.10238,-9.7642,0,0,44.836,1,1,8008,4004
4718,1.1981e+08,0,0.0027971,0.00088348,-0.00092065,0.028435,0.1003,-9.7633,0,0,44.836,1,1,8008,4004
4721,1.1981e+08,0,0.0015753,0.0006555,-0.00024788,0.032219,0.1007,-9.7579,0,0,44.836,1,1,8008,4004
4725,1.1981e+08,0,0.0011385,0.00043388,0.00015935,0.035119,0.10133,-9.756,0,0,44.836,1,1,8008,4004
4760,1.1981e+08,0,0.0006661,0.00064077,0.00032736,0.036314,0.10037,-9.7548,0,0,44.836,1,1,8008,4004
4763,1.1982e+08,0,0.00074096,0.0003538,0.00056045,0.03507,0.098286,-9.7548,0,0,44.836,1,1,8008,4004
4768,1.1982e+08,0,0.00025705,0.0006594,-0.00026269,0.034026,0.096162,-9.7564,0,0,44.836,1,1,8008,4004
4771,1.1982e+08,0,-0.00020495,1.3925e-05,-0.00064962,0.033935,0.095328,-9.7624,0,0,44.836,1,1,8008,4004
4806,1.1982e+08,0,0.0011164,-0.00073724,-0.00010456,0.031279,0.09785,-9.7693,0,0,44.836,1,1,8008,4004
4810,1.1983e+08,0,0.00086928,-0.00039037,0.00084056,0.026473,0.10963,-9.7707,0,0,44.836,1,1,8008,4004
4845,1.1984e+08,0,0.0024042,-0.0010931,0.00027153,0.024342,0.11148,-9.7717,0,0,44.836,1,1,8008,4004
4849,1.1984e+08,0,0.00321,-0.0018984,-0.00015188,0.021987,0.11123,-9.7729,0,0,44.836,1,1,8008,4004
4852,1.1984e+08,0,0.0033856,-0.0019178,-0.00094886,0.019805,0.10897,-9.7727,0,0,44.836,1,1,8008,4004
4855,1.1984e+08,0,0.0028933,-0.0012293,-0.0013045,0.019949,0.10776,-9.7724,0,0,44.836,1,1,8008,4004
4890,1.1985e+08,0,0.0023777,-0.0013149,-0.000946,0.021078,0.10493,-9.7715,0,0,44.836,1,1,8008,4004
4894,1.1985e+08,0,0.0021942,-0.0014807,-0.00077852,0.021268,0.10237,-9.7707,0,0,44.836,1,1,8008,4004
4897,1.1985e+08,0,0.0021571,-0.001994,-0.0011754,0.019602,0.098126,-9.772,0,0,44.836,1,1,8008,4004
4900,1.1985e+08,0,0.001781,-0.0020972,-0.00089225,0.018775,0.094518,-9.7731,0,0,44.836,1,1,8008,4004
4935,1.1986e+08,0,0.0014808,-0.0016412,-0.00033133,0.018415,0.091395,-9.7711,0,0,44.836,1,1,8008,4004
4940,1.1986e+08,0,0.0024229,-0.0010317,-0.00031665,0.019283,0.089817,-9.7688,0,0,44.836,1,1,8008,4004
4943,1.1986e+08,0,0.0035382,-0.0010929,0.00043565,0.022257,0.085295,-9.7622,0,0,44.836,1,1,8008,4004
4946,1.1986e+08,0,0.0034777,-0.0013538,0.00032094,0.024116,0.084237,-9.7572,0,0,44.836,1,1,8008,4004
4981,1.1987e+08,0,0.0032279,-0.0011861,5.7197e-05,0.028602,0.085782,-9.7509,0,0,44.836,1,1,8008,4004
4987,1.1987e+08,0,0.0031358,-0.00082533,0.00067357,0.03205,0.088049,-9.7461,0,0,44.836,1,1,8008,4004
4990,1.1987e+08,0,0.0034854,-0.0004895,0.0010276,0.033887,0.090258,-9.7428,0,0,44.836,1,1,8008,4004
4994,1.1988e+08,0,0.0036687,-0.00081737,0.0026041,0.035518,0.094154,-9.7371,0,0,44.836,1,1,8008,4004
5029,1.1988e+08,0,0.0015004,-0.0010345,0.0029533,0.034631,0.097358,-9.7363,0,0,44.836,1,1,8008,4004
5033,1.1988e+08,0,-6.249e-05,-0.0012832,0.0026398,0.031955,0.10114,-9.7401,0,0,44.836,1,1,8008,4004
5036,1.1988e+08,0,-0.00057688,-0.0010726,0.0018234,0.030238,0.1041,-9.7447,0,0,44.836,1,1,8008,4004
5039,1.1989e+08,0,0.00017131,-0.0018952,0.0003929,0.029874,0.10732,-9.7486,0,0,44.836,1,1,8008,4004
5074,1.1989e+08,0,0.0010689,-0.0029029,-0.0012115,0.030566,0.11004,-9.7521,0,0,44.836,1,1,8008,4004
5077,1.1989e+08,0,0.00069609,-0.0019177,-0.00085889,0.030192,0.1124,-9.753,0,0,44.836,1,1,8008,4004
5080,1.1989e+08,0,0.0011957,-0.0010002,0.00017402,0.029487,0.11331,-9.753,0,0,44.836,1,1,8008,4004
5083,1.199e+08,0,0.0017525,0.00049172,0.00081589,0.030041,0.11393,-9.7502,0,0,44.836,1,1,8008,4004
5118,1.199e+08,0,0.0019028,0.0017115,0.00078412,0.030776,0.11194,-9.7482,0,0,44.836,1,1,8008,4004
5122,1.199e+08,0,0.0011191,0.0017254,0.00069617,0.031256,0.10797,-9.7471,0,0,44.836,1,1,8008,4004
5125,1.199e+08,0,-6.5148e-05,0.00080792,0.001136,0.030171,0.10375,-9.7475,0,0,44.836,1,1,8008,4004
5129,1.1991e+08,0,0.00024364,0.0011404,0.0011539,0.028189,0.10297,-9.7478,0,0,44.836,1,1,8008,4004
5164,1.1991e+08,0,0.0014804,0.0013649,0.0012111,0.026214,0.10128,-9.7492,0,0,44.836,1,1,8008,4004
5167,1.1991e+08,0,-0.00011068,0.0020935,0.0012566,0.023661,0.09885,-9.7524,0,0,44.836,1,1,8008,4004
5170,1.1991e+08,0,-0.0021333,0.0027066,0.00087941,0.021059,0.098274,-9.7565,0,0,44.836,1,1,8008,4004
5173,1.1992e+08,0,-0.0023345,0.0013378,-9.4528e-05,0.020891,0.09989,-9.7641,0,0,44.836,1,1,8008,4004
5208,1.1992e+08,0,-0.00024031,-0.0016218,-0.00066544,0.025323,0.099602,-9.773,0,0,44.836,1,1,8008,4004
5212,1.1992e+08,0,0.00028781,-0.0024438,0.00010503,0.028469,0.098894,-9.7778,0,0,44.836,1,1,8008,4004
5215,1.1992e+08,0,0.00012521,-0.0018663,0.001197,0.02979,0.099849,-9.7804,0,0,44.836,1,1,8008,4004
5218,1.1993e+08,0,-0.00019938,0.0015115,0.0018647,0.029298,0.10511,-9.7816,0,0,44.836,1,1,8008,4004
5255,1.1993e+08,0,-0.0002807,0.0035571,0.0014751,0.029921,0.10922,-9.7815,0,0,44.836,1,1,8008,4004
5259,1.1993e+08,0,-0.0010014,0.0035376,0.00058537,0.030609,0.11358,-9.7817,0,0,44.836,1,1,8008,4004
5262,1.1993e+08,0,-0.0010823,0.0022692,-0.00041251,0.030031,0.1134,-9.7831,0,0,44.836,1,1,8008,4004
5265,1.1994e+08,0,-0.0018611,0.00061976,-0.0011818,0.030024,0.11066,-9.7846,0,0,44.836,1,1,8008,4004
5300,1.1994e+08,0,-0.00086754,-0.00026766,-0.00023878,0.033465,0.10754,-9.7824,0,0,44.836,1,1,8008,4004
5303,1.1994e+08,0,0.00034045,-0.00034326,0.00036577,0.036819,0.1062,-9.7807,0,0,44.836,1,1,8008,4004
5306,1.1995e+08,0,0.00059137,0.00077363,0.0010544,0.042043,0.10321,-9.7772,0,0,44.836,1,1,8008,4004
5309,1.1995e+08,0,-0.00049985,0.0014092,0.0010165,0.043641,0.099138,-9.7748,0,0,44.836,1,1,8008,4004
5344,1.1995e+08,0,-0.0018719,0.0013135,-1.7515e-05,0.043212,0.094044,-9.7734,0,0,44.836,1,1,8008,4004
5348,1.1995e+08,0,-0.0013343,0.00073981,-0.00031774,0.044022,0.09186,-9.773,0,0,44.836,1,1,8008,4004
5351,1.1995e+08,0,-0.00011099,-0.0016038,-0.00089483,0.048913,0.089188,-9.7713,0,0,44.836,1,1,8008,4004
5354,1.1996e+08,0,-3.5367e-05,-0.00303,-0.0011867,0.052565,0.088293,-9.7697,0,0,44.836,1,1,8008,4004
5389,1.1996e+08,0,-0.0020757,-0.0025653,-0.00038431,0.053418,0.090718,-9.7623,0,0,44.836,1,1,8008,4004
5392,1.1996e+08,0,-0.002029,-0.0015946,-0.00033179,0.051658,0.094741,-9.7581,0,0,44.836,1,1,8008,4004
5395,1.1997e+08,0,-0.0010086,-0.0012898,-0.0012555,0.050602,0.10055,-9.7531,0,0,44.836,1,1,8008,4004
5398,1.1997e+08,0,-0.0017925,-0.0019644,-0.0018497,0.050055,0.10349,-9.7502,0,0,44.836,1,1,8008,4004
5433,1.1997e+08,0,-0.0032711,-0.0024005,-0.0019979,0.046888,0.1112,-9.7482,0,0,44.836,1,1,8008,4004
5440,1.1997e+08,0,-0.0033123,-0.0021141,-0.00076147,0.044659,0.11795,-9.7468,0,0,44.836,1,1,8008,4004
5443,1.1998e+08,0,-0.001116,-0.001825,0.0013431,0.042885,0.12481,-9.7418,0,0,44.835,1,1,8008,4004
5447,1.1998e+08,0,0.00042377,-0.0019035,0.0019947,0.041111,0.12562,-9.7362,0,0,44.835,1,1,8008,4004
5482,1.1998e+08,0,0.00052506,-0.0013541,0.0013408,0.036493,0.12318,-9.7296,0,0,44.835,1,1,8008,4004
5485,1.1998e+08,0,-0.00094769,-0.00034642,-8.614e-05,0.03259,0.12134,-9.7277,0,0,44.835,1,1,8008,4004
5490,1.1999e+08,0,-0.0024053,0.0005812,-0.0019347,0.028839,0.11979,-9.7312,0,0,44.835,1,1,8008,4004
5493,1.1999e+08,0,-0.0016703,0.00047688,-0.0030081,0.030166,0.11856,-9.7356,0,0,44.835,1,1,8008,4004
5528,1.1999e+08,0,-0.0014469,-0.00072258,-0.0026142,0.033675,0.11367,-9.741,0,0,44.835,1,1,8008,4004
5532,1.1999e+08,0,-0.0018067,-0.0013758,-0.0015001,0.034112,0.11034,-9.7437,0,0,44.835,1,1,8008,4004
5535,1.2e+08,0,-0.0021608,-0.0015173,0.00020945,0.034545,0.10839,-9.7457,0,0,44.835,1,1,8008,4004
5538,1.2e+08,0,-0.0015027,-0.0011526,0.0025407,0.037945,0.10566,-9.7478,0,0,44.834,1,1,8008,4004
5573,1.2e+08,0,0.0013449,-0.0012372,0.0030111,0.04036,0.10332,-9.7518,0,0,44.834,1,1,8008,4004
5577,1.2e+08,0,0.0034378,-0.0011331,0.002018,0.039842,0.10356,-9.7583,0,0,44.834,1,1,8008,4004
5582,1.2001e+08,0,0.0036896,-0.0011486,0.0010199,0.037793,0.10386,-9.7638,0,0,44.834,1,1,8008,4004
5585,1.2001e+08,0,0.0036173,-0.0020656,-0.00078002,0.034689,0.10372,-9.7725,0,0,44.834,1,1,8008,4004
5620,1.2002e+08,0,0.0024782,-0.0013276,0.0034175,0.033439,0.1046,-9.7765,0,0,44.833,1,1,8008,4004
5623,1.2002e+08,0,0.0021149,-0.0008617,0.0036832,0.035149,0.10196,-9.7771,0,0,44.833,1,1,8008,4004
5658,1.2002e+08,0,0.002183,-0.00079977,0.0024803,0.036767,0.10036,-9.7776,0,0,44.833,1,1,8008,4004
5661,1.2003e+08,0,0.0023984,-0.0014321,0.00091093,0.037446,0.098753,-9.7804,0,0,44.833,1,1,8008,4004
5664,1.2003e+08,0,0.0027247,-0.0022819,-1.584e-05,0.038113,0.095732,-9.7861,0,0,44.832,1,1,8008,4004
5668,1.2003e+08,0,0.0019112,-0.0016728,-0.00042447,0.038023,0.093432,-9.7881,0,0,44.832,1,1,8008,4004
5703,1.2003e+08,0,0.0010183,0.00011323,-0.00032605,0.037072,0.09348,-9.7863,0,0,44.832,1,1,8008,4004
5706,1.2004e+08,0,0.0013516,0.00080277,0.00072739,0.035775,0.096626,-9.7847,0,0,44.832,1,1,8008,4004
5709,1.2004e+08,0,0.0028804,0.0005407,0.002448,0.032108,0.10112,-9.7839,0,0,44.832,1,1,8008,4004
5713,1.2004e+08,0,0.0029945,0.00073275,0.0029349,0.029128,0.10285,-9.7845,0,0,44.832,1,1,8008,4004
5748,1.2004e+08,0,0.0020882,0.0015043,0.0025732,0.024942,0.10508,-9.7864,0,0,44.832,1,1,8008,4004
5751,1.2005e+08,0,0.0021652,0.00099443,0.0022764,0.023185,0.10677,-9.7888,0,0,44.831,1,1,8008,4004
5754,1.2005e+08,0,0.0037991,0.00067427,0.0025135,0.020072,0.10504,-9.7929,0,0,44.831,1,1,8008,4004
5757,1.2005e+08,0,0.004374,0.00040807,0.0027126,0.017901,0.09983,-9.7945,0,0,44.831,1,1,8008,4004
5792,1.2005e+08,0,0.0034635,-9.6549e-05,0.0024892,0.01698,0.090045,-9.7922,0,0,44.831,1,1,8008,4004
5795,1.2006e+08,0,0.0024203,-0.00052101,0.0021693,0.017705,0.084962,-9.7874,0,0,44.831,1,1,8008,4004
5798,1.2006e+08,0,0.00080538,-0.00060746,0.0029923,0.020154,0.079092,-9.778,0,0,44.831,1,1,8008,4004
5802,1.2006e+08,0,-0.00017164,-0.00046051,0.002707,0.024417,0.075358,-9.7718,0,0,44.83,1,1,8008,4004
5837,1.2006e+08,0,-0.0016102,-0.0016819,0.0015175,0.034076,0.071339,-9.7664,0,0,44.83,1,1,8008,4004
5840,1.2007e+08,0,-0.0035755,-0.0022339,-0.00018347,0.041622,0.070548,-9.7648,0,0,44.83,1,1,8008,4004
5843,1.2007e+08,0,-0.004197,-0.0024142,-0.00069762,0.043497,0.073716,-9.7632,0,0,44.83,1,1,8008,4004
5846,1.2007e+08,0,-0.0034363,-0.0019815,-0.00043337,0.044844,0.082545,-9.7602,0,0,44.83,1,1,8008,4004
5881,1.2007e+08,0,-0.0017364,-0.0021355,0.00035425,0.04525,0.090651,-9.7538,0,0,44.829,1,1,8008,4004
5887,1.2008e+08,0,-0.0018156,-0.0023573,0.00037544,0.042738,0.095423,-9.7494,0,0,44.829,1,1,8008,4004
5890,1.2008e+08,0,-0.0024324,-0.0025846,0.0011547,0.036414,0.10397,-9.7445,0,0,44.829,1,1,8008,4004
5894,1.2008e+08,0,-0.0020226,-0.0023931,0.00079274,0.032102,0.11007,-9.7412,0,0,44.829,1,1,8008,4004
5929,1.2008e+08,0,-0.0014149,-0.0020693,-0.00016793,0.029172,0.11554,-9.7353,0,0,44.828,1,1,8008,4004
5933,1.2009e+08,0,-0.002881,-0.0019734,-0.00060178,0.02644,0.11332,-9.7317,0,0,44.828,1,1,8008,4004
5936,1.2009e+08,0,-0.0033474,-0.0016429,-7.3281e-05,0.024093,0.11003,-9.7329,0,0,44.828,1,1,8008,4004
5940,1.2009e+08,0,-0.0033619,-0.00085196,0.00064979,0.022225,0.10469,-9.7389,0,0,44.828,1,1,8008,4004
5975,1.201e+08,0,-0.0024312,-0.0013547,0.00026659,0.02296,0.10024,-9.7469,0,0,44.827,1,1,8008,4004
5978,1.201e+08,0,-0.0022065,-0.0015859,0.00026386,0.024035,0.098147,-9.7537,0,0,44.827,1,1,8008,4004
5981,1.201e+08,0,-0.0035762,-0.0023393,0.0010537,0.024714,0.094236,-9.7642,0,0,44.827,1,1,8008,4004
5984,1.201e+08,0,-0.0040089,-0.002197,0.00094736,0.024059,0.091646,-9.7723,0,0,44.826,1,1,8008,4004
6019,1.2011e+08,0,-0.0050186,-0.00065213,3.1836e-05,0.022804,0.088809,-9.7814,0,0,44.826,1,1,8008,4004
6022,1.2011e+08,0,-0.0061434,-0.00073402,-0.0001238,0.023287,0.088603,-9.7835,0,0,44.826,1,1,8008,4004
6025,1.2011e+08,0,-0.0064211,-0.0012435,8.9926e-05,0.022142,0.090653,-9.7826,0,0,44.825,1,1,8008,4004
6029,1.2011e+08,0,-0.0053416,-0.0012766,0.00038825,0.018999,0.092435,-9.78,0,0,44.825,1,1,8008,4004
6064,1.2011e+08,0,-0.0040527,-0.0018273,1.2205e-07,0.011128,0.095587,-9.7739,0,0,44.824,1,1,8008,4004
6067,1.2012e+08,0,-0.0029115,-0.0023598,-0.00099282,0.0061234,0.097591,-9.7712,0,0,44.824,1,1,8008,4004
6070,1.2012e+08,0,-0.00138,-0.0020168,-0.0021122,0.0040447,0.10272,-9.7692,0,0,44.824,1,1,8008,4004
6073,1.2012e+08,0,-0.0011111,-0.001027,-0.0021961,0.0055791,0.10673,-9.7718,0,0,44.824,1,1,8008,4004
6108,1.2012e+08,0,-0.00036863,0.00098034,-0.0022606,0.0085926,0.1099,-9.7813,0,0,44.823,1,1,8008,4004
6111,1.2013e+08,0,0.00012977,0.001398,-0.0020817,0.013591,0.1106,-9.7882,0,0,44.823,1,1,8008,4004
6114,1.2013e+08,0,0.00019981,0.00031092,-0.0017876,0.023628,0.11006,-9.7957,0,0,44.823,1,1,8008,4004
6118,1.2013e+08,0,-0.00051462,0.0004622,-0.0021662,0.028242,0.10823,-9.7973,0,0,44.823,1,1,8008,4004
6153,1.2014e+08,0,-0.0022937,0.0013121,-0.0023454,0.032968,0.10243,-9.7931,0,0,44.822,1,1,8008,4004
6156,1.2014e+08,0,-0.0030335,0.0014239,-0.0015822,0.034751,0.099897,-9.7879,0,0,44.822,1,1,8008,4004
6159,1.2014e+08,0,-0.0010968,0.0010747,-0.0017661,0.038027,0.097073,-9.78,0,0,44.822,1,1,8008,4004
6162,1.2014e+08,0,0.0013974,0.00049842,-0.002227,0.038665,0.096536,-9.7773,0,0,44.822,1,1,8008,4004
6197,1.2015e+08,0,0.0020851,0.0013403,-0.0019618,0.036417,0.098799,-9.7774,0,0,44.822,1,1,8008,4004
6200,1.2015e+08,0,0.0014694,0.0016657,-0.00093942,0.033078,0.10348,-9.7773,0,0,44.821,1,1,8008,4004
6203,1.2015e+08,0,0.0015518,0.0015224,-0.00099387,0.031239,0.10724,-9.7776,0,0,44.821,1,1,8008,4004
6207,1.2015e+08,0,0.0017658,0.0010752,-0.001766,0.029451,0.10928,-9.7769,0,0,44.821,1,1,8008,4004
6242,1.2016e+08,0,0.0022664,0.00044334,-0.0033661,0.025964,0.10427,-9.7714,0,0,44.821,1,1,8008,4004
6246,1.2016e+08,0,0.0012605,0.0010704,-0.0032716,0.027955,0.10134,-9.7684,0,0,44.82,1,1,8008,4004
6249,1.2016e+08,0,0.00034797,0.0026334,-0.0024017,0.03492,0.10043,-9.7685,0,0,44.82,1,1,8008,4004
6253,1.2016e+08,0,0.0017957,0.003041,-0.0016541,0.040017,0.10016,-9.7679,0,0,44.82,1,1,8008,4004
6288,1.2017e+08,0,0.0030798,0.0021114,-0.0014136,0.045376,0.096255,-9.765,0,0,44.82,1,1,8008,4004
6291,1.2017e+08,0,0.00215,0.00087112,-0.0020954,0.047956,0.093076,-9.7652,0,0,44.819,1,1,8008,4004
6294,1.2017e+08,0,0.0018492,0.00010252,-0.0022867,0.048642,0.091323,-9.7659,0,0,44.819,1,1,8008,4004
6297,1.2018e+08,0,0.002726,-0.0010629,-0.0017284,0.042194,0.086504,-9.7637,0,0,44.819,1,1,8008,4004
6332,1.2018e+08,0,-0.00056339,0.002499,-0.0013893,0.02902,0.076106,-9.7579,0,0,44.818,1,1,8008,4004
6339,1.2018e+08,0,-0.0011116,0.0026669,-0.0028796,0.027741,0.079208,-9.7537,0,0,44.818,1,1,8008,4004
6342,1.2018e+08,0,0.0053731,-0.00070026,-0.0047377,0.028767,0.088638,-9.7532,0,0,44.818,1,1,8008,4004
6347,1.2019e+08,0,0.0041841,-7.7095e-05,-0.0050674,0.019722,0.082984,-9.7595,0,0,44.817,1,1,8008,4004
6382,1.2019e+08,0,-0.0028399,0.0038569,-0.0058569,0.012331,0.082607,-9.7716,0,0,44.817,1,1,8008,4004
6385,1.2019e+08,0,-0.0011811,0.0035449,-0.0054366,0.022965,0.093422,-9.7653,0,0,44.817,1,1,8008,4004
6388,1.2019e+08,0,0.0065291,0.00011614,-0.0063888,0.030034,0.091577,-9.7509,0,0,44.817,1,1,8008,4004
6391,1.202e+08,0,0.0053121,-0.0021225,-0.0077652,0.030911,0.071423,-9.7373,0,0,44.816,1,1,8008,4004
6426,1.202e+08,0,-0.0058555,0.00084724,-0.011684,0.033107,0.064861,-9.7395,0,0,44.816,1,1,8008,4004
6429,1.202e+08,0,-0.0028022,0.0018295,-0.013998,0.042146,0.079041,-9.7431,0,0,44.816,1,1,8008,4004
6433,1.202e+08,0,0.0059047,0.00014344,-0.015368,0.054976,0.088848,-9.7462,0,0,44.816,1,1,8008,4004
6437,1.2021e+08,0,0.0035036,-0.0023421,-0.014181,0.065734,0.072652,-9.7553,0,0,44.815,1,1,8008,4004
6472,1.2021e+08,0,-0.0093994,0.0006022,-0.012209,0.060011,0.064463,-9.765,0,0,44.815,1,1,8008,4004
6476,1.2021e+08,0,-0.0080868,0.0026643,-0.012235,0.054869,0.1008,-9.7782,0,0,44.815,1,1,8008,4004
6481,1.2021e+08,0,0.011703,-0.0028171,-0.012054,0.062105,0.12854,-9.7778,0,0,44.815,1,1,8008,4004
6484,1.2022e+08,0,0.015069,-0.0093521,-0.0086585,0.06374,0.10215,-9.7648,0,0,44.815,1,1,8008,4004
6519,1.2023e+08,0,0.039784,-0.0086443,0.015945,0.042241,0.13013,-9.7719,0,0,44.814,1,1,8008,4004
6523,1.2023e+08,0,0.0088979,-0.0087929,0.018369,0.036345,0.06561,-9.7497,0,0,44.814,1,1,8008,4004
6558,1.2023e+08,0,-0.043989,0.0032232,0.017296,0.022047,0.051104,-9.7485,0,0,44.814,1,1,8008,4004
6561,1.2023e+08,0,-0.021849,0.0042088,0.014281,0.028344,0.10875,-9.7755,0,0,44.814,1,1,8008,4004
6564,1.2024e+08,0,0.041012,-0.013623,0.012993,0.060167,0.12155,-9.7957,0,0,44.814,1,1,8008,4004
6568,1.2024e+08,0,0.029037,-0.016163,0.016895,0.058333,0.04993,-9.7858,0,0,44.814,1,1,8008,4004
6603,1.2024e+08,0,-0.035152,0.0096975,0.023724,0.025912,0.016055,-9.7829,0,0,44.814,1,1,8008,4004
6606,1.2024e+08,0,-0.012562,0.010275,0.022737,0.051264,0.11303,-9.7922,0,0,44.814,1,1,8008,4004
6609,1.2025e+08,0,0.027582,-0.011274,0.018715,0.073573,0.11796,-9.7937,0,0,44.814,1,1,8008,4004
6612,1.2025e+08,0,0.027916,-0.0214,0.016074,0.058611,0.058352,-9.7933,0,0,44.814,1,1,8008,4004
6647,1.2025e+08,0,-0.025344,-0.0037581,0.01488,0.022157,0.032356,-9.7944,0,0,44.814,1,1,8008,4004
6650,1.2025e+08,0,-0.012515,0.0025423,0.012394,0.053789,0.12061,-9.8033,0,0,44.814,1,1,8008,4004
6653,1.2026e+08,0,0.019121,-0.004621,0.011345,0.070982,0.12933,-9.7993,0,0,44.814,1,1,8008,4004
6657,1.2026e+08,0,0.0064063,-0.002161,0.010252,0.038885,0.067445,-9.7738,0,0,44.814,1,1,8008,4004
6692,1.2026e+08,0,-0.023021,0.018945,0.010126,0.0091923,0.091881,-9.7637,0,0,44.814,1,1,8008,4004
6695,1.2026e+08,0,-0.0063815,0.010867,0.0094504,0.029134,0.13543,-9.7627,0,0,44.814,1,1,8008,4004
6698,1.2027e+08,0,0.025071,-0.025618,0.003368,0.054921,0.12634,-9.7648,0,0,44.814,1,1,8008,4004
6701,1.2027e+08,0,0.0087389,-0.025131,0.003451,0.028256,0.087364,-9.7694,0,0,44.814,1,1,8008,4004
6736,1.2027e+08,0,-0.025424,0.0071107,0.0064964,-0.0018428,0.094905,-9.7641,0,0,44.815,1,1,8008,4004
6739,1.2027e+08,0,-0.008599,0.018323,0.0046456,0.0285,0.1399,-9.7514,0,0,44.815,1,1,8008,4004
6742,1.2028e+08,0,0.02766,0.004257,0.00019941,0.064557,0.13983,-9.7514,0,0,44.815,1,1,8008,4004
6746,1.2028e+08,0,0.015245,-0.0031776,-0.0013235,0.036457,0.099808,-9.7653,0,0,44.815,1,1,8008,4004
6781,1.2028e+08,0,-0.02956,0.0060121,0.0007431,-0.0025735,0.10928,-9.7709,0,0,44.815,1,1,8008,4004
6787,1.2029e+08,0,-0.0032611,-0.0023202,-0.001624,0.02501,0.14946,-9.7673,0,0,44.815,1,1,8008,4004
6790,1.2029e+08,0,0.027412,-0.017328,-0.0031924,0.044806,0.14788,-9.7519,0,0,44.815,1,1,8008,4004
6794,1.2029e+08,0,0.0078122,-0.0042498,-0.0025037,0.0027323,0.082138,-9.7388,0,0,44.815,1,1,8008,4004
6829,1.2029e+08,0,-0.022258,0.027723,-0.0028309,-0.031625,0.10645,-9.7566,0,0,44.815,1,1,8008,4004
6832,1.203e+08,0,0.0083121,0.020032,-0.0084245,-0.010928,0.15122,-9.758,0,0,44.815,1,1,8008,4004
6835,1.203e+08,0,0.025505,-0.0045939,-0.01432,0.020808,0.1365,-9.7374,0,0,44.815,1,1,8008,4004
6839,1.203e+08,0,-0.0044694,-0.01205,-0.015823,-0.0010415,0.085172,-9.7496,0,0,44.815,1,1,8008,4004
6874,1.203e+08,0,-0.024387,-0.0013735,-0.011431,-0.016739,0.10282,-9.7632,0,0,44.815,1,1,8008,4004
6877,1.2031e+08,0,0.00014639,0.013833,-0.0061923,0.0027657,0.1526,-9.7648,0,0,44.815,1,1,8008,4004
6880,1.2031e+08,0,0.025753,0.0059329,-0.0088108,0.038973,0.14536,-9.7552,0,0,44.815,1,1,8008,4004
6884,1.2031e+08,0,0.011909,-0.0091791,-0.012725,0.054614,0.083036,-9.7603,0,0,44.815,1,1,8008,4004
6919,1.2031e+08,0,-0.020572,0.00077537,-0.015072,0.023976,0.063717,-9.7782,0,0,44.815,1,1,8008,4004
6922,1.2032e+08,0,-0.020841,0.020367,-0.01693,0.0067578,0.11289,-9.791,0,0,44.815,1,1,8008,4004
6927,1.2032e+08,0,0.029358,-0.001501,-0.02256,0.07065,0.14593,-9.771,0,0,44.815,1,1,8008,4004
6930,1.2032e+08,0,0.037387,-0.024133,-0.024442,0.088304,0.11472,-9.75,0,0,44.815,1,1,8008,4004
6965,1.2032e+08,0,-0.013658,-0.0066644,-0.014031,0.018715,0.063449,-9.7393,0,0,44.815,1,1,8008,4004
6968,1.2033e+08,0,-0.034186,0.03072,-0.0058766,-0.0018157,0.099076,-9.7444,0,0,44.815,1,1,8008,4004
6971,1.2033e+08,0,-0.0024396,0.019105,-0.0083808,0.0442,0.12775,-9.7401,0,0,44.815,1,1,8008,4004
6975,1.2033e+08,0,0.040345,-0.020674,-0.018365,0.058313,0.1059,-9.7355,0,0,44.815,1,1,8008,4004
7010,1.2034e+08,0,0.011103,-0.007688,-0.017415,-0.016113,0.070962,-9.7307,0,0,44.815,1,1,8008,4004
7013,1.2034e+08,0,-0.032893,0.015999,-0.011055,-0.018458,0.067,-9.7323,0,0,44.815,1,1,8008,4004
7016,1.2034e+08,0,-0.024331,0.0021151,-0.011752,0.059751,0.091513,-9.7509,0,0,44.815,1,1,8008,4004
7019,1.2034e+08,0,0.0091154,-0.020896,-0.012891,0.077744,0.11385,-9.7653,0,0,44.815,1,1,8008,4004
7054,1.2034e+08,0,0.034602,-0.015606,-0.0063234,0.023925,0.10141,-9.7737,0,0,44.815,1,1,8008,4004
7057,1.2035e+08,0,0.013484,0.0064103,-0.00058292,0.012975,0.069761,-9.7735,0,0,44.815,1,1,8008,4004
7060,1.2035e+08,0,-0.026295,0.0075853,-0.0029768,0.071782,0.054079,-9.7751,0,0,44.815,1,1,8008,4004
7064,1.2035e+08,0,-0.015821,-0.017389,-0.01013,0.078046,0.072313,-9.7929,0,0,44.815,1,1,8008,4004
7099,1.2036e+08,0,0.0051479,-0.020445,-0.0098467,0.042776,0.077593,-9.8125,0,0,44.815,1,1,8008,4004
7102,1.2036e+08,0,0.010887,-0.0073318,-0.002593,0.027182,0.070041,-9.8261,0,0,44.815,1,1,8008,4004
7105,1.2036e+08,0,-0.0040017,-0.0028843,0.0031389,0.045338,0.04318,-9.822,0,0,44.815,1,1,8008,4004
7110,1.2036e+08,0,-0.019645,-0.0044996,0.007447,0.042963,0.035466,-9.814,0,0,44.815,1,1,8008,4004
7145,1.2037e+08,0,-0.017443,-0.0041206,0.0085123,0.010714,0.057631,-9.8153,0,0,44.815,1,1,8008,4004
7148,1.2037e+08,0,-0.002643,-0.0027721,0.0067227,-0.00095957,0.076922,-9.8298,0,0,44.815,1,1,8008,4004
7151,1.2037e+08,0,0.0074223,-0.0045015,0.0016293,-0.00033589,0.085152,-9.8475,0,0,44.815,1,1,8008,4004
7154,1.2037e+08,0,0.0017915,-0.004366,0.0016811,-0.0031165,0.081481,-9.8313,0,0,44.815,1,1,8008,4004
7189,1.2038e+08,0,-0.015767,-0.003798,0.0058772,0.0025014,0.086351,-9.7803,0,0,44.815,1,1,8008,4004
7192,1.2038e+08,0,-0.0092589,-0.0072009,0.010336,0.019192,0.10135,-9.7631,0,0,44.815,1,1,8008,4004
7195,1.2038e+08,0,0.0031838,-0.0046788,0.01343,0.022572,0.12179,-9.7754,0,0,44.815,1,1,8008,4004
7199,1.2038e+08,0,0.010284,0.0047047,0.016435,0.0056397,0.1251,-9.7744,0,0,44.815,1,1,8008,4004
7234,1.2039e+08,0,0.006524,0.01348,0.016153,0.0059899,0.12099,-9.7349,0,0,44.815,1,1,8008,4004
7240,1.2039e+08,0,-0.0024149,-0.0021869,0.008817,0.037306,0.11094,-9.7215,0,0,44.815,1,1,8008,4004
7243,1.2039e+08,0,-0.0047005,-0.0097448,0.0056559,0.034359,0.10877,-9.745,0,0,44.815,1,1,8008,4004
7247,1.2039e+08,0,0.0008378,0.0011852,0.0092113,0.01018,0.12234,-9.7535,0,0,44.815,1,1,8008,4004
7283,1.204e+08,0,0.013308,0.0056414,0.013648,0.045243,0.12208,-9.6841,0,0,44.815,1,1,8008,4004
7286,1.204e+08,0,0.011514,-0.001323,0.013577,0.074564,0.09927,-9.6461,0,0,44.815,1,1,8008,4004
7289,1.204e+08,0,-0.0098173,0.0018012,0.012133,0.051173,0.076343,-9.6664,0,0,44.815,1,1,8008,4004
7293,1.204e+08,0,-0.010469,0.0096849,0.010236,0.030686,0.093771,-9.7062,0,0,44.815,1,1,8008,4004
7328,1.2041e+08,0,0.0087497,0.00010737,0.0068707,0.0579,0.12378,-9.7488,0,0,44.816,1,1,8008,4004
7331,1.2041e+08,0,0.019185,-0.014088,0.0046444,0.070357,0.11031,-9.7547,0,0,44.816,1,1,8008,4004
7334,1.2041e+08,0,-0.004498,-0.009846,0.0074519,0.037314,0.078128,-9.7296,0,0,44.816,1,1,8008,4004
7337,1.2041e+08,0,-0.019955,0.0068013,0.011373,0.025338,0.088284,-9.7038,0,0,44.816,1,1,8008,4004
7372,1.2042e+08,0,-0.0028344,0.013846,0.012449,0.042361,0.12556,-9.7011,0,0,44.816,1,1,8008,4004
7375,1.2042e+08,0,0.016382,0.0066458,0.0091751,0.031305,0.13248,-9.7363,0,0,44.816,1,1,8008,4004
7380,1.2042e+08,0,0.011215,0.007727,0.0051568,-0.031745,0.11825,-9.8004,0,0,44.816,1,1,8008,4004
7384,1.2042e+08,0,-0.0044836,0.01465,0.0030561,-0.055336,0.11686,-9.8113,0,0,44.816,1,1,8008,4004
7421,1.2043e+08,0,0.00048841,0.0088509,-0.0025123,-0.031879,0.14212,-9.7896,0,0,44.816,1,1,8008,4004
7424,1.2043e+08,0,0.031644,0.0028306,-0.00067525,-0.02977,0.15501,-9.7915,0,0,44.816,1,1,8008,4004
7428,1.2043e+08,0,0.016497,0.017026,0.0053997,-0.006841,0.15264,-9.7746,0,0,44.816,1,1,8008,4004
7463,1.2044e+08,0,0.01485,-0.0096301,-0.0030025,0.097282,0.10728,-9.7008,0,0,44.816,1,1,8008,4004
7466,1.2044e+08,0,0.0025037,-0.0025323,-0.0018588,0.10042,0.057496,-9.7562,0,0,44.816,1,1,8008,4004
7470,1.2045e+08,0,-0.00012444,-0.0035028,-0.00035573,0.12574,0.035981,-9.8057,0,0,44.816,1,1,8008,4004
7505,1.2045e+08,0,0.005126,-0.015359,0.0013845,0.15046,-0.0045257,-9.8413,0,0,44.816,1,1,8008,4004
7508,1.2045e+08,0,-0.0049609,-0.015828,0.00087472,0.13806,-0.037288,-9.8233,0,0,44.816,1,1,8008,4004
7511,1.2045e+08,0,-0.016099,-0.013137,-0.0019518,0.1245,-0.053529,-9.7775,0,0,44.816,1,1,8008,4004
7515,1.2046e+08,0,-0.014723,-0.0035578,-0.0065795,0.094729,-0.019777,-9.7929,0,0,44.815,1,1,8008,4004
7550,1.2046e+08,0,0.0071285,0.0084955,-0.0066206,-0.00025251,0.055007,-9.8473,0,0,44.815,1,1,8008,4004
7554,1.2046e+08,0,0.015759,0.0073067,-0.0066208,-0.052481,0.10862,-9.8614,0,0,44.815,1,1,8008,4004
7557,1.2046e+08,0,0.009332,0.00051035,-0.0071871,-0.080857,0.1402,-9.8529,0,0,44.815,1,1,8008,4004
7560,1.2047e+08,0,-0.0076626,-0.0019209,-0.0081005,-0.12525,0.16667,-9.8313,0,0,44.815,1,1,8008,4004
7595,1.2047e+08,0,0.021198,-0.0044048,-0.010187,-0.12508,0.26834,-9.7591,0,0,44.815,1,1,8008,4004
7598,1.2047e+08,0,0.050856,-0.014686,-0.010346,-0.072576,0.27153,-9.7022,0,0,44.814,1,1,8008,4004
7601,1.2047e+08,0,0.029154,-0.012981,-0.0087104,-0.026508,0.21331,-9.6719,0,0,44.814,1,1,8008,4004
7605,1.2048e+08,0,-0.022237,0.0053469,-0.004594,0.014853,0.12234,-9.7074,0,0,44.814,1,1,8008,4004
7640,1.2048e+08,0,-0.010826,0.004362,-0.0078273,0.11587,0.082883,-9.8235,0,0,44.814,1,1,8008,4004
7643,1.2048e+08,0,0.014849,-0.0092843,-0.01416,0.1446,0.064714,-9.8487,0,0,44.814,1,1,8008,4004
7646,1.2049e+08,0,0.014847,-0.021447,-0.020033,0.18982,-0.013687,-9.8833,0,0,44.813,1,1,8008,4004
7650,1.2049e+08,0,-0.0066536,-0.019221,-0.01857,0.19134,-0.049337,-9.8628,0,0,44.813,1,1,8008,4004
7685,1.2049e+08,0,-0.025822,-0.0082667,-0.012774,0.17847,-0.044682,-9.8031,0,0,44.813,1,1,8008,4004
7691,1.2049e+08,0,-0.027256,0.0042937,-0.0087476,0.14362,-0.022877,-9.7693,0,0,44.813,1,1,8008,4004
7694,1.2049e+08,0,-0.021824,0.017344,-0.0058395,0.04537,0.01689,-9.7053,0,0,44.812,1,1,8008,4004
7698,1.205e+08,0,-0.0037299,0.01163,-0.0089329,-0.014673,0.062868,-9.6493,0,0,44.812,1,1,8008,4004
7733,1.205e+08,0,0.029958,-0.0054345,-0.01295,-0.12002,0.17116,-9.6361,0,0,44.812,1,1,8008,4004
7736,1.205e+08,0,0.0078941,-0.0064363,-0.0083572,-0.16816,0.17925,-9.6854,0,0,44.812,1,1,8008,4004
7739,1.2051e+08,0,-0.030195,-0.0091835,-0.00081564,-0.16178,0.16717,-9.7515,0,0,44.812,1,1,8008,4004
7743,1.2051e+08,0,-0.018242,-0.010571,0.0017192,-0.10774,0.17825,-9.779,0,0,44.811,1,1,8008,4004
7778,1.2051e+08,0,0.032286,0.0052893,0.0061044,-0.023172,0.18475,-9.7996,0,0,44.811,1,1,8008,4004
7781,1.2051e+08,0,0.04106,0.019883,0.0081504,0.071433,0.12057,-9.785,0,0,44.811,1,1,8008,4004
7784,1.2052e+08,0,0.0058113,0.020509,0.0037823,0.15187,0.060414,-9.774,0,0,44.811,1,1,8008,4004
7787,1.2052e+08,0,-0.033424,0.0038883,-0.0026967,0.22986,0.0081437,-9.8025,0,0,44.811,1,1,8008,4004
7822,1.2052e+08,0,-0.03067,-0.0030658,-0.0028122,0.21853,0.01432,-9.8278,0,0,44.811,1,1,8008,4004
7825,1.2052e+08,0,0.00018023,-0.0085337,-0.0023615,0.19357,0.061626,-9.7475,0,0,44.811,1,1,8008,4004
7828,1.2053e+08,0,0.026284,-0.012336,0.0004396,0.1811,0.071598,-9.7052,0,0,44.811,1,1,8008,4004
7832,1.2053e+08,0,-0.0052055,0.006418,0.0090789,0.074629,0.046032,-9.6205,0,0,44.811,1,1,8008,4004
7868,1.2053e+08,0,-0.058984,0.028498,0.0098324,-0.092225,0.036479,-9.666,0,0,44.81,1,1,8008,4004
7871,1.2053e+08,0,-0.032519,0.014748,0.00345,-0.15146,0.11007,-9.7428,0,0,44.81,1,1,8008,4004
7874,1.2054e+08,0,0.050425,-0.0141,-0.0046816,-0.17884,0.22719,-9.8312,0,0,44.81,1,1,8008,4004
7877,1.2054e+08,0,0.027979,0.0082398,-0.0009961,-0.20375,0.15689,-9.7606,0,0,44.81,1,1,8008,4004
7912,1.2054e+08,0,-0.021062,0.032531,0.0030074,-0.17948,0.13906,-9.7304,0,0,44.81,1,1,8008,4004
7915,1.2055e+08,0,-0.030902,0.034785,0.0047989,-0.081864,0.15464,-9.7072,0,0,44.809,1,1,8008,4004
7918,1.2055e+08,0,0.027764,0.0043383,0.0056875,0.12064,0.24076,-9.7952,0,0,44.809,1,1,8008,4004
7923,1.2055e+08,0,0.043278,-0.0044255,0.011839,0.16782,0.21194,-9.8193,0,0,44.809,1,1,8008,4004
7958,1.2055e+08,0,0.0068499,0.0052602,0.017003,0.20819,0.15627,-9.8081,0,0,44.809,1,1,8008,4004
7961,1.2056e+08,0,-0.034265,0.001644,0.018792,0.2743,0.10735,-9.7874,0,0,44.809,1,1,8008,4004
7964,1.2056e+08,0,-0.019453,-0.018037,0.017435,0.28217,0.10643,-9.8125,0,0,44.809,1,1,8008,4004
7969,1.2056e+08,0,0.020841,-0.028608,0.020334,0.22556,0.090028,-9.8277,0,0,44.808,1,1,8008,4004
8004,1.2056e+08,0,0.00041378,0.0060746,0.026176,0.075586,0.0024484,-9.7759,0,0,44.808,1,1,8008,4004
8007,1.2056e+08,0,-0.02742,0.025451,0.022239,-0.016286,-0.051172,-9.696,0,0,44.808,1,1,8008,4004
8010,1.2057e+08,0,-0.024788,0.023677,0.010584,-0.10134,-0.021962,-9.6017,0,0,44.808,1,1,8008,4004
8013,1.2057e+08,0,0.016938,0.0015632,-0.0048683,-0.17936,0.055784,-9.6157,0,0,44.808,1,1,8008,4004
8048,1.2057e+08,0,0.021811,-0.0052414,-0.0071739,-0.21961,0.08133,-9.684,0,0,44.807,1,1,8008,4004
8051,1.2058e+08,0,-0.0075142,-0.008376,-0.0025722,-0.17966,0.1442,-9.8033,0,0,44.807,1,1,8008,4004
8054,1.2058e+08,0,-0.015914,-0.016526,0.0026725,-0.086813,0.20064,-9.8411,0,0,44.807,1,1,8008,4004
8058,1.2058e+08,0,0.003029,-0.030758,0.0090696,0.081886,0.22971,-9.8105,0,0,44.807,1,1,8008,4004
8093,1.2058e+08,0,0.018364,-0.01603,0.012879,0.21796,0.18363,-9.7228,0,0,44.807,1,1,8008,4004
8096,1.2059e+08,0,0.010736,0.008543,0.013157,0.26848,0.13168,-9.6707,0,0,44.807,1,1,8008,4004
8099,1.2059e+08,0,-0.0024632,0.022976,0.0049587,0.30277,0.07794,-9.6335,0,0,44.806,1,1,8008,4004
8102,1.2059e+08,0,0.0016723,0.0046337,-0.003667,0.30117,0.070276,-9.6195,0,0,44.806,1,1,8008,4004
8137,1.2059e+08,0,0.0076287,-0.031195,-0.010698,0.21957,0.053407,-9.6268,0,0,44.806,1,1,8008,4004
8143,1.206e+08,0,0.00094784,-0.036731,-0.0085899,0.12189,0.050788,-9.6931,0,0,44.806,1,1,8008,4004
8146,1.206e+08,0,-0.0086356,-0.020978,0.0048496,-0.022059,0.099669,-9.843,0,0,44.806,1,1,8008,4004
8151,1.206e+08,0,-0.0048326,-0.0080182,0.015381,-0.092939,0.12974,-9.8898,0,0,44.806,1,1,8008,4004
8186,1.206e+08,0,0.0076855,-0.0082446,0.017476,-0.13544,0.11979,-9.8366,0,0,44.805,1,1,8008,4004
8189,1.2061e+08,0,0.0047748,-0.012762,0.0046664,-0.13674,0.07183,-9.7419,0,0,44.805,1,1,8008,4004
8194,1.2061e+08,0,-0.0067669,0.0011758,-0.0033666,-0.14727,0.038543,-9.7057,0,0,44.805,1,1,8008,4004
8197,1.2061e+08,0,0.0083041,0.0091669,-0.017983,-0.011236,0.064473,-9.7559,0,0,44.804,1,1,8008,4004
8232,1.2062e+08,0,-0.0067348,-0.01276,-0.0044012,0.089789,0.11329,-9.8958,0,0,44.804,1,1,8008,4004
8237,1.2062e+08,0,-0.023524,0.0080823,0.0010002,0.12552,0.15528,-9.8808,0,0,44.804,1,1,8008,4004
8240,1.2062e+08,0,0.0045018,-0.0092525,-0.0071361,0.22196,0.19375,-9.8202,0,0,44.803,1,1,8008,4004
8275,1.2063e+08,0,0.023379,-0.027047,-0.015499,0.21768,0.15785,-9.7964,0,0,44.803,1,1,8008,4004
8278,1.2063e+08,0,-0.0038478,0.0069545,-0.014923,0.07586,0.056301,-9.7864,0,0,44.803,1,1,8008,4004
8281,1.2063e+08,0,-0.033156,0.048978,-0.011333,-0.0064563,0.0087683,-9.7645,0,0,44.803,1,1,8008,4004
