LineNo,TimeUS,I,GyrX,GyrY,GyrZ,AccX,AccY,AccZ,EG,EA,T,GH,AH,GHz,AHz
185,118643360,1,0.003152885,-0.01081514,-0.004260448,-0.02000361,0.02148349,-9.685904000000001,0,0,45.48698,1,1,753,995
220,118646263,1,0.004749436,-0.009786928,-0.00283109,-0.03791653,0.01484865,-9.708928999999999,0,0,45.4869,1,1,753,995
286,118671592,1,-0.006119468,0.004493715,-0.003916459,-0.03289221,0.003177122,-9.786633,0,0,45.48674,1,1,753,995
402,118699875,1,-0.00175005,0.002296195,0.008886659999999999,-0.05881299,-0.09769211,-9.721456999999999,0,0,45.48658,1,1,753,995
517,118725357,1,0.004361528,-0.00141042,0.003317075,0.01564112,-0.03493062,-9.750168,0,0,45.48645,1,1,753,995
520,118727505,1,0.005223475,0.003276359,0.006104692,0.02809124,-0.02537157,-9.757453,0,0,45.48645,1,1,753,995
555,118729949,1,0.00267931,0.004957536,0.004649566,0.01589622,-0.01716786,-9.760020000000001,0,0,45.48645,1,1,753,995
625,118756567,1,-0.009900877000000001,0.001753716,-0.005472092,0.01512605,-0.0306148,-9.680683999999999,0,0,45.48634,1,1,753,995
740,118775344,1,-0.006033411,-0.0052679,-0.003536775,-0.03981861,-0.0773322,-9.85163,0,0,45.4863,1,1,753,995
855,118795075,1,-0.005276229,-0.004953703,0.006461428,-0.1073599,-0.04295399,-9.878363,0,0,45.48624,1,1,753,995
971,118834087,1,0.00439535,0.004797406,-0.002161789,-0.001914209,-0.05329176,-9.713793000000001,0,0,45.48617,1,1,753,995
1006,118837271,1,0.00633843,0.003486006,-0.002937078,0.01110935,-0.06984269,-9.677008000000001,0,0,45.48617,1,1,753,995
1080,118876381,1,-0.003113047,-0.001477997,0.004251841,-0.008708834,-0.04208851,-9.758452999999999,0,0,45.48626,1,1,753,995
1195,118975334,1,0.004641213,-0.001916693,0.005676063,0.004281414,-0.03725079,-9.786130999999999,0,0,45.48713,1,1,753,995
1299,119044594,1,0.002089191,0.0006760395,0.0009542474,0.02680887,-0.08001266,-9.749978,0,0,45.48751,1,1,753,995
1384,119056063,1,0.002117569,-0.0005188343999999999,0.003131709,0.004801474,-0.03180621,-9.748424999999999,0,0,45.48754,1,1,753,995
1479,119074989,1,-0.007524883,0.005982299,-0.008242177999999999,-0.06735146,0.03293733,-9.767647999999999,0,0,45.48758,1,1,753,995
1572,119089608,1,-0.009553170999999999,-0.004381828,-0.005397986,-0.05589502,-0.03524507,-9.771273000000001,0,0,45.48764,1,1,753,995
1597,119092199,1,-0.005852077,-0.004727885,-0.004901647,-0.06480913000000001,-0.04326447,-9.803307999999999,0,0,45.48764,1,1,753,995
1632,119094873,1,-0.003081621,-0.003942676,-0.003056084,-0.08570115,-0.03507497,-9.846375,0,0,45.48764,1,1,753,995
1636,119097599,1,-0.004139537,-0.003348872,0.0003071842,-0.1005089,-0.02520247,-9.868682,0,0,45.48768,1,1,753,995
1639,119100258,1,-0.005970455,0.00122019,0.003259246,-0.1340074,-0.008428272000000001,-9.891105,0,0,45.48768,1,1,753,995
1643,119102144,1,-0.006487521,0.004000835,0.004526848,-0.1546482,0.006365533,-9.893425000000001,0,0,45.48768,1,1,753,995
1678,119104880,1,-0.007975019999999999,0.005369131,0.007848447,-0.159822,0.02283683,-9.878659000000001,0,0,45.48768,1,1,753,995
1681,119107344,1,-0.008428888000000001,0.004415591,0.007803746,-0.1534357,0.03523983,-9.858502,0,0,45.48768,1,1,753,995
1684,119110272,1,-0.009928319999999999,0.003999764,0.004939202,-0.1419916,0.04820072,-9.824126,0,0,45.48776,1,1,753,995
1687,119112577,1,-0.01034381,0.002571151,0.002391247,-0.1251566,0.04932363,-9.801643,0,0,45.48776,1,1,753,995
1722,119115115,1,-0.008813916999999999,0.0002552135,0.001691375,-0.09898762999999999,0.04751453,-9.771407,0,0,45.48776,1,1,753,995
1725,119117266,1,-0.004820673,-0.001585603,-4.881267e-05,-0.08159769,0.04726714,-9.757317,0,0,45.48776,1,1,753,995
1728,119120022,1,-0.0007468295999999999,-0.003128059,-0.001238973,-0.06377259,0.0416733,-9.738797999999999,0,0,45.48787,1,1,753,995
1732,119123309,1,0.002312228,-0.005141997,-0.002154411,-0.06216247,0.03127531,-9.736426,0,0,45.48787,1,1,753,995
1767,119126858,1,0.004957444,-0.006160351,-0.001152917,-0.05961424,0.0170268,-9.729457,0,0,45.48787,1,1,753,995
1770,119128534,1,0.004704366,-0.005900447,-0.0001184462,-0.04423102,0.01210119,-9.724511,0,0,45.48787,1,1,753,995
1773,119130698,1,0.003201081,-0.003998302,0.0003892237,-0.01447065,0.005894597,-9.726542,0,0,45.48798,1,1,753,995
1776,119133532,1,0.001337355,-0.00144736,-0.0007340023,-0.005884808,-0.0005765064,-9.721883,0,0,45.48798,1,1,753,995
1811,119136015,1,0.00136918,0.0001709861,-0.0002403629,-0.01397413,-0.01770812,-9.703325,0,0,45.48798,1,1,753,995
1814,119139325,1,0.001395653,0.001124408,0.001626088,-0.02876917,-0.02625005,-9.704205999999999,0,0,45.48798,1,1,753,995
1817,119140927,1,0.0006898841,0.002752471,0.003613526,-0.03968412,-0.02528057,-9.701036,0,0,45.4881,1,1,753,995
1821,119144019,1,0.000275929,0.006170884,0.004419242,-0.04342114,-0.0120569,-9.687233000000001,0,0,45.4881,1,1,753,995
1856,119146366,1,0.001373504,0.005875751,0.002998687,-0.04862301,0.006808432,-9.670086,0,0,45.4881,1,1,753,995
1863,119149715,1,0.003266981,0.002783548,0.002447352,-0.05494324,0.01259966,-9.684421,0,0,45.4881,1,1,753,995
1866,119151920,1,0.004714658,-0.0002119351,0.004880053,-0.07101166,0.01461073,-9.722659,0,0,45.4881,1,1,753,995
1870,119154283,1,0.005535509,-0.002324054,0.007313298,-0.09749666999999999,0.012694,-9.781157,0,0,45.48822,1,1,753,995
1905,119157330,1,0.005640243,-0.003505915,0.006029733,-0.1232712,0.01162274,-9.809899,0,0,45.48822,1,1,753,995
1908,119159306,1,0.005550579,-0.003026116,0.002766429,-0.1456622,0.01160193,-9.816602,0,0,45.48822,1,1,753,995
1911,119162041,1,0.004412934,-0.001022546,0.001894015,-0.163088,0.007455471,-9.823981,0,0,45.48822,1,1,753,995
1915,119163946,1,0.003853505,-2.645384e-05,0.002651791,-0.1510192,0.00304825,-9.82259,0,0,45.48833,1,1,753,995
1950,119166439,1,0.003794366,0.00228963,0.00454027,-0.1226453,-0.002491138,-9.786524,0,0,45.48833,1,1,753,995
1953,119169851,1,0.004198814,0.002983665,0.004104484,-0.1118246,-0.001366659,-9.748856999999999,0,0,45.48833,1,1,753,995
1959,119171914,1,0.006312269,0.003998203,0.002117293,-0.1084827,9.870168e-05,-9.732355999999999,0,0,45.48833,1,1,753,995
1963,119174662,1,0.007974165,0.003421997,0.002082557,-0.1063477,-0.009167748,-9.72419,0,0,45.48845,1,1,753,995
1998,119177248,1,0.008318861,0.002685128,0.005285223,-0.1097223,-0.02047381,-9.714746,0,0,45.48845,1,1,753,995
2001,119180532,1,0.007409194,0.003205298,0.007978281,-0.1126036,-0.02218206,-9.724057999999999,0,0,45.48845,1,1,753,995
2004,119182122,1,0.003323203,0.004069069,0.006880604,-0.1129731,-0.02308089,-9.722341999999999,0,0,45.48845,1,1,753,995
2007,119185080,1,0.001715442,0.00429912,0.002182251,-0.09667522000000001,-0.03738425,-9.701263000000001,0,0,45.48856,1,1,753,995
2042,119187366,1,0.001892556,0.003219764,-0.0007131044,-0.06605928,-0.0486568,-9.681971000000001,0,0,45.48856,1,1,753,995
2045,119190272,1,0.001621003,0.004874315,-0.0004873711,-0.04803443,-0.0577262,-9.680334,0,0,45.48856,1,1,753,995
2049,119193645,1,0.001499166,0.006018485,0.0009900917,-0.02316672,-0.05973264,-9.674250000000001,0,0,45.48856,1,1,753,995
2053,119195439,1,0.001779821,0.006333366,0.004579558,0.000488086,-0.05604169,-9.655360999999999,0,0,45.48856,1,1,753,995
2088,119199251,1,0.002315451,0.005200075,0.009462472,-0.01416281,-0.03987848,-9.680363,0,0,45.48868,1,1,753,995
2091,119200532,1,0.002263731,0.004192008,0.01187892,-0.03188154,-0.02192857,-9.710176000000001,0,0,45.48868,1,1,753,995
2094,119203381,1,0.0003067762,0.00347192,0.01157191,-0.03905993,-0.007167358,-9.727873000000001,0,0,45.48868,1,1,753,995
2097,119206087,1,-0.002590488,0.002909461,0.008821117,-0.0366846,0.01254028,-9.741097,0,0,45.48868,1,1,753,995
2132,119208331,1,-0.002847721,0.0004694056,0.005015015,-0.02199962,0.03898195,-9.754661,0,0,45.48879,1,1,753,995
2135,119211585,1,-0.001963767,-0.0003430043,0.001498018,-0.0221904,0.03328105,-9.770550999999999,0,0,45.48879,1,1,753,995
2138,119213629,1,-0.001790241,0.0002101105,0.0007795601,-0.02735371,0.02047547,-9.781203,0,0,45.48879,1,1,753,995
2142,119216145,1,-0.0007414252000000001,0.003203918,0.003219911,-0.04101927,0.006819934,-9.781185000000001,0,0,45.48879,1,1,753,995
2177,119219223,1,-0.0001320358,0.003750762,0.003186507,-0.06890142,0.005518915,-9.770982,0,0,45.48892,1,1,753,995
2180,119221103,1,0.0002019471,0.003946669,0.00267817,-0.08704518999999999,0.01781034,-9.755875,0,0,45.48892,1,1,753,995
2185,119224060,1,-0.002189721,0.006429377,-0.001882034,-0.1000177,0.02670252,-9.740062,0,0,45.48892,1,1,753,995
2188,119229068,1,-0.002713911,0.005274104,-0.002207959,-0.1183826,0.02601109,-9.735450999999999,0,0,45.48906,1,1,753,995
2223,119235041,1,-0.003732202,-0.0004278272,0.003670494,-0.09651878999999999,-0.008519868999999999,-9.788727,0,0,45.48906,1,1,753,995
2227,119237633,1,-0.005607972,0.001085473,-0.0003786206,-0.08740333,-0.01005869,-9.812583,0,0,45.48906,1,1,753,995
2231,119240405,1,-0.007580882,0.0001839032,-0.004765473,-0.07001127,-0.01443228,-9.840218999999999,0,0,45.48924,1,1,753,995
2266,119243337,1,-0.008643619,-0.0003282386,-0.003305366,-0.05838492,-0.02163705,-9.851087,0,0,45.48924,1,1,753,995
2269,119245487,1,-0.008372017000000001,0.003521173,-0.0006394195,-0.04892895,-0.01332916,-9.857118,0,0,45.48924,1,1,753,995
2272,119247867,1,-0.007602617,0.007666097,-0.0004883365,-0.04577351,-0.005510062,-9.852408,0,0,45.48924,1,1,753,995
2275,119250378,1,-0.007594298,0.008938414,-0.001351519,-0.05083429,-0.006793594,-9.837693,0,0,45.48924,1,1,753,995
2313,119253382,1,-0.006398553,0.00948015,-0.001979544,-0.04969038,-0.01589998,-9.822414999999999,0,0,45.48944,1,1,753,995
2316,119255936,1,-0.006171629,0.008386921,-0.001281452,-0.03953097,-0.02767423,-9.806419999999999,0,0,45.48944,1,1,753,995
2321,119258350,1,-0.008633890999999999,0.005794662,-6.768807e-05,-0.01526286,-0.0247261,-9.770448,0,0,45.48944,1,1,753,995
2324,119260575,1,-0.01184624,0.004608407,0.001292084,0.001701417,-0.01463332,-9.740359,0,0,45.48944,1,1,753,995
2359,119262945,1,-0.01002633,0.00410711,0.001920876,0.01519054,-0.02362775,-9.701268000000001,0,0,45.48966,1,1,753,995
2362,119265527,1,-0.004298207,0.001549801,0.002376189,0.01612153,-0.03475995,-9.699583000000001,0,0,45.48966,1,1,753,995
2366,119268560,1,-0.001217328,-0.0005545842,0.001361226,0.01341407,-0.04971479,-9.718752,0,0,45.48966,1,1,753,995
2369,119270786,1,-0.001619662,0.0004368282,-0.001719352,0.01040114,-0.05174747,-9.738815000000001,0,0,45.48966,1,1,753,995
2404,119273070,1,-0.001882789,0.001357434,-0.004391484,0.00392376,-0.04555661,-9.782062,0,0,45.48986,1,1,753,995
2407,119276058,1,-0.001068796,0.003103065,-0.006493159,-0.01764731,-0.05902955,-9.804080000000001,0,0,45.48986,1,1,753,995
2410,119278366,1,-0.001681631,0.001917918,-0.005523912,-0.03406486,-0.06573183,-9.811992,0,0,45.48986,1,1,753,995
2413,119281432,1,-0.003932241,-0.00292322,-0.001830951,-0.04687858,-0.0581621,-9.813644999999999,0,0,45.48986,1,1,753,995
2448,119284503,1,-0.006355791,-0.004926082,0.001532963,-0.05382541,-0.07243486,-9.78172,0,0,45.49007,1,1,753,995
2451,119286500,1,-0.007707791,-0.002869299,0.001760736,-0.06474188,-0.08577037999999999,-9.764904,0,0,45.49007,1,1,753,995
2455,119288921,1,-0.006046798,1.69489e-05,-0.0005140534,-0.07096445999999999,-0.1006144,-9.750702,0,0,45.49007,1,1,753,995
2458,119291707,1,-0.005362291,0.0008886239,-0.001141452,-0.07332495,-0.09839568999999999,-9.75787,0,0,45.49007,1,1,753,995
2493,119294881,1,-0.003046608,-0.001023957,-0.004654358,-0.07345711000000001,-0.08971171,-9.743964999999999,0,0,45.49007,1,1,753,995
2496,119297099,1,0.0008920812,-0.001409894,-0.004149087,-0.0767172,-0.08011931999999999,-9.730014000000001,0,0,45.49027,1,1,753,995
2499,119299078,1,0.003103499,-0.001532767,-0.002594402,-0.078301,-0.07351542,-9.731999999999999,0,0,45.49027,1,1,753,995
2503,119301574,1,0.006246296,0.0005099538,-0.0001983777,-0.08355982000000001,-0.06928366,-9.747324000000001,0,0,45.49027,1,1,753,995
2538,119304158,1,0.005058648,0.004942435,0.00139724,-0.09970535,-0.06646479,-9.760702,0,0,45.49027,1,1,753,995
2541,119307088,1,-0.0003132628,0.006576942,0.001492539,-0.1122826,-0.06708355000000001,-9.757277999999999,0,0,45.49046,1,1,753,995
2545,119309590,1,-0.002473296,0.006105208,0.0005209245,-0.124756,-0.06405392,-9.745471,0,0,45.49046,1,1,753,995
2548,119311425,1,-0.00205285,0.005359292,0.0005879636,-0.1259169,-0.05613468,-9.734634,0,0,45.49046,1,1,753,995
2583,119313848,1,-0.0006662247,0.002196782,0.002260993,-0.1217259,-0.04828426,-9.719984999999999,0,0,45.49046,1,1,753,995
2586,119316574,1,0.0002986325,0.001579457,0.002916398,-0.1215092,-0.04509255,-9.715165000000001,0,0,45.49046,1,1,753,995
2590,119319515,1,0.001481892,0.0009399308,0.003365587,-0.1161742,-0.03772552,-9.720319999999999,0,0,45.49063,1,1,753,995
2593,119321500,1,0.002080432,0.001387224,0.002411577,-0.1081338,-0.03560504,-9.729265,0,0,45.49063,1,1,753,995
2628,119324861,1,0.002437407,0.001828368,0.002301321,-0.08993234999999999,-0.03236089,-9.749001,0,0,45.49063,1,1,753,995
2631,119326584,1,0.0005137048,0.001481046,0.001658342,-0.0639591,-0.008776551,-9.75529,0,0,45.49063,1,1,753,995
2635,119329489,1,-0.0001202944,0.00261151,0.001333687,-0.05342992,0.005914144,-9.743217,0,0,45.4908,1,1,753,995
2638,119331925,1,0.0004600566,0.003409617,0.002058551,-0.0487901,0.01429314,-9.741514,0,0,45.4908,1,1,753,995
2673,119334376,1,0.002249954,0.003040971,0.00334664,-0.06273564,0.01289445,-9.785360000000001,0,0,45.4908,1,1,753,995
2676,119337555,1,0.003257542,0.003310075,0.004692073,-0.08012013,0.009528946,-9.828382,0,0,45.4908,1,1,753,995
2680,119339491,1,0.004396477,0.002218778,0.004070088,-0.0930718,0.001504816,-9.846045,0,0,45.49096,1,1,753,995
2683,119342046,1,0.005516132,0.001929741,0.002651613,-0.104583,-0.01498708,-9.863358,0,0,45.49096,1,1,753,995
2718,119344990,1,0.005514579,0.0003357984,0.001811681,-0.09535119,-0.03966616,-9.8719,0,0,45.49096,1,1,753,995
2721,119346592,1,0.005018765,-0.0009572071,-0.0004689279,-0.07260266999999999,-0.06547777,-9.863163,0,0,45.49096,1,1,753,995
2724,119350044,1,0.005322075,-0.0007386777,-0.001460935,-0.05667767,-0.07665274,-9.852180000000001,0,0,45.49096,1,1,753,995
2727,119352116,1,0.006126574,-0.001067405,-0.001851215,-0.0473153,-0.07396732,-9.8393,0,0,45.49113,1,1,753,995
2765,119354634,1,0.008436135000000001,0.001921903,-0.002374155,-0.03379176,-0.06729678,-9.799731,0,0,45.49113,1,1,753,995
2768,119357558,1,0.009139377000000001,0.003120862,-0.002325716,-0.02356845,-0.06570838,-9.776092999999999,0,0,45.49113,1,1,753,995
2773,119359551,1,0.007813435000000001,0.002699423,-0.0002790021,-0.01533842,-0.06370824999999999,-9.762854000000001,0,0,45.49113,1,1,753,995
2776,119362516,1,0.003579905,0.004428902,0.002158559,-0.007136174,-0.05703642,-9.736124,0,0,45.49131,1,1,753,995
2811,119364890,1,0.0006028605,0.007967248,0.004513951,-0.006632882,-0.04899842,-9.716340000000001,0,0,45.49131,1,1,753,995
2814,119368227,1,-0.0003567176,0.01065316,0.007062997,-0.01248769,-0.04517004,-9.722159,0,0,45.49131,1,1,753,995
2817,119369950,1,0.002220909,0.009191464999999999,0.006974832,-0.02117922,-0.05279726,-9.731873999999999,0,0,45.49131,1,1,753,995
2820,119372924,1,0.005772737,0.003270495,0.005532192,-0.03730856,-0.06075675,-9.758304000000001,0,0,45.4915,1,1,753,995
2855,119375816,1,0.006896593,-0.0005550667,0.005093158,-0.04412864,-0.05777551,-9.774532000000001,0,0,45.4915,1,1,753,995
2858,119377937,1,0.007073644,-0.001733658,0.005678569,-0.04838903,-0.05088447,-9.773827000000001,0,0,45.4915,1,1,753,995
2862,119380864,1,0.004227798,-0.0008453724,0.005020733,-0.04199744,-0.06222701,-9.767780999999999,0,0,45.4915,1,1,753,995
2866,119382866,1,0.001718621,0.00273752,0.002562142,-0.01409547,-0.08416991,-9.754708000000001,0,0,45.49169,1,1,753,995
2901,119385072,1,0.001239662,0.003620294,0.002008524,0.001700322,-0.09419747000000001,-9.750845,0,0,45.49169,1,1,753,995
2904,119387707,1,0.0009987868,0.004295657,0.006070713,0.005061128,-0.08999338,-9.764525000000001,0,0,45.49169,1,1,753,995
2907,119390885,1,0.001565301,0.003750834,0.006934852,-0.006488253,-0.08604307999999999,-9.774093000000001,0,0,45.49169,1,1,753,995
2910,119393912,1,0.00191205,0.001812656,0.007588313,-0.02634719,-0.07523384,-9.798854,0,0,45.49169,1,1,753,995
2945,119396188,1,-0.001506434,-0.003004403,0.005521581,-0.03773855,-0.07273604,-9.823524000000001,0,0,45.49187,1,1,753,995
2949,119399216,1,-0.004623765,-0.004742805,0.002555063,-0.04068477,-0.08872291,-9.816583,0,0,45.49187,1,1,753,995
2953,119401455,1,-0.005149326,-0.003928898,0.001927122,-0.04645923,-0.1037336,-9.791753999999999,0,0,45.49187,1,1,753,995
2956,119404568,1,-0.003393702,-0.002448831,0.003195209,-0.0448002,-0.1143538,-9.741884000000001,0,0,45.49187,1,1,753,995
2991,119407922,1,-0.001315017,-0.002151727,0.005794427,-0.04973365,-0.1164691,-9.671681,0,0,45.49206,1,1,753,995
2996,119410059,1,-0.002305971,-0.003370213,0.005787238,-0.06765401,-0.1124223,-9.62011,0,0,45.49206,1,1,753,995
2999,119412303,1,-0.003472457,-0.00400596,0.002792074,-0.07276486,-0.1047921,-9.603705,0,0,45.49206,1,1,753,995
3002,119417863,1,-0.0009487639,0.0001461747,-0.004339957,-0.08033817,-0.05397502,-9.656549999999999,0,0,45.49226,1,1,753,995
3037,119423902,1,-0.005220765,0.003405979,-0.00451066,-0.09652352,-0.006259654,-9.719393999999999,0,0,45.49226,1,1,753,995
3041,119426838,1,-0.00711528,0.007094687,-0.003837996,-0.1003224,0.001204785,-9.722151,0,0,45.49226,1,1,753,995
3044,119428640,1,-0.01107346,0.01040474,-0.002429966,-0.1082213,-0.009343181000000001,-9.716685,0,0,45.49244,1,1,753,995
3081,119431453,1,-0.01194463,0.008471005,-0.003614089,-0.1149607,-0.02545009,-9.714211000000001,0,0,45.49244,1,1,753,995
3084,119434398,1,-0.01179717,0.004539254,-0.007908805,-0.1247141,-0.04466506,-9.723613,0,0,45.49244,1,1,753,995
3088,119436145,1,-0.009478914,0.002905381,-0.009635418999999999,-0.1246015,-0.04824205,-9.737368999999999,0,0,45.49244,1,1,753,995
3091,119438886,1,-0.006117089,0.002276102,-0.008074407,-0.1155935,-0.03102994,-9.762559,0,0,45.49259,1,1,753,995
3126,119441975,1,-0.005354452,0.003416304,-0.003159022,-0.09892508999999999,-0.01644785,-9.77548,0,0,45.49259,1,1,753,995
3129,119444570,1,-0.006486111,0.005475117,0.0003010651,-0.08375257999999999,-0.007672918,-9.753386000000001,0,0,45.49259,1,1,753,995
3133,119446108,1,-0.005499194,0.007015929,0.0007789133,-0.06618308000000001,-0.008373739999999999,-9.723826000000001,0,0,45.49259,1,1,753,995
3136,119448706,1,-0.002404915,0.006403887,0.00181761,-0.045087,-0.009041125000000001,-9.711835000000001,0,0,45.49274,1,1,753,995
3171,119451342,1,-0.0009653355,0.005564427,0.002159857,-0.03563745,-0.007925150000000001,-9.721410000000001,0,0,45.49274,1,1,753,995
3174,119454087,1,0.003275449,0.004169174,0.0007118508,-0.02378225,0.002388107,-9.745908999999999,0,0,45.49274,1,1,753,995
3177,119456600,1,0.003215021,0.003819268,9.11574e-05,-0.01754752,0.02156489,-9.762231,0,0,45.49274,1,1,753,995
3183,119458950,1,0.002269759,0.002757325,-0.00239232,-0.006831395,0.04059382,-9.767379999999999,0,0,45.49274,1,1,753,995
3218,119461886,1,-0.0001758969,0.002773362,-0.004709371,-0.0108148,0.05016267,-9.757742,0,0,45.49292,1,1,753,995
3222,119464250,1,-0.003366671,0.003479775,-0.005906433,-0.01112109,0.05958968,-9.747586,0,0,45.49292,1,1,753,995
3226,119466911,1,-0.00586387,0.005268233,-0.005286712,-0.01902986,0.0609815,-9.743437,0,0,45.49292,1,1,753,995
3229,119468588,1,-0.007631338,0.007894732,-0.002027689,-0.03803868,0.04277944,-9.758946999999999,0,0,45.49292,1,1,753,995
3264,119471129,1,-0.00772668,0.008723916999999999,-0.0002836309,-0.04991581,0.02362068,-9.791551999999999,0,0,45.49311,1,1,753,995
3268,119474086,1,-0.00207869,0.008968848999999999,0.0008809283,-0.06841938,0.0008918528,-9.847124000000001,0,0,45.49311,1,1,753,995
3271,119476493,1,0.0002739406,0.007947045999999999,0.0002579057,-0.07602399999999999,-0.008668067,-9.879982,0,0,45.49311,1,1,753,995
3274,119479320,1,2.655332e-05,0.004746161,0.0002357269,-0.08393542,-0.02101451,-9.915956,0,0,45.49311,1,1,753,995
3309,119481485,1,-0.004336888,0.005432986,0.0002496371,-0.07190522000000001,-0.02183358,-9.921723999999999,0,0,45.49332,1,1,753,995
3312,119484390,1,-0.004949259,0.005592803,-0.0004763651,-0.05946631,-0.01855811,-9.912875,0,0,45.49332,1,1,753,995
3316,119487611,1,-0.003752034,0.004447241,-0.00186519,-0.040066,-0.01584208,-9.885139000000001,0,0,45.49332,1,1,753,995
3319,119489339,1,-0.003523353,0.004177224,-0.001694801,-0.025808,-0.01099615,-9.864305999999999,0,0,45.49332,1,1,753,995
3354,119492405,1,-0.003567242,0.00509116,-0.0005511416,-0.01283909,0.002029385,-9.842229,0,0,45.49332,1,1,753,995
3357,119494168,1,-0.002113208,0.006503682,-2.743303e-05,-0.005076999,0.008884649,-9.822901,0,0,45.49352,1,1,753,995
3361,119497290,1,0.0006254903,0.006356181,-0.0005147385,0.006392162,0.01396227,-9.802360999999999,0,0,45.49352,1,1,753,995
3364,119499543,1,0.001792083,0.005645175,0.0007862778,0.009614882999999999,0.01010468,-9.781826000000001,0,0,45.49352,1,1,753,995
3399,119501717,1,-0.001745275,0.003877701,0.004243235,0.007648591,-0.008821749,-9.756943,0,0,45.49352,1,1,753,995
3403,119505401,1,-0.003254704,0.002966919,0.006202787,-0.001808334,-0.0187358,-9.752305,0,0,45.49371,1,1,753,995
3406,119506641,1,-0.002243723,0.002595464,0.007463169,-0.01539855,-0.02124989,-9.755717000000001,0,0,45.49371,1,1,753,995
3409,119509618,1,-0.001076971,0.001871301,0.007452449,-0.0263073,-0.02906265,-9.758317,0,0,45.49371,1,1,753,995
3444,119513273,1,0.0005278564,-0.0006718017,0.006429774,-0.032823,-0.05066415,-9.757539,0,0,45.49371,1,1,753,995
3447,119515286,1,0.001730725,-0.003063955,0.004638134,-0.04895313,-0.07377831999999999,-9.736779,0,0,45.4939,1,1,753,995
3450,119517374,1,0.002197642,-0.002888606,0.004170144,-0.05952967,-0.08212165,-9.728699000000001,0,0,45.4939,1,1,753,995
3453,119519646,1,0.00373428,-0.001514084,0.002669861,-0.06213708,-0.08151512,-9.727376,0,0,45.4939,1,1,753,995
3488,119522795,1,0.004630372,0.0008139087,0.002299037,-0.05992285,-0.07311359000000001,-9.737041,0,0,45.4939,1,1,753,995
3491,119524839,1,0.001755821,0.002476637,0.003505173,-0.05538755,-0.06241251,-9.760975999999999,0,0,45.4939,1,1,753,995
3495,119527829,1,-0.003312819,0.003360975,0.002294768,-0.05408182,-0.05640919,-9.773915000000001,0,0,45.49409,1,1,753,995
3499,119529909,1,-0.004194796,-0.0008612275,-0.002104896,-0.04687275,-0.04567806,-9.754466000000001,0,0,45.49409,1,1,753,995
3534,119532566,1,-0.003259182,-0.003494755,-0.003245488,-0.03573594,-0.04019899,-9.733826000000001,0,0,45.49409,1,1,753,995
3538,119535323,1,-0.0005802374,-0.008921610999999999,-0.001082186,-0.01573952,-0.01577565,-9.701219999999999,0,0,45.49409,1,1,753,995
3542,119537345,1,0.0002517152,-0.01055973,0.0001611993,-0.00879024,-0.002583837,-9.674806999999999,0,0,45.49432,1,1,753,995
3545,119540394,1,0.0007925911,-0.01262078,0.00319195,-0.006082749,0.01506235,-9.637530999999999,0,0,45.49432,1,1,753,995
3580,119543032,1,-0.001531697,-0.007986959,0.004586314,-0.007490745,0.03216673,-9.606004,0,0,45.49432,1,1,753,995
3583,119545519,1,-0.002044978,-0.006230924,0.005056201,-0.01026466,0.03940484,-9.598439000000001,0,0,45.49432,1,1,753,995
3586,119548330,1,-0.00406977,-0.003750313,0.005937097,-0.01920986,0.03189776,-9.589626000000001,0,0,45.49456,1,1,753,995
3589,119550897,1,-0.004887159,-0.00320918,0.005733746,-0.02722929,0.0241691,-9.587006000000001,0,0,45.49456,1,1,753,995
3624,119553248,1,-0.002898485,-0.00150419,0.006040818,-0.04271043,0.01748125,-9.613806,0,0,45.49456,1,1,753,995
3627,119556007,1,0.004364872,-0.001782466,0.004102413,-0.05988442,0.003398654,-9.666717,0,0,45.49456,1,1,753,995
3631,119558510,1,0.005188313,-0.002129259,0.002713807,-0.06122355,-0.01230518,-9.704305,0,0,45.49456,1,1,753,995
3637,119561453,1,0.003828441,-0.003095972,0.0020745,-0.06407759,-0.04457991,-9.749855999999999,0,0,45.49483,1,1,753,995
3672,119564280,1,-0.0006359355,-0.00541648,0.00124803,-0.0590257,-0.07758801999999999,-9.799046000000001,0,0,45.49483,1,1,753,995
3676,119566623,1,-0.001882577,-0.00648238,0.0004149136,-0.05255981,-0.09990860999999999,-9.830113000000001,0,0,45.49483,1,1,753,995
3679,119568952,1,-0.001821588,-0.007171374,-0.0003312614,-0.05056601,-0.1093326,-9.854117,0,0,45.49483,1,1,753,995
3682,119571488,1,0.0001596503,-0.005544686,-6.712365000000001e-05,-0.04923573,-0.0964931,-9.853263,0,0,45.49513,1,1,753,995
3717,119574409,1,0.002368488,-0.003850304,0.0002723873,-0.04220805,-0.05948561,-9.839028000000001,0,0,45.49513,1,1,753,995
3720,119577049,1,0.005645117,-0.003479238,0.001653789,-0.02718405,-0.03129495,-9.822297000000001,0,0,45.49513,1,1,753,995
3724,119579133,1,0.005040326,-0.002439296,0.002245993,-0.01433498,-0.02019004,-9.812125999999999,0,0,45.49513,1,1,753,995
3727,119581467,1,0.0003139103,-0.0002524335,0.001950842,-0.009876563,-0.01390745,-9.805833,0,0,45.49542,1,1,753,995
3762,119583816,1,-0.006086537,0.001585703,0.0008951706,-0.008096633000000001,-0.03001331,-9.789695999999999,0,0,45.49542,1,1,753,995
3765,119586827,1,-0.007839754000000001,0.002622999,-0.0003919997,-0.01426911,-0.04514626,-9.780137,0,0,45.49542,1,1,753,995
3770,119589609,1,-0.008054914,0.005662651,-0.005263167,-0.02979764,-0.07070065,-9.767141000000001,0,0,45.49542,1,1,753,995
3773,119591537,1,-0.007766963,0.00523104,-0.006595999,-0.04274293,-0.08420909,-9.773304,0,0,45.49542,1,1,753,995
3808,119593856,1,-0.006833906,0.003402766,-0.009464957,-0.05842025,-0.09467320999999999,-9.805386,0,0,45.49572,1,1,753,995
3811,119596414,1,-0.007288279,-0.00077849,-0.0100615,-0.06570614,-0.08807400999999999,-9.830795999999999,0,0,45.49572,1,1,753,995
3814,119599870,1,-0.00475934,-0.003420378,-0.008280088,-0.08440211,-0.05264166,-9.863719,0,0,45.49572,1,1,753,995
3817,119602049,1,-0.0003937087,-0.001715082,-0.003293178,-0.09611633,-0.02006102,-9.891004000000001,0,0,45.49572,1,1,753,995
3852,119604578,1,0.003992105,0.002397097,0.001191685,-0.09614006999999999,0.02985694,-9.939914999999999,0,0,45.49605,1,1,753,995
3855,119607013,1,0.004955018,0.003803384,0.001210557,-0.08630138,0.04071982,-9.939621000000001,0,0,45.49605,1,1,753,995
3859,119610544,1,0.005318325,0.005280071,-0.0001091414,-0.06662324999999999,0.04594369,-9.927194,0,0,45.49605,1,1,753,995
3862,119612951,1,0.004200853,0.005299271,-0.002399605,-0.04043387,0.03854352,-9.894591999999999,0,0,45.49605,1,1,753,995
3867,119614935,1,-0.0001490919,0.004923742,-0.003118398,-0.03274086,0.02328092,-9.876056,0,0,45.49638,1,1,753,995
3902,119617395,1,-0.005319121,0.006858258,-0.004302328,-0.02866942,-0.006690273,-9.855665,0,0,45.49638,1,1,753,995
3905,119620236,1,-0.008728417,0.008322556,-0.007118789,-0.02822197,-0.02055433,-9.849071,0,0,45.49638,1,1,753,995
3908,119628550,1,-0.00668271,0.005299697,-0.006050454,0.009834539,-0.07667332,-9.84263,0,0,45.4967,1,1,753,995
3944,119631514,1,-0.006321039,0.003589892,-0.004694869,0.0223263,-0.07641206,-9.829155,0,0,45.4967,1,1,753,995
3949,119633955,1,-0.007183301,-0.0005344232,-0.002651513,0.02919597,-0.06919134,-9.796782,0,0,45.4967,1,1,753,995
3952,119636793,1,-0.006219981,-0.000805216,-0.002564247,0.02268904,-0.06435414,-9.786208,0,0,45.4967,1,1,753,995
3955,119638678,1,-0.001890213,-0.0002657427,-0.002046088,0.001512664,-0.05708862,-9.762575,0,0,45.49702,1,1,753,995
3991,119641307,1,0.0014422,0.0001216365,-0.0006660466,-0.01044083,-0.0497455,-9.753812,0,0,45.49702,1,1,753,995
3995,119644038,1,0.001388516,-0.0007338825,-0.0005190907,-0.02118192,-0.04188458,-9.767597,0,0,45.49702,1,1,753,995
3998,119646480,1,-0.003327061,-9.38776e-05,-0.005769625,-0.0291543,-0.0350324,-9.785145999999999,0,0,45.49702,1,1,753,995
4001,119649028,1,-0.003065882,0.002709118,-0.006628685,-0.02192714,-0.03849886,-9.806471,0,0,45.49734,1,1,753,995
4037,119652220,1,-0.002083204,0.002128418,-0.005242082,-0.01213321,-0.03184308,-9.823406,0,0,45.49734,1,1,753,995
4040,119654047,1,-0.002317575,-0.003156075,-0.0002250198,-0.008894054,-0.03118841,-9.821781,0,0,45.49734,1,1,753,995
4043,119656064,1,-0.003226746,-0.004686261,0.0002917185,-0.01056982,-0.04012727,-9.803860999999999,0,0,45.49734,1,1,753,995
4046,119659400,1,-0.004855679,-0.005863966,0.001029127,-0.01458595,-0.04801802,-9.753043,0,0,45.49765,1,1,753,995
4081,119662144,1,-0.001402195,-0.002173321,0.002332167,-0.02318812,-0.04201512,-9.711494,0,0,45.49765,1,1,753,995
4089,119664612,1,0.00101909,-0.001733747,0.002020882,-0.03840696,-0.02624183,-9.696895,0,0,45.49765,1,1,753,995
4092,119666690,1,0.004330427,-0.00293852,0.0004822038,-0.06939635,-0.009635094,-9.680600999999999,0,0,45.49765,1,1,753,995
4096,119669942,1,0.006996041,-0.005689462,-0.001718306,-0.07006931,-0.01182428,-9.670588,0,0,45.49765,1,1,753,995
4131,119672637,1,0.00896953,-0.00579753,-0.003034819,-0.04215592,-0.00741718,-9.647002000000001,0,0,45.49796,1,1,753,995
4134,119675598,1,0.007786848,-0.000793479,-0.0008862301,-0.004462277,-0.002423147,-9.63838,0,0,45.49796,1,1,753,995
4137,119677499,1,0.007076604,0.001120548,0.0005145285000000001,0.02226255,-0.004282926,-9.649049,0,0,45.49796,1,1,753,995
4140,119679927,1,0.00459564,0.004463408,0.001316767,0.04502975,0.00354228,-9.690182,0,0,45.49796,1,1,753,995
4175,119682852,1,0.002304728,0.005992057,0.001613209,0.05416949,0.01275163,-9.730373,0,0,45.49826,1,1,753,995
4178,119684870,1,0.002738487,0.007328362,-0.0008857498,0.05040293,0.01044635,-9.799849,0,0,45.49826,1,1,753,995
4181,119687853,1,0.00434998,0.005992321,-0.003483215,0.04118644,0.005503541,-9.838129,0,0,45.49826,1,1,753,995
4185,119689935,1,0.004159207,0.002458605,-0.006802236,0.01734892,0.009563222,-9.875575,0,0,45.49826,1,1,753,995
4220,119693020,1,0.003382549,0.0018303,-0.008011064,-0.003881545,0.01650118,-9.893656999999999,0,0,45.49855,1,1,753,995
4223,119694933,1,-0.0001076717,0.0009724732,-0.005240653,-0.03550329,0.01261293,-9.895223,0,0,45.49855,1,1,753,995
4226,119697878,1,-0.0002080121,0.001147282,-0.003681529,-0.05211158,0.004472907,-9.885933,0,0,45.49855,1,1,753,995
4229,119700029,1,0.001315421,0.00210084,-0.001731267,-0.06491711999999999,-0.02305795,-9.891717999999999,0,0,45.49855,1,1,753,995
4264,119702949,1,0.001388389,0.002617386,0.0001005538,-0.07318837,-0.04313405,-9.893507,0,0,45.49855,1,1,753,995
4268,119706067,1,-0.001399177,0.003440045,0.002065951,-0.08874158,-0.06110076,-9.891173999999999,0,0,45.49881,1,1,753,995
4271,119707346,1,-0.006121799,0.004743507,0.001590394,-0.08678132,-0.09641945,-9.891207,0,0,45.49881,1,1,753,995
4274,119709886,1,-0.01038079,0.005763902,-0.0002537494,-0.08734243999999999,-0.1173925,-9.877069000000001,0,0,45.49881,1,1,753,995
4309,119712627,1,-0.01064397,0.00631272,-0.0008090289,-0.09203260000000001,-0.1268339,-9.861459999999999,0,0,45.49881,1,1,753,995
4313,119714971,1,-0.004486717,0.006036321,0.002202312,-0.08468114,-0.1287493,-9.855826,0,0,45.49905,1,1,753,995
4316,119717548,1,-0.002667437,0.005918548,0.0035174,-0.07323604,-0.1211249,-9.847536,0,0,45.49905,1,1,753,995
4319,119720259,1,-0.0001984494,0.003685268,0.008994446,-0.07559407,-0.08367049,-9.874313000000001,0,0,45.49905,1,1,753,995
4354,119723093,1,-0.0006176953999999999,0.002176338,0.01091891,-0.08116907,-0.04875491,-9.896354000000001,0,0,45.49905,1,1,753,995
4357,119726097,1,-0.001856389,0.002164922,0.01013889,-0.08108638,-0.02915914,-9.902473000000001,0,0,45.49929,1,1,753,995
4360,119727340,1,-0.004433963,0.0009963101000000001,0.005783726,-0.07491641,-0.0005139545,-9.891092,0,0,45.49929,1,1,753,995
4363,119729938,1,-0.005257358,-0.001085053,0.004335893,-0.07492259,0.002551263,-9.876125,0,0,45.49929,1,1,753,995
4398,119732539,1,-0.005237612,-0.004024027,0.001291072,-0.0850733,-0.01167567,-9.867772,0,0,45.49929,1,1,753,995
4402,119735410,1,-0.004329696,-0.00336886,-0.002084862,-0.09080958,-0.01477331,-9.860612,0,0,45.49929,1,1,753,995
4405,119737921,1,-0.003856002,-0.003133999,-0.002685446,-0.09483902,-0.01939685,-9.855570999999999,0,0,45.49957,1,1,753,995
4408,119739997,1,-0.006115643,-0.002200547,-0.0007517302,-0.08984839999999999,-0.03424301,-9.849221,0,0,45.49957,1,1,753,995
4443,119742553,1,-0.006221056,-0.001713028,-0.0005015348,-0.07946718,-0.03472137,-9.836721000000001,0,0,45.49957,1,1,753,995
4447,119745373,1,-0.006143262,-0.0006130462,-0.001309691,-0.05083838,-0.02401386,-9.822478,0,0,45.49957,1,1,753,995
4450,119747701,1,-0.004747632,0.0004507919,-0.001146958,-0.03135177,-0.01676307,-9.816167999999999,0,0,45.49987,1,1,753,995
4453,119750523,1,-0.003014126,0.001128417,6.41846e-05,-0.01330715,-0.001692237,-9.807286,0,0,45.49987,1,1,753,995
4488,119753077,1,-0.001893228,0.002117174,0.0009151503,-0.003113513,0.01903952,-9.795748,0,0,45.49987,1,1,753,995
4492,119755543,1,0.0006893912,0.002569797,0.001692818,0.006497714,0.02703777,-9.792999999999999,0,0,45.49987,1,1,753,995
4495,119757956,1,0.001468823,0.001869429,0.001167603,0.01013637,0.03570735,-9.783554000000001,0,0,45.50019,1,1,753,995
4498,119760543,1,-0.0007589475,0.0004865825,-0.002500589,-0.002236359,0.03497237,-9.769488000000001,0,0,45.50019,1,1,753,995
4533,119763700,1,-0.0017021,0.001238376,-0.003550795,-0.03321556,0.02876381,-9.735158999999999,0,0,45.50019,1,1,753,995
4539,119766058,1,-0.002992386,0.002559021,-0.001787962,-0.06017495,0.04233398,-9.717720999999999,0,0,45.50019,1,1,753,995
4542,119767931,1,-0.004900938,0.0027188,-0.0002124687,-0.06315817,0.05256639,-9.720115,0,0,45.50019,1,1,753,995
4546,119770575,1,-0.006013564,0.002416603,0.0001178236,-0.05272124,0.05521008,-9.717399,0,0,45.50053,1,1,753,995
4581,119772942,1,-0.008704023999999999,-0.0007481539,-0.001740671,-0.03482879,0.06431779,-9.728730000000001,0,0,45.50053,1,1,753,995
4585,119775747,1,-0.008579029,-0.001309845,-0.001933487,-0.01824994,0.05779194,-9.736344000000001,0,0,45.50053,1,1,753,995
4588,119778476,1,-0.006521984,-0.001483445,-0.002146151,-0.00407572,0.03026285,-9.739405,0,0,45.50053,1,1,753,995
4591,119780829,1,-0.0006198829,-0.002580844,-0.0005935577,-0.008382255,0.01226228,-9.752533,0,0,45.50089,1,1,753,995
4626,119783301,1,0.001709726,-0.002256149,0.001412955,-0.01937244,-0.005099819,-9.784744999999999,0,0,45.50089,1,1,753,995
4629,119786101,1,-0.003490059,0.002541329,-0.001039481,-0.02935252,-0.01964061,-9.818422,0,0,45.50089,1,1,753,995
4632,119788953,1,-0.006622457,0.006361195,-0.003679405,-0.02613164,-0.02516217,-9.837823999999999,0,0,45.50089,1,1,753,995
4635,119791385,1,-0.008777444000000001,0.006892907,-0.003373351,-0.02165372,-0.009452709,-9.848459999999999,0,0,45.50126,1,1,753,995
4670,119793552,1,-0.009518436999999999,0.004774367,-0.00181553,-0.02471122,0.02219635,-9.825958,0,0,45.50126,1,1,753,995
4674,119796847,1,-0.008769954999999999,0.005229868,-0.001777754,-0.02336296,0.04574255,-9.809511000000001,0,0,45.50126,1,1,753,995
4677,119799252,1,-0.007709253,0.007999464,-0.002326258,-0.02753843,0.06010234,-9.810924,0,0,45.50126,1,1,753,995
4680,119801918,1,-0.005863964,0.009178308,-0.00366428,-0.03526203,0.05871914,-9.838602,0,0,45.50126,1,1,753,995
4715,119804917,1,-0.004057474,0.008039177,-0.004306521,-0.04489122,0.04227919,-9.892118,0,0,45.50166,1,1,753,995
4719,119806603,1,-0.00476157,0.007507563,-0.004732762,-0.05567066,0.03919376,-9.952042,0,0,45.50166,1,1,753,995
4722,119809503,1,-0.005137627,0.007105495,-0.003802652,-0.06347016,0.03864719,-9.977467000000001,0,0,45.50166,1,1,753,995
4726,119812075,1,-0.001463825,0.006622153,-0.001835772,-0.08140747,0.02700468,-9.983179,0,0,45.50166,1,1,753,995
4761,119814949,1,0.003420278,0.005237747,0.001181211,-0.1046834,0.0113571,-9.949334,0,0,45.50206,1,1,753,995
4764,119817343,1,0.006042575,0.003380754,0.005825864,-0.1185121,0.005422586,-9.918283000000001,0,0,45.50206,1,1,753,995
4769,119819715,1,0.006949998,0.002962993,0.007686607,-0.1292708,0.003382649,-9.885292,0,0,45.50206,1,1,753,995
4772,119821722,1,0.00736778,0.002513007,0.00652642,-0.1379003,0.01116362,-9.843897,0,0,45.50206,1,1,753,995
4807,119824331,1,0.005883893,0.00264313,0.004070689,-0.136933,0.02261713,-9.827545000000001,0,0,45.50248,1,1,753,995
4811,119834108,1,-0.0005016928,-0.006399809,-0.005587303,-0.09707892999999999,0.06234051,-9.743568,0,0,45.50248,1,1,753,995
4846,119836718,1,0.002765714,-0.003430685,-0.002735352,-0.09353391,0.06995653,-9.699636,0,0,45.50287,1,1,753,995
4850,119839757,1,0.005461247,0.001834079,-0.00222796,-0.09502719,0.07353687,-9.677133,0,0,45.50287,1,1,753,995
4853,119841693,1,0.005540011,0.003914561,-0.001819147,-0.09748833,0.06611955999999999,-9.658913999999999,0,0,45.50287,1,1,753,995
4856,119844278,1,0.004347369,0.005762092,0.001688964,-0.0870017,0.04816676,-9.649588,0,0,45.50287,1,1,753,995
4891,119847364,1,0.003984069,0.003940376,0.006582035,-0.06063845,0.02941263,-9.662077,0,0,45.50327,1,1,753,995
4895,119848963,1,0.004606209,0.002645094,0.007580401,-0.04491537,0.01655594,-9.675416,0,0,45.50327,1,1,753,995
4898,119852299,1,0.005588636,0.001452566,0.008027685999999999,-0.0335435,-0.002576926,-9.676550000000001,0,0,45.50327,1,1,753,995
4901,119854291,1,0.005822761,0.0002043657,0.009134323,-0.02945486,-0.02719404,-9.676595000000001,0,0,45.50327,1,1,753,995
4936,119856937,1,0.003889592,-0.001336408,0.009126669,-0.03098159,-0.06442005000000001,-9.705614000000001,0,0,45.50365,1,1,753,995
4941,119859703,1,-0.0002678504,-0.002284627,0.007646962,-0.03613227,-0.07021966,-9.740811000000001,0,0,45.50365,1,1,753,995
4944,119861506,1,-0.003624469,-0.002049468,0.00591452,-0.04135115,-0.06749921,-9.783087999999999,0,0,45.50365,1,1,753,995
4947,119864702,1,-0.004743817,-0.001394005,0.004926329,-0.03647234,-0.05217743,-9.835089999999999,0,0,45.50365,1,1,753,995
4982,119866869,1,-0.004897023,0.0009612924,0.002906616,-0.02702708,-0.0474348,-9.876018999999999,0,0,45.50365,1,1,753,995
4988,119870347,1,-0.001358054,0.001122296,0.0015551,-0.0270433,-0.05324503,-9.894149000000001,0,0,45.50402,1,1,753,995
4991,119872343,1,0.0004496932,0.0008175932,0.001278054,-0.02860423,-0.05945182,-9.883259000000001,0,0,45.50402,1,1,753,995
4995,119875369,1,0.003314552,-0.0005339007,0.003534239,-0.02891155,-0.07370566000000001,-9.845283999999999,0,0,45.50402,1,1,753,995
5030,119878153,1,0.004736571,-0.002438062,0.007453043,-0.037951,-0.0952264,-9.724012,0,0,45.50402,1,1,753,995
5034,119880525,1,0.001516304,-0.001847815,0.00565385,-0.04453256,-0.1032496,-9.673087000000001,0,0,45.50438,1,1,753,995
5037,119883485,1,6.904002e-05,0.0001837046,0.003445145,-0.04474606,-0.09577075,-9.633585,0,0,45.50438,1,1,753,995
5040,119885579,1,0.0005890923,0.00134226,0.002680682,-0.0451985,-0.08531046,-9.630905,0,0,45.50438,1,1,753,995
5075,119888488,1,0.003069915,0.001223811,0.001953159,-0.04518357,-0.07494029000000001,-9.656188999999999,0,0,45.50438,1,1,753,995
5078,119890559,1,0.003325451,0.0006851055,0.002065943,-0.04524691,-0.0751976,-9.696275,0,0,45.50473,1,1,753,995
5081,119892921,1,0.001639195,-0.002015928,0.004445724,-0.04383532,-0.07729961,-9.739568,0,0,45.50473,1,1,753,995
5084,119896035,1,-0.002115516,-0.006652986,0.006273738,-0.04226591,-0.07878873,-9.747994,0,0,45.50473,1,1,753,995
5119,119899307,1,-0.005148559,-0.003615355,0.004762543,-0.04647773,-0.06323585,-9.768879999999999,0,0,45.50473,1,1,753,995
5123,119900954,1,-0.0040241,-0.001570823,0.0046753,-0.05072771,-0.05072602,-9.785295,0,0,45.50509,1,1,753,995
5126,119903716,1,-0.0004771737,0.001986366,0.004006747,-0.05128392,-0.02871939,-9.804359,0,0,45.50509,1,1,753,995
5130,119906714,1,0.0007466161,0.001641257,0.002190277,-0.05043335,0.009317913000000001,-9.831804,0,0,45.50509,1,1,753,995
5165,119909101,1,0.002507844,0.000393651,0.0007333303999999999,-0.04672162,0.03786727,-9.846704000000001,0,0,45.50509,1,1,753,995
5168,119912801,1,0.002094958,0.001926968,0.003466128,-0.04541625,0.05630834,-9.835345999999999,0,0,45.50545,1,1,753,995
5171,119914102,1,0.001704154,0.002295345,0.003503575,-0.04546071,0.06472617,-9.830387,0,0,45.50545,1,1,753,995
5174,119916793,1,0.001940345,0.002743032,0.002452683,-0.04709242,0.06686019,-9.813580999999999,0,0,45.50545,1,1,753,995
5209,119920037,1,0.001997821,0.001152865,0.002603834,-0.05023884,0.05985418,-9.798128999999999,0,0,45.50545,1,1,753,995
5213,119921912,1,0.001869741,4.84458e-05,0.002751563,-0.05628976,0.04144775,-9.779654000000001,0,0,45.50545,1,1,753,995
5216,119924802,1,0.002573704,0.002155958,0.001116739,-0.05630728,0.01409752,-9.76721,0,0,45.50582,1,1,753,995
5219,119926614,1,0.001365109,0.003256776,-0.0003576498,-0.04908776,-0.01825585,-9.762592,0,0,45.50582,1,1,753,995
5256,119929339,1,-0.0003333279,0.003030472,-0.0007722736,-0.04046323,-0.02976398,-9.762528,0,0,45.50582,1,1,753,995
5260,119932481,1,-0.0002106284,0.001549622,0.001384203,-0.03392343,-0.02919199,-9.781203,0,0,45.50582,1,1,753,995
5263,119933927,1,-0.001062547,0.001316922,0.002409803,-0.03125285,-0.02864147,-9.794468,0,0,45.50618,1,1,753,995
5266,119937145,1,-0.007194716,0.003422433,0.001391189,-0.0221469,-0.03576555,-9.797396000000001,0,0,45.50618,1,1,753,995
5301,119939815,1,-0.009849382,0.002999762,0.001157702,-0.02852846,-0.03653804,-9.777206,0,0,45.50618,1,1,753,995
5304,119942160,1,-0.009926196,0.002680166,0.0004805238,-0.02960169,-0.03403892,-9.764010000000001,0,0,45.50618,1,1,753,995
5307,119945320,1,-0.003664358,0.004223988,-0.0005778868,-0.02449563,-0.04315588,-9.779639,0,0,45.50653,1,1,753,995
5310,119947347,1,-0.002249844,0.005517451,-0.001633025,-0.01621387,-0.03817116,-9.807657000000001,0,0,45.50653,1,1,753,995
5345,119950206,1,-0.0007209469,0.005907615,-0.005216786,-0.01411037,-0.02861985,-9.840593,0,0,45.50653,1,1,753,995
5349,119952350,1,-0.001142179,0.004689119,-0.006795596,-0.02164803,-0.03100425,-9.85971,0,0,45.50653,1,1,753,995
5352,119954598,1,-0.002057751,0.004553077,-0.00133983,-0.03922321,-0.03273796,-9.875641999999999,0,0,45.50653,1,1,753,995
5355,119957816,1,-0.003530188,0.004730589,0.005002652,-0.04564975,-0.03734546,-9.88448,0,0,45.50688,1,1,753,995
5390,119960809,1,-0.004759077,0.004019674,0.008099735,-0.0505208,-0.06087733,-9.90939,0,0,45.50688,1,1,753,995
5393,119962950,1,-0.004546518,0.002249062,0.007422445,-0.03978573,-0.06998302000000001,-9.908258,0,0,45.50688,1,1,753,995
5396,119965488,1,-0.00144966,-0.0006259971,0.004241778,-0.03113226,-0.0729582,-9.901909,0,0,45.50688,1,1,753,995
5399,119967979,1,0.001274424,-0.005305367,0.0007078515,-0.02194425,-0.07096079,-9.871881,0,0,45.50722,1,1,753,995
5434,119970942,1,0.00261292,-0.007175295,-0.001000266,-0.01310521,-0.06451206,-9.851103,0,0,45.50722,1,1,753,995
5441,119973702,1,0.003078758,-0.004295786,-0.0003549059,-0.002997147,-0.06245307,-9.849030000000001,0,0,45.50722,1,1,753,995
5444,119975382,1,0.003138145,-0.001522961,-0.0006158942,0.009625682,-0.05309523,-9.849268,0,0,45.50722,1,1,753,995
5448,119978236,1,0.003086196,0.001489704,0.0002996116,0.03145164,-0.03372999,-9.883205999999999,0,0,45.50755,1,1,753,995
5483,119981065,1,0.001255877,-0.002169797,0.002321969,0.04344797,-0.01282442,-9.937987,0,0,45.50755,1,1,753,995
5486,119983042,1,-0.0002520209,-0.003119414,0.002824175,0.04445823,-0.001406612,-9.956217000000001,0,0,45.50755,1,1,753,995
5491,119986024,1,-0.00199962,-0.00360047,-0.001603446,0.04214014,0.006597486,-9.952327,0,0,45.50755,1,1,753,995
5494,119987860,1,-0.001184707,-0.005002479,-0.003027886,0.03509912,0.01290916,-9.914713000000001,0,0,45.50755,1,1,753,995
5529,119990600,1,-0.000892102,-0.008265026,-0.00276846,0.01920861,0.003202878,-9.879778,0,0,45.50788,1,1,753,995
5533,119992891,1,-0.001484544,-0.008087732,-0.00143361,0.005532827,-0.01814628,-9.849323999999999,0,0,45.50788,1,1,753,995
5536,119995701,1,-0.0009794694000000001,-0.00698179,-0.0006892498,-0.001009716,-0.04005441,-9.817532999999999,0,0,45.50788,1,1,753,995
5539,119998353,1,0.0007997931,-0.00481817,0.0006488106,0.008291543,-0.06233,-9.779968999999999,0,0,45.50788,1,1,753,995
5574,120001309,1,0.002286831,-0.004588401,0.000417599,0.03289606,-0.06674898999999999,-9.751544000000001,0,0,45.5082,1,1,753,995
5578,120003688,1,0.002680928,-0.004505817,-0.0001476666,0.03382602,-0.06474634,-9.763502000000001,0,0,45.5082,1,1,753,995
5583,120006325,1,0.005741331,-0.003532989,-0.00246339,0.01929503,-0.04827693,-9.803969,0,0,45.5082,1,1,753,995
5586,120008694,1,0.006144153,-0.00262895,-0.004195661,0.01249856,-0.03548443,-9.814484,0,0,45.5082,1,1,753,995
5621,120017486,1,0.006704859,0.006337432,-0.00465891,-0.0338383,0.01833103,-9.839821000000001,0,0,45.50852,1,1,753,995
5624,120019879,1,0.007870013,0.004532671,0.000526752,-0.04196633,0.01859932,-9.849938999999999,0,0,45.50852,1,1,753,995
5659,120023580,1,0.008322955999999999,6.66309e-05,0.006454846,-0.04882311,0.01183179,-9.864795000000001,0,0,45.50882,1,1,753,995
5662,120026240,1,0.007873221,-0.003453351,0.01028325,-0.06366260999999999,-0.007966213999999999,-9.882432,0,0,45.50882,1,1,753,995
5665,120027812,1,0.006827289,-0.004172188,0.01164285,-0.08337246,-0.03065721,-9.892814,0,0,45.50882,1,1,753,995
5669,120030218,1,0.005829191,-0.003615567,0.0109399,-0.08793438000000001,-0.0380008,-9.898101,0,0,45.50882,1,1,753,995
5704,120032888,1,0.002784699,-0.003510222,0.008854089000000001,-0.08534206,-0.04610794,-9.912679000000001,0,0,45.50907,1,1,753,995
5707,120035797,1,0.0007001357,-0.001516403,0.005741043,-0.08433277,-0.04755819,-9.920095,0,0,45.50907,1,1,753,995
5710,120038210,1,0.001492802,0.002177891,0.004295432,-0.09219731,-0.03677431,-9.939657,0,0,45.50907,1,1,753,995
5714,120039915,1,0.002915182,0.005353509,0.004692316,-0.09998029999999999,-0.01743144,-9.960362999999999,0,0,45.50907,1,1,753,995
5749,120042831,1,0.001578774,0.005222761,0.003825394,-0.1122827,-0.0139037,-9.995837999999999,0,0,45.50907,1,1,753,995
5752,120045332,1,0.0008130769,0.003996986,0.002847677,-0.1144022,-0.02295199,-10.00434,0,0,45.5093,1,1,753,995
5755,120047824,1,0.0006357343,0.0002579066,0.002013882,-0.1068323,-0.02323998,-9.982869000000001,0,0,45.5093,1,1,753,995
5758,120050414,1,0.001433115,-0.001157768,0.001482281,-0.09539116,-0.01848033,-9.964585,0,0,45.5093,1,1,753,995
5793,120053366,1,0.0001057777,-0.003612639,0.002257934,-0.07749034,-0.01692036,-9.923337999999999,0,0,45.5093,1,1,753,995
5796,120055273,1,-0.004399316,-0.005340945,0.00360032,-0.06546109,-0.01990463,-9.89104,0,0,45.50953,1,1,753,995
5799,120058336,1,-0.007580538,-0.004286998,0.005038305,-0.05363409,-0.01398593,-9.84249,0,0,45.50953,1,1,753,995
5803,120060391,1,-0.008311167,-0.003567553,0.00620339,-0.05134668,-0.00511954,-9.816656999999999,0,0,45.50953,1,1,753,995
5838,120063081,1,-0.006724579,-0.00170189,0.007958606,-0.05367468,0.01194739,-9.812830999999999,0,0,45.50953,1,1,753,995
5841,120066063,1,-0.00762694,-0.001023348,0.004060606,-0.06502485,0.0230864,-9.824598,0,0,45.50953,1,1,753,995
5844,120067965,1,-0.00774156,0.0002486799,-0.0005470018,-0.09170621,0.011557,-9.838015,0,0,45.50974,1,1,753,995
5847,120070994,1,-0.007771668,0.001391537,-0.004620021,-0.1007564,-0.01362099,-9.8203,0,0,45.50974,1,1,753,995
5882,120073363,1,-0.006693745,0.002013817,-0.006091262,-0.1014388,-0.05143792,-9.7752,0,0,45.50974,1,1,753,995
5888,120076234,1,-0.004457047,0.002425389,-0.003703643,-0.09390695,-0.06304836,-9.755801,0,0,45.50974,1,1,753,995
5891,120079104,1,-0.002844085,0.002081018,-0.0006792092,-0.0923498,-0.08169542,-9.73922,0,0,45.50997,1,1,753,995
5895,120081513,1,-0.002781383,0.002086946,6.678704e-05,-0.09036317000000001,-0.09740902999999999,-9.722037,0,0,45.50997,1,1,753,995
5930,120084612,1,-0.003911023,0.00110622,-0.0009582440999999999,-0.07528131,-0.1133478,-9.726486,0,0,45.50997,1,1,753,995
5934,120086720,1,-0.007398268,-0.002112324,-0.001214345,-0.06115049,-0.1091623,-9.7356,0,0,45.50997,1,1,753,995
5937,120089350,1,-0.009530131000000001,-0.003355088,-0.0006690249,-0.05631239,-0.1107655,-9.749579000000001,0,0,45.51022,1,1,753,995
5941,120092119,1,-0.01100925,-0.005110889,-0.002165602,-0.060196,-0.1087361,-9.765401000000001,0,0,45.51022,1,1,753,995
5976,120095306,1,-0.00773926,-0.004346045,-0.00343022,-0.08013175,-0.08650521,-9.778516,0,0,45.51022,1,1,753,995
5979,120097157,1,-0.00573226,-0.002850865,-0.003238649,-0.08602978,-0.06486450000000001,-9.786645,0,0,45.51022,1,1,753,995
5982,120099597,1,-0.003229677,0.0003650113,-0.002015975,-0.09282236000000001,-0.04641668,-9.781544,0,0,45.51049,1,1,753,995
5985,120102249,1,-0.002946218,0.00111905,-0.00249605,-0.09772403,-0.04086803,-9.785589999999999,0,0,45.51049,1,1,753,995
6020,120105414,1,-0.005311743,0.002626565,-0.003388156,-0.08284780999999999,-0.0360659,-9.808157,0,0,45.51049,1,1,753,995
6023,120107710,1,-0.007205154,0.002710749,-0.004168252,-0.06594940000000001,-0.03903624,-9.818217000000001,0,0,45.51049,1,1,753,995
6026,120109827,1,-0.009596996,0.00284973,-0.003931388,-0.04708304,-0.03345887,-9.822073,0,0,45.51078,1,1,753,995
6030,120112293,1,-0.007083,0.0008723498,-0.001899488,-0.04104788,-0.02452383,-9.840444,0,0,45.51078,1,1,753,995
6065,120114855,1,-0.002942851,-0.001066861,0.0001040137,-0.03312146,-0.02889744,-9.857412,0,0,45.51078,1,1,753,995
6068,120117707,1,-0.002361029,-0.001318232,0.0005204616,-0.03124436,-0.04259126,-9.853021999999999,0,0,45.51078,1,1,753,995
6071,120120094,1,-0.004110354,-0.001204552,-0.002531628,-0.03564079,-0.05186806,-9.852570999999999,0,0,45.51078,1,1,753,995
6074,120122290,1,-0.004395397,-0.001678497,-0.005408,-0.04691024,-0.05015074,-9.865886,0,0,45.5111,1,1,753,995
6109,120124849,1,-0.004465979,-0.002617606,-0.009608499,-0.06477951999999999,-0.0599607,-9.885529999999999,0,0,45.5111,1,1,753,995
6112,120127380,1,-0.004448012,-0.002921897,-0.009270478,-0.07476314000000001,-0.06670302,-9.902652,0,0,45.5111,1,1,753,995
6115,120130821,1,-0.003899798,-0.002538602,-0.007604785,-0.07802162999999999,-0.07551031,-9.926205,0,0,45.5111,1,1,753,995
6119,120133375,1,-0.001357254,-0.002417446,-0.004171915,-0.06911802,-0.08451678999999999,-9.930914,0,0,45.51144,1,1,753,995
6154,120135800,1,0.001023789,0.0001079543,-0.004596628,-0.05311171,-0.1106873,-9.909542,0,0,45.51144,1,1,753,995
6157,120138528,1,0.0004295461,0.0007394547,-0.005919857,-0.05070136,-0.1129604,-9.890836,0,0,45.51144,1,1,753,995
6160,120141439,1,-0.0003787814,0.002399145,-0.004703727,-0.05463523,-0.1006769,-9.867974,0,0,45.51144,1,1,753,995
6163,120143516,1,-0.0008218967,0.004398865,-0.00361789,-0.05806415,-0.08448403,-9.8651,0,0,45.5118,1,1,753,995
6198,120146562,1,6.054813e-07,0.01153038,-0.001769332,-0.06636127,-0.0535483,-9.85867,0,0,45.5118,1,1,753,995
6201,120148654,1,0.0003209424,0.0116018,-0.002575844,-0.07596856,-0.03575301,-9.839746,0,0,45.5118,1,1,753,995
6204,120150918,1,-1.149848e-06,0.009004201,-0.005827803,-0.08244389000000001,-0.01320804,-9.802167000000001,0,0,45.5118,1,1,753,995
6208,120153850,1,-7.306352e-06,0.004444572,-0.007710293,-0.07788374000000001,-0.003701511,-9.783707,0,0,45.5118,1,1,753,995
6243,120156513,1,-0.0001460647,0.001422718,-0.007619658,-0.06186105,-0.004442341,-9.764049,0,0,45.51219,1,1,753,995
6247,120159076,1,0.001764781,8.426736e-05,-0.005720494,-0.0423754,-0.0460529,-9.751970999999999,0,0,45.51219,1,1,753,995
6250,120161332,1,0.005590823,-0.0004312334,-0.005282864,-0.03299766,-0.07058681999999999,-9.729755000000001,0,0,45.51219,1,1,753,995
6254,120164646,1,0.007125066,0.0004418121,-0.004032994,-0.02383473,-0.08345227,-9.715401,0,0,45.51219,1,1,753,995
6289,120167191,1,0.006561152,0.001306843,-0.002236019,-0.02247208,-0.08751053,-9.747513,0,0,45.51259,1,1,753,995
6292,120170094,1,0.004916826,0.001920679,-0.00240693,-0.02361292,-0.09352733000000001,-9.760524999999999,0,0,45.51259,1,1,753,995
6295,120172282,1,0.003391605,6.656584e-05,-0.003798692,-0.03880238,-0.1031226,-9.764167,0,0,45.51259,1,1,753,995
6298,120175028,1,0.002523701,-0.0009811899,-0.003827056,-0.05933307,-0.09861873,-9.769918000000001,0,0,45.51259,1,1,753,995
6333,120177525,1,-0.0002570675,0.0008058489,-0.003638153,-0.09389198999999999,-0.08779858,-9.785944000000001,0,0,45.51302,1,1,753,995
6340,120180344,1,-0.004636992,0.001269651,-0.003285843,-0.09895108,-0.07167975,-9.792071,0,0,45.51302,1,1,753,995
6343,120182657,1,-0.003399642,-0.0003771943,-0.001913326,-0.09138214,-0.05939198,-9.795199999999999,0,0,45.51302,1,1,753,995
6348,120185601,1,-0.002342565,0.0001104886,-0.001812313,-0.08081849000000001,-0.04553365,-9.805823,0,0,45.51302,1,1,753,995
6383,120188865,1,-0.005238884,0.005276409,-0.007867537000000001,-0.05563315,-0.02195311,-9.803687999999999,0,0,45.51346,1,1,753,995
6386,120190396,1,2.428656e-05,0.008044127,-0.01370061,-0.02893908,-0.013608,-9.783353999999999,0,0,45.51346,1,1,753,995
6389,120193151,1,0.004807579,0.0051777,-0.01362828,-0.0212024,-0.01216172,-9.779484999999999,0,0,45.51346,1,1,753,995
6392,120195838,1,0.009120339,-0.0007117878,-0.01408515,-0.01737603,-0.007964854,-9.761106,0,0,45.51346,1,1,753,995
6427,120198801,1,0.002350588,-0.002257275,-0.0199285,-0.007790839,0.01275889,-9.731633,0,0,45.51392,1,1,753,995
6430,120201029,1,0.0004679392,0.001691264,-0.02466267,0.02879105,0.04332287,-9.671608000000001,0,0,45.51392,1,1,753,995
6434,120203380,1,0.006644571,0.002724855,-0.02164489,0.05624511,0.0371597,-9.659478,0,0,45.51392,1,1,753,995
6438,120205664,1,0.005837893,0.003477514,-0.01742821,0.07374844999999999,0.01579154,-9.681179999999999,0,0,45.51392,1,1,753,995
6473,120208257,1,4.460791e-05,0.004885387,-0.016472,0.0886081,-0.001336557,-9.698714000000001,0,0,45.51392,1,1,753,995
6477,120211461,1,-0.004460682,0.004477571,-0.01757138,0.1096314,0.04832284,-9.661006,0,0,45.5144,1,1,753,995
6482,120213648,1,0.003630353,-0.0007441934,-0.01820051,0.1170429,0.05729932,-9.642837,0,0,45.5144,1,1,753,995
6485,120216059,1,0.01565739,-0.0103281,-0.01840554,0.09474614000000001,0.0293873,-9.652616,0,0,45.5144,1,1,753,995
6520,120225571,1,0.02372669,-0.006924211,0.01027762,-0.04044903,0.0153805,-9.707533,0,0,45.51489,1,1,753,995
6524,120227808,1,0.00365703,-0.01070405,0.02063413,-0.06251473,-0.09658661,-9.72739,0,0,45.51489,1,1,753,995
6559,120230636,1,-0.01840164,-0.007327124,0.02115403,-0.07684501000000001,-0.1099926,-9.726577000000001,0,0,45.51489,1,1,753,995
6562,120233087,1,-0.03025438,-0.001804604,0.02051444,-0.06511156999999999,-0.08339225,-9.730665,0,0,45.5154,1,1,753,995
6565,120236016,1,0.006192347,-0.008009858999999999,0.01891522,-0.05301141,-0.1278172,-9.747458999999999,0,0,45.5154,1,1,753,995
6569,120238348,1,0.01844245,-0.01348287,0.02106713,-0.08329974,-0.226618,-9.779953000000001,0,0,45.5154,1,1,753,995
6604,120240832,1,-0.01546802,0.00215434,0.0250514,-0.09787192,-0.1588926,-9.765402,0,0,45.5154,1,1,753,995
6607,120243355,1,-0.02353005,0.01522901,0.02626635,-0.06725009,-0.06714346,-9.771129,0,0,45.51593,1,1,753,995
6610,120245930,1,0.01206578,-0.0002337373,0.02264691,-0.04684119,-0.06527148000000001,-9.836054000000001,0,0,45.51593,1,1,753,995
6613,120248587,1,0.0170378,-0.016155,0.01794894,-0.06955383,-0.1051569,-9.894059,0,0,45.51593,1,1,753,995
6648,120251687,1,-0.01799804,-0.01015304,0.01588069,-0.07206991,-0.0508378,-9.920082000000001,0,0,45.51593,1,1,753,995
6651,120254588,1,-0.0226796,-0.002727145,0.01261271,-0.0452707,0.005737793,-9.905284999999999,0,0,45.51647,1,1,753,995
6654,120256523,1,0.003088152,-0.005815696,0.01232159,-0.04819424,-0.03692451,-9.901605999999999,0,0,45.51647,1,1,753,995
6658,120259242,1,0.0002634739,-0.002110026,0.01162548,-0.08442918000000001,-0.07602459,-9.877374,0,0,45.51647,1,1,753,995
6693,120262090,1,-0.01903257,0.01332097,0.01101009,-0.08148466,-0.006726739,-9.818854999999999,0,0,45.51647,1,1,753,995
6696,120264296,1,-0.007986162,0.01097578,0.01070283,-0.0519046,0.02977996,-9.776395000000001,0,0,45.51701,1,1,753,995
6699,120267371,1,0.01511721,-0.01098116,0.006533545,-0.06226148,0.005598408,-9.761120999999999,0,0,45.51701,1,1,753,995
6702,120269301,1,0.002982892,-0.01293925,0.005715873,-0.08958218,-0.02296736,-9.766356,0,0,45.51701,1,1,753,995
6737,120271983,1,-0.01723109,0.007951809000000001,0.007763379,-0.06073029,0.001528365,-9.727262,0,0,45.51701,1,1,753,995
6740,120274849,1,-0.01404818,0.01738738,0.006705176,-0.005288635,0.003027237,-9.722239,0,0,45.51701,1,1,753,995
6743,120276571,1,0.0177655,0.0157194,0.001473946,-0.0009296835,-0.07092087,-9.796491,0,0,45.51753,1,1,753,995
6747,120279845,1,0.01406468,0.01090857,0.0001929661,-0.04214194,-0.1067479,-9.85777,0,0,45.51753,1,1,753,995
6782,120282412,1,-0.02237445,0.01018893,0.0008786405,-0.05195927,-0.06393868,-9.863519999999999,0,0,45.51753,1,1,753,995
6788,120285636,1,-0.0058989,-0.00252703,-0.001648595,-0.01826447,-0.02489621,-9.837766,0,0,45.51753,1,1,753,995
6791,120287124,1,0.006705286,-0.01213286,-0.003383054,-0.03017971,-0.06077195,-9.829658999999999,0,0,45.51799,1,1,753,995
6795,120290144,1,0.007203841,-0.01487467,-0.003294695,-0.08252669999999999,-0.08810643,-9.814531000000001,0,0,45.51799,1,1,753,995
6830,120293268,1,-0.02287555,0.01432797,0.001731555,-0.07660024999999999,-0.01149147,-9.777383,0,0,45.51799,1,1,753,996
6833,120295914,1,-0.01775574,0.01832594,0.0005303077,-0.03561331,0.02440468,-9.751181000000001,0,0,45.51799,1,1,753,996
6836,120298063,1,0.006117947,0.006034377,-0.008944964,-0.02105674,-0.01425711,-9.764884,0,0,45.51843,1,1,753,996
6840,120300652,1,0.003995713,-0.006963804,-0.01867112,-0.04447045,-0.03500214,-9.786109,0,0,45.51843,1,1,753,996
6875,120303319,1,-0.01673681,0.001305249,-0.01945415,-0.05614832,-0.002775105,-9.750565999999999,0,0,45.51843,1,1,753,996
6878,120306382,1,-0.01059778,0.01661375,-0.01281206,-0.005544602,-0.003443843,-9.718363,0,0,45.51843,1,1,753,996
6881,120308870,1,0.01533799,0.016173,-0.01065555,0.02552368,-0.05786635,-9.748212000000001,0,0,45.51886,1,1,753,996
6885,120310859,1,0.01608536,0.005268299,-0.01169779,0.0004328444,-0.1301957,-9.804976,0,0,45.51886,1,1,753,996
6920,120313443,1,-0.01297003,0.009916848000000001,-0.01307384,-0.04481959,-0.12535,-9.82296,0,0,45.51886,1,1,753,996
6923,120315883,1,-0.02038783,0.02381312,-0.01195177,-0.0372383,-0.06647627,-9.846937,0,0,45.51886,1,1,753,996
6928,120319279,1,0.008514173,0.01433687,-0.01674165,0.005999418,-0.05942081,-9.860657,0,0,45.51886,1,1,753,996
6931,120321585,1,0.02634604,-0.0100137,-0.02154202,-0.02581939,-0.1210458,-9.892885,0,0,45.51928,1,1,753,996
6966,120324215,1,0.001855517,-0.006202186,-0.0158533,-0.1137723,-0.1318383,-9.889849999999999,0,0,45.51928,1,1,753,996
6969,120326840,1,-0.02211458,0.02414339,-0.01045299,-0.07065739,-0.04460251,-9.85693,0,0,45.51928,1,1,753,996
6972,120329337,1,-0.002405835,0.0281011,-0.01297302,-0.01936474,-0.01565155,-9.838960999999999,0,0,45.51928,1,1,753,996
6976,120331956,1,0.03014424,0.001241992,-0.0194589,-0.04000265,-0.03469676,-9.828400999999999,0,0,45.5197,1,1,753,996
7011,120335709,1,0.02555849,-0.005148799,-0.01907455,-0.07715232,-0.05239363,-9.825265,0,0,45.5197,1,1,753,996
7014,120337824,1,-0.01037122,0.01107352,-0.014107,-0.02753589,-0.05385848,-9.824498,0,0,45.5197,1,1,753,996
7017,120339924,1,-0.02416614,0.009522828000000001,-0.01605117,0.03839214,-0.02593815,-9.816476,0,0,45.5197,1,1,753,996
7020,120342546,1,0.002426562,-0.008266446,-0.01949487,0.006256763,-0.02026146,-9.816729,0,0,45.5201,1,1,753,996
7055,120344899,1,0.02283553,-0.00345899,-0.01516148,-0.04056661,-0.06327967,-9.835746,0,0,45.5201,1,1,753,996
7058,120348025,1,0.01798491,0.008348728999999999,-0.0103352,0.0002196238,-0.09356618,-9.856703,0,0,45.5201,1,1,753,996
7061,120350941,1,-0.02128969,0.0174611,-0.006950926,0.05196761,-0.1059317,-9.858347999999999,0,0,45.5201,1,1,753,996
7065,120352564,1,-0.02321758,0.008121362999999999,-0.01077572,0.05186924,-0.1098,-9.850682000000001,0,0,45.5201,1,1,753,996
7100,120355107,1,-0.006738151,-0.00642109,-0.01760769,0.01577206,-0.1131647,-9.853491999999999,0,0,45.52048,1,1,753,996
7103,120357929,1,0.007288278,-0.007948861999999999,-0.01602939,0.02139035,-0.1125697,-9.856942999999999,0,0,45.52048,1,1,753,996
7106,120359895,1,-0.001983523,-0.006164438,-0.006096439,0.02352535,-0.1095171,-9.847517,0,0,45.52048,1,1,753,996
7111,120362398,1,-0.01998417,-0.007432478,0.005540576,-0.01058649,-0.09666147,-9.830082000000001,0,0,45.52048,1,1,753,996
7146,120365521,1,-0.02448682,-0.009392060000000001,0.009289141000000001,-0.06582003,-0.05893429,-9.827576000000001,0,0,45.52085,1,1,753,996
7149,120367595,1,-0.009911692,-0.007795335,0.006926754,-0.08480573,-0.0349108,-9.856629999999999,0,0,45.52085,1,1,753,996
7152,120370273,1,0.001571473,-0.004335638,0.003096492,-0.1026053,-0.01374461,-9.888748,0,0,45.52085,1,1,753,996
7155,120372410,1,-0.001343059,-0.002170317,0.001741856,-0.1145005,-0.005814049,-9.88232,0,0,45.52085,1,1,753,996
7190,120375041,1,-0.01816047,0.001961826,0.003103788,-0.09806192,-0.005633686,-9.853909,0,0,45.52121,1,1,753,996
