LineNo,TimeUS,I,GyrX,GyrY,GyrZ,AccX,AccY,AccZ,EG,EA,T,GH,AH,GHz,AHz
186,1.1864e+08,2,-0.0019492,-0.0021871,-0.0012056,0.12453,0.044638,-9.8434,0,0,38.738,1,1,7744,3872
221,1.1865e+08,2,-0.0018225,-0.0010693,-0.0012623,0.12259,0.045575,-9.8397,0,0,38.738,1,1,7744,3872
287,1.1867e+08,2,0.0012974,-0.0024389,-0.0023518,0.10508,0.061091,-9.8174,0,0,38.737,1,1,7744,3872
403,1.187e+08,2,0.0010298,0.0011618,0.0015679,0.10164,0.052081,-9.8587,0,0,38.736,1,1,7744,3872
518,1.1873e+08,2,0.0021368,0.00091748,0.00034248,0.10971,0.040334,-9.8666,0,0,38.735,1,1,7744,3872
521,1.1873e+08,2,0.0018979,0.0011123,0.00039427,0.11212,0.038312,-9.8639,0,0,38.735,1,1,7744,3872
556,1.1873e+08,2,0.00091339,0.0015376,0.001043,0.11246,0.03634,-9.8599,0,0,38.735,1,1,7744,3872
626,1.1876e+08,2,-0.0042194,-0.0028486,0.0023104,0.12321,0.022608,-9.8475,0,0,38.734,1,1,7744,3872
741,1.1878e+08,2,-0.002377,-0.0041642,0.00065783,0.11549,0.018196,-9.8493,0,0,38.733,1,1,7744,3872
856,1.188e+08,2,-0.0040586,-0.002461,-2.7693e-05,0.11151,0.037217,-9.8523,0,0,38.732,1,1,7744,3872
972,1.1883e+08,2,0.0029589,0.00049412,0.0010647,0.10216,0.043407,-9.8562,0,0,38.731,1,1,7744,3872
1007,1.1884e+08,2,0.002876,0.00058149,0.0015077,0.10045,0.041861,-9.8492,0,0,38.731,1,1,7744,3872
1081,1.1888e+08,2,0.0023547,0.00051516,0.0001666,0.10914,0.026194,-9.8392,0,0,38.732,1,1,7744,3872
1196,1.1898e+08,2,0.0026522,0.00089953,-0.00061602,0.08977,0.062587,-9.8587,0,0,38.733,1,1,7744,3872
1300,1.1904e+08,2,-0.00070838,-0.0010358,0.0016059,0.087168,0.03328,-9.8727,0,0,38.734,1,1,7744,3872
1385,1.1906e+08,2,-0.0016474,0.00047877,-0.0001726,0.095904,0.022825,-9.8619,0,0,38.734,1,1,7744,3872
1480,1.1907e+08,2,-0.0062702,0.00049227,0.00010546,0.098738,0.018769,-9.8733,0,0,38.734,1,1,7744,3872
1573,1.1909e+08,2,-0.0040068,0.0020787,0.001124,0.085353,0.040333,-9.8432,0,0,38.734,1,1,7744,3872
1598,1.1909e+08,2,-0.0023356,0.0024528,0.001322,0.08584,0.04474,-9.8408,0,0,38.734,1,1,7744,3872
1633,1.1909e+08,2,-0.0018919,0.0022809,0.0018288,0.086749,0.047128,-9.8407,0,0,38.734,1,1,7744,3872
1637,1.191e+08,2,-0.003128,0.0015825,0.0015441,0.086788,0.04957,-9.8412,0,0,38.734,1,1,7744,3872
1640,1.191e+08,2,-0.0038629,0.0011207,0.00089932,0.086512,0.049914,-9.8414,0,0,38.734,1,1,7744,3872
1644,1.191e+08,2,-0.0038603,0.00056326,-0.00014436,0.086341,0.050571,-9.8403,0,0,38.734,1,1,7744,3872
1679,1.191e+08,2,-0.0033855,0.00013371,7.8502e-05,0.086946,0.052113,-9.8401,0,0,38.734,1,1,7744,3872
1682,1.1911e+08,2,-0.0022406,0.00044514,0.0013934,0.088461,0.054962,-9.8441,0,0,38.734,1,1,7744,3872
1685,1.1911e+08,2,-0.0016617,0.00057692,0.0020032,0.088669,0.057141,-9.8487,0,0,38.734,1,1,7744,3872
1688,1.1911e+08,2,-0.0017127,0.00013419,0.0014333,0.088189,0.061024,-9.8539,0,0,38.734,1,1,7744,3872
1723,1.1912e+08,2,-0.00063099,-0.00072474,0.0012307,0.087751,0.062023,-9.8569,0,0,38.734,1,1,7744,3872
1726,1.1912e+08,2,-5.4798e-05,-0.00090403,3.4674e-05,0.087154,0.060999,-9.8573,0,0,38.734,1,1,7744,3872
1729,1.1912e+08,2,0.00061492,-0.00096367,-0.0013598,0.086525,0.059453,-9.8584,0,0,38.734,1,1,7744,3872
1733,1.1912e+08,2,0.0014596,-0.0013557,-0.0012939,0.087685,0.056989,-9.8605,0,0,38.734,1,1,7744,3872
1768,1.1913e+08,2,0.0002791,-0.0014506,-0.00015586,0.091769,0.05477,-9.8596,0,0,38.734,1,1,7744,3872
1771,1.1913e+08,2,-0.00034464,-0.00035028,0.0017963,0.095879,0.051908,-9.8568,0,0,38.734,1,1,7744,3872
1774,1.1913e+08,2,0.00047171,0.00042786,0.0031466,0.097022,0.050962,-9.8559,0,0,38.734,1,1,7744,3872
1777,1.1913e+08,2,0.0027911,0.00047591,0.0030114,0.099664,0.048984,-9.8534,0,0,38.734,1,1,7744,3872
1812,1.1914e+08,2,0.0031946,-0.00027517,0.0020402,0.10193,0.048203,-9.8522,0,0,38.734,1,1,7744,3872
1815,1.1914e+08,2,0.0034015,-0.00086028,0.0014864,0.10382,0.048094,-9.8529,0,0,38.734,1,1,7744,3872
1818,1.1914e+08,2,0.003316,-0.0010407,0.00059542,0.10609,0.047138,-9.8522,0,0,38.734,1,1,7744,3872
1822,1.1914e+08,2,0.0032426,-0.00031225,0.00024233,0.10662,0.04837,-9.8505,0,0,38.734,1,1,7744,3872
1857,1.1915e+08,2,0.0033525,-0.00033191,-0.00075781,0.10606,0.051406,-9.8502,0,0,38.734,1,1,7744,3872
1864,1.1915e+08,2,0.0034719,-0.00072506,-0.0013463,0.10246,0.05232,-9.8506,0,0,38.734,1,1,7744,3872
1867,1.1915e+08,2,0.0035621,-0.00065233,-0.0016714,0.099245,0.053435,-9.8492,0,0,38.734,1,1,7744,3872
1871,1.1915e+08,2,0.0040392,-0.00063839,-0.00091486,0.09599,0.053371,-9.8521,0,0,38.734,1,1,7744,3872
1906,1.1916e+08,2,0.0049161,-0.00022905,4.8342e-05,0.095766,0.051904,-9.8562,0,0,38.734,1,1,7744,3872
1909,1.1916e+08,2,0.0056544,-0.00013491,-0.0005998,0.09649,0.050701,-9.8609,0,0,38.734,1,1,7744,3872
1912,1.1916e+08,2,0.0055131,0.00061261,-0.00050747,0.096399,0.050435,-9.8627,0,0,38.734,1,1,7744,3872
1916,1.1916e+08,2,0.0057765,0.00079759,-0.00013822,0.095708,0.050096,-9.8638,0,0,38.734,1,1,7744,3872
1951,1.1917e+08,2,0.0061178,0.00044531,0.00053477,0.096031,0.050498,-9.8643,0,0,38.734,1,1,7744,3872
1954,1.1917e+08,2,0.0063596,0.001193,0.0011892,0.097336,0.049818,-9.8641,0,0,38.734,1,1,7744,3872
1960,1.1917e+08,2,0.0063057,0.0013151,0.0008857,0.098272,0.04764,-9.8638,0,0,38.734,1,1,7744,3872
1964,1.1917e+08,2,0.005719,0.0017282,0.00035136,0.10027,0.043514,-9.8666,0,0,38.735,1,1,7744,3872
1999,1.1918e+08,2,0.0045197,0.002416,7.4065e-06,0.10376,0.039236,-9.8682,0,0,38.735,1,1,7744,3872
2002,1.1918e+08,2,0.0034754,0.0022749,-0.00085737,0.10589,0.037265,-9.8693,0,0,38.735,1,1,7744,3872
2005,1.1918e+08,2,0.0028236,0.0013257,-0.0012479,0.10755,0.03534,-9.8703,0,0,38.735,1,1,7744,3872
2008,1.1919e+08,2,0.0029429,0.0013888,-0.0006213,0.10784,0.033798,-9.8691,0,0,38.735,1,1,7744,3872
2043,1.1919e+08,2,0.0021576,0.00078988,-0.0009365,0.11046,0.030281,-9.8664,0,0,38.735,1,1,7744,3872
2046,1.1919e+08,2,0.00048356,0.0001127,-0.0019276,0.11345,0.024098,-9.8628,0,0,38.735,1,1,7744,3872
2050,1.1919e+08,2,-0.00014287,6.8611e-05,-0.0025172,0.11542,0.018709,-9.8597,0,0,38.735,1,1,7744,3872
2054,1.192e+08,2,-0.00043216,0.0006593,-0.0025157,0.11696,0.013676,-9.8565,0,0,38.735,1,1,7744,3872
2089,1.192e+08,2,5.1418e-05,0.0012284,-0.0011093,0.12081,0.008871,-9.8525,0,0,38.735,1,1,7744,3872
2092,1.192e+08,2,0.00020653,0.0017636,0.00086983,0.12426,0.0075989,-9.8509,0,0,38.736,1,1,7744,3872
2095,1.192e+08,2,0.00011447,0.002068,0.0016004,0.1262,0.006971,-9.8508,0,0,38.736,1,1,7744,3872
2098,1.1921e+08,2,-0.00014452,0.0014362,0.00087008,0.12601,0.0072724,-9.8523,0,0,38.736,1,1,7744,3872
2133,1.1921e+08,2,0.0001722,0.00048189,0.00042578,0.12308,0.011899,-9.8541,0,0,38.736,1,1,7744,3872
2136,1.1921e+08,2,-0.00047208,0.0017128,0.00030932,0.12104,0.01722,-9.8537,0,0,38.736,1,1,7744,3872
2139,1.1921e+08,2,-0.00035942,0.0026043,0.00014775,0.11973,0.019987,-9.8546,0,0,38.736,1,1,7744,3872
2143,1.1922e+08,2,-0.0001814,0.0035192,-6.0544e-05,0.11817,0.022409,-9.8607,0,0,38.736,1,1,7744,3872
2178,1.1922e+08,2,-0.00084484,0.0034662,-0.00032384,0.11681,0.023999,-9.865,0,0,38.736,1,1,7744,3872
2181,1.1922e+08,2,-0.0014411,0.0022817,-0.0013431,0.1159,0.025363,-9.8712,0,0,38.737,1,1,7744,3872
2186,1.1922e+08,2,-0.0024267,0.0013186,-0.00080073,0.11544,0.026306,-9.8731,0,0,38.737,1,1,7744,3872
2189,1.1923e+08,2,-0.0039537,0.0011135,0.00063892,0.11095,0.026808,-9.8714,0,0,38.737,1,1,7744,3872
2224,1.1924e+08,2,-0.0029734,0.00098861,-0.00011921,0.10561,0.028771,-9.8633,0,0,38.737,1,1,7744,3872
2228,1.1924e+08,2,-0.0034801,0.00077446,-0.0014166,0.10536,0.031477,-9.8582,0,0,38.737,1,1,7744,3872
2232,1.1924e+08,2,-0.0046041,0.0012061,-0.0018658,0.10503,0.033288,-9.8551,0,0,38.737,1,1,7744,3872
2267,1.1924e+08,2,-0.005862,0.0018458,-0.00065596,0.10468,0.033843,-9.8517,0,0,38.738,1,1,7744,3872
2270,1.1925e+08,2,-0.0053628,0.00099066,0.0014873,0.10594,0.03187,-9.8469,0,0,38.738,1,1,7744,3872
2273,1.1925e+08,2,-0.0044204,-0.00025905,0.0015634,0.10679,0.031443,-9.8416,0,0,38.738,1,1,7744,3872
2276,1.1925e+08,2,-0.0045298,-0.001166,0.00069752,0.10814,0.031573,-9.8383,0,0,38.738,1,1,7744,3872
2314,1.1925e+08,2,-0.0047174,-0.0011217,-0.00051802,0.11014,0.031759,-9.8401,0,0,38.738,1,1,7744,3872
2317,1.1926e+08,2,-0.0054582,-0.00016363,-0.00097498,0.11299,0.032479,-9.8436,0,0,38.738,1,1,7744,3872
2322,1.1926e+08,2,-0.0054367,-0.00021232,-0.00042618,0.11587,0.034453,-9.8467,0,0,38.738,1,1,7744,3872
2325,1.1926e+08,2,-0.0047086,-0.0013587,-0.00052501,0.11827,0.035276,-9.846,0,0,38.738,1,1,7744,3872
2360,1.1926e+08,2,-0.0043012,-0.0029817,-0.00050947,0.12075,0.03496,-9.8449,0,0,38.738,1,1,7744,3872
2363,1.1927e+08,2,-0.0044851,-0.0039098,0.00035723,0.12172,0.033942,-9.8458,0,0,38.739,1,1,7744,3872
2367,1.1927e+08,2,-0.0042164,-0.0036604,0.0010749,0.12081,0.033899,-9.8471,0,0,38.739,1,1,7744,3872
2370,1.1927e+08,2,-0.0020377,-0.0025537,0.00066459,0.11806,0.034976,-9.8508,0,0,38.739,1,1,7744,3872
2405,1.1927e+08,2,-0.00053651,-0.0021764,0.00053794,0.11235,0.034786,-9.8556,0,0,38.739,1,1,7744,3872
2408,1.1928e+08,2,-0.0010475,-0.0022448,0.00047568,0.1073,0.035813,-9.8568,0,0,38.739,1,1,7744,3872
2411,1.1928e+08,2,-0.0029497,-0.002097,-0.0003075,0.099189,0.04205,-9.8568,0,0,38.739,1,1,7744,3872
2414,1.1928e+08,2,-0.0036122,-0.0021429,-0.00096851,0.094132,0.046613,-9.8569,0,0,38.739,1,1,7744,3872
2449,1.1928e+08,2,-0.0024555,-0.0032243,-0.0013983,0.09035,0.05016,-9.8533,0,0,38.74,1,1,7744,3872
2452,1.1929e+08,2,-0.0007623,-0.003615,-0.0023946,0.089295,0.050316,-9.8496,0,0,38.74,1,1,7744,3872
2456,1.1929e+08,2,-0.00082014,-0.0040223,-0.0029656,0.088628,0.050008,-9.8461,0,0,38.74,1,1,7744,3872
2459,1.1929e+08,2,-0.0012446,-0.0035969,-0.0029804,0.089805,0.049848,-9.8408,0,0,38.74,1,1,7744,3872
2494,1.1929e+08,2,-0.00074995,-0.0027718,-0.0018136,0.09197,0.048498,-9.8369,0,0,38.74,1,1,7744,3872
2497,1.193e+08,2,0.0004698,-0.0022838,-0.0016858,0.093489,0.046184,-9.8354,0,0,38.74,1,1,7744,3872
2500,1.193e+08,2,0.0019219,-0.0013534,-0.00094982,0.094646,0.044102,-9.8351,0,0,38.74,1,1,7744,3872
2504,1.193e+08,2,0.0028469,-0.00051499,-0.00039146,0.095634,0.040693,-9.8389,0,0,38.74,1,1,7744,3872
2539,1.193e+08,2,0.0017733,-0.00031509,-0.00042719,0.09699,0.037855,-9.8395,0,0,38.74,1,1,7744,3872
2542,1.1931e+08,2,0.00105,0.00036183,0.0002137,0.10147,0.034103,-9.8355,0,0,38.74,1,1,7744,3872
2546,1.1931e+08,2,0.0022684,0.00040619,-0.0002737,0.10417,0.032473,-9.8342,0,0,38.74,1,1,7744,3872
2549,1.1931e+08,2,0.0034898,-0.00018892,-0.00020544,0.10741,0.03237,-9.837,0,0,38.74,1,1,7744,3872
2584,1.1931e+08,2,0.0026223,-0.00050759,5.0112e-05,0.10818,0.033868,-9.8386,0,0,38.74,1,1,7744,3872
2587,1.1932e+08,2,0.0024039,-0.00019223,-0.00018367,0.10817,0.035105,-9.8381,0,0,38.741,1,1,7744,3872
2591,1.1932e+08,2,0.0027486,0.00035951,-0.00034573,0.1074,0.036583,-9.8368,0,0,38.741,1,1,7744,3872
2594,1.1932e+08,2,0.0025008,-0.00051411,4.8809e-06,0.10515,0.038512,-9.8375,0,0,38.741,1,1,7744,3872
2629,1.1932e+08,2,0.0023852,-0.00036977,0.00011392,0.10299,0.040077,-9.8401,0,0,38.741,1,1,7744,3872
2632,1.1933e+08,2,0.0020617,0.0002486,0.00063596,0.10132,0.039901,-9.8458,0,0,38.741,1,1,7744,3872
2636,1.1933e+08,2,0.0016119,0.00056492,0.00029686,0.098376,0.039641,-9.8482,0,0,38.741,1,1,7744,3872
2639,1.1933e+08,2,0.003249,0.0013616,-0.0012139,0.091513,0.038411,-9.8481,0,0,38.741,1,1,7744,3872
2674,1.1933e+08,2,0.0045204,0.0018489,-0.00095084,0.087976,0.038159,-9.8446,0,0,38.741,1,1,7744,3872
2677,1.1934e+08,2,0.0040803,0.0023452,-0.00060494,0.088142,0.037817,-9.8436,0,0,38.741,1,1,7744,3872
2681,1.1934e+08,2,0.0037206,0.0029181,0.00039764,0.090353,0.037324,-9.8454,0,0,38.741,1,1,7744,3872
2684,1.1934e+08,2,0.0038752,0.0024693,0.0013164,0.091123,0.037385,-9.8461,0,0,38.741,1,1,7744,3872
2719,1.1934e+08,2,0.002195,0.001929,0.001298,0.092816,0.03797,-9.8469,0,0,38.741,1,1,7744,3872
2722,1.1935e+08,2,0.001281,0.0017677,0.00039223,0.094809,0.037448,-9.8482,0,0,38.741,1,1,7744,3872
2725,1.1935e+08,2,0.0017759,0.0018686,5.0843e-05,0.098816,0.035745,-9.8505,0,0,38.741,1,1,7744,3872
2728,1.1935e+08,2,0.0025283,0.0017455,-0.0001795,0.099844,0.035419,-9.8515,0,0,38.741,1,1,7744,3872
2766,1.1935e+08,2,0.0029595,0.0014634,-0.00078006,0.10146,0.033295,-9.8547,0,0,38.741,1,1,7744,3872
2769,1.1936e+08,2,0.0040341,0.0020932,-0.00035071,0.10277,0.032404,-9.8544,0,0,38.742,1,1,7744,3872
2774,1.1936e+08,2,0.0042115,0.0024648,-0.0011908,0.10467,0.032482,-9.854,0,0,38.742,1,1,7744,3872
2777,1.1936e+08,2,0.0030554,0.0022146,-0.0013417,0.10536,0.032147,-9.8551,0,0,38.742,1,1,7744,3872
2812,1.1936e+08,2,0.00096032,0.0029755,-1.4841e-05,0.10631,0.030354,-9.8544,0,0,38.742,1,1,7744,3872
2815,1.1937e+08,2,0.0010868,0.0024444,0.0022027,0.10621,0.027151,-9.8552,0,0,38.742,1,1,7744,3872
2818,1.1937e+08,2,0.00069865,0.0020228,0.0024089,0.10558,0.025713,-9.8587,0,0,38.742,1,1,7744,3872
2821,1.1937e+08,2,0.00029582,0.0017519,0.0026325,0.10628,0.025821,-9.8617,0,0,38.742,1,1,7744,3872
2856,1.1938e+08,2,0.00036406,0.0021237,0.0020283,0.10671,0.027532,-9.863,0,0,38.742,1,1,7744,3872
2859,1.1938e+08,2,0.00057386,0.0025721,0.0016405,0.1051,0.029431,-9.8606,0,0,38.742,1,1,7744,3872
2863,1.1938e+08,2,-7.6872e-05,0.0026105,0.00071559,0.1026,0.032817,-9.8588,0,0,38.742,1,1,7744,3872
2867,1.1938e+08,2,-0.0014441,0.0015999,0.0014709,0.10215,0.03432,-9.8581,0,0,38.742,1,1,7744,3872
2902,1.1939e+08,2,-0.0020135,0.00061585,0.0023267,0.10076,0.039444,-9.8561,0,0,38.742,1,1,7744,3872
2905,1.1939e+08,2,-0.0016752,0.00018018,0.0025236,0.10042,0.042429,-9.8571,0,0,38.742,1,1,7744,3872
2908,1.1939e+08,2,-0.0014877,-0.001251,0.0023223,0.10188,0.043981,-9.8608,0,0,38.742,1,1,7744,3872
2911,1.1939e+08,2,-0.0019451,-0.0012832,0.0024265,0.10399,0.043903,-9.8632,0,0,38.742,1,1,7744,3872
2946,1.194e+08,2,-0.002489,-0.0010136,0.0014953,0.10764,0.0392,-9.8659,0,0,38.742,1,1,7744,3872
2950,1.194e+08,2,-0.0031063,-0.0015886,0.00051876,0.10831,0.036473,-9.8647,0,0,38.742,1,1,7744,3872
2954,1.194e+08,2,-0.003252,-0.0023513,-0.00069126,0.10755,0.032639,-9.8606,0,0,38.742,1,1,7744,3872
2957,1.194e+08,2,-0.0032909,-0.0022061,-0.00019166,0.10481,0.028975,-9.8566,0,0,38.742,1,1,7744,3872
2992,1.1941e+08,2,-0.0045968,-0.0024569,0.00041232,0.097937,0.02169,-9.8503,0,0,38.742,1,1,7744,3872
2997,1.1941e+08,2,-0.0053741,-0.0020606,0.00071367,0.09573,0.018662,-9.8496,0,0,38.742,1,1,7744,3872
3000,1.1941e+08,2,-0.0049367,-0.0011503,0.0003105,0.093915,0.017442,-9.8508,0,0,38.742,1,1,7744,3872
3003,1.1942e+08,2,-0.002916,-0.0010719,0.0011913,0.094738,0.022405,-9.8531,0,0,38.742,1,1,7744,3872
3038,1.1942e+08,2,-0.0046485,-0.0016821,-0.00032679,0.098287,0.035736,-9.8522,0,0,38.742,1,1,7744,3872
3042,1.1943e+08,2,-0.0037,-0.0016529,-0.0002626,0.098688,0.040417,-9.8488,0,0,38.742,1,1,7744,3872
3045,1.1943e+08,2,-0.0028804,-0.0017757,0.00067038,0.10041,0.041807,-9.8501,0,0,38.742,1,1,7744,3872
3082,1.1943e+08,2,-0.0033192,-0.0014761,0.0017533,0.10376,0.041989,-9.8554,0,0,38.742,1,1,7744,3872
3085,1.1943e+08,2,-0.0046124,-0.00077602,0.0014853,0.10521,0.041549,-9.8599,0,0,38.742,1,1,7744,3872
3089,1.1944e+08,2,-0.0049398,0.00052668,0.0016199,0.10769,0.04107,-9.8643,0,0,38.742,1,1,7744,3872
3092,1.1944e+08,2,-0.004057,0.0011044,0.0016005,0.10857,0.041294,-9.8637,0,0,38.742,1,1,7744,3872
3127,1.1944e+08,2,-0.0033917,0.00011347,0.00016986,0.10839,0.044345,-9.8605,0,0,38.742,1,1,7744,3872
3130,1.1944e+08,2,-0.0043731,-0.00058925,-0.0013427,0.10791,0.048134,-9.8584,0,0,38.742,1,1,7744,3872
3134,1.1945e+08,2,-0.0050739,-0.00076332,-0.0022145,0.10727,0.052416,-9.8567,0,0,38.742,1,1,7744,3872
3137,1.1945e+08,2,-0.0050148,-0.00076418,-0.0022765,0.1069,0.055089,-9.8562,0,0,38.742,1,1,7744,3872
3172,1.1945e+08,2,-0.0031298,0.00045463,-0.0013964,0.10731,0.05657,-9.8565,0,0,38.742,1,1,7744,3872
3175,1.1945e+08,2,-0.0020369,0.0010125,-0.00048481,0.10882,0.056504,-9.8561,0,0,38.742,1,1,7744,3872
3178,1.1946e+08,2,-0.00086387,0.0014248,-0.00092627,0.11284,0.055993,-9.8549,0,0,38.742,1,1,7744,3872
3184,1.1946e+08,2,-0.00018121,0.0013361,-0.0020765,0.11524,0.054912,-9.8525,0,0,38.742,1,1,7744,3872
3219,1.1946e+08,2,0.0005963,0.00034057,-0.0028452,0.11945,0.05314,-9.848,0,0,38.743,1,1,7744,3872
3223,1.1946e+08,2,0.00050304,0.00021328,-0.0027824,0.12211,0.052504,-9.8448,0,0,38.743,1,1,7744,3872
3227,1.1947e+08,2,-0.00065927,0.00050197,-0.0015872,0.1239,0.05196,-9.8438,0,0,38.743,1,1,7744,3872
3230,1.1947e+08,2,-0.0014058,0.00047696,-0.0010655,0.12291,0.052122,-9.8461,0,0,38.743,1,1,7744,3872
3265,1.1947e+08,2,-0.0012548,0.0012201,-0.00038258,0.11926,0.053899,-9.8512,0,0,38.743,1,1,7744,3872
3269,1.1947e+08,2,-0.00058279,0.0015842,0.00061284,0.11602,0.054143,-9.8548,0,0,38.743,1,1,7744,3872
3272,1.1948e+08,2,5.9486e-05,0.0012789,0.00099369,0.1117,0.053383,-9.8571,0,0,38.743,1,1,7744,3872
3275,1.1948e+08,2,5.7525e-05,0.0013178,0.0010699,0.10733,0.052063,-9.8578,0,0,38.743,1,1,7744,3872
3310,1.1948e+08,2,8.8508e-05,0.0019731,0.0002845,0.10444,0.05149,-9.8555,0,0,38.743,1,1,7744,3872
3313,1.1948e+08,2,0.0019334,0.0022552,0.00022116,0.10539,0.051088,-9.8516,0,0,38.743,1,1,7744,3872
3317,1.1949e+08,2,0.0027149,0.0010143,0.00068271,0.10688,0.051193,-9.8508,0,0,38.743,1,1,7744,3872
3320,1.1949e+08,2,0.0029238,0.00020844,0.0011724,0.10919,0.054862,-9.8541,0,0,38.743,1,1,7744,3872
3355,1.1949e+08,2,0.0026829,0.00021547,0.0013706,0.11046,0.05876,-9.8578,0,0,38.743,1,1,7744,3872
3358,1.1949e+08,2,0.0025937,6.0766e-05,0.0012502,0.1128,0.064214,-9.8565,0,0,38.743,1,1,7744,3872
3362,1.195e+08,2,0.0017529,-0.00065685,0.0011707,0.11395,0.066513,-9.8534,0,0,38.743,1,1,7744,3872
3365,1.195e+08,2,0.0015661,-0.00050748,0.0018036,0.11571,0.065997,-9.8517,0,0,38.743,1,1,7744,3872
3400,1.195e+08,2,0.0016677,0.00044188,0.0023096,0.11711,0.061831,-9.8548,0,0,38.743,1,1,7744,3872
3404,1.1951e+08,2,0.0018669,0.0015895,0.0024328,0.11633,0.057922,-9.8585,0,0,38.743,1,1,7744,3872
3407,1.1951e+08,2,0.0025645,0.0021106,0.0012617,0.11562,0.055902,-9.8601,0,0,38.743,1,1,7744,3872
3410,1.1951e+08,2,0.0031244,0.00071422,-0.0012612,0.11438,0.050456,-9.8629,0,0,38.743,1,1,7744,3872
3445,1.1951e+08,2,0.0030926,-0.0014717,-0.0014913,0.11525,0.04614,-9.8648,0,0,38.743,1,1,7744,3872
3448,1.1952e+08,2,0.0029698,-0.0019214,-0.0013444,0.11575,0.043459,-9.8643,0,0,38.743,1,1,7744,3872
3451,1.1952e+08,2,0.0042066,-0.0024018,-0.0013594,0.11544,0.041014,-9.8597,0,0,38.743,1,1,7744,3872
3454,1.1952e+08,2,0.0052477,-0.0023666,-0.0012264,0.11527,0.0421,-9.8563,0,0,38.743,1,1,7744,3872
3489,1.1952e+08,2,0.0047068,-0.0023336,-0.00051231,0.11518,0.045789,-9.8515,0,0,38.743,1,1,7744,3872
3492,1.1952e+08,2,0.0033376,-0.0021186,-0.00092906,0.11519,0.047661,-9.8461,0,0,38.743,1,1,7744,3872
3496,1.1953e+08,2,0.0015814,-0.0012615,-0.00085577,0.11326,0.048347,-9.8374,0,0,38.743,1,1,7744,3872
3500,1.1953e+08,2,0.0018507,-0.00091432,-0.00061489,0.11082,0.047935,-9.8325,0,0,38.743,1,1,7744,3872
3535,1.1953e+08,2,0.0019798,-0.00099175,0.00027634,0.1058,0.045916,-9.8289,0,0,38.743,1,1,7744,3872
3539,1.1954e+08,2,0.0015751,-0.001503,0.00025094,0.10275,0.045114,-9.8312,0,0,38.743,1,1,7744,3872
3543,1.1954e+08,2,0.0013908,-0.0015387,-0.00022487,0.099635,0.043392,-9.8405,0,0,38.743,1,1,7744,3872
3546,1.1954e+08,2,0.0022495,-0.0012504,-0.00042205,0.099418,0.042688,-9.8445,0,0,38.743,1,1,7744,3872
3581,1.1954e+08,2,0.0035134,-0.0016322,-0.00094723,0.10028,0.038006,-9.8575,0,0,38.743,1,1,7744,3872
3584,1.1955e+08,2,0.0044342,-0.0018697,-0.00065745,0.10397,0.031564,-9.8677,0,0,38.743,1,1,7744,3872
3587,1.1955e+08,2,0.0027565,-0.0017905,-0.00064197,0.10639,0.027051,-9.871,0,0,38.743,1,1,7744,3872
3590,1.1955e+08,2,-5.3518e-06,-0.0010194,-0.00073935,0.10807,0.024249,-9.8721,0,0,38.743,1,1,7744,3872
3625,1.1955e+08,2,0.00058123,-0.00054846,9.3334e-05,0.10693,0.024854,-9.8696,0,0,38.743,1,1,7744,3872
3628,1.1956e+08,2,0.00068673,-0.00084173,0.0022262,0.10485,0.026052,-9.8652,0,0,38.743,1,1,7744,3872
3632,1.1956e+08,2,0.00029623,-0.00084947,0.0035527,0.10261,0.027326,-9.857,0,0,38.743,1,1,7744,3872
3638,1.1956e+08,2,0.00020228,-0.00099238,0.003383,0.10194,0.027024,-9.8516,0,0,38.743,1,1,7744,3872
3673,1.1956e+08,2,0.00058619,-0.00067668,0.0010577,0.10203,0.026587,-9.8433,0,0,38.743,1,1,7744,3872
3677,1.1957e+08,2,0.00057132,0.00048978,-0.00087519,0.103,0.02696,-9.8428,0,0,38.743,1,1,7744,3872
3680,1.1957e+08,2,0.00053062,0.00016078,-0.0012266,0.10472,0.026976,-9.845,0,0,38.743,1,1,7744,3872
3683,1.1957e+08,2,7.2981e-06,-0.00038595,-0.0025461,0.10593,0.027735,-9.8473,0,0,38.743,1,1,7744,3872
3718,1.1957e+08,2,0.00031849,-0.00056005,-0.0024564,0.10591,0.029035,-9.8514,0,0,38.743,1,1,7744,3872
3721,1.1958e+08,2,7.01e-05,-0.00074916,-0.0019572,0.10597,0.029719,-9.853,0,0,38.744,1,1,7744,3872
3725,1.1958e+08,2,-0.00046456,-0.00059278,-0.00093729,0.10613,0.029927,-9.8545,0,0,38.744,1,1,7744,3872
3728,1.1958e+08,2,-0.0014735,-0.0010841,-2.7213e-05,0.10539,0.029407,-9.8535,0,0,38.744,1,1,7744,3872
3763,1.1958e+08,2,-0.0017008,-0.00059031,-0.00066973,0.10387,0.029567,-9.8493,0,0,38.744,1,1,7744,3872
3766,1.1959e+08,2,-0.0012651,-0.00013281,-0.00054148,0.10231,0.030276,-9.8476,0,0,38.744,1,1,7744,3872
3771,1.1959e+08,2,-0.00080458,-0.0001185,-0.00077426,0.10005,0.030754,-9.849,0,0,38.744,1,1,7744,3872
3774,1.1959e+08,2,-0.00064633,-7.9558e-07,-0.0007554,0.097205,0.031505,-9.8547,0,0,38.744,1,1,7744,3872
3809,1.1959e+08,2,-0.0011994,-0.00010036,-0.0004313,0.095034,0.033278,-9.8575,0,0,38.744,1,1,7744,3872
3812,1.196e+08,2,-0.0012337,0.0001845,0.00025936,0.093959,0.033978,-9.8575,0,0,38.744,1,1,7744,3872
3815,1.196e+08,2,-0.0012843,0.00033401,0.0005876,0.093469,0.034425,-9.8591,0,0,38.744,1,1,7744,3872
3818,1.196e+08,2,-0.00094686,0.00029756,0.00032921,0.093891,0.037208,-9.8607,0,0,38.744,1,1,7744,3872
3853,1.196e+08,2,-6.6221e-05,-0.00021611,-0.00026158,0.09584,0.039051,-9.8604,0,0,38.744,1,1,7744,3872
3856,1.1961e+08,2,-6.7194e-05,-0.0004687,-0.0003166,0.098151,0.04183,-9.8605,0,0,38.744,1,1,7744,3872
3860,1.1961e+08,2,-0.00093406,-0.0007752,-0.00059797,0.098532,0.043968,-9.86,0,0,38.744,1,1,7744,3872
3863,1.1961e+08,2,-0.0022419,-0.00029798,-0.00028429,0.098287,0.046645,-9.8579,0,0,38.744,1,1,7744,3872
3868,1.1961e+08,2,-0.0024536,0.00022425,-0.00020468,0.098535,0.046763,-9.8568,0,0,38.744,1,1,7744,3872
3903,1.1962e+08,2,-0.0034285,0.00043409,5.8431e-05,0.097936,0.043635,-9.8574,0,0,38.744,1,1,7744,3872
3906,1.1962e+08,2,-0.0032444,0.00043652,0.00087608,0.097327,0.04057,-9.858,0,0,38.744,1,1,7744,3872
3909,1.1963e+08,2,-0.00040952,-0.00026084,0.00053429,0.10051,0.037641,-9.8617,0,0,38.744,1,1,7744,3872
3945,1.1963e+08,2,-0.0003759,-0.001327,-0.00058279,0.10037,0.037183,-9.8617,0,0,38.744,1,1,7744,3872
3950,1.1963e+08,2,0.00025527,-0.0018403,-0.0010834,0.10213,0.035731,-9.8598,0,0,38.744,1,1,7744,3872
3953,1.1964e+08,2,0.0011464,-0.0013137,-0.00047899,0.10413,0.035323,-9.8564,0,0,38.744,1,1,7744,3872
3956,1.1964e+08,2,0.0022063,-0.00051638,0.00031455,0.10585,0.035585,-9.8525,0,0,38.744,1,1,7744,3872
3992,1.1964e+08,2,0.0044282,4.3854e-05,0.00057007,0.10872,0.036136,-9.8499,0,0,38.744,1,1,7744,3872
3996,1.1964e+08,2,0.0043421,-1.7666e-05,0.00060733,0.111,0.037522,-9.8495,0,0,38.744,1,1,7744,3872
3999,1.1965e+08,2,0.002579,-0.0012446,0.0011462,0.11274,0.041743,-9.8505,0,0,38.743,1,1,7744,3872
4002,1.1965e+08,2,0.0018781,-0.0018415,0.0012835,0.11257,0.044159,-9.8517,0,0,38.743,1,1,7744,3872
4038,1.1965e+08,2,0.002231,-0.0021264,0.0008248,0.11118,0.045741,-9.8552,0,0,38.743,1,1,7744,3872
4041,1.1965e+08,2,0.0021432,-0.002004,0.00029808,0.10972,0.04708,-9.8575,0,0,38.743,1,1,7744,3872
4044,1.1966e+08,2,0.0022743,-0.0018808,-0.0001865,0.10595,0.048411,-9.8594,0,0,38.743,1,1,7744,3872
4047,1.1966e+08,2,0.0025354,-0.0013248,0.0005381,0.10432,0.048337,-9.8594,0,0,38.743,1,1,7744,3872
4082,1.1966e+08,2,0.0029131,0.00022008,0.0011305,0.1053,0.049348,-9.8564,0,0,38.743,1,1,7744,3872
4090,1.1966e+08,2,0.0031338,-8.8921e-05,0.000764,0.1063,0.050384,-9.854,0,0,38.743,1,1,7744,3872
4093,1.1967e+08,2,0.0030585,-0.00037196,0.00032668,0.1059,0.052806,-9.8521,0,0,38.743,1,1,7744,3872
4097,1.1967e+08,2,0.0033192,-0.00050972,0.00033511,0.10453,0.056178,-9.8497,0,0,38.743,1,1,7744,3872
4132,1.1967e+08,2,0.0035596,0.00021121,0.00045504,0.10494,0.054801,-9.8485,0,0,38.742,1,1,7744,3872
4135,1.1968e+08,2,0.0037002,0.00010988,0.0011791,0.10646,0.053436,-9.8471,0,0,38.742,1,1,7744,3872
4138,1.1968e+08,2,0.0032622,-0.00011277,0.0021044,0.10867,0.053658,-9.8437,0,0,38.742,1,1,7744,3872
4141,1.1968e+08,2,0.0033408,-0.00013789,0.0015228,0.10895,0.054245,-9.8418,0,0,38.742,1,1,7744,3872
4176,1.1968e+08,2,0.0036479,0.0006555,0.0007416,0.10723,0.055084,-9.84,0,0,38.742,1,1,7744,3872
4179,1.1968e+08,2,0.0038085,0.001172,-5.4883e-05,0.10519,0.055424,-9.8396,0,0,38.742,1,1,7744,3872
4182,1.1969e+08,2,0.0047556,0.00094846,7.2628e-05,0.10361,0.054419,-9.8442,0,0,38.742,1,1,7744,3872
4186,1.1969e+08,2,0.0047867,0.001235,-0.00050629,0.10362,0.052179,-9.8467,0,0,38.742,1,1,7744,3872
4221,1.1969e+08,2,0.0041268,0.00085507,-0.0016259,0.10473,0.047775,-9.8514,0,0,38.741,1,1,7744,3872
4224,1.1969e+08,2,0.0036643,0.00029215,-0.0013178,0.10489,0.046088,-9.8535,0,0,38.741,1,1,7744,3872
4227,1.197e+08,2,0.002964,0.00059106,-7.5345e-05,0.1066,0.041027,-9.8569,0,0,38.741,1,1,7744,3872
4230,1.197e+08,2,0.0031816,0.00078811,0.0004063,0.10768,0.03796,-9.8571,0,0,38.741,1,1,7744,3872
4265,1.197e+08,2,0.0024145,0.00116,0.0020414,0.10775,0.033995,-9.857,0,0,38.741,1,1,7744,3872
4269,1.1971e+08,2,0.00092898,0.0010446,0.0015746,0.10797,0.033068,-9.858,0,0,38.741,1,1,7744,3872
4272,1.1971e+08,2,-0.00020775,0.00085295,0.00063772,0.10728,0.033957,-9.8615,0,0,38.741,1,1,7744,3872
4275,1.1971e+08,2,-0.00017792,0.0006389,-0.00016457,0.1062,0.035289,-9.864,0,0,38.741,1,1,7744,3872
4310,1.1971e+08,2,0.00061309,-0.0001174,-0.00016576,0.10464,0.037025,-9.8652,0,0,38.741,1,1,7744,3872
4314,1.1971e+08,2,0.0011089,-0.00073841,0.00056711,0.10417,0.038427,-9.8652,0,0,38.741,1,1,7744,3872
4317,1.1972e+08,2,0.00079465,-0.00079977,0.00061715,0.10568,0.039692,-9.8671,0,0,38.741,1,1,7744,3872
4320,1.1972e+08,2,0.00054305,-8.7311e-05,0.00079791,0.10726,0.040263,-9.8676,0,0,38.741,1,1,7744,3872
4355,1.1972e+08,2,-0.00044617,0.00026254,-1.9683e-05,0.10958,0.041938,-9.8661,0,0,38.741,1,1,7744,3872
4358,1.1973e+08,2,-0.0010324,0.0002702,9.3771e-05,0.10909,0.043263,-9.865,0,0,38.741,1,1,7744,3872
4361,1.1973e+08,2,-0.00057461,0.00030895,0.00058155,0.10774,0.043182,-9.8636,0,0,38.74,1,1,7744,3872
4364,1.1973e+08,2,-0.00060725,0.00019342,0.00070355,0.10582,0.04183,-9.8619,0,0,38.74,1,1,7744,3872
4399,1.1973e+08,2,-0.00073633,0.00060572,0.00063286,0.10325,0.039175,-9.8613,0,0,38.74,1,1,7744,3872
4403,1.1974e+08,2,-0.00055349,0.0015936,0.00088039,0.10309,0.036659,-9.8603,0,0,38.74,1,1,7744,3872
4406,1.1974e+08,2,-0.0015929,0.0022422,0.0016762,0.10311,0.033266,-9.857,0,0,38.74,1,1,7744,3872
4409,1.1974e+08,2,-0.0023131,0.0018519,0.0016174,0.10284,0.032966,-9.8538,0,0,38.74,1,1,7744,3872
4444,1.1974e+08,2,-0.0021079,0.00028616,0.0011151,0.10244,0.033631,-9.8517,0,0,38.74,1,1,7744,3872
4448,1.1975e+08,2,-0.001767,-1.9316e-05,0.0020545,0.10144,0.035084,-9.8522,0,0,38.74,1,1,7744,3872
4451,1.1975e+08,2,-0.0024247,0.00011176,0.0018087,0.098533,0.039066,-9.8496,0,0,38.74,1,1,7744,3872
4454,1.1975e+08,2,-0.0031354,-0.0005252,0.00066597,0.097254,0.04219,-9.8451,0,0,38.74,1,1,7744,3872
4489,1.1975e+08,2,-0.0032471,-0.0022454,-0.0014201,0.096405,0.046395,-9.8342,0,0,38.74,1,1,7744,3872
4493,1.1976e+08,2,-0.0039203,-0.0021793,-0.0016468,0.096561,0.048867,-9.8254,0,0,38.739,1,1,7744,3872
4496,1.1976e+08,2,-0.0034153,-0.001442,-0.0010989,0.09776,0.049605,-9.823,0,0,38.739,1,1,7744,3872
4499,1.1976e+08,2,-0.0027542,2.1184e-05,-0.00027393,0.099069,0.049412,-9.8234,0,0,38.739,1,1,7744,3872
4534,1.1976e+08,2,-0.0027069,0.00029691,-3.8261e-05,0.10016,0.04799,-9.8264,0,0,38.739,1,1,7744,3872
4540,1.1977e+08,2,-0.0026682,9.6289e-05,-0.00055686,0.10282,0.046528,-9.8313,0,0,38.739,1,1,7744,3872
4543,1.1977e+08,2,-0.0028404,-0.00038406,-0.0014122,0.10413,0.046079,-9.8328,0,0,38.739,1,1,7744,3872
4547,1.1977e+08,2,-0.0038458,-0.00071672,-0.00062745,0.10503,0.043446,-9.8341,0,0,38.739,1,1,7744,3872
4582,1.1977e+08,2,-0.0045246,-0.00072818,0.00045897,0.10553,0.041575,-9.8354,0,0,38.739,1,1,7744,3872
4586,1.1978e+08,2,-0.0039306,-0.001054,0.0010586,0.10499,0.040887,-9.8381,0,0,38.739,1,1,7744,3872
4589,1.1978e+08,2,-0.0031941,-0.0014699,0.0010498,0.10471,0.040305,-9.8396,0,0,38.739,1,1,7744,3872
4592,1.1978e+08,2,-0.003649,-0.0016639,0.00087931,0.10481,0.039887,-9.8431,0,0,38.739,1,1,7744,3872
4627,1.1978e+08,2,-0.0039708,-0.0014729,-0.00047593,0.10453,0.040772,-9.8486,0,0,38.739,1,1,7744,3872
4630,1.1979e+08,2,-0.003474,-0.00085941,-0.0015515,0.10389,0.041366,-9.8531,0,0,38.739,1,1,7744,3872
4633,1.1979e+08,2,-0.0025144,-0.00038936,-0.0015152,0.1034,0.043241,-9.8591,0,0,38.739,1,1,7744,3872
4636,1.1979e+08,2,-0.0023065,-0.00022433,7.8401e-06,0.10334,0.043942,-9.8604,0,0,38.739,1,1,7744,3872
4671,1.1979e+08,2,-0.0015072,-9.2938e-05,0.0015052,0.10248,0.046743,-9.8611,0,0,38.739,1,1,7744,3872
4675,1.198e+08,2,-0.00061097,0.00053213,0.0013101,0.10103,0.050447,-9.8617,0,0,38.739,1,1,7744,3872
4678,1.198e+08,2,0.00014637,0.00091578,0.0010615,0.099243,0.052259,-9.8646,0,0,38.739,1,1,7744,3872
4681,1.198e+08,2,0.001096,0.0020375,2.5135e-05,0.097385,0.052575,-9.8719,0,0,38.739,1,1,7744,3872
4716,1.198e+08,2,0.0021244,0.0034226,-0.0025623,0.096572,0.051461,-9.8781,0,0,38.739,1,1,7744,3872
4720,1.1981e+08,2,0.0013933,0.0028988,-0.0032752,0.096719,0.050982,-9.8817,0,0,38.739,1,1,7744,3872
4723,1.1981e+08,2,-0.00012692,0.0016873,-0.0024522,0.097091,0.050533,-9.8842,0,0,38.739,1,1,7744,3872
4727,1.1981e+08,2,-0.0003645,0.0010126,-0.0016654,0.098447,0.049824,-9.8832,0,0,38.739,1,1,7744,3872
4762,1.1981e+08,2,0.00071066,0.0014507,-4.4011e-05,0.10144,0.049382,-9.8795,0,0,38.739,1,1,7744,3872
4765,1.1982e+08,2,0.0014852,0.0014705,0.00095883,0.10291,0.048265,-9.8773,0,0,38.739,1,1,7744,3872
4770,1.1982e+08,2,0.0014421,0.0016044,0.0018736,0.10409,0.04691,-9.8748,0,0,38.739,1,1,7744,3872
4773,1.1982e+08,2,0.0017441,0.0018902,0.0016087,0.10464,0.045509,-9.8717,0,0,38.739,1,1,7744,3872
4808,1.1982e+08,2,0.001969,0.0016416,0.0010269,0.10475,0.045526,-9.8677,0,0,38.739,1,1,7744,3872
4812,1.1983e+08,2,0.0016851,-0.00044062,0.0010868,0.096568,0.048294,-9.8653,0,0,38.739,1,1,7744,3872
4847,1.1984e+08,2,0.0026676,-0.0017661,0.00096833,0.094614,0.048348,-9.8677,0,0,38.739,1,1,7744,3872
4851,1.1984e+08,2,0.0034305,-0.0023852,0.00053776,0.091399,0.050446,-9.8726,0,0,38.739,1,1,7744,3872
4854,1.1984e+08,2,0.0037077,-0.0014631,0.00072552,0.088874,0.05051,-9.8759,0,0,38.739,1,1,7744,3872
4857,1.1984e+08,2,0.0043711,-0.00097463,0.00067838,0.085876,0.049812,-9.8787,0,0,38.739,1,1,7744,3872
4892,1.1985e+08,2,0.0043724,-0.00094062,-0.00016959,0.08218,0.049244,-9.8815,0,0,38.739,1,1,7744,3872
4896,1.1985e+08,2,0.003683,-0.0010257,0.00029438,0.080599,0.049873,-9.8822,0,0,38.739,1,1,7744,3872
4899,1.1985e+08,2,0.0023243,-0.0011962,0.0010104,0.080382,0.049616,-9.8832,0,0,38.739,1,1,7744,3872
4902,1.1985e+08,2,0.001861,-0.0011389,0.0014237,0.080587,0.047308,-9.8844,0,0,38.739,1,1,7744,3872
4937,1.1986e+08,2,0.0027253,-0.00087215,0.0011105,0.081843,0.044611,-9.8817,0,0,38.739,1,1,7744,3872
4942,1.1986e+08,2,0.0038071,-0.0001833,-2.1718e-05,0.085173,0.042526,-9.8758,0,0,38.739,1,1,7744,3872
4945,1.1986e+08,2,0.0034002,5.3899e-05,-0.00056225,0.086025,0.042627,-9.8727,0,0,38.739,1,1,7744,3872
4948,1.1986e+08,2,0.0023417,7.6636e-05,-0.00035423,0.087163,0.043021,-9.8682,0,0,38.739,1,1,7744,3872
4983,1.1987e+08,2,0.0010515,-0.0010641,0.00070663,0.09013,0.046546,-9.8631,0,0,38.739,1,1,7744,3872
4989,1.1987e+08,2,0.0011918,-0.0011875,0.0019024,0.090963,0.048454,-9.8598,0,0,38.739,1,1,7744,3872
4992,1.1987e+08,2,0.0015193,-0.0014051,0.0028042,0.092942,0.049551,-9.8528,0,0,38.739,1,1,7744,3872
4996,1.1988e+08,2,0.0020898,-0.0011555,0.0037179,0.093771,0.048545,-9.8472,0,0,38.739,1,1,7744,3872
5031,1.1988e+08,2,0.00065562,-0.00088302,0.004285,0.09634,0.046194,-9.8407,0,0,38.739,1,1,7744,3872
5035,1.1988e+08,2,0.00024633,-0.00036413,0.0041044,0.099687,0.045146,-9.8395,0,0,38.739,1,1,7744,3872
5038,1.1988e+08,2,0.00038014,-1.3104e-05,0.0031278,0.10009,0.04432,-9.8395,0,0,38.739,1,1,7744,3872
5041,1.1989e+08,2,0.0017022,-0.00048272,0.0011383,0.099839,0.040652,-9.8399,0,0,38.738,1,1,7744,3872
5076,1.1989e+08,2,0.0010041,-0.00093248,-0.0008673,0.09929,0.037271,-9.8431,0,0,38.738,1,1,7744,3872
5079,1.1989e+08,2,0.0006406,-0.00074452,-0.0010608,0.098663,0.035024,-9.8453,0,0,38.738,1,1,7744,3872
5082,1.1989e+08,2,0.00010586,-0.00024065,-0.00098501,0.098932,0.033398,-9.8451,0,0,38.738,1,1,7744,3872
5085,1.199e+08,2,0.00083344,0.00048813,-7.5555e-05,0.10053,0.031153,-9.845,0,0,38.738,1,1,7744,3872
5120,1.199e+08,2,0.00074989,-2.615e-05,0.00062464,0.099598,0.028674,-9.8504,0,0,38.738,1,1,7744,3872
5124,1.199e+08,2,-0.0002578,-0.00045583,0.0019509,0.098278,0.028521,-9.8569,0,0,38.738,1,1,7744,3872
5127,1.199e+08,2,3.202e-05,0.00010262,0.0020294,0.097834,0.029475,-9.8611,0,0,38.738,1,1,7744,3872
5131,1.1991e+08,2,0.001579,0.00048779,0.0022155,0.096629,0.030724,-9.8681,0,0,38.739,1,1,7744,3872
5166,1.1991e+08,2,0.0020111,0.00026309,0.0020251,0.095731,0.031334,-9.8735,0,0,38.739,1,1,7744,3872
5169,1.1991e+08,2,0.00060388,0.00079411,0.003002,0.096038,0.032022,-9.8755,0,0,38.739,1,1,7744,3872
5172,1.1991e+08,2,-0.0013713,0.0021329,0.0030281,0.09687,0.033008,-9.8753,0,0,38.739,1,1,7744,3872
5175,1.1992e+08,2,-0.0014414,0.0021833,0.0019742,0.097003,0.034057,-9.8752,0,0,38.739,1,1,7744,3872
5210,1.1992e+08,2,-0.0012867,0.0018515,0.00053912,0.097056,0.036153,-9.8758,0,0,38.739,1,1,7744,3872
5214,1.1992e+08,2,-0.001177,0.0017724,0.00012004,0.097158,0.037554,-9.8735,0,0,38.739,1,1,7744,3872
5217,1.1992e+08,2,-0.0014906,0.0034726,0.0010412,0.097169,0.039561,-9.8665,0,0,38.739,1,1,7744,3872
5220,1.1993e+08,2,-0.0018468,0.0041223,0.0015351,0.097963,0.041003,-9.8618,0,0,38.739,1,1,7744,3872
5257,1.1993e+08,2,-0.00099727,0.0046012,-0.00057403,0.099783,0.043179,-9.8588,0,0,38.739,1,1,7744,3872
5261,1.1993e+08,2,-0.00015123,0.0037398,-0.0018346,0.10078,0.042601,-9.858,0,0,38.739,1,1,7744,3872
5264,1.1993e+08,2,0.00067564,0.0020644,-0.0026264,0.10106,0.040239,-9.8611,0,0,38.739,1,1,7744,3872
5267,1.1994e+08,2,0.00097977,0.0018512,-0.0020057,0.10083,0.039121,-9.8652,0,0,38.739,1,1,7744,3872
5302,1.1994e+08,2,0.0012124,0.0020124,-0.001366,0.10289,0.038141,-9.8698,0,0,38.74,1,1,7744,3872
5305,1.1994e+08,2,0.00095885,0.0026671,-0.00075943,0.10807,0.036364,-9.8725,0,0,38.74,1,1,7744,3872
5308,1.1995e+08,2,-6.1277e-06,0.0031068,-0.0004674,0.11195,0.033701,-9.8748,0,0,38.74,1,1,7744,3872
5311,1.1995e+08,2,-0.0020858,0.0033149,-0.0013042,0.11574,0.030922,-9.8757,0,0,38.74,1,1,7744,3872
5346,1.1995e+08,2,-0.0025764,0.0033999,-0.0021094,0.11805,0.029166,-9.8752,0,0,38.74,1,1,7744,3872
5350,1.1995e+08,2,-0.0022531,0.0028302,-0.0027805,0.12045,0.028221,-9.8726,0,0,38.74,1,1,7744,3872
5353,1.1995e+08,2,-0.0017017,0.0016174,-0.0027967,0.12223,0.028254,-9.8686,0,0,38.74,1,1,7744,3872
5356,1.1996e+08,2,-0.0017496,-0.00026421,-0.00044962,0.12554,0.031812,-9.8603,0,0,38.74,1,1,7744,3872
5391,1.1996e+08,2,-0.0024472,-0.0002348,0.00063093,0.12729,0.035242,-9.856,0,0,38.74,1,1,7744,3872
5394,1.1996e+08,2,-0.0023251,6.6367e-05,0.00053037,0.12672,0.037286,-9.8538,0,0,38.74,1,1,7744,3872
5397,1.1997e+08,2,-0.0016328,0.00034386,0.00036268,0.12445,0.039774,-9.8506,0,0,38.74,1,1,7744,3872
5400,1.1997e+08,2,-0.0022997,-0.00041837,0.00080378,0.1226,0.043003,-9.8505,0,0,38.74,1,1,7744,3872
5435,1.1997e+08,2,-0.003581,-0.0015559,0.00068887,0.12063,0.048806,-9.8495,0,0,38.74,1,1,7744,3872
5442,1.1997e+08,2,-0.0028252,-0.001689,0.00079721,0.11899,0.051796,-9.8471,0,0,38.74,1,1,7744,3872
5445,1.1998e+08,2,-0.0004603,-0.0021632,0.0017177,0.11536,0.053033,-9.8438,0,0,38.74,1,1,7744,3872
5449,1.1998e+08,2,0.00099462,-0.0023747,0.0019401,0.11346,0.051941,-9.8426,0,0,38.74,1,1,7744,3872
5484,1.1998e+08,2,0.0014755,-0.0022589,0.0010974,0.11321,0.050163,-9.843,0,0,38.74,1,1,7744,3872
5487,1.1998e+08,2,0.00035615,-0.0015903,0.00060431,0.11353,0.047585,-9.8436,0,0,38.74,1,1,7744,3872
5492,1.1999e+08,2,0.00010889,-0.0013032,-0.000181,0.11573,0.042753,-9.8418,0,0,38.74,1,1,7744,3872
5495,1.1999e+08,2,0.0013079,-0.0019594,-0.0018794,0.11864,0.040247,-9.84,0,0,38.74,1,1,7744,3872
5530,1.1999e+08,2,0.0023559,-0.0028267,-0.0027371,0.12129,0.039073,-9.837,0,0,38.74,1,1,7744,3872
5534,1.1999e+08,2,0.0016517,-0.0022147,-0.0017709,0.12009,0.038562,-9.8357,0,0,38.74,1,1,7744,3872
5537,1.2e+08,2,0.00057459,-0.0017878,0.00071975,0.11552,0.038443,-9.8335,0,0,38.74,1,1,7744,3872
5540,1.2e+08,2,0.00066322,-0.0015914,0.0013661,0.11237,0.039183,-9.8322,0,0,38.74,1,1,7744,3872
5575,1.2e+08,2,0.0021838,-0.00076886,0.0017414,0.10985,0.040251,-9.8336,0,0,38.74,1,1,7744,3872
5579,1.2e+08,2,0.001999,-0.00070063,0.0009713,0.10802,0.041921,-9.8417,0,0,38.74,1,1,7744,3872
5584,1.2001e+08,2,0.0011657,-0.00021701,0.00032652,0.1066,0.043333,-9.846,0,0,38.74,1,1,7744,3872
5587,1.2001e+08,2,0.00063914,-0.00053565,-0.00031528,0.10429,0.046303,-9.8487,0,0,38.74,1,1,7744,3872
5622,1.2002e+08,2,0.0035502,0.00042183,0.00091821,0.098918,0.055072,-9.8575,0,0,38.74,1,1,7744,3872
5625,1.2002e+08,2,0.0031665,0.00027444,0.0017478,0.099533,0.053539,-9.8605,0,0,38.74,1,1,7744,3872
5660,1.2002e+08,2,0.0025521,0.00020422,0.0014451,0.10069,0.048701,-9.8656,0,0,38.74,1,1,7744,3872
5663,1.2003e+08,2,0.0027484,-0.00035407,0.00023538,0.10269,0.042896,-9.8693,0,0,38.74,1,1,7744,3872
5666,1.2003e+08,2,0.0030656,-0.00023335,0.00019146,0.10363,0.040447,-9.8698,0,0,38.74,1,1,7744,3872
5670,1.2003e+08,2,0.0034049,0.00029276,0.00077333,0.10396,0.0387,-9.8669,0,0,38.741,1,1,7744,3872
5705,1.2003e+08,2,0.0031139,0.00097471,0.00154,0.10406,0.039216,-9.8651,0,0,38.741,1,1,7744,3872
5708,1.2004e+08,2,0.0023373,0.0013344,0.0024523,0.1015,0.041649,-9.8647,0,0,38.741,1,1,7744,3872
5711,1.2004e+08,2,0.0022567,0.0010542,0.0027529,0.099057,0.043807,-9.8646,0,0,38.741,1,1,7744,3872
5715,1.2004e+08,2,0.0019811,0.00083674,0.0013778,0.097234,0.047834,-9.8645,0,0,38.741,1,1,7744,3872
5750,1.2004e+08,2,0.0017078,0.00057329,0.0010179,0.095664,0.053096,-9.8634,0,0,38.741,1,1,7744,3872
5753,1.2005e+08,2,0.0018799,-0.00063648,0.00045809,0.093749,0.059345,-9.8619,0,0,38.741,1,1,7744,3872
5756,1.2005e+08,2,0.002013,-0.00090515,0.00029661,0.093028,0.060789,-9.8621,0,0,38.741,1,1,7744,3872
5759,1.2005e+08,2,0.0024272,0.00033048,0.00051945,0.092111,0.058241,-9.8617,0,0,38.741,1,1,7744,3872
5794,1.2005e+08,2,0.0026276,0.0016008,0.00099423,0.091308,0.054316,-9.8599,0,0,38.741,1,1,7744,3872
5797,1.2006e+08,2,0.0027061,0.0031702,0.0025873,0.091594,0.047576,-9.8581,0,0,38.741,1,1,7744,3872
5800,1.2006e+08,2,0.0024089,0.0037828,0.0028931,0.093451,0.042481,-9.8577,0,0,38.741,1,1,7744,3872
5804,1.2006e+08,2,0.0010897,0.002834,0.0036008,0.099775,0.035388,-9.8561,0,0,38.741,1,1,7744,3872
5839,1.2006e+08,2,0.00070683,0.00092006,0.0039724,0.1044,0.031316,-9.8536,0,0,38.741,1,1,7744,3872
5842,1.2007e+08,2,0.00014239,-0.0011511,0.0037374,0.10917,0.026947,-9.8498,0,0,38.741,1,1,7744,3872
5845,1.2007e+08,2,-0.00049392,-0.0021762,0.0031506,0.11172,0.024652,-9.8493,0,0,38.741,1,1,7744,3872
5848,1.2007e+08,2,-0.0012189,-0.003267,0.0027402,0.11222,0.024261,-9.8496,0,0,38.741,1,1,7744,3872
5883,1.2007e+08,2,-0.0014859,-0.0042214,0.0036762,0.11069,0.025404,-9.8477,0,0,38.741,1,1,7744,3872
5889,1.2008e+08,2,-0.0023451,-0.0043534,0.0029512,0.10972,0.026482,-9.8464,0,0,38.741,1,1,7744,3872
5892,1.2008e+08,2,-0.0035586,-0.0037155,0.0017667,0.10545,0.030886,-9.8431,0,0,38.741,1,1,7744,3872
5896,1.2008e+08,2,-0.0044425,-0.0022851,0.00047843,0.1019,0.035465,-9.8405,0,0,38.741,1,1,7744,3872
5931,1.2008e+08,2,-0.0032916,-0.0010288,-0.00045012,0.098656,0.04011,-9.8362,0,0,38.741,1,1,7744,3872
5935,1.2009e+08,2,-0.0029629,-0.0010319,-0.00041524,0.097476,0.043063,-9.8353,0,0,38.741,1,1,7744,3872
5938,1.2009e+08,2,-0.0033091,-0.001428,-0.00037195,0.097732,0.045661,-9.8351,0,0,38.741,1,1,7744,3872
5942,1.2009e+08,2,-0.0035358,-0.001401,-0.00061125,0.099046,0.044705,-9.8344,0,0,38.741,1,1,7744,3872
5977,1.201e+08,2,-0.0036952,-0.00019905,-0.00084022,0.10405,0.040707,-9.8328,0,0,38.741,1,1,7744,3872
5980,1.201e+08,2,-0.0031807,-0.000606,-0.0011758,0.1078,0.035647,-9.8321,0,0,38.741,1,1,7744,3872
5983,1.201e+08,2,-0.0035769,-0.00095959,-0.0014088,0.10759,0.034058,-9.8331,0,0,38.741,1,1,7744,3872
5986,1.201e+08,2,-0.0052563,-0.0013295,-0.0011969,0.10623,0.034449,-9.8361,0,0,38.74,1,1,7744,3872
6021,1.2011e+08,2,-0.0054767,-0.001436,-0.0013701,0.10393,0.035414,-9.8401,0,0,38.74,1,1,7744,3872
6024,1.2011e+08,2,-0.0054405,-0.0019616,-0.001461,0.1004,0.037696,-9.8494,0,0,38.74,1,1,7744,3872
6027,1.2011e+08,2,-0.0047202,-0.0018837,-0.00062139,0.097122,0.040655,-9.8569,0,0,38.74,1,1,7744,3872
6031,1.2011e+08,2,-0.0038173,-0.00079812,0.0011322,0.090142,0.045263,-9.8675,0,0,38.74,1,1,7744,3872
6066,1.2011e+08,2,-0.0033709,-0.00024172,0.0019713,0.084631,0.04757,-9.8721,0,0,38.74,1,1,7744,3872
6069,1.2012e+08,2,-0.0023978,0.00078103,0.0018698,0.078513,0.051003,-9.8746,0,0,38.74,1,1,7744,3872
6072,1.2012e+08,2,-0.0017672,0.0015577,0.0013355,0.076365,0.054159,-9.8762,0,0,38.74,1,1,7744,3872
6075,1.2012e+08,2,-0.001199,0.0018303,0.00057561,0.076079,0.057269,-9.8803,0,0,38.74,1,1,7744,3872
6110,1.2012e+08,2,-0.0014364,0.0019597,0.00031571,0.0782,0.05741,-9.8829,0,0,38.74,1,1,7744,3872
6113,1.2013e+08,2,-0.0016504,0.0019699,-0.0012587,0.082383,0.05354,-9.8822,0,0,38.74,1,1,7744,3872
6116,1.2013e+08,2,-0.001463,0.0017807,-0.0023713,0.085282,0.049515,-9.8781,0,0,38.74,1,1,7744,3872
6120,1.2013e+08,2,0.0001676,0.00095871,-0.0022498,0.091015,0.044231,-9.8691,0,0,38.74,1,1,7744,3872
6155,1.2014e+08,2,-0.0011093,0.00080351,-0.0020749,0.094846,0.041119,-9.8637,0,0,38.74,1,1,7744,3872
6158,1.2014e+08,2,-0.0014033,0.0011373,-0.002281,0.09819,0.037399,-9.8558,0,0,38.74,1,1,7744,3872
6161,1.2014e+08,2,-0.00058442,0.001428,-0.0032084,0.098593,0.037246,-9.8529,0,0,38.74,1,1,7744,3872
6164,1.2014e+08,2,0.00062672,0.0018805,-0.0030775,0.097173,0.040122,-9.8545,0,0,38.74,1,1,7744,3872
6199,1.2015e+08,2,0.00085166,0.0022447,-0.0017623,0.094501,0.043832,-9.8582,0,0,38.74,1,1,7744,3872
6202,1.2015e+08,2,0.0016622,0.0021506,-0.00056548,0.092599,0.045623,-9.8603,0,0,38.739,1,1,7744,3872
6205,1.2015e+08,2,0.0027616,0.001816,0.00032089,0.091195,0.047769,-9.8589,0,0,38.739,1,1,7744,3872
6209,1.2015e+08,2,0.0036507,0.0014651,0.00019087,0.091206,0.05025,-9.8548,0,0,38.739,1,1,7744,3872
6244,1.2016e+08,2,0.0028695,0.0015085,-0.0004818,0.094434,0.049398,-9.8505,0,0,38.739,1,1,7744,3872
6248,1.2016e+08,2,0.0020252,0.00216,-0.00099476,0.098128,0.046696,-9.8483,0,0,38.74,1,1,7744,3872
6251,1.2016e+08,2,0.0022569,0.0034509,-0.00084262,0.10466,0.043327,-9.8454,0,0,38.74,1,1,7744,3872
6255,1.2016e+08,2,0.0028526,0.0037715,-0.00057329,0.10929,0.042117,-9.8436,0,0,38.74,1,1,7744,3872
6290,1.2017e+08,2,0.0031343,0.0029633,0.00025671,0.11315,0.041692,-9.8413,0,0,38.74,1,1,7744,3872
6293,1.2017e+08,2,0.0021232,0.001544,0.0019745,0.11609,0.039903,-9.8391,0,0,38.74,1,1,7744,3872
6296,1.2017e+08,2,0.0022576,0.001455,0.0020883,0.11606,0.03703,-9.8366,0,0,38.74,1,1,7744,3872
6299,1.2018e+08,2,0.0030888,0.0012562,0.0012745,0.11151,0.030676,-9.839,0,0,38.74,1,1,7744,3872
6334,1.2018e+08,2,0.00060955,0.002239,0.00039552,0.10873,0.030272,-9.8382,0,0,38.74,1,1,7744,3872
6341,1.2018e+08,2,0.0025057,0.00052228,-0.00093545,0.10675,0.032946,-9.8338,0,0,38.74,1,1,7744,3872
6344,1.2018e+08,2,0.0040873,-0.00073318,-0.003376,0.10275,0.03417,-9.839,0,0,38.74,1,1,7744,3872
6349,1.2019e+08,2,0.0014514,0.001363,-0.0041036,0.1011,0.035529,-9.8438,0,0,38.74,1,1,7744,3872
6384,1.2019e+08,2,0.00021974,0.0024785,-0.0038967,0.09985,0.034126,-9.8499,0,0,38.74,1,1,7744,3872
6387,1.2019e+08,2,0.0031756,0.0012699,-0.0039447,0.10236,0.030954,-9.8459,0,0,38.74,1,1,7744,3872
6390,1.2019e+08,2,0.0060942,-5.0112e-06,-0.0043534,0.10569,0.025948,-9.8441,0,0,38.74,1,1,7744,3872
6393,1.202e+08,2,0.0015708,-0.0010051,-0.0071749,0.11068,0.019289,-9.8484,0,0,38.74,1,1,7744,3872
6428,1.202e+08,2,-0.0017241,-0.00022289,-0.010054,0.11906,0.012567,-9.8513,0,0,38.741,1,1,7744,3872
6431,1.202e+08,2,0.00061765,9.3701e-05,-0.012279,0.12521,0.010975,-9.8462,0,0,38.741,1,1,7744,3872
6435,1.202e+08,2,0.0051016,-0.00066841,-0.013326,0.13016,0.011732,-9.8474,0,0,38.741,1,1,7744,3872
6439,1.2021e+08,2,0.0017309,-0.0010864,-0.011575,0.12977,0.017118,-9.8701,0,0,38.741,1,1,7744,3872
6474,1.2021e+08,2,-0.0061733,0.0022115,-0.010033,0.12763,0.026852,-9.8765,0,0,38.741,1,1,7744,3872
6478,1.2021e+08,2,0.0014682,0.0010646,-0.010232,0.12579,0.03166,-9.8674,0,0,38.741,1,1,7744,3872
6483,1.2021e+08,2,0.013006,-0.0023484,-0.010679,0.12103,0.035532,-9.8672,0,0,38.741,1,1,7744,3872
6486,1.2022e+08,2,0.0056278,-0.0047227,-0.00786,0.10719,0.046385,-9.8932,0,0,38.741,1,1,7744,3872
6521,1.2023e+08,2,0.020144,-0.0042443,0.014291,0.070878,0.06489,-9.8739,0,0,38.741,1,1,7744,3872
6525,1.2023e+08,2,-0.0054262,-0.0032273,0.016194,0.06999,0.060391,-9.8777,0,0,38.741,1,1,7744,3872
6560,1.2023e+08,2,-0.023355,0.0007104,0.016719,0.074283,0.054904,-9.8616,0,0,38.741,1,1,7744,3872
6563,1.2023e+08,2,0.0035696,-0.0029439,0.014312,0.085985,0.046137,-9.8344,0,0,38.742,1,1,7744,3872
6566,1.2024e+08,2,0.022987,-0.0098133,0.013234,0.098128,0.035706,-9.8406,0,0,38.742,1,1,7744,3872
6570,1.2024e+08,2,0.012353,-0.008656,0.015752,0.099897,0.039298,-9.8758,0,0,38.742,1,1,7744,3872
6605,1.2024e+08,2,-0.018277,0.0074942,0.02301,0.11091,0.047179,-9.8779,0,0,38.742,1,1,7744,3872
6608,1.2024e+08,2,-0.00053045,0.0028972,0.023358,0.11665,0.038577,-9.8448,0,0,38.742,1,1,7744,3872
6611,1.2025e+08,2,0.012891,-0.007543,0.019878,0.11248,0.032045,-9.8598,0,0,38.742,1,1,7744,3872
6614,1.2025e+08,2,-0.0014693,-0.0089275,0.01603,0.11268,0.034577,-9.8935,0,0,38.742,1,1,7744,3872
6649,1.2025e+08,2,-0.011001,-0.0044684,0.013086,0.11748,0.036943,-9.8899,0,0,38.742,1,1,7744,3872
6652,1.2025e+08,2,-0.00065582,-0.0035381,0.011251,0.11943,0.035258,-9.8845,0,0,38.742,1,1,7744,3872
6655,1.2026e+08,2,0.0044303,0.00031614,0.0098538,0.117,0.0378,-9.8915,0,0,38.742,1,1,7744,3872
6659,1.2026e+08,2,-5.7113e-05,0.0037569,0.010173,0.11474,0.04002,-9.895,0,0,38.743,1,1,7744,3872
6694,1.2026e+08,2,-0.006622,0.012616,0.010471,0.114,0.039951,-9.8755,0,0,38.743,1,1,7744,3872
6697,1.2026e+08,2,0.0059216,-0.00061785,0.0075268,0.10973,0.036342,-9.8379,0,0,38.743,1,1,7744,3872
6700,1.2027e+08,2,0.011104,-0.013249,0.0053462,0.10286,0.039338,-9.8498,0,0,38.743,1,1,7744,3872
6703,1.2027e+08,2,-0.0076716,-0.0081317,0.0055148,0.10687,0.051799,-9.8692,0,0,38.743,1,1,7744,3872
6738,1.2027e+08,2,-0.01214,0.0034868,0.0049751,0.11928,0.058443,-9.8545,0,0,38.743,1,1,7744,3872
6741,1.2027e+08,2,0.0059485,0.011687,0.00085224,0.13029,0.060245,-9.8368,0,0,38.743,1,1,7744,3872
6744,1.2028e+08,2,0.011049,0.0093165,-0.0011284,0.12197,0.065942,-9.8517,0,0,38.743,1,1,7744,3872
6748,1.2028e+08,2,-0.0069621,0.0060982,-7.1692e-05,0.10734,0.072946,-9.8712,0,0,38.744,1,1,7744,3872
6783,1.2028e+08,2,-0.01101,0.00037261,0.00062217,0.10128,0.071534,-9.8423,0,0,38.744,1,1,7744,3872
6789,1.2029e+08,2,0.005314,-0.0068522,-0.00019167,0.10232,0.063953,-9.8205,0,0,38.744,1,1,7744,3872
6792,1.2029e+08,2,0.0083086,-0.0067074,-0.00033084,0.094807,0.060203,-9.837,0,0,38.744,1,1,7744,3872
6796,1.2029e+08,2,-0.0036489,0.0057842,0.0010611,0.088913,0.061327,-9.8536,0,0,38.744,1,1,7744,3872
6831,1.2029e+08,2,-0.0064636,0.019758,-0.0004615,0.086005,0.05825,-9.8482,0,0,38.744,1,1,7744,3872
6834,1.203e+08,2,0.0059988,0.013778,-0.0055044,0.082457,0.046214,-9.8199,0,0,38.744,1,1,7744,3872
6837,1.203e+08,2,0.0099422,0.0012688,-0.010874,0.080023,0.043726,-9.8248,0,0,38.744,1,1,7744,3872
6841,1.203e+08,2,-0.0060874,-0.0061894,-0.012665,0.077534,0.04959,-9.8492,0,0,38.744,1,1,7744,3872
6876,1.203e+08,2,-0.0098866,0.0035335,-0.007218,0.08257,0.053704,-9.8532,0,0,38.744,1,1,7744,3872
6879,1.2031e+08,2,0.0051565,0.0084272,-0.0064656,0.094345,0.051502,-9.8403,0,0,38.744,1,1,7744,3872
6882,1.2031e+08,2,0.018211,0.001863,-0.010141,0.10193,0.046529,-9.8591,0,0,38.744,1,1,7744,3872
6886,1.2031e+08,2,0.0023688,0.0011056,-0.012187,0.10006,0.044832,-9.8926,0,0,38.744,1,1,7744,3872
6921,1.2031e+08,2,-0.0158,0.012657,-0.013866,0.099605,0.044069,-9.9014,0,0,38.744,1,1,7744,3872
6924,1.2032e+08,2,-0.0023055,0.011983,-0.015543,0.10785,0.041527,-9.872,0,0,38.744,1,1,7744,3872
6929,1.2032e+08,2,0.025083,-0.010096,-0.019109,0.11188,0.04049,-9.8485,0,0,38.745,1,1,7744,3872
6932,1.2032e+08,2,0.017444,-0.014658,-0.017397,0.10137,0.046893,-9.8793,0,0,38.745,1,1,7744,3872
6967,1.2032e+08,2,-0.020619,0.014187,-0.0077438,0.099386,0.050203,-9.9018,0,0,38.745,1,1,7744,3872
6970,1.2033e+08,2,-0.017962,0.01729,-0.007716,0.1038,0.04199,-9.876,0,0,38.745,1,1,7744,3872
6973,1.2033e+08,2,0.012604,0.0028476,-0.014076,0.10063,0.028812,-9.8342,0,0,38.745,1,1,7744,3872
6977,1.2033e+08,2,0.027289,-0.0087721,-0.017453,0.092036,0.028701,-9.8375,0,0,38.745,1,1,7744,3872
7012,1.2034e+08,2,0.0098944,-0.0032951,-0.015685,0.089948,0.036086,-9.8681,0,0,38.745,1,1,7744,3872
7015,1.2034e+08,2,-0.019058,0.0023089,-0.01259,0.10126,0.039802,-9.8592,0,0,38.745,1,1,7744,3872
7018,1.2034e+08,2,-0.010721,-0.005762,-0.011332,0.10455,0.038373,-9.8381,0,0,38.746,1,1,7744,3872
7021,1.2034e+08,2,0.019642,-0.011859,-0.0088356,0.10545,0.035877,-9.845,0,0,38.746,1,1,7744,3872
7056,1.2034e+08,2,0.014957,0.0017902,-0.0036122,0.11464,0.035808,-9.8769,0,0,38.746,1,1,7744,3872
7059,1.2035e+08,2,-0.0041661,0.0043829,-0.0022198,0.11945,0.030185,-9.8815,0,0,38.746,1,1,7744,3872
7062,1.2035e+08,2,-0.016776,-0.0018274,-0.0037699,0.11825,0.019217,-9.8761,0,0,38.746,1,1,7744,3872
7066,1.2035e+08,2,-0.0077376,-0.012178,-0.0075408,0.11556,0.01012,-9.8704,0,0,38.746,1,1,7744,3872
7101,1.2036e+08,2,-0.00095084,-0.013685,-0.0076341,0.1133,0.0079993,-9.8716,0,0,38.746,1,1,7744,3872
7104,1.2036e+08,2,0.0063143,-0.012171,-0.0032469,0.10276,0.012667,-9.8957,0,0,38.746,1,1,7744,3872
7107,1.2036e+08,2,-0.004057,-0.0084768,0.0020372,0.093505,0.016763,-9.91,0,0,38.746,1,1,7744,3872
7112,1.2036e+08,2,-0.017693,-0.0048101,0.009106,0.084974,0.018478,-9.9096,0,0,38.746,1,1,7744,3872
7147,1.2037e+08,2,-0.01324,-0.0040415,0.0098727,0.081484,0.016355,-9.9055,0,0,38.746,1,1,7744,3872
7150,1.2037e+08,2,0.0026758,-0.003944,0.0052687,0.075128,0.019533,-9.916,0,0,38.746,1,1,7744,3872
7153,1.2037e+08,2,0.0062844,-0.002474,0.0022927,0.071306,0.02607,-9.9239,0,0,38.747,1,1,7744,3872
7156,1.2037e+08,2,-0.0041233,-0.00068305,0.0037037,0.073793,0.038422,-9.9057,0,0,38.747,1,1,7744,3872
7191,1.2038e+08,2,-0.0096405,-0.0035819,0.0068225,0.077017,0.046677,-9.8835,0,0,38.747,1,1,7744,3872
7194,1.2038e+08,2,-0.0033137,-0.0048418,0.012047,0.079922,0.058982,-9.8753,0,0,38.747,1,1,7744,3872
7197,1.2038e+08,2,0.0045695,0.0014139,0.014913,0.083031,0.066707,-9.8815,0,0,38.747,1,1,7744,3872
7201,1.2038e+08,2,0.0093214,0.011225,0.017067,0.087777,0.072063,-9.8777,0,0,38.747,1,1,7744,3872
7236,1.2039e+08,2,0.0025049,0.0044442,0.013791,0.093075,0.071274,-9.857,0,0,38.747,1,1,7744,3872
7242,1.2039e+08,2,-0.0031847,-0.0025119,0.0099947,0.091924,0.067136,-9.8556,0,0,38.747,1,1,7744,3872
7245,1.2039e+08,2,-0.0029108,-0.0028957,0.0084781,0.090843,0.060266,-9.8599,0,0,38.747,1,1,7744,3872
7249,1.2039e+08,2,0.0047912,0.00087155,0.0096846,0.095659,0.055258,-9.8394,0,0,38.747,1,1,7744,3872
7285,1.204e+08,2,0.013793,0.00034433,0.013177,0.10466,0.045772,-9.7998,0,0,38.747,1,1,7744,3872
7288,1.204e+08,2,2.6116e-05,0.00098013,0.014724,0.10563,0.039267,-9.8008,0,0,38.747,1,1,7744,3872
7291,1.204e+08,2,-0.010325,0.0057303,0.01452,0.10927,0.037003,-9.8103,0,0,38.747,1,1,7744,3872
7295,1.204e+08,2,-0.0083882,0.0058469,0.012665,0.11254,0.034359,-9.8191,0,0,38.747,1,1,7744,3872
7330,1.2041e+08,2,0.0070613,-0.0060098,0.0070832,0.10729,0.032225,-9.8442,0,0,38.747,1,1,7744,3872
7333,1.2041e+08,2,0.0041375,-0.0092402,0.006073,0.10045,0.039495,-9.8652,0,0,38.747,1,1,7744,3872
7336,1.2041e+08,2,-0.006034,-0.0024765,0.0086715,0.10115,0.046092,-9.8556,0,0,38.747,1,1,7744,3872
7339,1.2041e+08,2,-0.0060751,0.0076037,0.011942,0.10065,0.050338,-9.835,0,0,38.747,1,1,7744,3872
7374,1.2042e+08,2,0.0041503,0.010049,0.011044,0.090919,0.054351,-9.8287,0,0,38.747,1,1,7744,3872
7377,1.2042e+08,2,0.010558,0.011728,0.009042,0.062881,0.063505,-9.8734,0,0,38.747,1,1,7744,3872
7382,1.2042e+08,2,0.0076047,0.013531,0.0075402,0.045232,0.069826,-9.9092,0,0,38.747,1,1,7744,3872
7386,1.2042e+08,2,0.00056326,0.01267,0.0053477,0.033601,0.074909,-9.9185,0,0,38.747,1,1,7744,3872
7423,1.2043e+08,2,0.0058388,0.0043389,0.0019539,0.025821,0.082524,-9.8934,0,0,38.747,1,1,7744,3872
7426,1.2043e+08,2,0.021134,0.0091909,0.0055564,0.054606,0.10824,-9.8857,0,0,38.747,1,1,7744,3872
7430,1.2043e+08,2,0.017403,0.010776,0.0063001,0.080857,0.10602,-9.8588,0,0,38.747,1,1,7744,3872
7465,1.2044e+08,2,0.0039802,-0.00036299,-0.00082307,0.16407,0.040399,-9.8397,0,0,38.747,1,1,7744,3872
7468,1.2044e+08,2,0.0015674,-0.0028547,-0.0012315,0.1808,0.010723,-9.8731,0,0,38.747,1,1,7744,3872
7472,1.2045e+08,2,0.0020356,-0.0099299,0.0011098,0.19596,-0.03377,-9.9225,0,0,38.747,1,1,7744,3872
7507,1.2045e+08,2,-0.00022904,-0.011256,0.0028294,0.20037,-0.046936,-9.9314,0,0,38.747,1,1,7744,3872
7510,1.2045e+08,2,-0.0054282,-0.011735,0.002501,0.21319,-0.075032,-9.924,0,0,38.747,1,1,7744,3872
7513,1.2045e+08,2,-0.010982,-0.012693,0.00057811,0.2071,-0.078964,-9.9168,0,0,38.747,1,1,7744,3872
7517,1.2046e+08,2,-0.012632,-0.004038,-0.0013621,0.16461,-0.054472,-9.9316,0,0,38.747,1,1,7744,3872
7552,1.2046e+08,2,0.0034202,0.0075781,-0.0031754,0.10553,-0.0021071,-9.9493,0,0,38.747,1,1,7744,3872
7556,1.2046e+08,2,0.013975,0.005916,-0.0046376,0.060118,0.036496,-9.9586,0,0,38.747,1,1,7744,3872
7559,1.2046e+08,2,0.0057303,0.00069681,-0.0061734,-0.0047225,0.094868,-9.9686,0,0,38.747,1,1,7744,3872
7562,1.2047e+08,2,0.00024362,-0.00025187,-0.0063544,-0.026864,0.12906,-9.9378,0,0,38.747,1,1,7744,3872
7597,1.2047e+08,2,0.023344,-0.0071054,-0.009378,-0.023809,0.15597,-9.8421,0,0,38.747,1,1,7744,3872
7600,1.2047e+08,2,0.037935,-0.01344,-0.012102,0.0056417,0.15669,-9.7944,0,0,38.747,1,1,7744,3872
7603,1.2047e+08,2,0.021372,-0.0094666,-0.011084,0.037215,0.14405,-9.8087,0,0,38.747,1,1,7744,3872
7607,1.2048e+08,2,-0.010619,0.0021031,-0.0076639,0.1018,0.094985,-9.8505,0,0,38.747,1,1,7744,3872
7642,1.2048e+08,2,-0.0060103,0.0011559,-0.01069,0.14689,0.045962,-9.8766,0,0,38.747,1,1,7744,3872
7645,1.2048e+08,2,0.0091495,-0.0050285,-0.014637,0.18532,-0.0039495,-9.9055,0,0,38.747,1,1,7744,3872
7648,1.2049e+08,2,0.012326,-0.012796,-0.017607,0.22529,-0.059123,-9.942,0,0,38.747,1,1,7744,3872
7652,1.2049e+08,2,0.0068607,-0.013833,-0.017248,0.23694,-0.07528,-9.9469,0,0,38.747,1,1,7744,3872
7687,1.2049e+08,2,-0.013204,-0.0086496,-0.012107,0.21791,-0.072521,-9.935,0,0,38.747,1,1,7744,3872
7693,1.2049e+08,2,-0.0213,0.0042267,-0.0077435,0.18302,-0.05828,-9.9123,0,0,38.747,1,1,7744,3872
7696,1.2049e+08,2,-0.016692,0.01805,-0.005929,0.11341,-0.024119,-9.8249,0,0,38.747,1,1,7744,3872
7700,1.205e+08,2,-5.935e-06,0.014125,-0.0087947,0.055274,0.0059659,-9.7575,0,0,38.747,1,1,7744,3872
7735,1.205e+08,2,0.021932,0.00041138,-0.012904,-0.054418,0.075499,-9.7509,0,0,38.747,1,1,7744,3872
7738,1.205e+08,2,0.0059245,-0.0066952,-0.010451,-0.08091,0.10547,-9.7901,0,0,38.747,1,1,7744,3872
7741,1.2051e+08,2,-0.017443,-0.018408,-0.0035743,-0.070897,0.11922,-9.8354,0,0,38.747,1,1,7744,3872
7745,1.2051e+08,2,-0.00994,-0.017274,-0.00039546,-0.032122,0.10656,-9.8489,0,0,38.747,1,1,7744,3872
7780,1.2051e+08,2,0.021558,0.0020463,0.0036367,0.029468,0.083564,-9.8546,0,0,38.747,1,1,7744,3872
7783,1.2051e+08,2,0.023269,0.018113,0.0051583,0.13894,0.044006,-9.8704,0,0,38.747,1,1,7744,3872
7786,1.2052e+08,2,0.014553,0.018512,0.0042041,0.19949,0.018392,-9.894,0,0,38.747,1,1,7744,3872
7789,1.2052e+08,2,-0.019891,0.011295,0.00063713,0.2547,-0.013448,-9.9337,0,0,38.747,1,1,7744,3872
7824,1.2052e+08,2,-0.026975,9.2421e-05,4.8169e-05,0.26916,-0.024191,-9.8983,0,0,38.747,1,1,7744,3872
7827,1.2052e+08,2,-0.0038239,-0.008011,0.00090893,0.2502,-0.021948,-9.8412,0,0,38.747,1,1,7744,3872
7830,1.2053e+08,2,0.016663,-0.0062237,0.0046741,0.17406,-0.0064157,-9.8078,0,0,38.747,1,1,7744,3872
7834,1.2053e+08,2,-0.0063367,0.0091456,0.0097511,0.10326,0.011772,-9.8296,0,0,38.747,1,1,7744,3872
7870,1.2053e+08,2,-0.040979,0.020866,0.011066,-0.00030548,0.04134,-9.8436,0,0,38.747,1,1,7744,3872
7873,1.2053e+08,2,-0.001994,0.0016364,0.0018729,-0.082407,0.065278,-9.8538,0,0,38.747,1,1,7744,3872
7876,1.2054e+08,2,0.029712,-0.0056322,-0.0039509,-0.10663,0.081151,-9.8782,0,0,38.747,1,1,7744,3872
7879,1.2054e+08,2,0.019007,0.009457,-0.0035187,-0.094663,0.099023,-9.893,0,0,38.747,1,1,7744,3872
7914,1.2054e+08,2,-0.011776,0.023608,0.0020588,-0.023109,0.11785,-9.8707,0,0,38.747,1,1,7744,3872
7917,1.2055e+08,2,-0.010916,0.022726,0.0038967,0.041524,0.12156,-9.8451,0,0,38.747,1,1,7744,3872
7920,1.2055e+08,2,0.0074037,0.014165,0.0064904,0.11007,0.12375,-9.8365,0,0,38.747,1,1,7744,3872
7925,1.2055e+08,2,0.029851,0.0026086,0.010858,0.20831,0.1283,-9.8658,0,0,38.747,1,1,7744,3872
7960,1.2055e+08,2,0.0036764,0.0024926,0.017786,0.28201,0.11941,-9.891,0,0,38.747,1,1,7744,3872
7963,1.2056e+08,2,-0.017861,-0.00087814,0.019431,0.30559,0.10175,-9.8774,0,0,38.747,1,1,7744,3872
7966,1.2056e+08,2,-0.0089105,-0.016974,0.019259,0.28892,0.06219,-9.854,0,0,38.747,1,1,7744,3872
7971,1.2056e+08,2,0.0080223,-0.019063,0.020822,0.24497,0.029253,-9.8613,0,0,38.747,1,1,7744,3872
8006,1.2056e+08,2,-0.00035548,0.0028215,0.024245,0.15412,-0.020555,-9.8524,0,0,38.747,1,1,7744,3872
8009,1.2056e+08,2,-0.014149,0.016522,0.021125,0.089002,-0.046663,-9.799,0,0,38.747,1,1,7744,3872
8012,1.2057e+08,2,-0.0041381,0.015175,0.008855,-0.0080909,-0.061578,-9.7214,0,0,38.747,1,1,7744,3872
8015,1.2057e+08,2,0.0094599,0.0072329,0.00055907,-0.058193,-0.041027,-9.7287,0,0,38.747,1,1,7744,3872
8050,1.2057e+08,2,0.0091674,-0.0048553,-0.0027529,-0.084057,0.0041469,-9.7781,0,0,38.747,1,1,7744,3872
8053,1.2058e+08,2,-0.00010583,-0.013985,0.00023658,-0.078761,0.057062,-9.8403,0,0,38.747,1,1,7744,3872
8056,1.2058e+08,2,-0.0054119,-0.023147,0.0033696,-0.004743,0.11653,-9.89,0,0,38.747,1,1,7744,3872
8060,1.2058e+08,2,-0.0011173,-0.028941,0.0073069,0.081519,0.13602,-9.878,0,0,38.747,1,1,7744,3872
8095,1.2058e+08,2,0.011619,-0.018684,0.01305,0.22281,0.12442,-9.8414,0,0,38.746,1,1,7744,3872
8098,1.2059e+08,2,0.0053405,0.011752,0.012521,0.32938,0.077491,-9.8058,0,0,38.746,1,1,7744,3872
8101,1.2059e+08,2,0.00024852,0.019333,0.0068543,0.36299,0.043827,-9.7629,0,0,38.746,1,1,7744,3872
8104,1.2059e+08,2,0.0052351,-0.0016565,-0.0038725,0.34052,0.0025851,-9.7137,0,0,38.746,1,1,7744,3872
8139,1.2059e+08,2,0.004938,-0.019711,-0.0068043,0.28471,-0.005877,-9.7273,0,0,38.746,1,1,7744,3872
8145,1.206e+08,2,-0.00052086,-0.030571,-0.0014959,0.16648,0.014797,-9.8204,0,0,38.746,1,1,7744,3872
8148,1.206e+08,2,-0.002107,-0.022142,0.0058646,0.082795,0.033731,-9.8916,0,0,38.746,1,1,7744,3872
8153,1.206e+08,2,0.0031255,-0.0089125,0.013931,-0.0095105,0.04594,-9.9209,0,0,38.746,1,1,7744,3872
8188,1.206e+08,2,0.009399,-0.011716,0.011718,-0.049334,0.0257,-9.8806,0,0,38.746,1,1,7744,3872
8191,1.2061e+08,2,0.0037956,-0.0084878,0.004815,-0.054274,-0.0010857,-9.8605,0,0,38.746,1,1,7744,3872
8196,1.2061e+08,2,-0.0081183,0.0061804,-0.0029604,-0.043422,-0.026608,-9.8506,0,0,38.746,1,1,7744,3872
8199,1.2061e+08,2,0.0038543,0.011093,-0.016139,0.035754,-0.042066,-9.8246,0,0,38.746,1,1,7744,3872
8234,1.2062e+08,2,-0.0010493,-0.012639,-0.0059239,0.14977,0.05383,-9.9732,0,0,38.746,1,1,7744,3872
8239,1.2062e+08,2,-0.010974,-0.0034651,-0.001308,0.19633,0.08172,-9.9593,0,0,38.746,1,1,7744,3872
8242,1.2062e+08,2,-0.0010893,-0.0098979,-0.0060603,0.2372,0.086975,-9.8954,0,0,38.746,1,1,7744,3872
8277,1.2063e+08,2,0.0037006,-0.0084595,-0.013406,0.22449,0.063701,-9.8976,0,0,38.746,1,1,7744,3872
8280,1.2063e+08,2,-0.010899,0.013973,-0.013691,0.19623,0.03372,-9.9122,0,0,38.746,1,1,7744,3872
8283,1.2063e+08,2,-0.023552,0.037341,-0.013789,0.16265,-0.0088998,-9.8864,0,0,38.746,1,1,7744,3872
8286,1.2063e+08,2,-0.0057447,0.026716,-0.019011,0.10067,-0.074509,-9.8178,0,0,38.746,1,1,7744,3872
8321,1.2064e+08,2,0.013361,-0.010045,-0.022606,0.075439,-0.088557,-9.8214,0,0,38.746,1,1,7744,3872
