LineNo,TimeUS,C1,C2,C3,C4,C5,C6,C7,C8,C9,C10,C11,C12,C13,C14
213,118644343,0,0,0,0,0,0,0,0,1000,1000,1000,1000,1000,1000
548,118728370,0,0,0,0,0,0,0,0,1000,1000,1000,1000,1000,1000
999,118835077,0,0,0,0,0,0,0,0,1000,1000,1000,1000,1000,1000
1327,119045585,0,0,0,0,0,0,0,0,1000,1000,1000,1000,1000,1000
1412,119057031,0,0,0,0,0,0,0,0,1000,1000,1000,1000,1000,1000
1625,119093055,0,0,0,0,0,0,0,0,1000,1000,1000,1000,1000,1000
1671,119103170,0,0,0,0,0,0,0,0,1000,1000,1000,1000,1000,1000
1715,119113500,0,0,0,0,0,0,0,0,1000,1000,1000,1000,1000,1000
1760,119124065,0,0,0,0,0,0,0,0,1000,1000,1000,1000,1000,1000
1804,119134552,0,0,0,0,0,0,0,0,1000,1000,1000,1000,1000,1000
1849,119145030,0,0,0,0,0,0,0,0,1000,1000,1000,1000,1000,1000
1898,119155315,0,0,0,0,0,0,0,0,1000,1000,1000,1000,1000,1000
1943,119164943,0,0,0,0,0,0,0,0,1000,1000,1000,1000,1000,1000
1991,119175618,0,0,0,0,0,0,0,0,1000,1000,1000,1000,1000,1000
2035,119186044,0,0,0,0,0,0,0,0,1000,1000,1000,1000,1000,1000
2081,119196494,0,0,0,0,0,0,0,0,1000,1000,1000,1000,1000,1000
2125,119207049,0,0,0,0,0,0,0,0,1000,1000,1000,1000,1000,1000
2170,119217254,0,0,0,0,0,0,0,0,1000,1000,1000,1000,1000,1000
2216,119230021,0,0,0,0,0,0,0,0,1000,1000,1000,1000,1000,1000
2259,119241385,0,0,0,0,0,0,0,0,1000,1000,1000,1000,1000,1000
2303,119251334,0,0,0,0,0,0,0,0,1000,1000,1000,1000,1000,1000
2352,119261510,0,0,0,0,0,0,0,0,1000,1000,1000,1000,1000,1000
2397,119271705,0,0,0,0,0,0,0,0,1000,1000,1000,1000,1000,1000
2441,119282479,0,0,0,0,0,0,0,0,1000,1000,1000,1000,1000,1000
2486,119292691,0,0,0,0,0,0,0,0,1000,1000,1000,1000,1000,1000
2531,119302575,0,0,0,0,0,0,0,0,1000,1000,1000,1000,1000,1000
2576,119312582,0,0,0,0,0,0,0,0,1000,1000,1000,1000,1000,1000
2621,119322388,0,0,0,0,0,0,0,0,1000,1000,1000,1000,1000,1000
2666,119332878,0,0,0,0,0,0,0,0,1000,1000,1000,1000,1000,1000
2711,119342927,0,0,0,0,0,0,0,0,1000,1000,1000,1000,1000,1000
2755,119353048,0,0,0,0,0,0,0,0,1000,1000,1000,1000,1000,1000
2804,119363409,0,0,0,0,0,0,0,0,1000,1000,1000,1000,1000,1000
2848,119373887,0,0,0,0,0,0,0,0,1000,1000,1000,1000,1000,1000
2894,119383587,0,0,0,0,0,0,0,0,1000,1000,1000,1000,1000,1000
2938,119394870,0,0,0,0,0,0,0,0,1000,1000,1000,1000,1000,1000
2984,119405531,0,0,0,0,0,0,0,0,1000,1000,1000,1000,1000,1000
3030,119418889,0,0,0,0,0,0,0,0,1000,1000,1000,1000,1000,1000
3074,119429708,0,0,0,0,0,0,0,0,1000,1000,1000,1000,1000,1000
3119,119439845,0,0,0,0,0,0,0,0,1000,1000,1000,1000,1000,1000
3164,119449636,0,0,0,0,0,0,0,0,1000,1000,1000,1000,1000,1000
3211,119459910,0,0,0,0,0,0,0,0,1000,1000,1000,1000,1000,1000
3257,119469592,0,0,0,0,0,0,0,0,1000,1000,1000,1000,1000,1000
3302,119480305,0,0,0,0,0,0,0,0,1000,1000,1000,1000,1000,1000
3347,119490264,0,0,0,0,0,0,0,0,1000,1000,1000,1000,1000,1000
3392,119500492,0,0,0,0,0,0,0,0,1000,1000,1000,1000,1000,1000
3437,119510649,0,0,0,0,0,0,0,0,1000,1000,1000,1000,1000,1000
3481,119520833,0,0,0,0,0,0,0,0,1000,1000,1000,1000,1000,1000
3527,119530641,0,0,0,0,0,0,0,0,1000,1000,1000,1000,1000,1000
3573,119541344,0,0,0,0,0,0,0,0,1000,1000,1000,1000,1000,1000
3617,119551803,0,0,0,0,0,0,0,0,1000,1000,1000,1000,1000,1000
3665,119562412,0,0,0,0,0,0,0,0,1000,1000,1000,1000,1000,1000
3710,119572391,0,0,0,0,0,0,0,0,1000,1000,1000,1000,1000,1000
3755,119582510,0,0,0,0,0,0,0,0,1000,1000,1000,1000,1000,1000
3801,119592552,0,0,0,0,0,0,0,0,1000,1000,1000,1000,1000,1000
3845,119603017,0,0,0,0,0,0,0,0,1000,1000,1000,1000,1000,1000
3895,119615914,0,0,0,0,0,0,0,0,1000,1000,1000,1000,1000,1000
3936,119629550,0,0,0,0,0,0,0,0,1000,1000,1000,1000,1000,1000
3983,119639801,0,0,0,0,0,0,0,0,1000,1000,1000,1000,1000,1000
4030,119649893,0,0,0,0,0,0,0,0,1000,1000,1000,1000,1000,1000
4074,119660356,0,0,0,0,0,0,0,0,1000,1000,1000,1000,1000,1000
4124,119670888,0,0,0,0,0,0,0,0,1000,1000,1000,1000,1000,1000
4168,119680851,0,0,0,0,0,0,0,0,1000,1000,1000,1000,1000,1000
4213,119690874,0,0,0,0,0,0,0,0,1000,1000,1000,1000,1000,1000
4257,119700862,0,0,0,0,0,0,0,0,1000,1000,1000,1000,1000,1000
4302,119710810,0,0,0,0,0,0,0,0,1000,1000,1000,1000,1000,1000
4347,119721075,0,0,0,0,0,0,0,0,1000,1000,1000,1000,1000,1000
4391,119730917,0,0,0,0,0,0,0,0,1000,1000,1000,1000,1000,1000
4436,119740979,0,0,0,0,0,0,0,0,1000,1000,1000,1000,1000,1000
4481,119751424,0,0,0,0,0,0,0,0,1000,1000,1000,1000,1000,1000
4526,119761417,0,0,0,0,0,0,0,0,1000,1000,1000,1000,1000,1000
4574,119771533,0,0,0,0,0,0,0,0,1000,1000,1000,1000,1000,1000
4619,119781722,0,0,0,0,0,0,0,0,1000,1000,1000,1000,1000,1000
4663,119792363,0,0,0,0,0,0,0,0,1000,1000,1000,1000,1000,1000
4708,119802894,0,0,0,0,0,0,0,0,1000,1000,1000,1000,1000,1000
4754,119813028,0,0,0,0,0,0,0,0,1000,1000,1000,1000,1000,1000
4800,119822905,0,0,0,0,0,0,0,0,1000,1000,1000,1000,1000,1000
4839,119835147,0,0,0,0,0,0,0,0,1000,1000,1000,1000,1000,1000
4884,119845302,0,0,0,0,0,0,0,0,1000,1000,1000,1000,1000,1000
4929,119855327,0,0,0,0,0,0,0,0,1000,1000,1000,1000,1000,1000
4975,119865624,0,0,0,0,0,0,0,0,1000,1000,1000,1000,1000,1000
5023,119876475,0,0,0,0,0,0,0,0,1000,1000,1000,1000,1000,1000
5068,119886588,0,0,0,0,0,0,0,0,1000,1000,1000,1000,1000,1000
5112,119897050,0,0,0,0,0,0,0,0,1000,1000,1000,1000,1000,1000
5158,119907633,0,0,0,0,0,0,0,0,1000,1000,1000,1000,1000,1000
5202,119917867,0,0,0,0,0,0,0,0,1000,1000,1000,1000,1000,1000
5249,119927600,0,0,0,0,0,0,0,0,1000,1000,1000,1000,1000,1000
5294,119938111,0,0,0,0,0,0,0,0,1000,1000,1000,1000,1000,1000
5338,119948269,0,0,0,0,0,0,0,0,1000,1000,1000,1000,1000,1000
5383,119958723,0,0,0,0,0,0,0,0,1000,1000,1000,1000,1000,1000
5427,119969048,0,0,0,0,0,0,0,0,1000,1000,1000,1000,1000,1000
5476,119979131,0,0,0,0,0,0,0,0,1000,1000,1000,1000,1000,1000
5522,119988869,0,0,0,0,0,0,0,0,1000,1000,1000,1000,1000,1000
5567,119999369,0,0,0,0,0,0,0,0,1000,1000,1000,1000,1000,1000
5614,120009792,0,0,0,0,0,0,0,0,1000,1000,1000,1000,1000,1000
5652,120020865,0,0,0,0,0,0,0,0,1000,1000,1000,1000,1000,1000
5697,120031056,0,0,0,0,0,0,0,0,1000,1000,1000,1000,1000,1000
5742,120040924,0,0,0,0,0,0,0,0,1000,1000,1000,1000,1000,1000
5786,120051342,0,0,0,0,0,0,0,0,1000,1000,1000,1000,1000,1000
5831,120061590,0,0,0,0,0,0,0,0,1000,1000,1000,1000,1000,1000
5875,120072053,0,0,0,0,0,0,0,0,1000,1000,1000,1000,1000,1000
5923,120082717,0,0,0,0,0,0,0,0,1000,1000,1000,1000,1000,1000
5969,120093084,0,0,0,0,0,0,0,0,1000,1000,1000,1000,1000,1000
6013,120103346,0,0,0,0,0,0,0,0,1000,1000,1000,1000,1000,1000
6058,120113335,0,0,0,0,0,0,0,0,1000,1000,1000,1000,1000,1000
6102,120123270,0,0,0,0,0,0,0,0,1000,1000,1000,1000,1000,1000
6147,120134094,0,0,0,0,0,0,0,0,1000,1000,1000,1000,1000,1000
6191,120144548,0,0,0,0,0,0,0,0,1000,1000,1000,1000,1000,1000
6236,120154871,0,0,0,0,0,0,0,0,1000,1000,1000,1000,1000,1000
6282,120165533,0,0,0,0,0,0,0,0,1001,1001,1001,1001,1001,1001
6326,120175952,0,0,0,0,0,0,0,0,1004,1004,1004,1004,1004,1004
6376,120186593,0,0,0,0,0,0,0,0,1007,1007,1007,1007,1007,1007
6420,120196873,0,0,0,0,0,0,0,0,1010,1010,1010,1010,1010,1010
6466,120206562,0,0,0,0,0,0,0,0,1013,1013,1013,1013,1013,1013
6513,120217226,0,0,0,0,0,0,0,0,1016,1016,1016,1016,1016,1016
6552,120228715,0,0,0,0,0,0,0,0,1019,1019,1019,1019,1019,1019
6597,120239349,0,0,0,0,0,0,0,0,1022,1022,1022,1022,1022,1022
6641,120249623,0,0,0,0,0,0,0,0,1025,1025,1025,1025,1025,1025
6686,120260029,0,0,0,0,0,0,0,0,1028,1028,1028,1028,1028,1028
6730,120270497,0,0,0,0,0,0,0,0,1031,1031,1031,1031,1031,1031
6775,120280921,0,0,0,0,0,0,0,0,1034,1034,1034,1034,1034,1034
6823,120291242,0,0,0,0,0,0,0,0,1037,1037,1037,1037,1037,1037
6868,120301756,0,0,0,0,0,0,0,0,1040,1040,1040,1040,1040,1040
6913,120311690,0,0,0,0,0,0,0,0,1043,1043,1043,1043,1043,1043
6959,120322603,0,0,0,0,0,0,0,0,1046,1046,1046,1046,1046,1046
7004,120332908,0,0,0,0,0,0,0,0,1049,1049,1049,1049,1049,1049
7048,120343532,0,0,0,0,0,0,0,0,1052,1052,1052,1052,1052,1052
7093,120353361,0,0,0,0,0,0,0,0,1055,1055,1055,1055,1055,1055
7139,120363398,0,0,0,0,0,0,0,0,1058,1058,1058,1058,1058,1058
7183,120373405,0,0,0,0,0,0,0,0,1061,1061,1061,1061,1061,1061
7228,120383829,0,0,0,0,0,0,0,0,1064,1064,1064,1064,1064,1064
7276,120394002,0,0,0,0,0,0,0,0,1067,1067,1067,1067,1067,1067
7322,120404045,0,0,0,0,0,0,0,0,1070,1070,1070,1070,1070,1070
7366,120414353,0,0,0,0,0,0,0,0,1073,1073,1073,1073,1073,1073
7415,120424370,0,0,0,0,0,0,0,0,1076,1076,1076,1076,1076,1076
7457,120435107,0,0,0,0,0,0,0,0,1079,1079,1079,1079,1079,1079
7499,120446347,0,0,0,0,0,0,0,0,1082,1082,1082,1082,1082,1082
7544,120456840,0,0,0,0,0,0,0,0,1085,1085,1085,1085,1085,1085
7589,120467516,0,0,0,0,0,0,0,0,1088,1088,1088,1088,1088,1088
7634,120477973,0,0,0,0,0,0,0,0,1091,1091,1091,1091,1091,1091
7679,120487879,0,0,0,0,0,0,0,0,1094,1094,1094,1094,1094,1094
7727,120498886,0,0,0,0,0,0,0,0,1097,1097,1097,1097,1097,1097
7772,120509330,0,0,0,0,0,0,0,0,1100,1100,1100,1100,1100,1100
7816,120519888,0,0,0,0,0,0,0,0,1100,1100,1100,1100,1100,1100
7861,120529937,0,0,0,0,0,0,0,0,1100,1100,1100,1100,1100,1100
7906,120540394,0,0,0,0,0,0,0,0,1100,1100,1100,1100,1100,1100
7952,120550542,0,0,0,0,0,0,0,0,1100,1100,1100,1100,1100,1100
7998,120560843,0,0,0,0,0,0,0,0,1100,1100,1100,1100,1100,1100
8042,120570807,0,0,0,0,0,0,0,0,1100,1100,1100,1100,1100,1100
8087,120581059,0,0,0,0,0,0,0,0,1100,1100,1100,1100,1100,1100
8131,120591196,0,0,0,0,0,0,0,0,1100,1100,1100,1100,1100,1100
8180,120601874,0,0,0,0,0,0,0,0,1100,1100,1100,1100,1100,1100
8226,120614884,0,0,0,0,0,0,0,0,1100,1100,1100,1100,1100,1100
8269,120625635,0,0,0,0,0,0,0,0,1100,1100,1100,1100,1100,1100
8313,120635459,0,0,0,0,0,0,0,0,1100,1100,1100,1100,1100,1100
8358,120645863,0,0,0,0,0,0,0,0,1100,1100,1100,1100,1100,1100
8405,120656640,0,0,0,0,0,0,0,0,1100,1100,1100,1100,1100,1100
8452,120667369,0,0,0,0,0,0,0,0,1100,1100,1100,1100,1100,1100
8498,120677585,0,0,0,0,0,0,0,0,1100,1100,1100,1100,1100,1100
8542,120687064,0,0,0,0,0,0,0,0,1100,1100,1100,1100,1100,1100
8588,120697344,0,0,0,0,0,0,0,0,1100,1100,1100,1100,1100,1100
8636,120707600,0,0,0,0,0,0,0,0,1100,1100,1100,1100,1100,1100
8682,120717948,0,0,0,0,0,0,0,0,1100,1100,1100,1100,1100,1100
8727,120728512,0,0,0,0,0,0,0,0,1100,1100,1100,1100,1100,1100
8774,120741258,0,0,0,0,0,0,0,0,1100,1100,1100,1100,1100,1100
8819,120752026,0,0,0,0,0,0,0,0,1100,1100,1100,1100,1100,1100
8863,120762149,0,0,0,0,0,0,0,0,1100,1100,1100,1100,1100,1100
8908,120772303,0,0,0,0,0,0,0,0,1100,1100,1100,1100,1100,1100
8952,120781854,0,0,0,0,0,0,0,0,1103,1103,1103,1103,1103,1103
8999,120792518,0,0,0,0,0,0,0,0,1106,1106,1106,1106,1106,1106
9047,120803114,0,0,0,0,0,0,0,0,1109,1109,1109,1109,1109,1109
9092,120813321,0,0,0,0,0,0,0,0,1112,1112,1112,1112,1112,1112
9136,120824014,0,0,0,0,0,0,0,0,1115,1115,1115,1115,1115,1115
9178,120834799,0,0,0,0,0,0,0,0,1118,1118,1118,1118,1118,1118
9222,120844842,0,0,0,0,0,0,0,0,1121,1121,1121,1121,1121,1121
9270,120857691,0,0,0,0,0,0,0,0,1124,1124,1124,1124,1124,1124
9315,120868101,0,0,0,0,0,0,0,0,1127,1127,1127,1127,1127,1127
9360,120878694,0,0,0,0,0,0,0,0,1130,1130,1130,1130,1130,1130
9406,120888718,0,0,0,0,0,0,0,0,1133,1133,1133,1133,1133,1133
9450,120899528,0,0,0,0,0,0,0,0,1136,1136,1136,1136,1136,1136
9498,120909681,0,0,0,0,0,0,0,0,1139,1139,1139,1139,1139,1139
9546,120919564,0,0,0,0,0,0,0,0,1142,1142,1142,1142,1142,1142
9591,120930048,0,0,0,0,0,0,0,0,1145,1145,1145,1145,1145,1145
9636,120940528,0,0,0,0,0,0,0,0,1148,1148,1148,1148,1148,1148
9680,120950632,0,0,0,0,0,0,0,0,1222,1191,1150,1255,1166,1243
9729,120963688,0,0,0,0,0,0,0,0,1185,1158,1150,1192,1162,1180
9774,120974301,0,0,0,0,0,0,0,0,1193,1170,1200,1162,1211,1150
9819,120984679,0,0,0,0,0,0,0,0,1161,1193,1168,1186,1150,1203
9863,120994978,0,0,0,0,0,0,0,0,1156,1151,1150,1157,1152,1155
9908,121005438,0,0,0,0,0,0,0,0,1288,1155,1150,1291,1224,1233
9956,121016125,0,0,0,0,0,0,0,0,1198,1160,1150,1207,1169,1190
10003,121032949,0,0,0,0,0,0,0,0,1386,1150,1232,1333,1344,1217
10047,121043498,0,0,0,0,0,0,0,0,1398,1150,1203,1367,1329,1255
10094,121054223,0,0,0,0,0,0,0,0,1310,1199,1150,1342,1218,1295
10138,121065031,0,0,0,0,0,0,0,0,1150,1410,1340,1259,1206,1378
10182,121075710,0,0,0,0,0,0,0,0,1150,1424,1323,1296,1170,1414
10227,121086568,0,0,0,0,0,0,0,0,1150,1435,1345,1287,1193,1413
10271,121097406,0,0,0,0,0,0,0,0,1212,1244,1170,1277,1150,1291
10316,121107685,0,0,0,0,0,0,0,0,1417,1150,1206,1386,1342,1265
10365,121118134,0,0,0,0,0,0,0,0,1445,1150,1239,1394,1381,1257
10410,121128573,0,0,0,0,0,0,0,0,1150,1225,1208,1170,1169,1209
10455,121138926,0,0,0,0,0,0,0,0,1150,1470,1426,1232,1278,1394
10499,121149919,0,0,0,0,0,0,0,0,1150,1353,1316,1207,1214,1310
10548,121163040,0,0,0,0,0,0,0,0,1150,1419,1388,1205,1263,1346
10593,121173381,0,0,0,0,0,0,0,0,1232,1203,1224,1211,1232,1202
10637,121184559,0,0,0,0,0,0,0,0,1367,1150,1153,1365,1273,1275
10682,121195409,0,0,0,0,0,0,0,0,1432,1150,1175,1419,1327,1302
10727,121206212,0,0,0,0,0,0,0,0,1339,1150,1197,1308,1289,1221
10774,121219481,0,0,0,0,0,0,0,0,1283,1176,1153,1299,1212,1254
10823,121230186,0,0,0,0,0,0,0,0,1159,1308,1253,1228,1173,1298
10869,121244333,0,0,0,0,0,0,0,0,1303,1192,1211,1288,1268,1235
10917,121257617,0,0,0,0,0,0,0,0,1306,1218,1246,1283,1289,1239
10962,121268094,0,0,0,0,0,0,0,0,1160,1363,1321,1223,1221,1323
11007,121281562,0,0,0,0,0,0,0,0,1150,1393,1334,1241,1212,1356
11052,121292007,0,0,0,0,0,0,0,0,1150,1419,1366,1237,1235,1368
11096,121302181,0,0,0,0,0,0,0,0,1245,1351,1276,1325,1212,1374
11140,121312656,0,0,0,0,0,0,0,0,1437,1150,1228,1393,1367,1263
11185,121323564,0,0,0,0,0,0,0,0,1508,1150,1289,1429,1450,1258
11233,121334306,0,0,0,0,0,0,0,0,1370,1278,1247,1393,1295,1355
11279,121345104,0,0,0,0,0,0,0,0,1188,1445,1383,1282,1252,1406
11324,121355525,0,0,0,0,0,0,0,0,1163,1473,1433,1236,1289,1395
11368,121366262,0,0,0,0,0,0,0,0,1291,1413,1378,1333,1313,1396
11413,121377069,0,0,0,0,0,0,0,0,1426,1301,1308,1420,1371,1364
11458,121387381,0,0,0,0,0,0,0,0,1455,1287,1310,1437,1395,1360
11502,121397337,0,0,0,0,0,0,0,0,1422,1351,1373,1402,1407,1368
11553,121410324,0,0,0,0,0,0,0,0,1439,1355,1377,1419,1418,1379
11597,121424667,0,0,0,0,0,0,0,0,1408,1411,1412,1407,1409,1410
11642,121434968,0,0,0,0,0,0,0,0,1484,1346,1387,1450,1454,1383
11691,121445598,0,0,0,0,0,0,0,0,1499,1352,1382,1476,1455,1406
11736,121456481,0,0,0,0,0,0,0,0,1474,1408,1412,1471,1444,1440
11780,121467192,0,0,0,0,0,0,0,0,1412,1492,1473,1433,1431,1474
11825,121477525,0,0,0,0,0,0,0,0,1335,1569,1499,1427,1377,1540
11869,121488233,0,0,0,0,0,0,0,0,1386,1551,1478,1470,1388,1549
11914,121499097,0,0,0,0,0,0,0,0,1530,1437,1397,1562,1446,1522
11960,121509557,0,0,0,0,0,0,0,0,1585,1394,1382,1594,1485,1510
12004,121519915,0,0,0,0,0,0,0,0,1581,1430,1409,1597,1488,1531
12049,121530107,0,0,0,0,0,0,0,0,1495,1549,1503,1542,1471,1571
12094,121540824,0,0,0,0,0,0,0,0,1466,1596,1510,1557,1435,1620
12142,121551413,0,0,0,0,0,0,0,0,1494,1592,1502,1585,1443,1633
12186,121562151,0,0,0,0,0,0,0,0,1537,1574,1491,1615,1465,1635
12231,121572910,0,0,0,0,0,0,0,0,1586,1547,1500,1627,1517,1613
12280,121585860,0,0,0,0,0,0,0,0,1641,1514,1581,1580,1637,1518
12324,121596839,0,0,0,0,0,0,0,0,1656,1521,1598,1584,1657,1519
12369,121606908,0,0,0,0,0,0,0,0,1642,1559,1606,1599,1639,1563
12413,121617164,0,0,0,0,0,0,0,0,1620,1603,1627,1595,1627,1595
12460,121634248,0,0,0,0,0,0,0,0,1667,1577,1605,1642,1640,1607
12505,121644665,0,0,0,0,0,0,0,0,1652,1607,1617,1643,1627,1632
12556,121655170,0,0,0,0,0,0,0,0,1637,1632,1628,1641,1617,1652
12601,121665392,0,0,0,0,0,0,0,0,1648,1630,1627,1651,1620,1657
12646,121676562,0,0,0,0,0,0,0,0,1675,1608,1635,1649,1650,1634
12690,121687819,0,0,0,0,0,0,0,0,1689,1597,1620,1667,1646,1642
12735,121698614,0,0,0,0,0,0,0,0,1675,1614,1634,1657,1641,1650
12779,121709538,0,0,0,0,0,0,0,0,1684,1604,1643,1648,1657,1634
12824,121720536,0,0,0,0,0,0,0,0,1682,1607,1624,1666,1632,1658
12871,121731474,0,0,0,0,0,0,0,0,1691,1595,1638,1650,1653,1635
12915,121742135,0,0,0,0,0,0,0,0,1707,1573,1631,1655,1661,1625
12961,121752402,0,0,0,0,0,0,0,0,1687,1592,1620,1662,1627,1655
13009,121763082,0,0,0,0,0,0,0,0,1673,1604,1648,1632,1638,1641
13054,121773503,0,0,0,0,0,0,0,0,1694,1578,1637,1640,1647,1629
13099,121784343,0,0,0,0,0,0,0,0,1692,1578,1635,1639,1641,1633
13143,121795276,0,0,0,0,0,0,0,0,1676,1593,1636,1635,1623,1649
13188,121805497,0,0,0,0,0,0,0,0,1694,1570,1626,1643,1630,1640
13234,121822545,0,0,0,0,0,0,0,0,1714,1544,1622,1645,1642,1625
13279,121833263,0,0,0,0,0,0,0,0,1695,1565,1627,1638,1625,1641
13324,121843705,0,0,0,0,0,0,0,0,1687,1572,1642,1621,1629,1634
13368,121854478,0,0,0,0,0,0,0,0,1698,1554,1651,1609,1649,1610
13417,121865448,0,0,0,0,0,0,0,0,1700,1549,1637,1620,1634,1622
13464,121876432,0,0,0,0,0,0,0,0,1690,1557,1644,1609,1629,1624
13508,121887271,0,0,0,0,0,0,0,0,1712,1525,1643,1606,1650,1597
13554,121897797,0,0,0,0,0,0,0,0,1702,1532,1640,1604,1636,1608
13600,121907987,0,0,0,0,0,0,0,0,1678,1558,1659,1580,1628,1613
13645,121918513,0,0,0,0,0,0,0,0,1691,1539,1642,1595,1623,1615
13690,121929043,0,0,0,0,0,0,0,0,1704,1521,1637,1599,1630,1606
13734,121939068,0,0,0,0,0,0,0,0,1694,1533,1651,1583,1629,1606
13778,121949670,0,0,0,0,0,0,0,0,1686,1542,1633,1602,1600,1635
13823,121960317,0,0,0,0,0,0,0,0,1705,1519,1632,1603,1617,1619
13871,121970559,0,0,0,0,0,0,0,0,1714,1508,1649,1586,1641,1595
13917,121980827,0,0,0,0,0,0,0,0,1711,1513,1648,1588,1632,1604
13962,121991387,0,0,0,0,0,0,0,0,1686,1544,1634,1604,1587,1650
14007,122001724,0,0,0,0,0,0,0,0,1681,1553,1645,1593,1588,1650
14051,122012577,0,0,0,0,0,0,0,0,1689,1544,1657,1581,1607,1633
14096,122022611,0,0,0,0,0,0,0,0,1692,1540,1651,1588,1602,1639
14139,122034011,0,0,0,0,0,0,0,0,1699,1532,1635,1605,1589,1650
14181,122044989,0,0,0,0,0,0,0,0,1705,1525,1667,1570,1627,1613
14226,122055525,0,0,0,0,0,0,0,0,1707,1522,1670,1566,1631,1609
14270,122066061,0,0,0,0,0,0,0,0,1695,1537,1643,1596,1586,1652
14318,122076529,0,0,0,0,0,0,0,0,1695,1536,1642,1597,1583,1655
14364,122086877,0,0,0,0,0,0,0,0,1703,1526,1648,1589,1597,1641
14408,122097336,0,0,0,0,0,0,0,0,1721,1500,1638,1599,1606,1631
14453,122107952,0,0,0,0,0,0,0,0,1726,1492,1636,1601,1607,1629
14501,122121090,0,0,0,0,0,0,0,0,1710,1512,1642,1592,1592,1642
14546,122131614,0,0,0,0,0,0,0,0,1718,1499,1640,1593,1599,1634
14591,122142541,0,0,0,0,0,0,0,0,1707,1512,1647,1583,1592,1639
14635,122153484,0,0,0,0,0,0,0,0,1704,1516,1635,1595,1572,1657
14679,122163842,0,0,0,0,0,0,0,0,1695,1527,1636,1595,1559,1668
14724,122174071,0,0,0,0,0,0,0,0,1703,1518,1662,1567,1594,1637
14772,122184626,0,0,0,0,0,0,0,0,1714,1504,1652,1579,1593,1639
14817,122195599,0,0,0,0,0,0,0,0,1709,1513,1650,1583,1581,1652
14862,122206483,0,0,0,0,0,0,0,0,1709,1515,1665,1568,1592,1643
14908,122217331,0,0,0,0,0,0,0,0,1719,1504,1683,1549,1620,1619
14952,122232671,0,0,0,0,0,0,0,0,1707,1522,1658,1580,1573,1665
14996,122243543,0,0,0,0,0,0,0,0,1718,1509,1667,1571,1591,1649
15041,122254078,0,0,0,0,0,0,0,0,1729,1494,1672,1566,1606,1635
15086,122264637,0,0,0,0,0,0,0,0,1737,1482,1683,1552,1625,1615
15131,122274839,0,0,0,0,0,0,0,0,1722,1501,1673,1561,1595,1643
15175,122285360,0,0,0,0,0,0,0,0,1709,1514,1668,1565,1572,1662
15224,122295822,0,0,0,0,0,0,0,0,1710,1510,1661,1569,1563,1667
15269,122306493,0,0,0,0,0,0,0,0,1700,1519,1685,1538,1578,1650
15314,122317336,0,0,0,0,0,0,0,0,1698,1518,1673,1550,1560,1664
15358,122327604,0,0,0,0,0,0,0,0,1709,1501,1654,1567,1552,1668
15403,122341326,0,0,0,0,0,0,0,0,1714,1489,1645,1574,1547,1668
15447,122352580,0,0,0,0,0,0,0,0,1734,1459,1655,1560,1582,1636
15492,122363049,0,0,0,0,0,0,0,0,1723,1472,1644,1570,1558,1655
15537,122373353,0,0,0,0,0,0,0,0,1705,1496,1645,1569,1535,1674
15583,122384236,0,0,0,0,0,0,0,0,1696,1508,1650,1563,1530,1678
15627,122394585,0,0,0,0,0,0,0,0,1693,1512,1668,1543,1547,1665
15679,122405254,0,0,0,0,0,0,0,0,1703,1499,1671,1540,1563,1651
15725,122415715,0,0,0,0,0,0,0,0,1715,1484,1677,1533,1584,1632
15764,122427636,0,0,0,0,0,0,0,0,1697,1509,1635,1582,1512,1695
15809,122438574,0,0,0,0,0,0,0,0,1695,1514,1637,1582,1511,1697
15853,122448988,0,0,0,0,0,0,0,0,1702,1508,1676,1541,1565,1655
15897,122460045,0,0,0,0,0,0,0,0,1718,1490,1664,1557,1569,1654
15942,122470886,0,0,0,0,0,0,0,0,1725,1485,1668,1557,1580,1648
15987,122481461,0,0,0,0,0,0,0,0,1724,1490,1659,1570,1566,1663
16032,122491996,0,0,0,0,0,0,0,0,1723,1494,1650,1583,1555,1675
16077,122502485,0,0,0,0,0,0,0,0,1728,1491,1666,1568,1576,1659
16125,122513046,0,0,0,0,0,0,0,0,1743,1472,1683,1551,1613,1627
16170,122523557,0,0,0,0,0,0,0,0,1740,1479,1674,1564,1598,1643
16215,122534041,0,0,0,0,0,0,0,0,1733,1490,1666,1575,1581,1660
16260,122544376,0,0,0,0,0,0,0,0,1714,1517,1668,1573,1560,1680
16309,122558357,0,0,0,0,0,0,0,0,1736,1489,1670,1571,1588,1656
16353,122569241,0,0,0,0,0,0,0,0,1738,1486,1664,1579,1582,1661
16399,122580248,0,0,0,0,0,0,0,0,1731,1496,1670,1572,1579,1663
16444,122590877,0,0,0,0,0,0,0,0,1732,1493,1660,1582,1567,1673
16488,122601215,0,0,0,0,0,0,0,0,1748,1468,1671,1568,1596,1645
16532,122613908,0,0,0,0,0,0,0,0,1745,1469,1694,1539,1614,1626
16577,122624542,0,0,0,0,0,0,0,0,1734,1483,1667,1568,1565,1670
16622,122635351,0,0,0,0,0,0,0,0,1717,1503,1684,1546,1556,1675
16667,122646124,0,0,0,0,0,0,0,0,1725,1490,1694,1531,1570,1661
16715,122660304,0,0,0,0,0,0,0,0,1721,1492,1681,1544,1539,1685
16761,122671095,0,0,0,0,0,0,0,0,1716,1497,1675,1548,1517,1700
16806,122682042,0,0,0,0,0,0,0,0,1736,1466,1700,1515,1565,1658
16850,122692551,0,0,0,0,0,0,0,0,1741,1455,1719,1486,1588,1635
16896,122703481,0,0,0,0,0,0,0,0,1734,1463,1711,1494,1565,1654
16940,122713906,0,0,0,0,0,0,0,0,1721,1479,1721,1479,1555,1661
16988,122724516,0,0,0,0,0,0,0,0,1725,1471,1696,1510,1525,1685
17034,122734829,0,0,0,0,0,0,0,0,1736,1455,1706,1497,1546,1667
17079,122745152,0,0,0,0,0,0,0,0,1735,1454,1702,1500,1537,1673
17124,122756392,0,0,0,0,0,0,0,0,1717,1478,1709,1490,1518,1687
17168,122770201,0,0,0,0,0,0,0,0,1731,1456,1729,1459,1557,1653
17213,122780497,0,0,0,0,0,0,0,0,1725,1462,1721,1469,1533,1672
17259,122791075,0,0,0,0,0,0,0,0,1740,1437,1710,1481,1534,1668
17307,122801575,0,0,0,0,0,0,0,0,1724,1456,1712,1473,1512,1683
17346,122813560,0,0,0,0,0,0,0,0,1702,1482,1683,1507,1437,1733
17392,122823907,0,0,0,0,0,0,0,0,1707,1469,1676,1511,1432,1733
17441,122834546,0,0,0,0,0,0,0,0,1715,1452,1684,1495,1454,1714
17485,122845384,0,0,0,0,0,0,0,0,1715,1447,1694,1477,1465,1702
17530,122856310,0,0,0,0,0,0,0,0,1717,1437,1704,1455,1483,1684
17575,122866691,0,0,0,0,0,0,0,0,1705,1446,1710,1440,1474,1686
17620,122877397,0,0,0,0,0,0,0,0,1716,1424,1712,1430,1491,1668
17665,122887687,0,0,0,0,0,0,0,0,1714,1421,1693,1453,1461,1687
17712,122899238,0,0,0,0,0,0,0,0,1701,1437,1700,1438,1449,1692
17758,122910101,0,0,0,0,0,0,0,0,1712,1417,1698,1438,1461,1682
17803,122920276,0,0,0,0,0,0,0,0,1720,1401,1695,1438,1468,1674
17847,122930312,0,0,0,0,0,0,0,0,1727,1384,1682,1452,1461,1675
17895,122940591,0,0,0,0,0,0,0,0,1727,1377,1670,1464,1446,1683
17939,122951354,0,0,0,0,0,0,0,0,1740,1349,1668,1461,1464,1666
17984,122962329,0,0,0,0,0,0,0,0,1755,1315,1658,1470,1473,1656
18031,122975943,0,0,0,0,0,0,0,0,1765,1288,1703,1401,1544,1592
18076,122986595,0,0,0,0,0,0,0,0,1767,1278,1718,1371,1566,1567
18121,122997402,0,0,0,0,0,0,0,0,1768,1270,1701,1394,1549,1581
18165,123007937,0,0,0,0,0,0,0,0,1764,1277,1691,1410,1531,1596
18212,123025076,0,0,0,0,0,0,0,0,1682,1423,1661,1453,1371,1715
18256,123035396,0,0,0,0,0,0,0,0,1706,1386,1660,1454,1411,1690
18305,123046457,0,0,0,0,0,0,0,0,1722,1360,1642,1478,1410,1691
18351,123057271,0,0,0,0,0,0,0,0,1703,1392,1640,1480,1381,1709
18395,123067401,0,0,0,0,0,0,0,0,1674,1435,1669,1442,1382,1709
18440,123078023,0,0,0,0,0,0,0,0,1648,1472,1690,1413,1377,1712
18487,123241382,0,0,0,0,0,0,0,0,1625,1478,1651,1444,1371,1699
18531,123251634,0,0,0,0,0,0,0,0,1643,1449,1659,1426,1417,1666
18580,123262096,0,0,0,0,0,0,0,0,1707,1343,1595,1502,1431,1652
18624,123272702,0,0,0,0,0,0,0,0,1714,1323,1590,1501,1443,1638
18669,123283619,0,0,0,0,0,0,0,0,1686,1365,1597,1487,1419,1650
18714,123297953,0,0,0,0,0,0,0,0,1725,1281,1552,1529,1433,1633
18758,123312314,0,0,0,0,0,0,0,0,1738,1242,1591,1479,1507,1567
18803,123322607,0,0,0,0,0,0,0,0,1721,1271,1603,1459,1504,1564
18847,123333051,0,0,0,0,0,0,0,0,1678,1343,1630,1417,1489,1573
18892,123343876,0,0,0,0,0,0,0,0,1660,1366,1657,1372,1509,1550
18937,123354313,0,0,0,0,0,0,0,0,1676,1333,1644,1386,1522,1533
18986,123364617,0,0,0,0,0,0,0,0,1715,1253,1610,1429,1542,1510
19031,123375187,0,0,0,0,0,0,0,0,1724,1226,1595,1445,1548,1500
19076,123385828,0,0,0,0,0,0,0,0,1686,1305,1596,1443,1512,1535
19122,123396938,0,0,0,0,0,0,0,0,1629,1399,1638,1385,1504,1544
19164,123412390,0,0,0,0,0,0,0,0,1620,1414,1572,1475,1427,1610
19211,123422953,0,0,0,0,0,0,0,0,1600,1442,1564,1486,1404,1629
19252,123433940,0,0,0,0,0,0,0,0,1589,1458,1578,1471,1424,1616
19294,123445262,0,0,0,0,0,0,0,0,1587,1462,1566,1486,1422,1618
19340,123455949,0,0,0,0,0,0,0,0,1612,1433,1541,1516,1440,1607
19385,123466552,0,0,0,0,0,0,0,0,1615,1431,1527,1532,1442,1607
19434,123477563,0,0,0,0,0,0,0,0,1633,1410,1505,1556,1453,1601
19478,123488100,0,0,0,0,0,0,0,0,1616,1436,1481,1579,1415,1632
19523,123498616,0,0,0,0,0,0,0,0,1577,1487,1557,1508,1462,1597
19567,123508939,0,0,0,0,0,0,0,0,1591,1472,1561,1507,1492,1575
19609,123520382,0,0,0,0,0,0,0,0,1621,1437,1514,1556,1486,1582
19651,123531632,0,0,0,0,0,0,0,0,1607,1456,1554,1518,1518,1553
19696,123542853,0,0,0,0,0,0,0,0,1621,1441,1547,1527,1532,1541
19741,123553072,0,0,0,0,0,0,0,0,1639,1417,1509,1563,1522,1551
19787,123563548,0,0,0,0,0,0,0,0,1637,1419,1528,1546,1546,1528
19831,123574291,0,0,0,0,0,0,0,0,1628,1431,1510,1563,1525,1549
19881,123584883,0,0,0,0,0,0,0,0,1621,1441,1503,1569,1515,1559
19925,123595538,0,0,0,0,0,0,0,0,1610,1455,1527,1546,1531,1542
19970,123606065,0,0,0,0,0,0,0,0,1607,1458,1538,1536,1544,1529
20016,123616704,0,0,0,0,0,0,0,0,1615,1447,1515,1557,1536,1537
20055,123628402,0,0,0,0,0,0,0,0,1597,1470,1490,1580,1496,1574
20097,123640092,0,0,0,0,0,0,0,0,1599,1467,1462,1603,1477,1591
20142,123650392,0,0,0,0,0,0,0,0,1599,1468,1494,1577,1515,1558
20187,123664005,0,0,0,0,0,0,0,0,1582,1490,1519,1555,1530,1545
20235,123674643,0,0,0,0,0,0,0,0,1583,1490,1500,1574,1521,1555
20279,123685349,0,0,0,0,0,0,0,0,1569,1507,1485,1589,1498,1577
20327,123695802,0,0,0,0,0,0,0,0,1562,1516,1508,1569,1520,1558
20372,123706478,0,0,0,0,0,0,0,0,1573,1506,1511,1569,1539,1542
20416,123717075,0,0,0,0,0,0,0,0,1592,1486,1501,1579,1556,1526
20461,123731289,0,0,0,0,0,0,0,0,1586,1495,1496,1585,1552,1531
20506,123741718,0,0,0,0,0,0,0,0,1600,1479,1497,1584,1575,1507
20550,123752402,0,0,0,0,0,0,0,0,1596,1485,1486,1595,1568,1517
20592,123763898,0,0,0,0,0,0,0,0,1563,1524,1491,1593,1543,1544
20637,123774303,0,0,0,0,0,0,0,0,1558,1531,1502,1585,1554,1536
20682,123785088,0,0,0,0,0,0,0,0,1572,1520,1518,1573,1586,1504
20730,123795823,0,0,0,0,0,0,0,0,1592,1499,1509,1582,1601,1488
20776,123806404,0,0,0,0,0,0,0,0,1577,1517,1490,1600,1572,1522
20823,123817583,0,0,0,0,0,0,0,0,1567,1528,1483,1607,1558,1538
20864,123832405,0,0,0,0,0,0,0,0,1592,1503,1478,1613,1578,1518
20906,123844347,0,0,0,0,0,0,0,0,1588,1507,1501,1593,1594,1500
20951,123855016,0,0,0,0,0,0,0,0,1612,1479,1509,1585,1623,1465
20992,123866570,0,0,0,0,0,0,0,0,1607,1484,1503,1591,1610,1479
21039,123877530,0,0,0,0,0,0,0,0,1576,1518,1486,1604,1561,1534
21086,123888209,0,0,0,0,0,0,0,0,1584,1507,1476,1611,1556,1538
21130,123898593,0,0,0,0,0,0,0,0,1609,1476,1483,1603,1584,1504
21179,123909248,0,0,0,0,0,0,0,0,1638,1433,1458,1619,1593,1490
21225,123919853,0,0,0,0,0,0,0,0,1636,1431,1452,1620,1584,1496
21269,123930102,0,0,0,0,0,0,0,0,1610,1458,1477,1594,1578,1496
21315,123940912,0,0,0,0,0,0,0,0,1597,1467,1494,1574,1579,1488
21359,123955123,0,0,0,0,0,0,0,0,1591,1467,1490,1571,1570,1492
21404,123965657,0,0,0,0,0,0,0,0,1571,1484,1493,1563,1553,1504
21447,123977335,0,0,0,0,0,0,0,0,1573,1476,1481,1569,1546,1507
21492,123988051,0,0,0,0,0,0,0,0,1564,1483,1475,1571,1530,1519
21536,123999276,0,0,0,0,0,0,0,0,1558,1489,1476,1570,1524,1525
21581,124010206,0,0,0,0,0,0,0,0,1569,1475,1484,1561,1540,1507
21634,124023347,0,0,0,0,0,0,0,0,1560,1484,1494,1551,1538,1509
21678,124037904,0,0,0,0,0,0,0,0,1572,1471,1474,1570,1528,1520
21722,124048204,0,0,0,0,0,0,0,0,1576,1468,1474,1572,1528,1521
21767,124062187,0,0,0,0,0,0,0,0,1583,1463,1482,1566,1539,1513
21812,124072804,0,0,0,0,0,0,0,0,1593,1453,1481,1571,1546,1508
21853,124084273,0,0,0,0,0,0,0,0,1600,1449,1493,1563,1561,1495
21897,124094588,0,0,0,0,0,0,0,0,1613,1433,1505,1553,1583,1470
21941,124104907,0,0,0,0,0,0,0,0,1619,1427,1527,1533,1607,1443
21985,124115120,0,0,0,0,0,0,0,0,1604,1448,1515,1546,1579,1478
22034,124125476,0,0,0,0,0,0,0,0,1593,1463,1502,1559,1552,1509
22080,124135828,0,0,0,0,0,0,0,0,1593,1464,1494,1568,1543,1520
22125,124145558,0,0,0,0,0,0,0,0,1617,1434,1482,1579,1556,1508
22170,124156091,0,0,0,0,0,0,0,0,1629,1420,1470,1590,1556,1509
22214,124169950,0,0,0,0,0,0,0,0,1613,1446,1500,1568,1563,1506
22256,124181724,0,0,0,0,0,0,0,0,1598,1468,1497,1574,1539,1533
22301,124192069,0,0,0,0,0,0,0,0,1609,1457,1513,1561,1563,1511
22345,124202547,0,0,0,0,0,0,0,0,1614,1453,1533,1543,1584,1489
22392,124213379,0,0,0,0,0,0,0,0,1606,1463,1528,1549,1568,1507
22442,124230586,0,0,0,0,0,0,0,0,1633,1430,1516,1561,1582,1494
22490,124241022,0,0,0,0,0,0,0,0,1619,1449,1523,1556,1570,1508
22534,124251649,0,0,0,0,0,0,0,0,1601,1473,1511,1568,1535,1545
22578,124262488,0,0,0,0,0,0,0,0,1616,1455,1496,1582,1535,1546
22623,124276641,0,0,0,0,0,0,0,0,1603,1470,1518,1562,1539,1541
22668,124287296,0,0,0,0,0,0,0,0,1579,1499,1521,1560,1512,1567
22709,124298876,0,0,0,0,0,0,0,0,1571,1509,1475,1601,1452,1619
22754,124309271,0,0,0,0,0,0,0,0,1589,1490,1480,1596,1476,1600
22798,124319851,0,0,0,0,0,0,0,0,1610,1464,1515,1565,1532,1549
22844,124330574,0,0,0,0,0,0,0,0,1623,1445,1544,1536,1572,1506
22892,124341488,0,0,0,0,0,0,0,0,1608,1462,1531,1548,1541,1538
22938,124352357,0,0,0,0,0,0,0,0,1586,1488,1509,1567,1493,1581
22984,124362999,0,0,0,0,0,0,0,0,1591,1480,1502,1572,1489,1584
23028,124373364,0,0,0,0,0,0,0,0,1605,1461,1517,1556,1519,1555
23072,124385033,0,0,0,0,0,0,0,0,1624,1434,1529,1543,1550,1522
23115,124397023,0,0,0,0,0,0,0,0,1601,1463,1520,1551,1513,1558
23159,124407851,0,0,0,0,0,0,0,0,1608,1456,1515,1556,1514,1558
23209,124424981,0,0,0,0,0,0,0,0,1585,1488,1513,1563,1481,1591
23255,124435491,0,0,0,0,0,0,0,0,1573,1507,1526,1555,1476,1600
23300,124445608,0,0,0,0,0,0,0,0,1587,1498,1525,1562,1486,1597
23349,124456433,0,0,0,0,0,0,0,0,1609,1478,1524,1569,1506,1586
23394,124467033,0,0,0,0,0,0,0,0,1631,1456,1511,1586,1513,1584
23438,124477439,0,0,0,0,0,0,0,0,1618,1479,1518,1584,1499,1601
23483,124487638,0,0,0,0,0,0,0,0,1611,1492,1505,1600,1470,1629
23524,124499506,0,0,0,0,0,0,0,0,1627,1479,1529,1583,1508,1602
23569,124513547,0,0,0,0,0,0,0,0,1633,1478,1529,1589,1507,1609
23615,124524818,0,0,0,0,0,0,0,0,1651,1459,1521,1599,1515,1605
23659,124535310,0,0,0,0,0,0,0,0,1649,1464,1559,1566,1546,1579
23705,124546024,0,0,0,0,0,0,0,0,1654,1457,1576,1549,1564,1561
23753,124556840,0,0,0,0,0,0,0,0,1660,1451,1567,1559,1556,1570
23799,124567477,0,0,0,0,0,0,0,0,1644,1471,1563,1562,1529,1595
23843,124578056,0,0,0,0,0,0,0,0,1625,1495,1604,1520,1545,1580
23887,124588494,0,0,0,0,0,0,0,0,1647,1467,1594,1531,1555,1572
23932,124598602,0,0,0,0,0,0,0,0,1673,1432,1575,1551,1560,1566
23973,124611675,0,0,0,0,0,0,0,0,1669,1437,1557,1569,1531,1593
24012,124624289,0,0,0,0,0,0,0,0,1654,1456,1588,1535,1542,1582
24056,124634652,0,0,0,0,0,0,0,0,1659,1448,1575,1549,1529,1593
24101,124645306,0,0,0,0,0,0,0,0,1655,1452,1559,1563,1503,1615
24146,124655593,0,0,0,0,0,0,0,0,1638,1472,1562,1559,1481,1631
24194,124666308,0,0,0,0,0,0,0,0,1637,1474,1542,1578,1451,1654
24240,124676622,0,0,0,0,0,0,0,0,1649,1457,1555,1564,1477,1633
24285,124686958,0,0,0,0,0,0,0,0,1664,1435,1574,1545,1513,1603
24330,124697500,0,0,0,0,0,0,0,0,1686,1403,1568,1550,1530,1588
24375,124708073,0,0,0,0,0,0,0,0,1683,1408,1584,1533,1538,1579
24420,124718589,0,0,0,0,0,0,0,0,1684,1406,1583,1535,1535,1583
24458,124731469,0,0,0,0,0,0,0,0,1657,1445,1567,1550,1480,1630
24503,124742027,0,0,0,0,0,0,0,0,1653,1450,1600,1515,1510,1605
24548,124752334,0,0,0,0,0,0,0,0,1665,1429,1590,1523,1510,1601
24592,124762914,0,0,0,0,0,0,0,0,1680,1403,1582,1529,1519,1590
24642,124773606,0,0,0,0,0,0,0,0,1674,1406,1589,1516,1521,1585
24687,124784122,0,0,0,0,0,0,0,0,1668,1409,1580,1522,1503,1596
24732,124794302,0,0,0,0,0,0,0,0,1673,1397,1581,1516,1511,1585
24776,124804809,0,0,0,0,0,0,0,0,1654,1419,1578,1514,1485,1603
24821,124814929,0,0,0,0,0,0,0,0,1647,1422,1578,1509,1478,1604
24864,124826852,0,0,0,0,0,0,0,0,1649,1414,1594,1484,1502,1579
24903,124839545,0,0,0,0,0,0,0,0,1652,1403,1576,1501,1488,1587
24947,124850834,0,0,0,0,0,0,0,0,1659,1389,1551,1524,1471,1598
24992,124861331,0,0,0,0,0,0,0,0,1654,1393,1555,1517,1472,1595
25038,124872012,0,0,0,0,0,0,0,0,1646,1405,1574,1497,1485,1584
25087,124882827,0,0,0,0,0,0,0,0,1634,1421,1572,1498,1470,1597
25133,124893360,0,0,0,0,0,0,0,0,1618,1444,1617,1445,1503,1568
25179,124903803,0,0,0,0,0,0,0,0,1628,1433,1604,1464,1502,1571
25224,124913973,0,0,0,0,0,0,0,0,1636,1424,1583,1491,1488,1585
25266,124925613,0,0,0,0,0,0,0,0,1617,1451,1591,1483,1477,1597
25307,124937077,0,0,0,0,0,0,0,0,1633,1432,1551,1530,1451,1619
25352,124947612,0,0,0,0,0,0,0,0,1636,1431,1542,1540,1446,1625
25399,124958069,0,0,0,0,0,0,0,0,1641,1427,1556,1529,1469,1609
25443,124968562,0,0,0,0,0,0,0,0,1657,1408,1518,1569,1450,1627
25489,124979112,0,0,0,0,0,0,0,0,1656,1412,1563,1526,1499,1588
25536,124989830,0,0,0,0,0,0,0,0,1657,1410,1538,1552,1476,1608
25582,125000363,0,0,0,0,0,0,0,0,1669,1394,1556,1535,1513,1577
25627,125010893,0,0,0,0,0,0,0,0,1674,1388,1602,1485,1568,1523
25673,125022328,0,0,0,0,0,0,0,0,1672,1390,1575,1516,1539,1553
25716,125033717,0,0,0,0,0,0,0,0,1666,1400,1572,1519,1532,1560
25757,125045353,0,0,0,0,0,0,0,0,1652,1421,1522,1569,1462,1621
25796,125057636,0,0,0,0,0,0,0,0,1661,1405,1545,1546,1501,1587
25841,125067581,0,0,0,0,0,0,0,0,1670,1391,1561,1528,1532,1558
25886,125078634,0,0,0,0,0,0,0,0,1646,1423,1585,1501,1530,1557
25931,125089412,0,0,0,0,0,0,0,0,1655,1408,1547,1539,1504,1580
25979,125100260,0,0,0,0,0,0,0,0,1638,1430,1541,1543,1478,1600
26024,125110501,0,0,0,0,0,0,0,0,1612,1461,1575,1504,1488,1590
26070,125121058,0,0,0,0,0,0,0,0,1624,1441,1528,1550,1452,1616
26115,125131854,0,0,0,0,0,0,0,0,1611,1454,1538,1536,1451,1613
26159,125149507,0,0,0,0,0,0,0,0,1636,1413,1527,1541,1475,1589
26203,125160091,0,0,0,0,0,0,0,0,1636,1408,1534,1530,1486,1575
26248,125170826,0,0,0,0,0,0,0,0,1651,1379,1540,1518,1515,1544
26293,125180981,0,0,0,0,0,0,0,0,1635,1395,1570,1479,1532,1521
26337,125191471,0,0,0,0,0,0,0,0,1620,1412,1559,1487,1504,1544
26382,125202187,0,0,0,0,0,0,0,0,1628,1394,1543,1499,1500,1542
26431,125212632,0,0,0,0,0,0,0,0,1639,1372,1523,1517,1495,1543
26474,125223599,0,0,0,0,0,0,0,0,1609,1413,1506,1530,1441,1587
26517,125235286,0,0,0,0,0,0,0,0,1614,1403,1507,1527,1450,1577
26562,125245486,0,0,0,0,0,0,0,0,1639,1364,1481,1550,1457,1571
26604,125256602,0,0,0,0,0,0,0,0,1634,1370,1507,1524,1478,1551
26645,125267901,0,0,0,0,0,0,0,0,1633,1371,1530,1501,1502,1529
26689,125278930,0,0,0,0,0,0,0,0,1652,1342,1478,1553,1471,1558
26734,125289610,0,0,0,0,0,0,0,0,1639,1363,1516,1517,1494,1538
26778,125299913,0,0,0,0,0,0,0,0,1632,1376,1506,1527,1474,1557
26825,125310026,0,0,0,0,0,0,0,0,1597,1424,1491,1541,1414,1605
26874,125320680,0,0,0,0,0,0,0,0,1596,1426,1529,1503,1454,1573
26919,125330894,0,0,0,0,0,0,0,0,1614,1399,1569,1457,1520,1511
26965,125341475,0,0,0,0,0,0,0,0,1649,1346,1542,1487,1532,1498
27009,125351911,0,0,0,0,0,0,0,0,1652,1340,1560,1467,1553,1475
27051,125363616,0,0,0,0,0,0,0,0,1675,1300,1500,1530,1519,1511
27098,125377597,0,0,0,0,0,0,0,0,1630,1374,1509,1521,1472,1556
27142,125387937,0,0,0,0,0,0,0,0,1621,1388,1525,1506,1476,1552
27187,125398633,0,0,0,0,0,0,0,0,1609,1407,1509,1522,1441,1582
27231,125409406,0,0,0,0,0,0,0,0,1612,1403,1520,1512,1457,1571
27278,125419615,0,0,0,0,0,0,0,0,1617,1398,1519,1515,1460,1569
27321,125431895,0,0,0,0,0,0,0,0,1623,1392,1488,1547,1431,1594
27367,125442004,0,0,0,0,0,0,0,0,1629,1383,1525,1512,1477,1557
27412,125452399,0,0,0,0,0,0,0,0,1625,1392,1526,1512,1470,1564
27457,125462722,0,0,0,0,0,0,0,0,1617,1405,1522,1517,1454,1579
27498,125477892,0,0,0,0,0,0,0,0,1589,1445,1593,1440,1497,1544
27546,125490923,0,0,0,0,0,0,0,0,1590,1446,1519,1525,1407,1620
27591,125501040,0,0,0,0,0,0,0,0,1582,1457,1489,1554,1356,1654
27635,125511056,0,0,0,0,0,0,0,0,1589,1451,1510,1536,1390,1634
27680,125521860,0,0,0,0,0,0,0,0,1610,1423,1509,1537,1416,1615
27725,125532345,0,0,0,0,0,0,0,0,1609,1425,1515,1532,1418,1614
27774,125543007,0,0,0,0,0,0,0,0,1613,1420,1517,1531,1424,1610
27820,125553167,0,0,0,0,0,0,0,0,1610,1426,1515,1534,1415,1618
27864,125563371,0,0,0,0,0,0,0,0,1601,1439,1553,1495,1447,1594
27909,125573615,0,0,0,0,0,0,0,0,1604,1435,1537,1513,1430,1608
27950,125585053,0,0,0,0,0,0,0,0,1618,1417,1560,1488,1475,1572
27995,125595570,0,0,0,0,0,0,0,0,1611,1426,1552,1497,1456,1588
28045,125612533,0,0,0,0,0,0,0,0,1619,1417,1568,1480,1483,1566
28085,125624338,0,0,0,0,0,0,0,0,1609,1431,1596,1447,1502,1549
28129,125634347,0,0,0,0,0,0,0,0,1630,1402,1574,1474,1502,1549
28178,125644857,0,0,0,0,0,0,0,0,1631,1402,1589,1457,1520,1533
28222,125655485,0,0,0,0,0,0,0,0,1632,1401,1601,1442,1534,1519
28268,125665921,0,0,0,0,0,0,0,0,1639,1392,1551,1502,1488,1564
28312,125676825,0,0,0,0,0,0,0,0,1621,1418,1568,1485,1486,1567
28357,125687357,0,0,0,0,0,0,0,0,1606,1441,1551,1506,1446,1602
28400,125702386,0,0,0,0,0,0,0,0,1639,1396,1541,1517,1477,1576
28445,125712858,0,0,0,0,0,0,0,0,1644,1390,1587,1466,1536,1522
28490,125723328,0,0,0,0,0,0,0,0,1646,1387,1555,1503,1504,1554
28535,125733491,0,0,0,0,0,0,0,0,1627,1415,1564,1493,1492,1565
28579,125743618,0,0,0,0,0,0,0,0,1628,1413,1546,1512,1475,1579
28629,125754376,0,0,0,0,0,0,0,0,1629,1412,1558,1500,1490,1566
28673,125765216,0,0,0,0,0,0,0,0,1637,1397,1550,1507,1494,1561
28718,125775360,0,0,0,0,0,0,0,0,1639,1395,1522,1535,1467,1584
28762,125793293,0,0,0,0,0,0,0,0,1641,1389,1549,1505,1502,1552
28807,125804100,0,0,0,0,0,0,0,0,1628,1406,1550,1502,1490,1561
28853,125814962,0,0,0,0,0,0,0,0,1640,1389,1524,1529,1478,1572
28901,125825881,0,0,0,0,0,0,0,0,1596,1448,1518,1534,1416,1620
28942,125840814,0,0,0,0,0,0,0,0,1635,1395,1586,1460,1541,1511
28987,125850831,0,0,0,0,0,0,0,0,1635,1392,1574,1473,1530,1521
29037,125861903,0,0,0,0,0,0,0,0,1639,1387,1581,1463,1542,1508
29083,125872521,0,0,0,0,0,0,0,0,1635,1390,1582,1460,1539,1509
29128,125882534,0,0,0,0,0,0,0,0,1627,1400,1542,1504,1486,1559
29172,125893409,0,0,0,0,0,0,0,0,1610,1421,1549,1495,1474,1568
29218,125903876,0,0,0,0,0,0,0,0,1611,1418,1531,1513,1455,1583
29257,125916153,0,0,0,0,0,0,0,0,1622,1403,1520,1523,1454,1583
29301,125926390,0,0,0,0,0,0,0,0,1606,1424,1528,1515,1441,1593
29345,125936497,0,0,0,0,0,0,0,0,1577,1459,1549,1492,1429,1602
29390,125946881,0,0,0,0,0,0,0,0,1600,1429,1546,1493,1452,1582
29434,125957630,0,0,0,0,0,0,0,0,1604,1422,1546,1491,1458,1575
29483,125968508,0,0,0,0,0,0,0,0,1637,1372,1548,1487,1500,1536
29528,125979505,0,0,0,0,0,0,0,0,1640,1365,1565,1466,1520,1514
29572,125990505,0,0,0,0,0,0,0,0,1643,1355,1538,1493,1495,1535
29618,126001455,0,0,0,0,0,0,0,0,1635,1365,1536,1492,1483,1544
29663,126019480,0,0,0,0,0,0,0,0,1640,1353,1525,1500,1478,1546
29703,126031447,0,0,0,0,0,0,0,0,1647,1340,1514,1511,1474,1549
29751,126041748,0,0,0,0,0,0,0,0,1646,1343,1529,1495,1487,1537
29795,126052263,0,0,0,0,0,0,0,0,1616,1388,1543,1480,1464,1558
29840,126062335,0,0,0,0,0,0,0,0,1609,1399,1540,1484,1449,1571
29884,126072709,0,0,0,0,0,0,0,0,1634,1364,1518,1509,1455,1567
29933,126083290,0,0,0,0,0,0,0,0,1642,1353,1522,1506,1468,1557
29978,126093496,0,0,0,0,0,0,0,0,1662,1321,1515,1514,1485,1543
30022,126103846,0,0,0,0,0,0,0,0,1629,1377,1522,1509,1448,1576
30067,126115381,0,0,0,0,0,0,0,0,1604,1414,1525,1507,1419,1601
30108,126130894,0,0,0,0,0,0,0,0,1693,1272,1512,1524,1517,1519
30153,126141297,0,0,0,0,0,0,0,0,1672,1316,1508,1530,1487,1550
30199,126151605,0,0,0,0,0,0,0,0,1599,1431,1572,1465,1464,1573
30244,126161854,0,0,0,0,0,0,0,0,1588,1448,1574,1465,1452,1585
30290,126172127,0,0,0,0,0,0,0,0,1622,1406,1547,1499,1463,1578
30338,126183313,0,0,0,0,0,0,0,0,1659,1353,1520,1529,1481,1565
30383,126194058,0,0,0,0,0,0,0,0,1648,1374,1506,1545,1451,1593
30428,126204922,0,0,0,0,0,0,0,0,1638,1390,1489,1561,1420,1617
30474,126216558,0,0,0,0,0,0,0,0,1613,1426,1526,1527,1430,1610
30519,126233594,0,0,0,0,0,0,0,0,1644,1384,1499,1554,1444,1601
30562,126244831,0,0,0,0,0,0,0,0,1650,1375,1503,1551,1460,1588
30604,126256481,0,0,0,0,0,0,0,0,1642,1389,1526,1530,1478,1575
30649,126267257,0,0,0,0,0,0,0,0,1617,1426,1515,1542,1439,1607
30694,126277813,0,0,0,0,0,0,0,0,1618,1426,1519,1539,1452,1598
30740,126288379,0,0,0,0,0,0,0,0,1612,1437,1555,1505,1492,1567
30788,126299341,0,0,0,0,0,0,0,0,1612,1440,1573,1487,1519,1544
30833,126310096,0,0,0,0,0,0,0,0,1625,1424,1518,1547,1481,1580
30877,126320406,0,0,0,0,0,0,0,0,1609,1449,1513,1554,1463,1598
30922,126331599,0,0,0,0,0,0,0,0,1590,1474,1512,1556,1444,1614
30961,126344113,0,0,0,0,0,0,0,0,1616,1446,1558,1514,1528,1544
31005,126354670,0,0,0,0,0,0,0,0,1603,1464,1566,1507,1527,1547
31052,126365078,0,0,0,0,0,0,0,0,1599,1471,1565,1510,1526,1550
31098,126375700,0,0,0,0,0,0,0,0,1617,1450,1542,1536,1525,1552
31142,126386484,0,0,0,0,0,0,0,0,1622,1445,1522,1556,1514,1564
31187,126397535,0,0,0,0,0,0,0,0,1617,1452,1519,1560,1507,1571
31236,126408053,0,0,0,0,0,0,0,0,1615,1457,1510,1570,1498,1581
31282,126418600,0,0,0,0,0,0,0,0,1602,1472,1518,1562,1492,1586
31325,126431203,0,0,0,0,0,0,0,0,1614,1459,1516,1565,1504,1576
31370,126441930,0,0,0,0,0,0,0,0,1614,1459,1504,1576,1491,1588
31408,126454617,0,0,0,0,0,0,0,0,1614,1458,1543,1538,1529,1552
31453,126465355,0,0,0,0,0,0,0,0,1612,1461,1549,1532,1529,1552
31498,126475847,0,0,0,0,0,0,0,0,1625,1445,1552,1530,1542,1539
31543,126486545,0,0,0,0,0,0,0,0,1624,1446,1550,1532,1534,1548
31590,126497042,0,0,0,0,0,0,0,0,1615,1458,1513,1567,1480,1597
31635,126507550,0,0,0,0,0,0,0,0,1612,1461,1529,1553,1488,1590
31683,126518361,0,0,0,0,0,0,0,0,1614,1461,1548,1535,1504,1577
31728,126529108,0,0,0,0,0,0,0,0,1638,1429,1544,1539,1525,1558
31772,126539847,0,0,0,0,0,0,0,0,1646,1418,1547,1537,1533,1551
31818,126550540,0,0,0,0,0,0,0,0,1636,1433,1550,1534,1521,1563
31859,126561902,0,0,0,0,0,0,0,0,1635,1434,1532,1553,1497,1585
31901,126573520,0,0,0,0,0,0,0,0,1622,1452,1578,1505,1528,1557
31948,126583907,0,0,0,0,0,0,0,0,1606,1473,1573,1511,1500,1583
31992,126593942,0,0,0,0,0,0,0,0,1618,1460,1567,1519,1503,1581
32037,126604084,0,0,0,0,0,0,0,0,1629,1443,1560,1525,1508,1576
32084,126614549,0,0,0,0,0,0,0,0,1636,1434,1554,1532,1506,1577
32126,126626549,0,0,0,0,0,0,0,0,1649,1415,1523,1562,1487,1594
32171,126636969,0,0,0,0,0,0,0,0,1647,1419,1534,1551,1493,1588
32216,126647312,0,0,0,0,0,0,0,0,1637,1433,1551,1534,1497,1586
32260,126657681,0,0,0,0,0,0,0,0,1624,1449,1576,1507,1508,1575
32302,126669357,0,0,0,0,0,0,0,0,1639,1431,1586,1497,1533,1552
32347,126679614,0,0,0,0,0,0,0,0,1633,1440,1563,1523,1499,1585
32389,126691424,0,0,0,0,0,0,0,0,1624,1452,1543,1543,1464,1614
32435,126701711,0,0,0,0,0,0,0,0,1633,1441,1525,1563,1455,1623
32480,126711938,0,0,0,0,0,0,0,0,1642,1431,1543,1547,1487,1598
32525,126721949,0,0,0,0,0,0,0,0,1633,1444,1564,1526,1502,1586
32574,126732350,0,0,0,0,0,0,0,0,1643,1435,1546,1548,1497,1593
32619,126742863,0,0,0,0,0,0,0,0,1649,1428,1583,1510,1550,1545
32663,126753567,0,0,0,0,0,0,0,0,1655,1422,1567,1530,1546,1552
32708,126764584,0,0,0,0,0,0,0,0,1652,1429,1567,1533,1550,1550
32752,126781991,0,0,0,0,0,0,0,0,1646,1439,1560,1541,1548,1553
32799,126792699,0,0,0,0,0,0,0,0,1639,1450,1543,1559,1529,1572
32846,126803572,0,0,0,0,0,0,0,0,1629,1462,1538,1564,1520,1581
32885,126815912,0,0,0,0,0,0,0,0,1642,1446,1515,1586,1517,1584
32930,126826817,0,0,0,0,0,0,0,0,1611,1486,1542,1560,1511,1589
32974,126837577,0,0,0,0,0,0,0,0,1623,1471,1548,1554,1532,1570
33023,126848493,0,0,0,0,0,0,0,0,1639,1450,1544,1559,1547,1556
33069,126859382,0,0,0,0,0,0,0,0,1640,1449,1538,1565,1541,1561
33114,126870219,0,0,0,0,0,0,0,0,1628,1465,1555,1548,1545,1558
33159,126880577,0,0,0,0,0,0,0,0,1632,1459,1569,1533,1563,1539
33200,126892224,0,0,0,0,0,0,0,0,1628,1465,1548,1555,1536,1567
33245,126906483,0,0,0,0,0,0,0,0,1633,1460,1515,1587,1506,1594
33289,126917295,0,0,0,0,0,0,0,0,1612,1487,1567,1537,1536,1568
33336,126927387,0,0,0,0,0,0,0,0,1611,1488,1562,1543,1528,1576
33381,126937542,0,0,0,0,0,0,0,0,1616,1482,1552,1552,1523,1580
33429,126948034,0,0,0,0,0,0,0,0,1609,1491,1527,1577,1488,1612
33474,126959075,0,0,0,0,0,0,0,0,1604,1497,1516,1588,1469,1628
33518,126969849,0,0,0,0,0,0,0,0,1606,1495,1533,1573,1487,1613
33564,126980555,0,0,0,0,0,0,0,0,1630,1466,1553,1553,1535,1570
33609,126995262,0,0,0,0,0,0,0,0,1609,1491,1555,1551,1511,1592
33654,127005608,0,0,0,0,0,0,0,0,1613,1488,1553,1553,1510,1594
33697,127017059,0,0,0,0,0,0,0,0,1614,1486,1563,1543,1520,1585
33750,127034035,0,0,0,0,0,0,0,0,1629,1469,1563,1544,1530,1576
33794,127044530,0,0,0,0,0,0,0,0,1618,1482,1562,1545,1512,1593
33839,127055162,0,0,0,0,0,0,0,0,1642,1454,1546,1562,1518,1589
33887,127065438,0,0,0,0,0,0,0,0,1646,1449,1543,1566,1515,1592
33932,127075105,0,0,0,0,0,0,0,0,1639,1458,1554,1555,1515,1592
33976,127085923,0,0,0,0,0,0,0,0,1637,1463,1562,1549,1517,1593
34021,127099880,0,0,0,0,0,0,0,0,1630,1473,1576,1535,1519,1591
34063,127111333,0,0,0,0,0,0,0,0,1629,1475,1560,1552,1495,1613
34111,127122709,0,0,0,0,0,0,0,0,1625,1482,1538,1575,1461,1641
34156,127133272,0,0,0,0,0,0,0,0,1631,1474,1567,1547,1499,1611
34201,127143997,0,0,0,0,0,0,0,0,1652,1447,1578,1536,1536,1578
34245,127154091,0,0,0,0,0,0,0,0,1659,1438,1562,1552,1527,1587
34294,127164882,0,0,0,0,0,0,0,0,1638,1466,1568,1546,1507,1604
34339,127175484,0,0,0,0,0,0,0,0,1618,1491,1575,1539,1490,1619
34384,127185937,0,0,0,0,0,0,0,0,1613,1497,1560,1556,1464,1640
34429,127196128,0,0,0,0,0,0,0,0,1617,1493,1566,1550,1474,1633
34473,127210651,0,0,0,0,0,0,0,0,1649,1453,1582,1533,1526,1589
34517,127225435,0,0,0,0,0,0,0,0,1640,1465,1579,1536,1506,1606
34562,127235603,0,0,0,0,0,0,0,0,1635,1471,1575,1540,1491,1619
34604,127246617,0,0,0,0,0,0,0,0,1629,1479,1568,1548,1471,1635
34648,127257076,0,0,0,0,0,0,0,0,1632,1472,1553,1561,1455,1645
34693,127267557,0,0,0,0,0,0,0,0,1653,1444,1541,1571,1465,1637
34741,127278140,0,0,0,0,0,0,0,0,1663,1428,1555,1556,1491,1615
34787,127289078,0,0,0,0,0,0,0,0,1646,1449,1574,1536,1489,1615
34832,127300062,0,0,0,0,0,0,0,0,1655,1437,1581,1527,1507,1599
34876,127310554,0,0,0,0,0,0,0,0,1657,1430,1592,1512,1520,1585
34915,127323241,0,0,0,0,0,0,0,0,1631,1464,1562,1543,1451,1640
34960,127333619,0,0,0,0,0,0,0,0,1627,1466,1550,1552,1432,1652
35005,127344035,0,0,0,0,0,0,0,0,1630,1459,1558,1543,1445,1641
35052,127354607,0,0,0,0,0,0,0,0,1639,1447,1572,1526,1473,1618
35097,127365323,0,0,0,0,0,0,0,0,1656,1420,1590,1505,1515,1581
35142,127376089,0,0,0,0,0,0,0,0,1660,1413,1576,1519,1503,1590
35191,127386787,0,0,0,0,0,0,0,0,1644,1434,1584,1509,1492,1598
35235,127397078,0,0,0,0,0,0,0,0,1628,1456,1587,1505,1475,1613
35279,127407074,0,0,0,0,0,0,0,0,1633,1448,1557,1537,1445,1635
35322,127421949,0,0,0,0,0,0,0,0,1630,1451,1597,1492,1490,1598
35364,127433067,0,0,0,0,0,0,0,0,1628,1453,1581,1510,1470,1615
35408,127446856,0,0,0,0,0,0,0,0,1621,1461,1557,1535,1433,1643
35453,127458046,0,0,0,0,0,0,0,0,1628,1453,1586,1504,1478,1608
35499,127468606,0,0,0,0,0,0,0,0,1650,1423,1577,1514,1496,1593
35544,127479228,0,0,0,0,0,0,0,0,1656,1416,1605,1483,1535,1558
35593,127489692,0,0,0,0,0,0,0,0,1662,1410,1600,1491,1537,1558
35637,127500523,0,0,0,0,0,0,0,0,1656,1420,1628,1458,1561,1536
35682,127511064,0,0,0,0,0,0,0,0,1651,1432,1607,1488,1531,1569
35727,127521448,0,0,0,0,0,0,0,0,1648,1438,1612,1484,1536,1566
35772,127538509,0,0,0,0,0,0,0,0,1650,1441,1593,1511,1516,1589
35817,127548928,0,0,0,0,0,0,0,0,1644,1452,1604,1501,1521,1587
35863,127559373,0,0,0,0,0,0,0,0,1636,1465,1602,1506,1510,1599
35907,127570028,0,0,0,0,0,0,0,0,1645,1455,1587,1525,1504,1605
35954,127580955,0,0,0,0,0,0,0,0,1643,1459,1587,1526,1503,1608
35999,127591300,0,0,0,0,0,0,0,0,1637,1467,1591,1522,1501,1609
36047,127601584,0,0,0,0,0,0,0,0,1644,1459,1566,1550,1483,1625
36091,127615910,0,0,0,0,0,0,0,0,1644,1461,1593,1522,1515,1599
36135,127625935,0,0,0,0,0,0,0,0,1649,1454,1578,1539,1508,1606
36180,127636837,0,0,0,0,0,0,0,0,1637,1471,1576,1542,1492,1620
36221,127648361,0,0,0,0,0,0,0,0,1653,1451,1567,1551,1503,1611
36262,127660064,0,0,0,0,0,0,0,0,1651,1453,1573,1545,1510,1605
36308,127670340,0,0,0,0,0,0,0,0,1649,1455,1579,1537,1517,1598
36352,127680386,0,0,0,0,0,0,0,0,1646,1457,1584,1531,1522,1593
36398,127690704,0,0,0,0,0,0,0,0,1656,1444,1609,1503,1563,1553
36442,127701312,0,0,0,0,0,0,0,0,1651,1448,1606,1504,1558,1556
36490,127711399,0,0,0,0,0,0,0,0,1647,1453,1593,1518,1543,1570
36536,127721472,0,0,0,0,0,0,0,0,1652,1444,1581,1531,1539,1573
36580,127731867,0,0,0,0,0,0,0,0,1653,1442,1562,1549,1523,1586
36624,127742680,0,0,0,0,0,0,0,0,1649,1446,1535,1574,1493,1612
36666,127754291,0,0,0,0,0,0,0,0,1636,1462,1553,1555,1501,1604
36708,127765978,0,0,0,0,0,0,0,0,1652,1440,1572,1535,1543,1565
36753,127776412,0,0,0,0,0,0,0,0,1650,1443,1580,1528,1553,1555
36797,127786877,0,0,0,0,0,0,0,0,1644,1451,1558,1550,1530,1578
36842,127797698,0,0,0,0,0,0,0,0,1634,1465,1554,1555,1520,1587
36888,127808128,0,0,0,0,0,0,0,0,1612,1492,1544,1565,1493,1611
36936,127818549,0,0,0,0,0,0,0,0,1604,1502,1560,1550,1511,1596
36983,127828949,0,0,0,0,0,0,0,0,1614,1490,1549,1560,1524,1584
37024,127841095,0,0,0,0,0,0,0,0,1611,1494,1553,1557,1537,1572
37071,127851484,0,0,0,0,0,0,0,0,1621,1481,1525,1583,1534,1575
37112,127863640,0,0,0,0,0,0,0,0,1596,1510,1515,1591,1510,1596
37158,127877362,0,0,0,0,0,0,0,0,1588,1519,1528,1579,1535,1574
37202,127887826,0,0,0,0,0,0,0,0,1604,1501,1496,1608,1536,1572
37248,127898541,0,0,0,0,0,0,0,0,1591,1517,1490,1614,1531,1578
37293,127909399,0,0,0,0,0,0,0,0,1585,1525,1523,1588,1568,1544
37341,127920367,0,0,0,0,0,0,0,0,1613,1496,1518,1593,1604,1506
37386,127931010,0,0,0,0,0,0,0,0,1608,1502,1511,1600,1603,1509
37432,127941496,0,0,0,0,0,0,0,0,1576,1540,1505,1607,1571,1545
37476,127951665,0,0,0,0,0,0,0,0,1545,1572,1494,1618,1535,1582
37521,127962575,0,0,0,0,0,0,0,0,1567,1552,1497,1617,1562,1557
37562,127973795,0,0,0,0,0,0,0,0,1586,1533,1480,1632,1567,1553
37604,127985088,0,0,0,0,0,0,0,0,1581,1540,1496,1620,1574,1547
37649,127995557,0,0,0,0,0,0,0,0,1576,1546,1514,1606,1584,1538
37693,128005976,0,0,0,0,0,0,0,0,1582,1542,1499,1620,1571,1553
37739,128017081,0,0,0,0,0,0,0,0,1589,1535,1477,1639,1553,1572
37787,128032083,0,0,0,0,0,0,0,0,1581,1546,1517,1606,1571,1555
37831,128042720,0,0,0,0,0,0,0,0,1583,1543,1510,1612,1559,1568
37876,128053390,0,0,0,0,0,0,0,0,1589,1535,1501,1619,1548,1577
37920,128064267,0,0,0,0,0,0,0,0,1605,1515,1522,1600,1576,1547
37965,128074613,0,0,0,0,0,0,0,0,1597,1523,1531,1589,1568,1553
38005,128087263,0,0,0,0,0,0,0,0,1612,1502,1504,1611,1554,1566
38049,128097319,0,0,0,0,0,0,0,0,1621,1490,1512,1602,1565,1553
38094,128107637,0,0,0,0,0,0,0,0,1614,1497,1522,1592,1561,1555
38139,128118556,0,0,0,0,0,0,0,0,1604,1508,1531,1584,1553,1563
38184,128128544,0,0,0,0,0,0,0,0,1596,1516,1547,1568,1555,1560
38233,128139545,0,0,0,0,0,0,0,0,1608,1501,1536,1576,1553,1559
38278,128150100,0,0,0,0,0,0,0,0,1608,1498,1502,1605,1516,1592
38322,128160363,0,0,0,0,0,0,0,0,1601,1504,1498,1607,1501,1604
38367,128170871,0,0,0,0,0,0,0,0,1604,1499,1521,1584,1524,1581
38411,128181090,0,0,0,0,0,0,0,0,1626,1471,1524,1581,1548,1558
38450,128193610,0,0,0,0,0,0,0,0,1621,1477,1529,1575,1545,1560
38496,128203889,0,0,0,0,0,0,0,0,1596,1506,1526,1578,1510,1592
38541,128214529,0,0,0,0,0,0,0,0,1597,1505,1535,1570,1516,1587
38582,128226834,0,0,0,0,0,0,0,0,1632,1463,1533,1572,1551,1555
38626,128237074,0,0,0,0,0,0,0,0,1619,1479,1540,1566,1540,1565
38675,128247520,0,0,0,0,0,0,0,0,1610,1491,1532,1573,1519,1585
38720,128258102,0,0,0,0,0,0,0,0,1616,1485,1527,1578,1518,1587
38765,128268299,0,0,0,0,0,0,0,0,1619,1480,1530,1576,1521,1584
38809,128278868,0,0,0,0,0,0,0,0,1620,1479,1541,1565,1533,1573
38854,128289619,0,0,0,0,0,0,0,0,1632,1466,1549,1558,1553,1555
38895,128301131,0,0,0,0,0,0,0,0,1621,1480,1541,1567,1531,1577
38940,128311573,0,0,0,0,0,0,0,0,1611,1493,1545,1564,1523,1585
38985,128321987,0,0,0,0,0,0,0,0,1612,1494,1554,1557,1534,1576
39026,128334308,0,0,0,0,0,0,0,0,1614,1492,1529,1581,1514,1595
39073,128344748,0,0,0,0,0,0,0,0,1609,1498,1511,1598,1494,1613
39122,128355437,0,0,0,0,0,0,0,0,1597,1514,1504,1606,1475,1630
39167,128366358,0,0,0,0,0,0,0,0,1592,1521,1533,1582,1504,1607
39213,128376721,0,0,0,0,0,0,0,0,1607,1505,1536,1579,1530,1585
39257,128386977,0,0,0,0,0,0,0,0,1606,1508,1531,1586,1528,1588
39302,128400819,0,0,0,0,0,0,0,0,1599,1518,1511,1604,1508,1607
39348,128411445,0,0,0,0,0,0,0,0,1610,1506,1534,1584,1548,1571
39390,128426399,0,0,0,0,0,0,0,0,1583,1537,1532,1587,1523,1596
39432,128437907,0,0,0,0,0,0,0,0,1617,1499,1495,1621,1526,1593
39477,128447944,0,0,0,0,0,0,0,0,1611,1507,1503,1614,1529,1592
39522,128458503,0,0,0,0,0,0,0,0,1603,1517,1510,1609,1526,1595
39571,128469154,0,0,0,0,0,0,0,0,1611,1508,1513,1607,1536,1587
39616,128479922,0,0,0,0,0,0,0,0,1606,1515,1547,1577,1558,1566
39661,128490350,0,0,0,0,0,0,0,0,1605,1517,1558,1568,1562,1563
39705,128500327,0,0,0,0,0,0,0,0,1596,1528,1555,1571,1544,1582
39743,128512675,0,0,0,0,0,0,0,0,1609,1516,1523,1602,1517,1607
39788,128523388,0,0,0,0,0,0,0,0,1624,1498,1535,1592,1538,1589
39832,128534046,0,0,0,0,0,0,0,0,1645,1473,1538,1589,1555,1574
39877,128544699,0,0,0,0,0,0,0,0,1636,1484,1547,1581,1544,1585
39923,128555531,0,0,0,0,0,0,0,0,1628,1494,1565,1563,1542,1586
39967,128565682,0,0,0,0,0,0,0,0,1626,1497,1572,1557,1537,1591
40017,128575955,0,0,0,0,0,0,0,0,1642,1478,1570,1559,1542,1587
40062,128586312,0,0,0,0,0,0,0,0,1650,1467,1568,1562,1540,1589
40107,128597128,0,0,0,0,0,0,0,0,1658,1457,1552,1577,1523,1604
40151,128608014,0,0,0,0,0,0,0,0,1652,1465,1554,1575,1508,1617
40192,128623027,0,0,0,0,0,0,0,0,1647,1471,1544,1585,1480,1641
40236,128634538,0,0,0,0,0,0,0,0,1656,1459,1561,1569,1502,1623
40278,128645890,0,0,0,0,0,0,0,0,1672,1437,1584,1545,1539,1590
40323,128656617,0,0,0,0,0,0,0,0,1668,1443,1597,1531,1541,1588
40369,128667027,0,0,0,0,0,0,0,0,1666,1446,1605,1522,1541,1588
40414,128677491,0,0,0,0,0,0,0,0,1686,1416,1586,1543,1539,1590
40463,128688077,0,0,0,0,0,0,0,0,1679,1427,1573,1556,1510,1615
40508,128698387,0,0,0,0,0,0,0,0,1665,1448,1589,1540,1504,1620
40552,128708931,0,0,0,0,0,0,0,0,1670,1440,1586,1543,1502,1622
40597,128719390,0,0,0,0,0,0,0,0,1679,1429,1600,1529,1524,1605
40639,128731081,0,0,0,0,0,0,0,0,1684,1424,1600,1531,1525,1604
40681,128742518,0,0,0,0,0,0,0,0,1688,1418,1572,1561,1495,1631
40725,128752605,0,0,0,0,0,0,0,0,1694,1411,1581,1552,1509,1620
40770,128763068,0,0,0,0,0,0,0,0,1694,1409,1596,1536,1523,1608
40815,128773914,0,0,0,0,0,0,0,0,1678,1435,1627,1502,1535,1598
40860,128784405,0,0,0,0,0,0,0,0,1684,1427,1621,1509,1532,1602
40909,128795332,0,0,0,0,0,0,0,0,1694,1412,1620,1511,1541,1593
40955,128806082,0,0,0,0,0,0,0,0,1702,1401,1597,1538,1522,1611
40999,128816585,0,0,0,0,0,0,0,0,1710,1389,1576,1560,1506,1624
41044,128828247,0,0,0,0,0,0,0,0,1699,1406,1604,1531,1521,1612
41085,128840941,0,0,0,0,0,0,0,0,1698,1408,1636,1493,1554,1582
41126,128852334,0,0,0,0,0,0,0,0,1692,1416,1589,1546,1493,1636
41171,128862858,0,0,0,0,0,0,0,0,1703,1397,1601,1532,1519,1612
41215,128873062,0,0,0,0,0,0,0,0,1709,1386,1580,1553,1502,1625
41260,128883804,0,0,0,0,0,0,0,0,1701,1395,1560,1571,1469,1650
41305,128894538,0,0,0,0,0,0,0,0,1689,1412,1590,1538,1487,1634
41354,128905538,0,0,0,0,0,0,0,0,1684,1418,1615,1508,1510,1614
41399,128916498,0,0,0,0,0,0,0,0,1679,1425,1618,1504,1508,1615
41444,128927084,0,0,0,0,0,0,0,0,1681,1421,1616,1507,1507,1615
41489,128937590,0,0,0,0,0,0,0,0,1675,1429,1632,1487,1519,1605
41530,128949518,0,0,0,0,0,0,0,0,1650,1463,1586,1539,1430,1674
41574,128963273,0,0,0,0,0,0,0,0,1671,1433,1620,1500,1500,1619
41618,128973402,0,0,0,0,0,0,0,0,1677,1425,1607,1515,1494,1625
41662,128983911,0,0,0,0,0,0,0,0,1674,1429,1612,1509,1496,1623
41706,128994838,0,0,0,0,0,0,0,0,1667,1440,1618,1502,1494,1625
41756,129005836,0,0,0,0,0,0,0,0,1663,1445,1615,1505,1487,1631
41800,129016378,0,0,0,0,0,0,0,0,1650,1462,1598,1525,1449,1660
41848,129030155,0,0,0,0,0,0,0,0,1660,1448,1595,1528,1460,1651
41890,129041860,0,0,0,0,0,0,0,0,1681,1419,1601,1522,1495,1624
41931,129053519,0,0,0,0,0,0,0,0,1672,1433,1601,1522,1484,1633
41972,129065094,0,0,0,0,0,0,0,0,1662,1447,1592,1532,1462,1651
42018,129075354,0,0,0,0,0,0,0,0,1675,1429,1588,1538,1476,1640
42062,129085896,0,0,0,0,0,0,0,0,1660,1452,1607,1518,1480,1639
42107,129096607,0,0,0,0,0,0,0,0,1658,1455,1635,1485,1512,1612
42151,129107517,0,0,0,0,0,0,0,0,1674,1433,1637,1483,1537,1591
42200,129118085,0,0,0,0,0,0,0,0,1680,1424,1624,1499,1531,1596
42246,129128413,0,0,0,0,0,0,0,0,1682,1422,1616,1507,1528,1599
42290,129138080,0,0,0,0,0,0,0,0,1672,1435,1608,1516,1508,1615
42335,129149295,0,0,0,0,0,0,0,0,1660,1450,1585,1540,1470,1645
42376,129161078,0,0,0,0,0,0,0,0,1631,1487,1569,1556,1414,1685
42421,129172350,0,0,0,0,0,0,0,0,1640,1475,1564,1561,1423,1678
42462,129183843,0,0,0,0,0,0,0,0,1655,1455,1587,1537,1474,1640
42507,129194113,0,0,0,0,0,0,0,0,1658,1450,1598,1523,1495,1623
42552,129204275,0,0,0,0,0,0,0,0,1651,1459,1593,1529,1483,1632
42598,129214845,0,0,0,0,0,0,0,0,1658,1448,1572,1550,1470,1641
42644,129225947,0,0,0,0,0,0,0,0,1651,1457,1570,1551,1462,1647
42688,129237101,0,0,0,0,0,0,0,0,1642,1467,1576,1543,1460,1647
42732,129247348,0,0,0,0,0,0,0,0,1666,1433,1589,1529,1510,1606
42777,129257871,0,0,0,0,0,0,0,0,1673,1424,1570,1548,1500,1614
42822,129272490,0,0,0,0,0,0,0,0,1672,1425,1574,1545,1508,1608
42868,129286857,0,0,0,0,0,0,0,0,1680,1414,1609,1507,1560,1560
42913,129297301,0,0,0,0,0,0,0,0,1702,1380,1581,1537,1558,1562
42957,129307866,0,0,0,0,0,0,0,0,1673,1422,1591,1526,1538,1579
43002,129318392,0,0,0,0,0,0,0,0,1671,1424,1578,1539,1525,1590
43048,129329049,0,0,0,0,0,0,0,0,1653,1445,1573,1541,1503,1608
43099,129339351,0,0,0,0,0,0,0,0,1660,1433,1560,1552,1501,1606
43144,129349631,0,0,0,0,0,0,0,0,1659,1430,1546,1563,1490,1613
43188,129360540,0,0,0,0,0,0,0,0,1643,1449,1553,1553,1482,1617
43233,129371324,0,0,0,0,0,0,0,0,1628,1467,1571,1533,1487,1611
43277,129388865,0,0,0,0,0,0,0,0,1643,1446,1581,1521,1522,1580
43322,129399991,0,0,0,0,0,0,0,0,1659,1424,1571,1532,1532,1571
43373,129412836,0,0,0,0,0,0,0,0,1638,1452,1550,1552,1489,1608
43415,129424277,0,0,0,0,0,0,0,0,1639,1450,1561,1541,1504,1595
43457,129435094,0,0,0,0,0,0,0,0,1632,1459,1576,1525,1515,1585
43506,129445943,0,0,0,0,0,0,0,0,1624,1471,1569,1534,1498,1601
43550,129456720,0,0,0,0,0,0,0,0,1642,1448,1584,1517,1539,1564
43596,129467602,0,0,0,0,0,0,0,0,1660,1424,1582,1522,1557,1547
43641,129481567,0,0,0,0,0,0,0,0,1655,1429,1547,1556,1518,1584
43685,129492113,0,0,0,0,0,0,0,0,1651,1435,1562,1541,1530,1573
43727,129504087,0,0,0,0,0,0,0,0,1673,1403,1564,1538,1560,1543
43772,129514806,0,0,0,0,0,0,0,0,1667,1412,1546,1557,1535,1568
43816,129525324,0,0,0,0,0,0,0,0,1645,1441,1542,1560,1506,1593
43862,129535847,0,0,0,0,0,0,0,0,1647,1438,1539,1562,1505,1593
43907,129545926,0,0,0,0,0,0,0,0,1660,1418,1534,1565,1516,1582
43957,129556382,0,0,0,0,0,0,0,0,1643,1439,1535,1562,1498,1596
44002,129566590,0,0,0,0,0,0,0,0,1633,1451,1555,1541,1507,1586
44046,129576645,0,0,0,0,0,0,0,0,1644,1434,1545,1549,1511,1582
44092,129590657,0,0,0,0,0,0,0,0,1651,1421,1553,1539,1529,1563
44136,129600861,0,0,0,0,0,0,0,0,1647,1425,1551,1540,1523,1568
44177,129613248,0,0,0,0,0,0,0,0,1634,1443,1551,1540,1505,1584
44219,129624667,0,0,0,0,0,0,0,0,1641,1435,1531,1560,1491,1596
44264,129635324,0,0,0,0,0,0,0,0,1659,1408,1517,1573,1499,1590
44309,129645926,0,0,0,0,0,0,0,0,1661,1405,1548,1542,1532,1558
44357,129656840,0,0,0,0,0,0,0,0,1653,1416,1558,1532,1531,1559
44403,129667539,0,0,0,0,0,0,0,0,1659,1407,1562,1527,1543,1548
44449,129677612,0,0,0,0,0,0,0,0,1642,1432,1570,1520,1528,1562
44493,129687618,0,0,0,0,0,0,0,0,1628,1451,1566,1525,1507,1582
44535,129700079,0,0,0,0,0,0,0,0,1608,1476,1541,1549,1455,1624
44580,129710379,0,0,0,0,0,0,0,0,1609,1476,1548,1544,1464,1619
44624,129720546,0,0,0,0,0,0,0,0,1622,1461,1553,1539,1485,1602
44667,129731974,0,0,0,0,0,0,0,0,1634,1447,1583,1509,1531,1562
44711,129742404,0,0,0,0,0,0,0,0,1621,1465,1589,1503,1523,1571
44756,129752364,0,0,0,0,0,0,0,0,1616,1472,1559,1536,1484,1606
44804,129763342,0,0,0,0,0,0,0,0,1629,1457,1554,1542,1494,1599
44850,129774063,0,0,0,0,0,0,0,0,1591,1503,1557,1541,1451,1634
44895,129784610,0,0,0,0,0,0,0,0,1617,1474,1537,1561,1460,1628
44940,129795188,0,0,0,0,0,0,0,0,1618,1475,1559,1541,1487,1608
44985,129812906,0,0,0,0,0,0,0,0,1636,1456,1553,1551,1501,1600
