LineNo,TimeUS,C1,C2,C3,C4,C5,C6,C7,C8,C9,C10,C11,C12,C13,C14
213,1.1864e+08,0,0,0,0,0,0,0,0,1000,1000,1000,1000,1000,1000
548,1.1873e+08,0,0,0,0,0,0,0,0,1000,1000,1000,1000,1000,1000
999,1.1884e+08,0,0,0,0,0,0,0,0,1000,1000,1000,1000,1000,1000
1327,1.1905e+08,0,0,0,0,0,0,0,0,1000,1000,1000,1000,1000,1000
1412,1.1906e+08,0,0,0,0,0,0,0,0,1000,1000,1000,1000,1000,1000
1625,1.1909e+08,0,0,0,0,0,0,0,0,1000,1000,1000,1000,1000,1000
1671,1.191e+08,0,0,0,0,0,0,0,0,1000,1000,1000,1000,1000,1000
1715,1.1911e+08,0,0,0,0,0,0,0,0,1000,1000,1000,1000,1000,1000
1760,1.1912e+08,0,0,0,0,0,0,0,0,1000,1000,1000,1000,1000,1000
1804,1.1913e+08,0,0,0,0,0,0,0,0,1000,1000,1000,1000,1000,1000
1849,1.1915e+08,0,0,0,0,0,0,0,0,1000,1000,1000,1000,1000,1000
1898,1.1916e+08,0,0,0,0,0,0,0,0,1000,1000,1000,1000,1000,1000
1943,1.1916e+08,0,0,0,0,0,0,0,0,1000,1000,1000,1000,1000,1000
1991,1.1918e+08,0,0,0,0,0,0,0,0,1000,1000,1000,1000,1000,1000
2035,1.1919e+08,0,0,0,0,0,0,0,0,1000,1000,1000,1000,1000,1000
2081,1.192e+08,0,0,0,0,0,0,0,0,1000,1000,1000,1000,1000,1000
2125,1.1921e+08,0,0,0,0,0,0,0,0,1000,1000,1000,1000,1000,1000
2170,1.1922e+08,0,0,0,0,0,0,0,0,1000,1000,1000,1000,1000,1000
2216,1.1923e+08,0,0,0,0,0,0,0,0,1000,1000,1000,1000,1000,1000
2259,1.1924e+08,0,0,0,0,0,0,0,0,1000,1000,1000,1000,1000,1000
2303,1.1925e+08,0,0,0,0,0,0,0,0,1000,1000,1000,1000,1000,1000
2352,1.1926e+08,0,0,0,0,0,0,0,0,1000,1000,1000,1000,1000,1000
2397,1.1927e+08,0,0,0,0,0,0,0,0,1000,1000,1000,1000,1000,1000
2441,1.1928e+08,0,0,0,0,0,0,0,0,1000,1000,1000,1000,1000,1000
2486,1.1929e+08,0,0,0,0,0,0,0,0,1000,1000,1000,1000,1000,1000
2531,1.193e+08,0,0,0,0,0,0,0,0,1000,1000,1000,1000,1000,1000
2576,1.1931e+08,0,0,0,0,0,0,0,0,1000,1000,1000,1000,1000,1000
2621,1.1932e+08,0,0,0,0,0,0,0,0,1000,1000,1000,1000,1000,1000
2666,1.1933e+08,0,0,0,0,0,0,0,0,1000,1000,1000,1000,1000,1000
2711,1.1934e+08,0,0,0,0,0,0,0,0,1000,1000,1000,1000,1000,1000
2755,1.1935e+08,0,0,0,0,0,0,0,0,1000,1000,1000,1000,1000,1000
2804,1.1936e+08,0,0,0,0,0,0,0,0,1000,1000,1000,1000,1000,1000
2848,1.1937e+08,0,0,0,0,0,0,0,0,1000,1000,1000,1000,1000,1000
2894,1.1938e+08,0,0,0,0,0,0,0,0,1000,1000,1000,1000,1000,1000
2938,1.1939e+08,0,0,0,0,0,0,0,0,1000,1000,1000,1000,1000,1000
2984,1.1941e+08,0,0,0,0,0,0,0,0,1000,1000,1000,1000,1000,1000
3030,1.1942e+08,0,0,0,0,0,0,0,0,1000,1000,1000,1000,1000,1000
3074,1.1943e+08,0,0,0,0,0,0,0,0,1000,1000,1000,1000,1000,1000
3119,1.1944e+08,0,0,0,0,0,0,0,0,1000,1000,1000,1000,1000,1000
3164,1.1945e+08,0,0,0,0,0,0,0,0,1000,1000,1000,1000,1000,1000
3211,1.1946e+08,0,0,0,0,0,0,0,0,1000,1000,1000,1000,1000,1000
3257,1.1947e+08,0,0,0,0,0,0,0,0,1000,1000,1000,1000,1000,1000
3302,1.1948e+08,0,0,0,0,0,0,0,0,1000,1000,1000,1000,1000,1000
3347,1.1949e+08,0,0,0,0,0,0,0,0,1000,1000,1000,1000,1000,1000
3392,1.195e+08,0,0,0,0,0,0,0,0,1000,1000,1000,1000,1000,1000
3437,1.1951e+08,0,0,0,0,0,0,0,0,1000,1000,1000,1000,1000,1000
3481,1.1952e+08,0,0,0,0,0,0,0,0,1000,1000,1000,1000,1000,1000
3527,1.1953e+08,0,0,0,0,0,0,0,0,1000,1000,1000,1000,1000,1000
3573,1.1954e+08,0,0,0,0,0,0,0,0,1000,1000,1000,1000,1000,1000
3617,1.1955e+08,0,0,0,0,0,0,0,0,1000,1000,1000,1000,1000,1000
3665,1.1956e+08,0,0,0,0,0,0,0,0,1000,1000,1000,1000,1000,1000
3710,1.1957e+08,0,0,0,0,0,0,0,0,1000,1000,1000,1000,1000,1000
3755,1.1958e+08,0,0,0,0,0,0,0,0,1000,1000,1000,1000,1000,1000
3801,1.1959e+08,0,0,0,0,0,0,0,0,1000,1000,1000,1000,1000,1000
3845,1.196e+08,0,0,0,0,0,0,0,0,1000,1000,1000,1000,1000,1000
3895,1.1962e+08,0,0,0,0,0,0,0,0,1000,1000,1000,1000,1000,1000
3936,1.1963e+08,0,0,0,0,0,0,0,0,1000,1000,1000,1000,1000,1000
3983,1.1964e+08,0,0,0,0,0,0,0,0,1000,1000,1000,1000,1000,1000
4030,1.1965e+08,0,0,0,0,0,0,0,0,1000,1000,1000,1000,1000,1000
4074,1.1966e+08,0,0,0,0,0,0,0,0,1000,1000,1000,1000,1000,1000
4124,1.1967e+08,0,0,0,0,0,0,0,0,1000,1000,1000,1000,1000,1000
4168,1.1968e+08,0,0,0,0,0,0,0,0,1000,1000,1000,1000,1000,1000
4213,1.1969e+08,0,0,0,0,0,0,0,0,1000,1000,1000,1000,1000,1000
4257,1.197e+08,0,0,0,0,0,0,0,0,1000,1000,1000,1000,1000,1000
4302,1.1971e+08,0,0,0,0,0,0,0,0,1000,1000,1000,1000,1000,1000
4347,1.1972e+08,0,0,0,0,0,0,0,0,1000,1000,1000,1000,1000,1000
4391,1.1973e+08,0,0,0,0,0,0,0,0,1000,1000,1000,1000,1000,1000
4436,1.1974e+08,0,0,0,0,0,0,0,0,1000,1000,1000,1000,1000,1000
4481,1.1975e+08,0,0,0,0,0,0,0,0,1000,1000,1000,1000,1000,1000
4526,1.1976e+08,0,0,0,0,0,0,0,0,1000,1000,1000,1000,1000,1000
4574,1.1977e+08,0,0,0,0,0,0,0,0,1000,1000,1000,1000,1000,1000
4619,1.1978e+08,0,0,0,0,0,0,0,0,1000,1000,1000,1000,1000,1000
4663,1.1979e+08,0,0,0,0,0,0,0,0,1000,1000,1000,1000,1000,1000
4708,1.198e+08,0,0,0,0,0,0,0,0,1000,1000,1000,1000,1000,1000
4754,1.1981e+08,0,0,0,0,0,0,0,0,1000,1000,1000,1000,1000,1000
4800,1.1982e+08,0,0,0,0,0,0,0,0,1000,1000,1000,1000,1000,1000
4839,1.1984e+08,0,0,0,0,0,0,0,0,1000,1000,1000,1000,1000,1000
4884,1.1985e+08,0,0,0,0,0,0,0,0,1000,1000,1000,1000,1000,1000
4929,1.1986e+08,0,0,0,0,0,0,0,0,1000,1000,1000,1000,1000,1000
4975,1.1987e+08,0,0,0,0,0,0,0,0,1000,1000,1000,1000,1000,1000
5023,1.1988e+08,0,0,0,0,0,0,0,0,1000,1000,1000,1000,1000,1000
5068,1.1989e+08,0,0,0,0,0,0,0,0,1000,1000,1000,1000,1000,1000
5112,1.199e+08,0,0,0,0,0,0,0,0,1000,1000,1000,1000,1000,1000
5158,1.1991e+08,0,0,0,0,0,0,0,0,1000,1000,1000,1000,1000,1000
5202,1.1992e+08,0,0,0,0,0,0,0,0,1000,1000,1000,1000,1000,1000
5249,1.1993e+08,0,0,0,0,0,0,0,0,1000,1000,1000,1000,1000,1000
5294,1.1994e+08,0,0,0,0,0,0,0,0,1000,1000,1000,1000,1000,1000
5338,1.1995e+08,0,0,0,0,0,0,0,0,1000,1000,1000,1000,1000,1000
5383,1.1996e+08,0,0,0,0,0,0,0,0,1000,1000,1000,1000,1000,1000
5427,1.1997e+08,0,0,0,0,0,0,0,0,1000,1000,1000,1000,1000,1000
5476,1.1998e+08,0,0,0,0,0,0,0,0,1000,1000,1000,1000,1000,1000
5522,1.1999e+08,0,0,0,0,0,0,0,0,1000,1000,1000,1000,1000,1000
5567,1.2e+08,0,0,0,0,0,0,0,0,1000,1000,1000,1000,1000,1000
5614,1.2001e+08,0,0,0,0,0,0,0,0,1000,1000,1000,1000,1000,1000
5652,1.2002e+08,0,0,0,0,0,0,0,0,1000,1000,1000,1000,1000,1000
5697,1.2003e+08,0,0,0,0,0,0,0,0,1000,1000,1000,1000,1000,1000
5742,1.2004e+08,0,0,0,0,0,0,0,0,1000,1000,1000,1000,1000,1000
5786,1.2005e+08,0,0,0,0,0,0,0,0,1000,1000,1000,1000,1000,1000
5831,1.2006e+08,0,0,0,0,0,0,0,0,1000,1000,1000,1000,1000,1000
5875,1.2007e+08,0,0,0,0,0,0,0,0,1000,1000,1000,1000,1000,1000
5923,1.2008e+08,0,0,0,0,0,0,0,0,1000,1000,1000,1000,1000,1000
5969,1.2009e+08,0,0,0,0,0,0,0,0,1000,1000,1000,1000,1000,1000
6013,1.201e+08,0,0,0,0,0,0,0,0,1000,1000,1000,1000,1000,1000
6058,1.2011e+08,0,0,0,0,0,0,0,0,1000,1000,1000,1000,1000,1000
6102,1.2012e+08,0,0,0,0,0,0,0,0,1000,1000,1000,1000,1000,1000
6147,1.2013e+08,0,0,0,0,0,0,0,0,1000,1000,1000,1000,1000,1000
6191,1.2014e+08,0,0,0,0,0,0,0,0,1000,1000,1000,1000,1000,1000
6236,1.2015e+08,0,0,0,0,0,0,0,0,1000,1000,1000,1000,1000,1000
6282,1.2017e+08,0,0,0,0,0,0,0,0,1001,1001,1001,1001,1001,1001
6326,1.2018e+08,0,0,0,0,0,0,0,0,1004,1004,1004,1004,1004,1004
6376,1.2019e+08,0,0,0,0,0,0,0,0,1007,1007,1007,1007,1007,1007
6420,1.202e+08,0,0,0,0,0,0,0,0,1010,1010,1010,1010,1010,1010
6466,1.2021e+08,0,0,0,0,0,0,0,0,1013,1013,1013,1013,1013,1013
6513,1.2022e+08,0,0,0,0,0,0,0,0,1016,1016,1016,1016,1016,1016
6552,1.2023e+08,0,0,0,0,0,0,0,0,1019,1019,1019,1019,1019,1019
6597,1.2024e+08,0,0,0,0,0,0,0,0,1022,1022,1022,1022,1022,1022
6641,1.2025e+08,0,0,0,0,0,0,0,0,1025,1025,1025,1025,1025,1025
6686,1.2026e+08,0,0,0,0,0,0,0,0,1028,1028,1028,1028,1028,1028
6730,1.2027e+08,0,0,0,0,0,0,0,0,1031,1031,1031,1031,1031,1031
6775,1.2028e+08,0,0,0,0,0,0,0,0,1034,1034,1034,1034,1034,1034
6823,1.2029e+08,0,0,0,0,0,0,0,0,1037,1037,1037,1037,1037,1037
6868,1.203e+08,0,0,0,0,0,0,0,0,1040,1040,1040,1040,1040,1040
6913,1.2031e+08,0,0,0,0,0,0,0,0,1043,1043,1043,1043,1043,1043
6959,1.2032e+08,0,0,0,0,0,0,0,0,1046,1046,1046,1046,1046,1046
7004,1.2033e+08,0,0,0,0,0,0,0,0,1049,1049,1049,1049,1049,1049
7048,1.2034e+08,0,0,0,0,0,0,0,0,1052,1052,1052,1052,1052,1052
7093,1.2035e+08,0,0,0,0,0,0,0,0,1055,1055,1055,1055,1055,1055
7139,1.2036e+08,0,0,0,0,0,0,0,0,1058,1058,1058,1058,1058,1058
7183,1.2037e+08,0,0,0,0,0,0,0,0,1061,1061,1061,1061,1061,1061
7228,1.2038e+08,0,0,0,0,0,0,0,0,1064,1064,1064,1064,1064,1064
7276,1.2039e+08,0,0,0,0,0,0,0,0,1067,1067,1067,1067,1067,1067
7322,1.204e+08,0,0,0,0,0,0,0,0,1070,1070,1070,1070,1070,1070
7366,1.2041e+08,0,0,0,0,0,0,0,0,1073,1073,1073,1073,1073,1073
7415,1.2042e+08,0,0,0,0,0,0,0,0,1076,1076,1076,1076,1076,1076
7457,1.2044e+08,0,0,0,0,0,0,0,0,1079,1079,1079,1079,1079,1079
7499,1.2045e+08,0,0,0,0,0,0,0,0,1082,1082,1082,1082,1082,1082
7544,1.2046e+08,0,0,0,0,0,0,0,0,1085,1085,1085,1085,1085,1085
7589,1.2047e+08,0,0,0,0,0,0,0,0,1088,1088,1088,1088,1088,1088
7634,1.2048e+08,0,0,0,0,0,0,0,0,1091,1091,1091,1091,1091,1091
7679,1.2049e+08,0,0,0,0,0,0,0,0,1094,1094,1094,1094,1094,1094
7727,1.205e+08,0,0,0,0,0,0,0,0,1097,1097,1097,1097,1097,1097
7772,1.2051e+08,0,0,0,0,0,0,0,0,1100,1100,1100,1100,1100,1100
7816,1.2052e+08,0,0,0,0,0,0,0,0,1100,1100,1100,1100,1100,1100
7861,1.2053e+08,0,0,0,0,0,0,0,0,1100,1100,1100,1100,1100,1100
7906,1.2054e+08,0,0,0,0,0,0,0,0,1100,1100,1100,1100,1100,1100
7952,1.2055e+08,0,0,0,0,0,0,0,0,1100,1100,1100,1100,1100,1100
7998,1.2056e+08,0,0,0,0,0,0,0,0,1100,1100,1100,1100,1100,1100
8042,1.2057e+08,0,0,0,0,0,0,0,0,1100,1100,1100,1100,1100,1100
8087,1.2058e+08,0,0,0,0,0,0,0,0,1100,1100,1100,1100,1100,1100
8131,1.2059e+08,0,0,0,0,0,0,0,0,1100,1100,1100,1100,1100,1100
8180,1.206e+08,0,0,0,0,0,0,0,0,1100,1100,1100,1100,1100,1100
8226,1.2061e+08,0,0,0,0,0,0,0,0,1100,1100,1100,1100,1100,1100
8269,1.2063e+08,0,0,0,0,0,0,0,0,1100,1100,1100,1100,1100,1100
8313,1.2064e+08,0,0,0,0,0,0,0,0,1100,1100,1100,1100,1100,1100
8358,1.2065e+08,0,0,0,0,0,0,0,0,1100,1100,1100,1100,1100,1100
8405,1.2066e+08,0,0,0,0,0,0,0,0,1100,1100,1100,1100,1100,1100
8452,1.2067e+08,0,0,0,0,0,0,0,0,1100,1100,1100,1100,1100,1100
8498,1.2068e+08,0,0,0,0,0,0,0,0,1100,1100,1100,1100,1100,1100
8542,1.2069e+08,0,0,0,0,0,0,0,0,1100,1100,1100,1100,1100,1100
8588,1.207e+08,0,0,0,0,0,0,0,0,1100,1100,1100,1100,1100,1100
8636,1.2071e+08,0,0,0,0,0,0,0,0,1100,1100,1100,1100,1100,1100
8682,1.2072e+08,0,0,0,0,0,0,0,0,1100,1100,1100,1100,1100,1100
8727,1.2073e+08,0,0,0,0,0,0,0,0,1100,1100,1100,1100,1100,1100
8774,1.2074e+08,0,0,0,0,0,0,0,0,1100,1100,1100,1100,1100,1100
8819,1.2075e+08,0,0,0,0,0,0,0,0,1100,1100,1100,1100,1100,1100
8863,1.2076e+08,0,0,0,0,0,0,0,0,1100,1100,1100,1100,1100,1100
8908,1.2077e+08,0,0,0,0,0,0,0,0,1100,1100,1100,1100,1100,1100
8952,1.2078e+08,0,0,0,0,0,0,0,0,1103,1103,1103,1103,1103,1103
8999,1.2079e+08,0,0,0,0,0,0,0,0,1106,1106,1106,1106,1106,1106
9047,1.208e+08,0,0,0,0,0,0,0,0,1109,1109,1109,1109,1109,1109
9092,1.2081e+08,0,0,0,0,0,0,0,0,1112,1112,1112,1112,1112,1112
9136,1.2082e+08,0,0,0,0,0,0,0,0,1115,1115,1115,1115,1115,1115
9178,1.2083e+08,0,0,0,0,0,0,0,0,1118,1118,1118,1118,1118,1118
9222,1.2084e+08,0,0,0,0,0,0,0,0,1121,1121,1121,1121,1121,1121
9270,1.2086e+08,0,0,0,0,0,0,0,0,1124,1124,1124,1124,1124,1124
9315,1.2087e+08,0,0,0,0,0,0,0,0,1127,1127,1127,1127,1127,1127
9360,1.2088e+08,0,0,0,0,0,0,0,0,1130,1130,1130,1130,1130,1130
9406,1.2089e+08,0,0,0,0,0,0,0,0,1133,1133,1133,1133,1133,1133
9450,1.209e+08,0,0,0,0,0,0,0,0,1136,1136,1136,1136,1136,1136
9498,1.2091e+08,0,0,0,0,0,0,0,0,1139,1139,1139,1139,1139,1139
9546,1.2092e+08,0,0,0,0,0,0,0,0,1142,1142,1142,1142,1142,1142
9591,1.2093e+08,0,0,0,0,0,0,0,0,1145,1145,1145,1145,1145,1145
9636,1.2094e+08,0,0,0,0,0,0,0,0,1148,1148,1148,1148,1148,1148
9680,1.2095e+08,0,0,0,0,0,0,0,0,1222,1191,1150,1255,1166,1243
9729,1.2096e+08,0,0,0,0,0,0,0,0,1185,1158,1150,1192,1162,1180
9774,1.2097e+08,0,0,0,0,0,0,0,0,1193,1170,1200,1162,1211,1150
9819,1.2098e+08,0,0,0,0,0,0,0,0,1161,1193,1168,1186,1150,1203
9863,1.2099e+08,0,0,0,0,0,0,0,0,1156,1151,1150,1157,1152,1155
9908,1.2101e+08,0,0,0,0,0,0,0,0,1288,1155,1150,1291,1224,1233
9956,1.2102e+08,0,0,0,0,0,0,0,0,1198,1160,1150,1207,1169,1190
10003,1.2103e+08,0,0,0,0,0,0,0,0,1386,1150,1232,1333,1344,1217
10047,1.2104e+08,0,0,0,0,0,0,0,0,1398,1150,1203,1367,1329,1255
10094,1.2105e+08,0,0,0,0,0,0,0,0,1310,1199,1150,1342,1218,1295
10138,1.2107e+08,0,0,0,0,0,0,0,0,1150,1410,1340,1259,1206,1378
10182,1.2108e+08,0,0,0,0,0,0,0,0,1150,1424,1323,1296,1170,1414
10227,1.2109e+08,0,0,0,0,0,0,0,0,1150,1435,1345,1287,1193,1413
10271,1.211e+08,0,0,0,0,0,0,0,0,1212,1244,1170,1277,1150,1291
10316,1.2111e+08,0,0,0,0,0,0,0,0,1417,1150,1206,1386,1342,1265
10365,1.2112e+08,0,0,0,0,0,0,0,0,1445,1150,1239,1394,1381,1257
10410,1.2113e+08,0,0,0,0,0,0,0,0,1150,1225,1208,1170,1169,1209
10455,1.2114e+08,0,0,0,0,0,0,0,0,1150,1470,1426,1232,1278,1394
10499,1.2115e+08,0,0,0,0,0,0,0,0,1150,1353,1316,1207,1214,1310
10548,1.2116e+08,0,0,0,0,0,0,0,0,1150,1419,1388,1205,1263,1346
10593,1.2117e+08,0,0,0,0,0,0,0,0,1232,1203,1224,1211,1232,1202
10637,1.2118e+08,0,0,0,0,0,0,0,0,1367,1150,1153,1365,1273,1275
10682,1.212e+08,0,0,0,0,0,0,0,0,1432,1150,1175,1419,1327,1302
10727,1.2121e+08,0,0,0,0,0,0,0,0,1339,1150,1197,1308,1289,1221
10774,1.2122e+08,0,0,0,0,0,0,0,0,1283,1176,1153,1299,1212,1254
10823,1.2123e+08,0,0,0,0,0,0,0,0,1159,1308,1253,1228,1173,1298
10869,1.2124e+08,0,0,0,0,0,0,0,0,1303,1192,1211,1288,1268,1235
10917,1.2126e+08,0,0,0,0,0,0,0,0,1306,1218,1246,1283,1289,1239
10962,1.2127e+08,0,0,0,0,0,0,0,0,1160,1363,1321,1223,1221,1323
11007,1.2128e+08,0,0,0,0,0,0,0,0,1150,1393,1334,1241,1212,1356
11052,1.2129e+08,0,0,0,0,0,0,0,0,1150,1419,1366,1237,1235,1368
11096,1.213e+08,0,0,0,0,0,0,0,0,1245,1351,1276,1325,1212,1374
11140,1.2131e+08,0,0,0,0,0,0,0,0,1437,1150,1228,1393,1367,1263
11185,1.2132e+08,0,0,0,0,0,0,0,0,1508,1150,1289,1429,1450,1258
11233,1.2133e+08,0,0,0,0,0,0,0,0,1370,1278,1247,1393,1295,1355
11279,1.2135e+08,0,0,0,0,0,0,0,0,1188,1445,1383,1282,1252,1406
11324,1.2136e+08,0,0,0,0,0,0,0,0,1163,1473,1433,1236,1289,1395
11368,1.2137e+08,0,0,0,0,0,0,0,0,1291,1413,1378,1333,1313,1396
11413,1.2138e+08,0,0,0,0,0,0,0,0,1426,1301,1308,1420,1371,1364
11458,1.2139e+08,0,0,0,0,0,0,0,0,1455,1287,1310,1437,1395,1360
11502,1.214e+08,0,0,0,0,0,0,0,0,1422,1351,1373,1402,1407,1368
11553,1.2141e+08,0,0,0,0,0,0,0,0,1439,1355,1377,1419,1418,1379
11597,1.2142e+08,0,0,0,0,0,0,0,0,1408,1411,1412,1407,1409,1410
11642,1.2143e+08,0,0,0,0,0,0,0,0,1484,1346,1387,1450,1454,1383
11691,1.2145e+08,0,0,0,0,0,0,0,0,1499,1352,1382,1476,1455,1406
11736,1.2146e+08,0,0,0,0,0,0,0,0,1474,1408,1412,1471,1444,1440
11780,1.2147e+08,0,0,0,0,0,0,0,0,1412,1492,1473,1433,1431,1474
11825,1.2148e+08,0,0,0,0,0,0,0,0,1335,1569,1499,1427,1377,1540
11869,1.2149e+08,0,0,0,0,0,0,0,0,1386,1551,1478,1470,1388,1549
11914,1.215e+08,0,0,0,0,0,0,0,0,1530,1437,1397,1562,1446,1522
11960,1.2151e+08,0,0,0,0,0,0,0,0,1585,1394,1382,1594,1485,1510
12004,1.2152e+08,0,0,0,0,0,0,0,0,1581,1430,1409,1597,1488,1531
12049,1.2153e+08,0,0,0,0,0,0,0,0,1495,1549,1503,1542,1471,1571
12094,1.2154e+08,0,0,0,0,0,0,0,0,1466,1596,1510,1557,1435,1620
12142,1.2155e+08,0,0,0,0,0,0,0,0,1494,1592,1502,1585,1443,1633
12186,1.2156e+08,0,0,0,0,0,0,0,0,1537,1574,1491,1615,1465,1635
12231,1.2157e+08,0,0,0,0,0,0,0,0,1586,1547,1500,1627,1517,1613
12280,1.2159e+08,0,0,0,0,0,0,0,0,1641,1514,1581,1580,1637,1518
12324,1.216e+08,0,0,0,0,0,0,0,0,1656,1521,1598,1584,1657,1519
12369,1.2161e+08,0,0,0,0,0,0,0,0,1642,1559,1606,1599,1639,1563
12413,1.2162e+08,0,0,0,0,0,0,0,0,1620,1603,1627,1595,1627,1595
12460,1.2163e+08,0,0,0,0,0,0,0,0,1667,1577,1605,1642,1640,1607
12505,1.2164e+08,0,0,0,0,0,0,0,0,1652,1607,1617,1643,1627,1632
12556,1.2166e+08,0,0,0,0,0,0,0,0,1637,1632,1628,1641,1617,1652
12601,1.2167e+08,0,0,0,0,0,0,0,0,1648,1630,1627,1651,1620,1657
12646,1.2168e+08,0,0,0,0,0,0,0,0,1675,1608,1635,1649,1650,1634
12690,1.2169e+08,0,0,0,0,0,0,0,0,1689,1597,1620,1667,1646,1642
12735,1.217e+08,0,0,0,0,0,0,0,0,1675,1614,1634,1657,1641,1650
12779,1.2171e+08,0,0,0,0,0,0,0,0,1684,1604,1643,1648,1657,1634
12824,1.2172e+08,0,0,0,0,0,0,0,0,1682,1607,1624,1666,1632,1658
12871,1.2173e+08,0,0,0,0,0,0,0,0,1691,1595,1638,1650,1653,1635
12915,1.2174e+08,0,0,0,0,0,0,0,0,1707,1573,1631,1655,1661,1625
12961,1.2175e+08,0,0,0,0,0,0,0,0,1687,1592,1620,1662,1627,1655
13009,1.2176e+08,0,0,0,0,0,0,0,0,1673,1604,1648,1632,1638,1641
13054,1.2177e+08,0,0,0,0,0,0,0,0,1694,1578,1637,1640,1647,1629
13099,1.2178e+08,0,0,0,0,0,0,0,0,1692,1578,1635,1639,1641,1633
13143,1.218e+08,0,0,0,0,0,0,0,0,1676,1593,1636,1635,1623,1649
13188,1.2181e+08,0,0,0,0,0,0,0,0,1694,1570,1626,1643,1630,1640
13234,1.2182e+08,0,0,0,0,0,0,0,0,1714,1544,1622,1645,1642,1625
13279,1.2183e+08,0,0,0,0,0,0,0,0,1695,1565,1627,1638,1625,1641
13324,1.2184e+08,0,0,0,0,0,0,0,0,1687,1572,1642,1621,1629,1634
13368,1.2185e+08,0,0,0,0,0,0,0,0,1698,1554,1651,1609,1649,1610
13417,1.2187e+08,0,0,0,0,0,0,0,0,1700,1549,1637,1620,1634,1622
13464,1.2188e+08,0,0,0,0,0,0,0,0,1690,1557,1644,1609,1629,1624
13508,1.2189e+08,0,0,0,0,0,0,0,0,1712,1525,1643,1606,1650,1597
13554,1.219e+08,0,0,0,0,0,0,0,0,1702,1532,1640,1604,1636,1608
13600,1.2191e+08,0,0,0,0,0,0,0,0,1678,1558,1659,1580,1628,1613
13645,1.2192e+08,0,0,0,0,0,0,0,0,1691,1539,1642,1595,1623,1615
13690,1.2193e+08,0,0,0,0,0,0,0,0,1704,1521,1637,1599,1630,1606
13734,1.2194e+08,0,0,0,0,0,0,0,0,1694,1533,1651,1583,1629,1606
13778,1.2195e+08,0,0,0,0,0,0,0,0,1686,1542,1633,1602,1600,1635
13823,1.2196e+08,0,0,0,0,0,0,0,0,1705,1519,1632,1603,1617,1619
13871,1.2197e+08,0,0,0,0,0,0,0,0,1714,1508,1649,1586,1641,1595
13917,1.2198e+08,0,0,0,0,0,0,0,0,1711,1513,1648,1588,1632,1604
13962,1.2199e+08,0,0,0,0,0,0,0,0,1686,1544,1634,1604,1587,1650
14007,1.22e+08,0,0,0,0,0,0,0,0,1681,1553,1645,1593,1588,1650
14051,1.2201e+08,0,0,0,0,0,0,0,0,1689,1544,1657,1581,1607,1633
14096,1.2202e+08,0,0,0,0,0,0,0,0,1692,1540,1651,1588,1602,1639
14139,1.2203e+08,0,0,0,0,0,0,0,0,1699,1532,1635,1605,1589,1650
14181,1.2204e+08,0,0,0,0,0,0,0,0,1705,1525,1667,1570,1627,1613
14226,1.2206e+08,0,0,0,0,0,0,0,0,1707,1522,1670,1566,1631,1609
14270,1.2207e+08,0,0,0,0,0,0,0,0,1695,1537,1643,1596,1586,1652
14318,1.2208e+08,0,0,0,0,0,0,0,0,1695,1536,1642,1597,1583,1655
14364,1.2209e+08,0,0,0,0,0,0,0,0,1703,1526,1648,1589,1597,1641
14408,1.221e+08,0,0,0,0,0,0,0,0,1721,1500,1638,1599,1606,1631
14453,1.2211e+08,0,0,0,0,0,0,0,0,1726,1492,1636,1601,1607,1629
14501,1.2212e+08,0,0,0,0,0,0,0,0,1710,1512,1642,1592,1592,1642
14546,1.2213e+08,0,0,0,0,0,0,0,0,1718,1499,1640,1593,1599,1634
14591,1.2214e+08,0,0,0,0,0,0,0,0,1707,1512,1647,1583,1592,1639
14635,1.2215e+08,0,0,0,0,0,0,0,0,1704,1516,1635,1595,1572,1657
14679,1.2216e+08,0,0,0,0,0,0,0,0,1695,1527,1636,1595,1559,1668
14724,1.2217e+08,0,0,0,0,0,0,0,0,1703,1518,1662,1567,1594,1637
14772,1.2218e+08,0,0,0,0,0,0,0,0,1714,1504,1652,1579,1593,1639
14817,1.222e+08,0,0,0,0,0,0,0,0,1709,1513,1650,1583,1581,1652
14862,1.2221e+08,0,0,0,0,0,0,0,0,1709,1515,1665,1568,1592,1643
14908,1.2222e+08,0,0,0,0,0,0,0,0,1719,1504,1683,1549,1620,1619
14952,1.2223e+08,0,0,0,0,0,0,0,0,1707,1522,1658,1580,1573,1665
14996,1.2224e+08,0,0,0,0,0,0,0,0,1718,1509,1667,1571,1591,1649
15041,1.2225e+08,0,0,0,0,0,0,0,0,1729,1494,1672,1566,1606,1635
15086,1.2226e+08,0,0,0,0,0,0,0,0,1737,1482,1683,1552,1625,1615
15131,1.2227e+08,0,0,0,0,0,0,0,0,1722,1501,1673,1561,1595,1643
15175,1.2229e+08,0,0,0,0,0,0,0,0,1709,1514,1668,1565,1572,1662
15224,1.223e+08,0,0,0,0,0,0,0,0,1710,1510,1661,1569,1563,1667
15269,1.2231e+08,0,0,0,0,0,0,0,0,1700,1519,1685,1538,1578,1650
15314,1.2232e+08,0,0,0,0,0,0,0,0,1698,1518,1673,1550,1560,1664
15358,1.2233e+08,0,0,0,0,0,0,0,0,1709,1501,1654,1567,1552,1668
15403,1.2234e+08,0,0,0,0,0,0,0,0,1714,1489,1645,1574,1547,1668
15447,1.2235e+08,0,0,0,0,0,0,0,0,1734,1459,1655,1560,1582,1636
15492,1.2236e+08,0,0,0,0,0,0,0,0,1723,1472,1644,1570,1558,1655
15537,1.2237e+08,0,0,0,0,0,0,0,0,1705,1496,1645,1569,1535,1674
15583,1.2238e+08,0,0,0,0,0,0,0,0,1696,1508,1650,1563,1530,1678
15627,1.2239e+08,0,0,0,0,0,0,0,0,1693,1512,1668,1543,1547,1665
15679,1.2241e+08,0,0,0,0,0,0,0,0,1703,1499,1671,1540,1563,1651
15725,1.2242e+08,0,0,0,0,0,0,0,0,1715,1484,1677,1533,1584,1632
15764,1.2243e+08,0,0,0,0,0,0,0,0,1697,1509,1635,1582,1512,1695
15809,1.2244e+08,0,0,0,0,0,0,0,0,1695,1514,1637,1582,1511,1697
15853,1.2245e+08,0,0,0,0,0,0,0,0,1702,1508,1676,1541,1565,1655
15897,1.2246e+08,0,0,0,0,0,0,0,0,1718,1490,1664,1557,1569,1654
15942,1.2247e+08,0,0,0,0,0,0,0,0,1725,1485,1668,1557,1580,1648
15987,1.2248e+08,0,0,0,0,0,0,0,0,1724,1490,1659,1570,1566,1663
16032,1.2249e+08,0,0,0,0,0,0,0,0,1723,1494,1650,1583,1555,1675
16077,1.225e+08,0,0,0,0,0,0,0,0,1728,1491,1666,1568,1576,1659
16125,1.2251e+08,0,0,0,0,0,0,0,0,1743,1472,1683,1551,1613,1627
16170,1.2252e+08,0,0,0,0,0,0,0,0,1740,1479,1674,1564,1598,1643
16215,1.2253e+08,0,0,0,0,0,0,0,0,1733,1490,1666,1575,1581,1660
16260,1.2254e+08,0,0,0,0,0,0,0,0,1714,1517,1668,1573,1560,1680
16309,1.2256e+08,0,0,0,0,0,0,0,0,1736,1489,1670,1571,1588,1656
16353,1.2257e+08,0,0,0,0,0,0,0,0,1738,1486,1664,1579,1582,1661
16399,1.2258e+08,0,0,0,0,0,0,0,0,1731,1496,1670,1572,1579,1663
16444,1.2259e+08,0,0,0,0,0,0,0,0,1732,1493,1660,1582,1567,1673
16488,1.226e+08,0,0,0,0,0,0,0,0,1748,1468,1671,1568,1596,1645
16532,1.2261e+08,0,0,0,0,0,0,0,0,1745,1469,1694,1539,1614,1626
16577,1.2262e+08,0,0,0,0,0,0,0,0,1734,1483,1667,1568,1565,1670
16622,1.2264e+08,0,0,0,0,0,0,0,0,1717,1503,1684,1546,1556,1675
16667,1.2265e+08,0,0,0,0,0,0,0,0,1725,1490,1694,1531,1570,1661
16715,1.2266e+08,0,0,0,0,0,0,0,0,1721,1492,1681,1544,1539,1685
16761,1.2267e+08,0,0,0,0,0,0,0,0,1716,1497,1675,1548,1517,1700
16806,1.2268e+08,0,0,0,0,0,0,0,0,1736,1466,1700,1515,1565,1658
16850,1.2269e+08,0,0,0,0,0,0,0,0,1741,1455,1719,1486,1588,1635
16896,1.227e+08,0,0,0,0,0,0,0,0,1734,1463,1711,1494,1565,1654
16940,1.2271e+08,0,0,0,0,0,0,0,0,1721,1479,1721,1479,1555,1661
16988,1.2272e+08,0,0,0,0,0,0,0,0,1725,1471,1696,1510,1525,1685
17034,1.2273e+08,0,0,0,0,0,0,0,0,1736,1455,1706,1497,1546,1667
17079,1.2275e+08,0,0,0,0,0,0,0,0,1735,1454,1702,1500,1537,1673
17124,1.2276e+08,0,0,0,0,0,0,0,0,1717,1478,1709,1490,1518,1687
17168,1.2277e+08,0,0,0,0,0,0,0,0,1731,1456,1729,1459,1557,1653
17213,1.2278e+08,0,0,0,0,0,0,0,0,1725,1462,1721,1469,1533,1672
17259,1.2279e+08,0,0,0,0,0,0,0,0,1740,1437,1710,1481,1534,1668
17307,1.228e+08,0,0,0,0,0,0,0,0,1724,1456,1712,1473,1512,1683
17346,1.2281e+08,0,0,0,0,0,0,0,0,1702,1482,1683,1507,1437,1733
17392,1.2282e+08,0,0,0,0,0,0,0,0,1707,1469,1676,1511,1432,1733
17441,1.2283e+08,0,0,0,0,0,0,0,0,1715,1452,1684,1495,1454,1714
17485,1.2285e+08,0,0,0,0,0,0,0,0,1715,1447,1694,1477,1465,1702
17530,1.2286e+08,0,0,0,0,0,0,0,0,1717,1437,1704,1455,1483,1684
17575,1.2287e+08,0,0,0,0,0,0,0,0,1705,1446,1710,1440,1474,1686
17620,1.2288e+08,0,0,0,0,0,0,0,0,1716,1424,1712,1430,1491,1668
17665,1.2289e+08,0,0,0,0,0,0,0,0,1714,1421,1693,1453,1461,1687
17712,1.229e+08,0,0,0,0,0,0,0,0,1701,1437,1700,1438,1449,1692
17758,1.2291e+08,0,0,0,0,0,0,0,0,1712,1417,1698,1438,1461,1682
17803,1.2292e+08,0,0,0,0,0,0,0,0,1720,1401,1695,1438,1468,1674
17847,1.2293e+08,0,0,0,0,0,0,0,0,1727,1384,1682,1452,1461,1675
17895,1.2294e+08,0,0,0,0,0,0,0,0,1727,1377,1670,1464,1446,1683
17939,1.2295e+08,0,0,0,0,0,0,0,0,1740,1349,1668,1461,1464,1666
17984,1.2296e+08,0,0,0,0,0,0,0,0,1755,1315,1658,1470,1473,1656
18031,1.2298e+08,0,0,0,0,0,0,0,0,1765,1288,1703,1401,1544,1592
18076,1.2299e+08,0,0,0,0,0,0,0,0,1767,1278,1718,1371,1566,1567
18121,1.23e+08,0,0,0,0,0,0,0,0,1768,1270,1701,1394,1549,1581
18165,1.2301e+08,0,0,0,0,0,0,0,0,1764,1277,1691,1410,1531,1596
18212,1.2303e+08,0,0,0,0,0,0,0,0,1682,1423,1661,1453,1371,1715
18256,1.2304e+08,0,0,0,0,0,0,0,0,1706,1386,1660,1454,1411,1690
18305,1.2305e+08,0,0,0,0,0,0,0,0,1722,1360,1642,1478,1410,1691
18351,1.2306e+08,0,0,0,0,0,0,0,0,1703,1392,1640,1480,1381,1709
18395,1.2307e+08,0,0,0,0,0,0,0,0,1674,1435,1669,1442,1382,1709
18440,1.2308e+08,0,0,0,0,0,0,0,0,1648,1472,1690,1413,1377,1712
18487,1.2324e+08,0,0,0,0,0,0,0,0,1625,1478,1651,1444,1371,1699
18531,1.2325e+08,0,0,0,0,0,0,0,0,1643,1449,1659,1426,1417,1666
18580,1.2326e+08,0,0,0,0,0,0,0,0,1707,1343,1595,1502,1431,1652
18624,1.2327e+08,0,0,0,0,0,0,0,0,1714,1323,1590,1501,1443,1638
18669,1.2328e+08,0,0,0,0,0,0,0,0,1686,1365,1597,1487,1419,1650
18714,1.233e+08,0,0,0,0,0,0,0,0,1725,1281,1552,1529,1433,1633
18758,1.2331e+08,0,0,0,0,0,0,0,0,1738,1242,1591,1479,1507,1567
18803,1.2332e+08,0,0,0,0,0,0,0,0,1721,1271,1603,1459,1504,1564
18847,1.2333e+08,0,0,0,0,0,0,0,0,1678,1343,1630,1417,1489,1573
18892,1.2334e+08,0,0,0,0,0,0,0,0,1660,1366,1657,1372,1509,1550
18937,1.2335e+08,0,0,0,0,0,0,0,0,1676,1333,1644,1386,1522,1533
18986,1.2336e+08,0,0,0,0,0,0,0,0,1715,1253,1610,1429,1542,1510
19031,1.2338e+08,0,0,0,0,0,0,0,0,1724,1226,1595,1445,1548,1500
19076,1.2339e+08,0,0,0,0,0,0,0,0,1686,1305,1596,1443,1512,1535
19122,1.234e+08,0,0,0,0,0,0,0,0,1629,1399,1638,1385,1504,1544
19164,1.2341e+08,0,0,0,0,0,0,0,0,1620,1414,1572,1475,1427,1610
19211,1.2342e+08,0,0,0,0,0,0,0,0,1600,1442,1564,1486,1404,1629
19252,1.2343e+08,0,0,0,0,0,0,0,0,1589,1458,1578,1471,1424,1616
19294,1.2345e+08,0,0,0,0,0,0,0,0,1587,1462,1566,1486,1422,1618
19340,1.2346e+08,0,0,0,0,0,0,0,0,1612,1433,1541,1516,1440,1607
19385,1.2347e+08,0,0,0,0,0,0,0,0,1615,1431,1527,1532,1442,1607
19434,1.2348e+08,0,0,0,0,0,0,0,0,1633,1410,1505,1556,1453,1601
19478,1.2349e+08,0,0,0,0,0,0,0,0,1616,1436,1481,1579,1415,1632
19523,1.235e+08,0,0,0,0,0,0,0,0,1577,1487,1557,1508,1462,1597
19567,1.2351e+08,0,0,0,0,0,0,0,0,1591,1472,1561,1507,1492,1575
19609,1.2352e+08,0,0,0,0,0,0,0,0,1621,1437,1514,1556,1486,1582
19651,1.2353e+08,0,0,0,0,0,0,0,0,1607,1456,1554,1518,1518,1553
19696,1.2354e+08,0,0,0,0,0,0,0,0,1621,1441,1547,1527,1532,1541
19741,1.2355e+08,0,0,0,0,0,0,0,0,1639,1417,1509,1563,1522,1551
19787,1.2356e+08,0,0,0,0,0,0,0,0,1637,1419,1528,1546,1546,1528
19831,1.2357e+08,0,0,0,0,0,0,0,0,1628,1431,1510,1563,1525,1549
19881,1.2358e+08,0,0,0,0,0,0,0,0,1621,1441,1503,1569,1515,1559
19925,1.236e+08,0,0,0,0,0,0,0,0,1610,1455,1527,1546,1531,1542
19970,1.2361e+08,0,0,0,0,0,0,0,0,1607,1458,1538,1536,1544,1529
20016,1.2362e+08,0,0,0,0,0,0,0,0,1615,1447,1515,1557,1536,1537
20055,1.2363e+08,0,0,0,0,0,0,0,0,1597,1470,1490,1580,1496,1574
20097,1.2364e+08,0,0,0,0,0,0,0,0,1599,1467,1462,1603,1477,1591
20142,1.2365e+08,0,0,0,0,0,0,0,0,1599,1468,1494,1577,1515,1558
20187,1.2366e+08,0,0,0,0,0,0,0,0,1582,1490,1519,1555,1530,1545
20235,1.2367e+08,0,0,0,0,0,0,0,0,1583,1490,1500,1574,1521,1555
20279,1.2369e+08,0,0,0,0,0,0,0,0,1569,1507,1485,1589,1498,1577
20327,1.237e+08,0,0,0,0,0,0,0,0,1562,1516,1508,1569,1520,1558
20372,1.2371e+08,0,0,0,0,0,0,0,0,1573,1506,1511,1569,1539,1542
20416,1.2372e+08,0,0,0,0,0,0,0,0,1592,1486,1501,1579,1556,1526
20461,1.2373e+08,0,0,0,0,0,0,0,0,1586,1495,1496,1585,1552,1531
20506,1.2374e+08,0,0,0,0,0,0,0,0,1600,1479,1497,1584,1575,1507
20550,1.2375e+08,0,0,0,0,0,0,0,0,1596,1485,1486,1595,1568,1517
20592,1.2376e+08,0,0,0,0,0,0,0,0,1563,1524,1491,1593,1543,1544
20637,1.2377e+08,0,0,0,0,0,0,0,0,1558,1531,1502,1585,1554,1536
20682,1.2379e+08,0,0,0,0,0,0,0,0,1572,1520,1518,1573,1586,1504
20730,1.238e+08,0,0,0,0,0,0,0,0,1592,1499,1509,1582,1601,1488
20776,1.2381e+08,0,0,0,0,0,0,0,0,1577,1517,1490,1600,1572,1522
20823,1.2382e+08,0,0,0,0,0,0,0,0,1567,1528,1483,1607,1558,1538
20864,1.2383e+08,0,0,0,0,0,0,0,0,1592,1503,1478,1613,1578,1518
20906,1.2384e+08,0,0,0,0,0,0,0,0,1588,1507,1501,1593,1594,1500
20951,1.2386e+08,0,0,0,0,0,0,0,0,1612,1479,1509,1585,1623,1465
20992,1.2387e+08,0,0,0,0,0,0,0,0,1607,1484,1503,1591,1610,1479
21039,1.2388e+08,0,0,0,0,0,0,0,0,1576,1518,1486,1604,1561,1534
21086,1.2389e+08,0,0,0,0,0,0,0,0,1584,1507,1476,1611,1556,1538
21130,1.239e+08,0,0,0,0,0,0,0,0,1609,1476,1483,1603,1584,1504
21179,1.2391e+08,0,0,0,0,0,0,0,0,1638,1433,1458,1619,1593,1490
21225,1.2392e+08,0,0,0,0,0,0,0,0,1636,1431,1452,1620,1584,1496
21269,1.2393e+08,0,0,0,0,0,0,0,0,1610,1458,1477,1594,1578,1496
21315,1.2394e+08,0,0,0,0,0,0,0,0,1597,1467,1494,1574,1579,1488
21359,1.2396e+08,0,0,0,0,0,0,0,0,1591,1467,1490,1571,1570,1492
21404,1.2397e+08,0,0,0,0,0,0,0,0,1571,1484,1493,1563,1553,1504
21447,1.2398e+08,0,0,0,0,0,0,0,0,1573,1476,1481,1569,1546,1507
21492,1.2399e+08,0,0,0,0,0,0,0,0,1564,1483,1475,1571,1530,1519
21536,1.24e+08,0,0,0,0,0,0,0,0,1558,1489,1476,1570,1524,1525
21581,1.2401e+08,0,0,0,0,0,0,0,0,1569,1475,1484,1561,1540,1507
21634,1.2402e+08,0,0,0,0,0,0,0,0,1560,1484,1494,1551,1538,1509
21678,1.2404e+08,0,0,0,0,0,0,0,0,1572,1471,1474,1570,1528,1520
21722,1.2405e+08,0,0,0,0,0,0,0,0,1576,1468,1474,1572,1528,1521
21767,1.2406e+08,0,0,0,0,0,0,0,0,1583,1463,1482,1566,1539,1513
21812,1.2407e+08,0,0,0,0,0,0,0,0,1593,1453,1481,1571,1546,1508
21853,1.2408e+08,0,0,0,0,0,0,0,0,1600,1449,1493,1563,1561,1495
21897,1.2409e+08,0,0,0,0,0,0,0,0,1613,1433,1505,1553,1583,1470
21941,1.241e+08,0,0,0,0,0,0,0,0,1619,1427,1527,1533,1607,1443
21985,1.2412e+08,0,0,0,0,0,0,0,0,1604,1448,1515,1546,1579,1478
22034,1.2413e+08,0,0,0,0,0,0,0,0,1593,1463,1502,1559,1552,1509
22080,1.2414e+08,0,0,0,0,0,0,0,0,1593,1464,1494,1568,1543,1520
22125,1.2415e+08,0,0,0,0,0,0,0,0,1617,1434,1482,1579,1556,1508
22170,1.2416e+08,0,0,0,0,0,0,0,0,1629,1420,1470,1590,1556,1509
22214,1.2417e+08,0,0,0,0,0,0,0,0,1613,1446,1500,1568,1563,1506
22256,1.2418e+08,0,0,0,0,0,0,0,0,1598,1468,1497,1574,1539,1533
22301,1.2419e+08,0,0,0,0,0,0,0,0,1609,1457,1513,1561,1563,1511
22345,1.242e+08,0,0,0,0,0,0,0,0,1614,1453,1533,1543,1584,1489
22392,1.2421e+08,0,0,0,0,0,0,0,0,1606,1463,1528,1549,1568,1507
22442,1.2423e+08,0,0,0,0,0,0,0,0,1633,1430,1516,1561,1582,1494
22490,1.2424e+08,0,0,0,0,0,0,0,0,1619,1449,1523,1556,1570,1508
22534,1.2425e+08,0,0,0,0,0,0,0,0,1601,1473,1511,1568,1535,1545
22578,1.2426e+08,0,0,0,0,0,0,0,0,1616,1455,1496,1582,1535,1546
22623,1.2428e+08,0,0,0,0,0,0,0,0,1603,1470,1518,1562,1539,1541
22668,1.2429e+08,0,0,0,0,0,0,0,0,1579,1499,1521,1560,1512,1567
22709,1.243e+08,0,0,0,0,0,0,0,0,1571,1509,1475,1601,1452,1619
22754,1.2431e+08,0,0,0,0,0,0,0,0,1589,1490,1480,1596,1476,1600
22798,1.2432e+08,0,0,0,0,0,0,0,0,1610,1464,1515,1565,1532,1549
22844,1.2433e+08,0,0,0,0,0,0,0,0,1623,1445,1544,1536,1572,1506
22892,1.2434e+08,0,0,0,0,0,0,0,0,1608,1462,1531,1548,1541,1538
22938,1.2435e+08,0,0,0,0,0,0,0,0,1586,1488,1509,1567,1493,1581
22984,1.2436e+08,0,0,0,0,0,0,0,0,1591,1480,1502,1572,1489,1584
23028,1.2437e+08,0,0,0,0,0,0,0,0,1605,1461,1517,1556,1519,1555
23072,1.2439e+08,0,0,0,0,0,0,0,0,1624,1434,1529,1543,1550,1522
23115,1.244e+08,0,0,0,0,0,0,0,0,1601,1463,1520,1551,1513,1558
23159,1.2441e+08,0,0,0,0,0,0,0,0,1608,1456,1515,1556,1514,1558
23209,1.2442e+08,0,0,0,0,0,0,0,0,1585,1488,1513,1563,1481,1591
23255,1.2444e+08,0,0,0,0,0,0,0,0,1573,1507,1526,1555,1476,1600
23300,1.2445e+08,0,0,0,0,0,0,0,0,1587,1498,1525,1562,1486,1597
23349,1.2446e+08,0,0,0,0,0,0,0,0,1609,1478,1524,1569,1506,1586
23394,1.2447e+08,0,0,0,0,0,0,0,0,1631,1456,1511,1586,1513,1584
23438,1.2448e+08,0,0,0,0,0,0,0,0,1618,1479,1518,1584,1499,1601
23483,1.2449e+08,0,0,0,0,0,0,0,0,1611,1492,1505,1600,1470,1629
23524,1.245e+08,0,0,0,0,0,0,0,0,1627,1479,1529,1583,1508,1602
23569,1.2451e+08,0,0,0,0,0,0,0,0,1633,1478,1529,1589,1507,1609
23615,1.2452e+08,0,0,0,0,0,0,0,0,1651,1459,1521,1599,1515,1605
23659,1.2454e+08,0,0,0,0,0,0,0,0,1649,1464,1559,1566,1546,1579
23705,1.2455e+08,0,0,0,0,0,0,0,0,1654,1457,1576,1549,1564,1561
23753,1.2456e+08,0,0,0,0,0,0,0,0,1660,1451,1567,1559,1556,1570
23799,1.2457e+08,0,0,0,0,0,0,0,0,1644,1471,1563,1562,1529,1595
23843,1.2458e+08,0,0,0,0,0,0,0,0,1625,1495,1604,1520,1545,1580
23887,1.2459e+08,0,0,0,0,0,0,0,0,1647,1467,1594,1531,1555,1572
23932,1.246e+08,0,0,0,0,0,0,0,0,1673,1432,1575,1551,1560,1566
23973,1.2461e+08,0,0,0,0,0,0,0,0,1669,1437,1557,1569,1531,1593
24012,1.2462e+08,0,0,0,0,0,0,0,0,1654,1456,1588,1535,1542,1582
24056,1.2463e+08,0,0,0,0,0,0,0,0,1659,1448,1575,1549,1529,1593
24101,1.2465e+08,0,0,0,0,0,0,0,0,1655,1452,1559,1563,1503,1615
24146,1.2466e+08,0,0,0,0,0,0,0,0,1638,1472,1562,1559,1481,1631
24194,1.2467e+08,0,0,0,0,0,0,0,0,1637,1474,1542,1578,1451,1654
24240,1.2468e+08,0,0,0,0,0,0,0,0,1649,1457,1555,1564,1477,1633
24285,1.2469e+08,0,0,0,0,0,0,0,0,1664,1435,1574,1545,1513,1603
24330,1.247e+08,0,0,0,0,0,0,0,0,1686,1403,1568,1550,1530,1588
24375,1.2471e+08,0,0,0,0,0,0,0,0,1683,1408,1584,1533,1538,1579
24420,1.2472e+08,0,0,0,0,0,0,0,0,1684,1406,1583,1535,1535,1583
24458,1.2473e+08,0,0,0,0,0,0,0,0,1657,1445,1567,1550,1480,1630
24503,1.2474e+08,0,0,0,0,0,0,0,0,1653,1450,1600,1515,1510,1605
24548,1.2475e+08,0,0,0,0,0,0,0,0,1665,1429,1590,1523,1510,1601
24592,1.2476e+08,0,0,0,0,0,0,0,0,1680,1403,1582,1529,1519,1590
24642,1.2477e+08,0,0,0,0,0,0,0,0,1674,1406,1589,1516,1521,1585
24687,1.2478e+08,0,0,0,0,0,0,0,0,1668,1409,1580,1522,1503,1596
24732,1.2479e+08,0,0,0,0,0,0,0,0,1673,1397,1581,1516,1511,1585
24776,1.248e+08,0,0,0,0,0,0,0,0,1654,1419,1578,1514,1485,1603
24821,1.2481e+08,0,0,0,0,0,0,0,0,1647,1422,1578,1509,1478,1604
24864,1.2483e+08,0,0,0,0,0,0,0,0,1649,1414,1594,1484,1502,1579
24903,1.2484e+08,0,0,0,0,0,0,0,0,1652,1403,1576,1501,1488,1587
24947,1.2485e+08,0,0,0,0,0,0,0,0,1659,1389,1551,1524,1471,1598
24992,1.2486e+08,0,0,0,0,0,0,0,0,1654,1393,1555,1517,1472,1595
25038,1.2487e+08,0,0,0,0,0,0,0,0,1646,1405,1574,1497,1485,1584
25087,1.2488e+08,0,0,0,0,0,0,0,0,1634,1421,1572,1498,1470,1597
25133,1.2489e+08,0,0,0,0,0,0,0,0,1618,1444,1617,1445,1503,1568
25179,1.249e+08,0,0,0,0,0,0,0,0,1628,1433,1604,1464,1502,1571
25224,1.2491e+08,0,0,0,0,0,0,0,0,1636,1424,1583,1491,1488,1585
25266,1.2493e+08,0,0,0,0,0,0,0,0,1617,1451,1591,1483,1477,1597
25307,1.2494e+08,0,0,0,0,0,0,0,0,1633,1432,1551,1530,1451,1619
25352,1.2495e+08,0,0,0,0,0,0,0,0,1636,1431,1542,1540,1446,1625
25399,1.2496e+08,0,0,0,0,0,0,0,0,1641,1427,1556,1529,1469,1609
25443,1.2497e+08,0,0,0,0,0,0,0,0,1657,1408,1518,1569,1450,1627
25489,1.2498e+08,0,0,0,0,0,0,0,0,1656,1412,1563,1526,1499,1588
25536,1.2499e+08,0,0,0,0,0,0,0,0,1657,1410,1538,1552,1476,1608
25582,1.25e+08,0,0,0,0,0,0,0,0,1669,1394,1556,1535,1513,1577
25627,1.2501e+08,0,0,0,0,0,0,0,0,1674,1388,1602,1485,1568,1523
25673,1.2502e+08,0,0,0,0,0,0,0,0,1672,1390,1575,1516,1539,1553
25716,1.2503e+08,0,0,0,0,0,0,0,0,1666,1400,1572,1519,1532,1560
25757,1.2505e+08,0,0,0,0,0,0,0,0,1652,1421,1522,1569,1462,1621
25796,1.2506e+08,0,0,0,0,0,0,0,0,1661,1405,1545,1546,1501,1587
25841,1.2507e+08,0,0,0,0,0,0,0,0,1670,1391,1561,1528,1532,1558
25886,1.2508e+08,0,0,0,0,0,0,0,0,1646,1423,1585,1501,1530,1557
25931,1.2509e+08,0,0,0,0,0,0,0,0,1655,1408,1547,1539,1504,1580
25979,1.251e+08,0,0,0,0,0,0,0,0,1638,1430,1541,1543,1478,1600
26024,1.2511e+08,0,0,0,0,0,0,0,0,1612,1461,1575,1504,1488,1590
26070,1.2512e+08,0,0,0,0,0,0,0,0,1624,1441,1528,1550,1452,1616
26115,1.2513e+08,0,0,0,0,0,0,0,0,1611,1454,1538,1536,1451,1613
26159,1.2515e+08,0,0,0,0,0,0,0,0,1636,1413,1527,1541,1475,1589
26203,1.2516e+08,0,0,0,0,0,0,0,0,1636,1408,1534,1530,1486,1575
26248,1.2517e+08,0,0,0,0,0,0,0,0,1651,1379,1540,1518,1515,1544
26293,1.2518e+08,0,0,0,0,0,0,0,0,1635,1395,1570,1479,1532,1521
26337,1.2519e+08,0,0,0,0,0,0,0,0,1620,1412,1559,1487,1504,1544
26382,1.252e+08,0,0,0,0,0,0,0,0,1628,1394,1543,1499,1500,1542
26431,1.2521e+08,0,0,0,0,0,0,0,0,1639,1372,1523,1517,1495,1543
26474,1.2522e+08,0,0,0,0,0,0,0,0,1609,1413,1506,1530,1441,1587
26517,1.2524e+08,0,0,0,0,0,0,0,0,1614,1403,1507,1527,1450,1577
26562,1.2525e+08,0,0,0,0,0,0,0,0,1639,1364,1481,1550,1457,1571
26604,1.2526e+08,0,0,0,0,0,0,0,0,1634,1370,1507,1524,1478,1551
26645,1.2527e+08,0,0,0,0,0,0,0,0,1633,1371,1530,1501,1502,1529
26689,1.2528e+08,0,0,0,0,0,0,0,0,1652,1342,1478,1553,1471,1558
26734,1.2529e+08,0,0,0,0,0,0,0,0,1639,1363,1516,1517,1494,1538
26778,1.253e+08,0,0,0,0,0,0,0,0,1632,1376,1506,1527,1474,1557
26825,1.2531e+08,0,0,0,0,0,0,0,0,1597,1424,1491,1541,1414,1605
26874,1.2532e+08,0,0,0,0,0,0,0,0,1596,1426,1529,1503,1454,1573
26919,1.2533e+08,0,0,0,0,0,0,0,0,1614,1399,1569,1457,1520,1511
26965,1.2534e+08,0,0,0,0,0,0,0,0,1649,1346,1542,1487,1532,1498
27009,1.2535e+08,0,0,0,0,0,0,0,0,1652,1340,1560,1467,1553,1475
27051,1.2536e+08,0,0,0,0,0,0,0,0,1675,1300,1500,1530,1519,1511
27098,1.2538e+08,0,0,0,0,0,0,0,0,1630,1374,1509,1521,1472,1556
27142,1.2539e+08,0,0,0,0,0,0,0,0,1621,1388,1525,1506,1476,1552
27187,1.254e+08,0,0,0,0,0,0,0,0,1609,1407,1509,1522,1441,1582
27231,1.2541e+08,0,0,0,0,0,0,0,0,1612,1403,1520,1512,1457,1571
27278,1.2542e+08,0,0,0,0,0,0,0,0,1617,1398,1519,1515,1460,1569
27321,1.2543e+08,0,0,0,0,0,0,0,0,1623,1392,1488,1547,1431,1594
27367,1.2544e+08,0,0,0,0,0,0,0,0,1629,1383,1525,1512,1477,1557
27412,1.2545e+08,0,0,0,0,0,0,0,0,1625,1392,1526,1512,1470,1564
27457,1.2546e+08,0,0,0,0,0,0,0,0,1617,1405,1522,1517,1454,1579
27498,1.2548e+08,0,0,0,0,0,0,0,0,1589,1445,1593,1440,1497,1544
27546,1.2549e+08,0,0,0,0,0,0,0,0,1590,1446,1519,1525,1407,1620
27591,1.255e+08,0,0,0,0,0,0,0,0,1582,1457,1489,1554,1356,1654
27635,1.2551e+08,0,0,0,0,0,0,0,0,1589,1451,1510,1536,1390,1634
27680,1.2552e+08,0,0,0,0,0,0,0,0,1610,1423,1509,1537,1416,1615
27725,1.2553e+08,0,0,0,0,0,0,0,0,1609,1425,1515,1532,1418,1614
27774,1.2554e+08,0,0,0,0,0,0,0,0,1613,1420,1517,1531,1424,1610
27820,1.2555e+08,0,0,0,0,0,0,0,0,1610,1426,1515,1534,1415,1618
27864,1.2556e+08,0,0,0,0,0,0,0,0,1601,1439,1553,1495,1447,1594
27909,1.2557e+08,0,0,0,0,0,0,0,0,1604,1435,1537,1513,1430,1608
27950,1.2559e+08,0,0,0,0,0,0,0,0,1618,1417,1560,1488,1475,1572
27995,1.256e+08,0,0,0,0,0,0,0,0,1611,1426,1552,1497,1456,1588
28045,1.2561e+08,0,0,0,0,0,0,0,0,1619,1417,1568,1480,1483,1566
28085,1.2562e+08,0,0,0,0,0,0,0,0,1609,1431,1596,1447,1502,1549
28129,1.2563e+08,0,0,0,0,0,0,0,0,1630,1402,1574,1474,1502,1549
28178,1.2564e+08,0,0,0,0,0,0,0,0,1631,1402,1589,1457,1520,1533
28222,1.2566e+08,0,0,0,0,0,0,0,0,1632,1401,1601,1442,1534,1519
28268,1.2567e+08,0,0,0,0,0,0,0,0,1639,1392,1551,1502,1488,1564
28312,1.2568e+08,0,0,0,0,0,0,0,0,1621,1418,1568,1485,1486,1567
28357,1.2569e+08,0,0,0,0,0,0,0,0,1606,1441,1551,1506,1446,1602
28400,1.257e+08,0,0,0,0,0,0,0,0,1639,1396,1541,1517,1477,1576
28445,1.2571e+08,0,0,0,0,0,0,0,0,1644,1390,1587,1466,1536,1522
28490,1.2572e+08,0,0,0,0,0,0,0,0,1646,1387,1555,1503,1504,1554
28535,1.2573e+08,0,0,0,0,0,0,0,0,1627,1415,1564,1493,1492,1565
28579,1.2574e+08,0,0,0,0,0,0,0,0,1628,1413,1546,1512,1475,1579
28629,1.2575e+08,0,0,0,0,0,0,0,0,1629,1412,1558,1500,1490,1566
28673,1.2577e+08,0,0,0,0,0,0,0,0,1637,1397,1550,1507,1494,1561
28718,1.2578e+08,0,0,0,0,0,0,0,0,1639,1395,1522,1535,1467,1584
28762,1.2579e+08,0,0,0,0,0,0,0,0,1641,1389,1549,1505,1502,1552
28807,1.258e+08,0,0,0,0,0,0,0,0,1628,1406,1550,1502,1490,1561
28853,1.2581e+08,0,0,0,0,0,0,0,0,1640,1389,1524,1529,1478,1572
28901,1.2583e+08,0,0,0,0,0,0,0,0,1596,1448,1518,1534,1416,1620
28942,1.2584e+08,0,0,0,0,0,0,0,0,1635,1395,1586,1460,1541,1511
28987,1.2585e+08,0,0,0,0,0,0,0,0,1635,1392,1574,1473,1530,1521
29037,1.2586e+08,0,0,0,0,0,0,0,0,1639,1387,1581,1463,1542,1508
29083,1.2587e+08,0,0,0,0,0,0,0,0,1635,1390,1582,1460,1539,1509
29128,1.2588e+08,0,0,0,0,0,0,0,0,1627,1400,1542,1504,1486,1559
29172,1.2589e+08,0,0,0,0,0,0,0,0,1610,1421,1549,1495,1474,1568
29218,1.259e+08,0,0,0,0,0,0,0,0,1611,1418,1531,1513,1455,1583
29257,1.2592e+08,0,0,0,0,0,0,0,0,1622,1403,1520,1523,1454,1583
29301,1.2593e+08,0,0,0,0,0,0,0,0,1606,1424,1528,1515,1441,1593
29345,1.2594e+08,0,0,0,0,0,0,0,0,1577,1459,1549,1492,1429,1602
29390,1.2595e+08,0,0,0,0,0,0,0,0,1600,1429,1546,1493,1452,1582
29434,1.2596e+08,0,0,0,0,0,0,0,0,1604,1422,1546,1491,1458,1575
29483,1.2597e+08,0,0,0,0,0,0,0,0,1637,1372,1548,1487,1500,1536
29528,1.2598e+08,0,0,0,0,0,0,0,0,1640,1365,1565,1466,1520,1514
29572,1.2599e+08,0,0,0,0,0,0,0,0,1643,1355,1538,1493,1495,1535
29618,1.26e+08,0,0,0,0,0,0,0,0,1635,1365,1536,1492,1483,1544
29663,1.2602e+08,0,0,0,0,0,0,0,0,1640,1353,1525,1500,1478,1546
29703,1.2603e+08,0,0,0,0,0,0,0,0,1647,1340,1514,1511,1474,1549
29751,1.2604e+08,0,0,0,0,0,0,0,0,1646,1343,1529,1495,1487,1537
29795,1.2605e+08,0,0,0,0,0,0,0,0,1616,1388,1543,1480,1464,1558
29840,1.2606e+08,0,0,0,0,0,0,0,0,1609,1399,1540,1484,1449,1571
29884,1.2607e+08,0,0,0,0,0,0,0,0,1634,1364,1518,1509,1455,1567
29933,1.2608e+08,0,0,0,0,0,0,0,0,1642,1353,1522,1506,1468,1557
29978,1.2609e+08,0,0,0,0,0,0,0,0,1662,1321,1515,1514,1485,1543
30022,1.261e+08,0,0,0,0,0,0,0,0,1629,1377,1522,1509,1448,1576
30067,1.2612e+08,0,0,0,0,0,0,0,0,1604,1414,1525,1507,1419,1601
30108,1.2613e+08,0,0,0,0,0,0,0,0,1693,1272,1512,1524,1517,1519
30153,1.2614e+08,0,0,0,0,0,0,0,0,1672,1316,1508,1530,1487,1550
30199,1.2615e+08,0,0,0,0,0,0,0,0,1599,1431,1572,1465,1464,1573
30244,1.2616e+08,0,0,0,0,0,0,0,0,1588,1448,1574,1465,1452,1585
30290,1.2617e+08,0,0,0,0,0,0,0,0,1622,1406,1547,1499,1463,1578
30338,1.2618e+08,0,0,0,0,0,0,0,0,1659,1353,1520,1529,1481,1565
30383,1.2619e+08,0,0,0,0,0,0,0,0,1648,1374,1506,1545,1451,1593
30428,1.262e+08,0,0,0,0,0,0,0,0,1638,1390,1489,1561,1420,1617
30474,1.2622e+08,0,0,0,0,0,0,0,0,1613,1426,1526,1527,1430,1610
30519,1.2623e+08,0,0,0,0,0,0,0,0,1644,1384,1499,1554,1444,1601
30562,1.2624e+08,0,0,0,0,0,0,0,0,1650,1375,1503,1551,1460,1588
30604,1.2626e+08,0,0,0,0,0,0,0,0,1642,1389,1526,1530,1478,1575
30649,1.2627e+08,0,0,0,0,0,0,0,0,1617,1426,1515,1542,1439,1607
30694,1.2628e+08,0,0,0,0,0,0,0,0,1618,1426,1519,1539,1452,1598
30740,1.2629e+08,0,0,0,0,0,0,0,0,1612,1437,1555,1505,1492,1567
30788,1.263e+08,0,0,0,0,0,0,0,0,1612,1440,1573,1487,1519,1544
30833,1.2631e+08,0,0,0,0,0,0,0,0,1625,1424,1518,1547,1481,1580
30877,1.2632e+08,0,0,0,0,0,0,0,0,1609,1449,1513,1554,1463,1598
30922,1.2633e+08,0,0,0,0,0,0,0,0,1590,1474,1512,1556,1444,1614
30961,1.2634e+08,0,0,0,0,0,0,0,0,1616,1446,1558,1514,1528,1544
31005,1.2635e+08,0,0,0,0,0,0,0,0,1603,1464,1566,1507,1527,1547
31052,1.2637e+08,0,0,0,0,0,0,0,0,1599,1471,1565,1510,1526,1550
31098,1.2638e+08,0,0,0,0,0,0,0,0,1617,1450,1542,1536,1525,1552
31142,1.2639e+08,0,0,0,0,0,0,0,0,1622,1445,1522,1556,1514,1564
31187,1.264e+08,0,0,0,0,0,0,0,0,1617,1452,1519,1560,1507,1571
31236,1.2641e+08,0,0,0,0,0,0,0,0,1615,1457,1510,1570,1498,1581
31282,1.2642e+08,0,0,0,0,0,0,0,0,1602,1472,1518,1562,1492,1586
31325,1.2643e+08,0,0,0,0,0,0,0,0,1614,1459,1516,1565,1504,1576
31370,1.2644e+08,0,0,0,0,0,0,0,0,1614,1459,1504,1576,1491,1588
31408,1.2645e+08,0,0,0,0,0,0,0,0,1614,1458,1543,1538,1529,1552
31453,1.2647e+08,0,0,0,0,0,0,0,0,1612,1461,1549,1532,1529,1552
31498,1.2648e+08,0,0,0,0,0,0,0,0,1625,1445,1552,1530,1542,1539
31543,1.2649e+08,0,0,0,0,0,0,0,0,1624,1446,1550,1532,1534,1548
31590,1.265e+08,0,0,0,0,0,0,0,0,1615,1458,1513,1567,1480,1597
31635,1.2651e+08,0,0,0,0,0,0,0,0,1612,1461,1529,1553,1488,1590
31683,1.2652e+08,0,0,0,0,0,0,0,0,1614,1461,1548,1535,1504,1577
31728,1.2653e+08,0,0,0,0,0,0,0,0,1638,1429,1544,1539,1525,1558
31772,1.2654e+08,0,0,0,0,0,0,0,0,1646,1418,1547,1537,1533,1551
31818,1.2655e+08,0,0,0,0,0,0,0,0,1636,1433,1550,1534,1521,1563
31859,1.2656e+08,0,0,0,0,0,0,0,0,1635,1434,1532,1553,1497,1585
31901,1.2657e+08,0,0,0,0,0,0,0,0,1622,1452,1578,1505,1528,1557
31948,1.2658e+08,0,0,0,0,0,0,0,0,1606,1473,1573,1511,1500,1583
31992,1.2659e+08,0,0,0,0,0,0,0,0,1618,1460,1567,1519,1503,1581
32037,1.266e+08,0,0,0,0,0,0,0,0,1629,1443,1560,1525,1508,1576
32084,1.2661e+08,0,0,0,0,0,0,0,0,1636,1434,1554,1532,1506,1577
32126,1.2663e+08,0,0,0,0,0,0,0,0,1649,1415,1523,1562,1487,1594
32171,1.2664e+08,0,0,0,0,0,0,0,0,1647,1419,1534,1551,1493,1588
32216,1.2665e+08,0,0,0,0,0,0,0,0,1637,1433,1551,1534,1497,1586
32260,1.2666e+08,0,0,0,0,0,0,0,0,1624,1449,1576,1507,1508,1575
32302,1.2667e+08,0,0,0,0,0,0,0,0,1639,1431,1586,1497,1533,1552
32347,1.2668e+08,0,0,0,0,0,0,0,0,1633,1440,1563,1523,1499,1585
32389,1.2669e+08,0,0,0,0,0,0,0,0,1624,1452,1543,1543,1464,1614
32435,1.267e+08,0,0,0,0,0,0,0,0,1633,1441,1525,1563,1455,1623
32480,1.2671e+08,0,0,0,0,0,0,0,0,1642,1431,1543,1547,1487,1598
32525,1.2672e+08,0,0,0,0,0,0,0,0,1633,1444,1564,1526,1502,1586
32574,1.2673e+08,0,0,0,0,0,0,0,0,1643,1435,1546,1548,1497,1593
32619,1.2674e+08,0,0,0,0,0,0,0,0,1649,1428,1583,1510,1550,1545
32663,1.2675e+08,0,0,0,0,0,0,0,0,1655,1422,1567,1530,1546,1552
32708,1.2676e+08,0,0,0,0,0,0,0,0,1652,1429,1567,1533,1550,1550
32752,1.2678e+08,0,0,0,0,0,0,0,0,1646,1439,1560,1541,1548,1553
32799,1.2679e+08,0,0,0,0,0,0,0,0,1639,1450,1543,1559,1529,1572
32846,1.268e+08,0,0,0,0,0,0,0,0,1629,1462,1538,1564,1520,1581
32885,1.2682e+08,0,0,0,0,0,0,0,0,1642,1446,1515,1586,1517,1584
32930,1.2683e+08,0,0,0,0,0,0,0,0,1611,1486,1542,1560,1511,1589
32974,1.2684e+08,0,0,0,0,0,0,0,0,1623,1471,1548,1554,1532,1570
33023,1.2685e+08,0,0,0,0,0,0,0,0,1639,1450,1544,1559,1547,1556
33069,1.2686e+08,0,0,0,0,0,0,0,0,1640,1449,1538,1565,1541,1561
33114,1.2687e+08,0,0,0,0,0,0,0,0,1628,1465,1555,1548,1545,1558
33159,1.2688e+08,0,0,0,0,0,0,0,0,1632,1459,1569,1533,1563,1539
33200,1.2689e+08,0,0,0,0,0,0,0,0,1628,1465,1548,1555,1536,1567
33245,1.2691e+08,0,0,0,0,0,0,0,0,1633,1460,1515,1587,1506,1594
33289,1.2692e+08,0,0,0,0,0,0,0,0,1612,1487,1567,1537,1536,1568
33336,1.2693e+08,0,0,0,0,0,0,0,0,1611,1488,1562,1543,1528,1576
33381,1.2694e+08,0,0,0,0,0,0,0,0,1616,1482,1552,1552,1523,1580
33429,1.2695e+08,0,0,0,0,0,0,0,0,1609,1491,1527,1577,1488,1612
33474,1.2696e+08,0,0,0,0,0,0,0,0,1604,1497,1516,1588,1469,1628
33518,1.2697e+08,0,0,0,0,0,0,0,0,1606,1495,1533,1573,1487,1613
33564,1.2698e+08,0,0,0,0,0,0,0,0,1630,1466,1553,1553,1535,1570
33609,1.27e+08,0,0,0,0,0,0,0,0,1609,1491,1555,1551,1511,1592
33654,1.2701e+08,0,0,0,0,0,0,0,0,1613,1488,1553,1553,1510,1594
33697,1.2702e+08,0,0,0,0,0,0,0,0,1614,1486,1563,1543,1520,1585
33750,1.2703e+08,0,0,0,0,0,0,0,0,1629,1469,1563,1544,1530,1576
33794,1.2704e+08,0,0,0,0,0,0,0,0,1618,1482,1562,1545,1512,1593
33839,1.2706e+08,0,0,0,0,0,0,0,0,1642,1454,1546,1562,1518,1589
33887,1.2707e+08,0,0,0,0,0,0,0,0,1646,1449,1543,1566,1515,1592
33932,1.2708e+08,0,0,0,0,0,0,0,0,1639,1458,1554,1555,1515,1592
33976,1.2709e+08,0,0,0,0,0,0,0,0,1637,1463,1562,1549,1517,1593
34021,1.271e+08,0,0,0,0,0,0,0,0,1630,1473,1576,1535,1519,1591
34063,1.2711e+08,0,0,0,0,0,0,0,0,1629,1475,1560,1552,1495,1613
34111,1.2712e+08,0,0,0,0,0,0,0,0,1625,1482,1538,1575,1461,1641
34156,1.2713e+08,0,0,0,0,0,0,0,0,1631,1474,1567,1547,1499,1611
34201,1.2714e+08,0,0,0,0,0,0,0,0,1652,1447,1578,1536,1536,1578
34245,1.2715e+08,0,0,0,0,0,0,0,0,1659,1438,1562,1552,1527,1587
34294,1.2716e+08,0,0,0,0,0,0,0,0,1638,1466,1568,1546,1507,1604
34339,1.2718e+08,0,0,0,0,0,0,0,0,1618,1491,1575,1539,1490,1619
34384,1.2719e+08,0,0,0,0,0,0,0,0,1613,1497,1560,1556,1464,1640
34429,1.272e+08,0,0,0,0,0,0,0,0,1617,1493,1566,1550,1474,1633
34473,1.2721e+08,0,0,0,0,0,0,0,0,1649,1453,1582,1533,1526,1589
34517,1.2723e+08,0,0,0,0,0,0,0,0,1640,1465,1579,1536,1506,1606
34562,1.2724e+08,0,0,0,0,0,0,0,0,1635,1471,1575,1540,1491,1619
34604,1.2725e+08,0,0,0,0,0,0,0,0,1629,1479,1568,1548,1471,1635
34648,1.2726e+08,0,0,0,0,0,0,0,0,1632,1472,1553,1561,1455,1645
34693,1.2727e+08,0,0,0,0,0,0,0,0,1653,1444,1541,1571,1465,1637
34741,1.2728e+08,0,0,0,0,0,0,0,0,1663,1428,1555,1556,1491,1615
34787,1.2729e+08,0,0,0,0,0,0,0,0,1646,1449,1574,1536,1489,1615
34832,1.273e+08,0,0,0,0,0,0,0,0,1655,1437,1581,1527,1507,1599
34876,1.2731e+08,0,0,0,0,0,0,0,0,1657,1430,1592,1512,1520,1585
34915,1.2732e+08,0,0,0,0,0,0,0,0,1631,1464,1562,1543,1451,1640
34960,1.2733e+08,0,0,0,0,0,0,0,0,1627,1466,1550,1552,1432,1652
35005,1.2734e+08,0,0,0,0,0,0,0,0,1630,1459,1558,1543,1445,1641
35052,1.2735e+08,0,0,0,0,0,0,0,0,1639,1447,1572,1526,1473,1618
35097,1.2737e+08,0,0,0,0,0,0,0,0,1656,1420,1590,1505,1515,1581
35142,1.2738e+08,0,0,0,0,0,0,0,0,1660,1413,1576,1519,1503,1590
35191,1.2739e+08,0,0,0,0,0,0,0,0,1644,1434,1584,1509,1492,1598
35235,1.274e+08,0,0,0,0,0,0,0,0,1628,1456,1587,1505,1475,1613
35279,1.2741e+08,0,0,0,0,0,0,0,0,1633,1448,1557,1537,1445,1635
35322,1.2742e+08,0,0,0,0,0,0,0,0,1630,1451,1597,1492,1490,1598
35364,1.2743e+08,0,0,0,0,0,0,0,0,1628,1453,1581,1510,1470,1615
35408,1.2745e+08,0,0,0,0,0,0,0,0,1621,1461,1557,1535,1433,1643
35453,1.2746e+08,0,0,0,0,0,0,0,0,1628,1453,1586,1504,1478,1608
35499,1.2747e+08,0,0,0,0,0,0,0,0,1650,1423,1577,1514,1496,1593
35544,1.2748e+08,0,0,0,0,0,0,0,0,1656,1416,1605,1483,1535,1558
35593,1.2749e+08,0,0,0,0,0,0,0,0,1662,1410,1600,1491,1537,1558
35637,1.275e+08,0,0,0,0,0,0,0,0,1656,1420,1628,1458,1561,1536
35682,1.2751e+08,0,0,0,0,0,0,0,0,1651,1432,1607,1488,1531,1569
35727,1.2752e+08,0,0,0,0,0,0,0,0,1648,1438,1612,1484,1536,1566
35772,1.2754e+08,0,0,0,0,0,0,0,0,1650,1441,1593,1511,1516,1589
35817,1.2755e+08,0,0,0,0,0,0,0,0,1644,1452,1604,1501,1521,1587
35863,1.2756e+08,0,0,0,0,0,0,0,0,1636,1465,1602,1506,1510,1599
35907,1.2757e+08,0,0,0,0,0,0,0,0,1645,1455,1587,1525,1504,1605
35954,1.2758e+08,0,0,0,0,0,0,0,0,1643,1459,1587,1526,1503,1608
35999,1.2759e+08,0,0,0,0,0,0,0,0,1637,1467,1591,1522,1501,1609
36047,1.276e+08,0,0,0,0,0,0,0,0,1644,1459,1566,1550,1483,1625
36091,1.2762e+08,0,0,0,0,0,0,0,0,1644,1461,1593,1522,1515,1599
36135,1.2763e+08,0,0,0,0,0,0,0,0,1649,1454,1578,1539,1508,1606
36180,1.2764e+08,0,0,0,0,0,0,0,0,1637,1471,1576,1542,1492,1620
36221,1.2765e+08,0,0,0,0,0,0,0,0,1653,1451,1567,1551,1503,1611
36262,1.2766e+08,0,0,0,0,0,0,0,0,1651,1453,1573,1545,1510,1605
36308,1.2767e+08,0,0,0,0,0,0,0,0,1649,1455,1579,1537,1517,1598
36352,1.2768e+08,0,0,0,0,0,0,0,0,1646,1457,1584,1531,1522,1593
36398,1.2769e+08,0,0,0,0,0,0,0,0,1656,1444,1609,1503,1563,1553
36442,1.277e+08,0,0,0,0,0,0,0,0,1651,1448,1606,1504,1558,1556
36490,1.2771e+08,0,0,0,0,0,0,0,0,1647,1453,1593,1518,1543,1570
36536,1.2772e+08,0,0,0,0,0,0,0,0,1652,1444,1581,1531,1539,1573
36580,1.2773e+08,0,0,0,0,0,0,0,0,1653,1442,1562,1549,1523,1586
36624,1.2774e+08,0,0,0,0,0,0,0,0,1649,1446,1535,1574,1493,1612
36666,1.2775e+08,0,0,0,0,0,0,0,0,1636,1462,1553,1555,1501,1604
36708,1.2777e+08,0,0,0,0,0,0,0,0,1652,1440,1572,1535,1543,1565
36753,1.2778e+08,0,0,0,0,0,0,0,0,1650,1443,1580,1528,1553,1555
36797,1.2779e+08,0,0,0,0,0,0,0,0,1644,1451,1558,1550,1530,1578
36842,1.278e+08,0,0,0,0,0,0,0,0,1634,1465,1554,1555,1520,1587
36888,1.2781e+08,0,0,0,0,0,0,0,0,1612,1492,1544,1565,1493,1611
36936,1.2782e+08,0,0,0,0,0,0,0,0,1604,1502,1560,1550,1511,1596
36983,1.2783e+08,0,0,0,0,0,0,0,0,1614,1490,1549,1560,1524,1584
37024,1.2784e+08,0,0,0,0,0,0,0,0,1611,1494,1553,1557,1537,1572
37071,1.2785e+08,0,0,0,0,0,0,0,0,1621,1481,1525,1583,1534,1575
37112,1.2786e+08,0,0,0,0,0,0,0,0,1596,1510,1515,1591,1510,1596
37158,1.2788e+08,0,0,0,0,0,0,0,0,1588,1519,1528,1579,1535,1574
37202,1.2789e+08,0,0,0,0,0,0,0,0,1604,1501,1496,1608,1536,1572
37248,1.279e+08,0,0,0,0,0,0,0,0,1591,1517,1490,1614,1531,1578
37293,1.2791e+08,0,0,0,0,0,0,0,0,1585,1525,1523,1588,1568,1544
37341,1.2792e+08,0,0,0,0,0,0,0,0,1613,1496,1518,1593,1604,1506
37386,1.2793e+08,0,0,0,0,0,0,0,0,1608,1502,1511,1600,1603,1509
37432,1.2794e+08,0,0,0,0,0,0,0,0,1576,1540,1505,1607,1571,1545
37476,1.2795e+08,0,0,0,0,0,0,0,0,1545,1572,1494,1618,1535,1582
37521,1.2796e+08,0,0,0,0,0,0,0,0,1567,1552,1497,1617,1562,1557
37562,1.2797e+08,0,0,0,0,0,0,0,0,1586,1533,1480,1632,1567,1553
37604,1.2799e+08,0,0,0,0,0,0,0,0,1581,1540,1496,1620,1574,1547
37649,1.28e+08,0,0,0,0,0,0,0,0,1576,1546,1514,1606,1584,1538
37693,1.2801e+08,0,0,0,0,0,0,0,0,1582,1542,1499,1620,1571,1553
37739,1.2802e+08,0,0,0,0,0,0,0,0,1589,1535,1477,1639,1553,1572
37787,1.2803e+08,0,0,0,0,0,0,0,0,1581,1546,1517,1606,1571,1555
37831,1.2804e+08,0,0,0,0,0,0,0,0,1583,1543,1510,1612,1559,1568
37876,1.2805e+08,0,0,0,0,0,0,0,0,1589,1535,1501,1619,1548,1577
37920,1.2806e+08,0,0,0,0,0,0,0,0,1605,1515,1522,1600,1576,1547
37965,1.2807e+08,0,0,0,0,0,0,0,0,1597,1523,1531,1589,1568,1553
38005,1.2809e+08,0,0,0,0,0,0,0,0,1612,1502,1504,1611,1554,1566
38049,1.281e+08,0,0,0,0,0,0,0,0,1621,1490,1512,1602,1565,1553
38094,1.2811e+08,0,0,0,0,0,0,0,0,1614,1497,1522,1592,1561,1555
38139,1.2812e+08,0,0,0,0,0,0,0,0,1604,1508,1531,1584,1553,1563
38184,1.2813e+08,0,0,0,0,0,0,0,0,1596,1516,1547,1568,1555,1560
38233,1.2814e+08,0,0,0,0,0,0,0,0,1608,1501,1536,1576,1553,1559
38278,1.2815e+08,0,0,0,0,0,0,0,0,1608,1498,1502,1605,1516,1592
38322,1.2816e+08,0,0,0,0,0,0,0,0,1601,1504,1498,1607,1501,1604
38367,1.2817e+08,0,0,0,0,0,0,0,0,1604,1499,1521,1584,1524,1581
38411,1.2818e+08,0,0,0,0,0,0,0,0,1626,1471,1524,1581,1548,1558
38450,1.2819e+08,0,0,0,0,0,0,0,0,1621,1477,1529,1575,1545,1560
38496,1.282e+08,0,0,0,0,0,0,0,0,1596,1506,1526,1578,1510,1592
38541,1.2821e+08,0,0,0,0,0,0,0,0,1597,1505,1535,1570,1516,1587
38582,1.2823e+08,0,0,0,0,0,0,0,0,1632,1463,1533,1572,1551,1555
38626,1.2824e+08,0,0,0,0,0,0,0,0,1619,1479,1540,1566,1540,1565
38675,1.2825e+08,0,0,0,0,0,0,0,0,1610,1491,1532,1573,1519,1585
38720,1.2826e+08,0,0,0,0,0,0,0,0,1616,1485,1527,1578,1518,1587
38765,1.2827e+08,0,0,0,0,0,0,0,0,1619,1480,1530,1576,1521,1584
38809,1.2828e+08,0,0,0,0,0,0,0,0,1620,1479,1541,1565,1533,1573
38854,1.2829e+08,0,0,0,0,0,0,0,0,1632,1466,1549,1558,1553,1555
38895,1.283e+08,0,0,0,0,0,0,0,0,1621,1480,1541,1567,1531,1577
38940,1.2831e+08,0,0,0,0,0,0,0,0,1611,1493,1545,1564,1523,1585
38985,1.2832e+08,0,0,0,0,0,0,0,0,1612,1494,1554,1557,1534,1576
39026,1.2833e+08,0,0,0,0,0,0,0,0,1614,1492,1529,1581,1514,1595
39073,1.2834e+08,0,0,0,0,0,0,0,0,1609,1498,1511,1598,1494,1613
39122,1.2836e+08,0,0,0,0,0,0,0,0,1597,1514,1504,1606,1475,1630
39167,1.2837e+08,0,0,0,0,0,0,0,0,1592,1521,1533,1582,1504,1607
39213,1.2838e+08,0,0,0,0,0,0,0,0,1607,1505,1536,1579,1530,1585
39257,1.2839e+08,0,0,0,0,0,0,0,0,1606,1508,1531,1586,1528,1588
39302,1.284e+08,0,0,0,0,0,0,0,0,1599,1518,1511,1604,1508,1607
39348,1.2841e+08,0,0,0,0,0,0,0,0,1610,1506,1534,1584,1548,1571
39390,1.2843e+08,0,0,0,0,0,0,0,0,1583,1537,1532,1587,1523,1596
39432,1.2844e+08,0,0,0,0,0,0,0,0,1617,1499,1495,1621,1526,1593
39477,1.2845e+08,0,0,0,0,0,0,0,0,1611,1507,1503,1614,1529,1592
39522,1.2846e+08,0,0,0,0,0,0,0,0,1603,1517,1510,1609,1526,1595
39571,1.2847e+08,0,0,0,0,0,0,0,0,1611,1508,1513,1607,1536,1587
39616,1.2848e+08,0,0,0,0,0,0,0,0,1606,1515,1547,1577,1558,1566
39661,1.2849e+08,0,0,0,0,0,0,0,0,1605,1517,1558,1568,1562,1563
39705,1.285e+08,0,0,0,0,0,0,0,0,1596,1528,1555,1571,1544,1582
39743,1.2851e+08,0,0,0,0,0,0,0,0,1609,1516,1523,1602,1517,1607
39788,1.2852e+08,0,0,0,0,0,0,0,0,1624,1498,1535,1592,1538,1589
39832,1.2853e+08,0,0,0,0,0,0,0,0,1645,1473,1538,1589,1555,1574
39877,1.2854e+08,0,0,0,0,0,0,0,0,1636,1484,1547,1581,1544,1585
39923,1.2856e+08,0,0,0,0,0,0,0,0,1628,1494,1565,1563,1542,1586
39967,1.2857e+08,0,0,0,0,0,0,0,0,1626,1497,1572,1557,1537,1591
40017,1.2858e+08,0,0,0,0,0,0,0,0,1642,1478,1570,1559,1542,1587
40062,1.2859e+08,0,0,0,0,0,0,0,0,1650,1467,1568,1562,1540,1589
40107,1.286e+08,0,0,0,0,0,0,0,0,1658,1457,1552,1577,1523,1604
40151,1.2861e+08,0,0,0,0,0,0,0,0,1652,1465,1554,1575,1508,1617
40192,1.2862e+08,0,0,0,0,0,0,0,0,1647,1471,1544,1585,1480,1641
40236,1.2863e+08,0,0,0,0,0,0,0,0,1656,1459,1561,1569,1502,1623
40278,1.2865e+08,0,0,0,0,0,0,0,0,1672,1437,1584,1545,1539,1590
40323,1.2866e+08,0,0,0,0,0,0,0,0,1668,1443,1597,1531,1541,1588
40369,1.2867e+08,0,0,0,0,0,0,0,0,1666,1446,1605,1522,1541,1588
40414,1.2868e+08,0,0,0,0,0,0,0,0,1686,1416,1586,1543,1539,1590
40463,1.2869e+08,0,0,0,0,0,0,0,0,1679,1427,1573,1556,1510,1615
40508,1.287e+08,0,0,0,0,0,0,0,0,1665,1448,1589,1540,1504,1620
40552,1.2871e+08,0,0,0,0,0,0,0,0,1670,1440,1586,1543,1502,1622
40597,1.2872e+08,0,0,0,0,0,0,0,0,1679,1429,1600,1529,1524,1605
40639,1.2873e+08,0,0,0,0,0,0,0,0,1684,1424,1600,1531,1525,1604
40681,1.2874e+08,0,0,0,0,0,0,0,0,1688,1418,1572,1561,1495,1631
40725,1.2875e+08,0,0,0,0,0,0,0,0,1694,1411,1581,1552,1509,1620
40770,1.2876e+08,0,0,0,0,0,0,0,0,1694,1409,1596,1536,1523,1608
40815,1.2877e+08,0,0,0,0,0,0,0,0,1678,1435,1627,1502,1535,1598
40860,1.2878e+08,0,0,0,0,0,0,0,0,1684,1427,1621,1509,1532,1602
40909,1.288e+08,0,0,0,0,0,0,0,0,1694,1412,1620,1511,1541,1593
40955,1.2881e+08,0,0,0,0,0,0,0,0,1702,1401,1597,1538,1522,1611
40999,1.2882e+08,0,0,0,0,0,0,0,0,1710,1389,1576,1560,1506,1624
41044,1.2883e+08,0,0,0,0,0,0,0,0,1699,1406,1604,1531,1521,1612
41085,1.2884e+08,0,0,0,0,0,0,0,0,1698,1408,1636,1493,1554,1582
41126,1.2885e+08,0,0,0,0,0,0,0,0,1692,1416,1589,1546,1493,1636
41171,1.2886e+08,0,0,0,0,0,0,0,0,1703,1397,1601,1532,1519,1612
41215,1.2887e+08,0,0,0,0,0,0,0,0,1709,1386,1580,1553,1502,1625
41260,1.2888e+08,0,0,0,0,0,0,0,0,1701,1395,1560,1571,1469,1650
41305,1.2889e+08,0,0,0,0,0,0,0,0,1689,1412,1590,1538,1487,1634
41354,1.2891e+08,0,0,0,0,0,0,0,0,1684,1418,1615,1508,1510,1614
41399,1.2892e+08,0,0,0,0,0,0,0,0,1679,1425,1618,1504,1508,1615
41444,1.2893e+08,0,0,0,0,0,0,0,0,1681,1421,1616,1507,1507,1615
41489,1.2894e+08,0,0,0,0,0,0,0,0,1675,1429,1632,1487,1519,1605
41530,1.2895e+08,0,0,0,0,0,0,0,0,1650,1463,1586,1539,1430,1674
41574,1.2896e+08,0,0,0,0,0,0,0,0,1671,1433,1620,1500,1500,1619
41618,1.2897e+08,0,0,0,0,0,0,0,0,1677,1425,1607,1515,1494,1625
41662,1.2898e+08,0,0,0,0,0,0,0,0,1674,1429,1612,1509,1496,1623
41706,1.2899e+08,0,0,0,0,0,0,0,0,1667,1440,1618,1502,1494,1625
41756,1.2901e+08,0,0,0,0,0,0,0,0,1663,1445,1615,1505,1487,1631
41800,1.2902e+08,0,0,0,0,0,0,0,0,1650,1462,1598,1525,1449,1660
41848,1.2903e+08,0,0,0,0,0,0,0,0,1660,1448,1595,1528,1460,1651
41890,1.2904e+08,0,0,0,0,0,0,0,0,1681,1419,1601,1522,1495,1624
41931,1.2905e+08,0,0,0,0,0,0,0,0,1672,1433,1601,1522,1484,1633
41972,1.2907e+08,0,0,0,0,0,0,0,0,1662,1447,1592,1532,1462,1651
42018,1.2908e+08,0,0,0,0,0,0,0,0,1675,1429,1588,1538,1476,1640
42062,1.2909e+08,0,0,0,0,0,0,0,0,1660,1452,1607,1518,1480,1639
42107,1.291e+08,0,0,0,0,0,0,0,0,1658,1455,1635,1485,1512,1612
42151,1.2911e+08,0,0,0,0,0,0,0,0,1674,1433,1637,1483,1537,1591
42200,1.2912e+08,0,0,0,0,0,0,0,0,1680,1424,1624,1499,1531,1596
42246,1.2913e+08,0,0,0,0,0,0,0,0,1682,1422,1616,1507,1528,1599
42290,1.2914e+08,0,0,0,0,0,0,0,0,1672,1435,1608,1516,1508,1615
42335,1.2915e+08,0,0,0,0,0,0,0,0,1660,1450,1585,1540,1470,1645
42376,1.2916e+08,0,0,0,0,0,0,0,0,1631,1487,1569,1556,1414,1685
42421,1.2917e+08,0,0,0,0,0,0,0,0,1640,1475,1564,1561,1423,1678
42462,1.2918e+08,0,0,0,0,0,0,0,0,1655,1455,1587,1537,1474,1640
42507,1.2919e+08,0,0,0,0,0,0,0,0,1658,1450,1598,1523,1495,1623
42552,1.292e+08,0,0,0,0,0,0,0,0,1651,1459,1593,1529,1483,1632
42598,1.2921e+08,0,0,0,0,0,0,0,0,1658,1448,1572,1550,1470,1641
42644,1.2923e+08,0,0,0,0,0,0,0,0,1651,1457,1570,1551,1462,1647
42688,1.2924e+08,0,0,0,0,0,0,0,0,1642,1467,1576,1543,1460,1647
42732,1.2925e+08,0,0,0,0,0,0,0,0,1666,1433,1589,1529,1510,1606
42777,1.2926e+08,0,0,0,0,0,0,0,0,1673,1424,1570,1548,1500,1614
42822,1.2927e+08,0,0,0,0,0,0,0,0,1672,1425,1574,1545,1508,1608
42868,1.2929e+08,0,0,0,0,0,0,0,0,1680,1414,1609,1507,1560,1560
42913,1.293e+08,0,0,0,0,0,0,0,0,1702,1380,1581,1537,1558,1562
42957,1.2931e+08,0,0,0,0,0,0,0,0,1673,1422,1591,1526,1538,1579
43002,1.2932e+08,0,0,0,0,0,0,0,0,1671,1424,1578,1539,1525,1590
43048,1.2933e+08,0,0,0,0,0,0,0,0,1653,1445,1573,1541,1503,1608
43099,1.2934e+08,0,0,0,0,0,0,0,0,1660,1433,1560,1552,1501,1606
43144,1.2935e+08,0,0,0,0,0,0,0,0,1659,1430,1546,1563,1490,1613
43188,1.2936e+08,0,0,0,0,0,0,0,0,1643,1449,1553,1553,1482,1617
43233,1.2937e+08,0,0,0,0,0,0,0,0,1628,1467,1571,1533,1487,1611
43277,1.2939e+08,0,0,0,0,0,0,0,0,1643,1446,1581,1521,1522,1580
43322,1.294e+08,0,0,0,0,0,0,0,0,1659,1424,1571,1532,1532,1571
43373,1.2941e+08,0,0,0,0,0,0,0,0,1638,1452,1550,1552,1489,1608
43415,1.2942e+08,0,0,0,0,0,0,0,0,1639,1450,1561,1541,1504,1595
43457,1.2944e+08,0,0,0,0,0,0,0,0,1632,1459,1576,1525,1515,1585
43506,1.2945e+08,0,0,0,0,0,0,0,0,1624,1471,1569,1534,1498,1601
43550,1.2946e+08,0,0,0,0,0,0,0,0,1642,1448,1584,1517,1539,1564
43596,1.2947e+08,0,0,0,0,0,0,0,0,1660,1424,1582,1522,1557,1547
43641,1.2948e+08,0,0,0,0,0,0,0,0,1655,1429,1547,1556,1518,1584
43685,1.2949e+08,0,0,0,0,0,0,0,0,1651,1435,1562,1541,1530,1573
43727,1.295e+08,0,0,0,0,0,0,0,0,1673,1403,1564,1538,1560,1543
43772,1.2951e+08,0,0,0,0,0,0,0,0,1667,1412,1546,1557,1535,1568
43816,1.2953e+08,0,0,0,0,0,0,0,0,1645,1441,1542,1560,1506,1593
43862,1.2954e+08,0,0,0,0,0,0,0,0,1647,1438,1539,1562,1505,1593
43907,1.2955e+08,0,0,0,0,0,0,0,0,1660,1418,1534,1565,1516,1582
43957,1.2956e+08,0,0,0,0,0,0,0,0,1643,1439,1535,1562,1498,1596
44002,1.2957e+08,0,0,0,0,0,0,0,0,1633,1451,1555,1541,1507,1586
44046,1.2958e+08,0,0,0,0,0,0,0,0,1644,1434,1545,1549,1511,1582
44092,1.2959e+08,0,0,0,0,0,0,0,0,1651,1421,1553,1539,1529,1563
44136,1.296e+08,0,0,0,0,0,0,0,0,1647,1425,1551,1540,1523,1568
44177,1.2961e+08,0,0,0,0,0,0,0,0,1634,1443,1551,1540,1505,1584
44219,1.2962e+08,0,0,0,0,0,0,0,0,1641,1435,1531,1560,1491,1596
44264,1.2964e+08,0,0,0,0,0,0,0,0,1659,1408,1517,1573,1499,1590
44309,1.2965e+08,0,0,0,0,0,0,0,0,1661,1405,1548,1542,1532,1558
44357,1.2966e+08,0,0,0,0,0,0,0,0,1653,1416,1558,1532,1531,1559
44403,1.2967e+08,0,0,0,0,0,0,0,0,1659,1407,1562,1527,1543,1548
