LineNo,TimeUS,C,Roll,Pitch,Yaw,VN,VE,VD,dPD,PN,PE,PD,GX,GY,GZ,OH
205,118642533,1,1.56,0.77,9.359999999999999,0.1216521,-0.02621128,-0.06296917,-0.03536514,8.720103999999999,-5.980689,1.199951,-0.02,0.09,0.05,82.73999999999999
540,118726001,1,1.57,0.76,9.380000000000001,0.1119816,-0.02116702,-0.06097282,-0.03515217,8.712846000000001,-5.981821,1.197002,-0.02,0.09,0.05,82.73999999999999
991,118832649,1,1.56,0.77,9.380000000000001,0.1050181,-0.01733948,-0.06095799,-0.04644527,8.710291,-5.983519,1.191928,-0.02,0.09,0.05,82.73999999999999
1319,119043604,1,1.57,0.77,9.4,0.08699163,-0.01600643,-0.6159468,-0.5532998,8.699968,-5.986358,1.14473,-0.02,0.08,0.05,82.73999999999999
1404,119055009,1,1.57,0.77,9.4,0.08489468999999999,-0.01459609,-0.6148085,-0.5512691,8.698842000000001,-5.986568,1.137491,-0.02,0.08,0.05,82.73999999999999
1617,119091382,1,1.56,0.77,9.390000000000001,0.07507755000000001,-0.009324059000000001,-0.6155065,-0.5646636,8.691732999999999,-5.98613,1.115295,-0.02,0.08,0.05,82.73999999999999
1663,119101160,1,1.56,0.77,9.4,0.07051760999999999,-0.007321859,-0.6160553,-0.5707257,8.689525,-5.985937,1.109161,-0.02,0.08,0.05,82.73999999999999
1707,119111188,1,1.55,0.77,9.4,0.0683071,-0.005373615,-0.6153477000000001,-0.5757632,8.687486,-5.985734,1.102972,-0.02,0.08,0.05,82.73999999999999
1752,119121274,1,1.55,0.77,9.4,0.06782228999999999,-0.004812996,-0.6147773,-0.5808946,8.688167999999999,-5.985783,1.096825,-0.02,0.08,0.05,82.73999999999999
1796,119132227,1,1.56,0.77,9.4,0.06606614,-0.003522585,-0.6135317,-0.5854876,8.686317000000001,-5.985553,1.090083,-0.02,0.08,0.05,82.73999999999999
1841,119142654,1,1.56,0.77,9.4,0.0635216,-0.001465929,-0.6123305999999999,-0.5889915,8.684536,-5.985316,1.084071,-0.02,0.08,0.05,82.73999999999999
1890,119153089,1,1.56,0.77,9.41,0.05998736,-0.0001801492,-0.6138419000000001,-0.5951282,8.682978,-5.98507,1.077368,-0.02,0.08,0.05,82.73999999999999
1935,119163126,1,1.57,0.77,9.41,0.05774522,0.000966214,-0.613561,-0.5985481,8.681469,-5.984818,1.071314,-0.02,0.08,0.05,82.73999999999999
1983,119173083,1,1.57,0.78,9.41,0.05480302,0.002235719,-0.6119612,-0.6002859,8.680102,-5.984563,1.065147,-0.02,0.08,0.05,82.73999999999999
2027,119183717,1,1.57,0.78,9.42,0.0529798,0.003237948,-0.6110417,-0.6024529,8.678905,-5.984304,1.058498,-0.02,0.08,0.05,82.73999999999999
2073,119194617,1,1.58,0.78,9.42,0.05323359,0.003667761,-0.6097050000000001,-0.6034744,8.67943,-5.984272,1.05248,-0.02,0.08,0.05,82.73999999999999
2117,119204757,1,1.58,0.78,9.43,0.05140569,0.00607885,-0.6097856,-0.6052651999999999,8.678288,-5.984,1.046491,-0.02,0.08,0.05,82.73999999999999
2162,119215110,1,1.58,0.79,9.43,0.04912985,0.006546034,-0.6096833,-0.6063415,8.677295000000001,-5.983717,1.040001,-0.02,0.08,0.05,82.73999999999999
2208,119228388,1,1.58,0.79,9.43,0.04589492,0.007660808,-0.607278,-0.6016616,8.675247000000001,-5.984097,1.035628,-0.02,0.08,0.05,82.73999999999999
2251,119239010,1,1.57,0.79,9.44,0.04372573,0.008068739,-0.6072467,-0.5895642,8.673239000000001,-5.984468,1.032267,-0.02,0.08,0.05,82.73999999999999
2295,119249683,1,1.57,0.8,9.44,0.04306439,0.008948938,-0.6072754,-0.5681597,8.67367,-5.984382,1.026238,-0.02,0.08,0.05,82.73999999999999
2344,119259566,1,1.56,0.8,9.44,0.04213952,0.009460796,-0.6041924,-0.5426354,8.671738,-5.984732,1.023365,-0.02,0.08,0.05,82.73999999999999
2389,119269517,1,1.56,0.8,9.44,0.04022808,0.009495961000000001,-0.6044107,-0.5259382,8.669911000000001,-5.985067,1.020378,-0.02,0.08,0.05,82.73999999999999
2433,119279799,1,1.56,0.8,9.44,0.03972105,0.009468333000000001,-0.6039568,-0.5024323000000001,8.670311999999999,-5.984975,1.014302,-0.02,0.08,0.05,82.73999999999999
2478,119290772,1,1.56,0.8,9.44,0.03747553,0.008666082,-0.6023568,-0.479317,8.668615000000001,-5.985294,1.01072,-0.02,0.08,0.05,82.73999999999999
2523,119300635,1,1.56,0.8,9.44,0.03466111,0.008533234000000001,-0.601172,-0.4600219,8.667007999999999,-5.985608,1.00756,-0.02,0.08,0.05,82.73999999999999
2568,119310592,1,1.56,0.8,9.44,0.03195267,0.008598878000000001,-0.5983802,-0.4399953,8.665521999999999,-5.985912,1.004438,-0.02,0.08,0.05,82.73999999999999
2613,119320678,1,1.56,0.8,9.449999999999999,0.03165668,0.008393522,-0.598678,-0.4230431,8.665843000000001,-5.985825,0.9983889,-0.02,0.08,0.05,82.73999999999999
2658,119330532,1,1.56,0.8,9.449999999999999,0.02972062,0.009543202000000001,-0.5974288,-0.4081245,8.664438000000001,-5.986112,0.9951352,-0.02,0.08,0.05,82.73999999999999
2703,119340969,1,1.57,0.8100000000000001,9.449999999999999,0.02716747,0.009254415,-0.5979884,-0.3962817,8.663161000000001,-5.98638,0.9912526,-0.02,0.08,0.05,82.73999999999999
2747,119350998,1,1.57,0.8,9.449999999999999,0.02618421,0.009434935,-0.5964937,-0.3852634,8.661978,-5.986653,0.9878223,-0.02,0.08,0.05,82.73999999999999
2796,119360998,1,1.57,0.8100000000000001,9.460000000000001,0.02532472,0.009462417000000001,-0.5942581,-0.3764338,8.660902999999999,-5.986914,0.9842455,-0.02,0.08,0.05,82.73999999999999
2840,119371922,1,1.58,0.8100000000000001,9.460000000000001,0.02465284,0.009204957999999999,-0.5954701999999999,-0.3692933,8.661179000000001,-5.986811,0.9776955000000001,-0.02,0.08,0.05,82.73999999999999
2886,119381821,1,1.58,0.8100000000000001,9.470000000000001,0.02467533,0.008723567,-0.5934572,-0.3628692,8.660192,-5.987068,0.9740409,-0.02,0.08,0.05,82.73999999999999
2930,119391688,1,1.58,0.8100000000000001,9.470000000000001,0.02242594,0.009140027,-0.593847,-0.3633543,8.659287000000001,-5.987321,0.9703979,-0.02,0.08,0.05,82.73999999999999
2976,119402986,1,1.58,0.8100000000000001,9.48,0.02269574,0.008053605,-0.5912206,-0.3623378,8.659538,-5.987229,0.9638386,-0.02,0.08,0.05,82.73999999999999
3022,119416868,1,1.57,0.8100000000000001,9.48,0.02018261,0.008826611999999999,-0.5901503,-0.3664577,8.658761999999999,-5.987451,0.9577998,-0.02,0.08,0.05,82.73999999999999
3066,119427834,1,1.57,0.8100000000000001,9.48,0.01781781,0.008386952,-0.5864384,-0.3568783,8.657135999999999,-5.98793,0.9567263,-0.02,0.08,0.05,82.73999999999999
3111,119437723,1,1.56,0.8100000000000001,9.470000000000001,0.01581654,0.009449526,-0.5851236,-0.3439699,8.655614999999999,-5.988403,0.9560376,-0.02,0.08,0.05,82.73999999999999
3156,119448000,1,1.56,0.8100000000000001,9.48,0.01487442,0.009647631,-0.5818245,-0.3202017,8.654235,-5.988847,0.9551231,-0.02,0.08,0.05,82.73999999999999
3203,119457832,1,1.56,0.82,9.48,0.01471367,0.01104502,-0.5816789,-0.3039922,8.654382,-5.988742,0.9493523,-0.02,0.08,0.05,82.73999999999999
3249,119467716,1,1.56,0.82,9.48,0.01302857,0.01128608,-0.5805785,-0.2883024,8.653066000000001,-5.989147,0.9482119,-0.02,0.08,0.05,82.73999999999999
3294,119477715,1,1.56,0.82,9.48,0.01146206,0.0115749,-0.5807227,-0.2730521,8.651858000000001,-5.989536,0.9468415999999999,-0.02,0.08,0.05,82.73999999999999
3339,119488357,1,1.56,0.83,9.48,0.01076083,0.01263362,-0.5787591,-0.2589194,8.65076,-5.989905,0.9454703,-0.02,0.08,0.05,82.73999999999999
3384,119498527,1,1.56,0.83,9.48,0.01017946,0.01295731,-0.5762488,-0.241266,8.649789,-5.990247,0.9437886,-0.02,0.08,0.05,82.73999999999999
3429,119508641,1,1.56,0.83,9.48,0.009546409,0.01284162,-0.5767528,-0.2283522,8.649886,-5.990118,0.9380352,-0.02,0.08,0.05,82.73999999999999
3473,119518697,1,1.56,0.83,9.49,0.008449652,0.01278189,-0.574241,-0.2166125,8.648999,-5.990441,0.9359155,-0.02,0.08,0.05,82.73999999999999
3519,119528689,1,1.56,0.82,9.49,0.007792584,0.01310545,-0.5720593,-0.20428,8.648213999999999,-5.990757,0.9341041,-0.02,0.08,0.05,82.73999999999999
3565,119538712,1,1.56,0.82,9.49,0.006902939,0.0145081,-0.5682636,-0.1949507,8.647517000000001,-5.99105,0.9321941,-0.02,0.08,0.05,82.73999999999999
3609,119549627,1,1.56,0.82,9.5,0.005821094,0.01502,-0.5656527,-0.1912046,8.646895000000001,-5.99132,0.9301255,-0.02,0.08,0.05,82.73999999999999
3657,119559960,1,1.56,0.8100000000000001,9.5,0.005452414,0.01409946,-0.5668015,-0.1927865,8.646955,-5.991159,0.9239376,-0.02,0.08,0.05,82.73999999999999
3702,119570673,1,1.56,0.8100000000000001,9.5,0.004781433,0.01469786,-0.5657492,-0.196743,8.646388,-5.991428,0.9217436,-0.02,0.08,0.05,82.73999999999999
3747,119580508,1,1.56,0.8100000000000001,9.5,0.004441124,0.01526192,-0.5640002,-0.2018572,8.645901,-5.991669,0.9193552,-0.02,0.08,0.05,82.73999999999999
3793,119590634,1,1.55,0.8100000000000001,9.5,0.003288707,0.01403629,-0.5633625,-0.2089173,8.645486,-5.99191,0.9169611,-0.02,0.08,0.05,82.73999999999999
3837,119600554,1,1.55,0.8100000000000001,9.5,0.001307288,0.01598015,-0.564684,-0.2182834,8.645135,-5.992132,0.9143524,-0.02,0.08,0.05,82.73999999999999
3887,119613643,1,1.56,0.8100000000000001,9.5,0.001263422,0.01597766,-0.5632095,-0.2234937,8.644869999999999,-5.992269,0.9096022,-0.02,0.08,0.05,82.73999999999999
3928,119627710,1,1.55,0.8100000000000001,9.5,0.001014681,0.0158542,-0.5617912,-0.2293917,8.643563,-5.992794,0.9079201,-0.02,0.08,0.05,82.73999999999999
3975,119637673,1,1.55,0.8100000000000001,9.5,-0.0006114482,0.0160319,-0.5585067,-0.217833,8.642372,-5.993355,0.9082401,-0.02,0.08,0.05,82.73999999999999
4022,119647631,1,1.55,0.8100000000000001,9.5,-0.0002298332,0.0164749,-0.5601787,-0.2085374,8.642365,-5.993193,0.9026263,-0.02,0.08,0.05,82.73999999999999
4066,119657666,1,1.54,0.8100000000000001,9.5,-0.001525018,0.01599105,-0.5557467,-0.1918962,8.641245,-5.993729,0.9027157,-0.02,0.08,0.05,82.73999999999999
4116,119668570,1,1.55,0.8100000000000001,9.5,-0.003062751,0.01634677,-0.5523921000000001,-0.1735315,8.640219999999999,-5.99424,0.9025789,-0.02,0.08,0.05,82.73999999999999
4160,119679013,1,1.55,0.8100000000000001,9.5,-0.002909285,0.0176597,-0.5509472,-0.1587695,8.639286,-5.994705,0.9017004,-0.02,0.08,0.05,82.73999999999999
4205,119689004,1,1.55,0.8100000000000001,9.5,-0.004654707,0.01804866,-0.5508508,-0.148247,8.638441,-5.995157,0.9010756,-0.02,0.08,0.05,82.73999999999999
4249,119699056,1,1.55,0.8100000000000001,9.5,-0.005081121,0.01719093,-0.5515378,-0.1417337,8.638392,-5.994982,0.8956253,-0.02,0.08,0.05,82.73999999999999
4294,119709178,1,1.55,0.8100000000000001,9.5,-0.006604125,0.01596639,-0.5497465,-0.135205,8.637586000000001,-5.995424,0.8947207,-0.02,0.08,0.05,82.73999999999999
4339,119719274,1,1.55,0.8100000000000001,9.51,-0.007287407,0.01711096,-0.5519069,-0.1449903,8.63752,-5.995263,0.889301,-0.02,0.08,0.05,82.73999999999999
4383,119729155,1,1.55,0.8100000000000001,9.51,-0.008874106,0.01690014,-0.5500687,-0.1542369,8.636704,-5.995687,0.8886254,-0.02,0.08,0.05,82.73999999999999
4428,119738991,1,1.54,0.8100000000000001,9.51,-0.009956548000000001,0.01670153,-0.548883,-0.1603839,8.635967000000001,-5.996097,0.8877378,-0.02,0.08,0.05,82.73999999999999
4473,119749008,1,1.54,0.8100000000000001,9.51,-0.01027146,0.01825048,-0.5472941,-0.1665685,8.635300000000001,-5.996478,0.8866326,-0.02,0.08,0.05,82.73999999999999
4518,119759706,1,1.54,0.8100000000000001,9.51,-0.01100048,0.01857141,-0.5464137999999999,-0.1664522,8.635196000000001,-5.996291,0.8810983999999999,-0.02,0.08,0.05,82.73999999999999
4566,119769624,1,1.54,0.8100000000000001,9.51,-0.01170671,0.0200378,-0.5446284,-0.1733867,8.634565,-5.996641,0.8799013,-0.02,0.08,0.05,82.73999999999999
4611,119779591,1,1.54,0.8100000000000001,9.51,-0.01216001,0.01997201,-0.5436744,-0.1835529,8.633996,-5.996964,0.8784868,-0.02,0.08,0.05,82.73999999999999
4655,119789984,1,1.53,0.8100000000000001,9.51,-0.01314675,0.02097091,-0.5424876,-0.1887871,8.633492,-5.997251,0.8763562,-0.02,0.08,0.05,82.73999999999999
4700,119800613,1,1.53,0.82,9.51,-0.01355134,0.02159899,-0.5441769,-0.1923247,8.63336,-5.997035,0.8709431,-0.02,0.08,0.05,82.73999999999999
4746,119811005,1,1.53,0.82,9.51,-0.01534868,0.02187639,-0.5443362,-0.1983549,8.632895,-5.997285,0.8686191,-0.02,0.08,0.05,82.73999999999999
4792,119820972,1,1.53,0.82,9.52,-0.01712389,0.02271149,-0.5427173,-0.2036151,8.632495,-5.997541,0.8666873,-0.02,0.08,0.05,82.73999999999999
4831,119833133,1,1.53,0.82,9.51,-0.01948849,0.02384282,-0.5385764,-0.2020269,8.630874,-5.998162,0.8675202,-0.02,0.08,0.05,82.73999999999999
4876,119843177,1,1.54,0.82,9.52,-0.02002366,0.02433529,-0.5373455,-0.1970449,8.630674000000001,-5.997922,0.8621783,-0.02,0.08,0.05,82.73999999999999
4921,119853115,1,1.54,0.82,9.52,-0.02135653,0.02319586,-0.5342082,-0.1857757,8.629132,-5.998555,0.863854,-0.02,0.08,0.05,82.73999999999999
4967,119863154,1,1.54,0.82,9.529999999999999,-0.0227791,0.02369322,-0.5335898,-0.1703498,8.627687,-5.999158,0.8651711,-0.02,0.08,0.05,82.73999999999999
5015,119873793,1,1.54,0.82,9.529999999999999,-0.02422858,0.02221552,-0.5295244,-0.1463235,8.626348999999999,-5.999739,0.8662616,-0.02,0.08,0.05,82.73999999999999
5060,119884549,1,1.54,0.82,9.529999999999999,-0.02591282,0.02222607,-0.52586,-0.1226964,8.625069999999999,-6.000281,0.8666331,-0.02,0.08,0.05,82.73999999999999
5104,119894629,1,1.54,0.8100000000000001,9.539999999999999,-0.02713556,0.02150431,-0.5239386,-0.105128,8.623893000000001,-6.000815,0.8671873,-0.02,0.08,0.05,82.73999999999999
5150,119905099,1,1.54,0.8100000000000001,9.539999999999999,-0.02862248,0.02318332,-0.5234907,-0.08476976,8.622771,-6.001297,0.8669575,-0.02,0.08,0.05,82.73999999999999
5194,119915647,1,1.54,0.8100000000000001,9.539999999999999,-0.02956323,0.02384038,-0.5226501,-0.06432613,8.622451999999999,-6.001038,0.8612247,-0.02,0.08,0.05,82.73999999999999
5241,119925646,1,1.54,0.82,9.539999999999999,-0.03037044,0.02337,-0.520525,-0.05109441,8.621404999999999,-6.001506,0.8615696,-0.02,0.08,0.05,82.73999999999999
5286,119935671,1,1.54,0.82,9.539999999999999,-0.03166746,0.02349774,-0.5187838,-0.04323258,8.620426999999999,-6.001953,0.8616942,-0.02,0.08,0.05,82.73999999999999
5330,119946290,1,1.54,0.82,9.539999999999999,-0.03246998,0.02377739,-0.5182368000000001,-0.04179409,8.61952,-6.002381,0.8616378,-0.02,0.08,0.05,82.73999999999999
5375,119956147,1,1.54,0.82,9.550000000000001,-0.03395738,0.02282193,-0.5178993,-0.04271788,8.618672,-6.002786,0.8613079,-0.02,0.08,0.05,82.73999999999999
5419,119966907,1,1.54,0.82,9.550000000000001,-0.03384151,0.02308347,-0.5173842,-0.04036693,8.618301000000001,-6.002535,0.8556202000000001,-0.02,0.08,0.05,82.73999999999999
5468,119977078,1,1.54,0.82,9.550000000000001,-0.03374439,0.02375736,-0.5188745,-0.04725503,8.617502,-6.002922,0.8550904,-0.02,0.08,0.05,82.73999999999999
5514,119987089,1,1.54,0.8100000000000001,9.550000000000001,-0.03455084,0.02416986,-0.5170462,-0.04883917,8.616778999999999,-6.003281,0.8543497,-0.02,0.08,0.05,82.73999999999999
5559,119996902,1,1.54,0.8100000000000001,9.550000000000001,-0.03389673,0.02346868,-0.5157247,-0.06216532,8.616431,-6.003044,0.8491436,-0.02,0.08,0.05,82.73999999999999
5606,120007612,1,1.54,0.8100000000000001,9.550000000000001,-0.03507416,0.02413517,-0.5160953,-0.07843076,8.615721000000001,-6.003393,0.8483297,-0.02,0.08,0.05,82.73999999999999
5644,120018715,1,1.54,0.8100000000000001,9.550000000000001,-0.03771642,0.02390872,-0.5147028,-0.08876476,8.613705,-6.004389,0.8493783,-0.02,0.08,0.05,82.73999999999999
5689,120029139,1,1.55,0.8100000000000001,9.56,-0.04007696,0.02256555,-0.5133333,-0.08362954,8.611858,-6.005395,0.8512968,-0.02,0.08,0.05,82.73999999999999
5734,120039171,1,1.55,0.8100000000000001,9.57,-0.04292817,0.02257743,-0.5138082,-0.07861347,8.610087999999999,-6.00636,0.8528501000000001,-0.02,0.08,0.05,82.73999999999999
5778,120049326,1,1.55,0.8100000000000001,9.57,-0.04328484,0.02240149,-0.5139015,-0.0692314,8.609662999999999,-6.006141,0.8477854,-0.02,0.08,0.05,82.73999999999999
5823,120059524,1,1.55,0.8,9.57,-0.04525709,0.02263652,-0.5113223,-0.07331302000000001,8.60792,-6.007082,0.8492628,-0.02,0.08,0.05,82.73999999999999
5867,120069618,1,1.54,0.8,9.57,-0.04792091,0.02100016,-0.5091265,-0.07238066999999999,8.606242,-6.007978,0.8503239,-0.02,0.08,0.05,82.73999999999999
5915,120080164,1,1.54,0.8,9.57,-0.04828658,0.02022978,-0.5080979,-0.06201008,8.605718,-6.007751,0.8447773,-0.02,0.08,0.05,82.73999999999999
5961,120090688,1,1.53,0.8,9.57,-0.050682,0.01941258,-0.5065659,-0.05683332,8.604048000000001,-6.008622,0.8451275,-0.02,0.08,0.05,82.73999999999999
6005,120101112,1,1.53,0.8,9.57,-0.05252811,0.01901947,-0.5050397,-0.04922848,8.602511,-6.009476,0.8457928,-0.02,0.08,0.05,82.73999999999999
6050,120111120,1,1.53,0.8,9.57,-0.05362562,0.01862529,-0.5040802,-0.04326447,8.601057000000001,-6.010305,0.8461658,-0.02,0.08,0.05,82.73999999999999
6094,120121092,1,1.53,0.8,9.57,-0.05553522,0.01734759,-0.5031791,-0.04237518,8.599667999999999,-6.011111,0.8463079,-0.02,0.08,0.05,82.73999999999999
6139,120131461,1,1.53,0.8,9.57,-0.05656103,0.01567407,-0.5027888,-0.0438065,8.598338,-6.011892,0.846427,-0.02,0.08,0.05,82.73999999999999
6183,120142618,1,1.52,0.8,9.57,-0.05770771,0.01585734,-0.5027429,-0.04087891,8.597709999999999,-6.011719,0.8408898,-0.02,0.08,0.05,82.73999999999999
6228,120152653,1,1.53,0.8,9.57,-0.05912647,0.01597746,-0.5002787,-0.04242456,8.59642,-6.012481,0.8408594,-0.02,0.08,0.05,82.73999999999999
6274,120162911,1,1.53,0.8,9.57,-0.05915874,0.01493996,-0.5001409,-0.05888287,8.595770999999999,-6.012315,0.8353513,-0.02,0.08,0.05,82.73999999999999
6318,120173671,1,1.53,0.8,9.57,-0.06161533,0.01386101,-0.4983827,-0.07679596,8.594476999999999,-6.013083,0.8352000000000001,-0.02,0.08,0.04,82.73999999999999
6368,120184044,1,1.53,0.8,9.56,-0.0624648,0.01423477,-0.4971526,-0.100304,8.593154,-6.01381,0.8343253,-0.02,0.08,0.04,82.73999999999999
6412,120194845,1,1.53,0.8,9.56,-0.06258356,0.01512174,-0.4956765,-0.1129659,8.592473999999999,-6.013653,0.8289129,-0.02,0.08,0.04,82.73999999999999
6458,120204781,1,1.53,0.8,9.550000000000001,-0.06184056,0.01441376,-0.4943373,-0.1279917,8.59132,-6.014372,0.828851,-0.02,0.08,0.04,82.73999999999999
6505,120214954,1,1.54,0.8,9.539999999999999,-0.06248921,0.01475284,-0.4927681,-0.1432872,8.590703,-6.014215,0.8239135,-0.02,0.08,0.04,82.73999999999999
6544,120226897,1,1.53,0.79,9.550000000000001,-0.06360717,0.01298888,-0.4886278,-0.1465479,8.589119999999999,-6.015246,0.8256084,-0.02,0.08,0.04,82.73999999999999
6589,120237035,1,1.53,0.79,9.56,-0.06482171,0.01112061,-0.4860224,-0.157725,8.587749000000001,-6.016301,0.8283591,-0.02,0.08,0.04,82.73999999999999
6633,120247776,1,1.54,0.78,9.57,-0.06517746000000001,0.01146286,-0.4891348,-0.1505937,8.587121,-6.016178,0.8235953,-0.02,0.08,0.04,82.73999999999999
6678,120257765,1,1.53,0.79,9.58,-0.06656363,0.01202823,-0.4847433,-0.1404525,8.585753,-6.01719,0.8256612,-0.02,0.08,0.04,82.73999999999999
6722,120268217,1,1.52,0.79,9.59,-0.06692802,0.01141894,-0.4813459,-0.1270753,8.584522,-6.018166,0.8281124,-0.02,0.08,0.04,82.73999999999999
6767,120278211,1,1.53,0.8,9.59,-0.0674988,0.01047674,-0.4815862,-0.1121053,8.583384000000001,-6.019109,0.8302262,-0.02,0.08,0.04,82.73999999999999
6815,120288928,1,1.52,0.79,9.59,-0.06828246,0.01123789,-0.4796534,-0.08297836,8.582654,-6.018991,0.8249979,-0.02,0.08,0.04,82.73999999999999
6860,120299682,1,1.52,0.79,9.58,-0.06857191999999999,0.01087586,-0.4774818,-0.06298342,8.581588,-6.019906,0.8268451999999999,-0.02,0.08,0.04,82.73999999999999
6905,120309958,1,1.52,0.8,9.57,-0.06899253,0.008700688999999999,-0.4755603,-0.04378962,8.580541999999999,-6.020787,0.8279474999999999,-0.02,0.08,0.04,82.73999999999999
6951,120320040,1,1.53,0.8,9.56,-0.07027839,0.006661293,-0.4747851,-0.03785617,8.579616,-6.021652,0.8292526,-0.02,0.08,0.04,82.73999999999999
6996,120330936,1,1.54,0.8100000000000001,9.550000000000001,-0.07055369,0.008179594,-0.4740425,-0.02390993,8.578859,-6.02155,0.8240421,-0.02,0.08,0.04,82.73999999999999
7040,120341636,1,1.53,0.8100000000000001,9.550000000000001,-0.0704364,0.007915759,-0.4726887,-0.02240261,8.577984000000001,-6.022393,0.8251122,-0.02,0.08,0.04,82.73999999999999
7085,120351671,1,1.52,0.82,9.539999999999999,-0.06969615999999999,0.006796802,-0.4710019,-0.0215857,8.577194,-6.023219,0.8262447000000001,-0.02,0.08,0.04,82.73999999999999
7131,120361534,1,1.51,0.8100000000000001,9.550000000000001,-0.07050973000000001,0.007130493,-0.4710649,-0.01995874,8.576502,-6.023149,0.8215284,-0.02,0.08,0.04,82.73999999999999
7175,120371513,1,1.51,0.8100000000000001,9.550000000000001,-0.07107929,0.007233741,-0.4703128,-0.02049614,8.575742999999999,-6.023951,0.8224345,-0.02,0.08,0.04,82.73999999999999
7220,120381547,1,1.51,0.8100000000000001,9.56,-0.07092561999999999,0.006355002,-0.46804,-0.01895509,8.575047,-6.024721,0.8230853,-0.02,0.08,0.04,82.73999999999999
7268,120391902,1,1.51,0.8100000000000001,9.56,-0.07028991,0.00643521,-0.46508,-0.02453467,8.574265,-6.02465,0.8179395,-0.02,0.08,0.04,82.73999999999999
7314,120402219,1,1.51,0.82,9.57,-0.07072197,0.007783171,-0.4664407,-0.04013313,8.573551,-6.0254,0.8182786,-0.02,0.08,0.04,82.73999999999999
7358,120412290,1,1.5,0.82,9.58,-0.07148097,0.007039783,-0.4632447,-0.05275179,8.572855000000001,-6.025334,0.8137805,-0.02,0.08,0.04,82.73999999999999
7407,120422258,1,1.51,0.83,9.58,-0.0724962,0.005743777,-0.4624835,-0.06675341999999999,8.572167,-6.026069,0.8140289000000001,-0.02,0.08,0.04,82.73999999999999
7449,120432917,1,1.52,0.84,9.58,-0.07127469,0.005671219,-0.4588794,-0.06765317,8.570751,-6.026877,0.8165745,-0.02,0.08,0.04,82.73999999999999
7491,120444329,1,1.52,0.83,9.57,-0.07127836,0.002368279,-0.4612821,-0.06242442,8.569445,-6.027665,0.8187473,-0.02,0.08,0.04,82.73999999999999
7536,120454628,1,1.51,0.83,9.57,-0.07353044,0.00308135,-0.4589463,-0.05115526,8.568294,-6.028442,0.821272,-0.02,0.08,0.04,82.73999999999999
7581,120464984,1,1.51,0.83,9.57,-0.07740445,0.004973187,-0.4549515,-0.03505306,8.567121999999999,-6.029161,0.8230588,-0.02,0.08,0.04,82.73999999999999
7626,120475652,1,1.52,0.82,9.57,-0.07494712000000001,0.002774377,-0.4555252,-0.01812781,8.566096,-6.029855,0.8249133,-0.02,0.08,0.04,82.73999999999999
7671,120485975,1,1.52,0.82,9.56,-0.07408281,0.0009675400999999999,-0.4532975,0.007978651999999999,8.565289999999999,-6.029839,0.819925,-0.02,0.08,0.04,82.73999999999999
7719,120495992,1,1.51,0.82,9.550000000000001,-0.07709169,0.003044499,-0.4490465,0.02693379,8.564327,-6.030515,0.8215111,-0.02,0.08,0.04,82.73999999999999
7764,120506867,1,1.51,0.82,9.539999999999999,-0.07641281,0.002875943,-0.4480942,0.04255541,8.563363000000001,-6.031151,0.8223602,-0.02,0.08,0.04,82.73999999999999
7808,120517405,1,1.51,0.83,9.550000000000001,-0.07376966,0.001674327,-0.4469386,0.04953905,8.562569999999999,-6.031772,0.8233846,-0.02,0.08,0.04,82.73999999999999
7853,120527879,1,1.5,0.83,9.550000000000001,-0.07971926,0.000354279,-0.4447911,0.05341354,8.561747,-6.032364,0.8238027999999999,-0.02,0.08,0.04,82.73999999999999
7898,120538607,1,1.51,0.83,9.550000000000001,-0.07961963,-0.0001638507,-0.4402978,0.05817123,8.560995999999999,-6.032924,0.8245941,-0.02,0.08,0.04,82.73999999999999
7944,120548661,1,1.51,0.84,9.550000000000001,-0.07638159,0.00175109,-0.4419551,0.05502926,8.560229,-6.032892,0.8202028,-0.02,0.08,0.04,82.73999999999999
7990,120558700,1,1.5,0.83,9.57,-0.07923535,-0.001799132,-0.4406333,0.04931485,8.559499000000001,-6.033432,0.8204622,-0.02,0.08,0.04,82.73999999999999
8034,120568636,1,1.5,0.84,9.57,-0.08254847,-0.0005565109,-0.4422113,0.04367243,8.558842,-6.033968,0.8208153,-0.02,0.08,0.04,82.73999999999999
8079,120578648,1,1.49,0.83,9.57,-0.07626075,0.001306109,-0.4360647,0.04294067,8.558237,-6.03446,0.8209274,-0.02,0.08,0.04,82.73999999999999
8123,120589163,1,1.49,0.83,9.58,-0.07710975,-0.0008204777,-0.43413,0.03157995,8.557693,-6.034942,0.8208237,-0.02,0.08,0.04,82.73999999999999
8172,120599344,1,1.49,0.82,9.58,-0.080704,-0.001223567,-0.4347931,0.01646324,8.557166,-6.035412,0.820599,-0.02,0.08,0.04,82.73999999999999
8218,120612876,1,1.49,0.82,9.58,-0.07653148,-0.0001004023,-0.433109,0.005976466,8.556126000000001,-6.036227,0.8208579,-0.02,0.08,0.04,82.73999999999999
8261,120623696,1,1.49,0.82,9.58,-0.07518078,0.0002262078,-0.4297849,0.003002489,8.555362000000001,-6.036224,0.8165607,-0.02,0.08,0.04,82.73999999999999
8305,120633660,1,1.48,0.84,9.57,-0.07696803000000001,-0.005024779,-0.4283175,-0.001147092,8.554675,-6.037028,0.818266,-0.02,0.08,0.04,82.73999999999999
8350,120644120,1,1.48,0.83,9.56,-0.0760001,-0.004254306,-0.4262827,-1.412397e-05,8.553947000000001,-6.037823,0.8195394,-0.02,0.08,0.04,82.73999999999999
8397,120654079,1,1.47,0.85,9.56,-0.07530046,-0.005492096,-0.4242223,-0.007494958,8.553372,-6.03859,0.8212014,-0.02,0.08,0.04,82.73999999999999
8444,120664769,1,1.46,0.84,9.550000000000001,-0.07826849,-0.005316351,-0.4227633,-0.005118205,8.552503,-6.038664,0.8164952,-0.02,0.08,0.04,82.73999999999999
8490,120675611,1,1.46,0.86,9.529999999999999,-0.07820252,-0.009083704,-0.4170674,-0.005977086,8.55193,-6.039418,0.8178721,-0.02,0.08,0.04,82.73999999999999
8534,120685552,1,1.46,0.85,9.539999999999999,-0.07796805,-0.009058695,-0.4208318,-0.009852756000000001,8.551404,-6.040153,0.818916,-0.02,0.08,0.04,82.73999999999999
8580,120695566,1,1.46,0.85,9.539999999999999,-0.07907525999999999,-0.009534249,-0.4167784,-0.008376659999999999,8.550936999999999,-6.040851,0.8197797,-0.02,0.08,0.04,82.73999999999999
8628,120705531,1,1.46,0.84,9.550000000000001,-0.0802554,-0.0106249,-0.4197255,-0.01419634,8.550484000000001,-6.041525,0.8203179,-0.02,0.08,0.04,82.73999999999999
8674,120715623,1,1.47,0.84,9.550000000000001,-0.08010191,-0.01205566,-0.4128642,-0.005500353,8.549699,-6.041611,0.8161885,-0.02,0.08,0.04,82.73999999999999
8719,120725916,1,1.48,0.83,9.56,-0.08007166,-0.0136163,-0.4153327,-0.01316574,8.549187,-6.042285,0.8161083,-0.02,0.08,0.04,82.73999999999999
8766,120739438,1,1.47,0.85,9.57,-0.07961884,-0.009707514,-0.4120052,-0.01416165,8.548588000000001,-6.042964,0.8151051,-0.02,0.08,0.04,82.73999999999999
8811,120749688,1,1.46,0.83,9.57,-0.07856148,-0.01046562,-0.4074045,-0.02372893,8.548208000000001,-6.043591,0.8153796,-0.02,0.08,0.04,82.73999999999999
8855,120760154,1,1.46,0.84,9.57,-0.08033099,-0.008532143000000001,-0.4033556,-0.03202442,8.547345,-6.0437,0.8109589,-0.02,0.08,0.04,82.73999999999999
8900,120770140,1,1.46,0.84,9.58,-0.08069075000000001,-0.0072757,-0.4021354,-0.05269216,8.546970999999999,-6.044294,0.8111604,-0.02,0.08,0.04,82.73999999999999
8944,120780093,1,1.46,0.86,9.58,-0.08293946000000001,-0.005171516,-0.401254,-0.06309938,8.54665,-6.044848,0.8111906,-0.02,0.08,0.04,82.73999999999999
8991,120790306,1,1.46,0.85,9.58,-0.08182622000000001,-0.007633988,-0.4025795,-0.0750367,8.545832000000001,-6.044925,0.807131,-0.02,0.08,0.04,82.73999999999999
9039,120800662,1,1.46,0.86,9.56,-0.08092099,-0.008661185,-0.3961217,-0.07999182000000001,8.545526000000001,-6.04547,0.8069661,-0.02,0.08,0.04,82.73999999999999
9084,120811190,1,1.45,0.86,9.58,-0.08115248999999999,-0.008256963000000001,-0.3952369,-0.08789482999999999,8.545165000000001,-6.046022,0.8062275,-0.02,0.08,0.04,82.73999999999999
9128,120822211,1,1.43,0.87,9.56,-0.08111425,-0.005356753,-0.3909822,-0.087973,8.544674000000001,-6.04695,0.8080813999999999,-0.02,0.08,0.04,82.73999999999999
9170,120832640,1,1.43,0.86,9.57,-0.07676031,-0.006905014,-0.3871473,-0.0762777,8.544231999999999,-6.047851,0.8095934,-0.02,0.08,0.04,82.73999999999999
9214,120842644,1,1.42,0.85,9.550000000000001,-0.07771233,-0.009951903999999999,-0.3844955,-0.06366789,8.543919000000001,-6.048736,0.8112764,-0.02,0.08,0.04,82.73999999999999
9262,120855714,1,1.46,0.85,9.56,-0.07112052000000001,-0.01594124,-0.3809419,-0.04558358,8.543417,-6.049644,0.8117955,-0.02,0.08,0.04,82.73999999999999
9307,120865849,1,1.44,0.86,9.56,-0.07149918,-0.01554297,-0.3950404,-0.05195876,8.543208,-6.050501,0.8132656,-0.02,0.08,0.04,82.73999999999999
9352,120876135,1,1.46,0.86,9.56,-0.06984074999999999,-0.01959385,-0.3802562,-0.02434824,8.543016,-6.051333,0.8143638,-0.02,0.08,0.04,82.73999999999999
9398,120886879,1,1.45,0.84,9.57,-0.07704324,-0.02056412,-0.3957368,-0.02342498,8.542187999999999,-6.051524,0.8101515,-0.02,0.08,0.04,82.73999999999999
9442,120896796,1,1.44,0.85,9.57,-0.07809120999999999,-0.01927335,-0.3781767,0.00337932,8.541993,-6.052334,0.8109491,-0.02,0.08,0.04,82.73999999999999
9490,120907392,1,1.46,0.85,9.57,-0.08316247,-0.0168853,-0.3910525,-0.002073552,8.541867,-6.053078,0.8117377,-0.02,0.08,0.04,82.73999999999999
9538,120917612,1,1.45,0.88,9.57,-0.08130278000000001,-0.01566578,-0.3748793,0.01253411,8.541739,-6.053824,0.8121671,-0.02,0.08,0.04,82.73999999999999
9583,120927894,1,1.47,0.89,9.59,-0.08115401,-0.009921060000000001,-0.3732789,0.01524739,8.541574000000001,-6.054543,0.8121149,-0.02,0.08,0.04,82.73999999999999
9628,120937880,1,1.47,0.88,9.57,-0.07388562,-0.008498242,-0.3782415,0.005609901,8.54149,-6.055207,0.8122181000000001,-0.02,0.08,0.04,82.73999999999999
9672,120948664,1,1.5,0.9,9.59,-0.06890352,-0.01533579,-0.3745334,0.007274602,8.540746,-6.055326,0.8084643,-0.02,0.08,0.04,82.73999999999999
9721,120961645,1,1.51,0.85,9.59,-0.07651404000000001,-0.01593269,-0.3663372,-0.006410204,8.540445,-6.056056,0.8077085000000001,-0.02,0.08,0.04,82.73999999999999
9766,120972011,1,1.49,0.85,9.56,-0.07542740000000001,-0.01455452,-0.378962,-0.03466706,8.539626,-6.056229,0.8035712,-0.02,0.08,0.04,82.73999999999999
9811,120982628,1,1.47,0.86,9.59,-0.07250775,-0.01921018,-0.3789445,-0.0488342,8.539574,-6.056922,0.8037394,-0.02,0.08,0.04,82.73999999999999
9855,120992862,1,1.48,0.85,9.57,-0.07082547,-0.01999541,-0.3739537,-0.05767567,8.539448,-6.057618,0.803323,-0.02,0.08,0.04,82.73999999999999
9900,121002821,1,1.49,0.87,9.58,-0.07043836000000001,-0.02362843,-0.3669277,-0.06541868000000001,8.53871,-6.057806,0.7995531,-0.02,0.08,0.04,82.73999999999999
9948,121013577,1,1.43,0.86,9.58,-0.07598410999999999,-0.01482797,-0.3704847,-0.0825733,8.538655,-6.058497,0.7994021,-0.02,0.08,0.04,82.73999999999999
9995,121030883,1,1.46,0.87,9.58,-0.07153174,-0.03345534,-0.3658354,-0.09055613999999999,8.538475,-6.059728,0.8022437,-0.02,0.08,0.04,82.73999999999999
10039,121040905,1,1.48,0.89,9.58,-0.06891812,-0.0260295,-0.3623725,-0.08658172,8.538198,-6.060322,0.8043347,-0.02,0.08,0.04,82.73999999999999
10086,121052036,1,1.45,0.91,9.58,-0.06915151,-0.01120416,-0.3669468,-0.077251,8.537393,-6.060506,0.8003699,-0.02,0.08,0.04,82.73999999999999
10130,121062387,1,1.34,0.9,9.6,-0.07101525,0.00588618,-0.3562689,-0.0555183,8.537148,-6.061094,0.8021142,-0.02,0.08,0.04,82.73999999999999
10174,121073203,1,1.28,0.9399999999999999,9.609999999999999,-0.07086720000000001,0.008288408000000001,-0.3629911,-0.04531561,8.536879000000001,-6.061691,0.8036023,-0.02,0.08,0.04,82.73999999999999
10219,121084061,1,1.34,0.89,9.609999999999999,-0.06621315,-0.0005124509,-0.3628483,-0.03477138,8.536631,-6.062254,0.8048658,-0.02,0.08,0.04,82.73999999999999
10263,121094707,1,1.44,0.89,9.609999999999999,-0.06417858999999999,-0.01892878,-0.3659261,-0.02993361,8.535881,-6.06241,0.8012052,-0.02,0.08,0.04,82.73999999999999
10308,121105560,1,1.57,0.88,9.6,-0.07220206,-0.03404375,-0.3639117,-0.0232223,8.53562,-6.062935,0.8023012,-0.02,0.08,0.04,82.73999999999999
10357,121115784,1,1.58,0.88,9.609999999999999,-0.07800873999999999,-0.0326273,-0.3666619,-0.02152299,8.535354999999999,-6.063507,0.8030968000000001,-0.02,0.08,0.04,82.73999999999999
10402,121126368,1,1.48,0.86,9.619999999999999,-0.08140737000000001,-0.01183114,-0.359369,-0.01271448,8.535209,-6.064045,0.8041341,-0.02,0.08,0.04,82.73999999999999
10447,121136870,1,1.37,0.85,9.630000000000001,-0.08576072999999999,-0.009562052999999999,-0.3504177,0.003430144,8.534988,-6.064608,0.8046191,-0.02,0.08,0.04,82.73999999999999
10491,121147017,1,1.4,0.84,9.640000000000001,-0.07949673,-0.02349132,-0.3381785,0.01804029,8.534205999999999,-6.064909,0.8011826,-0.02,0.08,0.04,82.73999999999999
10540,121161199,1,1.36,0.83,9.65,-0.08449209000000001,-0.0263947,-0.3434793,0.007842712,8.533734000000001,-6.065624,0.8004687,-0.02,0.08,0.04,82.73999999999999
10585,121171273,1,1.4,0.84,9.66,-0.08441848,-0.04116443,-0.3452919,0.002482868,8.533613000000001,-6.066232,0.8010221,-0.02,0.08,0.04,82.73999999999999
10629,121182001,1,1.43,0.88,9.65,-0.07751673000000001,-0.03536501,-0.3473257,-0.008218504,8.533398999999999,-6.066849,0.8012806,-0.02,0.08,0.04,82.73999999999999
10674,121192706,1,1.42,0.9,9.66,-0.07003166,-0.02352256,-0.3497191,-0.01832519,8.532617,-6.06714,0.797764,-0.02,0.08,0.04,82.73999999999999
10719,121203629,1,1.3,0.89,9.65,-0.07058614000000001,-0.02433352,-0.3535943,-0.04102382,8.532437,-6.067783,0.7979208,-0.02,0.08,0.04,82.73999999999999
10766,121217046,1,1.35,0.9399999999999999,9.640000000000001,-0.07292566,-0.02300962,-0.3547525,-0.05727391,8.532036,-6.068513,0.7967663,-0.02,0.08,0.04,82.73999999999999
10815,121227590,1,1.27,0.92,9.640000000000001,-0.06949502,-0.02726144,-0.3405522,-0.05044044,8.531910999999999,-6.069141,0.7965197000000001,-0.02,0.08,0.04,82.73999999999999
10861,121242264,1,1.34,0.93,9.619999999999999,-0.07621965999999999,-0.0322364,-0.3288329,-0.04344168,8.531533,-6.069875,0.7950574,-0.02,0.08,0.04,82.73999999999999
10909,121255414,1,1.33,0.91,9.619999999999999,-0.07554022000000001,-0.02560321,-0.3368673,-0.05954646,8.530756999999999,-6.070833,0.7959168,-0.02,0.08,0.04,82.73999999999999
10954,121266171,1,1.28,0.92,9.619999999999999,-0.08489112,-0.02429234,-0.33445,-0.05568419,8.530167,-6.071701,0.7972652,-0.02,0.08,0.04,82.73999999999999
10999,121279375,1,1.29,0.91,9.630000000000001,-0.07362782,-0.02150535,-0.3304351,-0.0416478,8.529469000000001,-6.07264,0.7980806,-0.02,0.08,0.04,82.73999999999999
11044,121289838,1,1.33,0.93,9.640000000000001,-0.0801528,-0.02563825,-0.3256426,-0.02424395,8.528934,-6.073504,0.7992124,-0.02,0.08,0.04,82.73999999999999
11088,121299892,1,1.39,0.98,9.640000000000001,-0.07206278000000001,-0.03495867,-0.3273937,-0.01695304,8.528183,-6.073888,0.7959285,-0.02,0.08,0.04,82.73999999999999
11132,121310596,1,1.48,0.97,9.66,-0.06583778,-0.05650567,-0.3246731,-0.0082141,8.527761,-6.074673,0.7972221,-0.02,0.08,0.04,82.73999999999999
11177,121320851,1,1.52,0.98,9.66,-0.07308389,-0.05001353,-0.3170889,0.004218427,8.527288,-6.07547,0.7980219,-0.02,0.08,0.04,82.73999999999999
11225,121331710,1,1.46,1.01,9.67,-0.06949173,-0.03133938,-0.3214331,0.002965244,8.526812,-6.076271,0.798549,-0.02,0.08,0.04,82.73999999999999
11271,121342561,1,1.27,0.97,9.67,-0.0767965,-0.02867131,-0.3174303,0.009521997000000001,8.526482,-6.077045,0.7992696,-0.02,0.08,0.04,82.73999999999999
11316,121353291,1,1.26,0.96,9.67,-0.07717185,-0.03116868,-0.318615,0.01241405,8.526103000000001,-6.077833,0.7994345,-0.02,0.08,0.04,82.73999999999999
11360,121363658,1,1.38,0.99,9.68,-0.06646939,-0.0442149,-0.3096143,0.02159569,8.525848999999999,-6.078507,0.7999381,-0.02,0.08,0.04,82.73999999999999
11405,121374926,1,1.36,0.99,9.67,-0.06906023999999999,-0.04696887,-0.3108892,0.02119298,8.524933000000001,-6.078986,0.7959261,-0.02,0.08,0.04,82.73999999999999
11450,121385190,1,1.37,0.99,9.68,-0.07277098,-0.03968443,-0.3176111,0.006469536,8.524623999999999,-6.079628,0.7964614,-0.02,0.08,0.04,82.73999999999999
11494,121395116,1,1.36,0.98,9.66,-0.07686285,-0.03502707,-0.3229966,-0.007841318999999999,8.524322,-6.080246,0.7967955,-0.02,0.08,0.04,82.73999999999999
11545,121408104,1,1.46,1,9.66,-0.07417904,-0.03902056,-0.3262089,-0.0189463,8.523797,-6.080946,0.7958614000000001,-0.02,0.08,0.04,82.73999999999999
11588,121422491,1,1.47,1.02,9.66,-0.07372621,-0.0449716,-0.321027,-0.02199942,8.523412,-6.081714,0.7967284,-0.02,0.08,0.04,82.73999999999999
11634,121432861,1,1.5,1.02,9.67,-0.07561901,-0.04753691,-0.3235205,-0.02653757,8.522594,-6.082132,0.7931991,-0.02,0.08,0.04,82.73999999999999
11683,121442909,1,1.51,1.04,9.67,-0.07443693999999999,-0.04319567,-0.3218135,-0.0250521,8.522501999999999,-6.082724,0.7951565,-0.02,0.08,0.04,82.73999999999999
11728,121453711,1,1.47,1.05,9.68,-0.07735707999999999,-0.03942326,-0.31618,-0.01086243,8.522320000000001,-6.083384,0.7964706,-0.02,0.08,0.04,82.73999999999999
11772,121464609,1,1.35,1.04,9.68,-0.07782931999999999,-0.03329329,-0.3192507,-0.006968226,8.522228999999999,-6.084001,0.7979323,-0.02,0.08,0.04,82.73999999999999
11817,121475181,1,1.28,1.04,9.699999999999999,-0.07305517,-0.03793776,-0.3167012,0.005742036,8.522059,-6.084693,0.7987319000000001,-0.02,0.08,0.04,82.73999999999999
11861,121486321,1,1.23,1.07,9.710000000000001,-0.07185693,-0.04170221,-0.314286,0.0146049,8.521901,-6.085363,0.7997221,-0.02,0.08,0.04,82.73999999999999
11906,121496230,1,1.3,1.1,9.710000000000001,-0.07164954,-0.04110375,-0.3091847,0.0224022,8.521769000000001,-6.085896,0.8008124,-0.02,0.08,0.04,82.73999999999999
11952,121507255,1,1.36,1.1,9.720000000000001,-0.07379317000000001,-0.03505551,-0.3079028,0.03085537,8.520830999999999,-6.086223,0.7973586,-0.02,0.08,0.04,82.73999999999999
11996,121517630,1,1.37,1.11,9.720000000000001,-0.07486661,-0.0294902,-0.3040038,0.03595583,8.520609,-6.086668,0.7980289,-0.02,0.08,0.04,82.73999999999999
12041,121528161,1,1.34,1.09,9.73,-0.08415747,-0.01606476,-0.3117595,0.02983604,8.520473000000001,-6.087087,0.7987347,-0.02,0.08,0.04,82.73999999999999
12086,121538106,1,1.34,1.1,9.73,-0.09151264000000001,-0.01732663,-0.3127569,0.02838867,8.520301,-6.087485,0.799196,-0.02,0.08,0.04,82.73999999999999
12134,121548857,1,1.38,1.17,9.75,-0.09034043,-0.02184612,-0.3069514,0.03011457,8.519968,-6.087918,0.799188,-0.02,0.08,0.04,82.73999999999999
12178,121559718,1,1.41,1.22,9.76,-0.08261311,-0.02453706,-0.3151782,0.01818951,8.519629,-6.088356,0.7989403,-0.02,0.08,0.04,82.73999999999999
12223,121570524,1,1.46,1.22,9.77,-0.08206645999999999,-0.02244973,-0.3272066,-0.001335726,8.519361,-6.088748,0.7988158,-0.02,0.08,0.04,82.73999999999999
12272,121583871,1,1.55,1.08,9.77,-0.09735554,-0.03580792,-0.3266082,-0.007464821,8.518815,-6.089209,0.7974315,-0.02,0.08,0.04,82.73999999999999
12316,121594755,1,1.58,1.04,9.800000000000001,-0.09706123,-0.03356858,-0.3376951,-0.02709348,8.517908,-6.089459,0.7940897,-0.02,0.08,0.04,82.73999999999999
12361,121604959,1,1.56,1.04,9.84,-0.1035042,-0.03274205,-0.350148,-0.05442139,8.517647,-6.089843,0.7933896,-0.02,0.08,0.04,82.73999999999999
12405,121614957,1,1.55,1.02,9.869999999999999,-0.1035336,-0.02948211,-0.3639524,-0.08370379,8.516717999999999,-6.090125,0.7897744,-0.02,0.08,0.04,82.73999999999999
12452,121631638,1,1.64,0.98,9.94,-0.09534788,-0.03495354,-0.3996211,-0.1403692,8.516257,-6.090819,0.7906976,-0.02,0.08,0.04,82.73999999999999
12497,121642600,1,1.62,0.96,9.99,-0.09053712999999999,-0.02383522,-0.4180843,-0.1615938,8.515753,-6.091211,0.7907507,-0.02,0.08,0.04,82.73999999999999
12548,121652849,1,1.64,0.93,10.04,-0.09129041,-0.009137737999999999,-0.4493904,-0.1918634,8.514748000000001,-6.091407,0.7860421,-0.02,0.08,0.04,82.73999999999999
12593,121663487,1,1.69,0.92,10.09,-0.09353966,-0.01070198,-0.4693289,-0.2118551,8.514182999999999,-6.0917,0.7853704,-0.02,0.08,0.04,82.73999999999999
12638,121673820,1,1.74,0.89,10.16,-0.09584615,-0.01107192,-0.4987505,-0.2436844,8.513579999999999,-6.091954,0.7838781,-0.02,0.08,0.04,82.73999999999999
12682,121684897,1,1.79,0.88,10.24,-0.09305984,-0.005240327,-0.539471,-0.2864119,8.512549,-6.092016,0.7781731,-0.02,0.08,0.04,82.73999999999999
12727,121695799,1,1.85,0.84,10.32,-0.09323926,0.002262469,-0.5657724,-0.3153327,8.511926000000001,-6.092165,0.7757099,-0.02,0.08,0.04,82.73999999999999
12771,121706942,1,1.92,0.8100000000000001,10.4,-0.1002383,-0.005816943,-0.6056514,-0.3614109,8.511329,-6.0923,0.7728013,-0.02,0.08,0.04,82.73999999999999
12816,121717525,1,1.98,0.8,10.49,-0.09748554,0.005941688,-0.6539167,-0.4145663,8.510249999999999,-6.092297,0.7658909,-0.02,0.08,0.04,82.73999999999999
12863,121729090,1,2.08,0.76,10.6,-0.1033069,0.01218807,-0.6794767,-0.4516343,8.50957,-6.092306,0.762238,-0.02,0.08,0.04,82.73999999999999
12907,121739522,1,2.22,0.73,10.7,-0.1082866,0.004757796,-0.7174353999999999,-0.4960265,8.508520000000001,-6.092185,0.7551444,-0.02,0.08,0.04,82.73999999999999
12953,121750289,1,2.29,0.72,10.8,-0.1052589,0.01424639,-0.7693564000000001,-0.5538916,8.507839000000001,-6.092137,0.7505124,-0.02,0.08,0.04,82.73999999999999
13001,121760589,1,2.33,0.66,10.91,-0.101992,0.03045581,-0.7953216,-0.581945,8.507265,-6.092062,0.7460701,-0.02,0.08,0.04,82.73999999999999
13046,121771183,1,2.4,0.61,11.02,-0.1088197,0.01891892,-0.8258244,-0.6106591,8.506603999999999,-6.091868,0.7402666,-0.02,0.08,0.04,82.73999999999999
13091,121781858,1,2.44,0.57,11.14,-0.1058279,0.02221423,-0.8682086,-0.6560859999999999,8.505929,-6.091645,0.73387,-0.02,0.08,0.04,82.73999999999999
13135,121792880,1,2.47,0.53,11.26,-0.1107866,0.04108681,-0.904502,-0.6922672,8.505242000000001,-6.091392,0.7269473,-0.02,0.08,0.04,82.73999999999999
13180,121803505,1,2.52,0.5,11.36,-0.1126287,0.04025947,-0.9427429000000001,-0.7280376,8.504111999999999,-6.091029,0.7176747,-0.02,0.08,0.04,82.73999999999999
13226,121820337,1,2.65,0.43,11.54,-0.105974,0.0505574,-1.003399,-0.7858067,8.503988,-6.089606,0.7093038,-0.02,0.08,0.04,82.73999999999999
13271,121830805,1,2.71,0.4,11.66,-0.1055318,0.06355838,-1.040413,-0.8075108,8.504002,-6.088367,0.7032014,-0.02,0.08,0.04,82.73999999999999
13316,121841460,1,2.74,0.37,11.75,-0.1051907,0.07126610999999999,-1.071982,-0.8241733,8.502943,-6.087727,0.6926667,-0.02,0.08,0.04,82.73999999999999
13360,121851723,1,2.77,0.28,11.88,-0.1002728,0.0760798,-1.109097,-0.8457488,8.502993999999999,-6.086337,0.6855421,-0.02,0.08,0.04,82.73999999999999
13409,121862656,1,2.8,0.22,11.98,-0.09925945,0.08399378,-1.148461,-0.8716841,8.503183999999999,-6.084963,0.67906,-0.02,0.08,0.04,82.73999999999999
13456,121873616,1,2.81,0.13,12.1,-0.08899205,0.09376261,-1.179914,-0.8912964,8.503277000000001,-6.08348,0.6706969,-0.02,0.08,0.04,82.73999999999999
13500,121884663,1,2.83,0.02,12.22,-0.08768614,0.08532165999999999,-1.21614,-0.9161487,8.502253,-6.082511,0.657448,-0.02,0.08,0.04,82.73999999999999
13546,121895373,1,2.8,-0.06,12.35,-0.09273128,0.09294408999999999,-1.254036,-0.9485776,8.502383999999999,-6.080936,0.6481735,-0.02,0.08,0.04,82.73999999999999
13592,121905716,1,2.76,-0.14,12.46,-0.08667213,0.1215929,-1.279824,-0.9700519,8.502522000000001,-6.079269,0.6383526,-0.02,0.08,0.04,82.73999999999999
13637,121916544,1,2.75,-0.23,12.59,-0.08402007,0.1305359,-1.311,-0.9990132,8.502744,-6.07754,0.6293985,-0.02,0.08,0.04,82.73999999999999
13682,121926711,1,2.73,-0.3,12.69,-0.08804505999999999,0.129627,-1.355604,-1.040336,8.501803000000001,-6.076091,0.6147967,-0.02,0.08,0.04,82.73999999999999
13726,121937321,1,2.67,-0.36,12.82,-0.08945093,0.1380073,-1.381442,-1.065945,8.50201,-6.074235,0.6051412,-0.02,0.08,0.04,82.73999999999999
13770,121947330,1,2.56,-0.37,12.93,-0.08580626,0.1507455,-1.406745,-1.090643,8.502209000000001,-6.072337,0.5950297,-0.02,0.08,0.04,82.73999999999999
13815,121957686,1,2.45,-0.41,13.07,-0.07969244,0.153518,-1.435536,-1.120118,8.502317,-6.070191,0.5829672,-0.02,0.08,0.04,82.73999999999999
13863,121968398,1,2.37,-0.41,13.18,-0.09044505,0.1505077,-1.464972,-1.149831,8.502501000000001,-6.06814,0.5717736,-0.02,0.08,0.04,82.73999999999999
13909,121978511,1,2.27,-0.39,13.32,-0.09535270999999999,0.1590198,-1.493843,-1.180649,8.502656999999999,-6.066082,0.5602185,-0.02,0.08,0.04,82.73999999999999
13954,121989412,1,2.15,-0.34,13.44,-0.08972046,0.1813813,-1.514534,-1.201709,8.501696000000001,-6.064216,0.5437046,-0.02,0.08,0.04,82.73999999999999
13999,121999719,1,2.02,-0.29,13.58,-0.07478675,0.1803049,-1.536849,-1.228951,8.501841000000001,-6.062051,0.5313033,-0.02,0.08,0.04,82.73999999999999
14043,122010046,1,1.88,-0.25,13.7,-0.07231861000000001,0.1729223,-1.572906,-1.27919,8.501993000000001,-6.059711,0.5171587,-0.02,0.08,0.04,82.73999999999999
14088,122020618,1,1.71,-0.19,13.82,-0.06961124,0.1868799,-1.597567,-1.313781,8.501253,-6.057724,0.4998528,-0.02,0.08,0.04,82.73999999999999
14131,122031998,1,1.48,-0.13,13.95,-0.05280903,0.19289,-1.617378,-1.343158,8.501514,-6.055216,0.4851027,-0.02,0.08,0.04,82.73999999999999
14173,122042975,1,1.31,-0.09,14.06,-0.06405929,0.1984763,-1.649849,-1.379986,8.501751000000001,-6.051913,0.4710373,-0.02,0.08,0.04,82.73999999999999
14218,122052938,1,1.14,-0.03,14.16,-0.0699033,0.2021519,-1.672571,-1.404861,8.502122999999999,-6.048812,0.4584483,-0.02,0.08,0.04,82.73999999999999
14262,122063651,1,0.97,0.02,14.27,-0.06328854,0.21473,-1.694051,-1.428257,8.502473,-6.045629,0.4448642,-0.02,0.08,0.04,82.73999999999999
14310,122074182,1,0.75,0.12,14.4,-0.04495832,0.2299177,-1.718451,-1.449314,8.502765999999999,-6.042279,0.4295658,-0.02,0.08,0.04,82.73999999999999
14356,122084921,1,0.61,0.17,14.49,-0.04576862,0.230088,-1.742365,-1.472695,8.502269999999999,-6.04007,0.4124882,-0.02,0.08,0.04,82.73999999999999
14400,122095055,1,0.49,0.26,14.6,-0.06035264,0.2300683,-1.762276,-1.494326,8.502554999999999,-6.036593,0.3964668,-0.02,0.08,0.04,82.73999999999999
14445,122105616,1,0.36,0.37,14.72,-0.05923668,0.2381729,-1.784159,-1.516904,8.502857000000001,-6.033283,0.3816332,-0.02,0.08,0.04,82.73999999999999
14493,122118965,1,0.15,0.49,14.85,-0.05797704,0.242793,-1.815817,-1.550265,8.502962999999999,-6.029031,0.3593695,-0.02,0.08,0.04,82.73999999999999
14538,122129833,1,-0.03,0.63,14.98,-0.05827886,0.237322,-1.839404,-1.576139,8.503215000000001,-6.025504,0.3422405,-0.02,0.08,0.04,82.73999999999999
14583,122139886,1,-0.2,0.71,15.07,-0.05874895,0.2374828,-1.856467,-1.596792,8.503572,-6.022505,0.3283474,-0.02,0.08,0.04,82.73999999999999
14627,122150918,1,-0.43,0.82,15.19,-0.047802,0.2455662,-1.874695,-1.61788,8.503856000000001,-6.019064,0.3104686,-0.02,0.08,0.04,82.73999999999999
14671,122161787,1,-0.63,0.91,15.31,-0.03612277,0.2455655,-1.898927,-1.648213,8.503396,-6.016595,0.2911089,-0.02,0.08,0.04,82.73999999999999
14716,122171952,1,-0.83,0.95,15.44,-0.0441985,0.240853,-1.909982,-1.671839,8.503684,-6.013028,0.2715595,-0.02,0.08,0.04,82.73999999999999
14764,122182539,1,-1.02,1.02,15.55,-0.04603725,0.2327843,-1.925515,-1.697875,8.504073,-6.009895,0.2549192,-0.02,0.08,0.04,82.73999999999999
14809,122192667,1,-1.23,1.11,15.67,-0.03344528,0.2413051,-1.940048,-1.722976,8.504415,-6.006561,0.2359002,-0.02,0.08,0.04,82.73999999999999
14854,122203689,1,-1.52,1.14,15.83,-0.03260706,0.2356291,-1.95798,-1.748986,8.504788,-6.003238,0.2165847,-0.02,0.08,0.04,82.73999999999999
14900,122214771,1,-1.72,1.18,15.94,-0.04029801,0.2348617,-1.971668,-1.767811,8.504435000000001,-6.000866,0.1971049,-0.02,0.08,0.04,82.73999999999999
14944,122230029,1,-2.11,1.26,16.14,-0.02121829,0.2437484,-2.000864,-1.808819,8.505913,-5.996866,0.1721033,-0.02,0.08,0.04,82.73999999999999
14988,122240837,1,-2.34,1.26,16.29,-0.02392378,0.2362833,-2.004209,-1.808123,8.506594,-5.994181,0.1541443,-0.02,0.08,0.04,82.73999999999999
15033,122251638,1,-2.57,1.28,16.42,-0.02084799,0.2329411,-2.028139,-1.821728,8.507313,-5.991528,0.1358208,-0.02,0.08,0.04,82.73999999999999
15078,122262556,1,-2.77,1.28,16.54,-0.02062752,0.2290508,-2.0374,-1.817467,8.507133,-5.989149,0.1152784,-0.02,0.08,0.04,82.73999999999999
15123,122272836,1,-3.02,1.32,16.67,-0.01724371,0.2303441,-2.063331,-1.832166,8.507942,-5.986537,0.09630999,-0.02,0.08,0.04,82.73999999999999
15167,122282858,1,-3.23,1.34,16.8,-0.01223487,0.239429,-2.078053,-1.84608,8.507802999999999,-5.984194,0.07540445,-0.02,0.08,0.04,82.73999999999999
15216,122293517,1,-3.43,1.38,16.92,-0.007820963,0.2311195,-2.090406,-1.857525,8.508626,-5.981857,0.05811688,-0.02,0.08,0.04,82.73999999999999
15261,122303911,1,-3.65,1.41,17.04,-0.01383783,0.2188098,-2.106566,-1.879951,8.509436000000001,-5.979382,0.03866849,-0.02,0.08,0.04,82.73999999999999
15306,122314699,1,-3.91,1.49,17.17,-0.01786174,0.2144158,-2.130038,-1.904056,8.51023,-5.976919,0.01827724,-0.02,0.08,0.04,82.73999999999999
15350,122325569,1,-4.1,1.53,17.27,-0.01103458,0.2087889,-2.146934,-1.917812,8.510154,-5.974803,-0.003077538,-0.02,0.08,0.04,82.73999999999999
15395,122338622,1,-4.42,1.66,17.42,-0.003108553,0.2007942,-2.159888,-1.931107,8.511835,-5.971834,-0.02585703,-0.02,0.08,0.04,82.73999999999999
15439,122349635,1,-4.61,1.76,17.51,-0.01691142,0.1918939,-2.177676,-1.940073,8.51258,-5.969584,-0.04566185,-0.02,0.08,0.04,82.73999999999999
15484,122360879,1,-4.8,1.89,17.58,-0.02583655,0.1852229,-2.188103,-1.937316,8.512437,-5.967444,-0.06962725,-0.02,0.08,0.04,82.73999999999999
15529,122371352,1,-5.02,2.04,17.66,-0.01336944,0.1874577,-2.19593,-1.936443,8.513149,-5.96548,-0.08848064999999999,-0.02,0.08,0.04,82.73999999999999
15575,122381707,1,-5.25,2.13,17.72,-0.008507067,0.1827926,-2.201784,-1.93951,8.51385,-5.963681,-0.1063343,-0.02,0.08,0.04,82.73999999999999
15619,122392551,1,-5.5,2.24,17.78,-0.01439851,0.1702255,-2.217191,-1.951144,8.513667,-5.961767,-0.130565,-0.02,0.08,0.04,82.73999999999999
15671,122402784,1,-5.71,2.34,17.82,-0.02321902,0.161752,-2.226367,-1.963588,8.514341999999999,-5.960055,-0.1492314,-0.02,0.08,0.04,82.73999999999999
15717,122413532,1,-5.97,2.46,17.87,-0.0304927,0.1464027,-2.237926,-1.973084,8.514972999999999,-5.958249,-0.1706554,-0.02,0.08,0.04,82.73999999999999
15756,122425658,1,-6.25,2.65,17.92,-0.0228982,0.1528149,-2.253739,-1.988596,8.515897000000001,-5.957781,-0.1936746,-0.02,0.08,0.04,82.73999999999999
15801,122436028,1,-6.47,2.74,17.97,-9.605392999999999e-05,0.1415774,-2.258641,-1.994404,8.516835,-5.957521,-0.2146037,-0.02,0.08,0.04,82.73999999999999
15845,122446892,1,-6.68,2.81,18.02,-0.01567416,0.126814,-2.27054,-2.002173,8.516676,-5.95605,-0.2395946,-0.02,0.08,0.04,82.73999999999999
15889,122457132,1,-6.88,2.89,18.07,-0.02732062,0.1161382,-2.275985,-2.000252,8.517602999999999,-5.956047,-0.2566097,-0.02,0.08,0.04,82.73999999999999
15934,122468098,1,-7.08,2.94,18.1,-0.02298237,0.1127974,-2.276543,-1.984584,8.518492999999999,-5.955935,-0.276074,-0.02,0.08,0.04,82.73999999999999
15979,122479005,1,-7.27,3,18.16,-0.01969577,0.1118886,-2.285462,-1.976904,8.519363,-5.955809,-0.2962961,-0.02,0.08,0.04,82.73999999999999
16024,122489675,1,-7.4,3.03,18.19,-0.008980388000000001,0.1052957,-2.285021,-1.964175,8.520256,-5.955842,-0.3143406,-0.02,0.08,0.04,82.73999999999999
16069,122500086,1,-7.56,3.04,18.24,-0.01020821,0.08992324,-2.289727,-1.950259,8.521089999999999,-5.955843,-0.3349981,-0.02,0.08,0.04,82.73999999999999
16117,122510617,1,-7.69,3.01,18.27,-0.01793577,0.08011794999999999,-2.290146,-1.940232,8.521948999999999,-5.955969,-0.3537121,-0.02,0.08,0.04,82.73999999999999
16162,122521140,1,-7.79,3,18.31,-0.02807926,0.06971655,-2.299848,-1.937207,8.521749,-5.955109,-0.3787712,-0.02,0.08,0.04,82.73999999999999
16207,122531623,1,-7.88,3,18.35,-0.0266789,0.05977761,-2.305752,-1.942403,8.522532,-5.95535,-0.4001127,-0.02,0.08,0.04,82.73999999999999
16252,122542176,1,-7.96,3.01,18.38,-0.01850759,0.05904574,-2.313406,-1.950494,8.523355,-5.955734,-0.4192939,-0.02,0.08,0.04,82.73999999999999
16301,122555837,1,-8.02,2.97,18.43,-0.00863036,0.03174894,-2.320367,-1.957256,8.524184999999999,-5.956,-0.4452429,-0.02,0.08,0.04,82.73999999999999
16345,122566530,1,-8.08,2.95,18.46,-0.01386727,0.02664735,-2.326315,-1.954332,8.525066000000001,-5.956579,-0.4621972,-0.02,0.08,0.04,82.73999999999999
16391,122577187,1,-8.16,2.91,18.5,-0.0007728137,0.01411289,-2.330067,-1.945799,8.525933,-5.957222,-0.4821962,-0.02,0.08,0.04,82.73999999999999
16436,122588225,1,-8.220000000000001,2.87,18.54,0.002084811,0.007503998,-2.339412,-1.938538,8.526785,-5.957959,-0.5024816,-0.02,0.08,0.04,82.73999999999999
16480,122598949,1,-8.279999999999999,2.83,18.57,-0.0007888091000000001,-0.01186033,-2.338828,-1.919803,8.526711000000001,-5.95799,-0.5278834,-0.02,0.08,0.04,82.73999999999999
16524,122611342,1,-8.34,2.77,18.62,-0.01727254,-0.02600602,-2.356709,-1.939035,8.527794,-5.958657,-0.5511207,-0.02,0.08,0.04,82.73999999999999
16569,122622090,1,-8.43,2.76,18.65,-0.002905171,-0.03112031,-2.36426,-1.946951,8.528898999999999,-5.959412,-0.5724562,-0.02,0.08,0.04,82.73999999999999
16614,122632722,1,-8.5,2.69,18.69,0.007681801,-0.0395412,-2.366455,-1.950928,8.530009,-5.96026,-0.591576,-0.02,0.08,0.04,82.73999999999999
16659,122643556,1,-8.58,2.61,18.72,0.006137617,-0.06240138,-2.37961,-1.963251,8.531110999999999,-5.961277,-0.6136611,-0.02,0.08,0.04,82.73999999999999
16707,122657373,1,-8.699999999999999,2.55,18.74,0.01081532,-0.07448817000000001,-2.386927,-1.974578,8.532266999999999,-5.962654,-0.6414263,-0.02,0.08,0.04,82.73999999999999
16753,122668575,1,-8.81,2.49,18.77,0.02194578,-0.08328321,-2.390622,-1.973612,8.533422,-5.963943,-0.6611851,-0.02,0.08,0.04,82.73999999999999
16798,122679539,1,-8.890000000000001,2.35,18.78,0.02115892,-0.1033161,-2.395919,-1.96791,8.534598000000001,-5.965378,-0.6822104,-0.02,0.08,0.04,82.73999999999999
16842,122690223,1,-9,2.27,18.78,-0.001404749,-0.12269,-2.403787,-1.962159,8.534744,-5.966572,-0.7087526,-0.02,0.08,0.04,82.73999999999999
16888,122700820,1,-9.09,2.19,18.78,-0.004962521,-0.1391273,-2.406712,-1.958916,8.535892,-5.968122,-0.7266443,-0.02,0.08,0.04,82.73999999999999
16932,122711533,1,-9.23,2.11,18.78,0.01009394,-0.1485808,-2.410439,-1.955141,8.537062000000001,-5.970029,-0.7482575,-0.02,0.08,0.04,82.73999999999999
16980,122722259,1,-9.33,2.05,18.76,0.01999142,-0.1620243,-2.413061,-1.955492,8.538228,-5.972085,-0.7700768,-0.02,0.08,0.04,82.73999999999999
17026,122732562,1,-9.449999999999999,1.99,18.74,0.0262013,-0.1700522,-2.419926,-1.965456,8.539376000000001,-5.974058,-0.7896523,-0.02,0.08,0.04,82.73999999999999
17071,122742848,1,-9.550000000000001,1.94,18.69,0.02580735,-0.1872883,-2.4235,-1.969373,8.540547,-5.97634,-0.8123335,-0.02,0.08,0.04,82.73999999999999
17116,122753656,1,-9.67,1.91,18.65,0.03025322,-0.1976138,-2.420166,-1.972976,8.541706,-5.978513,-0.8321508,-0.02,0.08,0.04,82.73999999999999
17160,122768035,1,-9.82,1.86,18.56,0.0203006,-0.2250732,-2.419616,-1.976853,8.543002,-5.981871,-0.8618296,-0.02,0.08,0.04,82.73999999999999
17205,122778356,1,-9.92,1.87,18.5,0.01999018,-0.2257325,-2.424922,-1.979418,8.544157999999999,-5.984354,-0.8798779,-0.02,0.08,0.04,82.73999999999999
17251,122788159,1,-10.02,1.87,18.41,0.0173707,-0.2406839,-2.426338,-1.976125,8.54529,-5.986902,-0.8980318,-0.02,0.08,0.04,82.73999999999999
17299,122799226,1,-10.12,1.9,18.33,0.02703364,-0.2501025,-2.426755,-1.964858,8.545586999999999,-5.98958,-0.9246545,-0.02,0.08,0.04,82.73999999999999
17338,122811533,1,-10.21,1.95,18.21,0.05123396,-0.2624749,-2.428872,-1.961463,8.546665000000001,-5.99179,-0.9484867,-0.02,0.08,0.04,82.73999999999999
17384,122821746,1,-10.28,1.97,18.12,0.06299970000000001,-0.2772006,-2.428809,-1.957278,8.547734,-5.993659,-0.9672695,-0.02,0.08,0.04,82.73999999999999
17433,122831961,1,-10.37,1.98,18,0.06345921,-0.2880722,-2.433877,-1.96205,8.548897,-5.995917,-0.9884552,-0.02,0.09,0.04,82.73999999999999
17477,122842788,1,-10.45,2.01,17.87,0.06617628,-0.2959869,-2.43503,-1.960983,8.550037,-5.998067,-1.008,-0.02,0.09,0.04,82.73999999999999
17522,122853609,1,-10.5,2.02,17.71,0.04654673,-0.3190714,-2.441974,-1.971927,8.551264,-6.000963,-1.032509,-0.02,0.09,0.04,82.73999999999999
17567,122864697,1,-10.55,2.05,17.58,0.05597241,-0.3252053,-2.437047,-1.975847,8.551786999999999,-6.004217,-1.057006,-0.02,0.09,0.04,82.73999999999999
17612,122875184,1,-10.56,2.09,17.42,0.05666872,-0.3411282,-2.433563,-1.990306,8.553011,-6.007064,-1.079109,-0.02,0.08,0.04,82.73999999999999
17657,122885640,1,-10.6,2.17,17.24,0.05975686,-0.3586891,-2.426304,-1.994944,8.554252,-6.010128,-1.099709,-0.02,0.08,0.04,82.73999999999999
17704,122896014,1,-10.62,2.21,17.07,0.0677635,-0.3638341,-2.426646,-2.006826,8.55545,-6.013021,-1.118176,-0.02,0.08,0.04,82.73999999999999
17750,122907103,1,-10.65,2.27,16.87,0.07254897,-0.3849316,-2.41441,-1.996324,8.556767000000001,-6.016422,-1.139246,-0.02,0.08,0.04,82.73999999999999
17795,122918138,1,-10.67,2.37,16.67,0.07155628999999999,-0.3947737,-2.421811,-1.999769,8.557550000000001,-6.020669,-1.165747,-0.02,0.08,0.04,82.73999999999999
17839,122928069,1,-10.62,2.43,16.45,0.0800385,-0.4055042,-2.40823,-1.987241,8.558845,-6.023953,-1.184653,-0.02,0.08,0.04,82.73999999999999
17887,122938288,1,-10.58,2.51,16.23,0.08273237,-0.4178021,-2.405966,-1.985493,8.56015,-6.027359,-1.203787,-0.02,0.08,0.04,82.73999999999999
17931,122948691,1,-10.51,2.59,15.97,0.07763717000000001,-0.4295315,-2.400644,-1.979381,8.561494,-6.031379,-1.225826,-0.02,0.09,0.04,82.73999999999999
17976,122959900,1,-10.42,2.66,15.71,0.08037982,-0.4441902,-2.393048,-1.975165,8.562816,-6.03545,-1.247519,-0.02,0.09,0.04,82.73999999999999
18023,122973356,1,-10.32,2.77,15.39,0.06720915,-0.4559231,-2.394269,-1.989336,8.564375,-6.040557,-1.274362,-0.02,0.08,0.04,82.73999999999999
18068,122984407,1,-10.19,2.86,15.13,0.07199885,-0.4682764,-2.382425,-1.986244,8.565303999999999,-6.045469,-1.30042,-0.02,0.08,0.04,82.73999999999999
18113,122994717,1,-10.07,2.99,14.81,0.07387734999999999,-0.4813967,-2.373183,-1.98267,8.566799,-6.049953,-1.320313,-0.02,0.08,0.04,82.73999999999999
18157,123005582,1,-9.98,3.11,14.55,0.0809878,-0.4944053,-2.36814,-1.986339,8.568210000000001,-6.054132,-1.337951,-0.02,0.08,0.04,82.73999999999999
18204,123022944,1,-9.880000000000001,3.37,14.01,0.09001484999999999,-0.5039244000000001,-2.343076,-1.957723,8.571047,-6.062377,-1.374511,-0.02,0.08,0.04,82.73999999999999
18248,123033370,1,-9.76,3.48,13.74,0.08857039,-0.5140131,-2.334567,-1.9407,8.573112,-6.066788,-1.392183,-0.02,0.09,0.04,82.73999999999999
18297,123043606,1,-9.640000000000001,3.64,13.41,0.09043556,-0.523446,-2.32812,-1.933634,8.575149,-6.071358,-1.41029,-0.02,0.08,0.04,82.73999999999999
18343,123054681,1,-9.550000000000001,3.79,13.03,0.09058969,-0.5356216,-2.313073,-1.917476,8.576112,-6.077219,-1.435906,-0.02,0.08,0.04,82.73999999999999
18387,123065481,1,-9.51,3.93,12.72,0.08426458000000001,-0.5402969,-2.306693,-1.91551,8.578213999999999,-6.082536,-1.45618,-0.02,0.08,0.04,82.73999999999999
18432,123075686,1,-9.51,4.1,12.33,0.09128977000000001,-0.5501676,-2.296724,-1.909846,8.580321,-6.088081,-1.476952,-0.02,0.08,0.04,82.73999999999999
18479,123239216,1,-7.63,5.98,12.05,0.006311949,-0.6778439000000001,-2.174341,-1.775763,8.599897,-6.182277,-1.774484,-0.02,0.08,0.04,82.73999999999999
18523,123249566,1,-7.42,6.03,11.65,-5.848007e-05,-0.6981713000000001,-2.173568,-1.778507,8.60066,-6.187706,-1.7911,-0.02,0.08,0.04,82.73999999999999
18572,123259950,1,-7.28,6.16,11.22,-0.004977828,-0.7066541,-2.167094,-1.774092,8.600675000000001,-6.195322,-1.814799,-0.02,0.08,0.04,82.73999999999999
18616,123270568,1,-7.14,6.19,10.84,-0.01299299,-0.7070419999999999,-2.157793,-1.768299,8.601290000000001,-6.200868,-1.83132,-0.02,0.08,0.04,82.73999999999999
18661,123280890,1,-7.03,6.32,10.36,-0.0157148,-0.704728,-2.146904,-1.756298,8.601818,-6.207285,-1.850348,-0.02,0.08,0.04,82.73999999999999
18706,123295536,1,-6.84,6.45,9.77,-0.004024005,-0.7123692,-2.137149,-1.74658,8.602897,-6.21471,-1.872024,-0.02,0.08,0.04,82.73999999999999
18750,123310064,1,-6.68,6.5,9.16,-0.04600848,-0.7428285,-2.125355,-1.730277,8.603087,-6.224091,-1.899283,-0.02,0.08,0.04,82.73999999999999
18795,123320609,1,-6.66,6.54,8.77,-0.0486137,-0.7489852,-2.116477,-1.72347,8.603346999999999,-6.230209,-1.914992,-0.02,0.09,0.04,82.73999999999999
18839,123330591,1,-6.62,6.59,8.31,-0.06252563,-0.7507961,-2.101882,-1.709148,8.603517,-6.236484,-1.930968,-0.02,0.09,0.04,82.73999999999999
18884,123341101,1,-6.57,6.63,7.85,-0.07214661999999999,-0.7535631,-2.090335,-1.692821,8.603539,-6.243551,-1.949069,-0.02,0.09,0.04,82.73999999999999
18929,123352044,1,-6.48,6.65,7.42,-0.06266492999999999,-0.7592125,-2.080559,-1.677018,8.602952,-6.251729,-1.971885,-0.02,0.09,0.04,82.73999999999999
18978,123362660,1,-6.4,6.65,6.97,-0.07224891,-0.7673304,-2.070904,-1.671441,8.602931999999999,-6.25819,-1.988035,-0.02,0.09,0.04,82.73999999999999
19023,123372970,1,-6.35,6.63,6.53,-0.07986757,-0.7681549,-2.047446,-1.654341,8.602831999999999,-6.264931,-2.004804,-0.02,0.09,0.04,82.73999999999999
19068,123383512,1,-6.36,6.6,6.08,-0.07600003,-0.7605859,-2.031014,-1.64628,8.602683000000001,-6.272192,-2.022859,-0.02,0.09,0.04,82.73999999999999
19114,123394370,1,-6.38,6.56,5.62,-0.08836062,-0.7638775,-2.017138,-1.638386,8.602442,-6.279558,-2.041016,-0.02,0.09,0.04,82.73999999999999
19156,123410107,1,-6.36,6.59,4.95,-0.08048495,-0.7613475,-1.990131,-1.617063,8.60164,-6.290747,-2.068945,-0.02,0.09,0.04,82.73999999999999
19203,123420949,1,-6.35,6.57,4.46,-0.1028447,-0.7632408000000001,-1.97403,-1.607861,8.601077,-6.298334,-2.085713,-0.02,0.09,0.04,82.73999999999999
19244,123431904,1,-6.32,6.55,3.97,-0.1157551,-0.7646549,-1.957023,-1.597685,8.599862999999999,-6.306792,-2.107302,-0.02,0.09,0.04,82.73999999999999
