LineNo,TimeUS,C,Roll,Pitch,Yaw,VN,VE,VD,dPD,PN,PE,PD,GX,GY,GZ,OH
205,1.1864e+08,1,1.56,0.77,9.36,0.12165,-0.026211,-0.062969,-0.035365,8.7201,-5.9807,1.2,-0.02,0.09,0.05,82.74
540,1.1873e+08,1,1.57,0.76,9.38,0.11198,-0.021167,-0.060973,-0.035152,8.7128,-5.9818,1.197,-0.02,0.09,0.05,82.74
991,1.1883e+08,1,1.56,0.77,9.38,0.10502,-0.017339,-0.060958,-0.046445,8.7103,-5.9835,1.1919,-0.02,0.09,0.05,82.74
1319,1.1904e+08,1,1.57,0.77,9.4,0.086992,-0.016006,-0.61595,-0.5533,8.7,-5.9864,1.1447,-0.02,0.08,0.05,82.74
1404,1.1906e+08,1,1.57,0.77,9.4,0.084895,-0.014596,-0.61481,-0.55127,8.6988,-5.9866,1.1375,-0.02,0.08,0.05,82.74
1617,1.1909e+08,1,1.56,0.77,9.39,0.075078,-0.0093241,-0.61551,-0.56466,8.6917,-5.9861,1.1153,-0.02,0.08,0.05,82.74
1663,1.191e+08,1,1.56,0.77,9.4,0.070518,-0.0073219,-0.61606,-0.57073,8.6895,-5.9859,1.1092,-0.02,0.08,0.05,82.74
1707,1.1911e+08,1,1.55,0.77,9.4,0.068307,-0.0053736,-0.61535,-0.57576,8.6875,-5.9857,1.103,-0.02,0.08,0.05,82.74
1752,1.1912e+08,1,1.55,0.77,9.4,0.067822,-0.004813,-0.61478,-0.58089,8.6882,-5.9858,1.0968,-0.02,0.08,0.05,82.74
1796,1.1913e+08,1,1.56,0.77,9.4,0.066066,-0.0035226,-0.61353,-0.58549,8.6863,-5.9856,1.0901,-0.02,0.08,0.05,82.74
1841,1.1914e+08,1,1.56,0.77,9.4,0.063522,-0.0014659,-0.61233,-0.58899,8.6845,-5.9853,1.0841,-0.02,0.08,0.05,82.74
1890,1.1915e+08,1,1.56,0.77,9.41,0.059987,-0.00018015,-0.61384,-0.59513,8.683,-5.9851,1.0774,-0.02,0.08,0.05,82.74
1935,1.1916e+08,1,1.57,0.77,9.41,0.057745,0.00096621,-0.61356,-0.59855,8.6815,-5.9848,1.0713,-0.02,0.08,0.05,82.74
1983,1.1917e+08,1,1.57,0.78,9.41,0.054803,0.0022357,-0.61196,-0.60029,8.6801,-5.9846,1.0651,-0.02,0.08,0.05,82.74
2027,1.1918e+08,1,1.57,0.78,9.42,0.05298,0.0032379,-0.61104,-0.60245,8.6789,-5.9843,1.0585,-0.02,0.08,0.05,82.74
2073,1.1919e+08,1,1.58,0.78,9.42,0.053234,0.0036678,-0.60971,-0.60347,8.6794,-5.9843,1.0525,-0.02,0.08,0.05,82.74
2117,1.192e+08,1,1.58,0.78,9.43,0.051406,0.0060789,-0.60979,-0.60527,8.6783,-5.984,1.0465,-0.02,0.08,0.05,82.74
2162,1.1922e+08,1,1.58,0.79,9.43,0.04913,0.006546,-0.60968,-0.60634,8.6773,-5.9837,1.04,-0.02,0.08,0.05,82.74
2208,1.1923e+08,1,1.58,0.79,9.43,0.045895,0.0076608,-0.60728,-0.60166,8.6752,-5.9841,1.0356,-0.02,0.08,0.05,82.74
2251,1.1924e+08,1,1.57,0.79,9.44,0.043726,0.0080687,-0.60725,-0.58956,8.6732,-5.9845,1.0323,-0.02,0.08,0.05,82.74
2295,1.1925e+08,1,1.57,0.8,9.44,0.043064,0.0089489,-0.60728,-0.56816,8.6737,-5.9844,1.0262,-0.02,0.08,0.05,82.74
2344,1.1926e+08,1,1.56,0.8,9.44,0.04214,0.0094608,-0.60419,-0.54264,8.6717,-5.9847,1.0234,-0.02,0.08,0.05,82.74
2389,1.1927e+08,1,1.56,0.8,9.44,0.040228,0.009496,-0.60441,-0.52594,8.6699,-5.9851,1.0204,-0.02,0.08,0.05,82.74
2433,1.1928e+08,1,1.56,0.8,9.44,0.039721,0.0094683,-0.60396,-0.50243,8.6703,-5.985,1.0143,-0.02,0.08,0.05,82.74
2478,1.1929e+08,1,1.56,0.8,9.44,0.037476,0.0086661,-0.60236,-0.47932,8.6686,-5.9853,1.0107,-0.02,0.08,0.05,82.74
2523,1.193e+08,1,1.56,0.8,9.44,0.034661,0.0085332,-0.60117,-0.46002,8.667,-5.9856,1.0076,-0.02,0.08,0.05,82.74
2568,1.1931e+08,1,1.56,0.8,9.44,0.031953,0.0085989,-0.59838,-0.44,8.6655,-5.9859,1.0044,-0.02,0.08,0.05,82.74
2613,1.1932e+08,1,1.56,0.8,9.45,0.031657,0.0083935,-0.59868,-0.42304,8.6658,-5.9858,0.99839,-0.02,0.08,0.05,82.74
2658,1.1933e+08,1,1.56,0.8,9.45,0.029721,0.0095432,-0.59743,-0.40812,8.6644,-5.9861,0.99514,-0.02,0.08,0.05,82.74
2703,1.1934e+08,1,1.57,0.81,9.45,0.027167,0.0092544,-0.59799,-0.39628,8.6632,-5.9864,0.99125,-0.02,0.08,0.05,82.74
2747,1.1935e+08,1,1.57,0.8,9.45,0.026184,0.0094349,-0.59649,-0.38526,8.662,-5.9867,0.98782,-0.02,0.08,0.05,82.74
2796,1.1936e+08,1,1.57,0.81,9.46,0.025325,0.0094624,-0.59426,-0.37643,8.6609,-5.9869,0.98425,-0.02,0.08,0.05,82.74
2840,1.1937e+08,1,1.58,0.81,9.46,0.024653,0.009205,-0.59547,-0.36929,8.6612,-5.9868,0.9777,-0.02,0.08,0.05,82.74
2886,1.1938e+08,1,1.58,0.81,9.47,0.024675,0.0087236,-0.59346,-0.36287,8.6602,-5.9871,0.97404,-0.02,0.08,0.05,82.74
2930,1.1939e+08,1,1.58,0.81,9.47,0.022426,0.00914,-0.59385,-0.36335,8.6593,-5.9873,0.9704,-0.02,0.08,0.05,82.74
2976,1.194e+08,1,1.58,0.81,9.48,0.022696,0.0080536,-0.59122,-0.36234,8.6595,-5.9872,0.96384,-0.02,0.08,0.05,82.74
3022,1.1942e+08,1,1.57,0.81,9.48,0.020183,0.0088266,-0.59015,-0.36646,8.6588,-5.9875,0.9578,-0.02,0.08,0.05,82.74
3066,1.1943e+08,1,1.57,0.81,9.48,0.017818,0.008387,-0.58644,-0.35688,8.6571,-5.9879,0.95673,-0.02,0.08,0.05,82.74
3111,1.1944e+08,1,1.56,0.81,9.47,0.015817,0.0094495,-0.58512,-0.34397,8.6556,-5.9884,0.95604,-0.02,0.08,0.05,82.74
3156,1.1945e+08,1,1.56,0.81,9.48,0.014874,0.0096476,-0.58182,-0.3202,8.6542,-5.9888,0.95512,-0.02,0.08,0.05,82.74
3203,1.1946e+08,1,1.56,0.82,9.48,0.014714,0.011045,-0.58168,-0.30399,8.6544,-5.9887,0.94935,-0.02,0.08,0.05,82.74
3249,1.1947e+08,1,1.56,0.82,9.48,0.013029,0.011286,-0.58058,-0.2883,8.6531,-5.9891,0.94821,-0.02,0.08,0.05,82.74
3294,1.1948e+08,1,1.56,0.82,9.48,0.011462,0.011575,-0.58072,-0.27305,8.6519,-5.9895,0.94684,-0.02,0.08,0.05,82.74
3339,1.1949e+08,1,1.56,0.83,9.48,0.010761,0.012634,-0.57876,-0.25892,8.6508,-5.9899,0.94547,-0.02,0.08,0.05,82.74
3384,1.195e+08,1,1.56,0.83,9.48,0.010179,0.012957,-0.57625,-0.24127,8.6498,-5.9902,0.94379,-0.02,0.08,0.05,82.74
3429,1.1951e+08,1,1.56,0.83,9.48,0.0095464,0.012842,-0.57675,-0.22835,8.6499,-5.9901,0.93804,-0.02,0.08,0.05,82.74
3473,1.1952e+08,1,1.56,0.83,9.49,0.0084497,0.012782,-0.57424,-0.21661,8.649,-5.9904,0.93592,-0.02,0.08,0.05,82.74
3519,1.1953e+08,1,1.56,0.82,9.49,0.0077926,0.013105,-0.57206,-0.20428,8.6482,-5.9908,0.9341,-0.02,0.08,0.05,82.74
3565,1.1954e+08,1,1.56,0.82,9.49,0.0069029,0.014508,-0.56826,-0.19495,8.6475,-5.9911,0.93219,-0.02,0.08,0.05,82.74
3609,1.1955e+08,1,1.56,0.82,9.5,0.0058211,0.01502,-0.56565,-0.1912,8.6469,-5.9913,0.93013,-0.02,0.08,0.05,82.74
3657,1.1956e+08,1,1.56,0.81,9.5,0.0054524,0.014099,-0.5668,-0.19279,8.647,-5.9912,0.92394,-0.02,0.08,0.05,82.74
3702,1.1957e+08,1,1.56,0.81,9.5,0.0047814,0.014698,-0.56575,-0.19674,8.6464,-5.9914,0.92174,-0.02,0.08,0.05,82.74
3747,1.1958e+08,1,1.56,0.81,9.5,0.0044411,0.015262,-0.564,-0.20186,8.6459,-5.9917,0.91936,-0.02,0.08,0.05,82.74
3793,1.1959e+08,1,1.55,0.81,9.5,0.0032887,0.014036,-0.56336,-0.20892,8.6455,-5.9919,0.91696,-0.02,0.08,0.05,82.74
3837,1.196e+08,1,1.55,0.81,9.5,0.0013073,0.01598,-0.56468,-0.21828,8.6451,-5.9921,0.91435,-0.02,0.08,0.05,82.74
3887,1.1961e+08,1,1.56,0.81,9.5,0.0012634,0.015978,-0.56321,-0.22349,8.6449,-5.9923,0.9096,-0.02,0.08,0.05,82.74
3928,1.1963e+08,1,1.55,0.81,9.5,0.0010147,0.015854,-0.56179,-0.22939,8.6436,-5.9928,0.90792,-0.02,0.08,0.05,82.74
3975,1.1964e+08,1,1.55,0.81,9.5,-0.00061145,0.016032,-0.55851,-0.21783,8.6424,-5.9934,0.90824,-0.02,0.08,0.05,82.74
4022,1.1965e+08,1,1.55,0.81,9.5,-0.00022983,0.016475,-0.56018,-0.20854,8.6424,-5.9932,0.90263,-0.02,0.08,0.05,82.74
4066,1.1966e+08,1,1.54,0.81,9.5,-0.001525,0.015991,-0.55575,-0.1919,8.6412,-5.9937,0.90272,-0.02,0.08,0.05,82.74
4116,1.1967e+08,1,1.55,0.81,9.5,-0.0030628,0.016347,-0.55239,-0.17353,8.6402,-5.9942,0.90258,-0.02,0.08,0.05,82.74
4160,1.1968e+08,1,1.55,0.81,9.5,-0.0029093,0.01766,-0.55095,-0.15877,8.6393,-5.9947,0.9017,-0.02,0.08,0.05,82.74
4205,1.1969e+08,1,1.55,0.81,9.5,-0.0046547,0.018049,-0.55085,-0.14825,8.6384,-5.9952,0.90108,-0.02,0.08,0.05,82.74
4249,1.197e+08,1,1.55,0.81,9.5,-0.0050811,0.017191,-0.55154,-0.14173,8.6384,-5.995,0.89563,-0.02,0.08,0.05,82.74
4294,1.1971e+08,1,1.55,0.81,9.5,-0.0066041,0.015966,-0.54975,-0.1352,8.6376,-5.9954,0.89472,-0.02,0.08,0.05,82.74
4339,1.1972e+08,1,1.55,0.81,9.51,-0.0072874,0.017111,-0.55191,-0.14499,8.6375,-5.9953,0.8893,-0.02,0.08,0.05,82.74
4383,1.1973e+08,1,1.55,0.81,9.51,-0.0088741,0.0169,-0.55007,-0.15424,8.6367,-5.9957,0.88863,-0.02,0.08,0.05,82.74
4428,1.1974e+08,1,1.54,0.81,9.51,-0.0099565,0.016702,-0.54888,-0.16038,8.636,-5.9961,0.88774,-0.02,0.08,0.05,82.74
4473,1.1975e+08,1,1.54,0.81,9.51,-0.010271,0.01825,-0.54729,-0.16657,8.6353,-5.9965,0.88663,-0.02,0.08,0.05,82.74
4518,1.1976e+08,1,1.54,0.81,9.51,-0.011,0.018571,-0.54641,-0.16645,8.6352,-5.9963,0.8811,-0.02,0.08,0.05,82.74
4566,1.1977e+08,1,1.54,0.81,9.51,-0.011707,0.020038,-0.54463,-0.17339,8.6346,-5.9966,0.8799,-0.02,0.08,0.05,82.74
4611,1.1978e+08,1,1.54,0.81,9.51,-0.01216,0.019972,-0.54367,-0.18355,8.634,-5.997,0.87849,-0.02,0.08,0.05,82.74
4655,1.1979e+08,1,1.53,0.81,9.51,-0.013147,0.020971,-0.54249,-0.18879,8.6335,-5.9973,0.87636,-0.02,0.08,0.05,82.74
4700,1.198e+08,1,1.53,0.82,9.51,-0.013551,0.021599,-0.54418,-0.19232,8.6334,-5.997,0.87094,-0.02,0.08,0.05,82.74
4746,1.1981e+08,1,1.53,0.82,9.51,-0.015349,0.021876,-0.54434,-0.19835,8.6329,-5.9973,0.86862,-0.02,0.08,0.05,82.74
4792,1.1982e+08,1,1.53,0.82,9.52,-0.017124,0.022711,-0.54272,-0.20362,8.6325,-5.9975,0.86669,-0.02,0.08,0.05,82.74
4831,1.1983e+08,1,1.53,0.82,9.51,-0.019488,0.023843,-0.53858,-0.20203,8.6309,-5.9982,0.86752,-0.02,0.08,0.05,82.74
4876,1.1984e+08,1,1.54,0.82,9.52,-0.020024,0.024335,-0.53735,-0.19704,8.6307,-5.9979,0.86218,-0.02,0.08,0.05,82.74
4921,1.1985e+08,1,1.54,0.82,9.52,-0.021357,0.023196,-0.53421,-0.18578,8.6291,-5.9986,0.86385,-0.02,0.08,0.05,82.74
4967,1.1986e+08,1,1.54,0.82,9.53,-0.022779,0.023693,-0.53359,-0.17035,8.6277,-5.9992,0.86517,-0.02,0.08,0.05,82.74
5015,1.1987e+08,1,1.54,0.82,9.53,-0.024229,0.022216,-0.52952,-0.14632,8.6263,-5.9997,0.86626,-0.02,0.08,0.05,82.74
5060,1.1988e+08,1,1.54,0.82,9.53,-0.025913,0.022226,-0.52586,-0.1227,8.6251,-6.0003,0.86663,-0.02,0.08,0.05,82.74
5104,1.1989e+08,1,1.54,0.81,9.54,-0.027136,0.021504,-0.52394,-0.10513,8.6239,-6.0008,0.86719,-0.02,0.08,0.05,82.74
5150,1.1991e+08,1,1.54,0.81,9.54,-0.028622,0.023183,-0.52349,-0.08477,8.6228,-6.0013,0.86696,-0.02,0.08,0.05,82.74
5194,1.1992e+08,1,1.54,0.81,9.54,-0.029563,0.02384,-0.52265,-0.064326,8.6225,-6.001,0.86122,-0.02,0.08,0.05,82.74
5241,1.1993e+08,1,1.54,0.82,9.54,-0.03037,0.02337,-0.52053,-0.051094,8.6214,-6.0015,0.86157,-0.02,0.08,0.05,82.74
5286,1.1994e+08,1,1.54,0.82,9.54,-0.031667,0.023498,-0.51878,-0.043233,8.6204,-6.002,0.86169,-0.02,0.08,0.05,82.74
5330,1.1995e+08,1,1.54,0.82,9.54,-0.03247,0.023777,-0.51824,-0.041794,8.6195,-6.0024,0.86164,-0.02,0.08,0.05,82.74
5375,1.1996e+08,1,1.54,0.82,9.55,-0.033957,0.022822,-0.5179,-0.042718,8.6187,-6.0028,0.86131,-0.02,0.08,0.05,82.74
5419,1.1997e+08,1,1.54,0.82,9.55,-0.033842,0.023083,-0.51738,-0.040367,8.6183,-6.0025,0.85562,-0.02,0.08,0.05,82.74
5468,1.1998e+08,1,1.54,0.82,9.55,-0.033744,0.023757,-0.51887,-0.047255,8.6175,-6.0029,0.85509,-0.02,0.08,0.05,82.74
5514,1.1999e+08,1,1.54,0.81,9.55,-0.034551,0.02417,-0.51705,-0.048839,8.6168,-6.0033,0.85435,-0.02,0.08,0.05,82.74
5559,1.2e+08,1,1.54,0.81,9.55,-0.033897,0.023469,-0.51572,-0.062165,8.6164,-6.003,0.84914,-0.02,0.08,0.05,82.74
5606,1.2001e+08,1,1.54,0.81,9.55,-0.035074,0.024135,-0.5161,-0.078431,8.6157,-6.0034,0.84833,-0.02,0.08,0.05,82.74
5644,1.2002e+08,1,1.54,0.81,9.55,-0.037716,0.023909,-0.5147,-0.088765,8.6137,-6.0044,0.84938,-0.02,0.08,0.05,82.74
5689,1.2003e+08,1,1.55,0.81,9.56,-0.040077,0.022566,-0.51333,-0.08363,8.6119,-6.0054,0.8513,-0.02,0.08,0.05,82.74
5734,1.2004e+08,1,1.55,0.81,9.57,-0.042928,0.022577,-0.51381,-0.078613,8.6101,-6.0064,0.85285,-0.02,0.08,0.05,82.74
5778,1.2005e+08,1,1.55,0.81,9.57,-0.043285,0.022401,-0.5139,-0.069231,8.6097,-6.0061,0.84779,-0.02,0.08,0.05,82.74
5823,1.2006e+08,1,1.55,0.8,9.57,-0.045257,0.022637,-0.51132,-0.073313,8.6079,-6.0071,0.84926,-0.02,0.08,0.05,82.74
5867,1.2007e+08,1,1.54,0.8,9.57,-0.047921,0.021,-0.50913,-0.072381,8.6062,-6.008,0.85032,-0.02,0.08,0.05,82.74
5915,1.2008e+08,1,1.54,0.8,9.57,-0.048287,0.02023,-0.5081,-0.06201,8.6057,-6.0078,0.84478,-0.02,0.08,0.05,82.74
5961,1.2009e+08,1,1.53,0.8,9.57,-0.050682,0.019413,-0.50657,-0.056833,8.604,-6.0086,0.84513,-0.02,0.08,0.05,82.74
6005,1.201e+08,1,1.53,0.8,9.57,-0.052528,0.019019,-0.50504,-0.049228,8.6025,-6.0095,0.84579,-0.02,0.08,0.05,82.74
6050,1.2011e+08,1,1.53,0.8,9.57,-0.053626,0.018625,-0.50408,-0.043264,8.6011,-6.0103,0.84617,-0.02,0.08,0.05,82.74
6094,1.2012e+08,1,1.53,0.8,9.57,-0.055535,0.017348,-0.50318,-0.042375,8.5997,-6.0111,0.84631,-0.02,0.08,0.05,82.74
6139,1.2013e+08,1,1.53,0.8,9.57,-0.056561,0.015674,-0.50279,-0.043806,8.5983,-6.0119,0.84643,-0.02,0.08,0.05,82.74
6183,1.2014e+08,1,1.52,0.8,9.57,-0.057708,0.015857,-0.50274,-0.040879,8.5977,-6.0117,0.84089,-0.02,0.08,0.05,82.74
6228,1.2015e+08,1,1.53,0.8,9.57,-0.059126,0.015977,-0.50028,-0.042425,8.5964,-6.0125,0.84086,-0.02,0.08,0.05,82.74
6274,1.2016e+08,1,1.53,0.8,9.57,-0.059159,0.01494,-0.50014,-0.058883,8.5958,-6.0123,0.83535,-0.02,0.08,0.05,82.74
6318,1.2017e+08,1,1.53,0.8,9.57,-0.061615,0.013861,-0.49838,-0.076796,8.5945,-6.0131,0.8352,-0.02,0.08,0.04,82.74
6368,1.2018e+08,1,1.53,0.8,9.56,-0.062465,0.014235,-0.49715,-0.1003,8.5932,-6.0138,0.83433,-0.02,0.08,0.04,82.74
6412,1.2019e+08,1,1.53,0.8,9.56,-0.062584,0.015122,-0.49568,-0.11297,8.5925,-6.0137,0.82891,-0.02,0.08,0.04,82.74
6458,1.202e+08,1,1.53,0.8,9.55,-0.061841,0.014414,-0.49434,-0.12799,8.5913,-6.0144,0.82885,-0.02,0.08,0.04,82.74
6505,1.2021e+08,1,1.54,0.8,9.54,-0.062489,0.014753,-0.49277,-0.14329,8.5907,-6.0142,0.82391,-0.02,0.08,0.04,82.74
6544,1.2023e+08,1,1.53,0.79,9.55,-0.063607,0.012989,-0.48863,-0.14655,8.5891,-6.0152,0.82561,-0.02,0.08,0.04,82.74
6589,1.2024e+08,1,1.53,0.79,9.56,-0.064822,0.011121,-0.48602,-0.15773,8.5877,-6.0163,0.82836,-0.02,0.08,0.04,82.74
6633,1.2025e+08,1,1.54,0.78,9.57,-0.065177,0.011463,-0.48913,-0.15059,8.5871,-6.0162,0.8236,-0.02,0.08,0.04,82.74
6678,1.2026e+08,1,1.53,0.79,9.58,-0.066564,0.012028,-0.48474,-0.14045,8.5858,-6.0172,0.82566,-0.02,0.08,0.04,82.74
6722,1.2027e+08,1,1.52,0.79,9.59,-0.066928,0.011419,-0.48135,-0.12708,8.5845,-6.0182,0.82811,-0.02,0.08,0.04,82.74
6767,1.2028e+08,1,1.53,0.8,9.59,-0.067499,0.010477,-0.48159,-0.11211,8.5834,-6.0191,0.83023,-0.02,0.08,0.04,82.74
6815,1.2029e+08,1,1.52,0.79,9.59,-0.068282,0.011238,-0.47965,-0.082978,8.5827,-6.019,0.825,-0.02,0.08,0.04,82.74
6860,1.203e+08,1,1.52,0.79,9.58,-0.068572,0.010876,-0.47748,-0.062983,8.5816,-6.0199,0.82685,-0.02,0.08,0.04,82.74
6905,1.2031e+08,1,1.52,0.8,9.57,-0.068993,0.0087007,-0.47556,-0.04379,8.5805,-6.0208,0.82795,-0.02,0.08,0.04,82.74
6951,1.2032e+08,1,1.53,0.8,9.56,-0.070278,0.0066613,-0.47479,-0.037856,8.5796,-6.0217,0.82925,-0.02,0.08,0.04,82.74
6996,1.2033e+08,1,1.54,0.81,9.55,-0.070554,0.0081796,-0.47404,-0.02391,8.5789,-6.0216,0.82404,-0.02,0.08,0.04,82.74
7040,1.2034e+08,1,1.53,0.81,9.55,-0.070436,0.0079158,-0.47269,-0.022403,8.578,-6.0224,0.82511,-0.02,0.08,0.04,82.74
7085,1.2035e+08,1,1.52,0.82,9.54,-0.069696,0.0067968,-0.471,-0.021586,8.5772,-6.0232,0.82624,-0.02,0.08,0.04,82.74
7131,1.2036e+08,1,1.51,0.81,9.55,-0.07051,0.0071305,-0.47106,-0.019959,8.5765,-6.0231,0.82153,-0.02,0.08,0.04,82.74
7175,1.2037e+08,1,1.51,0.81,9.55,-0.071079,0.0072337,-0.47031,-0.020496,8.5757,-6.024,0.82243,-0.02,0.08,0.04,82.74
7220,1.2038e+08,1,1.51,0.81,9.56,-0.070926,0.006355,-0.46804,-0.018955,8.575,-6.0247,0.82309,-0.02,0.08,0.04,82.74
7268,1.2039e+08,1,1.51,0.81,9.56,-0.07029,0.0064352,-0.46508,-0.024535,8.5743,-6.0247,0.81794,-0.02,0.08,0.04,82.74
7314,1.204e+08,1,1.51,0.82,9.57,-0.070722,0.0077832,-0.46644,-0.040133,8.5736,-6.0254,0.81828,-0.02,0.08,0.04,82.74
7358,1.2041e+08,1,1.5,0.82,9.58,-0.071481,0.0070398,-0.46324,-0.052752,8.5729,-6.0253,0.81378,-0.02,0.08,0.04,82.74
7407,1.2042e+08,1,1.51,0.83,9.58,-0.072496,0.0057438,-0.46248,-0.066753,8.5722,-6.0261,0.81403,-0.02,0.08,0.04,82.74
7449,1.2043e+08,1,1.52,0.84,9.58,-0.071275,0.0056712,-0.45888,-0.067653,8.5708,-6.0269,0.81657,-0.02,0.08,0.04,82.74
7491,1.2044e+08,1,1.52,0.83,9.57,-0.071278,0.0023683,-0.46128,-0.062424,8.5694,-6.0277,0.81875,-0.02,0.08,0.04,82.74
7536,1.2045e+08,1,1.51,0.83,9.57,-0.07353,0.0030814,-0.45895,-0.051155,8.5683,-6.0284,0.82127,-0.02,0.08,0.04,82.74
7581,1.2046e+08,1,1.51,0.83,9.57,-0.077404,0.0049732,-0.45495,-0.035053,8.5671,-6.0292,0.82306,-0.02,0.08,0.04,82.74
7626,1.2048e+08,1,1.52,0.82,9.57,-0.074947,0.0027744,-0.45553,-0.018128,8.5661,-6.0299,0.82491,-0.02,0.08,0.04,82.74
7671,1.2049e+08,1,1.52,0.82,9.56,-0.074083,0.00096754,-0.4533,0.0079787,8.5653,-6.0298,0.81993,-0.02,0.08,0.04,82.74
7719,1.205e+08,1,1.51,0.82,9.55,-0.077092,0.0030445,-0.44905,0.026934,8.5643,-6.0305,0.82151,-0.02,0.08,0.04,82.74
7764,1.2051e+08,1,1.51,0.82,9.54,-0.076413,0.0028759,-0.44809,0.042555,8.5634,-6.0312,0.82236,-0.02,0.08,0.04,82.74
7808,1.2052e+08,1,1.51,0.83,9.55,-0.07377,0.0016743,-0.44694,0.049539,8.5626,-6.0318,0.82338,-0.02,0.08,0.04,82.74
7853,1.2053e+08,1,1.5,0.83,9.55,-0.079719,0.00035428,-0.44479,0.053414,8.5617,-6.0324,0.8238,-0.02,0.08,0.04,82.74
7898,1.2054e+08,1,1.51,0.83,9.55,-0.07962,-0.00016385,-0.4403,0.058171,8.561,-6.0329,0.82459,-0.02,0.08,0.04,82.74
7944,1.2055e+08,1,1.51,0.84,9.55,-0.076382,0.0017511,-0.44196,0.055029,8.5602,-6.0329,0.8202,-0.02,0.08,0.04,82.74
7990,1.2056e+08,1,1.5,0.83,9.57,-0.079235,-0.0017991,-0.44063,0.049315,8.5595,-6.0334,0.82046,-0.02,0.08,0.04,82.74
8034,1.2057e+08,1,1.5,0.84,9.57,-0.082548,-0.00055651,-0.44221,0.043672,8.5588,-6.034,0.82082,-0.02,0.08,0.04,82.74
8079,1.2058e+08,1,1.49,0.83,9.57,-0.076261,0.0013061,-0.43606,0.042941,8.5582,-6.0345,0.82093,-0.02,0.08,0.04,82.74
8123,1.2059e+08,1,1.49,0.83,9.58,-0.07711,-0.00082048,-0.43413,0.03158,8.5577,-6.0349,0.82082,-0.02,0.08,0.04,82.74
8172,1.206e+08,1,1.49,0.82,9.58,-0.080704,-0.0012236,-0.43479,0.016463,8.5572,-6.0354,0.8206,-0.02,0.08,0.04,82.74
8218,1.2061e+08,1,1.49,0.82,9.58,-0.076531,-0.0001004,-0.43311,0.0059765,8.5561,-6.0362,0.82086,-0.02,0.08,0.04,82.74
8261,1.2062e+08,1,1.49,0.82,9.58,-0.075181,0.00022621,-0.42978,0.0030025,8.5554,-6.0362,0.81656,-0.02,0.08,0.04,82.74
8305,1.2063e+08,1,1.48,0.84,9.57,-0.076968,-0.0050248,-0.42832,-0.0011471,8.5547,-6.037,0.81827,-0.02,0.08,0.04,82.74
8350,1.2064e+08,1,1.48,0.83,9.56,-0.076,-0.0042543,-0.42628,-1.4124e-05,8.5539,-6.0378,0.81954,-0.02,0.08,0.04,82.74
8397,1.2065e+08,1,1.47,0.85,9.56,-0.0753,-0.0054921,-0.42422,-0.007495,8.5534,-6.0386,0.8212,-0.02,0.08,0.04,82.74
8444,1.2066e+08,1,1.46,0.84,9.55,-0.078268,-0.0053164,-0.42276,-0.0051182,8.5525,-6.0387,0.8165,-0.02,0.08,0.04,82.74
8490,1.2068e+08,1,1.46,0.86,9.53,-0.078203,-0.0090837,-0.41707,-0.0059771,8.5519,-6.0394,0.81787,-0.02,0.08,0.04,82.74
8534,1.2069e+08,1,1.46,0.85,9.54,-0.077968,-0.0090587,-0.42083,-0.0098528,8.5514,-6.0402,0.81892,-0.02,0.08,0.04,82.74
8580,1.207e+08,1,1.46,0.85,9.54,-0.079075,-0.0095342,-0.41678,-0.0083767,8.5509,-6.0409,0.81978,-0.02,0.08,0.04,82.74
8628,1.2071e+08,1,1.46,0.84,9.55,-0.080255,-0.010625,-0.41973,-0.014196,8.5505,-6.0415,0.82032,-0.02,0.08,0.04,82.74
8674,1.2072e+08,1,1.47,0.84,9.55,-0.080102,-0.012056,-0.41286,-0.0055004,8.5497,-6.0416,0.81619,-0.02,0.08,0.04,82.74
8719,1.2073e+08,1,1.48,0.83,9.56,-0.080072,-0.013616,-0.41533,-0.013166,8.5492,-6.0423,0.81611,-0.02,0.08,0.04,82.74
8766,1.2074e+08,1,1.47,0.85,9.57,-0.079619,-0.0097075,-0.41201,-0.014162,8.5486,-6.043,0.81511,-0.02,0.08,0.04,82.74
8811,1.2075e+08,1,1.46,0.83,9.57,-0.078561,-0.010466,-0.4074,-0.023729,8.5482,-6.0436,0.81538,-0.02,0.08,0.04,82.74
8855,1.2076e+08,1,1.46,0.84,9.57,-0.080331,-0.0085321,-0.40336,-0.032024,8.5473,-6.0437,0.81096,-0.02,0.08,0.04,82.74
8900,1.2077e+08,1,1.46,0.84,9.58,-0.080691,-0.0072757,-0.40214,-0.052692,8.547,-6.0443,0.81116,-0.02,0.08,0.04,82.74
8944,1.2078e+08,1,1.46,0.86,9.58,-0.082939,-0.0051715,-0.40125,-0.063099,8.5466,-6.0448,0.81119,-0.02,0.08,0.04,82.74
8991,1.2079e+08,1,1.46,0.85,9.58,-0.081826,-0.007634,-0.40258,-0.075037,8.5458,-6.0449,0.80713,-0.02,0.08,0.04,82.74
9039,1.208e+08,1,1.46,0.86,9.56,-0.080921,-0.0086612,-0.39612,-0.079992,8.5455,-6.0455,0.80697,-0.02,0.08,0.04,82.74
9084,1.2081e+08,1,1.45,0.86,9.58,-0.081152,-0.008257,-0.39524,-0.087895,8.5452,-6.046,0.80623,-0.02,0.08,0.04,82.74
9128,1.2082e+08,1,1.43,0.87,9.56,-0.081114,-0.0053568,-0.39098,-0.087973,8.5447,-6.0469,0.80808,-0.02,0.08,0.04,82.74
9170,1.2083e+08,1,1.43,0.86,9.57,-0.07676,-0.006905,-0.38715,-0.076278,8.5442,-6.0479,0.80959,-0.02,0.08,0.04,82.74
9214,1.2084e+08,1,1.42,0.85,9.55,-0.077712,-0.0099519,-0.3845,-0.063668,8.5439,-6.0487,0.81128,-0.02,0.08,0.04,82.74
9262,1.2086e+08,1,1.46,0.85,9.56,-0.071121,-0.015941,-0.38094,-0.045584,8.5434,-6.0496,0.8118,-0.02,0.08,0.04,82.74
9307,1.2087e+08,1,1.44,0.86,9.56,-0.071499,-0.015543,-0.39504,-0.051959,8.5432,-6.0505,0.81327,-0.02,0.08,0.04,82.74
9352,1.2088e+08,1,1.46,0.86,9.56,-0.069841,-0.019594,-0.38026,-0.024348,8.543,-6.0513,0.81436,-0.02,0.08,0.04,82.74
9398,1.2089e+08,1,1.45,0.84,9.57,-0.077043,-0.020564,-0.39574,-0.023425,8.5422,-6.0515,0.81015,-0.02,0.08,0.04,82.74
9442,1.209e+08,1,1.44,0.85,9.57,-0.078091,-0.019273,-0.37818,0.0033793,8.542,-6.0523,0.81095,-0.02,0.08,0.04,82.74
9490,1.2091e+08,1,1.46,0.85,9.57,-0.083162,-0.016885,-0.39105,-0.0020736,8.5419,-6.0531,0.81174,-0.02,0.08,0.04,82.74
9538,1.2092e+08,1,1.45,0.88,9.57,-0.081303,-0.015666,-0.37488,0.012534,8.5417,-6.0538,0.81217,-0.02,0.08,0.04,82.74
9583,1.2093e+08,1,1.47,0.89,9.59,-0.081154,-0.0099211,-0.37328,0.015247,8.5416,-6.0545,0.81211,-0.02,0.08,0.04,82.74
9628,1.2094e+08,1,1.47,0.88,9.57,-0.073886,-0.0084982,-0.37824,0.0056099,8.5415,-6.0552,0.81222,-0.02,0.08,0.04,82.74
9672,1.2095e+08,1,1.5,0.9,9.59,-0.068904,-0.015336,-0.37453,0.0072746,8.5407,-6.0553,0.80846,-0.02,0.08,0.04,82.74
9721,1.2096e+08,1,1.51,0.85,9.59,-0.076514,-0.015933,-0.36634,-0.0064102,8.5404,-6.0561,0.80771,-0.02,0.08,0.04,82.74
9766,1.2097e+08,1,1.49,0.85,9.56,-0.075427,-0.014555,-0.37896,-0.034667,8.5396,-6.0562,0.80357,-0.02,0.08,0.04,82.74
9811,1.2098e+08,1,1.47,0.86,9.59,-0.072508,-0.01921,-0.37894,-0.048834,8.5396,-6.0569,0.80374,-0.02,0.08,0.04,82.74
9855,1.2099e+08,1,1.48,0.85,9.57,-0.070825,-0.019995,-0.37395,-0.057676,8.5394,-6.0576,0.80332,-0.02,0.08,0.04,82.74
9900,1.21e+08,1,1.49,0.87,9.58,-0.070438,-0.023628,-0.36693,-0.065419,8.5387,-6.0578,0.79955,-0.02,0.08,0.04,82.74
9948,1.2101e+08,1,1.43,0.86,9.58,-0.075984,-0.014828,-0.37048,-0.082573,8.5387,-6.0585,0.7994,-0.02,0.08,0.04,82.74
9995,1.2103e+08,1,1.46,0.87,9.58,-0.071532,-0.033455,-0.36584,-0.090556,8.5385,-6.0597,0.80224,-0.02,0.08,0.04,82.74
10039,1.2104e+08,1,1.48,0.89,9.58,-0.068918,-0.02603,-0.36237,-0.086582,8.5382,-6.0603,0.80433,-0.02,0.08,0.04,82.74
10086,1.2105e+08,1,1.45,0.91,9.58,-0.069152,-0.011204,-0.36695,-0.077251,8.5374,-6.0605,0.80037,-0.02,0.08,0.04,82.74
10130,1.2106e+08,1,1.34,0.9,9.6,-0.071015,0.0058862,-0.35627,-0.055518,8.5371,-6.0611,0.80211,-0.02,0.08,0.04,82.74
10174,1.2107e+08,1,1.28,0.94,9.61,-0.070867,0.0082884,-0.36299,-0.045316,8.5369,-6.0617,0.8036,-0.02,0.08,0.04,82.74
10219,1.2108e+08,1,1.34,0.89,9.61,-0.066213,-0.00051245,-0.36285,-0.034771,8.5366,-6.0623,0.80487,-0.02,0.08,0.04,82.74
10263,1.2109e+08,1,1.44,0.89,9.61,-0.064179,-0.018929,-0.36593,-0.029934,8.5359,-6.0624,0.80121,-0.02,0.08,0.04,82.74
10308,1.2111e+08,1,1.57,0.88,9.6,-0.072202,-0.034044,-0.36391,-0.023222,8.5356,-6.0629,0.8023,-0.02,0.08,0.04,82.74
10357,1.2112e+08,1,1.58,0.88,9.61,-0.078009,-0.032627,-0.36666,-0.021523,8.5354,-6.0635,0.8031,-0.02,0.08,0.04,82.74
10402,1.2113e+08,1,1.48,0.86,9.62,-0.081407,-0.011831,-0.35937,-0.012714,8.5352,-6.064,0.80413,-0.02,0.08,0.04,82.74
10447,1.2114e+08,1,1.37,0.85,9.63,-0.085761,-0.0095621,-0.35042,0.0034301,8.535,-6.0646,0.80462,-0.02,0.08,0.04,82.74
10491,1.2115e+08,1,1.4,0.84,9.64,-0.079497,-0.023491,-0.33818,0.01804,8.5342,-6.0649,0.80118,-0.02,0.08,0.04,82.74
10540,1.2116e+08,1,1.36,0.83,9.65,-0.084492,-0.026395,-0.34348,0.0078427,8.5337,-6.0656,0.80047,-0.02,0.08,0.04,82.74
10585,1.2117e+08,1,1.4,0.84,9.66,-0.084418,-0.041164,-0.34529,0.0024829,8.5336,-6.0662,0.80102,-0.02,0.08,0.04,82.74
10629,1.2118e+08,1,1.43,0.88,9.65,-0.077517,-0.035365,-0.34733,-0.0082185,8.5334,-6.0668,0.80128,-0.02,0.08,0.04,82.74
10674,1.2119e+08,1,1.42,0.9,9.66,-0.070032,-0.023523,-0.34972,-0.018325,8.5326,-6.0671,0.79776,-0.02,0.08,0.04,82.74
10719,1.212e+08,1,1.3,0.89,9.65,-0.070586,-0.024334,-0.35359,-0.041024,8.5324,-6.0678,0.79792,-0.02,0.08,0.04,82.74
10766,1.2122e+08,1,1.35,0.94,9.64,-0.072926,-0.02301,-0.35475,-0.057274,8.532,-6.0685,0.79677,-0.02,0.08,0.04,82.74
10815,1.2123e+08,1,1.27,0.92,9.64,-0.069495,-0.027261,-0.34055,-0.05044,8.5319,-6.0691,0.79652,-0.02,0.08,0.04,82.74
10861,1.2124e+08,1,1.34,0.93,9.62,-0.07622,-0.032236,-0.32883,-0.043442,8.5315,-6.0699,0.79506,-0.02,0.08,0.04,82.74
10909,1.2126e+08,1,1.33,0.91,9.62,-0.07554,-0.025603,-0.33687,-0.059546,8.5308,-6.0708,0.79592,-0.02,0.08,0.04,82.74
10954,1.2127e+08,1,1.28,0.92,9.62,-0.084891,-0.024292,-0.33445,-0.055684,8.5302,-6.0717,0.79727,-0.02,0.08,0.04,82.74
10999,1.2128e+08,1,1.29,0.91,9.63,-0.073628,-0.021505,-0.33044,-0.041648,8.5295,-6.0726,0.79808,-0.02,0.08,0.04,82.74
11044,1.2129e+08,1,1.33,0.93,9.64,-0.080153,-0.025638,-0.32564,-0.024244,8.5289,-6.0735,0.79921,-0.02,0.08,0.04,82.74
11088,1.213e+08,1,1.39,0.98,9.64,-0.072063,-0.034959,-0.32739,-0.016953,8.5282,-6.0739,0.79593,-0.02,0.08,0.04,82.74
11132,1.2131e+08,1,1.48,0.97,9.66,-0.065838,-0.056506,-0.32467,-0.0082141,8.5278,-6.0747,0.79722,-0.02,0.08,0.04,82.74
11177,1.2132e+08,1,1.52,0.98,9.66,-0.073084,-0.050014,-0.31709,0.0042184,8.5273,-6.0755,0.79802,-0.02,0.08,0.04,82.74
11225,1.2133e+08,1,1.46,1.01,9.67,-0.069492,-0.031339,-0.32143,0.0029652,8.5268,-6.0763,0.79855,-0.02,0.08,0.04,82.74
11271,1.2134e+08,1,1.27,0.97,9.67,-0.076797,-0.028671,-0.31743,0.009522,8.5265,-6.077,0.79927,-0.02,0.08,0.04,82.74
11316,1.2135e+08,1,1.26,0.96,9.67,-0.077172,-0.031169,-0.31861,0.012414,8.5261,-6.0778,0.79943,-0.02,0.08,0.04,82.74
11360,1.2136e+08,1,1.38,0.99,9.68,-0.066469,-0.044215,-0.30961,0.021596,8.5258,-6.0785,0.79994,-0.02,0.08,0.04,82.74
11405,1.2137e+08,1,1.36,0.99,9.67,-0.06906,-0.046969,-0.31089,0.021193,8.5249,-6.079,0.79593,-0.02,0.08,0.04,82.74
11450,1.2139e+08,1,1.37,0.99,9.68,-0.072771,-0.039684,-0.31761,0.0064695,8.5246,-6.0796,0.79646,-0.02,0.08,0.04,82.74
11494,1.214e+08,1,1.36,0.98,9.66,-0.076863,-0.035027,-0.323,-0.0078413,8.5243,-6.0802,0.7968,-0.02,0.08,0.04,82.74
11545,1.2141e+08,1,1.46,1,9.66,-0.074179,-0.039021,-0.32621,-0.018946,8.5238,-6.0809,0.79586,-0.02,0.08,0.04,82.74
11588,1.2142e+08,1,1.47,1.02,9.66,-0.073726,-0.044972,-0.32103,-0.021999,8.5234,-6.0817,0.79673,-0.02,0.08,0.04,82.74
11634,1.2143e+08,1,1.5,1.02,9.67,-0.075619,-0.047537,-0.32352,-0.026538,8.5226,-6.0821,0.7932,-0.02,0.08,0.04,82.74
11683,1.2144e+08,1,1.51,1.04,9.67,-0.074437,-0.043196,-0.32181,-0.025052,8.5225,-6.0827,0.79516,-0.02,0.08,0.04,82.74
11728,1.2145e+08,1,1.47,1.05,9.68,-0.077357,-0.039423,-0.31618,-0.010862,8.5223,-6.0834,0.79647,-0.02,0.08,0.04,82.74
11772,1.2146e+08,1,1.35,1.04,9.68,-0.077829,-0.033293,-0.31925,-0.0069682,8.5222,-6.084,0.79793,-0.02,0.08,0.04,82.74
11817,1.2148e+08,1,1.28,1.04,9.7,-0.073055,-0.037938,-0.3167,0.005742,8.5221,-6.0847,0.79873,-0.02,0.08,0.04,82.74
11861,1.2149e+08,1,1.23,1.07,9.71,-0.071857,-0.041702,-0.31429,0.014605,8.5219,-6.0854,0.79972,-0.02,0.08,0.04,82.74
11906,1.215e+08,1,1.3,1.1,9.71,-0.07165,-0.041104,-0.30918,0.022402,8.5218,-6.0859,0.80081,-0.02,0.08,0.04,82.74
11952,1.2151e+08,1,1.36,1.1,9.72,-0.073793,-0.035056,-0.3079,0.030855,8.5208,-6.0862,0.79736,-0.02,0.08,0.04,82.74
11996,1.2152e+08,1,1.37,1.11,9.72,-0.074867,-0.02949,-0.304,0.035956,8.5206,-6.0867,0.79803,-0.02,0.08,0.04,82.74
12041,1.2153e+08,1,1.34,1.09,9.73,-0.084157,-0.016065,-0.31176,0.029836,8.5205,-6.0871,0.79873,-0.02,0.08,0.04,82.74
12086,1.2154e+08,1,1.34,1.1,9.73,-0.091513,-0.017327,-0.31276,0.028389,8.5203,-6.0875,0.7992,-0.02,0.08,0.04,82.74
12134,1.2155e+08,1,1.38,1.17,9.75,-0.09034,-0.021846,-0.30695,0.030115,8.52,-6.0879,0.79919,-0.02,0.08,0.04,82.74
12178,1.2156e+08,1,1.41,1.22,9.76,-0.082613,-0.024537,-0.31518,0.01819,8.5196,-6.0884,0.79894,-0.02,0.08,0.04,82.74
12223,1.2157e+08,1,1.46,1.22,9.77,-0.082066,-0.02245,-0.32721,-0.0013357,8.5194,-6.0887,0.79882,-0.02,0.08,0.04,82.74
12272,1.2158e+08,1,1.55,1.08,9.77,-0.097356,-0.035808,-0.32661,-0.0074648,8.5188,-6.0892,0.79743,-0.02,0.08,0.04,82.74
12316,1.2159e+08,1,1.58,1.04,9.8,-0.097061,-0.033569,-0.3377,-0.027093,8.5179,-6.0895,0.79409,-0.02,0.08,0.04,82.74
12361,1.216e+08,1,1.56,1.04,9.84,-0.1035,-0.032742,-0.35015,-0.054421,8.5176,-6.0898,0.79339,-0.02,0.08,0.04,82.74
12405,1.2161e+08,1,1.55,1.02,9.87,-0.10353,-0.029482,-0.36395,-0.083704,8.5167,-6.0901,0.78977,-0.02,0.08,0.04,82.74
12452,1.2163e+08,1,1.64,0.98,9.94,-0.095348,-0.034954,-0.39962,-0.14037,8.5163,-6.0908,0.7907,-0.02,0.08,0.04,82.74
12497,1.2164e+08,1,1.62,0.96,9.99,-0.090537,-0.023835,-0.41808,-0.16159,8.5158,-6.0912,0.79075,-0.02,0.08,0.04,82.74
12548,1.2165e+08,1,1.64,0.93,10.04,-0.09129,-0.0091377,-0.44939,-0.19186,8.5147,-6.0914,0.78604,-0.02,0.08,0.04,82.74
12593,1.2166e+08,1,1.69,0.92,10.09,-0.09354,-0.010702,-0.46933,-0.21186,8.5142,-6.0917,0.78537,-0.02,0.08,0.04,82.74
12638,1.2167e+08,1,1.74,0.89,10.16,-0.095846,-0.011072,-0.49875,-0.24368,8.5136,-6.092,0.78388,-0.02,0.08,0.04,82.74
12682,1.2168e+08,1,1.79,0.88,10.24,-0.09306,-0.0052403,-0.53947,-0.28641,8.5125,-6.092,0.77817,-0.02,0.08,0.04,82.74
12727,1.217e+08,1,1.85,0.84,10.32,-0.093239,0.0022625,-0.56577,-0.31533,8.5119,-6.0922,0.77571,-0.02,0.08,0.04,82.74
12771,1.2171e+08,1,1.92,0.81,10.4,-0.10024,-0.0058169,-0.60565,-0.36141,8.5113,-6.0923,0.7728,-0.02,0.08,0.04,82.74
12816,1.2172e+08,1,1.98,0.8,10.49,-0.097486,0.0059417,-0.65392,-0.41457,8.5102,-6.0923,0.76589,-0.02,0.08,0.04,82.74
12863,1.2173e+08,1,2.08,0.76,10.6,-0.10331,0.012188,-0.67948,-0.45163,8.5096,-6.0923,0.76224,-0.02,0.08,0.04,82.74
12907,1.2174e+08,1,2.22,0.73,10.7,-0.10829,0.0047578,-0.71744,-0.49603,8.5085,-6.0922,0.75514,-0.02,0.08,0.04,82.74
12953,1.2175e+08,1,2.29,0.72,10.8,-0.10526,0.014246,-0.76936,-0.55389,8.5078,-6.0921,0.75051,-0.02,0.08,0.04,82.74
13001,1.2176e+08,1,2.33,0.66,10.91,-0.10199,0.030456,-0.79532,-0.58195,8.5073,-6.0921,0.74607,-0.02,0.08,0.04,82.74
13046,1.2177e+08,1,2.4,0.61,11.02,-0.10882,0.018919,-0.82582,-0.61066,8.5066,-6.0919,0.74027,-0.02,0.08,0.04,82.74
13091,1.2178e+08,1,2.44,0.57,11.14,-0.10583,0.022214,-0.86821,-0.65609,8.5059,-6.0916,0.73387,-0.02,0.08,0.04,82.74
13135,1.2179e+08,1,2.47,0.53,11.26,-0.11079,0.041087,-0.9045,-0.69227,8.5052,-6.0914,0.72695,-0.02,0.08,0.04,82.74
13180,1.218e+08,1,2.52,0.5,11.36,-0.11263,0.040259,-0.94274,-0.72804,8.5041,-6.091,0.71767,-0.02,0.08,0.04,82.74
13226,1.2182e+08,1,2.65,0.43,11.54,-0.10597,0.050557,-1.0034,-0.78581,8.504,-6.0896,0.7093,-0.02,0.08,0.04,82.74
13271,1.2183e+08,1,2.71,0.4,11.66,-0.10553,0.063558,-1.0404,-0.80751,8.504,-6.0884,0.7032,-0.02,0.08,0.04,82.74
13316,1.2184e+08,1,2.74,0.37,11.75,-0.10519,0.071266,-1.072,-0.82417,8.5029,-6.0877,0.69267,-0.02,0.08,0.04,82.74
13360,1.2185e+08,1,2.77,0.28,11.88,-0.10027,0.07608,-1.1091,-0.84575,8.503,-6.0863,0.68554,-0.02,0.08,0.04,82.74
13409,1.2186e+08,1,2.8,0.22,11.98,-0.099259,0.083994,-1.1485,-0.87168,8.5032,-6.085,0.67906,-0.02,0.08,0.04,82.74
13456,1.2187e+08,1,2.81,0.13,12.1,-0.088992,0.093763,-1.1799,-0.8913,8.5033,-6.0835,0.6707,-0.02,0.08,0.04,82.74
13500,1.2188e+08,1,2.83,0.02,12.22,-0.087686,0.085322,-1.2161,-0.91615,8.5023,-6.0825,0.65745,-0.02,0.08,0.04,82.74
13546,1.219e+08,1,2.8,-0.06,12.35,-0.092731,0.092944,-1.254,-0.94858,8.5024,-6.0809,0.64817,-0.02,0.08,0.04,82.74
13592,1.2191e+08,1,2.76,-0.14,12.46,-0.086672,0.12159,-1.2798,-0.97005,8.5025,-6.0793,0.63835,-0.02,0.08,0.04,82.74
13637,1.2192e+08,1,2.75,-0.23,12.59,-0.08402,0.13054,-1.311,-0.99901,8.5027,-6.0775,0.6294,-0.02,0.08,0.04,82.74
13682,1.2193e+08,1,2.73,-0.3,12.69,-0.088045,0.12963,-1.3556,-1.0403,8.5018,-6.0761,0.6148,-0.02,0.08,0.04,82.74
13726,1.2194e+08,1,2.67,-0.36,12.82,-0.089451,0.13801,-1.3814,-1.0659,8.502,-6.0742,0.60514,-0.02,0.08,0.04,82.74
13770,1.2195e+08,1,2.56,-0.37,12.93,-0.085806,0.15075,-1.4067,-1.0906,8.5022,-6.0723,0.59503,-0.02,0.08,0.04,82.74
13815,1.2196e+08,1,2.45,-0.41,13.07,-0.079692,0.15352,-1.4355,-1.1201,8.5023,-6.0702,0.58297,-0.02,0.08,0.04,82.74
13863,1.2197e+08,1,2.37,-0.41,13.18,-0.090445,0.15051,-1.465,-1.1498,8.5025,-6.0681,0.57177,-0.02,0.08,0.04,82.74
13909,1.2198e+08,1,2.27,-0.39,13.32,-0.095353,0.15902,-1.4938,-1.1806,8.5027,-6.0661,0.56022,-0.02,0.08,0.04,82.74
13954,1.2199e+08,1,2.15,-0.34,13.44,-0.08972,0.18138,-1.5145,-1.2017,8.5017,-6.0642,0.5437,-0.02,0.08,0.04,82.74
13999,1.22e+08,1,2.02,-0.29,13.58,-0.074787,0.1803,-1.5368,-1.229,8.5018,-6.0621,0.5313,-0.02,0.08,0.04,82.74
14043,1.2201e+08,1,1.88,-0.25,13.7,-0.072319,0.17292,-1.5729,-1.2792,8.502,-6.0597,0.51716,-0.02,0.08,0.04,82.74
14088,1.2202e+08,1,1.71,-0.19,13.82,-0.069611,0.18688,-1.5976,-1.3138,8.5013,-6.0577,0.49985,-0.02,0.08,0.04,82.74
14131,1.2203e+08,1,1.48,-0.13,13.95,-0.052809,0.19289,-1.6174,-1.3432,8.5015,-6.0552,0.4851,-0.02,0.08,0.04,82.74
14173,1.2204e+08,1,1.31,-0.09,14.06,-0.064059,0.19848,-1.6498,-1.38,8.5018,-6.0519,0.47104,-0.02,0.08,0.04,82.74
14218,1.2205e+08,1,1.14,-0.03,14.16,-0.069903,0.20215,-1.6726,-1.4049,8.5021,-6.0488,0.45845,-0.02,0.08,0.04,82.74
14262,1.2206e+08,1,0.97,0.02,14.27,-0.063289,0.21473,-1.6941,-1.4283,8.5025,-6.0456,0.44486,-0.02,0.08,0.04,82.74
14310,1.2207e+08,1,0.75,0.12,14.4,-0.044958,0.22992,-1.7185,-1.4493,8.5028,-6.0423,0.42957,-0.02,0.08,0.04,82.74
14356,1.2208e+08,1,0.61,0.17,14.49,-0.045769,0.23009,-1.7424,-1.4727,8.5023,-6.0401,0.41249,-0.02,0.08,0.04,82.74
14400,1.221e+08,1,0.49,0.26,14.6,-0.060353,0.23007,-1.7623,-1.4943,8.5026,-6.0366,0.39647,-0.02,0.08,0.04,82.74
14445,1.2211e+08,1,0.36,0.37,14.72,-0.059237,0.23817,-1.7842,-1.5169,8.5029,-6.0333,0.38163,-0.02,0.08,0.04,82.74
14493,1.2212e+08,1,0.15,0.49,14.85,-0.057977,0.24279,-1.8158,-1.5503,8.503,-6.029,0.35937,-0.02,0.08,0.04,82.74
14538,1.2213e+08,1,-0.03,0.63,14.98,-0.058279,0.23732,-1.8394,-1.5761,8.5032,-6.0255,0.34224,-0.02,0.08,0.04,82.74
14583,1.2214e+08,1,-0.2,0.71,15.07,-0.058749,0.23748,-1.8565,-1.5968,8.5036,-6.0225,0.32835,-0.02,0.08,0.04,82.74
14627,1.2215e+08,1,-0.43,0.82,15.19,-0.047802,0.24557,-1.8747,-1.6179,8.5039,-6.0191,0.31047,-0.02,0.08,0.04,82.74
14671,1.2216e+08,1,-0.63,0.91,15.31,-0.036123,0.24557,-1.8989,-1.6482,8.5034,-6.0166,0.29111,-0.02,0.08,0.04,82.74
14716,1.2217e+08,1,-0.83,0.95,15.44,-0.044199,0.24085,-1.91,-1.6718,8.5037,-6.013,0.27156,-0.02,0.08,0.04,82.74
14764,1.2218e+08,1,-1.02,1.02,15.55,-0.046037,0.23278,-1.9255,-1.6979,8.5041,-6.0099,0.25492,-0.02,0.08,0.04,82.74
14809,1.2219e+08,1,-1.23,1.11,15.67,-0.033445,0.24131,-1.94,-1.723,8.5044,-6.0066,0.2359,-0.02,0.08,0.04,82.74
14854,1.222e+08,1,-1.52,1.14,15.83,-0.032607,0.23563,-1.958,-1.749,8.5048,-6.0032,0.21658,-0.02,0.08,0.04,82.74
14900,1.2221e+08,1,-1.72,1.18,15.94,-0.040298,0.23486,-1.9717,-1.7678,8.5044,-6.0009,0.1971,-0.02,0.08,0.04,82.74
14944,1.2223e+08,1,-2.11,1.26,16.14,-0.021218,0.24375,-2.0009,-1.8088,8.5059,-5.9969,0.1721,-0.02,0.08,0.04,82.74
14988,1.2224e+08,1,-2.34,1.26,16.29,-0.023924,0.23628,-2.0042,-1.8081,8.5066,-5.9942,0.15414,-0.02,0.08,0.04,82.74
15033,1.2225e+08,1,-2.57,1.28,16.42,-0.020848,0.23294,-2.0281,-1.8217,8.5073,-5.9915,0.13582,-0.02,0.08,0.04,82.74
15078,1.2226e+08,1,-2.77,1.28,16.54,-0.020628,0.22905,-2.0374,-1.8175,8.5071,-5.9891,0.11528,-0.02,0.08,0.04,82.74
15123,1.2227e+08,1,-3.02,1.32,16.67,-0.017244,0.23034,-2.0633,-1.8322,8.5079,-5.9865,0.09631,-0.02,0.08,0.04,82.74
15167,1.2228e+08,1,-3.23,1.34,16.8,-0.012235,0.23943,-2.0781,-1.8461,8.5078,-5.9842,0.075404,-0.02,0.08,0.04,82.74
15216,1.2229e+08,1,-3.43,1.38,16.92,-0.007821,0.23112,-2.0904,-1.8575,8.5086,-5.9819,0.058117,-0.02,0.08,0.04,82.74
15261,1.223e+08,1,-3.65,1.41,17.04,-0.013838,0.21881,-2.1066,-1.88,8.5094,-5.9794,0.038668,-0.02,0.08,0.04,82.74
15306,1.2231e+08,1,-3.91,1.49,17.17,-0.017862,0.21442,-2.13,-1.9041,8.5102,-5.9769,0.018277,-0.02,0.08,0.04,82.74
15350,1.2233e+08,1,-4.1,1.53,17.27,-0.011035,0.20879,-2.1469,-1.9178,8.5102,-5.9748,-0.0030775,-0.02,0.08,0.04,82.74
15395,1.2234e+08,1,-4.42,1.66,17.42,-0.0031086,0.20079,-2.1599,-1.9311,8.5118,-5.9718,-0.025857,-0.02,0.08,0.04,82.74
15439,1.2235e+08,1,-4.61,1.76,17.51,-0.016911,0.19189,-2.1777,-1.9401,8.5126,-5.9696,-0.045662,-0.02,0.08,0.04,82.74
15484,1.2236e+08,1,-4.8,1.89,17.58,-0.025837,0.18522,-2.1881,-1.9373,8.5124,-5.9674,-0.069627,-0.02,0.08,0.04,82.74
15529,1.2237e+08,1,-5.02,2.04,17.66,-0.013369,0.18746,-2.1959,-1.9364,8.5131,-5.9655,-0.088481,-0.02,0.08,0.04,82.74
15575,1.2238e+08,1,-5.25,2.13,17.72,-0.0085071,0.18279,-2.2018,-1.9395,8.5138,-5.9637,-0.10633,-0.02,0.08,0.04,82.74
15619,1.2239e+08,1,-5.5,2.24,17.78,-0.014399,0.17023,-2.2172,-1.9511,8.5137,-5.9618,-0.13056,-0.02,0.08,0.04,82.74
15671,1.224e+08,1,-5.71,2.34,17.82,-0.023219,0.16175,-2.2264,-1.9636,8.5143,-5.9601,-0.14923,-0.02,0.08,0.04,82.74
15717,1.2241e+08,1,-5.97,2.46,17.87,-0.030493,0.1464,-2.2379,-1.9731,8.515,-5.9582,-0.17066,-0.02,0.08,0.04,82.74
15756,1.2243e+08,1,-6.25,2.65,17.92,-0.022898,0.15281,-2.2537,-1.9886,8.5159,-5.9578,-0.19367,-0.02,0.08,0.04,82.74
15801,1.2244e+08,1,-6.47,2.74,17.97,-9.6054e-05,0.14158,-2.2586,-1.9944,8.5168,-5.9575,-0.2146,-0.02,0.08,0.04,82.74
15845,1.2245e+08,1,-6.68,2.81,18.02,-0.015674,0.12681,-2.2705,-2.0022,8.5167,-5.9561,-0.23959,-0.02,0.08,0.04,82.74
15889,1.2246e+08,1,-6.88,2.89,18.07,-0.027321,0.11614,-2.276,-2.0003,8.5176,-5.956,-0.25661,-0.02,0.08,0.04,82.74
15934,1.2247e+08,1,-7.08,2.94,18.1,-0.022982,0.1128,-2.2765,-1.9846,8.5185,-5.9559,-0.27607,-0.02,0.08,0.04,82.74
15979,1.2248e+08,1,-7.27,3,18.16,-0.019696,0.11189,-2.2855,-1.9769,8.5194,-5.9558,-0.2963,-0.02,0.08,0.04,82.74
16024,1.2249e+08,1,-7.4,3.03,18.19,-0.0089804,0.1053,-2.285,-1.9642,8.5203,-5.9558,-0.31434,-0.02,0.08,0.04,82.74
16069,1.225e+08,1,-7.56,3.04,18.24,-0.010208,0.089923,-2.2897,-1.9503,8.5211,-5.9558,-0.335,-0.02,0.08,0.04,82.74
16117,1.2251e+08,1,-7.69,3.01,18.27,-0.017936,0.080118,-2.2901,-1.9402,8.5219,-5.956,-0.35371,-0.02,0.08,0.04,82.74
16162,1.2252e+08,1,-7.79,3,18.31,-0.028079,0.069717,-2.2998,-1.9372,8.5217,-5.9551,-0.37877,-0.02,0.08,0.04,82.74
16207,1.2253e+08,1,-7.88,3,18.35,-0.026679,0.059778,-2.3058,-1.9424,8.5225,-5.9554,-0.40011,-0.02,0.08,0.04,82.74
16252,1.2254e+08,1,-7.96,3.01,18.38,-0.018508,0.059046,-2.3134,-1.9505,8.5234,-5.9557,-0.41929,-0.02,0.08,0.04,82.74
16301,1.2256e+08,1,-8.02,2.97,18.43,-0.0086304,0.031749,-2.3204,-1.9573,8.5242,-5.956,-0.44524,-0.02,0.08,0.04,82.74
16345,1.2257e+08,1,-8.08,2.95,18.46,-0.013867,0.026647,-2.3263,-1.9543,8.5251,-5.9566,-0.4622,-0.02,0.08,0.04,82.74
16391,1.2258e+08,1,-8.16,2.91,18.5,-0.00077281,0.014113,-2.3301,-1.9458,8.5259,-5.9572,-0.4822,-0.02,0.08,0.04,82.74
16436,1.2259e+08,1,-8.22,2.87,18.54,0.0020848,0.007504,-2.3394,-1.9385,8.5268,-5.958,-0.50248,-0.02,0.08,0.04,82.74
16480,1.226e+08,1,-8.28,2.83,18.57,-0.00078881,-0.01186,-2.3388,-1.9198,8.5267,-5.958,-0.52788,-0.02,0.08,0.04,82.74
16524,1.2261e+08,1,-8.34,2.77,18.62,-0.017273,-0.026006,-2.3567,-1.939,8.5278,-5.9587,-0.55112,-0.02,0.08,0.04,82.74
16569,1.2262e+08,1,-8.43,2.76,18.65,-0.0029052,-0.03112,-2.3643,-1.947,8.5289,-5.9594,-0.57246,-0.02,0.08,0.04,82.74
16614,1.2263e+08,1,-8.5,2.69,18.69,0.0076818,-0.039541,-2.3665,-1.9509,8.53,-5.9603,-0.59158,-0.02,0.08,0.04,82.74
16659,1.2264e+08,1,-8.58,2.61,18.72,0.0061376,-0.062401,-2.3796,-1.9633,8.5311,-5.9613,-0.61366,-0.02,0.08,0.04,82.74
16707,1.2266e+08,1,-8.7,2.55,18.74,0.010815,-0.074488,-2.3869,-1.9746,8.5323,-5.9627,-0.64143,-0.02,0.08,0.04,82.74
16753,1.2267e+08,1,-8.81,2.49,18.77,0.021946,-0.083283,-2.3906,-1.9736,8.5334,-5.9639,-0.66119,-0.02,0.08,0.04,82.74
16798,1.2268e+08,1,-8.89,2.35,18.78,0.021159,-0.10332,-2.3959,-1.9679,8.5346,-5.9654,-0.68221,-0.02,0.08,0.04,82.74
16842,1.2269e+08,1,-9,2.27,18.78,-0.0014047,-0.12269,-2.4038,-1.9622,8.5347,-5.9666,-0.70875,-0.02,0.08,0.04,82.74
16888,1.227e+08,1,-9.09,2.19,18.78,-0.0049625,-0.13913,-2.4067,-1.9589,8.5359,-5.9681,-0.72664,-0.02,0.08,0.04,82.74
16932,1.2271e+08,1,-9.23,2.11,18.78,0.010094,-0.14858,-2.4104,-1.9551,8.5371,-5.97,-0.74826,-0.02,0.08,0.04,82.74
16980,1.2272e+08,1,-9.33,2.05,18.76,0.019991,-0.16202,-2.4131,-1.9555,8.5382,-5.9721,-0.77008,-0.02,0.08,0.04,82.74
17026,1.2273e+08,1,-9.45,1.99,18.74,0.026201,-0.17005,-2.4199,-1.9655,8.5394,-5.9741,-0.78965,-0.02,0.08,0.04,82.74
17071,1.2274e+08,1,-9.55,1.94,18.69,0.025807,-0.18729,-2.4235,-1.9694,8.5405,-5.9763,-0.81233,-0.02,0.08,0.04,82.74
17116,1.2275e+08,1,-9.67,1.91,18.65,0.030253,-0.19761,-2.4202,-1.973,8.5417,-5.9785,-0.83215,-0.02,0.08,0.04,82.74
17160,1.2277e+08,1,-9.82,1.86,18.56,0.020301,-0.22507,-2.4196,-1.9769,8.543,-5.9819,-0.86183,-0.02,0.08,0.04,82.74
17205,1.2278e+08,1,-9.92,1.87,18.5,0.01999,-0.22573,-2.4249,-1.9794,8.5442,-5.9844,-0.87988,-0.02,0.08,0.04,82.74
17251,1.2279e+08,1,-10.02,1.87,18.41,0.017371,-0.24068,-2.4263,-1.9761,8.5453,-5.9869,-0.89803,-0.02,0.08,0.04,82.74
17299,1.228e+08,1,-10.12,1.9,18.33,0.027034,-0.2501,-2.4268,-1.9649,8.5456,-5.9896,-0.92465,-0.02,0.08,0.04,82.74
17338,1.2281e+08,1,-10.21,1.95,18.21,0.051234,-0.26247,-2.4289,-1.9615,8.5467,-5.9918,-0.94849,-0.02,0.08,0.04,82.74
17384,1.2282e+08,1,-10.28,1.97,18.12,0.063,-0.2772,-2.4288,-1.9573,8.5477,-5.9937,-0.96727,-0.02,0.08,0.04,82.74
17433,1.2283e+08,1,-10.37,1.98,18,0.063459,-0.28807,-2.4339,-1.9621,8.5489,-5.9959,-0.98846,-0.02,0.09,0.04,82.74
17477,1.2284e+08,1,-10.45,2.01,17.87,0.066176,-0.29599,-2.435,-1.961,8.55,-5.9981,-1.008,-0.02,0.09,0.04,82.74
17522,1.2285e+08,1,-10.5,2.02,17.71,0.046547,-0.31907,-2.442,-1.9719,8.5513,-6.001,-1.0325,-0.02,0.09,0.04,82.74
17567,1.2286e+08,1,-10.55,2.05,17.58,0.055972,-0.32521,-2.437,-1.9758,8.5518,-6.0042,-1.057,-0.02,0.09,0.04,82.74
17612,1.2288e+08,1,-10.56,2.09,17.42,0.056669,-0.34113,-2.4336,-1.9903,8.553,-6.0071,-1.0791,-0.02,0.08,0.04,82.74
17657,1.2289e+08,1,-10.6,2.17,17.24,0.059757,-0.35869,-2.4263,-1.9949,8.5543,-6.0101,-1.0997,-0.02,0.08,0.04,82.74
17704,1.229e+08,1,-10.62,2.21,17.07,0.067764,-0.36383,-2.4266,-2.0068,8.5555,-6.013,-1.1182,-0.02,0.08,0.04,82.74
17750,1.2291e+08,1,-10.65,2.27,16.87,0.072549,-0.38493,-2.4144,-1.9963,8.5568,-6.0164,-1.1392,-0.02,0.08,0.04,82.74
17795,1.2292e+08,1,-10.67,2.37,16.67,0.071556,-0.39477,-2.4218,-1.9998,8.5576,-6.0207,-1.1657,-0.02,0.08,0.04,82.74
17839,1.2293e+08,1,-10.62,2.43,16.45,0.080038,-0.4055,-2.4082,-1.9872,8.5588,-6.024,-1.1847,-0.02,0.08,0.04,82.74
17887,1.2294e+08,1,-10.58,2.51,16.23,0.082732,-0.4178,-2.406,-1.9855,8.5602,-6.0274,-1.2038,-0.02,0.08,0.04,82.74
17931,1.2295e+08,1,-10.51,2.59,15.97,0.077637,-0.42953,-2.4006,-1.9794,8.5615,-6.0314,-1.2258,-0.02,0.09,0.04,82.74
17976,1.2296e+08,1,-10.42,2.66,15.71,0.08038,-0.44419,-2.393,-1.9752,8.5628,-6.0354,-1.2475,-0.02,0.09,0.04,82.74
18023,1.2297e+08,1,-10.32,2.77,15.39,0.067209,-0.45592,-2.3943,-1.9893,8.5644,-6.0406,-1.2744,-0.02,0.08,0.04,82.74
18068,1.2298e+08,1,-10.19,2.86,15.13,0.071999,-0.46828,-2.3824,-1.9862,8.5653,-6.0455,-1.3004,-0.02,0.08,0.04,82.74
18113,1.2299e+08,1,-10.07,2.99,14.81,0.073877,-0.4814,-2.3732,-1.9827,8.5668,-6.05,-1.3203,-0.02,0.08,0.04,82.74
18157,1.2301e+08,1,-9.98,3.11,14.55,0.080988,-0.49441,-2.3681,-1.9863,8.5682,-6.0541,-1.338,-0.02,0.08,0.04,82.74
18204,1.2302e+08,1,-9.88,3.37,14.01,0.090015,-0.50392,-2.3431,-1.9577,8.571,-6.0624,-1.3745,-0.02,0.08,0.04,82.74
18248,1.2303e+08,1,-9.76,3.48,13.74,0.08857,-0.51401,-2.3346,-1.9407,8.5731,-6.0668,-1.3922,-0.02,0.09,0.04,82.74
18297,1.2304e+08,1,-9.64,3.64,13.41,0.090436,-0.52345,-2.3281,-1.9336,8.5751,-6.0714,-1.4103,-0.02,0.08,0.04,82.74
18343,1.2305e+08,1,-9.55,3.79,13.03,0.09059,-0.53562,-2.3131,-1.9175,8.5761,-6.0772,-1.4359,-0.02,0.08,0.04,82.74
18387,1.2307e+08,1,-9.51,3.93,12.72,0.084265,-0.5403,-2.3067,-1.9155,8.5782,-6.0825,-1.4562,-0.02,0.08,0.04,82.74
18432,1.2308e+08,1,-9.51,4.1,12.33,0.09129,-0.55017,-2.2967,-1.9098,8.5803,-6.0881,-1.477,-0.02,0.08,0.04,82.74
18479,1.2324e+08,1,-7.63,5.98,12.05,0.0063119,-0.67784,-2.1743,-1.7758,8.5999,-6.1823,-1.7745,-0.02,0.08,0.04,82.74
18523,1.2325e+08,1,-7.42,6.03,11.65,-5.848e-05,-0.69817,-2.1736,-1.7785,8.6007,-6.1877,-1.7911,-0.02,0.08,0.04,82.74
18572,1.2326e+08,1,-7.28,6.16,11.22,-0.0049778,-0.70665,-2.1671,-1.7741,8.6007,-6.1953,-1.8148,-0.02,0.08,0.04,82.74
18616,1.2327e+08,1,-7.14,6.19,10.84,-0.012993,-0.70704,-2.1578,-1.7683,8.6013,-6.2009,-1.8313,-0.02,0.08,0.04,82.74
18661,1.2328e+08,1,-7.03,6.32,10.36,-0.015715,-0.70473,-2.1469,-1.7563,8.6018,-6.2073,-1.8503,-0.02,0.08,0.04,82.74
18706,1.233e+08,1,-6.84,6.45,9.77,-0.004024,-0.71237,-2.1371,-1.7466,8.6029,-6.2147,-1.872,-0.02,0.08,0.04,82.74
18750,1.2331e+08,1,-6.68,6.5,9.16,-0.046008,-0.74283,-2.1254,-1.7303,8.6031,-6.2241,-1.8993,-0.02,0.08,0.04,82.74
18795,1.2332e+08,1,-6.66,6.54,8.77,-0.048614,-0.74899,-2.1165,-1.7235,8.6033,-6.2302,-1.915,-0.02,0.09,0.04,82.74
18839,1.2333e+08,1,-6.62,6.59,8.31,-0.062526,-0.7508,-2.1019,-1.7091,8.6035,-6.2365,-1.931,-0.02,0.09,0.04,82.74
18884,1.2334e+08,1,-6.57,6.63,7.85,-0.072147,-0.75356,-2.0903,-1.6928,8.6035,-6.2436,-1.9491,-0.02,0.09,0.04,82.74
18929,1.2335e+08,1,-6.48,6.65,7.42,-0.062665,-0.75921,-2.0806,-1.677,8.603,-6.2517,-1.9719,-0.02,0.09,0.04,82.74
18978,1.2336e+08,1,-6.4,6.65,6.97,-0.072249,-0.76733,-2.0709,-1.6714,8.6029,-6.2582,-1.988,-0.02,0.09,0.04,82.74
19023,1.2337e+08,1,-6.35,6.63,6.53,-0.079868,-0.76815,-2.0474,-1.6543,8.6028,-6.2649,-2.0048,-0.02,0.09,0.04,82.74
19068,1.2338e+08,1,-6.36,6.6,6.08,-0.076,-0.76059,-2.031,-1.6463,8.6027,-6.2722,-2.0229,-0.02,0.09,0.04,82.74
19114,1.2339e+08,1,-6.38,6.56,5.62,-0.088361,-0.76388,-2.0171,-1.6384,8.6024,-6.2796,-2.041,-0.02,0.09,0.04,82.74
19156,1.2341e+08,1,-6.36,6.59,4.95,-0.080485,-0.76135,-1.9901,-1.6171,8.6016,-6.2907,-2.0689,-0.02,0.09,0.04,82.74
19203,1.2342e+08,1,-6.35,6.57,4.46,-0.10284,-0.76324,-1.974,-1.6079,8.6011,-6.2983,-2.0857,-0.02,0.09,0.04,82.74
19244,1.2343e+08,1,-6.32,6.55,3.97,-0.11576,-0.76465,-1.957,-1.5977,8.5999,-6.3068,-2.1073,-0.02,0.09,0.04,82.74
19286,1.2344e+08,1,-6.25,6.49,3.45,-0.11459,-0.77058,-1.9362,-1.5843,8.6001,-6.3132,-2.1241,-0.02,0.09,0.04,82.74
19332,1.2345e+08,1,-6.17,6.41,2.97,-0.11499,-0.77517,-1.932,-1.5862,8.6004,-6.319,-2.1391,-0.02,0.09,0.04,82.74
19377,1.2346e+08,1,-6.08,6.36,2.46,-0.12518,-0.77025,-1.9093,-1.5703,8.6004,-6.3255,-2.156,-0.02,0.09,0.04,82.74
19426,1.2347e+08,1,-5.98,6.3,2,-0.14104,-0.77076,-1.8998,-1.5684,8.599,-6.3333,-2.1751,-0.02,0.09,0.04,82.74
19470,1.2349e+08,1,-5.86,6.24,1.47,-0.13506,-0.77296,-1.8807,-1.5603,8.5988,-6.3407,-2.1938,-0.02,0.08,0.04,82.74
19515,1.235e+08,1,-5.81,6.12,1.06,-0.14198,-0.77338,-1.8693,-1.5544,8.5987,-6.3466,-2.2086,-0.02,0.08,0.04,82.74
19559,1.2351e+08,1,-5.68,6.04,0.54,-0.16071,-0.77597,-1.857,-1.5495,8.5985,-6.3534,-2.2257,-0.02,0.08,0.04,82.74
19601,1.2352e+08,1,-5.55,6,0.08,-0.17502,-0.77973,-1.8478,-1.5459,8.5981,-6.3603,-2.2427,-0.02,0.09,0.04,82.74
19643,1.2353e+08,1,-5.44,5.9,359.6,-0.18348,-0.78064,-1.8237,-1.5301,8.5973,-6.368,-2.2617,-0.02,0.09,0.04,82.74
19688,1.2354e+08,1,-5.34,5.83,359.2,-0.19459,-0.78861,-1.8248,-1.5425,8.5969,-6.3742,-2.2758,-0.02,0.09,0.04,82.74
19733,1.2355e+08,1,-5.27,5.78,358.77,-0.20477,-0.79684,-1.8145,-1.5362,8.5947,-6.3829,-2.2958,-0.02,0.09,0.04,82.74
19779,1.2356e+08,1,-5.17,5.7,358.41,-0.21141,-0.79736,-1.8034,-1.5319,8.5942,-6.3891,-2.3098,-0.02,0.08,0.04,82.74
19823,1.2357e+08,1,-5.12,5.64,357.97,-0.21666,-0.79668,-1.8025,-1.5421,8.5932,-6.3963,-2.3258,-0.02,0.08,0.04,82.74
19873,1.2358e+08,1,-5.09,5.57,357.65,-0.22151,-0.80157,-1.8007,-1.5437,8.591,-6.4043,-2.344,-0.02,0.08,0.04,82.74
19917,1.2359e+08,1,-5.07,5.45,357.26,-0.23073,-0.80356,-1.7926,-1.5516,8.5885,-6.413,-2.3635,-0.02,0.08,0.04,82.74
19962,1.236e+08,1,-5.03,5.41,356.89,-0.24222,-0.80042,-1.7853,-1.5553,8.5876,-6.4196,-2.3778,-0.02,0.08,0.04,82.74
20008,1.2361e+08,1,-5.04,5.34,356.58,-0.25576,-0.80512,-1.7668,-1.5423,8.5864,-6.427,-2.3942,-0.02,0.08,0.04,82.74
20047,1.2363e+08,1,-5.04,5.31,356.26,-0.24785,-0.80326,-1.7614,-1.5421,8.5833,-6.4349,-2.4116,-0.02,0.08,0.04,82.74
20089,1.2364e+08,1,-5.04,5.25,355.97,-0.24762,-0.80956,-1.7503,-1.5337,8.5802,-6.4431,-2.4296,-0.02,0.08,0.04,82.74
20134,1.2365e+08,1,-5.05,5.21,355.75,-0.25986,-0.81057,-1.7382,-1.5248,8.5775,-6.4498,-2.4439,-0.02,0.08,0.04,82.74
20179,1.2366e+08,1,-5.08,5.11,355.42,-0.28429,-0.79878,-1.7273,-1.5136,8.5736,-6.4596,-2.465,-0.02,0.08,0.04,82.74
20227,1.2367e+08,1,-5.06,5.02,355.24,-0.2893,-0.79811,-1.7189,-1.5059,8.5708,-6.4663,-2.4794,-0.02,0.08,0.04,82.74
20271,1.2368e+08,1,-5.08,4.92,355.03,-0.28148,-0.79614,-1.7177,-1.5066,8.5676,-6.4738,-2.4956,-0.02,0.08,0.04,82.74
20319,1.2369e+08,1,-5.05,4.78,354.85,-0.28623,-0.7991,-1.7087,-1.4977,8.5646,-6.4819,-2.5129,-0.02,0.08,0.04,82.74
20364,1.237e+08,1,-5.05,4.62,354.69,-0.30767,-0.79802,-1.6955,-1.4964,8.5613,-6.4894,-2.5289,-0.02,0.08,0.04,82.74
20408,1.2371e+08,1,-4.99,4.42,354.53,-0.32188,-0.79764,-1.6842,-1.4916,8.5581,-6.4961,-2.5433,-0.02,0.08,0.04,82.74
20453,1.2373e+08,1,-4.97,4.18,354.37,-0.31535,-0.8021,-1.6797,-1.4953,8.5533,-6.5069,-2.5662,-0.02,0.08,0.04,82.74
20498,1.2374e+08,1,-4.93,3.98,354.23,-0.32661,-0.79844,-1.6687,-1.4892,8.5502,-6.5149,-2.5829,-0.02,0.08,0.04,82.74
20542,1.2375e+08,1,-4.9,3.75,354.12,-0.33462,-0.79813,-1.6576,-1.4835,8.5465,-6.5225,-2.5985,-0.02,0.08,0.04,82.74
20584,1.2376e+08,1,-4.89,3.51,354.03,-0.3242,-0.79349,-1.6515,-1.4802,8.5428,-6.5302,-2.6142,-0.02,0.08,0.04,82.74
20629,1.2377e+08,1,-4.84,3.26,353.95,-0.33004,-0.79578,-1.6452,-1.4808,8.5391,-6.5389,-2.6323,-0.02,0.08,0.04,82.74
20674,1.2378e+08,1,-4.82,3.02,353.89,-0.34469,-0.79201,-1.6363,-1.4776,8.5356,-6.5457,-2.6462,-0.02,0.08,0.04,82.74
20722,1.2379e+08,1,-4.72,2.74,353.82,-0.37116,-0.78689,-1.6268,-1.4729,8.5317,-6.5533,-2.6618,-0.02,0.08,0.04,82.74
20768,1.238e+08,1,-4.69,2.49,353.77,-0.36461,-0.78145,-1.6189,-1.4692,8.5276,-6.561,-2.6775,-0.02,0.08,0.04,82.74
20815,1.2381e+08,1,-4.62,2.27,353.73,-0.35893,-0.78023,-1.6152,-1.4694,8.524,-6.5688,-2.6936,-0.02,0.08,0.04,82.74
20856,1.2383e+08,1,-4.47,1.86,353.65,-0.36099,-0.76942,-1.605,-1.4655,8.5198,-6.5793,-2.7147,-0.02,0.08,0.04,82.74
20898,1.2384e+08,1,-4.3,1.51,353.6,-0.35519,-0.77068,-1.5943,-1.4557,8.5163,-6.5877,-2.7317,-0.02,0.08,0.04,82.74
20943,1.2385e+08,1,-4.2,1.26,353.57,-0.36607,-0.7708,-1.5812,-1.4421,8.5127,-6.5953,-2.7477,-0.02,0.08,0.04,82.74
20984,1.2386e+08,1,-4.04,0.94,353.52,-0.36722,-0.76108,-1.5802,-1.4419,8.5092,-6.6036,-2.7646,-0.02,0.08,0.04,82.74
21031,1.2387e+08,1,-3.9,0.7,353.5,-0.34893,-0.75311,-1.5787,-1.4358,8.5061,-6.6111,-2.7784,-0.02,0.08,0.04,82.74
21078,1.2389e+08,1,-3.75,0.47,353.47,-0.34686,-0.75284,-1.5811,-1.4289,8.5034,-6.6178,-2.7909,-0.02,0.08,0.04,82.74
21122,1.239e+08,1,-3.53,0.21,353.45,-0.35079,-0.75167,-1.5726,-1.4098,8.5004,-6.6253,-2.8051,-0.02,0.08,0.04,82.74
21171,1.2391e+08,1,-3.34,0,353.43,-0.3542,-0.75029,-1.5772,-1.4091,8.4965,-6.6335,-2.8225,-0.02,0.08,0.04,82.74
21217,1.2392e+08,1,-3.19,-0.18,353.42,-0.34859,-0.74604,-1.5742,-1.4016,8.4939,-6.6401,-2.8352,-0.02,0.08,0.04,82.74
21261,1.2393e+08,1,-3.11,-0.42,353.42,-0.34415,-0.74524,-1.5708,-1.3935,8.4909,-6.6475,-2.8496,-0.02,0.08,0.04,82.74
21307,1.2394e+08,1,-3.02,-0.57,353.39,-0.34374,-0.7364,-1.5692,-1.3887,8.4883,-6.6541,-2.8628,-0.02,0.08,0.04,82.74
21351,1.2395e+08,1,-2.95,-0.81,353.4,-0.34237,-0.72518,-1.5742,-1.392,8.4844,-6.6635,-2.8822,-0.02,0.08,0.04,82.74
21396,1.2396e+08,1,-2.89,-0.96,353.4,-0.33579,-0.72674,-1.5679,-1.3837,8.4807,-6.6715,-2.8995,-0.02,0.08,0.04,82.74
21439,1.2397e+08,1,-2.87,-1.14,353.4,-0.33194,-0.72269,-1.5792,-1.3953,8.4776,-6.6795,-2.9159,-0.02,0.08,0.04,82.74
21484,1.2399e+08,1,-2.86,-1.25,353.4,-0.32535,-0.71697,-1.5716,-1.384,8.4751,-6.6861,-2.9284,-0.02,0.08,0.04,82.74
21528,1.24e+08,1,-2.87,-1.36,353.39,-0.32341,-0.7131,-1.5709,-1.3752,8.4724,-6.6932,-2.9422,-0.02,0.08,0.04,82.74
21573,1.2401e+08,1,-2.9,-1.46,353.39,-0.32743,-0.70669,-1.5585,-1.3556,8.4697,-6.7003,-2.9562,-0.02,0.08,0.04,82.74
21626,1.2402e+08,1,-3,-1.6,353.42,-0.32313,-0.69709,-1.5529,-1.3396,8.466,-6.7096,-2.9756,-0.02,0.08,0.04,82.74
21670,1.2404e+08,1,-3.07,-1.66,353.4,-0.31586,-0.68698,-1.5462,-1.3335,8.4629,-6.7166,-2.9942,-0.02,0.08,0.04,82.74
21714,1.2405e+08,1,-3.14,-1.76,353.4,-0.29607,-0.67787,-1.5398,-1.3274,8.4608,-6.7216,-3.0088,-0.02,0.08,0.04,82.74
21759,1.2406e+08,1,-3.16,-1.83,353.37,-0.30967,-0.65991,-1.5223,-1.3143,8.458,-6.7285,-3.028,-0.02,0.08,0.04,82.74
21804,1.2407e+08,1,-3.19,-1.85,353.34,-0.30762,-0.65756,-1.5214,-1.316,8.455,-6.7351,-3.0432,-0.02,0.08,0.04,82.74
21845,1.2408e+08,1,-3.26,-1.9,353.33,-0.27786,-0.65276,-1.5196,-1.3201,8.4529,-6.7405,-3.0592,-0.02,0.08,0.04,82.74
21889,1.2409e+08,1,-3.3,-1.95,353.32,-0.27087,-0.64453,-1.5138,-1.315,8.4515,-6.7445,-3.07,-0.02,0.08,0.04,82.74
21933,1.241e+08,1,-3.36,-1.98,353.32,-0.27954,-0.63262,-1.5133,-1.3091,8.4499,-6.7491,-3.0828,-0.02,0.08,0.04,82.74
21977,1.2411e+08,1,-3.44,-2,353.31,-0.27351,-0.62169,-1.504,-1.2941,8.4486,-6.7531,-3.0941,-0.02,0.08,0.04,82.74
22026,1.2412e+08,1,-3.53,-1.98,353.32,-0.26561,-0.61821,-1.5006,-1.2793,8.446,-6.7593,-3.1091,-0.02,0.08,0.04,82.74
22072,1.2413e+08,1,-3.62,-1.96,353.33,-0.24427,-0.61229,-1.4957,-1.264,8.4446,-6.7638,-3.1219,-0.02,0.08,0.04,82.74
22117,1.2414e+08,1,-3.69,-1.96,353.35,-0.23303,-0.60468,-1.4902,-1.2467,8.4436,-6.7676,-3.1335,-0.02,0.08,0.04,82.74
22162,1.2415e+08,1,-3.74,-1.93,353.36,-0.22643,-0.59689,-1.4793,-1.2267,8.4427,-6.7713,-3.1452,-0.02,0.08,0.04,82.74
22206,1.2417e+08,1,-3.89,-1.86,353.38,-0.24938,-0.58534,-1.4703,-1.2108,8.4408,-6.7774,-3.1629,-0.02,0.08,0.04,82.74
22248,1.2418e+08,1,-4.01,-1.76,353.4,-0.22718,-0.5839,-1.4633,-1.1998,8.4398,-6.7817,-3.1762,-0.02,0.08,0.04,82.74
22293,1.2419e+08,1,-4.18,-1.67,353.45,-0.21163,-0.57665,-1.4626,-1.1953,8.4388,-6.7861,-3.1886,-0.02,0.08,0.04,82.74
22337,1.242e+08,1,-4.32,-1.61,353.48,-0.20483,-0.57408,-1.458,-1.1914,8.4367,-6.7917,-3.2031,-0.02,0.08,0.04,82.74
22384,1.2421e+08,1,-4.46,-1.52,353.52,-0.20419,-0.56471,-1.4527,-1.1864,8.4362,-6.7954,-3.214,-0.02,0.08,0.04,82.74
22434,1.2423e+08,1,-4.68,-1.38,353.6,-0.19972,-0.56506,-1.4448,-1.1911,8.4339,-6.8044,-3.2367,-0.02,0.08,0.04,82.74
22482,1.2424e+08,1,-4.86,-1.23,353.66,-0.2004,-0.55292,-1.4348,-1.1849,8.4331,-6.8095,-3.2493,-0.02,0.08,0.04,82.74
22526,1.2425e+08,1,-5.01,-1.11,353.69,-0.20058,-0.54412,-1.4297,-1.1834,8.4312,-6.815,-3.2637,-0.02,0.08,0.04,82.74
22570,1.2426e+08,1,-5.15,-0.93,353.75,-0.18878,-0.5425,-1.4267,-1.1845,8.4304,-6.82,-3.2763,-0.02,0.08,0.04,82.74
22615,1.2427e+08,1,-5.29,-0.78,353.81,-0.19854,-0.53039,-1.413,-1.1736,8.429,-6.8266,-3.2936,-0.02,0.08,0.04,82.74
22660,1.2429e+08,1,-5.45,-0.58,353.87,-0.19052,-0.52658,-1.4105,-1.1742,8.4283,-6.8315,-3.3066,-0.02,0.08,0.04,82.74
22701,1.243e+08,1,-5.59,-0.36,353.95,-0.15961,-0.52594,-1.4191,-1.1853,8.4275,-6.8369,-3.3209,-0.02,0.08,0.04,82.74
22746,1.2431e+08,1,-5.68,-0.24,354,-0.15988,-0.52541,-1.4087,-1.173,8.427,-6.8413,-3.3312,-0.02,0.08,0.04,82.74
22790,1.2432e+08,1,-5.76,-0.14,354.07,-0.16612,-0.52894,-1.409,-1.1739,8.4265,-6.8457,-3.3415,-0.02,0.08,0.04,82.74
22836,1.2433e+08,1,-5.85,-0.01,354.15,-0.18502,-0.52128,-1.4056,-1.1643,8.426,-6.8506,-3.3534,-0.02,0.08,0.04,82.74
22884,1.2434e+08,1,-5.93,0.1,354.23,-0.18765,-0.51087,-1.4106,-1.1655,8.424,-6.8563,-3.3688,-0.02,0.08,0.04,82.74
22930,1.2435e+08,1,-6.03,0.27,354.3,-0.16978,-0.50878,-1.4001,-1.1534,8.4236,-6.8606,-3.3795,-0.02,0.08,0.04,82.74
22976,1.2436e+08,1,-6.11,0.36,354.39,-0.1526,-0.50999,-1.3938,-1.1438,8.423,-6.8656,-3.3917,-0.02,0.08,0.04,82.74
23020,1.2437e+08,1,-6.16,0.4,354.49,-0.15901,-0.50804,-1.386,-1.1347,8.4224,-6.8705,-3.4042,-0.02,0.08,0.04,82.74
23064,1.2438e+08,1,-6.2,0.46,354.6,-0.17456,-0.5132,-1.3794,-1.1327,8.4205,-6.8761,-3.4193,-0.02,0.08,0.04,82.74
23107,1.2439e+08,1,-6.3,0.53,354.7,-0.16858,-0.51113,-1.3711,-1.1317,8.4198,-6.8815,-3.433,-0.02,0.08,0.04,82.74
23151,1.2441e+08,1,-6.37,0.58,354.78,-0.15143,-0.50585,-1.3574,-1.1184,8.4192,-6.8864,-3.4437,-0.02,0.08,0.04,82.74
23201,1.2442e+08,1,-6.54,0.69,354.98,-0.16256,-0.50615,-1.3347,-1.1058,8.4121,-6.8957,-3.4648,-0.02,0.08,0.04,82.74
23247,1.2443e+08,1,-6.57,0.8,355.19,-0.16786,-0.50717,-1.321,-1.0986,8.4063,-6.9009,-3.4751,-0.02,0.08,0.04,82.74
23292,1.2444e+08,1,-6.6,0.91,355.4,-0.17209,-0.50482,-1.3118,-1.0908,8.4044,-6.9061,-3.4882,-0.02,0.08,0.04,82.74
23341,1.2445e+08,1,-6.63,0.98,355.62,-0.19518,-0.50619,-1.2994,-1.0808,8.3986,-6.9113,-3.4985,-0.02,0.08,0.04,82.74
23386,1.2446e+08,1,-6.63,1.05,355.85,-0.21245,-0.50897,-1.2789,-1.0614,8.3924,-6.9171,-3.5101,-0.02,0.08,0.04,82.74
23430,1.2448e+08,1,-6.67,1.16,356.08,-0.21177,-0.51151,-1.2694,-1.0525,8.3862,-6.923,-3.5218,-0.02,0.08,0.04,82.74
23475,1.2449e+08,1,-6.69,1.24,356.32,-0.21712,-0.5195,-1.2557,-1.0407,8.3802,-6.9283,-3.5321,-0.02,0.08,0.04,82.74
23516,1.245e+08,1,-6.7,1.26,356.57,-0.23051,-0.52642,-1.2469,-1.0403,8.3736,-6.9349,-3.5451,-0.02,0.08,0.04,82.74
23561,1.2451e+08,1,-6.72,1.31,356.87,-0.24766,-0.52057,-1.2318,-1.0322,8.3665,-6.9424,-3.5603,-0.02,0.08,0.04,82.74
23607,1.2452e+08,1,-6.66,1.32,357.13,-0.24885,-0.53695,-1.2197,-1.0289,8.3598,-6.9484,-3.5703,-0.02,0.08,0.04,82.74
23651,1.2453e+08,1,-6.6,1.33,357.4,-0.26278,-0.54072,-1.2155,-1.0252,8.3531,-6.9546,-3.5806,-0.02,0.08,0.04,82.74
23697,1.2454e+08,1,-6.57,1.29,357.67,-0.27192,-0.5413,-1.2045,-1.0095,8.3504,-6.96,-3.5927,-0.02,0.08,0.04,82.74
23745,1.2455e+08,1,-6.53,1.26,357.94,-0.28644,-0.54343,-1.2021,-1.0042,8.3436,-6.9662,-3.6029,-0.02,0.08,0.04,82.74
23791,1.2456e+08,1,-6.52,1.17,358.22,-0.27661,-0.53921,-1.1997,-0.99776,8.3368,-6.9724,-3.6132,-0.02,0.08,0.04,82.74
23835,1.2458e+08,1,-6.5,1.02,358.49,-0.28455,-0.53919,-1.1943,-0.99174,8.3303,-6.9781,-3.6224,-0.02,0.08,0.04,82.74
23879,1.2459e+08,1,-6.4,0.87,358.75,-0.30756,-0.54396,-1.1873,-0.98209,8.3234,-6.9844,-3.633,-0.02,0.08,0.04,82.74
23924,1.246e+08,1,-6.33,0.74,359,-0.30964,-0.54756,-1.1804,-0.97415,8.3204,-6.9898,-3.6448,-0.02,0.08,0.04,82.74
23965,1.2461e+08,1,-6.25,0.54,359.27,-0.29627,-0.54809,-1.1837,-0.97899,8.3128,-6.9972,-3.6578,-0.02,0.08,0.04,82.74
24004,1.2462e+08,1,-6.18,0.28,359.53,-0.31664,-0.55182,-1.1793,-0.97916,8.3053,-7.0046,-3.6711,-0.02,0.08,0.04,82.74
24048,1.2463e+08,1,-6.09,0.08,359.76,-0.32299,-0.548,-1.1747,-0.97991,8.2986,-7.0104,-3.6812,-0.02,0.08,0.04,82.74
24093,1.2464e+08,1,-5.99,-0.08,359.98,-0.32501,-0.54972,-1.1732,-0.99001,8.2917,-7.0167,-3.6925,-0.02,0.08,0.04,82.74
24138,1.2465e+08,1,-5.94,-0.24,0.18,-0.32331,-0.55413,-1.1717,-0.99667,8.2884,-7.0223,-3.7041,-0.02,0.08,0.04,82.74
24186,1.2466e+08,1,-5.87,-0.44,0.38,-0.31122,-0.54607,-1.1613,-0.99597,8.2815,-7.0286,-3.7153,-0.02,0.08,0.04,82.74
24232,1.2467e+08,1,-5.75,-0.62,0.57,-0.31132,-0.54516,-1.1591,-1.0027,8.2749,-7.0344,-3.7254,-0.02,0.08,0.04,82.74
24277,1.2468e+08,1,-5.6,-0.85,0.75,-0.32253,-0.55963,-1.1539,-1.0073,8.2682,-7.0407,-3.7368,-0.02,0.08,0.04,82.74
24322,1.247e+08,1,-5.47,-1.05,0.92,-0.33176,-0.56024,-1.1524,-1.014,8.2617,-7.0465,-3.747,-0.02,0.08,0.04,82.74
24367,1.2471e+08,1,-5.35,-1.24,1.07,-0.34496,-0.55392,-1.1415,-1.011,8.2584,-7.0521,-3.7585,-0.02,0.08,0.04,82.74
24412,1.2472e+08,1,-5.21,-1.41,1.21,-0.34431,-0.54869,-1.1504,-1.0304,8.2517,-7.0583,-3.7697,-0.02,0.08,0.04,82.74
24450,1.2473e+08,1,-5.04,-1.65,1.39,-0.32312,-0.55294,-1.1313,-1.022,8.2443,-7.0658,-3.7834,-0.02,0.08,0.04,82.74
24495,1.2474e+08,1,-4.92,-1.86,1.53,-0.3396,-0.55896,-1.1342,-1.0321,8.2377,-7.0722,-3.7944,-0.02,0.08,0.04,82.74
24540,1.2475e+08,1,-4.82,-2.01,1.65,-0.34174,-0.55271,-1.1218,-1.0252,8.2314,-7.078,-3.8042,-0.02,0.08,0.04,82.74
24584,1.2476e+08,1,-4.7,-2.18,1.76,-0.35019,-0.55828,-1.1212,-1.0289,8.2252,-7.0838,-3.8141,-0.02,0.08,0.04,82.74
24634,1.2477e+08,1,-4.61,-2.35,1.87,-0.3525,-0.56303,-1.1218,-1.0322,8.2187,-7.0902,-3.8252,-0.02,0.08,0.04,82.74
24679,1.2478e+08,1,-4.54,-2.51,1.96,-0.34611,-0.56374,-1.1207,-1.0328,8.2148,-7.0964,-3.8375,-0.02,0.08,0.04,82.74
24724,1.2479e+08,1,-4.49,-2.7,2.05,-0.34421,-0.56308,-1.1145,-1.0301,8.2087,-7.1023,-3.8475,-0.02,0.08,0.04,82.74
24768,1.248e+08,1,-4.45,-2.84,2.13,-0.33777,-0.56151,-1.1052,-1.0246,8.2024,-7.1087,-3.8585,-0.02,0.08,0.04,82.74
24813,1.2481e+08,1,-4.42,-2.98,2.18,-0.33144,-0.56324,-1.1013,-1.024,8.1993,-7.1138,-3.8685,-0.02,0.08,0.04,82.74
24856,1.2482e+08,1,-4.4,-3.14,2.23,-0.34935,-0.56841,-1.0965,-1.022,8.1925,-7.121,-3.8805,-0.02,0.08,0.04,82.74
24895,1.2484e+08,1,-4.42,-3.24,2.27,-0.33757,-0.56598,-1.0853,-1.0122,8.1857,-7.1285,-3.8932,-0.02,0.08,0.04,82.74
