LineNo,TimeUS,DesRoll,Roll,DesPitch,Pitch,DesYaw,Yaw,ErrRP,ErrYaw,AEKF
185,100972408,0,-0.39,0,0.55,15.96,12.45,0,0,3
750,101113762,0,-0.39,0,0.55,21.6,12.45,0,0.01,3
1285,101366699,0,-0.39,0,0.54,31.67,12.45,0,0.01,3
1476,101400478,0,-0.39,0,0.54,34.9,12.45,0,0,3
1573,101422245,0,-0.39,0,0.54,37.2,12.45,0,0,3
1618,101432415,0,-0.39,0,0.54,38.39,12.45,0,0,3
1662,101442255,0,-0.39,0,0.54,39.42,12.45,0,0,3
1709,101453175,0,-0.39,0,0.55,39.43,12.45,0,0,3
1750,101463749,0,-0.39,0,0.54,39.44,12.45,0,0,3
1791,101474604,0,-0.4,0,0.54,39.44,12.45,0,0,3
1834,101485043,0,-0.4,0,0.54,39.45,12.45,0,0,3
1881,101495702,0,-0.4,0,0.54,39.46,12.45,0,0.01,3
1923,101505681,0,-0.4,0,0.54,39.47,12.45,0,0.01,3
1968,101515949,0,-0.4,0,0.54,39.47,12.45,0,0.01,3
2012,101525824,0,-0.4,0,0.54,39.48,12.45,0,0.01,3
2055,101535735,0,-0.4,0,0.53,39.49,12.45,0,0.01,3
2098,101546699,0,-0.4,0,0.54,39.49,12.45,0,0.01,3
2140,101556668,0,-0.4,0,0.54,39.5,12.45,0,0.01,3
2183,101567010,0,-0.39,0,0.54,39.51,12.45,0,0.01,3
2225,101577015,0,-0.39,0,0.54,39.52,12.46,0,0.01,3
2268,101586670,0,-0.39,0,0.54,39.52,12.46,0,0.01,3
2314,101596751,0,-0.39,0,0.54,39.53,12.46,0,0,3
2357,101607159,0,-0.39,0,0.53,39.54,12.46,0,0,3
2400,101617667,0,-0.39,0,0.53,39.55,12.46,0,0,3
2442,101627586,0,-0.39,0,0.53,39.55,12.46,0,0,3
2488,101637990,0,-0.39,0,0.53,39.56,12.46,0,0,3
2524,101649233,0,-0.4,0,0.53,39.57,12.46,0,0,3
2568,101660237,0,-0.4,0,0.53,39.57,12.46,0,0,3
2613,101670611,0,-0.4,0,0.53,39.58,12.46,0,0,3
2658,101680674,0,-0.4,0,0.53,39.57,12.46,0,0,3
2702,101691022,0,-0.4,0,0.54,39.56,12.46,0,0,3
2751,101701816,0,-0.4,0,0.54,39.56,12.46,0,0.01,3
2796,101711852,0,-0.4,0,0.54,39.55,12.46,0,0.01,3
2840,101721844,0,-0.4,0,0.54,39.54,12.46,0,0.01,3
2887,101732415,0,-0.4,0,0.54,39.54,12.46,0,0.01,3
2931,101742109,0,-0.39,0,0.54,39.53,12.46,0,0.01,3
2976,101752632,0,-0.39,0,0.54,39.52,12.46,0,0.01,3
3021,101763158,0,-0.39,0,0.54,39.51,12.46,0,0.01,3
3066,101773817,0,-0.39,0,0.54,39.51,12.46,0,0.01,3
3111,101784453,0,-0.39,0,0.54,39.5,12.46,0,0.01,3
3157,101794640,0,-0.39,0,0.54,39.49,12.46,0,0.01,3
3207,101805007,0,-0.39,0,0.54,39.49,12.46,0,0.01,3
3252,101814863,0,-0.39,0,0.54,39.48,12.46,0,0.01,3
3296,101825063,0,-0.4,0,0.54,39.47,12.46,0,0.01,3
3342,101835633,0,-0.4,0,0.54,39.46,12.46,0,0.01,3
3388,101845984,0,-0.4,0,0.54,39.46,12.46,0,0.01,3
3428,101857578,0,-0.4,0,0.54,39.45,12.46,0,0.01,3
3474,101867466,0,-0.4,0,0.54,39.44,12.46,0,0.01,3
3518,101877569,0,-0.4,0,0.54,39.44,12.45,0,0.01,3
3563,101888086,0,-0.4,0,0.53,39.43,12.45,0,0.01,3
3608,101898695,0,-0.4,0,0.53,39.42,12.45,0,0.01,3
3657,101908807,0,-0.39,0,0.53,39.41,12.45,0,0.01,3
3702,101919032,0,-0.39,0,0.53,39.41,12.45,0,0.01,3
3746,101929614,0,-0.39,0,0.53,39.4,12.45,0,0.01,3
3795,101940319,0,-0.39,0,0.54,39.39,12.45,0,0.01,3
3842,101953435,0,-0.39,0,0.54,39.38,12.45,0,0.01,3
3887,101964368,0,-0.39,0,0.54,39.38,12.45,0,0.01,3
3931,101974602,0,-0.39,0,0.54,39.37,12.45,0,0.01,3
3977,101984753,0,-0.39,0,0.54,39.36,12.45,0,0.01,3
4024,101994876,0,-0.39,0,0.54,39.36,12.45,0,0.01,3
4068,102004831,0,-0.4,0,0.54,39.35,12.45,0,0.01,3
4119,102014807,0,-0.4,0,0.54,39.34,12.45,0,0.01,3
4163,102024773,0,-0.4,0,0.54,39.33,12.45,0,0.01,3
4208,102034690,0,-0.4,0,0.54,39.33,12.45,0,0.01,3
4253,102045129,0,-0.4,0,0.54,39.32,12.45,0,0.01,3
4300,102055224,0,-0.4,0,0.54,39.31,12.45,0,0.01,3
4338,102067261,0,-0.4,0,0.54,39.31,12.45,0,0.01,3
4383,102077746,0,-0.39,0,0.54,39.3,12.45,0,0.01,3
4428,102087873,0,-0.39,0,0.54,39.3,12.45,0,0.01,3
4472,102097762,0,-0.39,0,0.54,39.29,12.45,0,0.01,3
4517,102108544,0,-0.39,0,0.54,39.28,12.45,0,0.01,3
4566,102118508,0,-0.39,0,0.53,39.28,12.46,0,0.01,3
4611,102128543,0,-0.39,0,0.53,39.27,12.46,0,0.01,3
4656,102138466,0,-0.39,0,0.53,39.26,12.46,0,0.01,3
4700,102149268,0,-0.39,0,0.53,39.26,12.46,0,0.01,3
4749,102162485,0,-0.39,0,0.53,39.25,12.45,0,0.01,3
4793,102173352,0,-0.39,0,0.53,39.24,12.45,0,0.01,3
4839,102183951,0,-0.39,0,0.53,39.23,12.45,0,0.01,3
4884,102194685,0,-0.39,0,0.54,39.22,12.45,0,0.01,3
4929,102204940,0,-0.39,0,0.54,39.22,12.45,0,0.01,3
4974,102214938,0,-0.39,0,0.54,39.21,12.45,0,0.01,3
5022,102224851,0,-0.39,0,0.54,39.2,12.45,0,0.01,3
5068,102235046,0,-0.39,0,0.54,39.2,12.45,0,0.01,3
5115,102251495,0,-0.39,0,0.54,39.19,12.45,0,0.01,3
5160,102261755,0,-0.39,0,0.54,39.18,12.46,0,0.01,3
5205,102272032,0,-0.39,0,0.54,39.18,12.46,0,0.01,3
5250,102282542,0,-0.39,0,0.54,39.17,12.46,0,0.01,3
5295,102292436,0,-0.39,0,0.54,39.17,12.46,0,0.01,3
5340,102302649,0,-0.39,0,0.54,39.16,12.46,0,0.01,3
5384,102312190,0,-0.39,0,0.54,39.15,12.46,0,0.01,3
5433,102323173,0,-0.39,0,0.54,39.14,12.46,0,0.01,3
5477,102333839,0,-0.39,0,0.54,39.14,12.46,0,0.01,3
5522,102344225,0,-0.39,0,0.54,39.13,12.46,0,0.01,3
5567,102354649,0,-0.39,0,0.54,39.12,12.46,0,0.01,3
5611,102364845,0,-0.39,0,0.54,39.12,12.46,0,0.01,3
5657,102374634,0,-0.39,0,0.54,39.12,12.46,0,0.01,3
5701,102385144,0,-0.39,0,0.54,39.12,12.46,0,0.01,3
5746,102395684,0,-0.39,0,0.54,39.12,12.46,0,0.01,3
5790,102405950,0,-0.39,0,0.54,39.12,12.46,0,0.01,3
5835,102415704,0,-0.39,0,0.54,39.12,12.46,0,0.01,3
5884,102425837,0,-0.39,0,0.54,39.12,12.47,0,0.01,3
5928,102435713,0,-0.39,0,0.54,39.12,12.47,0,0.01,3
5975,102446538,0,-0.39,0,0.54,39.12,12.47,0,0.01,3
6016,102460458,0,-0.4,0,0.54,39.12,12.47,0,0.01,3
6059,102470655,0,-0.4,0,0.54,39.12,12.47,0,0.01,3
6102,102480834,0,-0.4,0,0.54,39.12,12.47,0,0.01,3
6145,102491391,0,-0.4,0,0.54,39.12,12.47,0,0.01,3
6188,102501190,0,-0.4,0,0.55,39.12,12.47,0,0.01,3
6233,102511739,0,-0.39,0,0.55,39.12,12.47,0,0.01,3
6276,102521789,0,-0.39,0,0.55,39.12,12.47,0,0.01,3
6322,102532054,0,-0.39,0,0.55,39.12,12.47,0,0.01,3
6365,102542522,0,-0.39,0,0.55,39.12,12.47,0,0.01,3
6408,102552499,0,-0.39,0,0.55,39.12,12.47,0,0.01,3
6451,102562301,0,-0.39,0,0.55,39.12,12.47,0,0.01,3
6494,102572270,0,-0.39,0,0.55,39.12,12.47,0,0.01,3
6540,102585049,0,-0.39,0,0.55,39.12,12.47,0,0.01,3
6583,102595484,0,-0.39,0,0.54,39.12,12.47,0,0.01,3
6626,102605644,0,-0.39,0,0.54,39.12,12.48,0,0.01,3
6668,102615490,0,-0.39,0,0.54,39.12,12.48,0,0.01,3
6711,102625697,0,-0.39,0,0.54,39.12,12.48,0,0.01,3
6757,102635848,0,-0.39,0,0.54,39.12,12.48,0,0.01,3
6800,102646249,0,-0.39,0,0.54,39.12,12.48,0,0.01,3
6844,102659216,0,-0.39,0,0.54,39.12,12.48,0,0.01,3
6884,102669850,0,-0.39,0,0.54,39.12,12.47,0,0.01,3
6925,102680531,0,-0.39,0,0.54,39.12,12.47,0,0.01,3
6969,102690326,0,-0.39,0,0.54,39.12,12.47,0,0.01,3
7014,102700324,0,-0.39,0,0.54,39.12,12.47,0,0.01,3
7060,102710846,0,-0.39,0,0.54,39.12,12.47,0,0.01,3
7104,102720899,0,-0.39,0,0.54,39.12,12.47,0,0.01,3
7152,102731003,0,-0.39,0,0.54,39.12,12.47,0,0.01,3
7197,102741255,0,-0.39,0,0.54,39.12,12.47,0,0.01,3
7243,102751373,0,-0.39,0,0.54,39.12,12.47,0,0.01,3
7287,102761718,0,-0.39,0,0.54,39.12,12.47,0,0.01,3
7332,102771739,0,-0.39,0,0.55,39.12,12.47,0,0.01,3
7373,102781726,0,-0.39,0,0.55,39.12,12.47,0,0.01,3
7418,102792604,0,-0.39,0,0.55,39.12,12.47,0,0.01,3
7465,102802744,0,-0.39,0,0.55,39.12,12.47,0,0.01,3
7510,102812947,0,-0.39,0,0.55,12.46,12.47,0,0.01,3
7555,102822762,0,-0.39,0,0.55,12.46,12.47,0,0.01,3
7602,102833465,0,-0.39,0,0.55,12.47,12.47,0,0.01,3
7647,102847021,0,-0.38,0,0.55,12.47,12.47,0,0.01,3
7692,102857796,0,-0.38,0,0.55,12.48,12.48,0,0.01,3
7737,102868020,0,-0.37,0,0.55,12.48,12.48,0,0.01,3
7782,102878294,0,-0.38,0,0.55,12.48,12.49,0,0.01,3
7826,102888900,0,-0.4,0,0.55,12.48,12.48,0,0.01,3
7871,102899409,0,-0.4,0,0.55,12.47,12.47,0,0.01,3
7917,102909992,0,-0.4,0,0.55,12.46,12.46,0,0.01,3
7962,102920478,0,-0.39,0,0.55,12.44,12.45,0,0.01,3
8008,102930658,0,-0.38,0,0.55,12.43,12.44,0,0.01,3
8056,102940518,0,-0.39,0,0.54,12.42,12.43,0,0.01,3
8101,102950660,0,-0.4,0,0.54,12.42,12.43,0,0.01,3
8146,102960954,0,-0.39,0,0.54,12.42,12.42,0,0.01,3
8191,102971820,0,-0.39,0,0.55,12.42,12.43,0,0.01,3
8236,102982705,0,-0.39,0,0.55,12.44,12.44,0,0.01,3
8282,102993356,0,-0.39,0,0.54,12.45,12.45,0,0.01,3
8329,103003524,0,-0.38,0,0.54,12.46,12.46,0,0.01,3
8373,103014088,0,-0.38,0,0.54,12.47,12.48,0,0.01,3
8420,103024733,0,-0.39,0,0.55,12.48,12.48,0,0.01,3
8465,103034821,0,-0.39,0,0.55,12.48,12.48,0,0.01,3
8514,103045113,0,-0.38,0,0.55,12.48,12.48,0,0.01,3
8558,103055648,0,-0.38,0,0.54,12.46,12.47,0,0.01,3
8600,103066106,0,-0.39,0,0.54,12.45,12.46,0,0.01,3
8645,103076032,0,-0.39,0,0.55,12.44,12.44,0,0.01,3
8692,103089083,0,-0.39,0,0.54,12.43,12.43,0,0.01,3
8737,103099187,0,-0.38,0,0.55,12.42,12.43,0,0.01,3
8782,103109962,0,-0.39,0,0.55,12.41,12.42,0,0.01,3
8827,103120250,0,-0.39,0,0.55,12.41,12.42,0,0.01,3
8873,103129845,0,-0.39,0,0.55,12.42,12.42,0,0.01,3
8917,103139988,0,-0.38,0,0.55,12.42,12.43,0,0.01,3
8966,103149788,0,-0.37,0,0.54,12.44,12.44,0,0.02,3
9010,103159851,0,-0.37,0,0.5600000000000001,12.45,12.45,0,0.02,3
9056,103170503,0,-0.38,0,0.55,12.45,12.46,0,0.02,3
9101,103180509,0,-0.39,0,0.54,12.47,12.47,0,0.02,3
9148,103193130,0,-0.37,0,0.55,12.46,12.46,0,0.02,3
9193,103203696,0,-0.37,0,0.5600000000000001,12.47,12.47,0,0.02,3
9238,103213746,0,-0.38,0,0.5600000000000001,12.45,12.45,0,0.02,3
9283,103224503,0,-0.38,0,0.55,12.45,12.46,0,0.02,3
9328,103234441,0,-0.37,0,0.55,12.43,12.43,0,0.02,3
9372,103244986,0,-0.35,0,0.55,12.42,12.43,0,0.02,3
9423,103255017,0,-0.38,0,0.54,12.41,12.41,0,0.02,3
9461,103265759,0,-0.39,0,0.54,12.41,12.41,0,0.02,3
9507,103276440,0,-0.36,0,0.54,12.4,12.41,0,0.02,3
9552,103286435,0,-0.35,0,0.55,12.4,12.4,0,0.02,3
9596,103296607,0,-0.38,0,0.53,12.41,12.41,0,0.02,3
9640,103307006,0,-0.39,0,0.53,12.41,12.42,0,0.02,3
9685,103317683,0,-0.36,0,0.53,12.42,12.43,0,0.02,3
9729,103327594,0,-0.35,0,0.55,12.43,12.43,0,0.02,3
9776,103337714,0,-0.38,0,0.54,12.44,12.44,0,0.02,3
9820,103347998,0,-0.39,0,0.55,12.44,12.45,0,0.02,3
9869,103357876,0,-0.36,0,0.55,12.45,12.45,0,0.02,3
9913,103368609,0,-0.36,0,0.5600000000000001,12.44,12.44,0,0.02,3
9958,103378511,0,-0.38,0,0.54,12.44,12.44,0,0.02,3
10003,103388613,0,-0.4,0,0.55,12.43,12.44,0,0.02,3
10044,103398670,0,-0.36,0,0.55,12.42,12.43,0,0.02,3
10093,103411054,0,-0.36,0,0.54,12.41,12.42,0,0.02,3
10137,103421755,0,-0.37,0,0.55,12.4,12.4,0,0.02,3
10182,103432257,0,-0.38,0,0.53,12.41,12.41,0,0.02,3
10225,103445207,0,-0.35,0,0.55,12.39,12.39,0,0.02,3
10275,103456096,0,-0.35,0,0.52,12.39,12.4,0,0.01,3
10319,103466527,0,-0.38,0,0.53,12.39,12.4,0,0.01,3
10365,103476645,0,-0.35,0,0.53,12.41,12.41,0,0.01,3
10410,103486501,0,-0.35,0,0.55,12.41,12.41,0,0.01,3
10453,103496761,0,-0.34,0,0.54,12.42,12.42,0,0.01,3
10498,103507248,0,-0.37,0,0.54,12.42,12.43,0,0.01,3
10543,103517545,0,-0.33,0,0.5600000000000001,12.43,12.44,0,0.01,3
10588,103528036,0,-0.35,0,0.55,12.43,12.43,0,0.01,3
10632,103538703,0,-0.35,0,0.5600000000000001,12.43,12.43,0,0.01,3
10677,103548761,0,-0.36,0,0.54,12.42,12.42,0,0.01,3
10730,103561176,0,-0.35,0,0.55,12.42,12.42,0,0.01,3
10774,103571728,0,-0.35,0,0.52,12.41,12.41,0,0.01,3
10819,103582038,0,-0.37,0,0.53,12.39,12.4,0,0.01,3
10863,103591756,0,-0.34,0,0.54,12.4,12.4,0,0.01,3
10908,103602034,0,-0.36,0,0.55,12.39,12.4,0,0.01,3
10953,103612675,0,-0.35,0,0.54,12.39,12.4,0,0.01,3
10998,103623397,0,-0.36,0,0.54,12.4,12.4,0,0.01,3
11043,103633708,0,-0.34,0,0.55,12.4,12.41,0,0.01,3
11092,103645969,0,-0.36,0,0.54,12.41,12.42,0,0.01,3
11142,103661534,0,-0.37,0,0.54,12.41,12.42,0,0.01,3
11185,103672075,0,-0.34,0,0.55,12.42,12.43,0,0.01,3
11229,103681877,0,-0.34,0,0.54,12.43,12.43,0,0.01,3
11271,103692013,0,-0.35,0,0.53,12.42,12.42,0,0.01,3
11314,103701957,0,-0.34,0,0.54,12.43,12.43,0,0.01,3
11360,103714662,0,-0.36,0,0.55,12.41,12.42,0,0.01,3
11402,103725027,0,-0.36,0,0.55,12.42,12.43,0,0.01,3
11445,103735640,0,-0.35,0,0.53,12.4,12.4,0,0.01,3
11487,103745752,0,-0.33,0,0.55,12.4,12.41,0,0.01,3
11531,103755455,0,-0.33,0,0.52,12.4,12.4,0,0.01,3
11577,103765667,0,-0.35,0,0.53,12.39,12.4,0,0.01,3
11620,103775977,0,-0.33,0,0.52,12.39,12.4,0,0.01,3
11663,103786469,0,-0.34,0,0.54,12.4,12.4,0,0.01,3
11706,103796660,0,-0.34,0,0.54,12.41,12.41,0,0.01,3
11750,103806761,0,-0.35,0,0.53,12.4,12.4,0,0.01,3
11792,103816625,0,-0.34,0,0.5600000000000001,12.42,12.42,0,0.01,3
11835,103826738,0,-0.36,0,0.55,12.41,12.41,0,0.01,3
11877,103837101,0,-0.36,0,0.55,12.43,12.43,0,0.01,3
11922,103847992,0,-0.36,0,0.53,12.4,12.41,0,0.01,3
11961,103861480,0,-0.33,0,0.55,12.42,12.43,0,0.01,3
12011,103871746,0,-0.33,0,0.53,12.42,12.43,0,0.01,3
12056,103881978,0,-0.34,0,0.54,12.4,12.41,0,0.01,3
12101,103892476,0,-0.33,0,0.5600000000000001,12.41,12.42,0,0.01,3
12146,103902695,0,-0.33,0,0.54,12.4,12.4,0,0.01,3
12190,103913175,0,-0.36,0,0.55,12.41,12.41,0,0.01,3
12237,103923920,0,-0.35,0,0.53,12.38,12.38,0,0.01,3
12281,103934060,0,-0.34,0,0.57,12.4,12.41,0,0.01,3
12326,103943948,0,-0.35,0,0.53,12.39,12.39,0,0.01,3
12371,103954503,0,-0.35,0,0.5600000000000001,12.4,12.4,0,0.01,3
12415,103964621,0,-0.35,0,0.55,12.38,12.39,0,0.01,3
12464,103974989,0,-0.34,0,0.5600000000000001,12.41,12.41,0,0.01,3
12509,103985288,0,-0.35,0,0.54,12.41,12.42,0,0.01,3
12556,103995525,0,-0.33,0,0.54,12.4,12.41,0,0.01,3
12601,104005938,0,-0.32,0,0.55,12.41,12.42,0,0.01,3
12646,104016528,0,-0.33,0,0.53,12.41,12.42,0,0.01,3
12692,104026528,0,-0.35,0,0.53,12.42,12.43,0,0.01,3
12738,104036678,0,-0.34,0,0.53,12.4,12.4,0.01,0.01,3
12777,104047279,0,-0.34,0,0.55,12.41,12.42,0.01,0.01,3
12823,104058040,0,-0.36,0,0.54,12.4,12.4,0.01,0.01,3
12868,104068012,0,-0.35,0,0.54,12.4,12.4,0.01,0.01,3
12916,104078075,0,-0.34,0,0.55,12.38,12.39,0.01,0.01,3
12961,104088612,0,-0.33,0,0.54,12.39,12.4,0.01,0.01,3
13006,104098668,0,-0.35,0,0.54,12.39,12.4,0.01,0.01,3
13051,104108539,0,-0.33,0,0.53,12.38,12.39,0.01,0.01,3
13096,104119673,0,-0.32,0,0.55,12.39,12.4,0.01,0.01,3
13140,104129661,0,-0.32,0,0.55,12.4,12.4,0.01,0.01,3
13185,104140044,0,-0.34,0,0.53,12.41,12.41,0.01,0.01,3
13229,104150199,0,-0.32,0,0.55,12.39,12.4,0.01,0.01,3
13274,104160451,0,-0.33,0,0.54,12.41,12.42,0.01,0.01,3
13319,104170642,0,-0.32,0,0.5600000000000001,12.41,12.42,0.01,0.01,3
13367,104180726,0,-0.34,0,0.53,12.42,12.42,0.01,0.01,3
13412,104190310,0,-0.32,0,0.5600000000000001,12.4,12.41,0.01,0.01,3
13433,104234224,0,-0.35,0,0.54,12.4,12.41,0.01,0.01,3
13477,104245034,0,-0.34,0,0.5600000000000001,12.4,12.41,0.01,0.01,3
13519,104255611,0,-0.36,0,0.53,12.4,12.4,0.01,0.01,3
13563,104266026,0,-0.34,0,0.5600000000000001,12.39,12.39,0.01,0.01,3
13611,104276528,0,-0.36,0,0.55,12.4,12.41,0.01,0.01,3
13656,104286662,0,-0.36,0,0.55,12.4,12.41,0.01,0.01,3
13701,104296538,0,-0.35,0,0.55,12.4,12.4,0.01,0.01,3
13745,104307692,0,-0.35,0,0.54,12.39,12.4,0.01,0.01,3
13790,104317815,0,-0.34,0,0.5600000000000001,12.41,12.42,0.01,0.01,3
13835,104328986,0,-0.36,0,0.51,12.4,12.41,0.01,0.01,3
13881,104339537,0,-0.3,0,0.57,12.41,12.41,0.01,0.01,3
13926,104349536,0,-0.32,0,0.53,12.4,12.4,0.01,0.01,3
13970,104360007,0,-0.32,0,0.57,12.42,12.42,0.01,0.01,3
14015,104370147,0,-0.33,0,0.55,12.4,12.4,0.01,0.01,3
14063,104380504,0,-0.33,0,0.58,12.4,12.4,0.01,0.01,3
14109,104390760,0,-0.34,0,0.5600000000000001,12.4,12.4,0.01,0.01,3
14154,104401175,0,-0.37,0,0.55,12.4,12.4,0.01,0.01,3
14198,104411111,0,-0.34,0,0.55,12.39,12.4,0.01,0.01,3
14244,104421982,0,-0.36,0,0.5600000000000001,12.38,12.39,0.01,0.01,3
14288,104431877,0,-0.36,0,0.5600000000000001,12.41,12.41,0.01,0.01,3
14333,104441965,0,-0.38,0,0.54,12.39,12.39,0.01,0.01,3
14376,104452424,0,-0.33,0,0.57,12.4,12.41,0.01,0.01,3
14421,104465764,0,-0.33,0,0.54,12.4,12.41,0.01,0.01,3
14467,104475766,0,-0.34,0,0.55,12.42,12.42,0.01,0.01,3
14517,104485988,0,-0.32,0,0.55,12.41,12.41,0.01,0.01,3
14561,104496080,0,-0.32,0,0.57,12.4,12.41,0.01,0.01,3
14605,104506404,0,-0.33,0,0.5600000000000001,12.42,12.43,0.01,0.01,3
14650,104516731,0,-0.35,0,0.55,12.41,12.42,0.01,0.01,3
14694,104526696,0,-0.32,0,0.58,12.42,12.42,0.01,0.01,3
14739,104537502,0,-0.34,0,0.54,12.39,12.4,0.01,0.01,3
14784,104548444,0,-0.34,0,0.58,12.42,12.43,0.01,0.01,3
14828,104558262,0,-0.35,0,0.51,12.39,12.39,0.01,0.01,3
14873,104568755,0,-0.33,0,0.57,12.4,12.4,0.01,0.01,3
14919,104579160,0,-0.34,0,0.52,12.39,12.39,0.01,0.01,3
14968,104589209,0,-0.36,0,0.54,12.4,12.41,0.01,0.01,3
15013,104599238,0,-0.35,0,0.54,12.39,12.39,0.01,0.01,3
15057,104609507,0,-0.35,0,0.5600000000000001,12.39,12.39,0.01,0.01,3
15102,104619678,0,-0.37,0,0.5600000000000001,12.4,12.41,0.01,0.01,3
15149,104632084,0,-0.37,0,0.53,12.4,12.4,0.01,0.01,3
15194,104642681,0,-0.33,0,0.57,12.41,12.42,0.01,0.01,3
15241,104653431,0,-0.33,0,0.52,12.4,12.4,0.01,0.01,3
15283,104667625,0,-0.37,0,0.55,12.42,12.42,0.01,0.01,3
15328,104677704,0,-0.33,0,0.57,12.41,12.42,0.01,0.01,3
15373,104688124,0,-0.33,0,0.55,12.4,12.4,0.01,0.01,3
15422,104698168,0,-0.34,0,0.57,12.42,12.42,0.01,0.01,3
15468,104708307,0,-0.35,0,0.54,12.4,12.4,0.01,0.01,3
15512,104718093,0,-0.33,0,0.59,12.4,12.41,0.01,0.01,3
15557,104728636,0,-0.34,0,0.55,12.39,12.39,0.01,0.01,3
15601,104738484,0,-0.36,0,0.57,12.4,12.41,0.01,0.01,3
15647,104749013,0,-0.36,0,0.54,12.38,12.39,0.01,0.01,3
15691,104759502,0,-0.36,0,0.58,12.39,12.39,0.01,0.01,3
15736,104769468,0,-0.38,0,0.55,12.39,12.39,0.01,0.01,3
15781,104779477,0,-0.37,0,0.5600000000000001,12.4,12.41,0.01,0.01,3
15825,104789841,0,-0.35,0,0.55,12.39,12.4,0.01,0.01,3
15874,104800266,0,-0.34,0,0.5600000000000001,12.4,12.4,0.01,0,3
15921,104810646,0,-0.35,0,0.57,12.41,12.42,0.01,0,3
15966,104820668,0,-0.35,0,0.55,12.41,12.41,0.01,0,3
16010,104830639,0,-0.32,0,0.6,12.41,12.42,0.01,0,3
16054,104840951,0,-0.33,0,0.5600000000000001,12.39,12.4,0.01,0,3
16093,104851831,0,-0.35,0,0.6,12.42,12.42,0.01,0,3
16135,104862079,0,-0.36,0,0.55,12.39,12.4,0.01,0,3
16179,104872653,0,-0.34,0,0.6,12.4,12.4,0.01,0,3
16222,104883339,0,-0.36,0,0.55,12.39,12.39,0.01,0,3
16265,104893636,0,-0.36,0,0.55,12.39,12.4,0.01,0,3
16313,104903363,0,-0.35,0,0.55,12.39,12.39,0.01,0,3
16355,104913941,0,-0.35,0,0.54,12.38,12.38,0.01,0,3
16402,104926674,0,-0.39,0,0.6,12.41,12.42,0.01,0,3
16444,104937529,0,-0.4,0,0.53,12.38,12.39,0.01,0,3
16487,104948073,0,-0.36,0,0.62,12.4,12.41,0.01,0,3
16529,104958672,0,-0.38,0,0.55,12.39,12.4,0.01,0,3
16572,104968712,0,-0.38,0,0.59,12.41,12.41,0.01,0,3
16617,104978789,0,-0.37,0,0.58,12.4,12.41,0.01,0,3
16659,104988998,0,-0.36,0,0.59,12.39,12.4,0.01,0,3
16705,104999625,0,-0.38,0,0.61,12.42,12.42,0.01,0,3
16748,105009530,0,-0.38,0,0.55,12.4,12.4,0.01,0,3
16793,105019632,0,-0.34,0,0.62,12.42,12.42,0.01,0,3
16835,105029978,0,-0.35,0,0.54,12.39,12.39,0.01,0,3
16878,105040391,0,-0.33,0,0.61,12.42,12.43,0.01,0,3
16923,105050716,0,-0.33,0,0.52,12.39,12.39,0,0,3
16960,105062232,0,-0.32,0,0.58,12.4,12.4,0,0,3
17005,105072509,0,-0.33,0,0.5600000000000001,12.39,12.39,0,0,3
17053,105082482,0,-0.34,0,0.57,12.4,12.4,0,0,3
17097,105092443,0,-0.33,0,0.59,12.39,12.39,0,0,3
17145,105102899,0,-0.33,0,0.59,12.39,12.39,0,0,3
17190,105113238,0,-0.35,0,0.6,12.41,12.41,0,0,3
17236,105122909,0,-0.34,0,0.57,12.39,12.4,0,0,3
17281,105133096,0,-0.32,0,0.61,12.41,12.42,0,0,3
17326,105143621,0,-0.33,0,0.5600000000000001,12.39,12.39,0,0,3
17370,105154123,0,-0.36,0,0.58,12.43,12.43,0,0,3
17415,105164682,0,-0.36,0,0.54,12.4,12.4,0,0,3
17459,105174976,0,-0.34,0,0.59,12.42,12.42,0,0,3
17504,105184871,0,-0.34,0,0.53,12.39,12.4,0,0,3
17548,105194839,0,-0.35,0,0.5600000000000001,12.42,12.42,0,0,3
17595,105205405,0,-0.33,0,0.54,12.39,12.39,0,0,3
17642,105215319,0,-0.32,0,0.5600000000000001,12.39,12.4,0,0,3
17687,105225510,0,-0.34,0,0.55,12.39,12.39,0,0,3
17735,105235535,0,-0.33,0,0.5600000000000001,12.39,12.4,0,0,3
17773,105246163,0,-0.31,0,0.59,12.4,12.4,0,0,3
17815,105256832,0,-0.31,0,0.5600000000000001,12.38,12.38,0,0,3
17860,105267208,0,-0.34,0,0.58,12.4,12.41,0,0,3
17904,105277860,0,-0.34,0,0.55,12.39,12.39,0,0,3
17949,105287983,0,-0.31,0,0.59,12.4,12.41,0,0,3
17994,105298706,0,-0.3,0,0.54,12.39,12.4,0,0,3
18042,105308760,0,-0.32,0,0.58,12.41,12.41,0,0,3
18089,105319077,0,-0.31,0,0.55,12.4,12.4,0,0,3
18134,105329206,0,-0.3,0,0.57,12.4,12.4,0,0,3
18179,105339654,0,-0.32,0,0.55,12.4,12.4,0,0,3
18224,105350035,0,-0.33,0,0.5600000000000001,12.39,12.4,0,0,3
18270,105360219,0,-0.32,0,0.58,12.4,12.4,0,0,3
18314,105370619,0,-0.32,0,0.55,12.37,12.38,0,0,3
18359,105380746,0,-0.35,0,0.58,12.39,12.39,0,0,3
18403,105391077,0,-0.34,0,0.54,12.37,12.37,0,0,3
18448,105401532,0,-0.34,0,0.59,12.38,12.39,0,0,3
18496,105411780,0,-0.32,0,0.53,12.37,12.37,0,0,3
18542,105421667,0,-0.34,0,0.57,12.39,12.39,0,0,3
18587,105432020,0,-0.32,0,0.54,12.37,12.38,0,0,3
18634,105445296,0,-0.32,0,0.55,12.38,12.38,0,0,3
18676,105456839,0,-0.37,0,0.58,12.39,12.4,0,0,3
18722,105467240,0,-0.36,0,0.55,12.38,12.38,0,0,3
18768,105477603,0,-0.36,0,0.61,12.4,12.4,0,0,3
18813,105487766,0,-0.35,0,0.54,12.38,12.39,0,0,3
18857,105498314,0,-0.36,0,0.57,12.4,12.41,0,0,3
18902,105508475,0,-0.32,0,0.55,12.39,12.39,0,0,3
18953,105520674,0,-0.34,0,0.54,12.38,12.38,0,0,3
18998,105531448,0,-0.37,0,0.5600000000000001,12.39,12.4,0,0,3
19043,105542091,0,-0.36,0,0.54,12.37,12.38,0,0,3
19092,105555030,0,-0.31,0,0.57,12.38,12.38,0,0,3
19137,105565192,0,-0.31,0,0.54,12.37,12.38,0,0,3
19182,105575237,0,-0.31,0,0.5600000000000001,12.38,12.38,0,0,3
19226,105585534,0,-0.3,0,0.57,12.37,12.38,0,0,3
19271,105595953,0,-0.3,0,0.5600000000000001,12.37,12.38,0,0,3
19316,105606256,0,-0.33,0,0.55,12.38,12.38,0,0,3
19361,105616381,0,-0.32,0,0.5600000000000001,12.38,12.38,0,0,3
19409,105626611,0,-0.34,0,0.5600000000000001,12.38,12.39,0,0.01,3
19454,105636774,0,-0.33,0,0.5600000000000001,12.38,12.39,0,0.01,3
19505,105652668,0,-0.32,0,0.55,12.39,12.39,0,0.01,3
19550,105665485,0,-0.35,0,0.54,12.38,12.38,0,0.01,3
19595,105676207,0,-0.34,0,0.55,12.38,12.39,0,0.01,3
19640,105686650,0,-0.37,0,0.54,12.37,12.38,0,0.01,3
19685,105697171,0,-0.32,0,0.57,12.38,12.39,0,0.01,3
19730,105707654,0,-0.33,0,0.57,12.37,12.38,0,0.01,3
19774,105717544,0,-0.34,0,0.54,12.37,12.38,0,0.01,3
19823,105727798,0,-0.33,0,0.5600000000000001,12.37,12.37,0,0.01,3
19868,105738521,0,-0.32,0,0.55,12.37,12.37,0,0.01,3
19914,105749459,0,-0.32,0,0.5600000000000001,12.38,12.38,0,0.01,3
19959,105759231,0,-0.35,0,0.52,12.37,12.37,0,0.01,3
20006,105772205,0,-0.29,0,0.55,12.39,12.39,0,0.01,3
20051,105782465,0,-0.32,0,0.54,12.38,12.38,0,0.01,3
20096,105793086,0,-0.32,0,0.53,12.39,12.39,0,0.01,3
20141,105803838,0,-0.34,0,0.55,12.39,12.39,0,0.01,3
20186,105814755,0,-0.34,0,0.53,12.38,12.38,0,0.01,3
20230,105824956,0,-0.34,0,0.57,12.39,12.4,0,0.01,3
20279,105835186,0,-0.37,0,0.53,12.37,12.38,0,0.01,3
20323,105845094,0,-0.34,0,0.57,12.39,12.39,0,0.01,3
20370,105855482,0,-0.36,0,0.53,12.37,12.37,0,0.01,3
20409,105866744,0,-0.35,0,0.55,12.38,12.38,0,0.01,3
20458,105879514,0,-0.36,0,0.57,12.37,12.38,0,0.01,3
20503,105889719,0,-0.34,0,0.55,12.37,12.37,0,0.01,3
20548,105900234,0,-0.34,0,0.5600000000000001,12.38,12.38,0,0.01,3
20593,105910284,0,-0.35,0,0.52,12.36,12.36,0,0.01,3
20638,105920410,0,-0.33,0,0.5600000000000001,12.38,12.38,0,0.01,3
20685,105930682,0,-0.32,0,0.53,12.36,12.37,0,0.01,3
20731,105940837,0,-0.3,0,0.55,12.37,12.38,0,0.01,3
20776,105950837,0,-0.33,0,0.52,12.36,12.36,0,0.01,3
20821,105960618,0,-0.32,0,0.5600000000000001,12.37,12.37,0,0.01,3
20870,105970292,0,-0.34,0,0.53,12.36,12.37,0,0.01,3
20914,105980670,0,-0.34,0,0.55,12.37,12.37,0,0.01,3
20962,105993093,0,-0.37,0,0.55,12.37,12.37,0,0.01,3
21006,106003660,0,-0.37,0,0.55,12.36,12.36,0,0.01,3
21051,106013812,0,-0.37,0,0.54,12.37,12.38,0,0.01,3
21097,106024487,0,-0.38,0,0.52,12.35,12.35,0,0.01,3
21145,106035102,0,-0.35,0,0.55,12.37,12.38,0,0.01,3
21192,106048174,0,-0.38,0,0.53,12.35,12.35,0,0.01,3
21233,106058704,0,-0.38,0,0.55,12.36,12.36,0,0.01,3
21277,106071216,0,-0.33,0,0.57,12.37,12.37,0,0.01,3
21320,106081471,0,-0.32,0,0.53,12.35,12.35,0,0.01,3
21363,106091669,0,-0.33,0,0.5600000000000001,12.38,12.38,0,0.01,3
21406,106101658,0,-0.32,0,0.52,12.34,12.34,0,0.01,3
21449,106111987,0,-0.32,0,0.57,12.38,12.38,0,0.01,3
21494,106121822,0,-0.34,0,0.52,12.35,12.35,0,0.01,3
21537,106132169,0,-0.34,0,0.55,12.38,12.38,0,0.01,3
21583,106142389,0,-0.35,0,0.54,12.35,12.35,0,0.01,3
21627,106152089,0,-0.35,0,0.57,12.38,12.38,0,0.01,3
21669,106162474,0,-0.37,0,0.5600000000000001,12.37,12.37,0,0.01,3
21713,106172813,0,-0.36,0,0.5600000000000001,12.37,12.37,0,0.01,3
21758,106186086,0,-0.36,0,0.59,12.38,12.38,0,0.01,3
21801,106196481,0,-0.35,0,0.53,12.37,12.37,0,0.01,3
21844,106206006,0,-0.35,0,0.57,12.38,12.38,0,0.01,3
21887,106216072,0,-0.35,0,0.55,12.36,12.36,0,0.01,3
21930,106226510,0,-0.32,0,0.5600000000000001,12.39,12.39,0,0.01,3
21976,106236528,0,-0.34,0,0.55,12.38,12.39,0,0.01,3
22022,106249618,0,-0.33,0,0.52,12.36,12.37,0,0.01,3
22062,106259899,0,-0.28,0,0.53,12.39,12.39,0,0.01,3
22107,106270486,0,-0.32,0,0.52,12.39,12.38,0,0.01,3
22153,106280849,0,-0.33,0,0.55,12.39,12.38,0,0.01,3
22197,106291071,0,-0.28,0,0.52,12.39,12.39,0,0.01,3
22242,106301114,0,-0.28,0,0.53,12.39,12.38,0,0.01,3
22287,106311489,0,-0.35,0,0.53,12.39,12.38,0,0.01,3
22332,106321648,0,-0.32,0,0.55,12.39,12.41,0,0.01,3
22377,106331711,0,-0.25,0,0.51,12.39,12.38,0,0.01,3
22425,106341640,0,-0.21,0,0.46,12.39,12.41,0,0.01,3
22470,106351518,0,-0.32,0,0.48,12.39,12.39,0,0.01,3
22515,106361939,0,-0.44,0,0.5,12.39,12.42,0,0.01,3
22560,106372011,0,-0.43,0,0.52,12.39,12.42,0,0.01,3
22605,106382035,0,-0.27,0,0.47,12.39,12.42,0,0.01,3
22646,106391858,0,-0.21,0,0.46,12.39,12.42,0,0.01,3
22695,106404665,0,-0.21,0,0.42,12.39,12.41,0,0.01,3
22743,106417472,0,-0.2,0,0.4,12.39,12.38,0,0.01,3
22787,106427731,0.01,-0.26,0,0.44,12.39,12.41,0,0.01,3
22839,106446693,0.02,-0.18,0,0.47,12.39,12.4,0,0.01,3
22884,106456863,0.03,-0.16,-0.01,0.46,12.39,12.37,0,0.01,3
22931,106467092,0.05,-0.22,-0.03,0.45,12.39,12.4,0,0.01,3
22975,106477211,0.06,-0.33,-0.03,0.46,12.39,12.38,0,0.01,3
23024,106491014,0.08,-0.28,-0.05,0.46,12.39,12.44,0,0.01,3
23071,106503775,0.1,-0.29,-0.06,0.42,12.39,12.4,0,0.01,3
23119,106516429,0.11,-0.29,-0.07000000000000001,0.39,12.39,12.4,0,0.01,3
23163,106526980,0.11,-0.31,-0.08,0.47,12.39,12.46,0,0.01,3
23208,106537262,0.12,-0.21,-0.09,0.38,12.39,12.4,0,0.01,3
23256,106547857,0.11,-0.19,-0.09,0.46,12.39,12.45,0,0.01,3
23303,106560389,0.1,-0.16,-0.1,0.44,12.39,12.43,0,0,3
23348,106570962,0.1,-0.21,-0.1,0.39,12.39,12.4,0,0,3
23393,106581713,0.1,-0.35,-0.1,0.47,12.39,12.43,0,0,3
23437,106592015,0.1,-0.32,-0.09,0.41,12.39,12.39,0,0,3
23483,106602475,0.09,-0.34,-0.09,0.48,12.39,12.42,0,0,3
23527,106612281,0.09,-0.24,-0.08,0.41,12.39,12.42,0,0,3
23573,106622469,0.09,-0.24,-0.07000000000000001,0.37,12.39,12.4,0,0,3
23618,106632200,0.09,-0.41,-0.07000000000000001,0.45,12.39,12.41,0,0,3
23661,106643074,0.08,-0.3,-0.06,0.45,12.39,12.4,0,0,3
23709,106656011,0.07000000000000001,-0.26,-0.06,0.4,12.39,12.39,0,0,3
23754,106666664,0.06,-0.38,-0.05,0.44,12.39,12.41,0,0,3
23799,106676954,0.06,-0.23,-0.05,0.46,12.39,12.42,0,0,3
23844,106687252,0.06,-0.25,-0.04,0.33,12.39,12.41,0,0,3
23888,106697938,0.06,-0.37,-0.04,0.38,12.39,12.42,0,0,3
23933,106708199,0.06,-0.34,-0.03,0.48,12.39,12.43,0,0,3
23979,106718618,0.06,-0.23,-0.02,0.37,12.39,12.42,0,0,3
24024,106728719,0.06,-0.36,-0.02,0.3,12.39,12.43,0,0,3
24068,106739000,0.06,-0.3,-0.02,0.51,12.39,12.44,0,0,3
24113,106749665,0.06,-0.22,-0.02,0.49,12.39,12.42,0,0,3
24161,106760089,0.05,-0.28,-0.03,0.34,12.39,12.41,0,0,3
24205,106770713,0.04,-0.22,-0.04,0.35,12.39,12.43,0,0,3
24249,106781249,0.04,-0.16,-0.04,0.48,12.39,12.42,0,0,3
24293,106791524,0.04,-0.35,-0.03,0.5,12.39,12.44,0,0,3
24340,106802009,0.04,-0.36,-0.03,0.41,12.39,12.44,0,0,3
24384,106812097,0.04,-0.08,-0.04,0.28,12.39,12.42,0,0,3
24431,106823007,0.03,0,-0.03,0.32,12.39,12.43,0,0,3
24475,106833412,0.03,-0.15,-0.03,0.39,12.39,12.43,0,0,3
24520,106844080,0.02,-0.51,-0.02,0.44,12.39,12.45,0,0,3
24567,106860108,0.01,0.08,-0.01,0.38,12.39,12.43,0,0,3
24616,106870775,0.02,-0.29,-0.01,0.44,12.39,12.42,0,0,3
24661,106880755,0.03,-0.42,-0.02,0.42,12.39,12.44,0,0,3
24706,106890854,0.05,-0.3,-0.02,0.41,12.39,12.47,0,0,3
24757,106906700,0.04,-0.33,-0.01,0.35,12.39,12.46,0,0,3
24805,106919694,0.02,-0.39,0,0.39,12.39,12.45,0,0,3
24849,106930531,0,-0.2,0,0.37,12.39,12.46,0,0,3
24895,106941454,0,-0.15,0,0.37,12.39,12.46,0,0,3
24939,106951490,-0.02,-0.17,0,0.36,12.39,12.45,0,0,3
24987,106962484,-0.04,-0.3,0,0.32,12.39,12.44,0,0,3
25036,106973114,-0.04,-0.33,0.01,0.32,12.39,12.46,0,0,3
25080,106983764,-0.03,-0.27,0.02,0.34,12.39,12.49,0,0,3
25125,106994956,-0.02,-0.15,0.02,0.33,12.39,12.51,0,0,3
25169,107005425,-0.01,-0.13,0.03,0.31,12.39,12.52,0,0,3
25214,107016018,-0.01,-0.09,0.04,0.3,12.39,12.55,0,0,3
25259,107026376,-0.01,-0.15,0.05,0.3,12.39,12.59,0,0,3
25309,107039063,-0.01,-0.26,0.06,0.22,12.39,12.63,0,0,3
25352,107052506,0,-0.19,0.06,0.27,12.39,12.63,0,0,3
25396,107062685,0,-0.17,0.07000000000000001,0.22,12.39,12.66,0,0,3
25448,107075522,0,-0.2,0.09,0.06,12.39,12.74,0,0,3
25493,107086216,0.01,-0.18,0.1,0,12.39,12.76,0,0,3
25538,107096658,0.03,-0.12,0.12,-0.02,12.39,12.76,0,0,3
25582,107106992,0.04,-0.09,0.13,-0.04,12.39,12.8,0,0,3
25634,107122514,0.06,-0.07000000000000001,0.14,-0.08,12.39,12.87,0,0,3
25678,107133313,0.06,0.05,0.14,-0.1,12.39,12.92,0,0,3
25723,107144170,0.06,0.08,0.15,-0.13,12.39,12.96,0,0,3
25770,107154461,0.05,0.06,0.15,-0.19,12.39,13.02,0,0,3
25817,107164730,0.05,0.1,0.15,-0.21,12.39,13.06,0,0,3
25861,107174875,0.05,0.18,0.15,-0.24,12.39,13.13,0,0,3
25909,107185049,0.06,0.25,0.15,-0.29,12.39,13.2,0,0.01,3
25954,107195470,0.05,0.22,0.15,-0.35,12.39,13.27,0,0.01,3
25998,107205974,0.03,0.22,0.15,-0.37,12.39,13.34,0,0.01,3
26043,107219007,0.03,0.33,0.15,-0.42,12.39,13.46,0,0.01,3
26087,107229747,0.02,0.31,0.15,-0.47,12.39,13.56,0,0.01,3
26133,107240102,0.01,0.37,0.16,-0.47,12.39,13.62,0,0.01,3
26181,107253629,0,0.39,0.17,-0.52,12.39,13.79,0.01,0.01,3
26226,107266858,-0.01,0.5,0.19,-0.42,12.39,13.93,0.01,0.01,3
26268,107277731,-0.04,0.51,0.2,-0.48,12.39,14.06,0.01,0.01,3
26315,107288055,-0.07000000000000001,0.54,0.2,-0.54,12.39,14.17,0.01,0.01,3
26358,107298679,-0.09,0.61,0.21,-0.46,12.39,14.3,0.01,0.01,3
26401,107309082,-0.11,0.55,0.22,-0.4,12.39,14.47,0.01,0.01,3
26444,107319188,-0.13,0.5,0.23,-0.47,12.39,14.62,0.01,0.01,3
26483,107330275,-0.15,0.59,0.24,-0.46,12.39,14.75,0.01,0.01,3
26526,107340675,-0.18,0.64,0.25,-0.42,12.39,14.89,0.01,0.01,3
26568,107351031,-0.21,0.6,0.27,-0.43,12.39,15.08,0.01,0.01,3
26611,107361773,-0.24,0.59,0.3,-0.54,12.39,15.25,0.01,0.01,3
26655,107371819,-0.28,0.65,0.33,-0.53,12.39,15.39,0.01,0.01,3
26698,107382222,-0.33,0.68,0.36,-0.48,12.39,15.54,0.01,0.01,3
26745,107392723,-0.38,0.61,0.39,-0.51,12.39,15.77,0.01,0.01,3
26787,107403684,-0.44,0.75,0.42,-0.57,12.39,15.92,0.01,0.01,3
26830,107414033,-0.49,0.83,0.46,-0.58,12.39,16.06,0.01,0.01,3
26873,107424458,-0.55,0.74,0.51,-0.64,12.39,16.28,0.01,0.01,3
26916,107434944,-0.59,0.66,0.54,-0.65,12.39,16.47,0.01,0.01,3
26958,107445012,-0.63,0.67,0.58,-0.68,12.39,16.64,0.01,0.01,3
27003,107455398,-0.68,0.66,0.62,-0.67,12.39,16.85,0.01,0.01,3
27044,107469502,-0.74,0.71,0.68,-0.72,12.39,17.04,0.01,0.01,3
27089,107480093,-0.79,0.68,0.73,-0.75,12.38,17.28,0.01,0.01,3
27134,107490690,-0.83,0.62,0.78,-0.77,12.38,17.47,0.01,0.01,3
27183,107500852,-0.89,0.65,0.82,-0.74,12.38,17.61,0.01,0.01,3
27228,107510944,-0.97,0.74,0.85,-0.68,12.38,17.8,0.01,0.01,3
27273,107521513,-1.06,0.71,0.89,-0.7,12.38,18.01,0.01,0.01,3
27320,107534208,-1.17,0.79,0.95,-0.63,12.38,18.21,0.01,0.01,3
27365,107545364,-1.27,0.82,0.99,-0.62,12.38,18.42,0.01,0.01,3
27409,107555500,-1.37,0.95,1.03,-0.62,12.38,18.58,0.01,0.01,3
27454,107565546,-1.49,1.06,1.07,-0.5600000000000001,12.38,18.71,0.01,0.01,3
27499,107575853,-1.61,1.1,1.11,-0.54,12.38,18.89,0.01,0.01,3
27544,107586687,-1.73,1.15,1.15,-0.5600000000000001,12.38,19.09,0.01,0.01,3
27594,107597204,-1.85,1.27,1.2,-0.59,12.37,19.2,0.01,0.01,3
27638,107607311,-1.96,1.37,1.25,-0.54,12.37,19.35,0.01,0.01,3
27683,107618063,-2.07,1.4,1.3,-0.49,12.37,19.53,0.01,0.01,3
27729,107628514,-2.17,1.37,1.34,-0.53,12.37,19.69,0.01,0.01,3
27773,107638971,-2.28,1.49,1.38,-0.5,12.37,19.81,0.01,0.01,3
27820,107655841,-2.39,1.45,1.43,-0.43,12.37,20.05,0.01,0.01,3
27864,107666393,-2.5,1.38,1.48,-0.38,12.36,20.2,0.01,0.01,3
27909,107676462,-2.6,1.26,1.54,-0.39,12.36,20.37,0.01,0.01,3
27954,107686392,-2.69,1.31,1.59,-0.37,12.36,20.46,0.01,0.01,3
27998,107697071,-2.79,1.29,1.64,-0.34,12.36,20.6,0.01,0.01,3
28047,107707733,-2.88,1.13,1.7,-0.4,12.35,20.75,0.01,0.02,3
28093,107718056,-2.98,1.1,1.77,-0.39,12.35,20.84,0.01,0.02,3
28137,107728439,-3.07,0.99,1.84,-0.37,12.35,20.97,0.01,0.02,3
28182,107738671,-3.16,0.83,1.91,-0.38,12.34,21.1,0.01,0.02,3
28226,107749996,-3.24,0.8,1.97,-0.37,12.34,21.19,0.01,0.02,3
28271,107760268,-3.33,0.62,2.03,-0.32,12.32,21.32,0.01,0.02,3
28315,107770521,-3.41,0.55,2.1,-0.35,12.29,21.41,0.01,0.02,3
28360,107780943,-3.5,0.51,2.15,-0.31,12.23,21.48,0.01,0.02,3
28405,107791601,-3.59,0.35,2.2,-0.24,12.16,21.58,0.01,0.02,3
28450,107801937,-3.67,0.15,2.24,-0.2,12.09,21.68,0.01,0.02,3
28499,107812895,-3.75,0.12,2.28,-0.15,12,21.74,0.01,0.01,3
28544,107823472,-3.84,-0.02,2.32,-0.13,11.91,21.84,0.01,0.01,3
28595,107836966,-3.95,-0.12,2.37,-0.04,11.79,21.9,0.01,0.01,3
28633,107848870,-3.99,-0.35,2.39,0.02,11.74,21.98,0.02,0.01,3
28678,107859225,-4.08,-0.42,2.44,0.1,11.64,22.02,0.02,0.01,3
28723,107869965,-4.15,-0.64,2.49,0.13,11.54,22.1,0.02,0.01,3
28768,107880622,-4.23,-0.79,2.53,0.2,11.44,22.12,0.02,0.01,3
28813,107891296,-4.3,-0.88,2.57,0.26,11.34,22.16,0.02,0.01,3
28858,107901703,-4.38,-1.1,2.61,0.31,11.22,22.19,0.02,0.01,3
28902,107912178,-4.45,-1.1,2.66,0.36,11.11,22.2,0.02,0.01,3
28951,107922474,-4.52,-1.27,2.69,0.49,10.98,22.22,0.02,0.01,3
28996,107932745,-4.59,-1.5,2.72,0.5600000000000001,10.82,22.24,0.02,0.01,3
29041,107943687,-4.65,-1.58,2.74,0.7,10.63,22.23,0.02,0.01,3
29091,107956840,-4.73,-1.78,2.77,0.83,10.37,22.21,0.02,0.01,3
29136,107968044,-4.8,-1.91,2.79,0.87,10.15,22.2,0.02,0.01,3
29181,107978611,-4.86,-2.04,2.8,0.9,9.92,22.18,0.02,0.01,3
29225,107988956,-4.92,-1.99,2.81,1.04,9.67,22.12,0.02,0.01,3
29270,107999031,-4.97,-2.18,2.83,1.15,9.42,22.11,0.02,0.01,3
29314,108009043,-5.03,-2.34,2.84,1.17,9.140000000000001,22.04,0.02,0.01,3
29362,108019726,-5.08,-2.43,2.85,1.28,8.859999999999999,21.97,0.02,0.01,3
29407,108029863,-5.13,-2.53,2.86,1.39,8.609999999999999,21.91,0.02,0.01,3
29452,108040645,-5.17,-2.65,2.86,1.46,8.359999999999999,21.83,0.02,0.01,3
29499,108050826,-5.2,-2.7,2.86,1.54,8.130000000000001,21.72,0.03,0.01,3
29537,108062254,-5.22,-2.88,2.87,1.59,8.01,21.63,0.03,0.01,3
29583,108072796,-5.25,-2.86,2.87,1.75,7.8,21.49,0.03,0.01,3
29627,108083032,-5.29,-3.05,2.87,1.76,7.59,21.4,0.03,0.01,3
29672,108093374,-5.33,-3,2.87,1.83,7.41,21.24,0.03,0.01,3
29716,108104455,-5.37,-2.99,2.86,1.96,7.22,21.11,0.03,0.01,3
29761,108114608,-5.4,-3.19,2.86,1.97,7.06,20.97,0.03,0.01,3
29813,108127617,-5.43,-3.22,2.84,2.09,6.86,20.8,0.03,0.02,3
29858,108137664,-5.45,-3.26,2.83,2.15,6.72,20.63,0.03,0.02,3
29902,108148438,-5.47,-3.19,2.83,2.15,6.61,20.47,0.03,0.02,3
29948,108158860,-5.49,-3.29,2.83,2.21,6.53,20.31,0.03,0.02,3
29992,108169646,-5.5,-3.3,2.83,2.24,6.48,20.13,0.03,0.02,3
30037,108179951,-5.51,-3.35,2.84,2.26,6.46,19.97,0.03,0.02,3
30082,108190274,-5.5,-3.42,2.84,2.27,6.45,19.81,0.03,0.02,3
30127,108201106,-5.51,-3.34,2.85,2.3,6.45,19.65,0.03,0.02,3
30174,108212071,-5.52,-3.39,2.86,2.29,6.45,19.48,0.03,0.02,3
30219,108222715,-5.53,-3.42,2.86,2.31,6.45,19.31,0.03,0.02,3
30267,108233762,-5.53,-3.42,2.87,2.42,6.45,19.12,0.03,0.02,3
30314,108247185,-5.53,-3.46,2.87,2.51,6.45,18.91,0.05,0.02,3
30356,108258629,-5.52,-3.53,2.87,2.52,6.45,18.78,0.05,0.02,3
30403,108269194,-5.51,-3.54,2.87,2.5,6.45,18.62,0.05,0.02,3
30447,108280054,-5.5,-3.48,2.87,2.54,6.45,18.44,0.05,0.02,3
30492,108291041,-5.48,-3.54,2.87,2.53,6.45,18.31,0.05,0.02,3
30537,108301862,-5.45,-3.43,2.87,2.54,6.45,18.13,0.05,0.02,3
30581,108312455,-5.41,-3.42,2.87,2.53,6.45,17.98,0.05,0.02,3
30626,108322531,-5.39,-3.48,2.86,2.49,6.45,17.84,0.05,0.02,3
30671,108333754,-5.36,-3.35,2.86,2.5,6.45,17.66,0.05,0.02,3
30720,108344715,-5.33,-3.32,2.87,2.47,6.45,17.54,0.05,0.02,3
30764,108354951,-5.3,-3.3,2.87,2.44,6.45,17.39,0.05,0.02,3
30808,108365426,-5.27,-3.16,2.86,2.44,6.45,17.21,0.05,0.02,3
30852,108376067,-5.23,-3.18,2.86,2.39,6.45,17.11,0.05,0.02,3
30900,108389409,-5.19,-2.99,2.86,2.33,6.45,16.88,0.05,0.02,3
30944,108399974,-5.16,-3,2.86,2.27,6.45,16.76,0.05,0.02,3
30989,108410017,-5.14,-2.88,2.86,2.27,6.45,16.59,0.05,0.02,3
31034,108420099,-5.11,-2.85,2.86,2.27,6.45,16.44,0.05,0.02,3
31079,108431008,-5.09,-2.84,2.85,2.25,6.45,16.34,0.05,0.02,3
31123,108440963,-5.06,-2.78,2.84,2.22,6.46,16.17,0.05,0.02,3
31176,108452103,-5.04,-2.71,2.83,2.22,6.46,16.04,0.05,0.03,3
31217,108463117,-5.03,-2.69,2.83,2.21,6.46,15.92,0.06,0.03,3
31259,108474731,-5.01,-2.66,2.81,2.26,6.46,15.73,0.06,0.03,3
31304,108485127,-4.99,-2.68,2.8,2.31,6.46,15.62,0.06,0.03,3
31349,108495747,-4.96,-2.73,2.8,2.31,6.46,15.52,0.06,0.03,3
31393,108507013,-4.93,-2.65,2.8,2.3,6.46,15.35,0.06,0.03,3
31439,108517738,-4.91,-2.6,2.8,2.33,6.46,15.24,0.06,0.03,3
31483,108528278,-4.89,-2.68,2.8,2.31,6.46,15.14,0.06,0.03,3
31528,108538518,-4.88,-2.61,2.8,2.32,6.46,15,0.06,0.03,3
31572,108548497,-4.86,-2.57,2.8,2.39,6.46,14.88,0.06,0.03,3
31621,108558614,-4.85,-2.66,2.81,2.44,6.46,14.79,0.06,0.03,3
31666,108568954,-4.84,-2.67,2.82,2.41,6.46,14.69,0.06,0.03,3
31713,108581665,-4.84,-2.56,2.84,2.37,6.46,14.52,0.06,0.03,3
31762,108595230,-4.84,-2.64,2.86,2.38,6.45,14.39,0.06,0.03,3
31806,108605691,-4.84,-2.63,2.87,2.45,6.45,14.25,0.06,0.03,3
31851,108615855,-4.84,-2.62,2.89,2.52,6.45,14.17,0.06,0.03,3
31896,108626441,-4.84,-2.64,2.9,2.48,6.45,14.06,0.06,0.03,3
31941,108636481,-4.85,-2.6,2.9,2.49,6.45,13.95,0.06,0.03,3
31988,108646654,-4.86,-2.56,2.91,2.54,6.45,13.83,0.06,0.03,3
32030,108658472,-4.87,-2.59,2.92,2.55,6.45,13.74,0.06,0.03,3
32072,108668976,-4.88,-2.48,2.92,2.56,6.45,13.6,0.06,0.02,3
32115,108679439,-4.9,-2.39,2.92,2.59,6.45,13.48,0.06,0.02,3
32159,108690020,-4.92,-2.45,2.92,2.62,6.45,13.39,0.06,0.02,3
32202,108701078,-4.94,-2.45,2.91,2.61,6.45,13.29,0.06,0.02,3
32244,108711711,-4.97,-2.29,2.9,2.64,6.45,13.12,0.06,0.02,3
32286,108721628,-5,-2.25,2.88,2.65,6.45,13.04,0.06,0.02,3
32328,108732256,-5.02,-2.32,2.86,2.69,6.45,12.96,0.06,0.02,3
32371,108742370,-5.04,-2.32,2.84,2.7,6.46,12.81,0.06,0.02,3
32415,108752281,-5.06,-2.22,2.81,2.72,6.46,12.7,0.06,0.02,3
32461,108763206,-5.09,-2.2,2.78,2.78,6.46,12.62,0.06,0.02,3
32504,108774167,-5.12,-2.29,2.75,2.76,6.46,12.55,0.06,0.02,3
32546,108784988,-5.14,-2.23,2.72,2.78,6.47,12.41,0.06,0.02,3
32589,108795143,-5.16,-2.15,2.69,2.8,6.47,12.31,0.06,0.02,3
32632,108805245,-5.18,-2.2,2.65,2.79,6.47,12.23,0.06,0.02,3
32675,108815494,-5.21,-2.27,2.62,2.78,6.47,12.15,0.06,0.02,3
32718,108825662,-5.23,-2.28,2.6,2.78,6.48,12.05,0.06,0.02,3
32760,108835942,-5.26,-2.22,2.57,2.78,6.48,11.95,0.06,0.02,3
32803,108846697,-5.28,-2.24,2.54,2.86,6.48,11.89,0.06,0.02,3
32847,108856851,-5.3,-2.32,2.51,2.84,6.49,11.82,0.07000000000000001,0.02,3
32887,108868981,-5.31,-2.34,2.49,2.85,6.49,11.71,0.07000000000000001,0.02,3
32933,108878985,-5.32,-2.36,2.47,2.85,6.49,11.66,0.07000000000000001,0.02,3
32977,108888998,-5.34,-2.42,2.45,2.79,6.49,11.6,0.07000000000000001,0.02,3
33022,108899477,-5.35,-2.45,2.43,2.74,6.49,11.54,0.07000000000000001,0.02,3
33073,108915326,-5.37,-2.49,2.41,2.69,6.5,11.43,0.07000000000000001,0.02,3
33117,108925981,-5.38,-2.53,2.4,2.66,6.5,11.35,0.07000000000000001,0.02,3
33162,108936475,-5.39,-2.58,2.39,2.66,6.5,11.28,0.07000000000000001,0.02,3
33208,108946805,-5.4,-2.63,2.39,2.62,6.5,11.25,0.07000000000000001,0.02,3
33253,108957268,-5.42,-2.66,2.39,2.53,6.5,11.21,0.07000000000000001,0.02,3
33298,108967692,-5.44,-2.65,2.38,2.47,6.5,11.14,0.07000000000000001,0.02,3
33348,108978454,-5.46,-2.69,2.37,2.47,6.5,11.08,0.07000000000000001,0.02,3
33392,108988824,-5.47,-2.73,2.36,2.47,6.5,11.04,0.07000000000000001,0.02,3
33437,108999207,-5.49,-2.8,2.36,2.41,6.5,11.01,0.07000000000000001,0.02,3
33481,109010032,-5.51,-2.73,2.34,2.38,6.5,10.95,0.07000000000000001,0.02,3
33526,109021534,-5.53,-2.72,2.33,2.44,6.5,10.87,0.07000000000000001,0.02,3
33571,109032212,-5.56,-2.77,2.3,2.46,6.51,10.86,0.07000000000000001,0.02,3
33618,109043171,-5.57,-2.9,2.27,2.42,6.51,10.84,0.07000000000000001,0.02,3
33659,109057807,-5.59,-2.8,2.24,2.42,6.51,10.77,0.06,0.02,3
33704,109068110,-5.61,-2.92,2.22,2.38,6.51,10.74,0.06,0.02,3
33748,109078705,-5.61,-2.91,2.2,2.36,6.51,10.69,0.06,0.02,3
33797,109089184,-5.61,-2.85,2.19,2.36,6.52,10.66,0.06,0.02,3
33841,109099455,-5.62,-2.89,2.18,2.38,6.52,10.64,0.06,0.02,3
33887,109109747,-5.62,-3.03,2.16,2.39,6.52,10.64,0.06,0.02,3
33931,109120031,-5.61,-3.1,2.15,2.35,6.52,10.59,0.06,0.02,3
33976,109130036,-5.6,-3.03,2.14,2.31,6.52,10.57,0.06,0.02,3
34020,109140659,-5.58,-3.04,2.12,2.32,6.52,10.56,0.06,0.02,3
34065,109151494,-5.57,-3.15,2.11,2.28,6.52,10.57,0.06,0.02,3
34110,109161460,-5.56,-3.26,2.09,2.21,6.53,10.55,0.06,0.02,3
34154,109172182,-5.54,-3.21,2.08,2.16,6.53,10.54,0.06,0.02,3
34199,109182820,-5.53,-3.21,2.07,2.25,6.53,10.5,0.06,0.02,3
34249,109193428,-5.52,-3.31,2.06,2.22,6.53,10.55,0.06,0.02,3
34294,109204016,-5.51,-3.44,2.04,2.15,6.53,10.54,0.06,0.02,3
34339,109214950,-5.49,-3.46,2.03,2.14,6.53,10.52,0.06,0.02,3
34383,109225441,-5.48,-3.43,2.01,2.12,6.53,10.52,0.06,0.02,3
34428,109236045,-5.47,-3.57,2,2.06,6.54,10.58,0.06,0.02,3
34473,109246966,-5.45,-3.56,1.98,1.99,6.54,10.59,0.06,0.02,3
34519,109260436,-5.43,-3.59,1.97,1.94,6.54,10.63,0.08,0.02,3
34563,109271625,-5.4,-3.65,1.96,1.89,6.54,10.66,0.08,0.02,3
34609,109282093,-5.39,-3.74,1.95,1.92,6.54,10.65,0.08,0.02,3
34658,109292756,-5.37,-3.79,1.94,1.96,6.54,10.71,0.08,0.02,3
34703,109302964,-5.36,-3.93,1.92,1.83,6.54,10.77,0.08,0.02,3
34748,109314136,-5.35,-3.84,1.91,1.82,6.54,10.79,0.08,0.02,3
34793,109325224,-5.34,-3.86,1.89,1.85,6.54,10.83,0.08,0.02,3
34837,109336791,-5.34,-4,1.88,1.75,6.55,10.91,0.08,0.02,3
34882,109347985,-5.34,-4.02,1.88,1.8,6.55,10.92,0.08,0.02,3
34930,109360754,-5.33,-4.13,1.87,1.8,6.55,11.03,0.08,0.02,3
34975,109371452,-5.32,-4.15,1.87,1.79,6.55,11.06,0.08,0.02,3
35020,109381807,-5.31,-4.2,1.87,1.81,6.55,11.1,0.08,0.02,3
35064,109392200,-5.3,-4.28,1.88,1.75,6.55,11.19,0.08,0.02,3
35113,109402643,-5.29,-4.28,1.89,1.68,6.55,11.24,0.08,0.02,3
35157,109413201,-5.29,-4.24,1.89,1.7,6.55,11.27,0.08,0.02,3
35202,109424209,-5.29,-4.32,1.89,1.76,6.54,11.3,0.08,0.02,3
35248,109434671,-5.29,-4.41,1.89,1.67,6.54,11.41,0.08,0.02,3
35294,109445492,-5.28,-4.35,1.9,1.62,6.54,11.44,0.08,0.02,3
35338,109457259,-5.28,-4.36,1.91,1.76,6.54,11.49,0.08,0.02,3
35384,109468718,-5.28,-4.32,1.91,1.69,6.54,11.55,0.08,0.02,3
35428,109479050,-5.27,-4.23,1.9,1.76,6.54,11.6,0.08,0.02,3
35473,109489762,-5.26,-4.25,1.88,1.81,6.55,11.66,0.08,0.02,3
35517,109500506,-5.25,-4.33,1.86,1.79,6.55,11.72,0.08,0.02,3
35566,109511037,-5.24,-4.24,1.83,1.82,6.55,11.73,0.08,0.02,3
35610,109521771,-5.23,-4.17,1.81,1.9,6.55,11.78,0.08,0.02,3
35656,109532718,-5.21,-4.21,1.77,1.94,6.56,11.85,0.08,0.02,3
35701,109543806,-5.2,-4.08,1.73,2,6.56,11.88,0.08,0.02,3
35745,109555030,-5.18,-4.01,1.68,2.1,6.56,11.92,0.08,0.02,3
35789,109566054,-5.17,-4.04,1.64,2.06,6.57,11.99,0.08,0.02,3
35835,109576544,-5.15,-3.89,1.6,2.11,6.57,12,0.08,0.02,3
35879,109586840,-5.14,-3.77,1.55,2.17,6.58,12.06,0.08,0.02,3
35924,109596938,-5.13,-3.77,1.51,2.16,6.58,12.12,0.08,0.02,3
35968,109607511,-5.12,-3.71,1.46,2.13,6.58,12.17,0.08,0.02,3
36017,109618180,-5.11,-3.64,1.41,2.13,6.59,12.17,0.08,0.02,3
36061,109628726,-5.1,-3.49,1.37,2.11,6.59,12.23,0.08,0.02,3
36107,109639614,-5.09,-3.44,1.33,2.05,6.6,12.3,0.08,0.02,3
36153,109649721,-5.08,-3.41,1.29,2.03,6.6,12.34,0.07000000000000001,0.02,3
36192,109661858,-5.07,-3.28,1.26,2.1,6.6,12.38,0.07000000000000001,0.02,3
36237,109672381,-5.06,-3.29,1.21,2.08,6.61,12.45,0.07000000000000001,0.02,3
36283,109682797,-5.04,-3.3,1.15,2.06,6.61,12.47,0.07000000000000001,0.02,3
36328,109694080,-5.02,-3.22,1.08,2.09,6.62,12.51,0.07000000000000001,0.02,3
36373,109704943,-5,-3.13,1,2.07,6.62,12.56,0.07000000000000001,0.02,3
36417,109715164,-4.99,-3.16,0.92,2,6.63,12.62,0.07000000000000001,0.02,3
36466,109725661,-4.97,-3.12,0.83,1.99,6.64,12.64,0.07000000000000001,0.02,3
36511,109735898,-4.96,-3.02,0.75,2.02,6.65,12.66,0.07000000000000001,0.02,3
36556,109746187,-4.95,-3.04,0.66,1.98,6.65,12.73,0.07000000000000001,0.02,3
36602,109756233,-4.94,-3.04,0.58,1.9,6.66,12.78,0.07000000000000001,0.02,3
36646,109766616,-4.93,-3.02,0.5,1.81,6.67,12.79,0.07000000000000001,0.02,3
36690,109778808,-4.9,-2.95,0.46,1.86,7.92,14.03,0.07000000000000001,0.02,3
36735,109789470,-4.89,-2.98,0.38,1.8,7.93,14.09,0.07000000000000001,0.02,3
36779,109799742,-4.9,-2.94,0.3,1.68,7.94,14.11,0.07000000000000001,0.02,3
36824,109810048,-4.9,-2.88,0.22,1.61,7.94,14.14,0.07000000000000001,0.02,3
36868,109821025,-4.9,-2.78,0.15,1.58,7.95,14.18,0.07000000000000001,0.02,3
36917,109831848,-4.9,-2.81,0.08,1.47,7.95,14.24,0.07000000000000001,0.01,3
36962,109842507,-4.91,-2.8,0.01,1.38,7.96,14.26,0.07000000000000001,0.01,3
37006,109852917,-4.91,-2.75,-0.06,1.37,7.97,14.29,0.07000000000000001,0.01,3
37055,109863059,-4.91,-2.78,-0.13,1.29,7.97,14.34,0.08,0.01,3
37096,109874967,-4.91,-2.86,-0.19,1.17,7.98,14.36,0.08,0.01,3
37136,109887227,-4.91,-2.77,-0.25,1.11,7.98,14.36,0.08,0.01,3
37179,109899090,-4.91,-2.87,-0.31,0.98,7.99,14.39,0.08,0.01,3
37224,109909185,-4.89,-2.88,-0.38,0.9399999999999999,7.99,14.36,0.08,0.01,3
37268,109919779,-4.88,-2.91,-0.44,0.91,8,14.36,0.08,0.01,3
37313,109930022,-4.86,-3.04,-0.5,0.84,8,14.39,0.08,0.01,3
37363,109940614,-4.85,-3.14,-0.55,0.76,8.01,14.42,0.08,0.02,3
37408,109951005,-4.84,-3.17,-0.6,0.67,8.01,14.41,0.08,0.02,3
37452,109961663,-4.83,-3.2,-0.63,0.64,8.02,14.41,0.08,0.02,3
37497,109972456,-4.82,-3.33,-0.66,0.53,8.02,14.48,0.08,0.02,3
37538,109987490,-4.81,-3.3,-0.6899999999999999,0.41,8.02,14.49,0.08,0.02,3
37583,109998457,-4.81,-3.37,-0.72,0.26,8.02,14.53,0.08,0.02,3
37630,110008828,-4.8,-3.41,-0.74,0.2,8.029999999999999,14.52,0.08,0.02,3
37674,110018692,-4.8,-3.51,-0.76,0.19,8.029999999999999,14.52,0.08,0.02,3
37718,110028990,-4.79,-3.54,-0.78,0.15,8.029999999999999,14.54,0.08,0.02,3
37762,110039099,-4.79,-3.62,-0.8,0.02,8.029999999999999,14.58,0.08,0.02,3
37811,110049220,-4.8,-3.56,-0.8100000000000001,-0.04,8.029999999999999,14.56,0.08,0.02,3
37857,110066185,-4.81,-3.54,-0.8100000000000001,-0.12,8.029999999999999,14.59,0.07000000000000001,0.02,3
37901,110076485,-4.81,-3.54,-0.8100000000000001,-0.13,8.029999999999999,14.65,0.07000000000000001,0.02,3
37948,110087510,-4.81,-3.66,-0.82,-0.17,8.029999999999999,14.72,0.07000000000000001,0.02,3
37993,110098397,-4.81,-3.62,-0.82,-0.26,8.029999999999999,14.72,0.07000000000000001,0.02,3
38034,110113289,-4.81,-3.52,-0.83,-0.38,8.029999999999999,14.78,0.07000000000000001,0.02,3
38078,110123444,-4.81,-3.47,-0.84,-0.36,8.029999999999999,14.79,0.07000000000000001,0.02,3
38123,110134180,-4.81,-3.49,-0.85,-0.36,8.029999999999999,14.84,0.07000000000000001,0.02,3
38168,110144769,-4.81,-3.56,-0.86,-0.42,8.039999999999999,14.87,0.07000000000000001,0.02,3
38217,110155135,-4.8,-3.51,-0.86,-0.45,8.039999999999999,14.88,0.07000000000000001,0.02,3
38261,110165748,-4.79,-3.52,-0.86,-0.41,8.039999999999999,14.94,0.07000000000000001,0.02,3
38306,110176056,-4.79,-3.53,-0.87,-0.46,8.039999999999999,14.98,0.07000000000000001,0.02,3
38351,110186243,-4.79,-3.47,-0.87,-0.48,8.039999999999999,14.98,0.07000000000000001,0.02,3
38392,110197470,-4.79,-3.4,-0.87,-0.46,8.039999999999999,15.02,0.07000000000000001,0.02,3
38433,110208722,-4.79,-3.42,-0.87,-0.5600000000000001,8.039999999999999,15.05,0.07000000000000001,0.02,3
38479,110219256,-4.79,-3.32,-0.88,-0.53,8.039999999999999,15.05,0.07000000000000001,0.02,3
38523,110229469,-4.79,-3.35,-0.88,-0.5,8.039999999999999,15.11,0.07000000000000001,0.02,3
38568,110239657,-4.8,-3.42,-0.88,-0.54,8.039999999999999,15.13,0.07000000000000001,0.02,3
38614,110249743,-4.81,-3.36,-0.88,-0.58,8.039999999999999,15.13,0.07000000000000001,0.02,3
38663,110264772,-4.83,-3.27,-0.88,-0.65,8.039999999999999,15.2,0.07000000000000001,0.02,3
38708,110275390,-4.84,-3.19,-0.89,-0.63,8.039999999999999,15.26,0.07000000000000001,0.01,3
38753,110285623,-4.86,-3.16,-0.9,-0.57,8.039999999999999,15.34,0.07000000000000001,0.01,3
38799,110295721,-4.88,-3.17,-0.92,-0.59,8.039999999999999,15.44,0.07000000000000001,0.01,3
38843,110309632,-4.91,-3.09,-0.9399999999999999,-0.52,8.039999999999999,15.53,0.07000000000000001,0.01,3
38892,110320080,-4.95,-3.14,-0.97,-0.5,8.039999999999999,15.62,0.07000000000000001,0.01,3
38936,110330704,-4.98,-3.2,-1,-0.55,8.050000000000001,15.71,0.07000000000000001,0.01,3
38983,110340828,-5.01,-3.14,-1.04,-0.53,8.050000000000001,15.75,0.07000000000000001,0.01,3
39025,110352378,-5.04,-3.11,-1.06,-0.51,8.050000000000001,15.85,0.07000000000000001,0.01,3
39069,110362473,-5.07,-3.18,-1.09,-0.57,8.06,15.95,0.07000000000000001,0.01,3
39118,110372658,-5.1,-3.16,-1.12,-0.62,8.06,16,0.07000000000000001,0.01,3
39162,110383641,-5.14,-3.08,-1.14,-0.62,8.06,16.03,0.07000000000000001,0.01,3
39207,110394457,-5.16,-3.19,-1.16,-0.64,8.06,16.14,0.07000000000000001,0.01,3
39252,110404834,-5.19,-3.3,-1.18,-0.66,8.06,16.2,0.07000000000000001,0.01,3
39296,110418838,-5.21,-3.27,-1.2,-0.74,8.07,16.28,0.07000000000000001,0.01,3
39342,110432788,-5.24,-3.37,-1.23,-0.68,8.07,16.31,0.07000000000000001,0.01,3
39390,110446110,-5.26,-3.48,-1.27,-0.8,8.07,16.4,0.06,0.01,3
39432,110458032,-5.3,-3.43,-1.29,-0.79,8.07,16.44,0.06,0.01,3
39477,110468208,-5.33,-3.55,-1.33,-0.83,8.08,16.56,0.06,0.01,3
39526,110479197,-5.36,-3.61,-1.38,-0.86,8.08,16.62,0.06,0.01,3
39571,110489677,-5.39,-3.6,-1.42,-0.86,8.09,16.67,0.06,0.01,3
39616,110500098,-5.42,-3.74,-1.46,-0.86,8.09,16.77,0.06,0.01,3
39661,110511125,-5.44,-3.88,-1.51,-0.91,8.09,16.82,0.06,0.01,3
39706,110525057,-5.45,-3.93,-1.55,-0.9,8.1,16.89,0.06,0.01,3
39750,110535529,-5.46,-4.04,-1.6,-0.91,8.1,16.93,0.06,0.01,3
39792,110546485,-5.47,-4.07,-1.64,-0.92,8.109999999999999,16.97,0.06,0.01,3
39837,110557251,-5.49,-4.16,-1.68,-0.97,8.109999999999999,17.03,0.06,0.01,3
39881,110568019,-5.51,-4.25,-1.73,-1,8.119999999999999,17.08,0.06,0.01,3
39926,110578726,-5.53,-4.26,-1.76,-1.02,8.119999999999999,17.09,0.06,0.01,3
39975,110589256,-5.53,-4.42,-1.8,-1.04,8.119999999999999,17.18,0.06,0.01,3
40019,110599755,-5.53,-4.56,-1.84,-1.11,8.130000000000001,17.19,0.06,0.01,3
40064,110609950,-5.54,-4.52,-1.87,-1.14,8.130000000000001,17.18,0.06,0.01,3
40108,110619814,-5.54,-4.57,-1.89,-1.13,8.130000000000001,17.22,0.06,0.01,3
40150,110631093,-5.55,-4.69,-1.91,-1.24,8.130000000000001,17.26,0.06,0.01,3
40194,110641027,-5.55,-4.64,-1.92,-1.28,8.130000000000001,17.24,0.06,0.01,3
40237,110652486,-5.55,-4.68,-1.93,-1.3,8.130000000000001,17.27,0.06,0.01,3
40281,110664364,-5.54,-4.8,-1.94,-1.38,8.140000000000001,17.27,0.06,0.01,3
40321,110675524,-5.54,-4.71,-1.94,-1.4,8.140000000000001,17.22,0.06,0.01,3
40364,110685628,-5.54,-4.75,-1.94,-1.44,8.140000000000001,17.18,0.06,0.01,3
40411,110696064,-5.53,-4.84,-1.93,-1.5,8.130000000000001,17.13,0.06,0.01,3
40453,110706643,-5.52,-4.75,-1.92,-1.49,8.130000000000001,17.01,0.06,0.01,3
40496,110716958,-5.5,-4.73,-1.9,-1.48,8.130000000000001,16.95,0.06,0.01,3
40538,110726869,-5.5,-4.77,-1.88,-1.49,8.130000000000001,16.88,0.06,0.01,3
40578,110737971,-5.49,-4.63,-1.86,-1.57,8.130000000000001,16.77,0.06,0.01,3
40622,110748966,-5.49,-4.58,-1.82,-1.55,8.119999999999999,16.68,0.06,0.01,3
40661,110760174,-5.49,-4.53,-1.79,-1.61,8.119999999999999,16.58,0.06,0.01,3
40704,110771042,-5.48,-4.52,-1.74,-1.58,8.119999999999999,16.49,0.06,0.01,3
40746,110781447,-5.47,-4.53,-1.69,-1.54,8.109999999999999,16.4,0.06,0.01,3
40790,110791955,-5.46,-4.52,-1.63,-1.56,8.109999999999999,16.33,0.06,0.01,3
40837,110802020,-5.44,-4.44,-1.57,-1.54,8.1,16.22,0.06,0.01,3
40879,110812194,-5.42,-4.39,-1.5,-1.47,8.09,16.16,0.06,0.01,3
40923,110822500,-5.4,-4.45,-1.44,-1.49,8.09,16.11,0.06,0.01,3
40965,110832541,-5.37,-4.44,-1.38,-1.47,8.08,16.04,0.06,0.01,3
41008,110842386,-5.34,-4.38,-1.32,-1.37,8.08,15.95,0.06,0.01,3
41050,110853704,-5.33,-4.43,-1.28,-1.33,8.07,15.94,0.06,0.01,3
41087,110866508,-5.31,-4.37,-1.25,-1.34,8.07,15.87,0.06,0.01,3
41127,110878609,-5.29,-4.46,-1.18,-1.25,8.06,15.86,0.06,0.01,3
41174,110889075,-5.28,-4.5,-1.09,-1.25,8.06,15.83,0.06,0.01,3
41218,110899714,-5.27,-4.45,-1,-1.11,8.050000000000001,15.78,0.06,0.01,3
41267,110909754,-5.26,-4.54,-0.91,-1.07,8.039999999999999,15.8,0.06,0.01,3
41311,110920073,-5.25,-4.59,-0.8100000000000001,-1.07,8.029999999999999,15.78,0.06,0.01,3
41356,110930761,-5.25,-4.48,-0.72,-0.95,8.02,15.74,0.06,0.01,3
41402,110941478,-5.25,-4.53,-0.63,-0.88,8.01,15.75,0.06,0.01,3
41448,110951729,-5.25,-4.61,-0.55,-0.8,8.01,15.76,0.06,0.01,3
41489,110963195,-5.24,-4.59,-0.49,-0.58,8,15.71,0.06,0.01,3
41531,110974700,-5.23,-4.68,-0.43,-0.49,7.99,15.74,0.06,0.01,3
41577,110985214,-5.23,-4.62,-0.34,-0.4,7.99,15.72,0.06,0.01,3
41622,110995737,-5.23,-4.59,-0.26,-0.26,7.98,15.69,0.06,0.01,3
41666,111005948,-5.24,-4.64,-0.19,-0.12,7.97,15.73,0.06,0.01,3
41715,111015994,-5.25,-4.62,-0.13,-0.01,7.97,15.7,0.06,0.01,3
41759,111026709,-5.26,-4.54,-0.07000000000000001,0.05,7.96,15.68,0.06,0.01,3
41804,111037113,-5.28,-4.5,-0.01,0.19,7.96,15.7,0.06,0.01,3
41848,111047801,-5.3,-4.49,0.04,0.24,7.95,15.7,0.06,0.01,3
41894,111058051,-5.32,-4.36,0.08,0.4,7.95,15.64,0.06,0.01,3
41935,111070627,-5.34,-4.38,0.1,0.52,7.94,15.67,0.05,0.01,3
41973,111082894,-5.36,-4.24,0.14,0.64,7.94,15.63,0.05,0.01,3
42017,111093390,-5.37,-4.25,0.17,0.8100000000000001,7.94,15.63,0.05,0.01,3
42061,111103770,-5.38,-4.24,0.19,0.89,7.94,15.65,0.05,0.01,3
42107,111114510,-5.38,-4.14,0.2,1.01,7.94,15.59,0.05,0.01,3
42156,111124939,-5.38,-4.1,0.21,1.21,7.93,15.59,0.05,0.01,3
42200,111135214,-5.38,-4.16,0.2,1.35,7.94,15.59,0.05,0.01,3
42245,111145643,-5.37,-4.13,0.18,1.46,7.94,15.56,0.05,0.01,3
42289,111155637,-5.37,-4.04,0.15,1.59,7.94,15.55,0.05,0.01,3
42330,111167716,-5.36,-4.1,0.12,1.72,7.94,15.57,0.05,0.01,3
42376,111178631,-5.36,-3.99,0.09,1.78,7.95,15.53,0.05,0.01,3
42421,111188984,-5.35,-3.87,0.06,1.87,7.95,15.5,0.05,0.01,3
42463,111200152,-5.36,-3.87,0.03,1.86,7.95,15.51,0.05,0.01,3
42507,111210657,-5.37,-3.8,0,1.89,7.96,15.46,0.05,0.01,3
42553,111221161,-5.37,-3.74,-0.04,1.91,7.96,15.42,0.05,0.01,3
42601,111232032,-5.38,-3.72,-0.08,2.01,7.96,15.39,0.05,0.01,3
42646,111241982,-5.38,-3.77,-0.12,1.97,7.97,15.38,0.05,0.01,3
42690,111252026,-5.38,-3.71,-0.16,1.94,7.97,15.32,0.05,0.01,3
42737,111265479,-5.37,-3.72,-0.22,1.97,7.98,15.31,0.06,0.01,3
42776,111278089,-5.37,-3.7,-0.25,1.89,7.98,15.25,0.06,0.01,3
42818,111289282,-5.36,-3.65,-0.28,1.86,7.98,15.16,0.06,0.01,3
42862,111299604,-5.35,-3.73,-0.33,1.78,7.99,15.06,0.06,0.01,3
42906,111309653,-5.32,-3.75,-0.39,1.7,7.99,14.91,0.06,0.01,3
42952,111319993,-5.29,-3.74,-0.43,1.68,8,14.78,0.06,0.01,3
42997,111330525,-5.25,-3.83,-0.48,1.66,8,14.63,0.06,0.01,3
43046,111340708,-5.2,-3.95,-0.52,1.56,8,14.55,0.06,0.01,3
43091,111351479,-5.14,-3.92,-0.5600000000000001,1.49,8.01,14.38,0.06,0.01,3
43136,111361497,-5.09,-3.88,-0.59,1.42,8.01,14.22,0.06,0.01,3
43181,111371766,-5.04,-3.9,-0.62,1.39,8.01,14.1,0.06,0.01,3
43219,111384195,-5.02,-3.93,-0.65,1.28,8.02,13.97,0.06,0.01,3
43264,111395223,-4.97,-3.93,-0.6899999999999999,1.24,8.02,13.82,0.06,0.01,3
43309,111405490,-4.93,-3.98,-0.73,1.18,8.02,13.73,0.06,0.01,3
43356,111415437,-4.88,-3.99,-0.77,1.09,8.029999999999999,13.59,0.06,0.01,3
43402,111425835,-4.84,-3.94,-0.8100000000000001,1.04,8.029999999999999,13.44,0.06,0.01,3
43448,111436452,-4.81,-3.91,-0.85,1.04,8.029999999999999,13.31,0.06,0.01,3
43497,111447072,-4.77,-3.94,-0.89,0.98,8.039999999999999,13.23,0.06,0.01,3
43544,111464532,-4.73,-3.94,-0.95,0.92,8.039999999999999,13.05,0.07000000000000001,0.01,3
43589,111475415,-4.7,-3.88,-0.99,0.86,8.039999999999999,12.92,0.07000000000000001,0.01,3
43633,111488990,-4.67,-3.91,-1.02,0.8100000000000001,8.050000000000001,12.77,0.07000000000000001,0.01,3
43675,111500685,-4.65,-3.83,-1.04,0.8100000000000001,8.050000000000001,12.63,0.07000000000000001,0.01,3
43720,111511802,-4.63,-3.72,-1.05,0.82,8.050000000000001,12.52,0.07000000000000001,0.01,3
43766,111522672,-4.61,-3.72,-1.06,0.76,8.050000000000001,12.46,0.07000000000000001,0.01,3
43811,111533429,-4.59,-3.67,-1.06,0.72,8.050000000000001,12.34,0.07000000000000001,0.01,3
43855,111544697,-4.57,-3.55,-1.06,0.75,8.050000000000001,12.25,0.07000000000000001,0.01,3
43904,111555138,-4.56,-3.53,-1.05,0.73,8.050000000000001,12.19,0.07000000000000001,0.01,3
43949,111565619,-4.56,-3.5,-1.04,0.66,8.050000000000001,12.13,0.07000000000000001,0.01,3
43995,111575860,-4.56,-3.46,-1.03,0.7,8.050000000000001,12.04,0.07000000000000001,0.01,3
44039,111586110,-4.55,-3.4,-1.02,0.76,8.050000000000001,11.98,0.07000000000000001,0.01,3
44080,111597615,-4.54,-3.38,-1.01,0.73,8.050000000000001,11.97,0.07000000000000001,0.01,3
44122,111609074,-4.53,-3.31,-1,0.73,8.039999999999999,11.92,0.07000000000000001,0.01,3
44167,111619656,-4.52,-3.31,-0.97,0.79,8.039999999999999,11.86,0.07000000000000001,0.01,3
44211,111630478,-4.51,-3.28,-0.95,0.82,8.039999999999999,11.86,0.07000000000000001,0.01,3
44256,111640974,-4.51,-3.29,-0.9399999999999999,0.8,8.039999999999999,11.84,0.07000000000000001,0.01,3
44303,111651966,-4.51,-3.26,-0.9399999999999999,0.85,8.039999999999999,11.8,0.07000000000000001,0.01,3
44349,111663630,-4.51,-3.24,-0.93,0.93,8.039999999999999,11.81,0.09,0,3
44394,111674943,-4.51,-3.29,-0.93,0.93,8.039999999999999,11.82,0.09,0,3
44439,111685296,-4.52,-3.23,-0.9399999999999999,1.02,8.039999999999999,11.83,0.09,0,3
44483,111695625,-4.54,-3.23,-0.95,1.08,8.039999999999999,11.88,0.09,0,3
44525,111706944,-4.57,-3.24,-0.96,1.06,8.039999999999999,11.97,0.09,0,3
44570,111720938,-4.61,-3.2,-0.97,1.13,8.039999999999999,11.99,0.09,0,3
44615,111731649,-4.67,-3.2,-0.99,1.14,8.039999999999999,12.08,0.09,0,3
44660,111742298,-4.73,-3.28,-1.01,1.09,8.050000000000001,12.15,0.09,0,3
44705,111752641,-4.81,-3.23,-1.03,1.09,8.050000000000001,12.19,0.09,0,3
44750,111762942,-4.89,-3.21,-1.05,1.15,8.050000000000001,12.24,0.09,0,3
44798,111773838,-4.97,-3.26,-1.08,1.12,8.050000000000001,12.33,0.09,0.01,3
44842,111784961,-5.04,-3.32,-1.11,1.03,8.050000000000001,12.42,0.09,0.01,3
44887,111794947,-5.11,-3.31,-1.14,1.03,8.06,12.46,0.09,0.01,3
44934,111804964,-5.18,-3.4,-1.16,1.03,8.06,12.51,0.09,0.01,3
44975,111816125,-5.22,-3.48,-1.18,1,8.06,12.61,0.09,0.01,3
45019,111829875,-5.29,-3.51,-1.22,0.96,8.06,12.66,0.09,0.01,3
45063,111840845,-5.34,-3.6,-1.27,0.96,8.07,12.73,0.09,0.01,3
45110,111851944,-5.4,-3.8,-1.31,0.87,8.07,12.82,0.09,0.01,3
45152,111866633,-5.46,-3.87,-1.37,0.83,8.08,12.87,0.11,0.01,3
45201,111877784,-5.5,-4.01,-1.41,0.75,8.08,12.92,0.11,0.01,3
45246,111888220,-5.53,-4.09,-1.44,0.67,8.09,12.92,0.11,0.01,3
45291,111898847,-5.56,-4.19,-1.46,0.63,8.09,12.94,0.11,0.01,3
45336,111909645,-5.58,-4.41,-1.48,0.57,8.09,12.99,0.11,0.01,3
45381,111927545,-5.59,-4.62,-1.49,0.44,8.09,13.05,0.11,0.01,3
45428,111937989,-5.6,-4.63,-1.51,0.4,8.09,13.03,0.11,0.01,3
45473,111948538,-5.61,-4.73,-1.53,0.4,8.09,13.05,0.11,0.01,3
45518,111959013,-5.63,-4.84,-1.55,0.36,8.1,13.12,0.11,0.01,3
45563,111969741,-5.64,-4.94,-1.58,0.31,8.1,13.12,0.11,0.01,3
45609,111980524,-5.65,-4.96,-1.6,0.34,8.1,13.13,0.11,0.01,3
45657,111990736,-5.66,-5.01,-1.62,0.33,8.1,13.15,0.11,0.01,3
45702,112000543,-5.66,-5.09,-1.64,0.27,8.109999999999999,13.18,0.11,0.01,3
45746,112010995,-5.67,-5.13,-1.65,0.26,8.109999999999999,13.2,0.11,0.01,3
45791,112021074,-5.68,-5.09,-1.67,0.24,8.109999999999999,13.18,0.11,0.01,3
45833,112032824,-5.68,-5.13,-1.68,0.29,8.109999999999999,13.22,0.11,0.01,3
45874,112044505,-5.67,-5.17,-1.69,0.25,8.109999999999999,13.23,0.11,0.01,3
45918,112055999,-5.66,-5.2,-1.7,0.3,8.109999999999999,13.26,0.09,0.01,3
45960,112067186,-5.64,-5.21,-1.72,0.26,8.109999999999999,13.26,0.09,0.01,3
46005,112077098,-5.62,-5.19,-1.73,0.27,8.109999999999999,13.22,0.09,0.01,3
46049,112087675,-5.6,-5.18,-1.72,0.28,8.109999999999999,13.23,0.09,0.01,3
46097,112097745,-5.57,-5.19,-1.71,0.28,8.109999999999999,13.24,0.09,0.01,3
46141,112107859,-5.53,-5.23,-1.7,0.24,8.109999999999999,13.25,0.09,0.01,3
46186,112118197,-5.49,-5.21,-1.68,0.26,8.109999999999999,13.2,0.09,0.01,3
46230,112128417,-5.45,-5.13,-1.66,0.28,8.109999999999999,13.19,0.09,0.01,3
46268,112140981,-5.42,-5.2,-1.64,0.21,8.109999999999999,13.23,0.09,0.01,3
46314,112151745,-5.37,-5.18,-1.62,0.22,8.1,13.2,0.09,0.01,3
