LineNo,TimeUS,DesRoll,Roll,DesPitch,Pitch,DesYaw,Yaw,ErrRP,ErrYaw,AEKF
185,1.0097e+08,0,-0.39,0,0.55,15.96,12.45,0,0,3
750,1.0111e+08,0,-0.39,0,0.55,21.6,12.45,0,0.01,3
1285,1.0137e+08,0,-0.39,0,0.54,31.67,12.45,0,0.01,3
1476,1.014e+08,0,-0.39,0,0.54,34.9,12.45,0,0,3
1573,1.0142e+08,0,-0.39,0,0.54,37.2,12.45,0,0,3
1618,1.0143e+08,0,-0.39,0,0.54,38.39,12.45,0,0,3
1662,1.0144e+08,0,-0.39,0,0.54,39.42,12.45,0,0,3
1709,1.0145e+08,0,-0.39,0,0.55,39.43,12.45,0,0,3
1750,1.0146e+08,0,-0.39,0,0.54,39.44,12.45,0,0,3
1791,1.0147e+08,0,-0.4,0,0.54,39.44,12.45,0,0,3
1834,1.0149e+08,0,-0.4,0,0.54,39.45,12.45,0,0,3
1881,1.015e+08,0,-0.4,0,0.54,39.46,12.45,0,0.01,3
1923,1.0151e+08,0,-0.4,0,0.54,39.47,12.45,0,0.01,3
1968,1.0152e+08,0,-0.4,0,0.54,39.47,12.45,0,0.01,3
2012,1.0153e+08,0,-0.4,0,0.54,39.48,12.45,0,0.01,3
2055,1.0154e+08,0,-0.4,0,0.53,39.49,12.45,0,0.01,3
2098,1.0155e+08,0,-0.4,0,0.54,39.49,12.45,0,0.01,3
2140,1.0156e+08,0,-0.4,0,0.54,39.5,12.45,0,0.01,3
2183,1.0157e+08,0,-0.39,0,0.54,39.51,12.45,0,0.01,3
2225,1.0158e+08,0,-0.39,0,0.54,39.52,12.46,0,0.01,3
2268,1.0159e+08,0,-0.39,0,0.54,39.52,12.46,0,0.01,3
2314,1.016e+08,0,-0.39,0,0.54,39.53,12.46,0,0,3
2357,1.0161e+08,0,-0.39,0,0.53,39.54,12.46,0,0,3
2400,1.0162e+08,0,-0.39,0,0.53,39.55,12.46,0,0,3
2442,1.0163e+08,0,-0.39,0,0.53,39.55,12.46,0,0,3
2488,1.0164e+08,0,-0.39,0,0.53,39.56,12.46,0,0,3
2524,1.0165e+08,0,-0.4,0,0.53,39.57,12.46,0,0,3
2568,1.0166e+08,0,-0.4,0,0.53,39.57,12.46,0,0,3
2613,1.0167e+08,0,-0.4,0,0.53,39.58,12.46,0,0,3
2658,1.0168e+08,0,-0.4,0,0.53,39.57,12.46,0,0,3
2702,1.0169e+08,0,-0.4,0,0.54,39.56,12.46,0,0,3
2751,1.017e+08,0,-0.4,0,0.54,39.56,12.46,0,0.01,3
2796,1.0171e+08,0,-0.4,0,0.54,39.55,12.46,0,0.01,3
2840,1.0172e+08,0,-0.4,0,0.54,39.54,12.46,0,0.01,3
2887,1.0173e+08,0,-0.4,0,0.54,39.54,12.46,0,0.01,3
2931,1.0174e+08,0,-0.39,0,0.54,39.53,12.46,0,0.01,3
2976,1.0175e+08,0,-0.39,0,0.54,39.52,12.46,0,0.01,3
3021,1.0176e+08,0,-0.39,0,0.54,39.51,12.46,0,0.01,3
3066,1.0177e+08,0,-0.39,0,0.54,39.51,12.46,0,0.01,3
3111,1.0178e+08,0,-0.39,0,0.54,39.5,12.46,0,0.01,3
3157,1.0179e+08,0,-0.39,0,0.54,39.49,12.46,0,0.01,3
3207,1.0181e+08,0,-0.39,0,0.54,39.49,12.46,0,0.01,3
3252,1.0181e+08,0,-0.39,0,0.54,39.48,12.46,0,0.01,3
3296,1.0183e+08,0,-0.4,0,0.54,39.47,12.46,0,0.01,3
3342,1.0184e+08,0,-0.4,0,0.54,39.46,12.46,0,0.01,3
3388,1.0185e+08,0,-0.4,0,0.54,39.46,12.46,0,0.01,3
3428,1.0186e+08,0,-0.4,0,0.54,39.45,12.46,0,0.01,3
3474,1.0187e+08,0,-0.4,0,0.54,39.44,12.46,0,0.01,3
3518,1.0188e+08,0,-0.4,0,0.54,39.44,12.45,0,0.01,3
3563,1.0189e+08,0,-0.4,0,0.53,39.43,12.45,0,0.01,3
3608,1.019e+08,0,-0.4,0,0.53,39.42,12.45,0,0.01,3
3657,1.0191e+08,0,-0.39,0,0.53,39.41,12.45,0,0.01,3
3702,1.0192e+08,0,-0.39,0,0.53,39.41,12.45,0,0.01,3
3746,1.0193e+08,0,-0.39,0,0.53,39.4,12.45,0,0.01,3
3795,1.0194e+08,0,-0.39,0,0.54,39.39,12.45,0,0.01,3
3842,1.0195e+08,0,-0.39,0,0.54,39.38,12.45,0,0.01,3
3887,1.0196e+08,0,-0.39,0,0.54,39.38,12.45,0,0.01,3
3931,1.0197e+08,0,-0.39,0,0.54,39.37,12.45,0,0.01,3
3977,1.0198e+08,0,-0.39,0,0.54,39.36,12.45,0,0.01,3
4024,1.0199e+08,0,-0.39,0,0.54,39.36,12.45,0,0.01,3
4068,1.02e+08,0,-0.4,0,0.54,39.35,12.45,0,0.01,3
4119,1.0201e+08,0,-0.4,0,0.54,39.34,12.45,0,0.01,3
4163,1.0202e+08,0,-0.4,0,0.54,39.33,12.45,0,0.01,3
4208,1.0203e+08,0,-0.4,0,0.54,39.33,12.45,0,0.01,3
4253,1.0205e+08,0,-0.4,0,0.54,39.32,12.45,0,0.01,3
4300,1.0206e+08,0,-0.4,0,0.54,39.31,12.45,0,0.01,3
4338,1.0207e+08,0,-0.4,0,0.54,39.31,12.45,0,0.01,3
4383,1.0208e+08,0,-0.39,0,0.54,39.3,12.45,0,0.01,3
4428,1.0209e+08,0,-0.39,0,0.54,39.3,12.45,0,0.01,3
4472,1.021e+08,0,-0.39,0,0.54,39.29,12.45,0,0.01,3
4517,1.0211e+08,0,-0.39,0,0.54,39.28,12.45,0,0.01,3
4566,1.0212e+08,0,-0.39,0,0.53,39.28,12.46,0,0.01,3
4611,1.0213e+08,0,-0.39,0,0.53,39.27,12.46,0,0.01,3
4656,1.0214e+08,0,-0.39,0,0.53,39.26,12.46,0,0.01,3
4700,1.0215e+08,0,-0.39,0,0.53,39.26,12.46,0,0.01,3
4749,1.0216e+08,0,-0.39,0,0.53,39.25,12.45,0,0.01,3
4793,1.0217e+08,0,-0.39,0,0.53,39.24,12.45,0,0.01,3
4839,1.0218e+08,0,-0.39,0,0.53,39.23,12.45,0,0.01,3
4884,1.0219e+08,0,-0.39,0,0.54,39.22,12.45,0,0.01,3
4929,1.022e+08,0,-0.39,0,0.54,39.22,12.45,0,0.01,3
4974,1.0221e+08,0,-0.39,0,0.54,39.21,12.45,0,0.01,3
5022,1.0222e+08,0,-0.39,0,0.54,39.2,12.45,0,0.01,3
5068,1.0224e+08,0,-0.39,0,0.54,39.2,12.45,0,0.01,3
5115,1.0225e+08,0,-0.39,0,0.54,39.19,12.45,0,0.01,3
5160,1.0226e+08,0,-0.39,0,0.54,39.18,12.46,0,0.01,3
5205,1.0227e+08,0,-0.39,0,0.54,39.18,12.46,0,0.01,3
5250,1.0228e+08,0,-0.39,0,0.54,39.17,12.46,0,0.01,3
5295,1.0229e+08,0,-0.39,0,0.54,39.17,12.46,0,0.01,3
5340,1.023e+08,0,-0.39,0,0.54,39.16,12.46,0,0.01,3
5384,1.0231e+08,0,-0.39,0,0.54,39.15,12.46,0,0.01,3
5433,1.0232e+08,0,-0.39,0,0.54,39.14,12.46,0,0.01,3
5477,1.0233e+08,0,-0.39,0,0.54,39.14,12.46,0,0.01,3
5522,1.0234e+08,0,-0.39,0,0.54,39.13,12.46,0,0.01,3
5567,1.0235e+08,0,-0.39,0,0.54,39.12,12.46,0,0.01,3
5611,1.0236e+08,0,-0.39,0,0.54,39.12,12.46,0,0.01,3
5657,1.0237e+08,0,-0.39,0,0.54,39.12,12.46,0,0.01,3
5701,1.0239e+08,0,-0.39,0,0.54,39.12,12.46,0,0.01,3
5746,1.024e+08,0,-0.39,0,0.54,39.12,12.46,0,0.01,3
5790,1.0241e+08,0,-0.39,0,0.54,39.12,12.46,0,0.01,3
5835,1.0242e+08,0,-0.39,0,0.54,39.12,12.46,0,0.01,3
5884,1.0243e+08,0,-0.39,0,0.54,39.12,12.47,0,0.01,3
5928,1.0244e+08,0,-0.39,0,0.54,39.12,12.47,0,0.01,3
5975,1.0245e+08,0,-0.39,0,0.54,39.12,12.47,0,0.01,3
6016,1.0246e+08,0,-0.4,0,0.54,39.12,12.47,0,0.01,3
6059,1.0247e+08,0,-0.4,0,0.54,39.12,12.47,0,0.01,3
6102,1.0248e+08,0,-0.4,0,0.54,39.12,12.47,0,0.01,3
6145,1.0249e+08,0,-0.4,0,0.54,39.12,12.47,0,0.01,3
6188,1.025e+08,0,-0.4,0,0.55,39.12,12.47,0,0.01,3
6233,1.0251e+08,0,-0.39,0,0.55,39.12,12.47,0,0.01,3
6276,1.0252e+08,0,-0.39,0,0.55,39.12,12.47,0,0.01,3
6322,1.0253e+08,0,-0.39,0,0.55,39.12,12.47,0,0.01,3
6365,1.0254e+08,0,-0.39,0,0.55,39.12,12.47,0,0.01,3
6408,1.0255e+08,0,-0.39,0,0.55,39.12,12.47,0,0.01,3
6451,1.0256e+08,0,-0.39,0,0.55,39.12,12.47,0,0.01,3
6494,1.0257e+08,0,-0.39,0,0.55,39.12,12.47,0,0.01,3
6540,1.0259e+08,0,-0.39,0,0.55,39.12,12.47,0,0.01,3
6583,1.026e+08,0,-0.39,0,0.54,39.12,12.47,0,0.01,3
6626,1.0261e+08,0,-0.39,0,0.54,39.12,12.48,0,0.01,3
6668,1.0262e+08,0,-0.39,0,0.54,39.12,12.48,0,0.01,3
6711,1.0263e+08,0,-0.39,0,0.54,39.12,12.48,0,0.01,3
6757,1.0264e+08,0,-0.39,0,0.54,39.12,12.48,0,0.01,3
6800,1.0265e+08,0,-0.39,0,0.54,39.12,12.48,0,0.01,3
6844,1.0266e+08,0,-0.39,0,0.54,39.12,12.48,0,0.01,3
6884,1.0267e+08,0,-0.39,0,0.54,39.12,12.47,0,0.01,3
6925,1.0268e+08,0,-0.39,0,0.54,39.12,12.47,0,0.01,3
6969,1.0269e+08,0,-0.39,0,0.54,39.12,12.47,0,0.01,3
7014,1.027e+08,0,-0.39,0,0.54,39.12,12.47,0,0.01,3
7060,1.0271e+08,0,-0.39,0,0.54,39.12,12.47,0,0.01,3
7104,1.0272e+08,0,-0.39,0,0.54,39.12,12.47,0,0.01,3
7152,1.0273e+08,0,-0.39,0,0.54,39.12,12.47,0,0.01,3
7197,1.0274e+08,0,-0.39,0,0.54,39.12,12.47,0,0.01,3
7243,1.0275e+08,0,-0.39,0,0.54,39.12,12.47,0,0.01,3
7287,1.0276e+08,0,-0.39,0,0.54,39.12,12.47,0,0.01,3
7332,1.0277e+08,0,-0.39,0,0.55,39.12,12.47,0,0.01,3
7373,1.0278e+08,0,-0.39,0,0.55,39.12,12.47,0,0.01,3
7418,1.0279e+08,0,-0.39,0,0.55,39.12,12.47,0,0.01,3
7465,1.028e+08,0,-0.39,0,0.55,39.12,12.47,0,0.01,3
7510,1.0281e+08,0,-0.39,0,0.55,12.46,12.47,0,0.01,3
7555,1.0282e+08,0,-0.39,0,0.55,12.46,12.47,0,0.01,3
7602,1.0283e+08,0,-0.39,0,0.55,12.47,12.47,0,0.01,3
7647,1.0285e+08,0,-0.38,0,0.55,12.47,12.47,0,0.01,3
7692,1.0286e+08,0,-0.38,0,0.55,12.48,12.48,0,0.01,3
7737,1.0287e+08,0,-0.37,0,0.55,12.48,12.48,0,0.01,3
7782,1.0288e+08,0,-0.38,0,0.55,12.48,12.49,0,0.01,3
7826,1.0289e+08,0,-0.4,0,0.55,12.48,12.48,0,0.01,3
7871,1.029e+08,0,-0.4,0,0.55,12.47,12.47,0,0.01,3
7917,1.0291e+08,0,-0.4,0,0.55,12.46,12.46,0,0.01,3
7962,1.0292e+08,0,-0.39,0,0.55,12.44,12.45,0,0.01,3
8008,1.0293e+08,0,-0.38,0,0.55,12.43,12.44,0,0.01,3
8056,1.0294e+08,0,-0.39,0,0.54,12.42,12.43,0,0.01,3
8101,1.0295e+08,0,-0.4,0,0.54,12.42,12.43,0,0.01,3
8146,1.0296e+08,0,-0.39,0,0.54,12.42,12.42,0,0.01,3
8191,1.0297e+08,0,-0.39,0,0.55,12.42,12.43,0,0.01,3
8236,1.0298e+08,0,-0.39,0,0.55,12.44,12.44,0,0.01,3
8282,1.0299e+08,0,-0.39,0,0.54,12.45,12.45,0,0.01,3
8329,1.03e+08,0,-0.38,0,0.54,12.46,12.46,0,0.01,3
8373,1.0301e+08,0,-0.38,0,0.54,12.47,12.48,0,0.01,3
8420,1.0302e+08,0,-0.39,0,0.55,12.48,12.48,0,0.01,3
8465,1.0303e+08,0,-0.39,0,0.55,12.48,12.48,0,0.01,3
8514,1.0305e+08,0,-0.38,0,0.55,12.48,12.48,0,0.01,3
8558,1.0306e+08,0,-0.38,0,0.54,12.46,12.47,0,0.01,3
8600,1.0307e+08,0,-0.39,0,0.54,12.45,12.46,0,0.01,3
8645,1.0308e+08,0,-0.39,0,0.55,12.44,12.44,0,0.01,3
8692,1.0309e+08,0,-0.39,0,0.54,12.43,12.43,0,0.01,3
8737,1.031e+08,0,-0.38,0,0.55,12.42,12.43,0,0.01,3
8782,1.0311e+08,0,-0.39,0,0.55,12.41,12.42,0,0.01,3
8827,1.0312e+08,0,-0.39,0,0.55,12.41,12.42,0,0.01,3
8873,1.0313e+08,0,-0.39,0,0.55,12.42,12.42,0,0.01,3
8917,1.0314e+08,0,-0.38,0,0.55,12.42,12.43,0,0.01,3
8966,1.0315e+08,0,-0.37,0,0.54,12.44,12.44,0,0.02,3
9010,1.0316e+08,0,-0.37,0,0.56,12.45,12.45,0,0.02,3
9056,1.0317e+08,0,-0.38,0,0.55,12.45,12.46,0,0.02,3
9101,1.0318e+08,0,-0.39,0,0.54,12.47,12.47,0,0.02,3
9148,1.0319e+08,0,-0.37,0,0.55,12.46,12.46,0,0.02,3
9193,1.032e+08,0,-0.37,0,0.56,12.47,12.47,0,0.02,3
9238,1.0321e+08,0,-0.38,0,0.56,12.45,12.45,0,0.02,3
9283,1.0322e+08,0,-0.38,0,0.55,12.45,12.46,0,0.02,3
9328,1.0323e+08,0,-0.37,0,0.55,12.43,12.43,0,0.02,3
9372,1.0324e+08,0,-0.35,0,0.55,12.42,12.43,0,0.02,3
9423,1.0326e+08,0,-0.38,0,0.54,12.41,12.41,0,0.02,3
9461,1.0327e+08,0,-0.39,0,0.54,12.41,12.41,0,0.02,3
9507,1.0328e+08,0,-0.36,0,0.54,12.4,12.41,0,0.02,3
9552,1.0329e+08,0,-0.35,0,0.55,12.4,12.4,0,0.02,3
9596,1.033e+08,0,-0.38,0,0.53,12.41,12.41,0,0.02,3
9640,1.0331e+08,0,-0.39,0,0.53,12.41,12.42,0,0.02,3
9685,1.0332e+08,0,-0.36,0,0.53,12.42,12.43,0,0.02,3
9729,1.0333e+08,0,-0.35,0,0.55,12.43,12.43,0,0.02,3
9776,1.0334e+08,0,-0.38,0,0.54,12.44,12.44,0,0.02,3
9820,1.0335e+08,0,-0.39,0,0.55,12.44,12.45,0,0.02,3
9869,1.0336e+08,0,-0.36,0,0.55,12.45,12.45,0,0.02,3
9913,1.0337e+08,0,-0.36,0,0.56,12.44,12.44,0,0.02,3
9958,1.0338e+08,0,-0.38,0,0.54,12.44,12.44,0,0.02,3
10003,1.0339e+08,0,-0.4,0,0.55,12.43,12.44,0,0.02,3
10044,1.034e+08,0,-0.36,0,0.55,12.42,12.43,0,0.02,3
10093,1.0341e+08,0,-0.36,0,0.54,12.41,12.42,0,0.02,3
10137,1.0342e+08,0,-0.37,0,0.55,12.4,12.4,0,0.02,3
10182,1.0343e+08,0,-0.38,0,0.53,12.41,12.41,0,0.02,3
10225,1.0345e+08,0,-0.35,0,0.55,12.39,12.39,0,0.02,3
10275,1.0346e+08,0,-0.35,0,0.52,12.39,12.4,0,0.01,3
10319,1.0347e+08,0,-0.38,0,0.53,12.39,12.4,0,0.01,3
10365,1.0348e+08,0,-0.35,0,0.53,12.41,12.41,0,0.01,3
10410,1.0349e+08,0,-0.35,0,0.55,12.41,12.41,0,0.01,3
10453,1.035e+08,0,-0.34,0,0.54,12.42,12.42,0,0.01,3
10498,1.0351e+08,0,-0.37,0,0.54,12.42,12.43,0,0.01,3
10543,1.0352e+08,0,-0.33,0,0.56,12.43,12.44,0,0.01,3
10588,1.0353e+08,0,-0.35,0,0.55,12.43,12.43,0,0.01,3
10632,1.0354e+08,0,-0.35,0,0.56,12.43,12.43,0,0.01,3
10677,1.0355e+08,0,-0.36,0,0.54,12.42,12.42,0,0.01,3
10730,1.0356e+08,0,-0.35,0,0.55,12.42,12.42,0,0.01,3
10774,1.0357e+08,0,-0.35,0,0.52,12.41,12.41,0,0.01,3
10819,1.0358e+08,0,-0.37,0,0.53,12.39,12.4,0,0.01,3
10863,1.0359e+08,0,-0.34,0,0.54,12.4,12.4,0,0.01,3
10908,1.036e+08,0,-0.36,0,0.55,12.39,12.4,0,0.01,3
10953,1.0361e+08,0,-0.35,0,0.54,12.39,12.4,0,0.01,3
10998,1.0362e+08,0,-0.36,0,0.54,12.4,12.4,0,0.01,3
11043,1.0363e+08,0,-0.34,0,0.55,12.4,12.41,0,0.01,3
11092,1.0365e+08,0,-0.36,0,0.54,12.41,12.42,0,0.01,3
11142,1.0366e+08,0,-0.37,0,0.54,12.41,12.42,0,0.01,3
11185,1.0367e+08,0,-0.34,0,0.55,12.42,12.43,0,0.01,3
11229,1.0368e+08,0,-0.34,0,0.54,12.43,12.43,0,0.01,3
11271,1.0369e+08,0,-0.35,0,0.53,12.42,12.42,0,0.01,3
11314,1.037e+08,0,-0.34,0,0.54,12.43,12.43,0,0.01,3
11360,1.0371e+08,0,-0.36,0,0.55,12.41,12.42,0,0.01,3
11402,1.0373e+08,0,-0.36,0,0.55,12.42,12.43,0,0.01,3
11445,1.0374e+08,0,-0.35,0,0.53,12.4,12.4,0,0.01,3
11487,1.0375e+08,0,-0.33,0,0.55,12.4,12.41,0,0.01,3
11531,1.0376e+08,0,-0.33,0,0.52,12.4,12.4,0,0.01,3
11577,1.0377e+08,0,-0.35,0,0.53,12.39,12.4,0,0.01,3
11620,1.0378e+08,0,-0.33,0,0.52,12.39,12.4,0,0.01,3
11663,1.0379e+08,0,-0.34,0,0.54,12.4,12.4,0,0.01,3
11706,1.038e+08,0,-0.34,0,0.54,12.41,12.41,0,0.01,3
11750,1.0381e+08,0,-0.35,0,0.53,12.4,12.4,0,0.01,3
11792,1.0382e+08,0,-0.34,0,0.56,12.42,12.42,0,0.01,3
11835,1.0383e+08,0,-0.36,0,0.55,12.41,12.41,0,0.01,3
11877,1.0384e+08,0,-0.36,0,0.55,12.43,12.43,0,0.01,3
11922,1.0385e+08,0,-0.36,0,0.53,12.4,12.41,0,0.01,3
11961,1.0386e+08,0,-0.33,0,0.55,12.42,12.43,0,0.01,3
12011,1.0387e+08,0,-0.33,0,0.53,12.42,12.43,0,0.01,3
12056,1.0388e+08,0,-0.34,0,0.54,12.4,12.41,0,0.01,3
12101,1.0389e+08,0,-0.33,0,0.56,12.41,12.42,0,0.01,3
12146,1.039e+08,0,-0.33,0,0.54,12.4,12.4,0,0.01,3
12190,1.0391e+08,0,-0.36,0,0.55,12.41,12.41,0,0.01,3
12237,1.0392e+08,0,-0.35,0,0.53,12.38,12.38,0,0.01,3
12281,1.0393e+08,0,-0.34,0,0.57,12.4,12.41,0,0.01,3
12326,1.0394e+08,0,-0.35,0,0.53,12.39,12.39,0,0.01,3
12371,1.0395e+08,0,-0.35,0,0.56,12.4,12.4,0,0.01,3
12415,1.0396e+08,0,-0.35,0,0.55,12.38,12.39,0,0.01,3
12464,1.0397e+08,0,-0.34,0,0.56,12.41,12.41,0,0.01,3
12509,1.0399e+08,0,-0.35,0,0.54,12.41,12.42,0,0.01,3
12556,1.04e+08,0,-0.33,0,0.54,12.4,12.41,0,0.01,3
12601,1.0401e+08,0,-0.32,0,0.55,12.41,12.42,0,0.01,3
12646,1.0402e+08,0,-0.33,0,0.53,12.41,12.42,0,0.01,3
12692,1.0403e+08,0,-0.35,0,0.53,12.42,12.43,0,0.01,3
12738,1.0404e+08,0,-0.34,0,0.53,12.4,12.4,0.01,0.01,3
12777,1.0405e+08,0,-0.34,0,0.55,12.41,12.42,0.01,0.01,3
12823,1.0406e+08,0,-0.36,0,0.54,12.4,12.4,0.01,0.01,3
12868,1.0407e+08,0,-0.35,0,0.54,12.4,12.4,0.01,0.01,3
12916,1.0408e+08,0,-0.34,0,0.55,12.38,12.39,0.01,0.01,3
12961,1.0409e+08,0,-0.33,0,0.54,12.39,12.4,0.01,0.01,3
13006,1.041e+08,0,-0.35,0,0.54,12.39,12.4,0.01,0.01,3
13051,1.0411e+08,0,-0.33,0,0.53,12.38,12.39,0.01,0.01,3
13096,1.0412e+08,0,-0.32,0,0.55,12.39,12.4,0.01,0.01,3
13140,1.0413e+08,0,-0.32,0,0.55,12.4,12.4,0.01,0.01,3
13185,1.0414e+08,0,-0.34,0,0.53,12.41,12.41,0.01,0.01,3
13229,1.0415e+08,0,-0.32,0,0.55,12.39,12.4,0.01,0.01,3
13274,1.0416e+08,0,-0.33,0,0.54,12.41,12.42,0.01,0.01,3
13319,1.0417e+08,0,-0.32,0,0.56,12.41,12.42,0.01,0.01,3
13367,1.0418e+08,0,-0.34,0,0.53,12.42,12.42,0.01,0.01,3
13412,1.0419e+08,0,-0.32,0,0.56,12.4,12.41,0.01,0.01,3
13433,1.0423e+08,0,-0.35,0,0.54,12.4,12.41,0.01,0.01,3
13477,1.0425e+08,0,-0.34,0,0.56,12.4,12.41,0.01,0.01,3
13519,1.0426e+08,0,-0.36,0,0.53,12.4,12.4,0.01,0.01,3
13563,1.0427e+08,0,-0.34,0,0.56,12.39,12.39,0.01,0.01,3
13611,1.0428e+08,0,-0.36,0,0.55,12.4,12.41,0.01,0.01,3
13656,1.0429e+08,0,-0.36,0,0.55,12.4,12.41,0.01,0.01,3
13701,1.043e+08,0,-0.35,0,0.55,12.4,12.4,0.01,0.01,3
13745,1.0431e+08,0,-0.35,0,0.54,12.39,12.4,0.01,0.01,3
13790,1.0432e+08,0,-0.34,0,0.56,12.41,12.42,0.01,0.01,3
13835,1.0433e+08,0,-0.36,0,0.51,12.4,12.41,0.01,0.01,3
13881,1.0434e+08,0,-0.3,0,0.57,12.41,12.41,0.01,0.01,3
13926,1.0435e+08,0,-0.32,0,0.53,12.4,12.4,0.01,0.01,3
13970,1.0436e+08,0,-0.32,0,0.57,12.42,12.42,0.01,0.01,3
14015,1.0437e+08,0,-0.33,0,0.55,12.4,12.4,0.01,0.01,3
14063,1.0438e+08,0,-0.33,0,0.58,12.4,12.4,0.01,0.01,3
14109,1.0439e+08,0,-0.34,0,0.56,12.4,12.4,0.01,0.01,3
14154,1.044e+08,0,-0.37,0,0.55,12.4,12.4,0.01,0.01,3
14198,1.0441e+08,0,-0.34,0,0.55,12.39,12.4,0.01,0.01,3
14244,1.0442e+08,0,-0.36,0,0.56,12.38,12.39,0.01,0.01,3
14288,1.0443e+08,0,-0.36,0,0.56,12.41,12.41,0.01,0.01,3
14333,1.0444e+08,0,-0.38,0,0.54,12.39,12.39,0.01,0.01,3
14376,1.0445e+08,0,-0.33,0,0.57,12.4,12.41,0.01,0.01,3
14421,1.0447e+08,0,-0.33,0,0.54,12.4,12.41,0.01,0.01,3
14467,1.0448e+08,0,-0.34,0,0.55,12.42,12.42,0.01,0.01,3
14517,1.0449e+08,0,-0.32,0,0.55,12.41,12.41,0.01,0.01,3
14561,1.045e+08,0,-0.32,0,0.57,12.4,12.41,0.01,0.01,3
14605,1.0451e+08,0,-0.33,0,0.56,12.42,12.43,0.01,0.01,3
14650,1.0452e+08,0,-0.35,0,0.55,12.41,12.42,0.01,0.01,3
14694,1.0453e+08,0,-0.32,0,0.58,12.42,12.42,0.01,0.01,3
14739,1.0454e+08,0,-0.34,0,0.54,12.39,12.4,0.01,0.01,3
14784,1.0455e+08,0,-0.34,0,0.58,12.42,12.43,0.01,0.01,3
14828,1.0456e+08,0,-0.35,0,0.51,12.39,12.39,0.01,0.01,3
14873,1.0457e+08,0,-0.33,0,0.57,12.4,12.4,0.01,0.01,3
14919,1.0458e+08,0,-0.34,0,0.52,12.39,12.39,0.01,0.01,3
14968,1.0459e+08,0,-0.36,0,0.54,12.4,12.41,0.01,0.01,3
15013,1.046e+08,0,-0.35,0,0.54,12.39,12.39,0.01,0.01,3
15057,1.0461e+08,0,-0.35,0,0.56,12.39,12.39,0.01,0.01,3
15102,1.0462e+08,0,-0.37,0,0.56,12.4,12.41,0.01,0.01,3
15149,1.0463e+08,0,-0.37,0,0.53,12.4,12.4,0.01,0.01,3
15194,1.0464e+08,0,-0.33,0,0.57,12.41,12.42,0.01,0.01,3
15241,1.0465e+08,0,-0.33,0,0.52,12.4,12.4,0.01,0.01,3
15283,1.0467e+08,0,-0.37,0,0.55,12.42,12.42,0.01,0.01,3
15328,1.0468e+08,0,-0.33,0,0.57,12.41,12.42,0.01,0.01,3
15373,1.0469e+08,0,-0.33,0,0.55,12.4,12.4,0.01,0.01,3
15422,1.047e+08,0,-0.34,0,0.57,12.42,12.42,0.01,0.01,3
15468,1.0471e+08,0,-0.35,0,0.54,12.4,12.4,0.01,0.01,3
15512,1.0472e+08,0,-0.33,0,0.59,12.4,12.41,0.01,0.01,3
15557,1.0473e+08,0,-0.34,0,0.55,12.39,12.39,0.01,0.01,3
15601,1.0474e+08,0,-0.36,0,0.57,12.4,12.41,0.01,0.01,3
15647,1.0475e+08,0,-0.36,0,0.54,12.38,12.39,0.01,0.01,3
15691,1.0476e+08,0,-0.36,0,0.58,12.39,12.39,0.01,0.01,3
15736,1.0477e+08,0,-0.38,0,0.55,12.39,12.39,0.01,0.01,3
15781,1.0478e+08,0,-0.37,0,0.56,12.4,12.41,0.01,0.01,3
15825,1.0479e+08,0,-0.35,0,0.55,12.39,12.4,0.01,0.01,3
15874,1.048e+08,0,-0.34,0,0.56,12.4,12.4,0.01,0,3
15921,1.0481e+08,0,-0.35,0,0.57,12.41,12.42,0.01,0,3
15966,1.0482e+08,0,-0.35,0,0.55,12.41,12.41,0.01,0,3
16010,1.0483e+08,0,-0.32,0,0.6,12.41,12.42,0.01,0,3
16054,1.0484e+08,0,-0.33,0,0.56,12.39,12.4,0.01,0,3
16093,1.0485e+08,0,-0.35,0,0.6,12.42,12.42,0.01,0,3
16135,1.0486e+08,0,-0.36,0,0.55,12.39,12.4,0.01,0,3
16179,1.0487e+08,0,-0.34,0,0.6,12.4,12.4,0.01,0,3
16222,1.0488e+08,0,-0.36,0,0.55,12.39,12.39,0.01,0,3
16265,1.0489e+08,0,-0.36,0,0.55,12.39,12.4,0.01,0,3
16313,1.049e+08,0,-0.35,0,0.55,12.39,12.39,0.01,0,3
16355,1.0491e+08,0,-0.35,0,0.54,12.38,12.38,0.01,0,3
16402,1.0493e+08,0,-0.39,0,0.6,12.41,12.42,0.01,0,3
16444,1.0494e+08,0,-0.4,0,0.53,12.38,12.39,0.01,0,3
16487,1.0495e+08,0,-0.36,0,0.62,12.4,12.41,0.01,0,3
16529,1.0496e+08,0,-0.38,0,0.55,12.39,12.4,0.01,0,3
16572,1.0497e+08,0,-0.38,0,0.59,12.41,12.41,0.01,0,3
16617,1.0498e+08,0,-0.37,0,0.58,12.4,12.41,0.01,0,3
16659,1.0499e+08,0,-0.36,0,0.59,12.39,12.4,0.01,0,3
16705,1.05e+08,0,-0.38,0,0.61,12.42,12.42,0.01,0,3
16748,1.0501e+08,0,-0.38,0,0.55,12.4,12.4,0.01,0,3
16793,1.0502e+08,0,-0.34,0,0.62,12.42,12.42,0.01,0,3
16835,1.0503e+08,0,-0.35,0,0.54,12.39,12.39,0.01,0,3
16878,1.0504e+08,0,-0.33,0,0.61,12.42,12.43,0.01,0,3
16923,1.0505e+08,0,-0.33,0,0.52,12.39,12.39,0,0,3
16960,1.0506e+08,0,-0.32,0,0.58,12.4,12.4,0,0,3
17005,1.0507e+08,0,-0.33,0,0.56,12.39,12.39,0,0,3
17053,1.0508e+08,0,-0.34,0,0.57,12.4,12.4,0,0,3
17097,1.0509e+08,0,-0.33,0,0.59,12.39,12.39,0,0,3
17145,1.051e+08,0,-0.33,0,0.59,12.39,12.39,0,0,3
17190,1.0511e+08,0,-0.35,0,0.6,12.41,12.41,0,0,3
17236,1.0512e+08,0,-0.34,0,0.57,12.39,12.4,0,0,3
17281,1.0513e+08,0,-0.32,0,0.61,12.41,12.42,0,0,3
17326,1.0514e+08,0,-0.33,0,0.56,12.39,12.39,0,0,3
17370,1.0515e+08,0,-0.36,0,0.58,12.43,12.43,0,0,3
17415,1.0516e+08,0,-0.36,0,0.54,12.4,12.4,0,0,3
17459,1.0517e+08,0,-0.34,0,0.59,12.42,12.42,0,0,3
17504,1.0518e+08,0,-0.34,0,0.53,12.39,12.4,0,0,3
17548,1.0519e+08,0,-0.35,0,0.56,12.42,12.42,0,0,3
17595,1.0521e+08,0,-0.33,0,0.54,12.39,12.39,0,0,3
17642,1.0522e+08,0,-0.32,0,0.56,12.39,12.4,0,0,3
17687,1.0523e+08,0,-0.34,0,0.55,12.39,12.39,0,0,3
17735,1.0524e+08,0,-0.33,0,0.56,12.39,12.4,0,0,3
17773,1.0525e+08,0,-0.31,0,0.59,12.4,12.4,0,0,3
17815,1.0526e+08,0,-0.31,0,0.56,12.38,12.38,0,0,3
17860,1.0527e+08,0,-0.34,0,0.58,12.4,12.41,0,0,3
17904,1.0528e+08,0,-0.34,0,0.55,12.39,12.39,0,0,3
17949,1.0529e+08,0,-0.31,0,0.59,12.4,12.41,0,0,3
17994,1.053e+08,0,-0.3,0,0.54,12.39,12.4,0,0,3
18042,1.0531e+08,0,-0.32,0,0.58,12.41,12.41,0,0,3
18089,1.0532e+08,0,-0.31,0,0.55,12.4,12.4,0,0,3
18134,1.0533e+08,0,-0.3,0,0.57,12.4,12.4,0,0,3
18179,1.0534e+08,0,-0.32,0,0.55,12.4,12.4,0,0,3
18224,1.0535e+08,0,-0.33,0,0.56,12.39,12.4,0,0,3
18270,1.0536e+08,0,-0.32,0,0.58,12.4,12.4,0,0,3
18314,1.0537e+08,0,-0.32,0,0.55,12.37,12.38,0,0,3
18359,1.0538e+08,0,-0.35,0,0.58,12.39,12.39,0,0,3
18403,1.0539e+08,0,-0.34,0,0.54,12.37,12.37,0,0,3
18448,1.054e+08,0,-0.34,0,0.59,12.38,12.39,0,0,3
18496,1.0541e+08,0,-0.32,0,0.53,12.37,12.37,0,0,3
18542,1.0542e+08,0,-0.34,0,0.57,12.39,12.39,0,0,3
18587,1.0543e+08,0,-0.32,0,0.54,12.37,12.38,0,0,3
18634,1.0545e+08,0,-0.32,0,0.55,12.38,12.38,0,0,3
18676,1.0546e+08,0,-0.37,0,0.58,12.39,12.4,0,0,3
18722,1.0547e+08,0,-0.36,0,0.55,12.38,12.38,0,0,3
18768,1.0548e+08,0,-0.36,0,0.61,12.4,12.4,0,0,3
18813,1.0549e+08,0,-0.35,0,0.54,12.38,12.39,0,0,3
18857,1.055e+08,0,-0.36,0,0.57,12.4,12.41,0,0,3
18902,1.0551e+08,0,-0.32,0,0.55,12.39,12.39,0,0,3
18953,1.0552e+08,0,-0.34,0,0.54,12.38,12.38,0,0,3
18998,1.0553e+08,0,-0.37,0,0.56,12.39,12.4,0,0,3
19043,1.0554e+08,0,-0.36,0,0.54,12.37,12.38,0,0,3
19092,1.0556e+08,0,-0.31,0,0.57,12.38,12.38,0,0,3
19137,1.0557e+08,0,-0.31,0,0.54,12.37,12.38,0,0,3
19182,1.0558e+08,0,-0.31,0,0.56,12.38,12.38,0,0,3
19226,1.0559e+08,0,-0.3,0,0.57,12.37,12.38,0,0,3
19271,1.056e+08,0,-0.3,0,0.56,12.37,12.38,0,0,3
19316,1.0561e+08,0,-0.33,0,0.55,12.38,12.38,0,0,3
19361,1.0562e+08,0,-0.32,0,0.56,12.38,12.38,0,0,3
19409,1.0563e+08,0,-0.34,0,0.56,12.38,12.39,0,0.01,3
19454,1.0564e+08,0,-0.33,0,0.56,12.38,12.39,0,0.01,3
19505,1.0565e+08,0,-0.32,0,0.55,12.39,12.39,0,0.01,3
19550,1.0567e+08,0,-0.35,0,0.54,12.38,12.38,0,0.01,3
19595,1.0568e+08,0,-0.34,0,0.55,12.38,12.39,0,0.01,3
19640,1.0569e+08,0,-0.37,0,0.54,12.37,12.38,0,0.01,3
19685,1.057e+08,0,-0.32,0,0.57,12.38,12.39,0,0.01,3
19730,1.0571e+08,0,-0.33,0,0.57,12.37,12.38,0,0.01,3
19774,1.0572e+08,0,-0.34,0,0.54,12.37,12.38,0,0.01,3
19823,1.0573e+08,0,-0.33,0,0.56,12.37,12.37,0,0.01,3
19868,1.0574e+08,0,-0.32,0,0.55,12.37,12.37,0,0.01,3
19914,1.0575e+08,0,-0.32,0,0.56,12.38,12.38,0,0.01,3
19959,1.0576e+08,0,-0.35,0,0.52,12.37,12.37,0,0.01,3
20006,1.0577e+08,0,-0.29,0,0.55,12.39,12.39,0,0.01,3
20051,1.0578e+08,0,-0.32,0,0.54,12.38,12.38,0,0.01,3
20096,1.0579e+08,0,-0.32,0,0.53,12.39,12.39,0,0.01,3
20141,1.058e+08,0,-0.34,0,0.55,12.39,12.39,0,0.01,3
20186,1.0581e+08,0,-0.34,0,0.53,12.38,12.38,0,0.01,3
20230,1.0582e+08,0,-0.34,0,0.57,12.39,12.4,0,0.01,3
20279,1.0584e+08,0,-0.37,0,0.53,12.37,12.38,0,0.01,3
20323,1.0585e+08,0,-0.34,0,0.57,12.39,12.39,0,0.01,3
20370,1.0586e+08,0,-0.36,0,0.53,12.37,12.37,0,0.01,3
20409,1.0587e+08,0,-0.35,0,0.55,12.38,12.38,0,0.01,3
20458,1.0588e+08,0,-0.36,0,0.57,12.37,12.38,0,0.01,3
20503,1.0589e+08,0,-0.34,0,0.55,12.37,12.37,0,0.01,3
20548,1.059e+08,0,-0.34,0,0.56,12.38,12.38,0,0.01,3
20593,1.0591e+08,0,-0.35,0,0.52,12.36,12.36,0,0.01,3
20638,1.0592e+08,0,-0.33,0,0.56,12.38,12.38,0,0.01,3
20685,1.0593e+08,0,-0.32,0,0.53,12.36,12.37,0,0.01,3
20731,1.0594e+08,0,-0.3,0,0.55,12.37,12.38,0,0.01,3
20776,1.0595e+08,0,-0.33,0,0.52,12.36,12.36,0,0.01,3
20821,1.0596e+08,0,-0.32,0,0.56,12.37,12.37,0,0.01,3
20870,1.0597e+08,0,-0.34,0,0.53,12.36,12.37,0,0.01,3
20914,1.0598e+08,0,-0.34,0,0.55,12.37,12.37,0,0.01,3
20962,1.0599e+08,0,-0.37,0,0.55,12.37,12.37,0,0.01,3
21006,1.06e+08,0,-0.37,0,0.55,12.36,12.36,0,0.01,3
21051,1.0601e+08,0,-0.37,0,0.54,12.37,12.38,0,0.01,3
21097,1.0602e+08,0,-0.38,0,0.52,12.35,12.35,0,0.01,3
21145,1.0604e+08,0,-0.35,0,0.55,12.37,12.38,0,0.01,3
21192,1.0605e+08,0,-0.38,0,0.53,12.35,12.35,0,0.01,3
21233,1.0606e+08,0,-0.38,0,0.55,12.36,12.36,0,0.01,3
21277,1.0607e+08,0,-0.33,0,0.57,12.37,12.37,0,0.01,3
21320,1.0608e+08,0,-0.32,0,0.53,12.35,12.35,0,0.01,3
21363,1.0609e+08,0,-0.33,0,0.56,12.38,12.38,0,0.01,3
21406,1.061e+08,0,-0.32,0,0.52,12.34,12.34,0,0.01,3
21449,1.0611e+08,0,-0.32,0,0.57,12.38,12.38,0,0.01,3
21494,1.0612e+08,0,-0.34,0,0.52,12.35,12.35,0,0.01,3
21537,1.0613e+08,0,-0.34,0,0.55,12.38,12.38,0,0.01,3
21583,1.0614e+08,0,-0.35,0,0.54,12.35,12.35,0,0.01,3
21627,1.0615e+08,0,-0.35,0,0.57,12.38,12.38,0,0.01,3
21669,1.0616e+08,0,-0.37,0,0.56,12.37,12.37,0,0.01,3
21713,1.0617e+08,0,-0.36,0,0.56,12.37,12.37,0,0.01,3
21758,1.0619e+08,0,-0.36,0,0.59,12.38,12.38,0,0.01,3
21801,1.062e+08,0,-0.35,0,0.53,12.37,12.37,0,0.01,3
21844,1.0621e+08,0,-0.35,0,0.57,12.38,12.38,0,0.01,3
21887,1.0622e+08,0,-0.35,0,0.55,12.36,12.36,0,0.01,3
21930,1.0623e+08,0,-0.32,0,0.56,12.39,12.39,0,0.01,3
21976,1.0624e+08,0,-0.34,0,0.55,12.38,12.39,0,0.01,3
22022,1.0625e+08,0,-0.33,0,0.52,12.36,12.37,0,0.01,3
22062,1.0626e+08,0,-0.28,0,0.53,12.39,12.39,0,0.01,3
22107,1.0627e+08,0,-0.32,0,0.52,12.39,12.38,0,0.01,3
22153,1.0628e+08,0,-0.33,0,0.55,12.39,12.38,0,0.01,3
22197,1.0629e+08,0,-0.28,0,0.52,12.39,12.39,0,0.01,3
22242,1.063e+08,0,-0.28,0,0.53,12.39,12.38,0,0.01,3
22287,1.0631e+08,0,-0.35,0,0.53,12.39,12.38,0,0.01,3
22332,1.0632e+08,0,-0.32,0,0.55,12.39,12.41,0,0.01,3
22377,1.0633e+08,0,-0.25,0,0.51,12.39,12.38,0,0.01,3
22425,1.0634e+08,0,-0.21,0,0.46,12.39,12.41,0,0.01,3
22470,1.0635e+08,0,-0.32,0,0.48,12.39,12.39,0,0.01,3
22515,1.0636e+08,0,-0.44,0,0.5,12.39,12.42,0,0.01,3
22560,1.0637e+08,0,-0.43,0,0.52,12.39,12.42,0,0.01,3
22605,1.0638e+08,0,-0.27,0,0.47,12.39,12.42,0,0.01,3
22646,1.0639e+08,0,-0.21,0,0.46,12.39,12.42,0,0.01,3
22695,1.064e+08,0,-0.21,0,0.42,12.39,12.41,0,0.01,3
22743,1.0642e+08,0,-0.2,0,0.4,12.39,12.38,0,0.01,3
22787,1.0643e+08,0.01,-0.26,0,0.44,12.39,12.41,0,0.01,3
22839,1.0645e+08,0.02,-0.18,0,0.47,12.39,12.4,0,0.01,3
22884,1.0646e+08,0.03,-0.16,-0.01,0.46,12.39,12.37,0,0.01,3
22931,1.0647e+08,0.05,-0.22,-0.03,0.45,12.39,12.4,0,0.01,3
22975,1.0648e+08,0.06,-0.33,-0.03,0.46,12.39,12.38,0,0.01,3
23024,1.0649e+08,0.08,-0.28,-0.05,0.46,12.39,12.44,0,0.01,3
23071,1.065e+08,0.1,-0.29,-0.06,0.42,12.39,12.4,0,0.01,3
23119,1.0652e+08,0.11,-0.29,-0.07,0.39,12.39,12.4,0,0.01,3
23163,1.0653e+08,0.11,-0.31,-0.08,0.47,12.39,12.46,0,0.01,3
23208,1.0654e+08,0.12,-0.21,-0.09,0.38,12.39,12.4,0,0.01,3
23256,1.0655e+08,0.11,-0.19,-0.09,0.46,12.39,12.45,0,0.01,3
23303,1.0656e+08,0.1,-0.16,-0.1,0.44,12.39,12.43,0,0,3
23348,1.0657e+08,0.1,-0.21,-0.1,0.39,12.39,12.4,0,0,3
23393,1.0658e+08,0.1,-0.35,-0.1,0.47,12.39,12.43,0,0,3
23437,1.0659e+08,0.1,-0.32,-0.09,0.41,12.39,12.39,0,0,3
23483,1.066e+08,0.09,-0.34,-0.09,0.48,12.39,12.42,0,0,3
23527,1.0661e+08,0.09,-0.24,-0.08,0.41,12.39,12.42,0,0,3
23573,1.0662e+08,0.09,-0.24,-0.07,0.37,12.39,12.4,0,0,3
23618,1.0663e+08,0.09,-0.41,-0.07,0.45,12.39,12.41,0,0,3
23661,1.0664e+08,0.08,-0.3,-0.06,0.45,12.39,12.4,0,0,3
23709,1.0666e+08,0.07,-0.26,-0.06,0.4,12.39,12.39,0,0,3
23754,1.0667e+08,0.06,-0.38,-0.05,0.44,12.39,12.41,0,0,3
23799,1.0668e+08,0.06,-0.23,-0.05,0.46,12.39,12.42,0,0,3
23844,1.0669e+08,0.06,-0.25,-0.04,0.33,12.39,12.41,0,0,3
23888,1.067e+08,0.06,-0.37,-0.04,0.38,12.39,12.42,0,0,3
23933,1.0671e+08,0.06,-0.34,-0.03,0.48,12.39,12.43,0,0,3
23979,1.0672e+08,0.06,-0.23,-0.02,0.37,12.39,12.42,0,0,3
24024,1.0673e+08,0.06,-0.36,-0.02,0.3,12.39,12.43,0,0,3
24068,1.0674e+08,0.06,-0.3,-0.02,0.51,12.39,12.44,0,0,3
24113,1.0675e+08,0.06,-0.22,-0.02,0.49,12.39,12.42,0,0,3
24161,1.0676e+08,0.05,-0.28,-0.03,0.34,12.39,12.41,0,0,3
24205,1.0677e+08,0.04,-0.22,-0.04,0.35,12.39,12.43,0,0,3
24249,1.0678e+08,0.04,-0.16,-0.04,0.48,12.39,12.42,0,0,3
24293,1.0679e+08,0.04,-0.35,-0.03,0.5,12.39,12.44,0,0,3
24340,1.068e+08,0.04,-0.36,-0.03,0.41,12.39,12.44,0,0,3
24384,1.0681e+08,0.04,-0.08,-0.04,0.28,12.39,12.42,0,0,3
24431,1.0682e+08,0.03,0,-0.03,0.32,12.39,12.43,0,0,3
24475,1.0683e+08,0.03,-0.15,-0.03,0.39,12.39,12.43,0,0,3
24520,1.0684e+08,0.02,-0.51,-0.02,0.44,12.39,12.45,0,0,3
24567,1.0686e+08,0.01,0.08,-0.01,0.38,12.39,12.43,0,0,3
24616,1.0687e+08,0.02,-0.29,-0.01,0.44,12.39,12.42,0,0,3
24661,1.0688e+08,0.03,-0.42,-0.02,0.42,12.39,12.44,0,0,3
24706,1.0689e+08,0.05,-0.3,-0.02,0.41,12.39,12.47,0,0,3
24757,1.0691e+08,0.04,-0.33,-0.01,0.35,12.39,12.46,0,0,3
24805,1.0692e+08,0.02,-0.39,0,0.39,12.39,12.45,0,0,3
24849,1.0693e+08,0,-0.2,0,0.37,12.39,12.46,0,0,3
24895,1.0694e+08,0,-0.15,0,0.37,12.39,12.46,0,0,3
24939,1.0695e+08,-0.02,-0.17,0,0.36,12.39,12.45,0,0,3
24987,1.0696e+08,-0.04,-0.3,0,0.32,12.39,12.44,0,0,3
25036,1.0697e+08,-0.04,-0.33,0.01,0.32,12.39,12.46,0,0,3
25080,1.0698e+08,-0.03,-0.27,0.02,0.34,12.39,12.49,0,0,3
25125,1.0699e+08,-0.02,-0.15,0.02,0.33,12.39,12.51,0,0,3
25169,1.0701e+08,-0.01,-0.13,0.03,0.31,12.39,12.52,0,0,3
25214,1.0702e+08,-0.01,-0.09,0.04,0.3,12.39,12.55,0,0,3
25259,1.0703e+08,-0.01,-0.15,0.05,0.3,12.39,12.59,0,0,3
25309,1.0704e+08,-0.01,-0.26,0.06,0.22,12.39,12.63,0,0,3
25352,1.0705e+08,0,-0.19,0.06,0.27,12.39,12.63,0,0,3
25396,1.0706e+08,0,-0.17,0.07,0.22,12.39,12.66,0,0,3
25448,1.0708e+08,0,-0.2,0.09,0.06,12.39,12.74,0,0,3
25493,1.0709e+08,0.01,-0.18,0.1,0,12.39,12.76,0,0,3
25538,1.071e+08,0.03,-0.12,0.12,-0.02,12.39,12.76,0,0,3
25582,1.0711e+08,0.04,-0.09,0.13,-0.04,12.39,12.8,0,0,3
25634,1.0712e+08,0.06,-0.07,0.14,-0.08,12.39,12.87,0,0,3
25678,1.0713e+08,0.06,0.05,0.14,-0.1,12.39,12.92,0,0,3
25723,1.0714e+08,0.06,0.08,0.15,-0.13,12.39,12.96,0,0,3
25770,1.0715e+08,0.05,0.06,0.15,-0.19,12.39,13.02,0,0,3
25817,1.0716e+08,0.05,0.1,0.15,-0.21,12.39,13.06,0,0,3
25861,1.0717e+08,0.05,0.18,0.15,-0.24,12.39,13.13,0,0,3
25909,1.0719e+08,0.06,0.25,0.15,-0.29,12.39,13.2,0,0.01,3
25954,1.072e+08,0.05,0.22,0.15,-0.35,12.39,13.27,0,0.01,3
25998,1.0721e+08,0.03,0.22,0.15,-0.37,12.39,13.34,0,0.01,3
26043,1.0722e+08,0.03,0.33,0.15,-0.42,12.39,13.46,0,0.01,3
26087,1.0723e+08,0.02,0.31,0.15,-0.47,12.39,13.56,0,0.01,3
26133,1.0724e+08,0.01,0.37,0.16,-0.47,12.39,13.62,0,0.01,3
26181,1.0725e+08,0,0.39,0.17,-0.52,12.39,13.79,0.01,0.01,3
26226,1.0727e+08,-0.01,0.5,0.19,-0.42,12.39,13.93,0.01,0.01,3
26268,1.0728e+08,-0.04,0.51,0.2,-0.48,12.39,14.06,0.01,0.01,3
26315,1.0729e+08,-0.07,0.54,0.2,-0.54,12.39,14.17,0.01,0.01,3
26358,1.073e+08,-0.09,0.61,0.21,-0.46,12.39,14.3,0.01,0.01,3
26401,1.0731e+08,-0.11,0.55,0.22,-0.4,12.39,14.47,0.01,0.01,3
26444,1.0732e+08,-0.13,0.5,0.23,-0.47,12.39,14.62,0.01,0.01,3
26483,1.0733e+08,-0.15,0.59,0.24,-0.46,12.39,14.75,0.01,0.01,3
26526,1.0734e+08,-0.18,0.64,0.25,-0.42,12.39,14.89,0.01,0.01,3
26568,1.0735e+08,-0.21,0.6,0.27,-0.43,12.39,15.08,0.01,0.01,3
26611,1.0736e+08,-0.24,0.59,0.3,-0.54,12.39,15.25,0.01,0.01,3
26655,1.0737e+08,-0.28,0.65,0.33,-0.53,12.39,15.39,0.01,0.01,3
26698,1.0738e+08,-0.33,0.68,0.36,-0.48,12.39,15.54,0.01,0.01,3
26745,1.0739e+08,-0.38,0.61,0.39,-0.51,12.39,15.77,0.01,0.01,3
26787,1.074e+08,-0.44,0.75,0.42,-0.57,12.39,15.92,0.01,0.01,3
26830,1.0741e+08,-0.49,0.83,0.46,-0.58,12.39,16.06,0.01,0.01,3
26873,1.0742e+08,-0.55,0.74,0.51,-0.64,12.39,16.28,0.01,0.01,3
26916,1.0743e+08,-0.59,0.66,0.54,-0.65,12.39,16.47,0.01,0.01,3
26958,1.0745e+08,-0.63,0.67,0.58,-0.68,12.39,16.64,0.01,0.01,3
27003,1.0746e+08,-0.68,0.66,0.62,-0.67,12.39,16.85,0.01,0.01,3
27044,1.0747e+08,-0.74,0.71,0.68,-0.72,12.39,17.04,0.01,0.01,3
27089,1.0748e+08,-0.79,0.68,0.73,-0.75,12.38,17.28,0.01,0.01,3
27134,1.0749e+08,-0.83,0.62,0.78,-0.77,12.38,17.47,0.01,0.01,3
27183,1.075e+08,-0.89,0.65,0.82,-0.74,12.38,17.61,0.01,0.01,3
27228,1.0751e+08,-0.97,0.74,0.85,-0.68,12.38,17.8,0.01,0.01,3
27273,1.0752e+08,-1.06,0.71,0.89,-0.7,12.38,18.01,0.01,0.01,3
27320,1.0753e+08,-1.17,0.79,0.95,-0.63,12.38,18.21,0.01,0.01,3
27365,1.0755e+08,-1.27,0.82,0.99,-0.62,12.38,18.42,0.01,0.01,3
27409,1.0756e+08,-1.37,0.95,1.03,-0.62,12.38,18.58,0.01,0.01,3
27454,1.0757e+08,-1.49,1.06,1.07,-0.56,12.38,18.71,0.01,0.01,3
27499,1.0758e+08,-1.61,1.1,1.11,-0.54,12.38,18.89,0.01,0.01,3
27544,1.0759e+08,-1.73,1.15,1.15,-0.56,12.38,19.09,0.01,0.01,3
27594,1.076e+08,-1.85,1.27,1.2,-0.59,12.37,19.2,0.01,0.01,3
27638,1.0761e+08,-1.96,1.37,1.25,-0.54,12.37,19.35,0.01,0.01,3
27683,1.0762e+08,-2.07,1.4,1.3,-0.49,12.37,19.53,0.01,0.01,3
27729,1.0763e+08,-2.17,1.37,1.34,-0.53,12.37,19.69,0.01,0.01,3
27773,1.0764e+08,-2.28,1.49,1.38,-0.5,12.37,19.81,0.01,0.01,3
27820,1.0766e+08,-2.39,1.45,1.43,-0.43,12.37,20.05,0.01,0.01,3
27864,1.0767e+08,-2.5,1.38,1.48,-0.38,12.36,20.2,0.01,0.01,3
27909,1.0768e+08,-2.6,1.26,1.54,-0.39,12.36,20.37,0.01,0.01,3
27954,1.0769e+08,-2.69,1.31,1.59,-0.37,12.36,20.46,0.01,0.01,3
27998,1.077e+08,-2.79,1.29,1.64,-0.34,12.36,20.6,0.01,0.01,3
28047,1.0771e+08,-2.88,1.13,1.7,-0.4,12.35,20.75,0.01,0.02,3
28093,1.0772e+08,-2.98,1.1,1.77,-0.39,12.35,20.84,0.01,0.02,3
28137,1.0773e+08,-3.07,0.99,1.84,-0.37,12.35,20.97,0.01,0.02,3
28182,1.0774e+08,-3.16,0.83,1.91,-0.38,12.34,21.1,0.01,0.02,3
28226,1.0775e+08,-3.24,0.8,1.97,-0.37,12.34,21.19,0.01,0.02,3
28271,1.0776e+08,-3.33,0.62,2.03,-0.32,12.32,21.32,0.01,0.02,3
28315,1.0777e+08,-3.41,0.55,2.1,-0.35,12.29,21.41,0.01,0.02,3
28360,1.0778e+08,-3.5,0.51,2.15,-0.31,12.23,21.48,0.01,0.02,3
28405,1.0779e+08,-3.59,0.35,2.2,-0.24,12.16,21.58,0.01,0.02,3
28450,1.078e+08,-3.67,0.15,2.24,-0.2,12.09,21.68,0.01,0.02,3
28499,1.0781e+08,-3.75,0.12,2.28,-0.15,12,21.74,0.01,0.01,3
28544,1.0782e+08,-3.84,-0.02,2.32,-0.13,11.91,21.84,0.01,0.01,3
28595,1.0784e+08,-3.95,-0.12,2.37,-0.04,11.79,21.9,0.01,0.01,3
28633,1.0785e+08,-3.99,-0.35,2.39,0.02,11.74,21.98,0.02,0.01,3
28678,1.0786e+08,-4.08,-0.42,2.44,0.1,11.64,22.02,0.02,0.01,3
28723,1.0787e+08,-4.15,-0.64,2.49,0.13,11.54,22.1,0.02,0.01,3
28768,1.0788e+08,-4.23,-0.79,2.53,0.2,11.44,22.12,0.02,0.01,3
28813,1.0789e+08,-4.3,-0.88,2.57,0.26,11.34,22.16,0.02,0.01,3
28858,1.079e+08,-4.38,-1.1,2.61,0.31,11.22,22.19,0.02,0.01,3
28902,1.0791e+08,-4.45,-1.1,2.66,0.36,11.11,22.2,0.02,0.01,3
28951,1.0792e+08,-4.52,-1.27,2.69,0.49,10.98,22.22,0.02,0.01,3
28996,1.0793e+08,-4.59,-1.5,2.72,0.56,10.82,22.24,0.02,0.01,3
29041,1.0794e+08,-4.65,-1.58,2.74,0.7,10.63,22.23,0.02,0.01,3
29091,1.0796e+08,-4.73,-1.78,2.77,0.83,10.37,22.21,0.02,0.01,3
29136,1.0797e+08,-4.8,-1.91,2.79,0.87,10.15,22.2,0.02,0.01,3
29181,1.0798e+08,-4.86,-2.04,2.8,0.9,9.92,22.18,0.02,0.01,3
29225,1.0799e+08,-4.92,-1.99,2.81,1.04,9.67,22.12,0.02,0.01,3
29270,1.08e+08,-4.97,-2.18,2.83,1.15,9.42,22.11,0.02,0.01,3
29314,1.0801e+08,-5.03,-2.34,2.84,1.17,9.14,22.04,0.02,0.01,3
29362,1.0802e+08,-5.08,-2.43,2.85,1.28,8.86,21.97,0.02,0.01,3
29407,1.0803e+08,-5.13,-2.53,2.86,1.39,8.61,21.91,0.02,0.01,3
29452,1.0804e+08,-5.17,-2.65,2.86,1.46,8.36,21.83,0.02,0.01,3
29499,1.0805e+08,-5.2,-2.7,2.86,1.54,8.13,21.72,0.03,0.01,3
29537,1.0806e+08,-5.22,-2.88,2.87,1.59,8.01,21.63,0.03,0.01,3
29583,1.0807e+08,-5.25,-2.86,2.87,1.75,7.8,21.49,0.03,0.01,3
29627,1.0808e+08,-5.29,-3.05,2.87,1.76,7.59,21.4,0.03,0.01,3
29672,1.0809e+08,-5.33,-3,2.87,1.83,7.41,21.24,0.03,0.01,3
29716,1.081e+08,-5.37,-2.99,2.86,1.96,7.22,21.11,0.03,0.01,3
29761,1.0811e+08,-5.4,-3.19,2.86,1.97,7.06,20.97,0.03,0.01,3
29813,1.0813e+08,-5.43,-3.22,2.84,2.09,6.86,20.8,0.03,0.02,3
29858,1.0814e+08,-5.45,-3.26,2.83,2.15,6.72,20.63,0.03,0.02,3
29902,1.0815e+08,-5.47,-3.19,2.83,2.15,6.61,20.47,0.03,0.02,3
29948,1.0816e+08,-5.49,-3.29,2.83,2.21,6.53,20.31,0.03,0.02,3
29992,1.0817e+08,-5.5,-3.3,2.83,2.24,6.48,20.13,0.03,0.02,3
30037,1.0818e+08,-5.51,-3.35,2.84,2.26,6.46,19.97,0.03,0.02,3
30082,1.0819e+08,-5.5,-3.42,2.84,2.27,6.45,19.81,0.03,0.02,3
30127,1.082e+08,-5.51,-3.34,2.85,2.3,6.45,19.65,0.03,0.02,3
30174,1.0821e+08,-5.52,-3.39,2.86,2.29,6.45,19.48,0.03,0.02,3
30219,1.0822e+08,-5.53,-3.42,2.86,2.31,6.45,19.31,0.03,0.02,3
30267,1.0823e+08,-5.53,-3.42,2.87,2.42,6.45,19.12,0.03,0.02,3
30314,1.0825e+08,-5.53,-3.46,2.87,2.51,6.45,18.91,0.05,0.02,3
30356,1.0826e+08,-5.52,-3.53,2.87,2.52,6.45,18.78,0.05,0.02,3
30403,1.0827e+08,-5.51,-3.54,2.87,2.5,6.45,18.62,0.05,0.02,3
30447,1.0828e+08,-5.5,-3.48,2.87,2.54,6.45,18.44,0.05,0.02,3
30492,1.0829e+08,-5.48,-3.54,2.87,2.53,6.45,18.31,0.05,0.02,3
30537,1.083e+08,-5.45,-3.43,2.87,2.54,6.45,18.13,0.05,0.02,3
30581,1.0831e+08,-5.41,-3.42,2.87,2.53,6.45,17.98,0.05,0.02,3
30626,1.0832e+08,-5.39,-3.48,2.86,2.49,6.45,17.84,0.05,0.02,3
30671,1.0833e+08,-5.36,-3.35,2.86,2.5,6.45,17.66,0.05,0.02,3
30720,1.0834e+08,-5.33,-3.32,2.87,2.47,6.45,17.54,0.05,0.02,3
30764,1.0835e+08,-5.3,-3.3,2.87,2.44,6.45,17.39,0.05,0.02,3
30808,1.0837e+08,-5.27,-3.16,2.86,2.44,6.45,17.21,0.05,0.02,3
30852,1.0838e+08,-5.23,-3.18,2.86,2.39,6.45,17.11,0.05,0.02,3
30900,1.0839e+08,-5.19,-2.99,2.86,2.33,6.45,16.88,0.05,0.02,3
30944,1.084e+08,-5.16,-3,2.86,2.27,6.45,16.76,0.05,0.02,3
30989,1.0841e+08,-5.14,-2.88,2.86,2.27,6.45,16.59,0.05,0.02,3
31034,1.0842e+08,-5.11,-2.85,2.86,2.27,6.45,16.44,0.05,0.02,3
31079,1.0843e+08,-5.09,-2.84,2.85,2.25,6.45,16.34,0.05,0.02,3
31123,1.0844e+08,-5.06,-2.78,2.84,2.22,6.46,16.17,0.05,0.02,3
31176,1.0845e+08,-5.04,-2.71,2.83,2.22,6.46,16.04,0.05,0.03,3
31217,1.0846e+08,-5.03,-2.69,2.83,2.21,6.46,15.92,0.06,0.03,3
31259,1.0847e+08,-5.01,-2.66,2.81,2.26,6.46,15.73,0.06,0.03,3
31304,1.0849e+08,-4.99,-2.68,2.8,2.31,6.46,15.62,0.06,0.03,3
31349,1.085e+08,-4.96,-2.73,2.8,2.31,6.46,15.52,0.06,0.03,3
31393,1.0851e+08,-4.93,-2.65,2.8,2.3,6.46,15.35,0.06,0.03,3
31439,1.0852e+08,-4.91,-2.6,2.8,2.33,6.46,15.24,0.06,0.03,3
31483,1.0853e+08,-4.89,-2.68,2.8,2.31,6.46,15.14,0.06,0.03,3
31528,1.0854e+08,-4.88,-2.61,2.8,2.32,6.46,15,0.06,0.03,3
31572,1.0855e+08,-4.86,-2.57,2.8,2.39,6.46,14.88,0.06,0.03,3
31621,1.0856e+08,-4.85,-2.66,2.81,2.44,6.46,14.79,0.06,0.03,3
31666,1.0857e+08,-4.84,-2.67,2.82,2.41,6.46,14.69,0.06,0.03,3
31713,1.0858e+08,-4.84,-2.56,2.84,2.37,6.46,14.52,0.06,0.03,3
31762,1.086e+08,-4.84,-2.64,2.86,2.38,6.45,14.39,0.06,0.03,3
31806,1.0861e+08,-4.84,-2.63,2.87,2.45,6.45,14.25,0.06,0.03,3
31851,1.0862e+08,-4.84,-2.62,2.89,2.52,6.45,14.17,0.06,0.03,3
31896,1.0863e+08,-4.84,-2.64,2.9,2.48,6.45,14.06,0.06,0.03,3
31941,1.0864e+08,-4.85,-2.6,2.9,2.49,6.45,13.95,0.06,0.03,3
31988,1.0865e+08,-4.86,-2.56,2.91,2.54,6.45,13.83,0.06,0.03,3
32030,1.0866e+08,-4.87,-2.59,2.92,2.55,6.45,13.74,0.06,0.03,3
32072,1.0867e+08,-4.88,-2.48,2.92,2.56,6.45,13.6,0.06,0.02,3
32115,1.0868e+08,-4.9,-2.39,2.92,2.59,6.45,13.48,0.06,0.02,3
32159,1.0869e+08,-4.92,-2.45,2.92,2.62,6.45,13.39,0.06,0.02,3
32202,1.087e+08,-4.94,-2.45,2.91,2.61,6.45,13.29,0.06,0.02,3
32244,1.0871e+08,-4.97,-2.29,2.9,2.64,6.45,13.12,0.06,0.02,3
32286,1.0872e+08,-5,-2.25,2.88,2.65,6.45,13.04,0.06,0.02,3
32328,1.0873e+08,-5.02,-2.32,2.86,2.69,6.45,12.96,0.06,0.02,3
32371,1.0874e+08,-5.04,-2.32,2.84,2.7,6.46,12.81,0.06,0.02,3
32415,1.0875e+08,-5.06,-2.22,2.81,2.72,6.46,12.7,0.06,0.02,3
32461,1.0876e+08,-5.09,-2.2,2.78,2.78,6.46,12.62,0.06,0.02,3
32504,1.0877e+08,-5.12,-2.29,2.75,2.76,6.46,12.55,0.06,0.02,3
32546,1.0878e+08,-5.14,-2.23,2.72,2.78,6.47,12.41,0.06,0.02,3
32589,1.088e+08,-5.16,-2.15,2.69,2.8,6.47,12.31,0.06,0.02,3
32632,1.0881e+08,-5.18,-2.2,2.65,2.79,6.47,12.23,0.06,0.02,3
32675,1.0882e+08,-5.21,-2.27,2.62,2.78,6.47,12.15,0.06,0.02,3
32718,1.0883e+08,-5.23,-2.28,2.6,2.78,6.48,12.05,0.06,0.02,3
32760,1.0884e+08,-5.26,-2.22,2.57,2.78,6.48,11.95,0.06,0.02,3
32803,1.0885e+08,-5.28,-2.24,2.54,2.86,6.48,11.89,0.06,0.02,3
32847,1.0886e+08,-5.3,-2.32,2.51,2.84,6.49,11.82,0.07,0.02,3
32887,1.0887e+08,-5.31,-2.34,2.49,2.85,6.49,11.71,0.07,0.02,3
32933,1.0888e+08,-5.32,-2.36,2.47,2.85,6.49,11.66,0.07,0.02,3
32977,1.0889e+08,-5.34,-2.42,2.45,2.79,6.49,11.6,0.07,0.02,3
33022,1.089e+08,-5.35,-2.45,2.43,2.74,6.49,11.54,0.07,0.02,3
33073,1.0892e+08,-5.37,-2.49,2.41,2.69,6.5,11.43,0.07,0.02,3
33117,1.0893e+08,-5.38,-2.53,2.4,2.66,6.5,11.35,0.07,0.02,3
33162,1.0894e+08,-5.39,-2.58,2.39,2.66,6.5,11.28,0.07,0.02,3
33208,1.0895e+08,-5.4,-2.63,2.39,2.62,6.5,11.25,0.07,0.02,3
33253,1.0896e+08,-5.42,-2.66,2.39,2.53,6.5,11.21,0.07,0.02,3
33298,1.0897e+08,-5.44,-2.65,2.38,2.47,6.5,11.14,0.07,0.02,3
33348,1.0898e+08,-5.46,-2.69,2.37,2.47,6.5,11.08,0.07,0.02,3
33392,1.0899e+08,-5.47,-2.73,2.36,2.47,6.5,11.04,0.07,0.02,3
33437,1.09e+08,-5.49,-2.8,2.36,2.41,6.5,11.01,0.07,0.02,3
33481,1.0901e+08,-5.51,-2.73,2.34,2.38,6.5,10.95,0.07,0.02,3
33526,1.0902e+08,-5.53,-2.72,2.33,2.44,6.5,10.87,0.07,0.02,3
33571,1.0903e+08,-5.56,-2.77,2.3,2.46,6.51,10.86,0.07,0.02,3
33618,1.0904e+08,-5.57,-2.9,2.27,2.42,6.51,10.84,0.07,0.02,3
33659,1.0906e+08,-5.59,-2.8,2.24,2.42,6.51,10.77,0.06,0.02,3
33704,1.0907e+08,-5.61,-2.92,2.22,2.38,6.51,10.74,0.06,0.02,3
33748,1.0908e+08,-5.61,-2.91,2.2,2.36,6.51,10.69,0.06,0.02,3
33797,1.0909e+08,-5.61,-2.85,2.19,2.36,6.52,10.66,0.06,0.02,3
33841,1.091e+08,-5.62,-2.89,2.18,2.38,6.52,10.64,0.06,0.02,3
33887,1.0911e+08,-5.62,-3.03,2.16,2.39,6.52,10.64,0.06,0.02,3
33931,1.0912e+08,-5.61,-3.1,2.15,2.35,6.52,10.59,0.06,0.02,3
33976,1.0913e+08,-5.6,-3.03,2.14,2.31,6.52,10.57,0.06,0.02,3
34020,1.0914e+08,-5.58,-3.04,2.12,2.32,6.52,10.56,0.06,0.02,3
34065,1.0915e+08,-5.57,-3.15,2.11,2.28,6.52,10.57,0.06,0.02,3
34110,1.0916e+08,-5.56,-3.26,2.09,2.21,6.53,10.55,0.06,0.02,3
34154,1.0917e+08,-5.54,-3.21,2.08,2.16,6.53,10.54,0.06,0.02,3
34199,1.0918e+08,-5.53,-3.21,2.07,2.25,6.53,10.5,0.06,0.02,3
34249,1.0919e+08,-5.52,-3.31,2.06,2.22,6.53,10.55,0.06,0.02,3
34294,1.092e+08,-5.51,-3.44,2.04,2.15,6.53,10.54,0.06,0.02,3
34339,1.0921e+08,-5.49,-3.46,2.03,2.14,6.53,10.52,0.06,0.02,3
34383,1.0923e+08,-5.48,-3.43,2.01,2.12,6.53,10.52,0.06,0.02,3
34428,1.0924e+08,-5.47,-3.57,2,2.06,6.54,10.58,0.06,0.02,3
34473,1.0925e+08,-5.45,-3.56,1.98,1.99,6.54,10.59,0.06,0.02,3
34519,1.0926e+08,-5.43,-3.59,1.97,1.94,6.54,10.63,0.08,0.02,3
34563,1.0927e+08,-5.4,-3.65,1.96,1.89,6.54,10.66,0.08,0.02,3
34609,1.0928e+08,-5.39,-3.74,1.95,1.92,6.54,10.65,0.08,0.02,3
34658,1.0929e+08,-5.37,-3.79,1.94,1.96,6.54,10.71,0.08,0.02,3
34703,1.093e+08,-5.36,-3.93,1.92,1.83,6.54,10.77,0.08,0.02,3
34748,1.0931e+08,-5.35,-3.84,1.91,1.82,6.54,10.79,0.08,0.02,3
34793,1.0933e+08,-5.34,-3.86,1.89,1.85,6.54,10.83,0.08,0.02,3
34837,1.0934e+08,-5.34,-4,1.88,1.75,6.55,10.91,0.08,0.02,3
34882,1.0935e+08,-5.34,-4.02,1.88,1.8,6.55,10.92,0.08,0.02,3
34930,1.0936e+08,-5.33,-4.13,1.87,1.8,6.55,11.03,0.08,0.02,3
34975,1.0937e+08,-5.32,-4.15,1.87,1.79,6.55,11.06,0.08,0.02,3
35020,1.0938e+08,-5.31,-4.2,1.87,1.81,6.55,11.1,0.08,0.02,3
35064,1.0939e+08,-5.3,-4.28,1.88,1.75,6.55,11.19,0.08,0.02,3
35113,1.094e+08,-5.29,-4.28,1.89,1.68,6.55,11.24,0.08,0.02,3
35157,1.0941e+08,-5.29,-4.24,1.89,1.7,6.55,11.27,0.08,0.02,3
35202,1.0942e+08,-5.29,-4.32,1.89,1.76,6.54,11.3,0.08,0.02,3
35248,1.0943e+08,-5.29,-4.41,1.89,1.67,6.54,11.41,0.08,0.02,3
35294,1.0945e+08,-5.28,-4.35,1.9,1.62,6.54,11.44,0.08,0.02,3
35338,1.0946e+08,-5.28,-4.36,1.91,1.76,6.54,11.49,0.08,0.02,3
35384,1.0947e+08,-5.28,-4.32,1.91,1.69,6.54,11.55,0.08,0.02,3
35428,1.0948e+08,-5.27,-4.23,1.9,1.76,6.54,11.6,0.08,0.02,3
35473,1.0949e+08,-5.26,-4.25,1.88,1.81,6.55,11.66,0.08,0.02,3
35517,1.095e+08,-5.25,-4.33,1.86,1.79,6.55,11.72,0.08,0.02,3
35566,1.0951e+08,-5.24,-4.24,1.83,1.82,6.55,11.73,0.08,0.02,3
35610,1.0952e+08,-5.23,-4.17,1.81,1.9,6.55,11.78,0.08,0.02,3
35656,1.0953e+08,-5.21,-4.21,1.77,1.94,6.56,11.85,0.08,0.02,3
35701,1.0954e+08,-5.2,-4.08,1.73,2,6.56,11.88,0.08,0.02,3
35745,1.0956e+08,-5.18,-4.01,1.68,2.1,6.56,11.92,0.08,0.02,3
35789,1.0957e+08,-5.17,-4.04,1.64,2.06,6.57,11.99,0.08,0.02,3
35835,1.0958e+08,-5.15,-3.89,1.6,2.11,6.57,12,0.08,0.02,3
35879,1.0959e+08,-5.14,-3.77,1.55,2.17,6.58,12.06,0.08,0.02,3
35924,1.096e+08,-5.13,-3.77,1.51,2.16,6.58,12.12,0.08,0.02,3
35968,1.0961e+08,-5.12,-3.71,1.46,2.13,6.58,12.17,0.08,0.02,3
36017,1.0962e+08,-5.11,-3.64,1.41,2.13,6.59,12.17,0.08,0.02,3
36061,1.0963e+08,-5.1,-3.49,1.37,2.11,6.59,12.23,0.08,0.02,3
36107,1.0964e+08,-5.09,-3.44,1.33,2.05,6.6,12.3,0.08,0.02,3
36153,1.0965e+08,-5.08,-3.41,1.29,2.03,6.6,12.34,0.07,0.02,3
36192,1.0966e+08,-5.07,-3.28,1.26,2.1,6.6,12.38,0.07,0.02,3
36237,1.0967e+08,-5.06,-3.29,1.21,2.08,6.61,12.45,0.07,0.02,3
36283,1.0968e+08,-5.04,-3.3,1.15,2.06,6.61,12.47,0.07,0.02,3
36328,1.0969e+08,-5.02,-3.22,1.08,2.09,6.62,12.51,0.07,0.02,3
36373,1.097e+08,-5,-3.13,1,2.07,6.62,12.56,0.07,0.02,3
36417,1.0972e+08,-4.99,-3.16,0.92,2,6.63,12.62,0.07,0.02,3
36466,1.0973e+08,-4.97,-3.12,0.83,1.99,6.64,12.64,0.07,0.02,3
36511,1.0974e+08,-4.96,-3.02,0.75,2.02,6.65,12.66,0.07,0.02,3
36556,1.0975e+08,-4.95,-3.04,0.66,1.98,6.65,12.73,0.07,0.02,3
36602,1.0976e+08,-4.94,-3.04,0.58,1.9,6.66,12.78,0.07,0.02,3
36646,1.0977e+08,-4.93,-3.02,0.5,1.81,6.67,12.79,0.07,0.02,3
36690,1.0978e+08,-4.9,-2.95,0.46,1.86,7.92,14.03,0.07,0.02,3
36735,1.0979e+08,-4.89,-2.98,0.38,1.8,7.93,14.09,0.07,0.02,3
36779,1.098e+08,-4.9,-2.94,0.3,1.68,7.94,14.11,0.07,0.02,3
36824,1.0981e+08,-4.9,-2.88,0.22,1.61,7.94,14.14,0.07,0.02,3
36868,1.0982e+08,-4.9,-2.78,0.15,1.58,7.95,14.18,0.07,0.02,3
36917,1.0983e+08,-4.9,-2.81,0.08,1.47,7.95,14.24,0.07,0.01,3
36962,1.0984e+08,-4.91,-2.8,0.01,1.38,7.96,14.26,0.07,0.01,3
37006,1.0985e+08,-4.91,-2.75,-0.06,1.37,7.97,14.29,0.07,0.01,3
37055,1.0986e+08,-4.91,-2.78,-0.13,1.29,7.97,14.34,0.08,0.01,3
37096,1.0987e+08,-4.91,-2.86,-0.19,1.17,7.98,14.36,0.08,0.01,3
37136,1.0989e+08,-4.91,-2.77,-0.25,1.11,7.98,14.36,0.08,0.01,3
37179,1.099e+08,-4.91,-2.87,-0.31,0.98,7.99,14.39,0.08,0.01,3
37224,1.0991e+08,-4.89,-2.88,-0.38,0.94,7.99,14.36,0.08,0.01,3
37268,1.0992e+08,-4.88,-2.91,-0.44,0.91,8,14.36,0.08,0.01,3
37313,1.0993e+08,-4.86,-3.04,-0.5,0.84,8,14.39,0.08,0.01,3
37363,1.0994e+08,-4.85,-3.14,-0.55,0.76,8.01,14.42,0.08,0.02,3
37408,1.0995e+08,-4.84,-3.17,-0.6,0.67,8.01,14.41,0.08,0.02,3
37452,1.0996e+08,-4.83,-3.2,-0.63,0.64,8.02,14.41,0.08,0.02,3
37497,1.0997e+08,-4.82,-3.33,-0.66,0.53,8.02,14.48,0.08,0.02,3
37538,1.0999e+08,-4.81,-3.3,-0.69,0.41,8.02,14.49,0.08,0.02,3
37583,1.1e+08,-4.81,-3.37,-0.72,0.26,8.02,14.53,0.08,0.02,3
37630,1.1001e+08,-4.8,-3.41,-0.74,0.2,8.03,14.52,0.08,0.02,3
37674,1.1002e+08,-4.8,-3.51,-0.76,0.19,8.03,14.52,0.08,0.02,3
37718,1.1003e+08,-4.79,-3.54,-0.78,0.15,8.03,14.54,0.08,0.02,3
37762,1.1004e+08,-4.79,-3.62,-0.8,0.02,8.03,14.58,0.08,0.02,3
37811,1.1005e+08,-4.8,-3.56,-0.81,-0.04,8.03,14.56,0.08,0.02,3
37857,1.1007e+08,-4.81,-3.54,-0.81,-0.12,8.03,14.59,0.07,0.02,3
37901,1.1008e+08,-4.81,-3.54,-0.81,-0.13,8.03,14.65,0.07,0.02,3
37948,1.1009e+08,-4.81,-3.66,-0.82,-0.17,8.03,14.72,0.07,0.02,3
37993,1.101e+08,-4.81,-3.62,-0.82,-0.26,8.03,14.72,0.07,0.02,3
38034,1.1011e+08,-4.81,-3.52,-0.83,-0.38,8.03,14.78,0.07,0.02,3
38078,1.1012e+08,-4.81,-3.47,-0.84,-0.36,8.03,14.79,0.07,0.02,3
38123,1.1013e+08,-4.81,-3.49,-0.85,-0.36,8.03,14.84,0.07,0.02,3
38168,1.1014e+08,-4.81,-3.56,-0.86,-0.42,8.04,14.87,0.07,0.02,3
38217,1.1016e+08,-4.8,-3.51,-0.86,-0.45,8.04,14.88,0.07,0.02,3
38261,1.1017e+08,-4.79,-3.52,-0.86,-0.41,8.04,14.94,0.07,0.02,3
38306,1.1018e+08,-4.79,-3.53,-0.87,-0.46,8.04,14.98,0.07,0.02,3
38351,1.1019e+08,-4.79,-3.47,-0.87,-0.48,8.04,14.98,0.07,0.02,3
38392,1.102e+08,-4.79,-3.4,-0.87,-0.46,8.04,15.02,0.07,0.02,3
38433,1.1021e+08,-4.79,-3.42,-0.87,-0.56,8.04,15.05,0.07,0.02,3
38479,1.1022e+08,-4.79,-3.32,-0.88,-0.53,8.04,15.05,0.07,0.02,3
38523,1.1023e+08,-4.79,-3.35,-0.88,-0.5,8.04,15.11,0.07,0.02,3
38568,1.1024e+08,-4.8,-3.42,-0.88,-0.54,8.04,15.13,0.07,0.02,3
38614,1.1025e+08,-4.81,-3.36,-0.88,-0.58,8.04,15.13,0.07,0.02,3
38663,1.1026e+08,-4.83,-3.27,-0.88,-0.65,8.04,15.2,0.07,0.02,3
38708,1.1028e+08,-4.84,-3.19,-0.89,-0.63,8.04,15.26,0.07,0.01,3
38753,1.1029e+08,-4.86,-3.16,-0.9,-0.57,8.04,15.34,0.07,0.01,3
38799,1.103e+08,-4.88,-3.17,-0.92,-0.59,8.04,15.44,0.07,0.01,3
38843,1.1031e+08,-4.91,-3.09,-0.94,-0.52,8.04,15.53,0.07,0.01,3
38892,1.1032e+08,-4.95,-3.14,-0.97,-0.5,8.04,15.62,0.07,0.01,3
38936,1.1033e+08,-4.98,-3.2,-1,-0.55,8.05,15.71,0.07,0.01,3
38983,1.1034e+08,-5.01,-3.14,-1.04,-0.53,8.05,15.75,0.07,0.01,3
39025,1.1035e+08,-5.04,-3.11,-1.06,-0.51,8.05,15.85,0.07,0.01,3
39069,1.1036e+08,-5.07,-3.18,-1.09,-0.57,8.06,15.95,0.07,0.01,3
39118,1.1037e+08,-5.1,-3.16,-1.12,-0.62,8.06,16,0.07,0.01,3
39162,1.1038e+08,-5.14,-3.08,-1.14,-0.62,8.06,16.03,0.07,0.01,3
39207,1.1039e+08,-5.16,-3.19,-1.16,-0.64,8.06,16.14,0.07,0.01,3
39252,1.104e+08,-5.19,-3.3,-1.18,-0.66,8.06,16.2,0.07,0.01,3
39296,1.1042e+08,-5.21,-3.27,-1.2,-0.74,8.07,16.28,0.07,0.01,3
39342,1.1043e+08,-5.24,-3.37,-1.23,-0.68,8.07,16.31,0.07,0.01,3
39390,1.1045e+08,-5.26,-3.48,-1.27,-0.8,8.07,16.4,0.06,0.01,3
39432,1.1046e+08,-5.3,-3.43,-1.29,-0.79,8.07,16.44,0.06,0.01,3
39477,1.1047e+08,-5.33,-3.55,-1.33,-0.83,8.08,16.56,0.06,0.01,3
39526,1.1048e+08,-5.36,-3.61,-1.38,-0.86,8.08,16.62,0.06,0.01,3
39571,1.1049e+08,-5.39,-3.6,-1.42,-0.86,8.09,16.67,0.06,0.01,3
39616,1.105e+08,-5.42,-3.74,-1.46,-0.86,8.09,16.77,0.06,0.01,3
39661,1.1051e+08,-5.44,-3.88,-1.51,-0.91,8.09,16.82,0.06,0.01,3
39706,1.1053e+08,-5.45,-3.93,-1.55,-0.9,8.1,16.89,0.06,0.01,3
39750,1.1054e+08,-5.46,-4.04,-1.6,-0.91,8.1,16.93,0.06,0.01,3
39792,1.1055e+08,-5.47,-4.07,-1.64,-0.92,8.11,16.97,0.06,0.01,3
39837,1.1056e+08,-5.49,-4.16,-1.68,-0.97,8.11,17.03,0.06,0.01,3
39881,1.1057e+08,-5.51,-4.25,-1.73,-1,8.12,17.08,0.06,0.01,3
39926,1.1058e+08,-5.53,-4.26,-1.76,-1.02,8.12,17.09,0.06,0.01,3
39975,1.1059e+08,-5.53,-4.42,-1.8,-1.04,8.12,17.18,0.06,0.01,3
40019,1.106e+08,-5.53,-4.56,-1.84,-1.11,8.13,17.19,0.06,0.01,3
40064,1.1061e+08,-5.54,-4.52,-1.87,-1.14,8.13,17.18,0.06,0.01,3
40108,1.1062e+08,-5.54,-4.57,-1.89,-1.13,8.13,17.22,0.06,0.01,3
40150,1.1063e+08,-5.55,-4.69,-1.91,-1.24,8.13,17.26,0.06,0.01,3
40194,1.1064e+08,-5.55,-4.64,-1.92,-1.28,8.13,17.24,0.06,0.01,3
40237,1.1065e+08,-5.55,-4.68,-1.93,-1.3,8.13,17.27,0.06,0.01,3
40281,1.1066e+08,-5.54,-4.8,-1.94,-1.38,8.14,17.27,0.06,0.01,3
40321,1.1068e+08,-5.54,-4.71,-1.94,-1.4,8.14,17.22,0.06,0.01,3
40364,1.1069e+08,-5.54,-4.75,-1.94,-1.44,8.14,17.18,0.06,0.01,3
40411,1.107e+08,-5.53,-4.84,-1.93,-1.5,8.13,17.13,0.06,0.01,3
40453,1.1071e+08,-5.52,-4.75,-1.92,-1.49,8.13,17.01,0.06,0.01,3
40496,1.1072e+08,-5.5,-4.73,-1.9,-1.48,8.13,16.95,0.06,0.01,3
40538,1.1073e+08,-5.5,-4.77,-1.88,-1.49,8.13,16.88,0.06,0.01,3
40578,1.1074e+08,-5.49,-4.63,-1.86,-1.57,8.13,16.77,0.06,0.01,3
40622,1.1075e+08,-5.49,-4.58,-1.82,-1.55,8.12,16.68,0.06,0.01,3
40661,1.1076e+08,-5.49,-4.53,-1.79,-1.61,8.12,16.58,0.06,0.01,3
40704,1.1077e+08,-5.48,-4.52,-1.74,-1.58,8.12,16.49,0.06,0.01,3
40746,1.1078e+08,-5.47,-4.53,-1.69,-1.54,8.11,16.4,0.06,0.01,3
40790,1.1079e+08,-5.46,-4.52,-1.63,-1.56,8.11,16.33,0.06,0.01,3
40837,1.108e+08,-5.44,-4.44,-1.57,-1.54,8.1,16.22,0.06,0.01,3
40879,1.1081e+08,-5.42,-4.39,-1.5,-1.47,8.09,16.16,0.06,0.01,3
40923,1.1082e+08,-5.4,-4.45,-1.44,-1.49,8.09,16.11,0.06,0.01,3
40965,1.1083e+08,-5.37,-4.44,-1.38,-1.47,8.08,16.04,0.06,0.01,3
41008,1.1084e+08,-5.34,-4.38,-1.32,-1.37,8.08,15.95,0.06,0.01,3
41050,1.1085e+08,-5.33,-4.43,-1.28,-1.33,8.07,15.94,0.06,0.01,3
41087,1.1087e+08,-5.31,-4.37,-1.25,-1.34,8.07,15.87,0.06,0.01,3
41127,1.1088e+08,-5.29,-4.46,-1.18,-1.25,8.06,15.86,0.06,0.01,3
41174,1.1089e+08,-5.28,-4.5,-1.09,-1.25,8.06,15.83,0.06,0.01,3
41218,1.109e+08,-5.27,-4.45,-1,-1.11,8.05,15.78,0.06,0.01,3
41267,1.1091e+08,-5.26,-4.54,-0.91,-1.07,8.04,15.8,0.06,0.01,3
41311,1.1092e+08,-5.25,-4.59,-0.81,-1.07,8.03,15.78,0.06,0.01,3
41356,1.1093e+08,-5.25,-4.48,-0.72,-0.95,8.02,15.74,0.06,0.01,3
41402,1.1094e+08,-5.25,-4.53,-0.63,-0.88,8.01,15.75,0.06,0.01,3
41448,1.1095e+08,-5.25,-4.61,-0.55,-0.8,8.01,15.76,0.06,0.01,3
41489,1.1096e+08,-5.24,-4.59,-0.49,-0.58,8,15.71,0.06,0.01,3
41531,1.1097e+08,-5.23,-4.68,-0.43,-0.49,7.99,15.74,0.06,0.01,3
41577,1.1099e+08,-5.23,-4.62,-0.34,-0.4,7.99,15.72,0.06,0.01,3
41622,1.11e+08,-5.23,-4.59,-0.26,-0.26,7.98,15.69,0.06,0.01,3
41666,1.1101e+08,-5.24,-4.64,-0.19,-0.12,7.97,15.73,0.06,0.01,3
41715,1.1102e+08,-5.25,-4.62,-0.13,-0.01,7.97,15.7,0.06,0.01,3
41759,1.1103e+08,-5.26,-4.54,-0.07,0.05,7.96,15.68,0.06,0.01,3
41804,1.1104e+08,-5.28,-4.5,-0.01,0.19,7.96,15.7,0.06,0.01,3
41848,1.1105e+08,-5.3,-4.49,0.04,0.24,7.95,15.7,0.06,0.01,3
41894,1.1106e+08,-5.32,-4.36,0.08,0.4,7.95,15.64,0.06,0.01,3
41935,1.1107e+08,-5.34,-4.38,0.1,0.52,7.94,15.67,0.05,0.01,3
41973,1.1108e+08,-5.36,-4.24,0.14,0.64,7.94,15.63,0.05,0.01,3
42017,1.1109e+08,-5.37,-4.25,0.17,0.81,7.94,15.63,0.05,0.01,3
42061,1.111e+08,-5.38,-4.24,0.19,0.89,7.94,15.65,0.05,0.01,3
42107,1.1111e+08,-5.38,-4.14,0.2,1.01,7.94,15.59,0.05,0.01,3
42156,1.1112e+08,-5.38,-4.1,0.21,1.21,7.93,15.59,0.05,0.01,3
42200,1.1114e+08,-5.38,-4.16,0.2,1.35,7.94,15.59,0.05,0.01,3
42245,1.1115e+08,-5.37,-4.13,0.18,1.46,7.94,15.56,0.05,0.01,3
42289,1.1116e+08,-5.37,-4.04,0.15,1.59,7.94,15.55,0.05,0.01,3
42330,1.1117e+08,-5.36,-4.1,0.12,1.72,7.94,15.57,0.05,0.01,3
42376,1.1118e+08,-5.36,-3.99,0.09,1.78,7.95,15.53,0.05,0.01,3
42421,1.1119e+08,-5.35,-3.87,0.06,1.87,7.95,15.5,0.05,0.01,3
42463,1.112e+08,-5.36,-3.87,0.03,1.86,7.95,15.51,0.05,0.01,3
42507,1.1121e+08,-5.37,-3.8,0,1.89,7.96,15.46,0.05,0.01,3
42553,1.1122e+08,-5.37,-3.74,-0.04,1.91,7.96,15.42,0.05,0.01,3
42601,1.1123e+08,-5.38,-3.72,-0.08,2.01,7.96,15.39,0.05,0.01,3
42646,1.1124e+08,-5.38,-3.77,-0.12,1.97,7.97,15.38,0.05,0.01,3
42690,1.1125e+08,-5.38,-3.71,-0.16,1.94,7.97,15.32,0.05,0.01,3
42737,1.1127e+08,-5.37,-3.72,-0.22,1.97,7.98,15.31,0.06,0.01,3
42776,1.1128e+08,-5.37,-3.7,-0.25,1.89,7.98,15.25,0.06,0.01,3
42818,1.1129e+08,-5.36,-3.65,-0.28,1.86,7.98,15.16,0.06,0.01,3
42862,1.113e+08,-5.35,-3.73,-0.33,1.78,7.99,15.06,0.06,0.01,3
42906,1.1131e+08,-5.32,-3.75,-0.39,1.7,7.99,14.91,0.06,0.01,3
42952,1.1132e+08,-5.29,-3.74,-0.43,1.68,8,14.78,0.06,0.01,3
42997,1.1133e+08,-5.25,-3.83,-0.48,1.66,8,14.63,0.06,0.01,3
43046,1.1134e+08,-5.2,-3.95,-0.52,1.56,8,14.55,0.06,0.01,3
43091,1.1135e+08,-5.14,-3.92,-0.56,1.49,8.01,14.38,0.06,0.01,3
43136,1.1136e+08,-5.09,-3.88,-0.59,1.42,8.01,14.22,0.06,0.01,3
43181,1.1137e+08,-5.04,-3.9,-0.62,1.39,8.01,14.1,0.06,0.01,3
43219,1.1138e+08,-5.02,-3.93,-0.65,1.28,8.02,13.97,0.06,0.01,3
43264,1.114e+08,-4.97,-3.93,-0.69,1.24,8.02,13.82,0.06,0.01,3
43309,1.1141e+08,-4.93,-3.98,-0.73,1.18,8.02,13.73,0.06,0.01,3
43356,1.1142e+08,-4.88,-3.99,-0.77,1.09,8.03,13.59,0.06,0.01,3
43402,1.1143e+08,-4.84,-3.94,-0.81,1.04,8.03,13.44,0.06,0.01,3
43448,1.1144e+08,-4.81,-3.91,-0.85,1.04,8.03,13.31,0.06,0.01,3
43497,1.1145e+08,-4.77,-3.94,-0.89,0.98,8.04,13.23,0.06,0.01,3
43544,1.1146e+08,-4.73,-3.94,-0.95,0.92,8.04,13.05,0.07,0.01,3
43589,1.1148e+08,-4.7,-3.88,-0.99,0.86,8.04,12.92,0.07,0.01,3
43633,1.1149e+08,-4.67,-3.91,-1.02,0.81,8.05,12.77,0.07,0.01,3
43675,1.115e+08,-4.65,-3.83,-1.04,0.81,8.05,12.63,0.07,0.01,3
43720,1.1151e+08,-4.63,-3.72,-1.05,0.82,8.05,12.52,0.07,0.01,3
43766,1.1152e+08,-4.61,-3.72,-1.06,0.76,8.05,12.46,0.07,0.01,3
43811,1.1153e+08,-4.59,-3.67,-1.06,0.72,8.05,12.34,0.07,0.01,3
43855,1.1154e+08,-4.57,-3.55,-1.06,0.75,8.05,12.25,0.07,0.01,3
43904,1.1156e+08,-4.56,-3.53,-1.05,0.73,8.05,12.19,0.07,0.01,3
43949,1.1157e+08,-4.56,-3.5,-1.04,0.66,8.05,12.13,0.07,0.01,3
43995,1.1158e+08,-4.56,-3.46,-1.03,0.7,8.05,12.04,0.07,0.01,3
44039,1.1159e+08,-4.55,-3.4,-1.02,0.76,8.05,11.98,0.07,0.01,3
44080,1.116e+08,-4.54,-3.38,-1.01,0.73,8.05,11.97,0.07,0.01,3
44122,1.1161e+08,-4.53,-3.31,-1,0.73,8.04,11.92,0.07,0.01,3
44167,1.1162e+08,-4.52,-3.31,-0.97,0.79,8.04,11.86,0.07,0.01,3
44211,1.1163e+08,-4.51,-3.28,-0.95,0.82,8.04,11.86,0.07,0.01,3
44256,1.1164e+08,-4.51,-3.29,-0.94,0.8,8.04,11.84,0.07,0.01,3
44303,1.1165e+08,-4.51,-3.26,-0.94,0.85,8.04,11.8,0.07,0.01,3
44349,1.1166e+08,-4.51,-3.24,-0.93,0.93,8.04,11.81,0.09,0,3
44394,1.1167e+08,-4.51,-3.29,-0.93,0.93,8.04,11.82,0.09,0,3
44439,1.1169e+08,-4.52,-3.23,-0.94,1.02,8.04,11.83,0.09,0,3
44483,1.117e+08,-4.54,-3.23,-0.95,1.08,8.04,11.88,0.09,0,3
44525,1.1171e+08,-4.57,-3.24,-0.96,1.06,8.04,11.97,0.09,0,3
44570,1.1172e+08,-4.61,-3.2,-0.97,1.13,8.04,11.99,0.09,0,3
44615,1.1173e+08,-4.67,-3.2,-0.99,1.14,8.04,12.08,0.09,0,3
44660,1.1174e+08,-4.73,-3.28,-1.01,1.09,8.05,12.15,0.09,0,3
44705,1.1175e+08,-4.81,-3.23,-1.03,1.09,8.05,12.19,0.09,0,3
44750,1.1176e+08,-4.89,-3.21,-1.05,1.15,8.05,12.24,0.09,0,3
44798,1.1177e+08,-4.97,-3.26,-1.08,1.12,8.05,12.33,0.09,0.01,3
44842,1.1178e+08,-5.04,-3.32,-1.11,1.03,8.05,12.42,0.09,0.01,3
44887,1.1179e+08,-5.11,-3.31,-1.14,1.03,8.06,12.46,0.09,0.01,3
44934,1.118e+08,-5.18,-3.4,-1.16,1.03,8.06,12.51,0.09,0.01,3
44975,1.1182e+08,-5.22,-3.48,-1.18,1,8.06,12.61,0.09,0.01,3
45019,1.1183e+08,-5.29,-3.51,-1.22,0.96,8.06,12.66,0.09,0.01,3
45063,1.1184e+08,-5.34,-3.6,-1.27,0.96,8.07,12.73,0.09,0.01,3
45110,1.1185e+08,-5.4,-3.8,-1.31,0.87,8.07,12.82,0.09,0.01,3
45152,1.1187e+08,-5.46,-3.87,-1.37,0.83,8.08,12.87,0.11,0.01,3
45201,1.1188e+08,-5.5,-4.01,-1.41,0.75,8.08,12.92,0.11,0.01,3
45246,1.1189e+08,-5.53,-4.09,-1.44,0.67,8.09,12.92,0.11,0.01,3
45291,1.119e+08,-5.56,-4.19,-1.46,0.63,8.09,12.94,0.11,0.01,3
45336,1.1191e+08,-5.58,-4.41,-1.48,0.57,8.09,12.99,0.11,0.01,3
45381,1.1193e+08,-5.59,-4.62,-1.49,0.44,8.09,13.05,0.11,0.01,3
45428,1.1194e+08,-5.6,-4.63,-1.51,0.4,8.09,13.03,0.11,0.01,3
45473,1.1195e+08,-5.61,-4.73,-1.53,0.4,8.09,13.05,0.11,0.01,3
45518,1.1196e+08,-5.63,-4.84,-1.55,0.36,8.1,13.12,0.11,0.01,3
45563,1.1197e+08,-5.64,-4.94,-1.58,0.31,8.1,13.12,0.11,0.01,3
45609,1.1198e+08,-5.65,-4.96,-1.6,0.34,8.1,13.13,0.11,0.01,3
45657,1.1199e+08,-5.66,-5.01,-1.62,0.33,8.1,13.15,0.11,0.01,3
45702,1.12e+08,-5.66,-5.09,-1.64,0.27,8.11,13.18,0.11,0.01,3
45746,1.1201e+08,-5.67,-5.13,-1.65,0.26,8.11,13.2,0.11,0.01,3
45791,1.1202e+08,-5.68,-5.09,-1.67,0.24,8.11,13.18,0.11,0.01,3
45833,1.1203e+08,-5.68,-5.13,-1.68,0.29,8.11,13.22,0.11,0.01,3
45874,1.1204e+08,-5.67,-5.17,-1.69,0.25,8.11,13.23,0.11,0.01,3
45918,1.1206e+08,-5.66,-5.2,-1.7,0.3,8.11,13.26,0.09,0.01,3
45960,1.1207e+08,-5.64,-5.21,-1.72,0.26,8.11,13.26,0.09,0.01,3
46005,1.1208e+08,-5.62,-5.19,-1.73,0.27,8.11,13.22,0.09,0.01,3
46049,1.1209e+08,-5.6,-5.18,-1.72,0.28,8.11,13.23,0.09,0.01,3
46097,1.121e+08,-5.57,-5.19,-1.71,0.28,8.11,13.24,0.09,0.01,3
46141,1.1211e+08,-5.53,-5.23,-1.7,0.24,8.11,13.25,0.09,0.01,3
46186,1.1212e+08,-5.49,-5.21,-1.68,0.26,8.11,13.2,0.09,0.01,3
46230,1.1213e+08,-5.45,-5.13,-1.66,0.28,8.11,13.19,0.09,0.01,3
46268,1.1214e+08,-5.42,-5.2,-1.64,0.21,8.11,13.23,0.09,0.01,3
46314,1.1215e+08,-5.37,-5.18,-1.62,0.22,8.1,13.2,0.09,0.01,3
46359,1.1216e+08,-5.32,-5.12,-1.59,0.29,8.1,13.21,0.09,0.01,3
46404,1.1217e+08,-5.27,-5.21,-1.57,0.28,8.1,13.24,0.09,0.01,3
46449,1.1218e+08,-5.22,-5.17,-1.55,0.21,8.1,13.24,0.09,0.01,3
46494,1.1219e+08,-5.17,-5.05,-1.53,0.29,8.1,13.24,0.09,0.01,3
46543,1.1221e+08,-5.12,-5.06,-1.52,0.3,8.09,13.28,0.09,0.01,3
46588,1.1222e+08,-5.08,-5.08,-1.51,0.24,8.09,13.33,0.09,0.01,3
46632,1.1223e+08,-5.04,-5.01,-1.5,0.25,8.09,13.32,0.09,0.01,3
46677,1.1224e+08,-5,-4.97,-1.49,0.26,8.09,13.39,0.09,0.01,3
46720,1.1225e+08,-4.97,-4.94,-1.48,0.17,8.09,13.43,0.09,0.01,3
46758,1.1226e+08,-4.94,-4.85,-1.46,0.2,8.09,13.48,0.09,0.01,3
46799,1.1227e+08,-4.91,-4.9,-1.45,0.15,8.09,13.58,0.09,0.01,3
46844,1.1228e+08,-4.87,-4.82,-1.43,0.1,8.09,13.6,0.09,0.01,3
46890,1.1229e+08,-4.84,-4.72,-1.41,0.11,8.08,13.65,0.09,0.01,3
46936,1.123e+08,-4.82,-4.8,-1.38,0.11,8.08,13.75,0.09,0.01,3
46984,1.1231e+08,-4.79,-4.82,-1.35,0.02,8.08,13.8,0.09,0.01,3
47029,1.1232e+08,-4.77,-4.7,-1.33,-0.03,8.08,13.86,0.09,0.01,3
47074,1.1233e+08,-4.75,-4.64,-1.31,-0.03,8.08,13.95,0.09,0.01,3
47118,1.1234e+08,-4.74,-4.66,-1.31,-0.07,8.08,14.02,0.09,0.01,3
47160,1.1236e+08,-4.72,-4.52,-1.3,-0.08,8.08,14.06,0.09,0.01,3
47204,1.1237e+08,-4.7,-4.53,-1.29,-0.07,8.08,14.18,0.09,0.01,3
47249,1.1238e+08,-4.69,-4.38,-1.29,-0.04,8.07,14.21,0.09,0.01,3
47295,1.1239e+08,-4.69,-4.42,-1.28,-0.05,8.07,14.31,0.09,0.01,3
47339,1.124e+08,-4.69,-4.39,-1.29,-0.12,8.07,14.38,0.09,0.01,3
47385,1.1241e+08,-4.7,-4.3,-1.29,-0.12,8.07,14.4,0.09,0.01,3
47435,1.1242e+08,-4.7,-4.18,-1.29,-0.12,8.07,14.46,0.09,0.01,3
47481,1.1243e+08,-4.71,-4.18,-1.29,-0.19,8.07,14.55,0.09,0.01,3
47528,1.1245e+08,-4.71,-4.14,-1.28,-0.15,8.07,14.58,0.07,0.01,3
47566,1.1246e+08,-4.71,-4.2,-1.28,-0.25,8.07,14.68,0.07,0.01,3
47609,1.1247e+08,-4.71,-4.16,-1.26,-0.28,8.07,14.69,0.07,0.01,3
47648,1.1248e+08,-4.71,-4.17,-1.25,-0.38,8.07,14.79,0.07,0.01,3
47692,1.1249e+08,-4.7,-4.19,-1.23,-0.49,8.07,14.81,0.07,0.01,3
47737,1.1251e+08,-4.68,-4.24,-1.2,-0.42,8.07,14.86,0.07,0.01,3
47781,1.1252e+08,-4.66,-4.31,-1.19,-0.52,8.07,14.9,0.07,0.01,3
47828,1.1253e+08,-4.65,-4.25,-1.18,-0.55,8.07,14.91,0.07,0.01,3
47871,1.1254e+08,-4.64,-4.23,-1.16,-0.58,8.06,14.94,0.07,0.01,3
47913,1.1255e+08,-4.63,-4.33,-1.14,-0.62,8.06,15,0.07,0.01,3
47956,1.1256e+08,-4.62,-4.39,-1.12,-0.64,8.06,15,0.07,0.01,3
47995,1.1257e+08,-4.61,-4.37,-1.11,-0.59,8.06,15.03,0.07,0.01,3
48038,1.1258e+08,-4.59,-4.42,-1.11,-0.67,8.06,15.04,0.07,0.01,3
48081,1.126e+08,-4.58,-4.45,-1.09,-0.67,8.06,15.05,0.07,0.01,3
48123,1.1261e+08,-4.57,-4.6,-1.08,-0.72,8.06,15.09,0.07,0.01,3
48166,1.1262e+08,-4.55,-4.67,-1.06,-0.75,8.06,15.08,0.07,0.01,3
48209,1.1263e+08,-4.53,-4.67,-1.04,-0.69,8.05,15.05,0.07,0.01,3
48257,1.1264e+08,-4.52,-4.67,-1.02,-0.7,8.05,15.07,0.07,0.01,3
48300,1.1265e+08,-4.5,-4.78,-1,-0.72,8.05,15.06,0.07,0.01,3
48344,1.1266e+08,-4.49,-4.82,-0.98,-0.76,8.05,15.06,0.07,0.01,3
48383,1.1267e+08,-4.47,-4.8,-0.96,-0.79,8.05,15.04,0.07,0.01,3
48422,1.1268e+08,-4.46,-4.75,-0.95,-0.86,8.05,15,0.07,0.01,3
