LineNo,TimeUS,ThI,ABst,ThO,ThH,DAlt,Alt,BAlt,DSAlt,SAlt,TAlt,DCRt,CRt
1877,101495453,0,0,0,0.2585996,-1.325567,-1.325567,-1.36,NaN,0,0.1243035,49,49
2310,101596535,0,0,0,0.2585996,-1.293572,-1.293572,-1.14,NaN,0,0.1562978,48,48
2747,101701637,0,0,0,0.2585996,-1.270004,-1.270004,-1.07,NaN,0,0.1798661,47,47
3202,101804679,0,0,0,0.2585996,-1.242592,-1.242592,-1.08,NaN,0,0.2072785,46,46
3653,101908623,0,0,0,0.2585996,-1.221993,-1.221993,-1.19,NaN,0,0.2276479,45,45
4112,102012661,0,0,0,0.2585996,-1.203587,-1.203587,-1.06,NaN,0,0.2460545,44,44
4559,102115849,0,0,0,0.2585996,-1.185374,-1.185374,-1.19,NaN,0,0.2642671,42,42
5012,102220167,0,0,0,0.2585996,-1.171399,-1.171399,-1.26,NaN,0,0.2779751,41,41
5429,102322882,0,0,0,0.2585996,-1.164394,-1.164394,-1.59,NaN,0,0.2849037,40,40
5880,102425629,0,0,0,0.2585996,-1.150879,-1.150879,-1.39,NaN,0,0.298419,39,39
6315,102529670,0,0,0,0.2585996,-1.150134,-1.150134,-1.14,NaN,0,0.2991638,37,37
6747,102630527,0,0,0,0.2585996,-1.137282,-1.137282,-1.19,NaN,0,0.3120159,36,36
7184,102733219,0,0,0,0.2585996,-1.138306,-1.138306,-1.35,NaN,0,0.3109914,35,35
7634,102835983,0,0,0,0.2585996,-1.129336,-1.129336,-1.47,NaN,0,0.3199622,34,34
8052,102940275,0,0,0,0.2585996,-1.132694,-1.132694,-1.44,NaN,0,0.3164664,32,32
8510,103044850,0,0,0,0.2585996,-1.122777,-1.122777,-1.44,NaN,0,0.3263837,32,32
8959,103147241,0,0,0,0.2585996,-1.126974,-1.126974,-1.57,NaN,0,0.3221867,30,30
9411,103250657,0,0,0,0.2585996,-1.121148,-1.121148,-1.53,NaN,0,0.3280126,29,29
9858,103353318,0,0,0,0.2585996,-1.12633,-1.12633,-1.11,NaN,0,0.3228312,28,28
10271,103455941,0,0,0,0.2585996,-1.12606,-1.12606,-1.44,NaN,0,0.3228333,27,27
10723,103559007,0,0,0,0.2585996,-1.127381,-1.127381,-1.52,NaN,0,0.3215131,26,26
11138,103661070,0,0,0,0.2585996,-1.127919,-1.127919,-1.19,NaN,0,0.3210583,24,24
11570,103763477,0,0,0,0.2585996,-1.129573,-1.129573,-1.47,NaN,0,0.3194043,24,24
12001,103866481,0,0,0,0.2585996,-1.126217,-1.126217,-1.55,NaN,0,0.3226233,22,22
12454,103969621,0,0,0,0.2585996,-1.132819,-1.132819,-1.4,NaN,0,0.3160217,21,21
12906,104073014,0,0,0,0.2585996,-1.133747,-1.133747,-1.61,NaN,0,0.3150938,20,20
13357,104175519,0,0,0,0.2585996,-1.136416,-1.136416,-1.55,NaN,0,0.3124247,19,19
13643,104278861,0,0,0,0.2585996,-1.140747,-1.140747,-1.54,NaN,0,0.3079555,19,19
14095,104383217,0,0,0,0.2585996,-1.142199,-1.142199,-1.67,NaN,0,0.306504,17,17
14513,104485720,0,0,0,0.2585996,-1.147893,-1.147893,-1.92,NaN,0,0.3008101,17,17
14964,104589002,0,0,0,0.2585996,-1.153159,-1.153159,-1.58,NaN,0,0.2955437,15,15
15412,104693086,0,0,0,0.2585996,-1.15903,-1.15903,-1.38,NaN,0,0.2894057,15,15
15864,104795035,0,0,0,0.2585996,-1.163558,-1.163558,-1.35,NaN,0,0.2848783,14,14
16301,104898638,0,0,0,0.2585996,-1.170728,-1.170728,-1.45,NaN,0,0.277708,13,13
16735,105002425,0,0,0,0.2585996,-1.174734,-1.174734,-1.35,NaN,0,0.2737017,12,12
17177,105105450,0,0,0,0.2585996,-1.179461,-1.179461,-1.76,NaN,0,0.2689747,11,11
17627,105208027,0,0,0,0.2585996,-1.18324,-1.18324,-1.35,NaN,0,0.2651956,11,11
18074,105311635,0,0,0,0.2585996,-1.188687,-1.188687,-1.44,NaN,0,0.2596113,9,9
18528,105414670,0,0,0,0.2585996,-1.189696,-1.189696,-1.31,NaN,0,0.2586024,9,9
18946,105519161,0,0,0,0.2585996,-1.193306,-1.193306,-1.31,NaN,0,0.2549923,8,8
19399,105621276,0,0,0,0.2585996,-1.195076,-1.195076,-1.52,NaN,0,0.2532227,8,8
19816,105725402,0,0,0,0.2585996,-1.198711,-1.198711,-1.39,NaN,0,0.249244,7,7
20269,105829712,0,0,0,0.2585996,-1.199789,-1.199789,-1.58,NaN,0,0.248166,7,7
20717,105933105,0,0,0,0.2585996,-1.20265,-1.20265,-1.22,NaN,0,0.2453057,6,6
21141,106034861,0,0,0,0.2585996,-1.204741,-1.204741,-1.67,NaN,0,0.2432142,6,6
21573,106136838,0,0,0,0.2585996,-1.210181,-1.210181,-1.62,NaN,0,0.2377741,5,5
22006,106239223,0,0,0,0.2585996,-1.214139,-1.214139,-1.87,NaN,0,0.2338167,5,5
22421,106341271,0,0,0,0.2585996,-1.221208,-1.221208,-1.52,NaN,0,0.2267468,5,5
22832,106444454,0.01749986,6.072223e-07,0.003866363,0.2585996,-1.227193,-1.227193,-1.45,NaN,0,0.2207622,4,4
23252,106547655,0.06749937,2.630055e-06,0.03441426,0.2585996,-1.234228,-1.234228,-1.16,NaN,0,0.2137273,3,3
23702,106654115,0.116249,4.172325e-06,0.0797339,0.2585996,-1.238627,-1.238627,-1.27,NaN,0,0.209199,1,1
24154,106758003,0.1662488,4.798174e-06,0.126527,0.2585996,-1.243019,-1.243019,-1.62,NaN,0,0.2046463,0,0
24603,106862977,0.2137488,4.634261e-06,0.1754111,0.2585996,-1.246032,-1.246032,-1.45,NaN,0,0.2016331,0,0
25025,106968449,0.2637487,3.069639e-06,0.2234985,0.2585996,-1.247809,-1.247809,-1.84,NaN,0,0.199856,2,2
25441,107073335,0.3112487,2.145767e-06,0.2723061,0.2585996,-1.248589,-1.248589,-1.91,NaN,0,0.1990765,6,6
25896,107177654,0.3018155,4.857779e-06,0.3035576,0.2585996,-1.237788,-1.23922,-1.59,NaN,0,0.2084449,18,21
26305,107283082,0.2788082,2.282858e-05,0.293029,0.2585996,-1.212106,-1.210631,-1.46,NaN,0,0.2370346,35,46
26735,107387800,0.2553644,3.316998e-05,0.2712185,0.2585996,-1.16853,-1.160923,-1.5,NaN,0,0.286742,50,67
27169,107493693,0.2494453,3.685057e-05,0.2544909,0.2585996,-1.112535,-1.09001,-1.1,NaN,0,0.3576553,61,82
27590,107596984,0.2717454,8.198619e-05,0.2617811,0.2585996,-1.04374,-1.007531,-1.5,NaN,0,0.4402944,70,88
28037,107702486,0.2520231,6.115437e-05,0.2587233,0.2585996,-0.9696529,-0.9168172,-1.34,NaN,0,0.5313059,76,95
28489,107807180,0.259953,1.072884e-06,0.2556029,0.2585996,-0.8843579,-0.821331,-0.76,NaN,0,0.6273872,82,97
28937,107914855,0.2578272,7.429719e-05,0.2581928,0.2585996,-0.7975549,-0.7142467,-1.01,NaN,0,0.7351963,85,98
29358,108019481,0.2637016,0.0003046095,0.2600459,0.2585996,-0.7012504000000001,-0.6099654,-0.5,NaN,0,0.8403016,89,101
29806,108125639,0.2602676,0.0005575716,0.2617718,0.2585996,-0.6058633,-0.4956089,-0.78,NaN,0,0.9555355,91,102
30260,108230824,0.2594318,0.0006938577,0.2590429,0.2585996,-0.502093,-0.3832873,-0.61,NaN,0,1.068452,93,102
30710,108339645,0.2569025,0.0006393194,0.2570107,0.2585996,-0.3981572,-0.2714676,-0.58,NaN,0,1.180577,95,103
31160,108444500,0.2508892,0.0004826784,0.2534339,0.2585996,-0.2890837,-0.1677907,-0.36,NaN,0,1.284544,97,105
31607,108551070,0.2642372,0.0004941821000000001,0.2567202,0.2585996,-0.180885,-0.05828089,-0.25,NaN,0,1.394473,99,102
32026,108658185,0.2626263,0.0005307794,0.2618119,0.2585996,-0.07119559,0.04900385,-0.25,NaN,0,1.502048,101,102
32457,108763094,0.2501493,0.0004814565,0.255381,0.2585996,0.04251331,0.1632313,-0.25,NaN,0,1.616504,102,105
32883,108868645,0.2540914,0.0005286634,0.252693,0.2585996,0.154321,0.274646,-0.03,NaN,0,1.728072,103,108
33338,108972994,0.2437372,0.0005112588,0.250631,0.2585996,0.2697948,0.3873369,0.28,NaN,0,1.841174,104,106
33784,109081433,0.2484121,0.000542894,0.2480755,0.2585996,0.3859266,0.5044727,-0.11,NaN,0,1.95831,104,108
34234,109185479,0.2529311,0.0006290078,0.2518255,0.2585996,0.5027919,0.6127626,0.72,NaN,0,2.0666,106,106
34654,109292542,0.2621539,0.0007291734,0.2558819,0.2585996,0.617179,0.7286611,0.38,NaN,0,2.182636,106,107
35106,109400224,0.2590115,0.0008776188,0.2587787,0.2585996,0.7349167,0.8468082,0.85,NaN,0,2.300859,106,107
35559,109508834,0.2500247,0.0008207262,0.256429,0.2585996,0.8499492,0.9744079,0.76,NaN,0,2.428558,105,106
36010,109615408,0.2408647,0.0006677806,0.2491323,0.2585996,0.9681196,1.099375,0.7,NaN,0,2.55303,105,108
36458,109723659,0.2427105,0.0005190074,0.2471989,0.2585996,1.083605,1.226848,0.75,NaN,0,2.680098,104,108
36909,109828630,0.2367898,0.0003679246,0.2396521,0.2585996,1.199244,1.345906,1.12,NaN,0,2.798805,104,110
37356,109937795,0.2479379,0.0003619194,0.2426441,0.2585996,1.312063,1.464097,1.24,NaN,0,2.916447,103,107
37801,110044734,0.2550694,0.0005002022,0.2543197,0.2585996,1.425022,1.574198,1.58,NaN,0,3.026143,104,104
38210,110152890,0.2463227,0.0004935563,0.2507342,0.2585996,1.53807,1.693091,2.09,NaN,0,3.144258,103,104
38659,110264532,0.2453412,0.0004180521,0.2442137,0.2585996,1.657164,1.821356,1.82,NaN,0,3.271837,102,104
39111,110370698,0.2437841,0.0003798008,0.2426065,0.2585996,1.770332,1.95042,1.86,NaN,0,3.400557,101,104
39522,110478842,0.2471961,0.0005200803,0.2461197,0.2585996,1.880597,2.075539,1.85,NaN,0,3.525135,99,104
39968,110586693,0.2535444,0.0007803142,0.2477101,0.2585996,1.99388,2.196059,2.04,NaN,0,3.645098,99,102
40404,110693650,0.2515867,0.0009671748,0.2548846,0.2585996,2.107195,2.308278,2.63,NaN,0,3.756767,99,98
40830,110799685,0.2444626,0.0008570105,0.2497447,0.2585996,2.220578,2.418798,2.01,NaN,0,3.866997,99,99
41260,110907263,0.2670391,0.0008742809,0.2515831,0.2585996,2.330971,2.533734,2.29,NaN,0,3.981933,99,99
41708,111013985,0.2564988,0.0008201003,0.2607484,0.2585996,2.444363,2.642978,2.58,NaN,0,4.091155,99,96
42148,111122661,0.2504778,0.0007042587000000001,0.257073,0.2585996,2.557751,2.753666,2.16,NaN,0,4.202117,99,99
42594,111228787,0.2451546,0.0006581694,0.249203,0.2585996,2.671129,2.8611,2.53,NaN,0,4.309528,100,101
43035,111335720,0.2469627,0.0006434172,0.2482078,0.2585996,2.781519,2.965793,2.74,NaN,0,4.413992,100,102
43487,111441671,0.2624269,0.0006632507,0.2510845,0.2585996,2.894875,3.0686,2.89,NaN,0,4.516418,101,101
43897,111552502,0.2589673,0.0005135536,0.2603884,0.2585996,3.008282,3.178166,3.09,NaN,0,4.626007,102,100
44342,111660812,0.2539394,0.0004341304,0.2595792,0.2585996,3.121692,3.284919,3.08,NaN,0,4.732737,103,101
44788,111768971,0.2554258,0.0004550219,0.2574377,0.2585996,3.235093,3.397109,3.39,NaN,0,4.845201,103,101
45197,111877559,0.2677161,0.0006828904,0.2599201,0.2585996,3.348474,3.509425,3.09,NaN,0,4.95767,103,100
45647,111985775,0.2622974,0.001012981,0.2615223,0.2585996,3.461837,3.616795,3.06,NaN,0,5.06504,103,101
46087,112092927,0.2582365,0.001095861,0.2577252,0.2585996,3.575224,3.718868,3.7,NaN,0,5.167243,104,101
46532,112200192,0.2727718,0.001096576,0.263293,0.2585996,3.688494,3.823547,4.03,NaN,0,5.27196,105,102
46974,112307215,0.2379196,0.0007980317,0.2577681,0.2585996,3.79822,3.932988,3.85,NaN,0,5.381385,103,103
47420,112415244,0.2424031,0.0006673932,0.2481365,0.2585996,3.908004,4.043788,3.97,NaN,0,5.492453,100,101
47821,112524973,0.2262735,0.0006413013,0.2350688,0.2585996,4.013237,4.157549,4.07,NaN,0,5.606061,93,97
48246,112631764,0.2299585,0.0008003563,0.2297707,0.2585996,4.11203,4.261759,4.3,NaN,0,5.710119,85,90
48682,112738278,0.2277997,0.0008720011,0.2248621,0.2585996,4.200176,4.358629,4.73,NaN,0,5.806676,74,80
49095,112845173,0.2347112,0.0007766336,0.2294921,0.2585996,4.282447,4.447304,4.47,NaN,0,5.895045,66,70
49539,112952691,0.2216792,0.0006160736,0.2317125,0.2585996,4.355837,4.529047,4.94,NaN,0,5.976468,58,63
49980,113061684,0.2015722,0.0003860742,0.2142776,0.2585996,4.422998,4.604803,4.8,NaN,0,6.051919,46,54
50394,113166501,0.2150247,0.0002863407,0.2122289,0.2585996,4.479169,4.667336,4.56,NaN,0,6.114063,34,41
50837,113275441,0.2283256,0.0002989471,0.2220819,0.2585996,4.525607,4.715106,5.33,NaN,0,6.161933,25,29
51283,113381088,0.2305809,0.0002903789,0.2279684,0.2585996,4.564002,4.753786,5.13,NaN,0,6.200307,17,20
51695,113489053,0.2283933,0.0002552271,0.2287061,0.2585996,4.594997,4.78413,5.3,NaN,0,6.230636,11,11
52144,113596610,0.2475879,0.0006159991,0.2340712,0.2585996,4.621381,4.810577,5.31,NaN,0,6.257197,6,5
52553,113704747,0.2527514,0.002356529,0.2454192,0.2585996,4.642161,4.829883,4.91,NaN,0,6.276122,2,-2
52967,113812020,0.2498112,0.005433321,0.2551284,0.2585996,4.660419,4.837442,5.3,NaN,0,6.283452,0,-7
53413,113921674,0.2424489,0.006863341,0.2516144,0.2585996,4.675565,4.842853,5.59,NaN,0,6.287748,-2,-7
53859,114029473,0.2532739,0.007004976,0.2524516,0.2585996,4.6881,4.851462,5.15,NaN,0,6.295229,-4,-9
54302,114139105,0.2422861,0.005507946,0.2513637,0.2585996,4.698468,4.853608,5.05,NaN,0,6.295467,-5,-9
54713,114245019,0.240928,0.004609302,0.2486505,0.2585996,4.707058,4.853132,5.03,NaN,0,6.292787,-6,-11
55157,114352014,0.2525871,0.004700989,0.2526295,0.2585996,4.714194,4.847124,5.11,NaN,0,6.284345,-6,-9
55573,114460169,0.2548424,0.004817069,0.2528126,0.2585996,4.720279,4.841783,4.8,NaN,0,6.275936,-6,-11
56019,114568524,0.2572043,0.005278617,0.2605612,0.2585996,4.725284,4.833151,5.02,NaN,0,6.263902,-6,-14
56458,114676679,0.2601194,0.005705029,0.2654426,0.2585996,4.729311,4.822959,4.87,NaN,0,6.249987,-5,-13
56882,114781085,0.2578884,0.005562186,0.2623338,0.2585996,4.732695,4.814395,4.83,NaN,0,6.237379,-4,-9
57314,114887284,0.2525331,0.005271018,0.2617595,0.2585996,4.735492,4.803992,5.47,NaN,0,6.222628,-4,-8
57763,114994047,0.2472239,0.004724577,0.2584961,0.2585996,4.737865,4.798409,5.23,NaN,0,6.212337,-3,-6
58173,115101674,0.2485121,0.004427001,0.2516503,0.2585996,4.739866,4.797627,5.67,NaN,0,6.206459,-3,-5
58619,115208835,0.2453517,0.003937915,0.252221,0.2585996,4.74153,4.800692,5.24,NaN,0,6.204206,-4,-2
59062,115317063,0.2343819,0.002763852,0.2395912,0.2585996,4.742934,4.806366,5.86,NaN,0,6.204349,-4,-1
59512,115424498,0.2553258,0.002073467,0.2491829,0.2585996,4.745311,4.819129,6.19,NaN,0,6.211336,-3,-1
59922,115532263,0.2642227,0.001743972,0.2563429,0.2585996,4.752272,4.840761,6.58,NaN,0,6.227262,2,6
60368,115639417,0.2863054,0.001334041,0.2694986,0.2585996,4.768389,4.876612,5.98,NaN,0,6.257253,12,11
60811,115747780,0.2541735,0.0006365478,0.2690036,0.2585996,4.796859,4.924526,6.12,NaN,0,6.29972,23,25
61251,115856710,0.2621584,0.0004068911,0.2618672,0.2585996,4.837165,4.990527,5.26,NaN,0,6.359769,33,38
61701,115962539,0.2688062,0.0003409386,0.2668152,0.2585996,4.889983,5.059993,5.88,NaN,0,6.424376,44,47
62143,116072620,0.2572916,0.000400722,0.268228,0.2585996,4.954098,5.145781,5.32,NaN,0,6.505068,53,55
62557,116177104,0.2676395,0.0006008744,0.2634122,0.2585996,5.027247,5.230619,6.46,NaN,0,6.585045,60,64
63003,116287201,0.2505894,0.000845015,0.2582646,0.2585996,5.106305,5.329897,5.91,NaN,0,6.679372,62,69
63453,116393740,0.2442046,0.0009702891,0.2540961,0.2585996,5.187202,5.426949,4.66,NaN,0,6.771762,61,65
63895,116502610,0.2485882,0.0009529144,0.2505016,0.2585996,5.268255,5.510837,5.02,NaN,0,6.851057,61,67
64340,116609031,0.2589264,0.001062512,0.2526175,0.2585996,5.349492,5.582435,5.15,NaN,0,6.918108,62,62
64750,116717214,0.2645441,0.001055837,0.2607659,0.2585996,5.428659,5.646889,4.74,NaN,0,6.97797,63,64
65200,116824500,0.2623157,0.001125872,0.2675599,0.2585996,5.510003,5.702734,5.03,NaN,0,7.028969,66,60
65645,116935024,0.2682105,0.001258463,0.2681648,0.2585996,5.588991,5.752963,4.89,NaN,0,7.069785,68,63
66060,117041654,0.2657649,0.001544714,0.2637281,0.2585996,5.669188,5.799433,5,NaN,0,7.104451,70,62
66500,117150675,0.263343,0.001639664,0.2635307,0.2585996,5.747843,5.841477,5.24,NaN,0,7.132847,72,65
66941,117258087,0.2651334,0.001465946,0.2670681,0.2585996,5.822535,5.885817,5.39,NaN,0,7.164285,73,64
67356,117364258,0.249996,0.0009900480999999999,0.2611131,0.2585996,5.89691,5.932045,5.4,NaN,0,7.197695,73,67
67796,117472201,0.2408805,0.0005659759,0.2517579,0.2585996,5.966698,5.984212,6.06,NaN,0,7.233719,72,68
68241,117579509,0.2386358,0.000149101,0.2430496,0.2585996,6.035277,6.043847,5.48,NaN,0,7.278057,69,69
68650,117687640,0.2355082,8.9854e-06,0.2376877,0.2585996,6.100298,6.102729,5.71,NaN,0,7.322032,66,67
69095,117794720,0.2471425,0.0001406223,0.2417077,0.2585996,6.161398,6.158878,5.92,NaN,0,7.361732,62,62
69543,117904615,0.246549,0.0004339516,0.2455837,0.2585996,6.218348,6.21147,5.41,NaN,0,7.399714,58,56
69956,118010840,0.2532757,0.0005377829,0.2519384,0.2585996,6.271002,6.255723,6.01,NaN,0,7.430042,54,50
70398,118119413,0.2600434,0.0003712177,0.2562796,0.2585996,6.318162,6.293253,5.79,NaN,0,7.452878,51,46
70844,118227203,0.2544193,0.0002126098,0.2568125,0.2585996,6.362488,6.324403,5.81,NaN,0,7.469632,48,43
71285,118335968,0.2685737,0.0002056062,0.2615549,0.2585996,6.401819,6.353134,5.97,NaN,0,7.482959,45,38
71704,118442225,0.2644198,0.0002852976,0.2672879,0.2585996,6.438487,6.378831,5.79,NaN,0,7.49442,42,36
72144,118549999,0.2576999,0.0004979074,0.2637744,0.2585996,6.471621,6.400661,6.06,NaN,0,7.502769,40,33
72586,118659820,0.2573912,0.0006160736,0.2592228,0.2585996,6.501467,6.42057,6.6,NaN,0,7.508502,37,34
73032,118767218,0.2605461,0.0007097721,0.2614529,0.2585996,6.52826,6.442833,6.34,NaN,0,7.517284,35,30
73444,118874565,0.2572083,0.0008339584,0.2574566,0.2585996,6.552177,6.465719,6.55,NaN,0,7.526993,32,28
73894,118981677,0.2529408,0.001187623,0.256402,0.2585996,6.573333,6.489477,6.64,NaN,0,7.539513,29,27
74333,119089816,0.2468982,0.002342835,0.2530917,0.2585996,6.591354,6.514436,6.5,NaN,0,7.554234,25,27
74779,119198002,0.2419585,0.003528044,0.2475712,0.2585996,6.607275,6.535537,6.47,NaN,0,7.565173,22,26
75189,119306033,0.2384803,0.003390193,0.2451513,0.2585996,6.620347,6.556133,6.64,NaN,0,7.578712,19,21
75638,119413657,0.2444261,0.002437651,0.2452758,0.2585996,6.631376,6.573912,6.7,NaN,0,7.590432,16,19
76082,119524191,0.2596866,0.001758277,0.2528538,0.2585996,6.640102,6.586122,6.79,NaN,0,7.596677,13,15
76495,119629860,0.266423,0.001296163,0.2633383,0.2585996,6.64672,6.593188,6.71,NaN,0,7.601401,11,7
76941,119738810,0.2717291,0.001097411,0.2672112,0.2585996,6.651483,6.598372,6.9,NaN,0,7.601785,9,6
77386,119844686,0.2684464,0.001044959,0.2685955,0.2585996,6.654623,6.60425,6.86,NaN,0,7.606488,7,3
77830,119954662,0.2638948,0.0009224117,0.2654761,0.2585996,6.656322,6.61179,6.92,NaN,0,7.612869,5,4
78244,120061432,0.2535472,0.0006498694,0.259329,0.2585996,6.656712,6.621447,7.34,NaN,0,7.620503,3,1
78686,120169793,0.2529558,0.0005640686,0.254518,0.2585996,6.655882,6.633288,6.92,NaN,0,7.631263,0,4
79128,120278604,0.2538455,0.0005792677,0.2529273,0.2585996,6.653901,6.64289,6.97,NaN,0,7.639079,-1,1
79579,120386258,0.2543271,0.0005922318,0.2533982,0.2585996,6.650707,6.64855,6.91,NaN,0,7.644579,-3,-2
80021,120494956,0.2452528,0.0006932765,0.2500574,0.2585996,6.646575,6.651639,6.88,NaN,0,7.64682,-5,0
80467,120600611,0.2523904,0.001302242,0.2519158,0.2585996,6.641416,6.652425,6.94,NaN,0,7.648614,-6,-6
80910,120708669,0.2398052,0.002083018,0.2504818,0.2585996,6.63563,6.650461,7.07,NaN,0,7.64665,-8,-5
81354,120815765,0.2545608,0.002956271,0.2489854,0.2585996,6.629072,6.647839,7.28,NaN,0,7.644027,-9,-4
81767,120924515,0.2642933,0.003553987,0.2600203,0.2585996,6.622424,6.642713,7.15,NaN,0,7.643151,-9,-8
82216,121031514,0.2388317,0.002912924,0.2515596,0.2585996,6.615104,6.637402,7.54,NaN,0,7.641228,-10,-9
82658,121140485,0.2531496,0.0028328,0.2498367,0.2585996,6.60762,6.632288,7.8,NaN,0,7.640364,-10,-7
83105,121252737,0.268205,0.003106177,0.2583204,0.2585996,6.599884,6.627743,6.87,NaN,0,7.642608,-10,-10
83553,121360423,0.2630193,0.002981246,0.2637632,0.2585996,6.592368,6.622702,7.33,NaN,0,7.643511,-10,-13
83994,121469672,0.2524404,0.002845407,0.2609912,0.2585996,6.584964,6.617406,7.17,NaN,0,7.645004,-10,-11
84440,121576717,0.2531249,0.002794892,0.256819,0.2585996,6.577739,6.612902,7.16,NaN,0,7.648993,-11,-9
84882,121684958,0.2583399,0.002941191,0.2596145,0.2585996,6.570918,6.607399,6.99,NaN,0,7.651989,-10,-12
85329,121793439,0.2617134,0.002892107,0.2633905,0.2585996,6.564183,6.600043,6.78,NaN,0,7.655664,-10,-11
85774,121903136,0.2613228,0.002599418,0.2665813,0.2585996,6.557794,6.592353,6.98,NaN,0,7.658847,-9,-12
86220,122009090,0.2721129,0.002303272,0.2690713,0.2585996,6.551815,6.584208,7.02,NaN,0,7.661741,-9,-12
86632,122117500,0.2624146,0.001849025,0.2670548,0.2585996,6.546442,6.579294,6.78,NaN,0,7.668562,-8,-9
87081,122224485,0.2637214,0.001769423,0.2648245,0.2585996,6.541398,6.57507,6.88,NaN,0,7.675987,-8,-10
87524,122334493,0.2646432,0.001813173,0.267177,0.2585996,6.53682,6.570818,6.95,NaN,0,7.685071,-7,-8
87973,122442171,0.2529751,0.00173527,0.2614737,0.2585996,6.532691,6.56758,6.84,NaN,0,7.693568,-7,-6
88413,122551300,0.2637129,0.00185132,0.2614634,0.2585996,6.528988,6.566655,7.01,NaN,0,7.705994,-7,-8
88859,122658259,0.2589932,0.002021402,0.2633265,0.2585996,6.525659,6.565402,6.66,NaN,0,7.718779,-7,-5
89305,122764699,0.2589061,0.002113819,0.2647687,0.2585996,6.522647,6.564792,6.34,NaN,0,7.732444,-7,-7
89718,122872543,0.2539976,0.002052397,0.2586733,0.2585996,6.519924,6.559331,6.34,NaN,0,7.741188,-6,-5
90164,122981483,0.2563344,0.001932591,0.2583423,0.2585996,6.51752,6.550833,6.88,NaN,0,7.749514,-5,-5
90610,123091726,0.2488966,0.001532152,0.2561539,0.2585996,6.515516,6.545409,6.7,NaN,0,7.761072,-4,-5
91056,123198086,0.2490114,0.00130026,0.2528064,0.2585996,6.513931,6.544641,6.82,NaN,0,7.778142,-4,-1
91502,123307471,0.2436839,0.001106873,0.250108,0.2585996,6.512704,6.548901,6.79,NaN,0,7.799697,-4,-2
91951,123414204,0.2546527,0.001371473,0.2518096,0.2585996,6.511703,6.556128,6.76,NaN,0,7.816385,-5,-2
92360,123522520,0.2427109,0.001523808,0.2489071,0.2585996,6.510781,6.563669,6.7,NaN,0,7.827229,-6,-3
92807,123630729,0.2502409,0.00180766,0.250098,0.2585996,6.509801,6.569467,6.96,NaN,0,7.836247,-7,-4
93247,123739392,0.2502988,0.001363099,0.252781,0.2585996,6.508678,6.573326,6.49,NaN,0,7.8437,-7,-5
93662,123846511,0.2563869,0.0004862249,0.255514,0.2585996,6.507368,6.574062,6.62,NaN,0,7.848182,-8,-6
94106,123955376,0.2439245,7.934867999999999e-05,0.2511206,0.2585996,6.505888,6.571595,6.84,NaN,0,7.849239,-8,-6
94551,124065829,0.2461646,1.92523e-05,0.2453132,0.2585996,6.504262,6.570523,6.5,NaN,0,7.852432,-8,-5
94997,124171871,0.2519196,4.526973e-05,0.2489464,0.2585996,6.502621,6.566053,6.84,NaN,0,7.851579,-8,-8
95437,124278652,0.253411,0.0001123846,0.2521158,0.2585996,6.500999,6.561716,6.68,NaN,0,7.850995,-7,-7
95856,124385843,0.2407413,0.0001821518,0.2502155,0.2585996,6.499466,6.558791,6.58,NaN,0,7.851534,-7,-5
96299,124493842,0.253061,0.0003450811,0.2479743,0.2585996,6.498087,6.556345,6.23,NaN,0,7.852774,-7,-5
96713,124598697,0.2464292,0.0005956739,0.2510875,0.2585996,6.496814,6.552201,6.09,NaN,0,7.852459,-6,-7
97154,124707764,0.2449575,0.0007916093,0.2483599,0.2585996,6.495753,6.546638,6.23,NaN,0,7.850513,-6,-4
97598,124814758,0.2434058,0.001035616,0.2454094,0.2585996,6.494903,6.541522,5.82,NaN,0,7.849218,-5,-3
98047,124924657,0.2476394,0.001349345,0.2457538,0.2585996,6.494338,6.537481,5.73,NaN,0,7.848557,-4,-3
98491,125032015,0.241993,0.001334816,0.2474872,0.2585996,6.49408,6.532963,6.02,NaN,0,7.847709,-3,-3
98906,125140020,0.2367902,0.0008809268,0.2429628,0.2585996,6.494143,6.529773,6.03,NaN,0,7.848105,-3,-1
99353,125254018,0.2468106,0.0005587488,0.2403619,0.2585996,6.494565,6.522524,6.1,NaN,0,7.844373,-2,0
99805,125362003,0.2482606,0.0003890246,0.2472043,0.2585996,6.495353,6.514978,6.43,NaN,0,7.839596,0,-3
100250,125471421,0.2419895,0.0003776103,0.2452009,0.2585996,6.496574,6.507781,6.16,NaN,0,7.835619,0,0
100694,125578712,0.2441945,0.0004951358,0.2476069,0.2585996,6.498278,6.501972,6.04,NaN,0,7.832572,1,0
101103,125687020,0.2653829,0.0007912517,0.2548263,0.2585996,6.50048,6.496836,6.22,NaN,0,7.830136,2,0
101549,125793730,0.2493336,0.000683561,0.2575719,0.2585996,6.503174,6.493047,6.09,NaN,0,7.828674,4,2
101993,125901833,0.2540952,0.0006434917,0.2528923,0.2585996,6.50625,6.488898,6.25,NaN,0,7.826921,5,1
102411,126008720,0.2667837,0.0007124245,0.2602367,0.2585996,6.509857,6.486403,6.83,NaN,0,7.826457,6,2
102853,126116755,0.2607589,0.0006882548,0.2630378,0.2585996,6.513773,6.48794,6.61,NaN,0,7.829885,7,3
103298,126224016,0.2601002,0.000489682,0.2609893,0.2585996,6.518114,6.494089,6.49,NaN,0,7.837689,7,5
103741,126333866,0.2480114,0.0002800375,0.2571704,0.2585996,6.52261,6.506895,6.42,NaN,0,7.852234,6,5
104188,126441094,0.2352459,0.0006015897000000001,0.2494235,0.2585996,6.52704,6.519547,6.45,NaN,0,7.866406,5,6
104600,126550239,0.2491075,0.001084328,0.2463926,0.2585996,6.531201,6.532632,5.94,NaN,0,7.88123,4,8
105249,126770947,0.2520167,0.0008614659,0.2573502,0.2585996,6.538339,6.536814,6.18,NaN,0,7.88947,3,1
105695,126879956,0.2481746,0.0006159544,0.2528664,0.2585996,6.541286,6.53574,6.15,NaN,0,7.890724,3,2
106111,126985670,0.2558488,0.0004953146000000001,0.2521532,0.2585996,6.543952,6.536131,6.42,NaN,0,7.893152,3,5
106552,127093235,0.2493858,0.0002212971,0.2516486,0.2585996,6.546388,6.535913,6.42,NaN,0,7.895261,3,3
106998,127201621,0.2515669,0.0002221167,0.251622,0.2585996,6.548632,6.53742,6.21,NaN,0,7.899087,3,3
107410,127309866,0.2585357,0.000364989,0.2580258,0.2585996,6.550697,6.537663,6.53,NaN,0,7.901512,3,0
107856,127417679,0.2564216,0.0004453957,0.2569872,0.2585996,6.552606,6.538597,6.6,NaN,0,7.90462,3,1
108299,127528406,0.2580326,0.0002177358,0.2566771,0.2585996,6.554369,6.543172,6.31,NaN,0,7.911079,2,0
108747,127633181,0.252916,3.740191e-05,0.2547681,0.2585996,6.555944,6.546563,6.45,NaN,0,7.916508,2,1
109155,127740191,0.253889,0.0006494522,0.2510905,0.2585996,6.557293,6.553511,6.59,NaN,0,7.925493,1,3
109604,127853675,0.2505902,0.001493037,0.2519162,0.2585996,6.558398,6.560465,6.44,NaN,0,7.934773,0,1
110051,127959400,0.2458456,0.002039745,0.2504162,0.2585996,6.559084,6.566834,6.82,NaN,0,7.943401,0,2
110493,128067009,0.2509132,0.002290845,0.2503742,0.2585996,6.55937,6.573997,6.64,NaN,0,7.953121,-1,2
110906,128174658,0.2491497,0.002007604,0.252816,0.2585996,6.559207,6.585177,7,NaN,0,7.966925,-3,0
111351,128281487,0.238144,0.001629472,0.2496215,0.2585996,6.558496,6.59365,7.03,NaN,0,7.978243,-4,-1
111765,128388464,0.2427063,0.001425371,0.244983,0.2585996,6.557176,6.605445,7,NaN,0,7.992808,-6,0
112209,128497701,0.2451647,0.0013998,0.2445615,0.2585996,6.555178,6.615691,7.04,NaN,0,8.006266999999999,-8,-3
112654,128605714,0.2406371,0.00146322,0.2444854,0.2585996,6.55245,6.625835,6.88,NaN,0,8.019629,-10,-5
113096,128715771,0.2475805,0.00128226,0.2476152,0.2585996,6.548955,6.634479,7.05,NaN,0,8.031775,-12,-7
113545,128824503,0.2366443,0.0006449968,0.2449834,0.2585996,6.544686,6.640369,7.06,NaN,0,8.041099000000001,-14,-11
113987,128932674,0.2432978,0.0001996011,0.2424681,0.2585996,6.539671,6.642673,7.42,NaN,0,8.046760000000001,-15,-11
114434,129040155,0.2423577,0.0002062023,0.2420194,0.2585996,6.534002,6.647624,7.22,NaN,0,8.055282,-17,-12
114844,129146827,0.2400182,0.0002740175,0.2418982,0.2585996,6.527714,6.653918,7.27,NaN,0,8.064712,-19,-15
115293,129258521,0.2428629,0.0001785457,0.2429998,0.2585996,6.520629,6.657512,7.31,NaN,0,8.071807,-21,-17
115739,129363728,0.2407256,0.000155285,0.2396896,0.2585996,6.513151,6.661233,7.2,NaN,0,8.078809,-22,-18
116149,129471469,0.2500201,0.0001757741,0.2406566,0.2585996,6.505146,6.661747,7.05,NaN,0,8.082884999999999,-24,-19
116595,129577451,0.2513846,0.0002291203,0.2483974,0.2585996,6.496698,6.656796,7.08,NaN,0,8.081276000000001,-25,-25
117004,129685994,0.2475246,0.000240311,0.2494295,0.2585996,6.48795,6.651395,6.88,NaN,0,8.079148,-25,-26
117455,129792382,0.2429232,0.0001901388,0.2492711,0.2585996,6.479067,6.64034,7.03,NaN,0,8.071503,-25,-25
117896,129900230,0.247104,0.0001082271,0.2477288,0.2585996,6.470466,6.630117,6.7,NaN,0,8.064408999999999,-25,-24
118343,130007479,0.252782,9.986758e-05,0.2449811,0.2585996,6.461848,6.618289,6.8,NaN,0,8.055984,-24,-24
118753,130115606,0.255144,0.0001387298,0.2537396,0.2585996,6.453608,6.603562,6.82,NaN,0,8.044589999999999,-23,-26
119199,130222683,0.2592887,0.0001365542,0.2567768,0.2585996,6.445908,6.590076,7.06,NaN,0,8.034362,-22,-24
119644,130329726,0.262175,7.548928e-05,0.2587934,0.2585996,6.439062,6.579317,6.68,NaN,0,8.027134999999999,-21,-23
120058,130435778,0.2676223,0.0005562603,0.2631505,0.2585996,6.432775,6.565979,6.85,NaN,0,8.017054999999999,-19,-24
120502,130545723,0.2622643,0.002139658,0.2651192,0.2585996,6.427312,6.554132,6.95,NaN,0,8.00839,-17,-22
120948,130652029,0.2586963,0.003403276,0.2636368,0.2585996,6.422727,6.541864,6.51,NaN,0,7.998784,-16,-21
121387,130758248,0.2556038,0.002959102,0.2624339,0.2585996,6.419066,6.532846,6.84,NaN,0,7.992284,-14,-16
121800,130865947,0.2533181,0.001903027,0.2570842,0.2585996,6.416378,6.526096,6.64,NaN,0,7.987563,-13,-13
122248,130972529,0.2505098,0.001089066,0.2547639,0.2585996,6.414472,6.521749,6.45,NaN,0,7.985024,-12,-11
122694,131082477,0.2509764,0.0008057952,0.2523853,0.2585996,6.413355,6.518293,6.62,NaN,0,7.983224,-11,-9
123139,131189162,0.2466101,0.0007044971,0.2480737,0.2585996,6.412957,6.514283,6.69,NaN,0,7.980793,-10,-7
123582,131298613,0.2533197,0.000742048,0.2496875,0.2585996,6.413212,6.513125,6.39,NaN,0,7.980924,-9,-6
124027,131404448,0.2498977,0.0008420944,0.2512739,0.2585996,6.414031,6.511069,6.41,NaN,0,7.980097,-8,-6
124470,131514652,0.2522345,0.0009278953,0.2489497,0.2585996,6.41535,6.508311,6.51,NaN,0,7.978361,-7,-7
124884,131621732,0.2510166,0.0008841455,0.2501386,0.2585996,6.41713,6.505648,6.5,NaN,0,7.976774,-6,-4
125326,131732227,0.2499369,0.000796482,0.2504324,0.2585996,6.419329,6.504906,6.25,NaN,0,7.97697,-6,-4
125776,131838042,0.2529142,0.0008326768999999999,0.2512696,0.2585996,6.421891,6.501561,6.92,NaN,0,7.974205,-5,-5
126190,131947498,0.2568152,0.0009129643,0.2545644,0.2585996,6.424798,6.502451,6.8,NaN,0,7.975675,-4,-4
126633,132056174,0.2506213,0.0008262396,0.254975,0.2585996,6.427987,6.505343,6.45,NaN,0,7.979285,-4,-4
127046,132161948,0.2549913,0.0008396506,0.253829,0.2585996,6.431345,6.512814,6.8,NaN,0,7.987044,-4,-2
127494,132272742,0.2486733,0.0006717891,0.2509108,0.2585996,6.434736,6.520265,6.97,NaN,0,7.994434,-5,-4
127940,132379043,0.2529477,0.0005945265,0.2542225,0.2585996,6.438029,6.529594,6.49,NaN,0,8.003909999999999,-5,-3
128386,132488279,0.250345,0.0005784333,0.2532698,0.2585996,6.441102,6.535092,6.86,NaN,0,8.009406999999999,-6,-4
128799,132593793,0.254317,0.0006223023,0.253159,0.2585996,6.443888,6.539717,6.84,NaN,0,8.014101,-6,-5
129240,132704683,0.2487955,0.0006379932,0.2554729,0.2585996,6.446362,6.545426,7.12,NaN,0,8.019741,-7,-7
129686,132810227,0.2463432,0.0005596876,0.248071,0.2585996,6.448487,6.552339,6.95,NaN,0,8.026653,-8,-6
130126,132917434,0.242358,0.0004092157,0.2474366,0.2585996,6.4502,6.56334,7.29,NaN,0,8.037511,-9,-6
130543,133023114,0.2310042,0.0001961738,0.2372341,0.2585996,6.451399,6.576409,7.32,NaN,0,8.050579000000001,-11,-5
130984,133130699,0.2386355,0.0002142936,0.2391934,0.2585996,6.451949,6.592055,6.91,NaN,0,8.066004,-13,-8
131430,133237833,0.2330579,0.0002240986,0.2355458,0.2585996,6.451721,6.602149,6.62,NaN,0,8.075953,-15,-8
131874,133346486,0.2338032,0.0002389401,0.2368577,0.2585996,6.450665,6.608035,6.73,NaN,0,8.081694000000001,-17,-12
132289,133459698,0.2432234,0.0003479868,0.2395048,0.2585996,6.448785,6.605168,6.61,NaN,0,8.078827,-17,-14
132736,133566723,0.2442904,0.0003972799,0.2424766,0.2585996,6.446359,6.597727,6.73,NaN,0,8.071241000000001,-17,-16
133146,133675504,0.2551529,0.0004562438,0.2472478,0.2585996,6.443575,6.584986,6.93,NaN,0,8.0585,-17,-17
133592,133782175,0.2493935,0.0001635104,0.2506379,0.2585996,6.440699,6.570547,7.2,NaN,0,8.043915999999999,-15,-18
134034,133890641,0.2452883,1.79857e-05,0.2485666,0.2585996,6.437984,6.556292,6.96,NaN,0,8.029522999999999,-14,-18
134480,133996911,0.2563047,0.0003682673,0.2504143,0.2585996,6.435636,6.544012,7,NaN,0,8.017115,-13,-14
134895,134104736,0.2565535,0.0007978082,0.2509999,0.2585996,6.433796,6.531939,7.18,NaN,0,8.005186,-11,-13
135341,134210121,0.2733365,0.0006638169,0.2640179,0.2585996,6.432576,6.519996,7.13,NaN,0,7.993617,-9,-15
135784,134319100,0.2686628,0.0004629791,0.2702257,0.2585996,6.432062,6.509422,7.2,NaN,0,7.983638,-7,-16
136228,134426850,0.2598847,0.0003494918,0.2674422,0.2585996,6.432306,6.504977,7.75,NaN,0,7.979726,-6,-12
136674,134536192,0.2548037,0.000309974,0.2624916,0.2585996,6.433228,6.517642,7.32,NaN,0,7.993139,-7,-9
137123,134646501,0.2468573,0.0002512783,0.254852,0.2585996,6.434582,6.534765,7.47,NaN,0,8.011232,-8,-6
137565,134754215,0.2446255,0.0002268255,0.2490523,0.2585996,6.43593,6.557971,7.45,NaN,0,8.035406,-10,-4
138009,134862091,0.2443943,0.000672996,0.2441798,0.2585996,6.436907,6.581858,7.08,NaN,0,8.060202,-13,-5
138454,134968620,0.2431556,0.00114952,0.2418457,0.2585996,6.437207,6.606229,7.32,NaN,0,8.085542,-17,-7
138864,135078044,0.2446591,0.001274824,0.2442281,0.2585996,6.436559,6.615943,7.63,NaN,0,8.096498,-19,-13
139311,135184065,0.2449555,0.0009537339,0.2442861,0.2585996,6.43495,6.617247,7.43,NaN,0,8.098557,-20,-14
139756,135294687,0.2443553,0.0006105751,0.2463399,0.2585996,6.432519,6.611826,7.39,NaN,0,8.09409,-20,-19
140205,135401700,0.249643,0.0004410744,0.2483924,0.2585996,6.429502,6.602237,7.16,NaN,0,8.085523999999999,-20,-20
140618,135509620,0.2545898,0.0001946092,0.2510791,0.2585996,6.426253,6.589215,6.98,NaN,0,8.073601,-19,-22
141063,135616619,0.2543114,0.0002175868,0.2564786,0.2585996,6.422861,6.572473,7.5,NaN,0,8.057880000000001,-18,-23
141504,135725529,0.2563306,0.000631541,0.2552486,0.2585996,6.419684,6.556838,7.43,NaN,0,8.043634000000001,-16,-20
141952,135831076,0.2577891,0.0008491576,0.2571912,0.2585996,6.41694,6.54424,7.38,NaN,0,8.032417000000001,-15,-19
142361,135937734,0.2575555,0.0008093715,0.2582231,0.2585996,6.414767,6.534292,7.2,NaN,0,8.023934000000001,-13,-16
142809,136043866,0.2592915,0.0005271137,0.260202,0.2585996,6.413229,6.52593,7.23,NaN,0,8.017251,-12,-15
143254,136152628,0.2654533,0.0002957284,0.2623352,0.2585996,6.412354,6.52086,7.35,NaN,0,8.014149,-11,-13
143667,136259871,0.2545031,0.0001016259,0.2605202,0.2585996,6.412121,6.515979,7.47,NaN,0,8.011236999999999,-10,-13
144111,136366975,0.2492418,9.329616999999999e-05,0.2559752,0.2585996,6.412479,6.521952,7.32,NaN,0,8.019177000000001,-10,-9
144554,136476686,0.2456807,0.0001318157,0.250652,0.2585996,6.413232,6.539279,7.3,NaN,0,8.038473,-11,-7
145000,136583667,0.2374472,0.0001096874,0.2454252,0.2585996,6.414039,6.559902,7.05,NaN,0,8.061057,-13,-9
145447,136692728,0.2303227,5.298853e-05,0.2384466,0.2585996,6.41456,6.579617,6.87,NaN,0,8.08287,-16,-6
145864,136798992,0.2314458,3.544986e-05,0.235498,0.2585996,6.414516,6.594121,6.98,NaN,0,8.099045,-18,-10
146308,136908035,0.2418896,3.644824e-05,0.2383031,0.2585996,6.413763,6.599639,6.96,NaN,0,8.106814,-19,-12
146723,137014051,0.2396645,6.15716e-05,0.23956,0.2585996,6.412323,6.598795,6.84,NaN,0,8.10793,-20,-16
147167,137121952,0.244716,0.0001483411,0.2407109,0.2585996,6.410392,6.593613,6.68,NaN,0,8.104854,-20,-19
147614,137228266,0.2461639,0.0002471805,0.2422901,0.2585996,6.408046,6.584768,7.06,NaN,0,8.097833,-20,-17
148056,137335728,0.2500225,0.0004326701,0.2454967,0.2585996,6.405534,6.574432,6.97,NaN,0,8.089244000000001,-19,-19
148505,137442033,0.2433322,0.001065448,0.2467729,0.2585996,6.403063,6.561418,6.46,NaN,0,8.077909,-18,-21
148917,137550635,0.2394875,0.001741633,0.2460283,0.2585996,6.400831,6.547219,6.62,NaN,0,8.065234999999999,-16,-17
149366,137658139,0.2537734,0.001014858,0.2467615,0.2585996,6.399033,6.532085,6.53,NaN,0,8.051558,-14,-15
149810,137766517,0.2435554,8.890033e-05,0.2449027,0.2585996,6.397851,6.514697,6.72,NaN,0,8.035551,-12,-14
150220,137873619,0.2458305,0.0001700222,0.2435462,0.2585996,6.397452,6.500265,6.6,NaN,0,8.022653,-10,-11
150668,137981490,0.2492155,0.0003448278,0.2454498,0.2585996,6.397938,6.488556,6.73,NaN,0,8.012340999999999,-8,-10
151110,138090207,0.2510055,0.0003059506,0.2475927,0.2585996,6.39935,6.482756,6.9,NaN,0,8.007868,-6,-9
151553,138196416,0.2379636,0.0001274198,0.246798,0.2585996,6.401614,6.483974,6.59,NaN,0,8.010856,-5,-6
151995,138304178,0.2432408,4.157424e-05,0.2436813,0.2585996,6.404493,6.4877,6.51,NaN,0,8.016268,-4,-5
152441,138411394,0.243249,6.744266e-05,0.2463336,0.2585996,6.407955,6.490693,6.58,NaN,0,8.020756,-4,-5
152852,138518682,0.2461662,0.0001180619,0.2467001,0.2585996,6.41179,6.492138,6.6,NaN,0,8.024117,-3,-4
153300,138624652,0.247317,0.000129953,0.2481072,0.2585996,6.415914,6.492922,6.25,NaN,0,8.026608,-3,-2
153712,138732447,0.2523891,0.0001376569,0.2499653,0.2585996,6.420149,6.495,6.55,NaN,0,8.030281,-2,-2
154158,138839173,0.2503915,0.0001326203,0.2499197,0.2585996,6.424655,6.495818,6.76,NaN,0,8.032885,-2,-2
154600,138946050,0.2544731,0.0001005232,0.2511227,0.2585996,6.429267,6.499017,6.41,NaN,0,8.038029,-2,-4
155010,139054735,0.2485856,7.349253e-05,0.2506068,0.2585996,6.433925,6.501181,6.77,NaN,0,8.042078,-1,-3
155455,139160641,0.2428211,7.161498e-05,0.2465144,0.2585996,6.438576,6.505154,6.8,NaN,0,8.048071999999999,-1,-1
155903,139271026,0.2507609,6.148219000000001e-05,0.2488306,0.2585996,6.443271,6.510462,6.67,NaN,0,8.055425,-1,-2
156349,139377255,0.2505257,6.446242e-05,0.2515132,0.2585996,6.447709,6.512029,6.85,NaN,0,8.059243,-1,-1
156760,139485762,0.2475525,6.693602e-05,0.250212,0.2585996,6.452003,6.515297,6.73,NaN,0,8.064907,-1,-1
157208,139590819,0.2474425,9.043514999999999e-05,0.249878,0.2585996,6.456121,6.520607,6.91,NaN,0,8.072412,-2,-3
157651,139699847,0.2515276,0.0001265407,0.2505035,0.2585996,6.460011,6.526614,6.55,NaN,0,8.080893,-2,-2
158095,139806039,0.2453098,0.0001372993,0.2495753,0.2585996,6.463617,6.529688,6.92,NaN,0,8.086645000000001,-2,-3
158541,139913914,0.2488837,0.0001542568,0.2487279,0.2585996,6.466938,6.533993,6.47,NaN,0,8.093582,-3,-3
158988,140019159,0.2485756,0.0001592487,0.251554,0.2585996,6.469954,6.536068,6.57,NaN,0,8.098357999999999,-3,-3
159431,140127695,0.2555349,0.000182271,0.253001,0.2585996,6.472678,6.537677,6.99,NaN,0,8.102743,-3,-5
159845,140234637,0.2537953,0.000194788,0.2549348,0.2585996,6.475133,6.541435,6.97,NaN,0,8.109362000000001,-4,-5
160291,140343173,0.2531859,0.0001623034,0.2525863,0.2585996,6.4773,6.549156,6.51,NaN,0,8.120234999999999,-5,-5
160735,140454259,0.2484739,0.0001366735,0.2511234,0.2585996,6.47916,6.553367,6.87,NaN,0,8.127665,-5,-4
161184,140561069,0.2504354,2.834201e-05,0.2510814,0.2585996,6.480591,6.559298,6.58,NaN,0,8.136694,-6,-4
161635,140671611,0.2486146,0.0001541674,0.2516933,0.2585996,6.481655,6.561588,6.86,NaN,0,8.142219000000001,-7,-7
162080,140778840,0.2482481,0.0005800575,0.2510119,0.2585996,6.482306,6.563557,6.85,NaN,0,8.147475999999999,-7,-7
162488,140885960,0.2475668,0.0007862002,0.2483923,0.2585996,6.482638,6.566265,6.9,NaN,0,8.15319,-8,-5
162934,140991748,0.2449005,0.0006837398,0.2459816,0.2585996,6.482641,6.570925,6.79,NaN,0,8.160848,-9,-5
163376,141099479,0.2466672,0.0004472733,0.2446597,0.2585996,6.482318,6.576212,6.83,NaN,0,8.168912000000001,-9,-6
163825,141207529,0.2388994,0.0002322793,0.2442963,0.2585996,6.48163,6.580188,6.63,NaN,0,8.175658,-10,-9
164266,141317658,0.2441463,1.344085e-05,0.2439953,0.2585996,6.480575,6.580498,6.69,NaN,0,8.179103,-11,-7
164711,141425068,0.2506754,0.0001768768,0.2443347,0.2585996,6.479203,6.577574,6.62,NaN,0,8.179033,-11,-8
165153,141532481,0.2492047,0.0003950447,0.2466676,0.2585996,6.477616,6.573044,6.69,NaN,0,8.177509000000001,-11,-10
165601,141640436,0.2511699,0.0002671778,0.2476013,0.2585996,6.475931,6.566617,6.73,NaN,0,8.173889000000001,-10,-10
166011,141751283,0.2473733,3.229082e-05,0.2503397,0.2585996,6.474264,6.559521,6.84,NaN,0,8.169945,-10,-11
166455,141860948,0.2463163,0.000163734,0.2499651,0.2585996,6.472731,6.553526,6.77,NaN,0,8.167031,-9,-12
166900,141968871,0.2483841,0.0005418211,0.2520074,0.2585996,6.471408,6.548524,6.7,NaN,0,8.165035,-8,-11
167346,142077962,0.2569168,0.0007623732,0.25332,0.2585996,6.470345,6.543504,6.67,NaN,0,8.162762000000001,-8,-9
167793,142185220,0.2547609,0.0006188154,0.2540853,0.2585996,6.469562,6.538245,6.23,NaN,0,8.160295,-7,-10
168236,142294823,0.2573909,0.0003915727,0.2554525,0.2585996,6.46913,6.530731,6.82,NaN,0,8.155749,-6,-9
168649,142401781,0.2596689,0.0002804101,0.2576064,0.2585996,6.469088,6.525062,6.39,NaN,0,8.15288,-5,-9
169089,142511050,0.2607938,0.0002502501,0.2599572,0.2585996,6.469471,6.519718,6.51,NaN,0,8.150161000000001,-4,-8
169535,142617001,0.2529425,0.0002972782,0.2576129,0.2585996,6.470284,6.515464,6.64,NaN,0,8.148263999999999,-3,-6
169981,142725664,0.2525206,0.0005135536,0.2555443,0.2585996,6.47152,6.514704,6.52,NaN,0,8.150328,-2,-4
170426,142832005,0.255674,0.0008403063,0.2550273,0.2585996,6.473125,6.514205,6.64,NaN,0,8.152284999999999,-2,-2
170834,142939514,0.2526353,0.000857681,0.2565456,0.2585996,6.475035,6.51669,6.61,NaN,0,8.157112,-2,-1
171281,143045637,0.2510168,0.0007802546,0.2527411,0.2585996,6.477162,6.519361,6.38,NaN,0,8.161942,-1,0
171722,143154621,0.2543018,0.000765115,0.2531931,0.2585996,6.479417,6.522899,6.37,NaN,0,8.167745999999999,-1,0
172133,143265746,0.2504463,0.0008393526,0.2514284,0.2585996,6.481727,6.523741,6.34,NaN,0,8.170755,-1,-2
172578,143372765,0.2544403,0.000949204,0.252907,0.2585996,6.484071,6.522562,6.31,NaN,0,8.171711999999999,-1,-2
173017,143481120,0.251183,0.001032978,0.2549349,0.2585996,6.486464,6.519873,6.43,NaN,0,8.170771,0,-2
173463,143588731,0.2536515,0.001089364,0.2538919,0.2585996,6.488935,6.518322,6.43,NaN,0,8.170987999999999,0,0
173877,143696640,0.2565925,0.00113523,0.2543767,0.2585996,6.4915,6.517384,6.39,NaN,0,8.171822000000001,0,0
174326,143803163,0.258851,0.001198322,0.2576019,0.2585996,6.494159,6.515737,6.71,NaN,0,8.171647,0,0
174772,143914084,0.2539704,0.001189828,0.2586185,0.2585996,6.496918,6.516813,6.32,NaN,0,8.174277999999999,0,-1
175186,144021424,0.2520877,0.001137257,0.2561811,0.2585996,6.499748,6.517779,6.59,NaN,0,8.176572999999999,1,-1
175629,144129826,0.253356,0.0007421076,0.2564451,0.2585996,6.502541,6.519756,6.41,NaN,0,8.179532999999999,1,0
176075,144235798,0.2481638,0.0004361421,0.2532642,0.2585996,6.505413,6.521705,6.58,NaN,0,8.182741999999999,1,1
176516,144344223,0.2472291,0.0003082752,0.2529266,0.2585996,6.508247,6.526037,6.57,NaN,0,8.187982999999999,1,1
176962,144451099,0.2525152,0.000387758,0.2533447,0.2585996,6.510983,6.530425,6.4,NaN,0,8.193087,0,0
177369,144559729,0.2558188,0.001015007,0.2555611,0.2585996,6.513553,6.536789,6.36,NaN,0,8.199968999999999,0,0
177812,144668810,0.2563158,0.001914233,0.2557286,0.2585996,6.515898,6.539905,6.36,NaN,0,8.203611,0,1
178257,144776250,0.2599891,0.002417773,0.2582615,0.2585996,6.518006,6.541096,6.58,NaN,0,8.205139000000001,0,0
178667,144883127,0.2623555,0.002488434,0.2597103,0.2585996,6.519896,6.542068,6.5,NaN,0,8.205997,0,0
179112,144988961,0.2569983,0.002248615,0.261142,0.2585996,6.521587,6.543319,6.57,NaN,0,8.206994999999999,0,-1
179553,145096397,0.2581949,0.002214283,0.2605409,0.2585996,6.523096,6.543855,6.75,NaN,0,8.207103999999999,0,0
180000,145204636,0.2572233,0.002120256,0.262209,0.2585996,6.524442,6.545278,6.86,NaN,0,8.207649999999999,0,-3
180440,145313107,0.2630525,0.002035826,0.2611254,0.2585996,6.525599,6.550293,6.79,NaN,0,8.211781,-1,0
180887,145420385,0.2599759,0.001960605,0.2616391,0.2585996,6.526579,6.556087,6.63,NaN,0,8.216132,-2,0
181295,145529998,0.2534275,0.001864165,0.2617607,0.2585996,6.52729,6.562298,7.04,NaN,0,8.220763,-2,-4
181741,145636186,0.2544764,0.001746684,0.2587413,0.2585996,6.527676,6.569101,6.72,NaN,0,8.226003,-3,-3
182154,145745081,0.254577,0.001728326,0.2565757,0.2585996,6.527667,6.579621,6.86,NaN,0,8.234531,-5,-1
182602,145858988,0.2514981,0.001591116,0.2549995,0.2585996,6.527158,6.586916,6.65,NaN,0,8.239691000000001,-6,-2
183050,145965753,0.2538071,0.001643211,0.2552482,0.2585996,6.526138,6.591204,6.72,NaN,0,8.241476,-7,-6
183495,146076208,0.2637266,0.001833946,0.2567806,0.2585996,6.524624,6.592316,6.94,NaN,0,8.240183999999999,-8,-5
183941,146183640,0.2523877,0.001663893,0.2582367,0.2585996,6.522681,6.59355,7,NaN,0,8.238771,-9,-6
184349,146292961,0.2659293,0.001560897,0.2592599,0.2585996,6.52036,6.59689,7.01,NaN,0,8.239098,-10,-10
184795,146400246,0.2631105,0.001573801,0.262691,0.2585996,6.517675,6.599988,6.51,NaN,0,8.239182,-11,-9
185238,146508654,0.2573888,0.001557231,0.2625379,0.2585996,6.514568,6.597668,6.69,NaN,0,8.233727,-11,-12
185684,146615295,0.2461323,0.001362756,0.2561473,0.2585996,6.511276,6.595097,6.68,NaN,0,8.227905,-11,-10
186125,146722060,0.2376566,0.001156375,0.2469881,0.2585996,6.507904,6.594198,7.06,NaN,0,8.223350999999999,-12,-9
186569,146829515,0.244819,0.001059607,0.2458925,0.2585996,6.504319,6.596517,6.61,NaN,0,8.222298,-13,-7
187013,146936003,0.256191,0.001091301,0.2508927,0.2585996,6.500599,6.595318,6.58,NaN,0,8.217331,-13,-9
187429,147044024,0.2578178,0.001076043,0.2548114,0.2585996,6.496782,6.589705,6.72,NaN,0,8.207979999999999,-13,-11
187872,147153669,0.2534237,0.0008970797,0.2535571,0.2585996,6.492977,6.581133,7.1,NaN,0,8.195354999999999,-12,-11
188312,147261501,0.2446927,0.0006023495999999999,0.2521108,0.2585996,6.489313,6.576868,6.8,NaN,0,8.186840999999999,-12,-12
188725,147367605,0.2485346,0.0004045963,0.2507739,0.2585996,6.48584,6.574904,6.69,NaN,0,8.180971,-12,-11
189167,147475490,0.2553372,0.0004086196,0.2532276,0.2585996,6.482559,6.571057,6.9,NaN,0,8.173026999999999,-12,-12
189579,147581449,0.2600285,0.0004755855,0.2581048,0.2585996,6.479501,6.566312,6.91,NaN,0,8.164186000000001,-11,-13
190025,147691491,0.2634468,0.0004980266,0.2616175,0.2585996,6.476714,6.561813,6.65,NaN,0,8.155345000000001,-11,-14
190469,147797067,0.2607561,0.0003936887,0.2614066,0.2585996,6.474229,6.55557,6.4,NaN,0,8.144769,-10,-10
190881,147905973,0.2661918,0.000285238,0.2592511,0.2585996,6.472086,6.547613,6.62,NaN,0,8.132554000000001,-9,-11
191327,148013731,0.2716821,0.0003321171,0.2659454,0.2585996,6.470361,6.538124,6.95,NaN,0,8.098535999999999,-8,-13
191771,148122090,0.2796826,0.0007519424,0.2730496,0.2585996,6.46913,6.530272,6.77,NaN,0,8.062516,-7,-12
192182,148229519,0.2823213,0.001143903,0.2766743,0.2585996,6.468434,6.524077,6.54,NaN,0,8.030626,-6,-10
192623,148339617,0.2796614,0.001332492,0.279568,0.2585996,6.468286,6.519141,6.39,NaN,0,7.998354,-4,-12
193066,148451219,0.2873613,0.001220018,0.281157,0.2585996,6.4687,6.511742,6.74,NaN,0,7.965182,-3,-9
193513,148558104,0.279889,0.0009447932,0.2820158,0.2585996,6.469665,6.506893,6.74,NaN,0,7.935965,-2,-8
193957,148666833,0.2813066,0.0007410347,0.2807767,0.2585996,6.471166,6.505414,6.52,NaN,0,7.911103,-1,-5
194401,148774479,0.2794495,0.0005522072,0.2805629,0.2585996,6.473136,6.50557,6.75,NaN,0,7.88689,0,-4
194843,148882613,0.2754605,0.0003742874,0.2790248,0.2585996,6.475494,6.508173,6.96,NaN,0,7.868497,0,-3
195290,148989073,0.2752539,0.0004159212,0.2782544,0.2585996,6.478131,6.51503,6.84,NaN,0,7.853694,0,-1
195698,149097654,0.272305,0.0006575584,0.2748899,0.2585996,6.48088,6.526761,6.76,NaN,0,7.843842,-1,0
196147,149204493,0.2617261,0.0006297231,0.2696985,0.2585996,6.483547,6.537149,6.77,NaN,0,7.834218,-2,-1
196587,149313981,0.2650493,0.0004964173,0.2631113,0.2585996,6.485956,6.547876,6.68,NaN,0,7.825254,-3,1
197031,149420532,0.2614205,0.0004794598,0.2643528,0.2585996,6.487984,6.556225,6.87,NaN,0,7.814491,-4,0
197471,149528434,0.2657154,0.0006167591,0.2638249,0.2585996,6.489558,6.563004,6.19,NaN,0,7.802158,-5,-2
197918,149634827,0.2722079,0.0007687807,0.2649261,0.2585996,6.490654,6.563133,6.94,NaN,0,7.784984,-6,-3
198359,149741421,0.2657488,0.000761807,0.2662471,0.2585996,6.491346,6.560996,6.37,NaN,0,7.764879,-6,-6
198766,149850853,0.2545148,0.0005939305,0.2621881,0.2585996,6.491737,6.557561,6.63,NaN,0,7.744308,-6,-3
199212,149956088,0.2507946,0.0006601214,0.2518562,0.2585996,6.491934,6.554921,6.92,NaN,0,7.725342,-6,-2
199654,150064687,0.2412506,0.0009462684,0.2488921,0.2585996,6.492012,6.556166,6.62,NaN,0,7.710352,-6,0
200069,150172616,0.2411396,0.001296282,0.242324,0.2585996,6.491971,6.559957,7.25,NaN,0,7.697747,-6,-1
200512,150280684,0.2450225,0.001522839,0.2444919,0.2585996,6.491777,6.56232,7.07,NaN,0,7.685447,-7,0
200959,150387521,0.2489859,0.001843661,0.2489702,0.2585996,6.491415,6.562586,6.94,NaN,0,7.671865,-7,-2
201366,150495415,0.2561697,0.002960682,0.2510059,0.2585996,6.49091,6.562063,7.2,NaN,0,7.657502,-7,-6
201811,150604502,0.2544767,0.004714727,0.2575598,0.2585996,6.490292,6.560909,7.18,NaN,0,7.643165,-7,-8
202254,150714736,0.2464924,0.005923823,0.257992,0.2585996,6.489607,6.558744,6.94,NaN,0,7.630296,-7,-6
202669,150820490,0.2519281,0.00565806,0.2569972,0.2585996,6.488907,6.557302,7.33,NaN,0,7.619631,-7,-6
203107,150929078,0.2548244,0.004328161,0.2574368,0.2585996,6.488207,6.558133,7.03,NaN,0,7.613045,-7,-7
203554,151036041,0.2531935,0.002931088,0.2567422,0.2585996,6.487488,6.557951,7.27,NaN,0,7.607095,-7,-5
203996,151144748,0.2482326,0.002136871,0.2495692,0.2585996,6.486746,6.564258,7.4,NaN,0,7.607314,-8,-5
204441,151250901,0.2375254,0.001578405,0.2468935,0.2585996,6.485887,6.57071,7.47,NaN,0,7.608647,-9,-5
204882,151358661,0.2366532,0.001339331,0.2403313,0.2585996,6.484812,6.580964,7.12,NaN,0,7.615277,-10,-6
205291,151466012,0.2467201,0.001379296,0.2458867,0.2585996,6.483413,6.588656,7.43,NaN,0,7.619268,-12,-7
205731,151572706,0.2553278,0.001514852,0.2552231,0.2585996,6.481634,6.590518,6.83,NaN,0,7.618483,-12,-10
206175,151681198,0.2627632,0.001442611,0.2593792,0.2585996,6.479502,6.58742,6.95,NaN,0,7.612836,-13,-15
206620,151787547,0.2634359,0.001169145,0.2645968,0.2585996,6.477128,6.579662,7.04,NaN,0,7.603271,-12,-17
207031,151895244,0.2627892,0.0009881257999999999,0.2638452,0.2585996,6.474678,6.569478,6.97,NaN,0,7.592262,-12,-16
207478,152001978,0.2625585,0.0008922517,0.2636476,0.2585996,6.47233,6.560407,6.88,NaN,0,7.582116,-11,-13
207924,152109696,0.2612898,0.0009244978,0.2632614,0.2585996,6.470216,6.550924,7.01,NaN,0,7.572634,-10,-12
208337,152214760,0.2483714,0.000848487,0.2608686,0.2585996,6.468452,6.542324,6.93,NaN,0,7.562385,-9,-10
208778,152323517,0.2507431,0.0003760755,0.2542344,0.2585996,6.467119,6.538511,7,NaN,0,7.558572,-8,-6
209193,152430274,0.2563086,0.000235647,0.255308,0.2585996,6.466202,6.536994,7.06,NaN,0,7.554834,-7,-8
209631,152539709,0.2562843,0.0006076097,0.2608251,0.2585996,6.465655,6.537043,6.89,NaN,0,7.552412,-7,-9
210079,152649417,0.2504871,0.0008811355,0.2557432,0.2585996,6.465416,6.537481,6.81,NaN,0,7.549553,-7,-5
210519,152759220,0.247061,0.0007824749,0.253247,0.2585996,6.46542,6.538743,7.21,NaN,0,7.546856,-7,-6
210961,152868282,0.2495794,0.0005448759,0.2519046,0.2585996,6.465603,6.545048,6.87,NaN,0,7.546569,-7,-5
211406,152976178,0.2479088,0.0003771037,0.2468639,0.2585996,6.465826,6.555113,7.06,NaN,0,7.548234,-8,-4
211849,153087842,0.2445579,0.0002611876,0.24479,0.2585996,6.465923,6.5669,7.04,NaN,0,7.551783,-10,-4
212264,153194670,0.2386456,0.0001991391,0.2422347,0.2585996,6.465736,6.577163,6.84,NaN,0,7.551906,-11,-4
212707,153302531,0.2483063,0.0002510995,0.2437239,0.2585996,6.465156,6.578645,7.01,NaN,0,7.543331,-12,-7
213152,153407655,0.2550801,0.0006908774,0.2496978,0.2585996,6.464215,6.573186,6.69,NaN,0,7.528649,-12,-10
213559,153514739,0.2558824,0.001254827,0.2522543,0.2585996,6.463062,6.564181,7.09,NaN,0,7.509588,-11,-11
214008,153622486,0.2503923,0.00165686,0.2553056,0.2585996,6.461876,6.554037,6.87,NaN,0,7.49038,-10,-10
214448,153730488,0.2546901,0.002173841,0.2559391,0.2585996,6.460831,6.544336,6.83,NaN,0,7.472104,-9,-12
214893,153835565,0.255543,0.002672762,0.2556326,0.2585996,6.460058,6.53586,6.68,NaN,0,7.455228,-8,-10
215334,153944196,0.2555974,0.002931058,0.2612098,0.2585996,6.459657,6.526004,6.53,NaN,0,7.436545,-6,-11
215746,154055718,0.252706,0.002774715,0.2583644,0.2585996,6.459733,6.516811,6.43,NaN,0,7.420088,-5,-7
216194,154162518,0.2389641,0.002493903,0.2503144,0.2585996,6.460335,6.512896,6.42,NaN,0,7.408093,-4,-6
216634,154269991,0.247635,0.002168983,0.2484677,0.2585996,6.461443,6.50884,6.67,NaN,0,7.397354,-3,-2
217046,154375176,0.2411509,0.001635984,0.2479799,0.2585996,6.463035,6.507122,6.63,NaN,0,7.389685,-2,-1
217486,154482806,0.2391168,0.001501411,0.2427065,0.2585996,6.465052,6.509937,6.41,NaN,0,7.386306,-2,0
217934,154589410,0.2452749,0.001927316,0.2430108,0.2585996,6.467379,6.51389,6.48,NaN,0,7.385551,-2,0
218344,154697704,0.2377114,0.002129331,0.2448358,0.2585996,6.469895,6.516755,6.19,NaN,0,7.38361,-1,0
218789,154803975,0.2423715,0.001911551,0.2445538,0.2585996,6.472528,6.516164,6.51,NaN,0,7.377975,-1,0
219230,154913050,0.2343978,0.001126334,0.2427889,0.2585996,6.475262,6.515501,6.45,NaN,0,7.372918,-1,0
219677,155019489,0.2328979,0.0006161779,0.2374247,0.2585996,6.478087,6.516984,6.21,NaN,0,7.369342,0,0
220119,155128166,0.2303459,0.0004732311,0.2343904,0.2585996,6.480967,6.516827,6.34,NaN,0,7.364715,0,1
220531,155233391,0.2326917,0.0004683435,0.2365814,0.2585996,6.483894,6.514082,6.11,NaN,0,7.35592,0,0
220977,155342771,0.2357381,0.0007515103,0.2376766,0.2585996,6.48691,6.507506,6.35,NaN,0,7.345614,1,1
221425,155457058,0.237815,0.001339108,0.2371485,0.2585996,6.49027,6.501387,6.11,NaN,0,7.333117,2,0
221869,155564373,0.234983,0.001969233,0.2387946,0.2585996,6.493723,6.49371,6.41,NaN,0,7.322517,3,4
222315,155673424,0.2451597,0.002561539,0.240912,0.2585996,6.497505,6.486989,6.15,NaN,0,7.310981,5,3
222759,155780830,0.2621851,0.003354251,0.2478442,0.2585996,6.501673,6.478,5.75,NaN,0,7.296843,6,3
223168,155887655,0.242172,0.003267646,0.2541673,0.2585996,6.506307,6.462423,6.67,NaN,0,7.276193,9,2
223614,155994008,0.2492925,0.003048733,0.2487131,0.2585996,6.511563,6.45482,6.64,NaN,0,7.262363,11,6
224026,156101086,0.2468231,0.002803192,0.2514205,0.2585996,6.5173,6.456502,6.42,NaN,0,7.25747,12,6
224472,156207658,0.2489152,0.002585128,0.2508823,0.2585996,6.523697,6.461836,6.29,NaN,0,7.254503,13,10
224913,156315842,0.2441216,0.002732992,0.2522076,0.2585996,6.530437,6.468593,6.49,NaN,0,7.252699,13,10
225327,156422007,0.2256765,0.002020314,0.2417527,0.2585996,6.537348,6.478429,6.7,NaN,0,7.254716,13,13
225766,156532031,0.2256085,0.001236647,0.2314397,0.2585996,6.544231,6.494762,6.33,NaN,0,7.263053,12,17
226215,156640866,0.2166303,0.0007864237,0.2251492,0.2585996,6.550826,6.512743,6.17,NaN,0,7.273709,10,16
226624,156748045,0.2255584,0.001034886,0.2266456,0.2585996,6.556738,6.527036,6.61,NaN,0,7.280922,9,12
227067,156856663,0.2372023,0.001158804,0.2289554,0.2585996,6.562142,6.53931,6.91,NaN,0,7.285856,7,12
227479,156963405,0.2361594,0.001207843,0.2308783,0.2585996,6.56678,6.553805,6.87,NaN,0,7.293921,5,8
227923,157073234,0.2291577,0.001035973,0.2329301,0.2585996,6.57055,6.568236,6.8,NaN,0,7.299761,3,7
228368,157179256,0.2224937,0.0008081347,0.2292936,0.2585996,6.573373,6.58008,6.91,NaN,0,7.304181,1,5
228810,157286682,0.2360737,0.0008407831,0.2329146,0.2585996,6.575208,6.591899,6.79,NaN,0,7.308478,0,2
229220,157395033,0.2397007,0.0007725656,0.2319461,0.2585996,6.576034,6.602771,7.23,NaN,0,7.311834,-2,-1
229661,157504689,0.2324753,0.0006577224,0.2326844,0.2585996,6.575841,6.616261,6.79,NaN,0,7.318474,-4,-1
230107,157611048,0.2182391,0.0004810393,0.2260665,0.2585996,6.57461,6.626275,6.7,NaN,0,7.32188,-7,-1
230551,157720199,0.2357766,0.0006468743,0.2276166,0.2585996,6.572339,6.632184,6.82,NaN,0,7.320671,-8,-4
230998,157827109,0.2209705,0.0005865246,0.2274867,0.2585996,6.569114,6.632418,7.11,NaN,0,7.314131,-10,-5
231407,157936236,0.2251061,0.0005207211,0.22515,0.2585996,6.565084,6.636296,6.85,NaN,0,7.312805,-11,-7
231852,158044870,0.2380484,0.0003325045,0.2258223,0.2585996,6.560331,6.63974,6.32,NaN,0,7.310473,-13,-10
232299,158151417,0.2351656,0.0004428178,0.2333486,0.2585996,6.55493,6.63488,6.96,NaN,0,7.299914,-13,-13
232745,158263138,0.2514983,0.0007187426,0.2414568,0.2585996,6.548917,6.623475,7.35,NaN,0,7.282642,-13,-17
233191,158373151,0.2584227,0.0009225308999999999,0.2538781,0.2585996,6.542854,6.615272,7.4,NaN,0,7.267566,-13,-18
233631,158479692,0.2509769,0.0007342398,0.2562309,0.2585996,6.536771,6.607688,7.32,NaN,0,7.255122,-13,-19
234045,158586036,0.2493398,0.000547573,0.24976,0.2585996,6.530776,6.60706,7.48,NaN,0,7.247704,-13,-16
234485,158693468,0.2410076,0.000578776,0.2460124,0.2585996,6.525032,6.607412,7.45,NaN,0,7.241251,-14,-14
234932,158800317,0.2350128,0.0007653832,0.2375676,0.2585996,6.519187,6.61387,6.95,NaN,0,7.241261,-15,-12
235375,158909689,0.2281016,0.0009580255,0.2350425,0.2585996,6.51345,6.618724,6.62,NaN,0,7.241073,-16,-14
235821,159017873,0.2473949,0.001085773,0.2410531,0.2585996,6.507445,6.617641,6.9,NaN,0,7.234115,-17,-16
236264,159126772,0.2534561,0.0009324253,0.2468989,0.2585996,6.501382,6.608002,7.11,NaN,0,7.219593,-17,-16
236676,159232709,0.2382499,0.0006112605,0.2430687,0.2585996,6.49541,6.599861,7.14,NaN,0,7.2075,-16,-19
237118,159340083,0.2525696,0.0005019009,0.2452885,0.2585996,6.489806,6.592324,6.82,NaN,0,7.195095,-16,-16
237558,159450258,0.2476729,0.0005422533,0.243819,0.2585996,6.484354,6.584842,6.89,NaN,0,7.181974,-15,-15
238005,159558245,0.2453869,0.0009189695,0.2466483,0.2585996,6.479275,6.576301,6.76,NaN,0,7.168566,-14,-18
238446,159667014,0.2547494,0.001253933,0.2492612,0.2585996,6.47464,6.567334,6.93,NaN,0,7.155556,-13,-14
238892,159773989,0.2560646,0.0007962883,0.2501935,0.2585996,6.470525,6.557997,7.26,NaN,0,7.142175,-12,-14
239333,159881004,0.252682,0.0005865991,0.252885,0.2585996,6.466997,6.550435,7.28,NaN,0,7.13166,-11,-14
239748,159988413,0.2412546,0.0005918145,0.2461494,0.2585996,6.464064,6.549313,6.74,NaN,0,7.126494,-11,-13
240195,160097522,0.2443362,0.001139536,0.2442992,0.2585996,6.461653,6.548368,6.76,NaN,0,7.12336,-10,-11
240639,160204757,0.2509607,0.00173974,0.2484168,0.2585996,6.459693,6.54474,6.61,NaN,0,7.115772,-10,-11
241080,160312022,0.2479012,0.001980588,0.2500086,0.2585996,6.4582,6.538531,6.82,NaN,0,7.106359,-9,-10
241525,160420583,0.2557849,0.002128154,0.252676,0.2585996,6.457114,6.533948,6.83,NaN,0,7.098496,-8,-12
241932,160529414,0.2569953,0.002088308,0.2577791,0.2585996,6.456485,6.53078,6.56,NaN,0,7.092551,-7,-10
242379,160637018,0.2409362,0.001705423,0.2540098,0.2585996,6.45628,6.527552,6.72,NaN,0,7.085783,-7,-8
242822,160745487,0.2638651,0.001613647,0.2567532,0.2585996,6.456484,6.52155,6.77,NaN,0,7.076744,-6,-9
243262,160854186,0.2623797,0.0009729862,0.2646754,0.2585996,6.457123,6.514859,6.66,NaN,0,7.066437,-4,-11
243707,160960605,0.2734968,0.0002810359,0.2693041,0.2585996,6.458231,6.507944,6.61,NaN,0,7.056661,-3,-8
244121,161068648,0.2616354,9.572506e-05,0.2648999,0.2585996,6.459839,6.502144,6.97,NaN,0,7.047161,-2,-5
244567,161176644,0.2581617,0.0001909733,0.2589394,0.2585996,6.461953,6.501462,7.08,NaN,0,7.042946,-1,-2
245007,161285657,0.2384241,0.0002673417,0.251043,0.2585996,6.464498,6.5052,6.82,NaN,0,7.043998,-1,0
245453,161392892,0.2218767,0.0002623051,0.23619,0.2585996,6.467327,6.514955,6.77,NaN,0,7.050381,-1,5
245894,161501657,0.2408503,0.0003243834,0.2323639,0.2585996,6.470161,6.52633,6.59,NaN,0,7.057804,-2,6
246340,161609074,0.2522946,0.0005056560000000001,0.245467,0.2585996,6.472962,6.533448,6.34,NaN,0,7.06274,-3,1
246781,161718212,0.2345566,0.0006296337,0.2461186,0.2585996,6.475563,6.53333,7.31,NaN,0,7.061287,-3,-2
247227,161823123,0.2475924,0.0004853159,0.2486542,0.2585996,6.477978,6.536784,6.6,NaN,0,7.061964,-3,-3
247670,161930845,0.2485371,0.000267446,0.2504249,0.2585996,6.480199,6.537178,7.04,NaN,0,7.05968,-3,-4
248086,162036497,0.2499985,0.000194788,0.2517112,0.2585996,6.482244,6.538634,6.81,NaN,0,7.060221,-3,-3
248530,162146619,0.248326,0.0007817149,0.2540841,0.2585996,6.484127,6.540752,6.78,NaN,0,7.06066,-3,-5
248971,162255653,0.2556409,0.002551705,0.2549792,0.2585996,6.485839,6.542168,6.83,NaN,0,7.060657,-3,-5
249414,162362928,0.2530897,0.003829628,0.2561401,0.2585996,6.487386,6.542507,6.8,NaN,0,7.061087,-3,-3
249854,162469246,0.2567199,0.003190458,0.257916,0.2585996,6.488753,6.543032,6.9,NaN,0,7.061208,-4,-3
250301,162576618,0.2553788,0.001766801,0.2613077,0.2585996,6.49003,6.543089,6.74,NaN,0,7.062197,-4,-5
250710,162686231,0.2489011,0.0007386357,0.2542525,0.2585996,6.491194,6.542978,6.82,NaN,0,7.061582,-4,-4
251156,162794677,0.257744,0.000325948,0.251871,0.2585996,6.492269,6.543774,6.35,NaN,0,7.061973,-4,-2
251597,162902458,0.257435,0.0001108348,0.2568347,0.2585996,6.493262,6.541373,6.29,NaN,0,7.058565,-3,-5
252044,163008843,0.2647801,5.710125e-05,0.2623709,0.2585996,6.494228,6.533455,6.59,NaN,0,7.051486,-2,-6
252488,163118206,0.2694072,0.0001021028,0.2667047,0.2585996,6.495303,6.525914,6.43,NaN,0,7.043022,-1,-6
252934,163226649,0.2552216,0.0001880527,0.2648284,0.2585996,6.49659,6.520013,6.63,NaN,0,7.036618,0,-4
253344,163335681,0.2584816,0.0003082454,0.2607427,0.2585996,6.498151,6.514132,6.69,NaN,0,7.030234,0,-1
253788,163446225,0.2577357,0.0003190935,0.2569508,0.2585996,6.500082,6.512718,6.37,NaN,0,7.026804,0,0
254235,163553372,0.2552541,0.0003598332,0.2575307,0.2585996,6.502254,6.51202,6.32,NaN,0,7.025939,1,0
254675,163660376,0.2631975,0.0004440248,0.2595233,0.2585996,6.504675,6.510391,6.33,NaN,0,7.025737,2,3
255089,163766664,0.2663322,0.0005044639,0.2626552,0.2585996,6.507333,6.506093,6.63,NaN,0,7.021439,3,0
255529,163875078,0.2714211,0.0004836917,0.2671368,0.2585996,6.51025,6.503145,6.75,NaN,0,7.018323,3,0
255974,163983345,0.2524887,0.0003387332,0.2619195,0.2585996,6.513423,6.505087,6.66,NaN,0,7.020265,4,4
256387,164092930,0.2438692,0.0002505034,0.2506545,0.2585996,6.516779,6.513176,6.88,NaN,0,7.026591,3,7
256831,164200219,0.2324884,0.0001838356,0.2431585,0.2585996,6.520153,6.527051,6.74,NaN,0,7.040299,2,8
257272,164308498,0.2449436,0.000217706,0.2369943,0.2585996,6.523232,6.543564,6.13,NaN,0,7.055713,1,9
