LineNo,TimeUS,Instance,RPM,RawRPM,Volt,Curr,Temp,CTot,MotTemp,Err
1703,1.0145e+08,2,0,0,16.33,0.03,28,0,0,0
2173,1.0156e+08,2,0,0,16.33,0.03,27,0,0,0
2648,1.0167e+08,2,0,0,16.33,0.03,27,0,0,0
3104,1.0178e+08,2,0,0,16.33,0.03,27,0,0,0
3559,1.0189e+08,2,0,0,16.32,0.04,27,0,0,0
4017,1.0199e+08,2,0,0,16.33,0.03,28,0,0,0
4507,1.021e+08,2,0,0,16.32,0.03,27,0,0,0
4964,1.0221e+08,2,0,0,16.32,0.03,27,0,0,0
5419,1.0232e+08,2,0,0,16.32,0.03,28,0,0,0
5870,1.0242e+08,2,0,0,16.33,0.03,27,0,0,0
6355,1.0253e+08,2,0,0,16.32,0.03,28,0,0,0
6790,1.0264e+08,2,0,0,16.33,0.04,27,0,0,0
7235,1.0275e+08,2,0,0,16.32,0.03,27,0,0,0
7682,1.0285e+08,2,0,0,16.33,0.03,27,0,0,0
8181,1.0296e+08,2,19,314,16.32,0.05,28,0,0,0
8638,1.0307e+08,2,346,671,16.31,0.1,27,0,0,0
9091,1.0317e+08,2,688,1085,16.29,0.15,28,0,0,0
9545,1.0328e+08,2,1088,1257,16.31,0.11,28,0,0,0
9999,1.0339e+08,2,1257,1314,16.31,0.11,27,0,0,0
10488,1.035e+08,2,1315,1342,16.32,0.1,28,0,0,0
10943,1.036e+08,2,1342,1357,16.31,0.1,28,0,0,0
11353,1.0371e+08,2,1357,1357,16.31,0.1,28,0,0,0
11828,1.0382e+08,2,1357,1357,16.32,0.09,28,0,0,0
12316,1.0394e+08,2,1355,1342,16.31,0.1,28,0,0,0
12773,1.0404e+08,2,1342,1342,16.32,0.1,27,0,0,0
13264,1.0415e+08,2,1343,1357,16.32,0.1,28,0,0,0
13512,1.0425e+08,2,1356,1342,16.31,0.1,27,0,0,0
14008,1.0437e+08,2,1342,1342,16.32,0.1,28,0,0,0
14456,1.0447e+08,2,1342,1342,16.32,0.1,28,0,0,0
14954,1.0458e+08,2,1343,1357,16.32,0.1,27,0,0,0
15411,1.0469e+08,2,1357,1357,16.31,0.1,28,0,0,0
15863,1.0479e+08,2,1356,1342,16.32,0.1,28,0,0,0
16305,1.049e+08,2,1342,1357,16.32,0.1,27,0,0,0
16781,1.0501e+08,2,1356,1342,16.32,0.1,28,0,0,0
17232,1.0512e+08,2,1342,1342,16.32,0.1,28,0,0,0
17722,1.0523e+08,2,1342,1342,16.31,0.1,28,0,0,0
18169,1.0533e+08,2,1342,1342,16.31,0.1,28,0,0,0
18666,1.0545e+08,2,1343,1357,16.31,0.1,28,0,0,0
19124,1.0556e+08,2,1357,1357,16.3,0.1,28,0,0,0
19582,1.0567e+08,2,1357,1357,16.31,0.1,28,0,0,0
20038,1.0577e+08,2,1357,1357,16.32,0.1,28,0,0,0
20493,1.0588e+08,2,1357,1357,16.31,0.1,28,0,0,0
20949,1.0598e+08,2,1357,1357,16.31,0.1,28,0,0,0
21396,1.0609e+08,2,1357,1357,16.31,0.1,28,0,0,0
21834,1.062e+08,2,1363,1457,16.3,0.18,28,0,0,0
22280,1.0631e+08,2,1490,1985,16.23,0.57,28,0,0,0
22733,1.0641e+08,2,1993,2485,16.23,0.54,28,0,0,0
23608,1.0663e+08,2,2498,3100,16.04,1.01,28,0,0,0
24103,1.0674e+08,2,3140,3585,16.04,1.6,28,0,0,0
24557,1.0685e+08,2,3645,4200,15.91,2.43,28,0,0,0
24979,1.0696e+08,2,4270,5014,15.91,2.45,28,0,0,0
25428,1.0706e+08,2,5055,5614,15.69,3.34,28,0,0,0
26301,1.0728e+08,2,5634,6228,15.8,3.58,28,1,0,0
26731,1.0739e+08,2,6230,6285,15.8,3.66,28,1,0,0
27173,1.0749e+08,2,6287,6328,15.81,3.91,28,1,0,0
27673,1.0761e+08,2,6326,6314,15.81,3.89,28,1,0,0
28082,1.0771e+08,2,6319,6428,15.79,4.35,28,1,0,0
28579,1.0783e+08,2,6438,6585,15.79,4.2,28,1,0,0
29031,1.0794e+08,2,6592,6671,15.85,4.56,28,1,0,0
29487,1.0804e+08,2,6669,6657,15.84,4.66,28,2,0,0
29940,1.0815e+08,2,6661,6700,15.75,4.45,28,2,0,0
30391,1.0826e+08,2,6692,6600,15.75,4.04,28,2,0,0
31297,1.0848e+08,2,6582,6214,15.79,3.6,28,2,0,0
31751,1.0859e+08,2,6219,6385,15.79,3.77,28,2,0,0
32192,1.0869e+08,2,6377,6242,15.77,3.59,28,2,0,0
32665,1.0881e+08,2,6228,6085,15.79,3.26,28,2,0,0
33063,1.0891e+08,2,6081,5885,15.79,3.31,28,3,0,0
33561,1.0903e+08,2,5887,5914,15.79,3.16,28,3,0,0
34052,1.0914e+08,2,5938,6200,15.82,3.37,28,3,0,0
34962,1.0936e+08,2,6200,6214,15.73,3.69,28,3,0,0
35376,1.0946e+08,2,6221,6314,15.74,3.72,28,3,0,0
35828,1.0957e+08,2,6312,6228,15.79,3.4,28,3,0,0
36279,1.0968e+08,2,6224,6085,15.77,3.4,28,3,0,0
36731,1.0979e+08,2,6085,6085,15.86,3.36,29,3,0,0
37175,1.099e+08,2,6082,6028,15.8,3.29,29,4,0,0
37615,1.1e+08,2,6030,6128,15.73,3.74,29,4,0,0
38472,1.1022e+08,2,6134,6442,15.76,3.47,29,4,0,0
38968,1.1033e+08,2,6430,6200,15.77,3.56,29,4,0,0
39422,1.1045e+08,2,6198,6185,15.81,3.53,29,4,0,0
39824,1.1055e+08,2,6188,6228,15.77,3.71,29,4,0,0
40274,1.1066e+08,2,6231,6300,15.75,3.85,29,4,0,0
40694,1.1076e+08,2,6316,6514,15.8,3.79,29,4,0,0
41120,1.1087e+08,2,6483,6242,15.74,3.77,29,5,0,0
41569,1.1098e+08,2,6244,6328,15.73,3.84,29,5,0,0
42456,1.112e+08,2,6327,6271,15.74,3.4,29,5,0,0
42941,1.1131e+08,2,6273,6300,15.79,3.46,29,5,0,0
43391,1.1142e+08,2,6296,6257,15.72,3.13,29,5,0,0
43801,1.1153e+08,2,6240,6085,15.72,3.24,29,5,0,0
44246,1.1163e+08,2,6083,6071,15.66,3.45,29,5,0,0
44653,1.1174e+08,2,6072,6100,15.76,3.24,29,5,0,0
45101,1.1185e+08,2,6086,5914,15.76,3.27,29,5,0,0
45505,1.1195e+08,2,5924,6300,15.73,3.6,29,6,0,0
46439,1.1218e+08,2,6297,6242,15.68,3.7,29,6,0,0
46879,1.1229e+08,2,6240,6228,15.65,3.86,29,6,0,0
47284,1.1239e+08,2,6223,6171,15.72,3.56,29,6,0,0
48153,1.1261e+08,2,6170,6157,15.76,3.58,29,6,0,0
48591,1.1272e+08,2,6165,6257,15.79,3.4,29,6,0,0
48998,1.1282e+08,2,6248,6085,15.76,3.32,29,6,0,0
49443,1.1293e+08,2,6083,6057,15.77,3.39,29,6,0,0
49895,1.1304e+08,2,6055,6014,15.8,3.14,29,7,0,0
50340,1.1315e+08,2,6002,5842,15.82,2.84,29,7,0,0
50784,1.1326e+08,2,5838,5800,15.74,2.81,29,7,0,0
51187,1.1336e+08,2,5809,5985,15.77,2.94,29,7,0,0
51637,1.1347e+08,2,5977,5885,15.76,2.94,29,7,0,0
52050,1.1357e+08,2,5883,5857,15.79,2.74,29,7,0,0
52457,1.1368e+08,2,5869,6085,15.7,3.32,29,7,0,0
52912,1.1379e+08,2,6084,6071,15.73,3.23,29,7,0,0
53359,1.1391e+08,2,6082,6200,15.7,3.35,29,7,0,0
53766,1.1401e+08,2,6198,6100,15.71,3.28,29,7,0,0
54213,1.1412e+08,2,6099,6071,15.74,3.14,29,8,0,0
54660,1.1423e+08,2,6069,5971,15.71,3.15,29,8,0,0
55109,1.1434e+08,2,5980,6114,15.71,3.08,29,8,0,0
55558,1.1444e+08,2,6103,5900,15.73,3.07,29,8,0,0
56411,1.1466e+08,2,5908,6085,15.63,3.42,30,8,0,0
57272,1.1488e+08,2,6090,6328,15.67,3.75,30,8,0,0
57721,1.1499e+08,2,6326,6257,15.64,3.78,29,8,0,0
58163,1.1509e+08,2,6258,6300,15.67,3.59,30,8,0,0
58658,1.1521e+08,2,6307,6385,15.72,3.7,30,9,0,0
59105,1.1532e+08,2,6374,6271,15.73,3.55,30,9,0,0
59516,1.1542e+08,2,6268,6228,15.66,3.41,30,9,0,0
59961,1.1554e+08,2,6236,6414,15.64,3.52,30,9,0,0
60412,1.1565e+08,2,6424,6514,15.64,3.79,30,9,0,0
60815,1.1575e+08,2,6514,6514,15.67,3.59,30,9,0,0
61258,1.1586e+08,2,6513,6442,15.7,3.56,30,9,0,0
61743,1.1597e+08,2,6442,6442,15.68,3.68,30,9,0,0
62194,1.1609e+08,2,6450,6542,15.62,3.75,30,9,0,0
62643,1.1619e+08,2,6532,6442,15.64,3.71,30,10,0,0
63084,1.163e+08,2,6455,6628,15.68,4.11,30,10,0,0
63536,1.1641e+08,2,6621,6485,15.63,3.78,30,10,0,0
63984,1.1652e+08,2,6472,6342,15.69,3.67,30,10,0,0
64389,1.1662e+08,2,6343,6428,15.63,3.86,30,10,0,0
64836,1.1673e+08,2,6428,6428,15.67,3.63,30,10,0,0
65292,1.1685e+08,2,6433,6485,15.58,3.96,30,10,0,0
65696,1.1695e+08,2,6483,6400,15.6,3.97,30,10,0,0
66182,1.1707e+08,2,6391,6300,15.6,3.68,30,11,0,0
66633,1.1718e+08,2,6316,6485,15.67,3.57,30,11,0,0
67078,1.1729e+08,2,6460,6200,15.61,3.6,30,11,0,0
67486,1.1739e+08,2,6206,6285,15.67,3.87,30,11,0,0
67931,1.175e+08,2,6274,6128,15.69,3.42,30,11,0,0
68379,1.1761e+08,2,6141,6285,15.65,3.29,30,11,0,0
68823,1.1772e+08,2,6267,6000,15.72,3.08,30,11,0,0
69272,1.1783e+08,2,5996,5942,15.67,3.39,30,11,0,0
69721,1.1794e+08,2,5963,6171,15.6,3.56,30,11,0,0
70127,1.1804e+08,2,6170,6128,15.66,3.49,30,12,0,0
70575,1.1816e+08,2,6128,6128,15.61,3.45,30,12,0,0
70985,1.1827e+08,2,6127,6085,15.66,3.42,30,12,0,0
71434,1.1837e+08,2,6083,6057,15.56,3.71,30,12,0,0
71913,1.1849e+08,2,6091,6314,15.6,3.84,30,12,0,0
72362,1.186e+08,2,6312,6300,15.58,3.82,30,12,0,0
72807,1.1871e+08,2,6297,6271,15.63,3.87,30,12,0,0
73215,1.1881e+08,2,6279,6371,15.64,3.67,30,12,0,0
73667,1.1893e+08,2,6355,6271,15.63,3.56,30,12,0,0
74077,1.1902e+08,2,6271,6300,15.57,3.51,30,13,0,0
74555,1.1914e+08,2,6300,6357,15.63,3.68,30,13,0,0
75009,1.1926e+08,2,6342,6257,15.66,3.47,30,13,0,0
75410,1.1936e+08,2,6262,6314,15.68,3.2,30,13,0,0
75822,1.1946e+08,2,6309,6028,15.69,3.52,30,13,0,0
76303,1.1958e+08,2,6029,6042,15.63,3.61,30,13,0,0
77165,1.1979e+08,2,6045,6142,15.57,3.66,30,13,0,0
77609,1.199e+08,2,6139,6114,15.58,3.41,30,13,0,0
78058,1.2001e+08,2,6112,6100,15.63,3.01,30,13,0,0
78984,1.2024e+08,2,6090,5957,15.67,3.08,30,14,0,0
79391,1.2034e+08,2,5957,5971,15.63,3.18,30,14,0,0
79845,1.2045e+08,2,5958,5871,15.63,3.11,30,14,0,0
80281,1.2055e+08,2,5876,5971,15.66,3.16,30,14,0,0
80732,1.2067e+08,2,5971,5985,15.66,3.46,30,14,0,0
81175,1.2077e+08,2,5996,6142,15.57,3.24,30,14,0,0
81626,1.2089e+08,2,6140,6128,15.61,3.38,30,14,0,0
82077,1.21e+08,2,6116,6000,15.59,2.97,30,14,0,0
82509,1.211e+08,2,5997,5900,15.64,2.72,30,14,0,0
82965,1.2121e+08,2,5903,5971,15.65,3.06,30,15,0,0
83857,1.2143e+08,2,5964,5828,15.6,3.03,30,15,0,0
84261,1.2153e+08,2,5827,5814,15.64,2.98,30,15,0,0
84748,1.2165e+08,2,5805,5728,15.57,3.03,30,15,0,0
85153,1.2175e+08,2,5729,5828,15.63,2.96,30,15,0,0
85642,1.2187e+08,2,5829,5842,15.63,2.79,30,15,0,0
86086,1.2198e+08,2,5821,5657,15.6,2.91,30,15,0,0
86487,1.2208e+08,2,5673,5857,15.58,2.94,30,15,0,0
86934,1.2219e+08,2,5855,5842,15.61,2.83,30,15,0,0
87340,1.2229e+08,2,5841,5785,15.54,3.03,30,15,0,0
87790,1.224e+08,2,5786,5871,15.58,2.88,30,16,0,0
88279,1.2252e+08,2,5858,5728,15.61,2.89,30,16,0,0
88684,1.2262e+08,2,5730,5857,15.61,3.16,30,16,0,0
89167,1.2273e+08,2,5861,5928,15.55,3.14,30,16,0,0
89576,1.2283e+08,2,5928,5971,15.53,3.09,30,16,0,0
90023,1.2294e+08,2,5965,5857,15.6,3.07,30,16,0,0
90478,1.2306e+08,2,5855,5842,15.57,2.96,30,16,0,0
90925,1.2317e+08,2,5844,5871,15.67,2.99,30,16,0,0
91370,1.2328e+08,2,5871,5871,15.66,2.81,30,16,0,0
91811,1.2338e+08,2,5857,5600,15.61,2.52,30,16,0,0
92257,1.2349e+08,2,5602,5628,15.6,2.49,30,16,0,0
92713,1.2361e+08,2,5635,5714,15.65,2.63,30,17,0,0
93157,1.2372e+08,2,5704,5600,15.61,2.63,30,17,0,0
93607,1.2383e+08,2,5601,5614,15.57,2.17,30,17,0,0
94011,1.2393e+08,2,5608,5357,15.6,2.34,30,17,0,0
94503,1.2405e+08,2,5371,5514,15.62,2.59,30,17,0,0
94907,1.2415e+08,2,5517,5728,15.63,2.65,30,17,0,0
95389,1.2427e+08,2,5705,5514,15.58,2.84,30,17,0,0
95811,1.2438e+08,2,5522,5742,15.58,2.35,30,17,0,0
96248,1.2448e+08,2,5739,5628,15.58,2.69,30,17,0,0
96664,1.2459e+08,2,5628,5685,15.65,2.64,30,17,0,0
97144,1.247e+08,2,5681,5600,15.68,2.48,30,17,0,0
97639,1.2482e+08,2,5609,5742,15.62,2.57,30,17,0,0
98039,1.2492e+08,2,5744,5857,15.66,2.98,30,17,0,0
98538,1.2504e+08,2,5854,5828,15.6,2.8,30,18,0,0
98945,1.2514e+08,2,5830,5857,15.59,2.68,30,18,0,0
99392,1.2526e+08,2,5853,5828,15.61,2.55,30,18,0,0
99794,1.2535e+08,2,5825,5771,15.63,2.58,30,18,0,0
1.002e+05,1.2546e+08,2,5772,5828,15.62,2.35,30,18,0,0
1.007e+05,1.2558e+08,2,5833,5885,15.63,2.71,30,18,0,0
1.0114e+05,1.2569e+08,2,5886,5900,15.6,2.84,30,18,0,0
1.0159e+05,1.258e+08,2,5894,5842,15.62,2.77,30,18,0,0
1.02e+05,1.259e+08,2,5845,5914,15.58,3.02,30,18,0,0
1.0245e+05,1.2601e+08,2,5917,6000,15.54,3.01,30,18,0,0
1.0335e+05,1.2624e+08,2,5981,5585,15.54,2.84,30,18,0,0
1.0379e+05,1.2634e+08,2,5591,5728,15.6,2.84,30,18,0,0
1.0424e+05,1.2645e+08,2,5733,5857,15.6,2.98,30,19,0,0
1.0468e+05,1.2656e+08,2,5854,5828,15.57,3.07,30,19,0,0
1.0488e+05,1.2667e+08,2,5832,5885,15.61,3.11,30,19,0,0
1.0533e+05,1.2678e+08,2,5889,5957,15.59,3.06,30,19,0,0
1.0575e+05,1.2689e+08,2,5970,6100,15.55,3.31,30,19,0,0
1.066e+05,1.271e+08,2,6102,6200,15.6,3.37,30,19,0,0
1.0705e+05,1.2721e+08,2,6205,6257,15.52,3.53,30,19,0,0
1.0749e+05,1.2732e+08,2,6262,6342,15.58,3.6,30,19,0,0
1.0794e+05,1.2743e+08,2,6358,6485,15.58,3.91,30,19,0,0
1.0835e+05,1.2754e+08,2,6484,6471,15.53,3.86,30,20,0,0
1.0924e+05,1.2776e+08,2,6463,6314,15.58,3.29,30,20,0,0
1.0969e+05,1.2787e+08,2,6310,6271,15.58,3.36,30,20,0,0
1.1013e+05,1.2797e+08,2,6259,6100,15.57,3.17,30,20,0,0
1.1054e+05,1.2808e+08,2,6100,6100,15.61,3.02,30,20,0,0
1.1099e+05,1.2819e+08,2,6097,6057,15.61,3.19,30,20,0,0
1.1144e+05,1.283e+08,2,6041,5842,15.53,3.12,30,20,0,0
1.1185e+05,1.284e+08,2,5847,5957,15.63,3.09,30,20,0,0
1.123e+05,1.2852e+08,2,5955,5914,15.57,3.05,30,20,0,0
1.1274e+05,1.2862e+08,2,5907,5742,15.62,3.15,30,21,0,0
1.1318e+05,1.2873e+08,2,5754,5871,15.54,3.22,30,21,0,0
1.1363e+05,1.2884e+08,2,5884,6014,15.57,3.1,30,21,0,0
1.1404e+05,1.2894e+08,2,6009,5771,15.6,3,30,21,0,0
1.1448e+05,1.2905e+08,2,5770,5757,15.57,2.83,30,21,0,0
1.1493e+05,1.2916e+08,2,5755,5728,15.57,2.72,30,21,0,0
1.1534e+05,1.2927e+08,2,5738,5885,15.6,3.18,30,21,0,0
1.1579e+05,1.2938e+08,2,5882,5714,15.61,2.97,30,21,0,0
1.1628e+05,1.295e+08,2,5738,5985,15.59,3.31,30,21,0,0
1.1668e+05,1.2959e+08,2,5989,6157,15.57,3.5,30,21,0,0
1.1713e+05,1.2971e+08,2,6154,6128,15.56,3.6,30,22,0,0
1.1754e+05,1.2981e+08,2,6126,6028,15.55,3.41,30,22,0,0
1.1844e+05,1.3003e+08,2,6027,6014,15.55,3.44,30,22,0,0
1.1888e+05,1.3014e+08,2,6018,6085,15.58,3.54,30,22,0,0
1.1933e+05,1.3025e+08,2,6086,6114,15.5,3.35,30,22,0,0
1.1978e+05,1.3036e+08,2,6112,6071,15.59,3.33,30,22,0,0
1.2019e+05,1.3046e+08,2,6070,6000,15.54,3.24,30,22,0,0
1.2064e+05,1.3057e+08,2,6003,6071,15.52,3.34,30,22,0,0
1.2108e+05,1.3068e+08,2,6071,6085,15.56,3.36,30,22,0,0
1.2157e+05,1.308e+08,2,6076,6000,15.53,3.09,30,23,0,0
1.2198e+05,1.3091e+08,2,6002,6057,15.58,3.18,30,23,0,0
1.2246e+05,1.3102e+08,2,6066,6128,15.53,3.22,30,23,0,0
1.2287e+05,1.3112e+08,2,6123,6014,15.59,3.21,30,23,0,0
1.2332e+05,1.3123e+08,2,6015,6100,15.53,3.28,30,23,0,0
1.2376e+05,1.3134e+08,2,6103,6185,15.48,3.59,30,23,0,0
1.2421e+05,1.3145e+08,2,6191,6328,15.56,3.62,30,23,0,0
1.2466e+05,1.3156e+08,2,6329,6414,15.58,3.76,30,23,0,0
1.2509e+05,1.3167e+08,2,6415,6442,15.51,3.8,30,23,0,0
1.2555e+05,1.3178e+08,2,6438,6371,15.56,3.93,30,24,0,0
1.26e+05,1.319e+08,2,6384,6542,15.48,3.74,30,24,0,0
1.269e+05,1.3212e+08,2,6516,6114,15.52,3.09,30,24,0,0
1.2731e+05,1.3222e+08,2,6118,6185,15.53,3.32,30,24,0,0
1.2776e+05,1.3234e+08,2,6178,6100,15.53,3.27,30,24,0,0
1.282e+05,1.3244e+08,2,6101,6185,15.55,3.18,30,24,0,0
1.2865e+05,1.3255e+08,2,6195,6314,15.52,3.61,30,24,0,0
1.291e+05,1.3267e+08,2,6315,6328,15.52,3.77,30,24,0,0
1.2951e+05,1.3277e+08,2,6339,6485,15.57,4,30,25,0,0
1.2995e+05,1.3288e+08,2,6481,6400,15.55,3.76,30,25,0,0
1.304e+05,1.3298e+08,2,6395,6300,15.57,3.29,30,25,0,0
1.3084e+05,1.3309e+08,2,6296,6214,15.61,3.06,30,25,0,0
1.3134e+05,1.3321e+08,2,6219,6271,15.53,3.22,30,25,0,0
1.3174e+05,1.3332e+08,2,6266,6200,15.59,2.94,30,25,0,0
1.3219e+05,1.3342e+08,2,6186,6042,15.57,3.11,30,25,0,0
1.3259e+05,1.3353e+08,2,6037,5857,15.52,3,30,25,0,0
1.3305e+05,1.3364e+08,2,5865,5957,15.54,2.94,30,25,0,0
1.3439e+05,1.3397e+08,2,5960,6100,15.54,3.15,30,26,0,0
1.348e+05,1.3407e+08,2,6098,6014,15.5,3.14,30,26,0,0
1.3524e+05,1.3419e+08,2,6021,6171,15.52,3.36,30,26,0,0
1.3569e+05,1.343e+08,2,6159,6000,15.53,3.15,30,26,0,0
1.3614e+05,1.3441e+08,2,6000,6014,15.5,3.22,30,26,0,0
1.3659e+05,1.3452e+08,2,6018,6085,15.55,3.14,30,26,0,0
1.3704e+05,1.3463e+08,2,6080,6028,15.52,3.02,30,26,0,0
1.3747e+05,1.3473e+08,2,6029,6142,15.52,3.36,30,26,0,0
1.3792e+05,1.3485e+08,2,6142,6142,15.54,3.41,30,26,0,0
1.3841e+05,1.3496e+08,2,6150,6228,15.52,3.35,30,26,0,0
1.3881e+05,1.3506e+08,2,6218,6100,15.52,3.36,30,27,0,0
1.3926e+05,1.3517e+08,2,6097,6071,15.58,3.44,30,27,0,0
1.3971e+05,1.3528e+08,2,6068,6042,15.53,3.54,30,27,0,0
1.4016e+05,1.3539e+08,2,6043,6057,15.52,3.65,30,27,0,0
1.4061e+05,1.355e+08,2,6072,6228,15.5,3.42,30,27,0,0
1.4106e+05,1.3561e+08,2,6220,6142,15.52,3.48,30,27,0,0
1.4146e+05,1.3572e+08,2,6144,6285,15.54,3.21,30,27,0,0
1.4196e+05,1.3583e+08,2,6277,6200,15.48,3.4,30,27,0,0
1.424e+05,1.3594e+08,2,6193,6128,15.54,3.73,30,27,0,0
1.4285e+05,1.3605e+08,2,6142,6285,15.52,3.92,30,28,0,0
1.433e+05,1.3616e+08,2,6288,6400,15.5,3.99,30,28,0,0
1.4375e+05,1.3627e+08,2,6408,6528,15.47,4.3,30,28,0,0
1.4416e+05,1.3638e+08,2,6527,6514,15.49,4.22,30,28,0,0
1.4464e+05,1.365e+08,2,6514,6514,15.47,4.2,30,28,0,0
1.451e+05,1.366e+08,2,6512,6500,15.51,4,30,28,0,0
1.4554e+05,1.3671e+08,2,6488,6371,15.58,3.76,30,28,0,0
1.4595e+05,1.3681e+08,2,6369,6328,15.55,3.51,30,28,0,0
1.464e+05,1.3693e+08,2,6331,6371,15.6,3.42,30,29,0,0
1.4681e+05,1.3703e+08,2,6348,6057,15.57,3.31,30,29,0,0
1.4725e+05,1.3714e+08,2,6059,6100,15.55,3.21,30,29,0,0
1.4771e+05,1.3725e+08,2,6084,5985,15.51,3.24,30,29,0,0
1.4815e+05,1.3736e+08,2,5975,5871,15.53,2.98,30,29,0,0
1.4856e+05,1.3746e+08,2,5868,5828,15.57,3.01,30,29,0,0
1.4901e+05,1.3757e+08,2,5834,5985,15.54,3.36,30,29,0,0
1.4945e+05,1.3768e+08,2,5988,6057,15.5,2.93,30,29,0,0
1.499e+05,1.3779e+08,2,6047,5914,15.52,2.74,30,29,0,0
1.5035e+05,1.379e+08,2,5919,6000,15.5,2.96,30,29,0,0
1.508e+05,1.3801e+08,2,6003,6057,15.51,3.18,30,29,0,0
1.5124e+05,1.3812e+08,2,6058,6085,15.6,3.48,30,30,0,0
1.5169e+05,1.3823e+08,2,6098,6271,15.56,3.54,30,30,0,0
1.5214e+05,1.3834e+08,2,6262,6185,15.51,3.37,30,30,0,0
1.5258e+05,1.3845e+08,2,6178,6028,15.48,3.27,30,30,0,0
1.5303e+05,1.3856e+08,2,6033,6100,15.55,3.53,30,30,0,0
1.5348e+05,1.3867e+08,2,6097,6057,15.52,3.49,30,30,0,0
1.5389e+05,1.3877e+08,2,6056,6028,15.48,3.35,30,30,0,0
1.5433e+05,1.3888e+08,2,6032,6128,15.51,3.34,30,30,0,0
1.5478e+05,1.3899e+08,2,6127,6085,15.49,3.46,30,30,0,0
1.5523e+05,1.3911e+08,2,6085,6085,15.55,3.46,30,31,0,0
1.5571e+05,1.3922e+08,2,6085,6085,15.51,3.38,30,31,0,0
1.5612e+05,1.3932e+08,2,6078,6014,15.5,3.33,30,31,0,0
1.5657e+05,1.3943e+08,2,6015,6028,15.53,3.57,30,31,0,0
1.5698e+05,1.3953e+08,2,6034,6100,15.54,3.33,30,31,0,0
1.5788e+05,1.3975e+08,2,6100,6185,15.57,3.52,30,31,0,0
1.5832e+05,1.3986e+08,2,6172,6028,15.52,3.68,30,31,0,0
1.588e+05,1.3998e+08,2,6036,6157,15.52,3.6,30,31,0,0
1.5926e+05,1.4009e+08,2,6157,6157,15.49,3.51,30,31,0,0
1.5966e+05,1.4019e+08,2,6155,6014,15.5,3.51,30,32,0,0
1.6011e+05,1.403e+08,2,6025,6142,15.5,3.48,30,32,0,0
1.6055e+05,1.404e+08,2,6142,6157,15.53,3.6,30,32,0,0
1.61e+05,1.4051e+08,2,6161,6257,15.52,3.5,30,32,0,0
1.6145e+05,1.4063e+08,2,6255,6242,15.47,3.95,30,32,0,0
1.6186e+05,1.4073e+08,2,6244,6400,15.44,3.91,30,32,0,0
1.6231e+05,1.4084e+08,2,6395,6342,15.5,3.75,30,32,0,0
1.6276e+05,1.4095e+08,2,6343,6371,15.52,3.74,30,32,0,0
1.632e+05,1.4106e+08,2,6370,6328,15.5,3.62,30,32,0,0
1.6364e+05,1.4117e+08,2,6319,6200,15.51,3.64,30,32,0,0
1.6412e+05,1.4128e+08,2,6201,6214,15.55,3.59,30,33,0,0
1.6454e+05,1.4139e+08,2,6203,6100,15.52,3.21,30,33,0,0
1.6546e+05,1.4161e+08,2,6098,6071,15.45,3.45,30,33,0,0
1.6587e+05,1.4171e+08,2,6076,6200,15.51,3.35,30,33,0,0
1.6631e+05,1.4182e+08,2,6200,6214,15.57,3.67,30,33,0,0
1.6672e+05,1.4193e+08,2,6212,6100,15.47,3.55,30,33,0,0
1.6721e+05,1.4204e+08,2,6110,6257,15.47,3.5,30,33,0,0
1.6766e+05,1.4216e+08,2,6244,6114,15.48,3.42,30,33,0,0
1.681e+05,1.4227e+08,2,6110,6057,15.5,3.39,30,34,0,0
1.6851e+05,1.4236e+08,2,6058,6128,15.45,3.21,30,34,0,0
1.6895e+05,1.4247e+08,2,6128,6142,15.52,3.36,30,34,0,0
1.6944e+05,1.4259e+08,2,6136,6057,15.48,3.33,30,34,0,0
1.6985e+05,1.427e+08,2,6065,6171,15.51,3.33,30,34,0,0
1.703e+05,1.428e+08,2,6165,6085,15.54,3.57,30,34,0,0
1.7074e+05,1.4292e+08,2,6103,6285,15.49,3.58,30,34,0,0
1.7114e+05,1.4301e+08,2,6284,6228,15.48,3.5,30,34,0,0
1.7158e+05,1.4312e+08,2,6230,6328,15.52,3.38,30,34,0,0
1.7204e+05,1.4323e+08,2,6325,6185,15.5,3.54,30,35,0,0
1.7248e+05,1.4335e+08,2,6172,6042,15.47,3.43,30,35,0,0
1.7337e+05,1.4357e+08,2,6052,6271,15.41,3.6,30,35,0,0
1.7378e+05,1.4367e+08,2,6263,6157,15.46,3.52,30,35,0,0
1.7423e+05,1.4378e+08,2,6158,6185,15.47,3.55,30,35,0,0
1.7464e+05,1.4388e+08,2,6185,6185,15.48,3.55,30,35,0,0
1.7509e+05,1.4399e+08,2,6179,6100,15.47,3.5,30,35,0,0
1.7598e+05,1.4421e+08,2,6101,6128,15.48,3.49,30,35,0,0
1.7638e+05,1.4431e+08,2,6126,6100,15.42,3.72,30,36,0,0
1.7683e+05,1.4442e+08,2,6120,6400,15.5,3.76,30,36,0,0
1.7727e+05,1.4453e+08,2,6385,6242,15.5,3.34,30,36,0,0
1.7812e+05,1.4474e+08,2,6241,6157,15.44,3.76,30,36,0,0
1.7901e+05,1.4496e+08,2,6160,6257,15.45,3.74,30,36,0,0
1.7946e+05,1.4507e+08,2,6253,6200,15.45,3.75,30,36,0,0
1.7991e+05,1.4518e+08,2,6201,6228,15.44,3.77,30,37,0,0
1.8035e+05,1.4529e+08,2,6234,6300,15.45,3.87,30,37,0,0
1.8079e+05,1.454e+08,2,6300,6300,15.47,3.86,30,37,0,0
1.8124e+05,1.4551e+08,2,6316,6485,15.48,3.7,30,37,0,0
1.8168e+05,1.4562e+08,2,6469,6271,15.44,3.84,30,37,0,0
1.821e+05,1.4573e+08,2,6276,6357,15.48,3.65,30,37,0,0
1.8255e+05,1.4584e+08,2,6353,6285,15.43,3.64,30,37,0,0
1.8299e+05,1.4595e+08,2,6278,6157,15.42,3.6,30,37,0,0
1.8344e+05,1.4606e+08,2,6172,6428,15.44,3.78,30,37,0,0
1.8389e+05,1.4617e+08,2,6416,6271,15.44,3.95,30,38,0,0
1.8429e+05,1.4627e+08,2,6268,6214,15.44,3.94,30,38,0,0
1.8474e+05,1.4638e+08,2,6218,6400,15.45,3.75,30,38,0,0
1.8518e+05,1.4649e+08,2,6398,6371,15.48,3.75,30,38,0,0
1.8563e+05,1.466e+08,2,6364,6128,15.44,3.46,30,38,0,0
1.8608e+05,1.4671e+08,2,6122,6071,15.5,3.16,30,38,0,0
1.8693e+05,1.4692e+08,2,6070,6057,15.45,3.3,30,38,0,0
1.8742e+05,1.4704e+08,2,6062,6114,15.49,3.13,30,38,0,0
1.8783e+05,1.4714e+08,2,6096,5928,15.44,3.16,30,39,0,0
1.8827e+05,1.4725e+08,2,5927,5914,15.42,3.02,30,39,0,0
1.8871e+05,1.4736e+08,2,5917,5957,15.45,3.07,30,39,0,0
1.8916e+05,1.4747e+08,2,5948,5828,15.42,3.13,30,39,0,0
1.8957e+05,1.4757e+08,2,5838,6014,15.5,3.08,30,39,0,0
1.9002e+05,1.4769e+08,2,6005,5914,15.47,3.26,30,39,0,0
1.9046e+05,1.4779e+08,2,5926,6085,15.43,3.36,30,39,0,0
1.9092e+05,1.4791e+08,2,6074,5971,15.45,2.92,30,39,0,0
1.9137e+05,1.4802e+08,2,5978,6057,15.45,3.51,30,39,0,0
1.9178e+05,1.4812e+08,2,6060,6100,15.36,4.08,30,39,0,0
1.9262e+05,1.4834e+08,2,6102,6442,15.39,4.14,30,40,0,0
1.931e+05,1.4845e+08,2,6440,6428,15.33,4.15,30,40,0,0
1.9351e+05,1.4856e+08,2,6428,6485,15.39,4.28,30,40,0,0
1.9395e+05,1.4866e+08,2,6486,6514,15.37,4.01,30,40,0,0
1.944e+05,1.4877e+08,2,6510,6414,15.36,3.94,30,40,0,0
1.9485e+05,1.4889e+08,2,6415,6457,15.38,3.92,30,40,0,0
1.9574e+05,1.491e+08,2,6452,6257,15.38,4.22,30,41,0,0
1.9619e+05,1.4921e+08,2,6260,6314,15.39,3.63,30,41,0,0
1.9664e+05,1.4932e+08,2,6310,6271,15.41,3.55,30,41,0,0
1.9712e+05,1.4944e+08,2,6273,6300,15.39,3.83,30,41,0,0
1.9756e+05,1.4954e+08,2,6302,6342,15.41,4.03,30,41,0,0
1.9801e+05,1.4965e+08,2,6355,6500,15.36,4.04,30,41,0,0
1.9845e+05,1.4976e+08,2,6479,6271,15.42,3.57,30,41,0,0
1.9882e+05,1.4986e+08,2,6269,6242,15.42,3.37,30,41,0,0
1.993e+05,1.4998e+08,2,6239,6214,15.42,3.53,30,41,0,0
1.9975e+05,1.5009e+08,2,6235,6442,15.47,3.66,30,42,0,0
2.002e+05,1.502e+08,2,6429,6300,15.44,3.39,30,42,0,0
2.0065e+05,1.5031e+08,2,6302,6328,15.48,3.48,30,42,0,0
2.015e+05,1.5052e+08,2,6325,6271,15.44,3.34,30,42,0,0
2.0191e+05,1.5063e+08,2,6271,6314,15.4,3.59,30,42,0,0
2.0235e+05,1.5073e+08,2,6315,6357,15.46,3.43,30,42,0,0
2.028e+05,1.5085e+08,2,6345,6271,15.45,3.26,30,42,0,0
2.0324e+05,1.5095e+08,2,6262,6142,15.39,3.07,30,42,0,0
2.0369e+05,1.5107e+08,2,6136,6100,15.41,3.11,30,42,0,0
2.0413e+05,1.5117e+08,2,6101,6128,15.46,2.89,30,43,0,0
2.0457e+05,1.5128e+08,2,6113,5900,15.48,2.76,30,43,0,0
2.0502e+05,1.5139e+08,2,5886,5700,15.51,2.68,30,43,0,0
2.0546e+05,1.515e+08,2,5703,5742,15.47,2.81,30,43,0,0
2.0592e+05,1.5162e+08,2,5761,5900,15.45,2.91,30,43,0,0
2.0632e+05,1.5172e+08,2,5896,5728,15.43,2.79,30,43,0,0
2.0684e+05,1.5184e+08,2,5743,5871,15.43,2.9,30,43,0,0
2.0725e+05,1.5194e+08,2,5857,5742,15.45,2.78,30,43,0,0
2.077e+05,1.5206e+08,2,5759,5885,15.39,2.91,30,43,0,0
2.0811e+05,1.5215e+08,2,5883,5814,15.33,3.02,30,43,0,0
2.0856e+05,1.5227e+08,2,5819,5885,15.44,3.05,30,43,0,0
2.0896e+05,1.5237e+08,2,5885,5942,15.43,2.65,30,44,0,0
2.0985e+05,1.5259e+08,2,5941,5828,15.42,2.82,30,44,0,0
2.1033e+05,1.5271e+08,2,5826,5800,15.41,2.67,30,44,0,0
2.1078e+05,1.5282e+08,2,5801,5814,15.45,2.66,30,44,0,0
2.1118e+05,1.5293e+08,2,5809,5714,15.42,2.61,30,44,0,0
2.1167e+05,1.5304e+08,2,5711,5685,15.47,2.47,30,44,0,0
2.1212e+05,1.5315e+08,2,5681,5642,15.48,2.7,30,44,0,0
2.1257e+05,1.5327e+08,2,5650,5728,15.44,2.5,30,44,0,0
2.1298e+05,1.5337e+08,2,5710,5457,15.47,2.68,30,44,0,0
2.1386e+05,1.5359e+08,2,5465,5728,15.44,2.83,30,44,0,0
2.1427e+05,1.5369e+08,2,5730,5900,15.43,2.96,30,44,0,0
2.1476e+05,1.5381e+08,2,5895,5842,15.41,3.17,30,45,0,0
2.152e+05,1.5391e+08,2,5847,5957,15.43,3.03,30,45,0,0
2.1564e+05,1.5402e+08,2,5954,5914,15.4,3.19,30,45,0,0
2.1605e+05,1.5413e+08,2,5929,6228,15.39,3.25,30,45,0,0
2.165e+05,1.5423e+08,2,6225,6171,15.46,2.91,30,45,0,0
2.1695e+05,1.5435e+08,2,6180,6300,15.44,3.13,30,45,0,0
2.1739e+05,1.5446e+08,2,6293,6228,15.48,3.29,30,45,0,0
2.1784e+05,1.5457e+08,2,6236,6342,15.4,3.56,30,45,0,0
2.1824e+05,1.5467e+08,2,6342,6342,15.47,3.23,30,45,0,0
2.1869e+05,1.5478e+08,2,6339,6257,15.44,3.34,30,45,0,0
2.1918e+05,1.549e+08,2,6255,6242,15.44,3.41,30,46,0,0
2.1958e+05,1.55e+08,2,6242,6257,15.47,3.45,30,46,0,0
2.1999e+05,1.551e+08,2,6256,6242,15.46,3.12,30,46,0,0
2.2047e+05,1.5521e+08,2,6239,6200,15.45,2.88,30,46,0,0
2.2088e+05,1.5532e+08,2,6197,6114,15.48,2.93,30,46,0,0
2.2137e+05,1.5544e+08,2,6110,6071,15.45,2.56,30,46,0,0
2.2181e+05,1.5555e+08,2,6078,6185,15.49,2.75,30,46,0,0
2.2226e+05,1.5566e+08,2,6166,6000,15.48,2.28,30,46,0,0
2.2267e+05,1.5576e+08,2,6006,6071,15.43,2.86,30,46,0,0
2.2311e+05,1.5587e+08,2,6072,6100,15.41,2.81,30,46,0,0
2.2356e+05,1.5598e+08,2,6085,5771,15.47,2.58,30,46,0,0
2.2401e+05,1.5609e+08,2,5792,6014,15.48,3,30,47,0,0
2.2442e+05,1.562e+08,2,6022,6100,15.45,3.21,30,47,0,0
2.2487e+05,1.5631e+08,2,6132,6471,15.43,3.46,30,47,0,0
2.2532e+05,1.5642e+08,2,6447,6228,15.44,2.93,30,47,0,0
2.2572e+05,1.5652e+08,2,6238,6371,15.46,3.08,30,47,0,0
2.2617e+05,1.5663e+08,2,6358,6228,15.46,2.91,30,47,0,0
2.2662e+05,1.5674e+08,2,6231,6271,15.49,3.22,30,47,0,0
2.2702e+05,1.5685e+08,2,6269,6228,15.47,2.96,30,47,0,0
2.2747e+05,1.5696e+08,2,6238,6342,15.48,3.1,30,47,0,0
2.2791e+05,1.5707e+08,2,6330,6242,15.47,2.95,30,47,0,0
2.2832e+05,1.5717e+08,2,6243,6257,15.53,2.8,30,47,0,0
2.2877e+05,1.5728e+08,2,6236,6028,15.48,2.64,30,48,0,0
2.2965e+05,1.575e+08,2,6020,5857,15.42,2.89,30,48,0,0
2.301e+05,1.5761e+08,2,5875,6157,15.5,2.87,30,48,0,0
2.3055e+05,1.5772e+08,2,6147,6057,15.44,2.82,30,48,0,0
2.3096e+05,1.5782e+08,2,6056,6014,15.42,2.62,30,48,0,0
2.3139e+05,1.5793e+08,2,6019,6214,15.48,2.65,30,48,0,0
2.3184e+05,1.5804e+08,2,6193,5785,15.44,1.92,30,48,0,0
2.323e+05,1.5815e+08,2,5777,5700,15.5,2.38,30,48,0,0
2.3278e+05,1.5827e+08,2,5751,5985,15.48,2.69,30,48,0,0
2.3318e+05,1.5837e+08,2,5981,5942,15.48,2.55,30,48,0,0
2.3362e+05,1.5848e+08,2,5943,5971,15.42,2.72,30,48,0,0
2.3408e+05,1.5859e+08,2,5979,6071,15.48,2.91,30,49,0,0
2.3452e+05,1.587e+08,2,6086,6285,15.45,2.97,30,49,0,0
2.3493e+05,1.588e+08,2,6282,6100,15.5,3.1,30,49,0,0
2.3538e+05,1.5891e+08,2,6126,6385,15.44,3.01,30,49,0,0
2.3578e+05,1.5901e+08,2,6383,6300,15.49,2.59,30,49,0,0
2.3622e+05,1.5912e+08,2,6294,6071,15.39,2.7,30,49,0,0
2.3667e+05,1.5923e+08,2,6068,6014,15.48,2.58,30,49,0,0
2.3716e+05,1.5934e+08,2,6003,5885,15.36,2.67,30,49,0,0
2.3761e+05,1.5946e+08,2,5883,5871,15.47,2.89,30,49,0,0
2.3805e+05,1.5956e+08,2,5901,6285,15.42,3.5,30,49,0,0
2.3849e+05,1.5968e+08,2,6278,6142,15.48,2.4,30,49,0,0
2.3894e+05,1.5979e+08,2,6127,5985,15.41,2.57,30,49,0,0
2.3938e+05,1.5989e+08,2,5994,6200,15.39,2.7,30,50,0,0
2.3983e+05,1.6e+08,2,6195,6128,15.45,3.11,30,50,0,0
2.4028e+05,1.6012e+08,2,6138,6285,15.49,2.74,30,50,0,0
2.4073e+05,1.6023e+08,2,6269,6100,15.41,2.49,30,50,0,0
2.4113e+05,1.6033e+08,2,6100,6100,15.39,2.65,30,50,0,0
2.4162e+05,1.6044e+08,2,6098,5971,15.47,2.64,30,50,0,0
2.4206e+05,1.6056e+08,2,5987,6142,15.41,2.94,30,50,0,0
2.4251e+05,1.6067e+08,2,6133,6057,15.47,2.93,30,50,0,0
2.4291e+05,1.6076e+08,2,6057,6100,15.42,3.3,30,50,0,0
2.434e+05,1.6088e+08,2,6101,6128,15.37,3.25,30,50,0,0
2.4384e+05,1.6099e+08,2,6126,6100,15.4,3.22,30,50,0,0
2.4425e+05,1.611e+08,2,6096,6014,15.39,3.48,30,51,0,0
2.447e+05,1.6121e+08,2,6014,6057,15.44,3.31,30,51,0,0
2.4514e+05,1.6132e+08,2,6066,6328,15.39,3.01,30,51,0,0
2.4559e+05,1.6142e+08,2,6323,6228,15.51,2.81,30,51,0,0
2.4603e+05,1.6153e+08,2,6213,6042,15.39,3.28,30,51,0,0
2.4648e+05,1.6164e+08,2,6046,6271,15.37,3.44,30,51,0,0
2.4692e+05,1.6175e+08,2,6265,6157,15.46,3.13,30,51,0,0
2.4741e+05,1.6187e+08,2,6147,6071,15.44,3.24,30,51,0,0
2.4785e+05,1.6197e+08,2,6080,6171,15.36,3.38,30,51,0,0
2.4826e+05,1.6208e+08,2,6171,6185,15.4,3.23,30,51,0,0
2.4871e+05,1.6218e+08,2,6184,6171,15.37,3.29,30,52,0,0
2.496e+05,1.624e+08,2,6167,6057,15.44,3.16,30,52,0,0
2.5008e+05,1.6253e+08,2,6057,6057,15.41,3.26,30,52,0,0
2.5048e+05,1.6262e+08,2,6058,6085,15.41,3.39,30,52,0,0
2.5092e+05,1.6273e+08,2,6077,6014,15.44,3.54,30,52,0,0
2.5182e+05,1.6295e+08,2,6016,6085,15.37,3.33,30,52,0,0
2.5267e+05,1.6317e+08,2,6085,6128,15.38,3.09,30,52,0,0
2.5315e+05,1.6329e+08,2,6115,6000,15.37,3.19,30,53,0,0
2.5356e+05,1.6339e+08,2,5999,5985,15.36,2.83,30,53,0,0
2.54e+05,1.635e+08,2,5978,5914,15.39,2.84,30,53,0,0
2.5446e+05,1.6361e+08,2,5915,5928,15.42,3.15,30,53,0,0
2.549e+05,1.6371e+08,2,5918,5785,15.35,3.14,30,53,0,0
2.5534e+05,1.6382e+08,2,5787,5842,15.35,2.96,30,53,0,0
2.558e+05,1.6394e+08,2,5832,5757,15.35,2.66,30,53,0,0
2.5624e+05,1.6405e+08,2,5734,5542,15.37,2.42,30,53,0,0
2.5754e+05,1.6438e+08,2,5536,5371,15.42,2.53,30,53,0,0
2.5798e+05,1.6449e+08,2,5395,5614,15.4,2.9,30,53,0,0
2.5839e+05,1.6459e+08,2,5618,5914,15.39,3.35,30,53,0,0
2.5884e+05,1.647e+08,2,5918,6214,15.36,4.07,30,54,0,0
2.5931e+05,1.6481e+08,2,6238,6457,15.32,4.22,30,54,0,0
2.5976e+05,1.6492e+08,2,6470,6628,15.34,4.21,30,54,0,0
2.6017e+05,1.6502e+08,2,6630,6657,15.38,4.62,30,54,0,0
2.6062e+05,1.6514e+08,2,6673,6842,15.3,4.74,30,54,0,0
2.6106e+05,1.6525e+08,2,6836,6785,15.38,4.14,30,54,0,0
2.6148e+05,1.6535e+08,2,6773,6671,15.41,3.6,30,54,0,0
2.6196e+05,1.6546e+08,2,6630,6371,15.38,3.06,30,55,0,0
2.6236e+05,1.6556e+08,2,6366,6300,15.43,2.82,30,55,0,0
2.6325e+05,1.6578e+08,2,6289,6057,15.42,2.53,30,55,0,0
2.6366e+05,1.6588e+08,2,6054,5928,15.38,2.45,30,55,0,0
2.6415e+05,1.66e+08,2,5931,5971,15.41,2.74,30,55,0,0
2.6459e+05,1.6611e+08,2,5972,5985,15.39,2.81,30,55,0,0
2.6504e+05,1.6622e+08,2,5976,5857,15.47,2.67,30,55,0,0
2.6544e+05,1.6632e+08,2,5859,5985,15.4,2.73,30,55,0,0
2.6674e+05,1.6664e+08,2,5987,6157,15.36,3.21,30,55,0,0
2.6718e+05,1.6675e+08,2,6157,6157,15.41,3.52,30,56,0,0
2.6762e+05,1.6686e+08,2,6155,6128,15.41,3.13,30,56,0,0
2.6804e+05,1.6697e+08,2,6124,5957,15.35,3.15,30,56,0,0
2.6853e+05,1.6709e+08,2,5958,5971,15.34,3.28,30,56,0,0
2.6897e+05,1.6719e+08,2,5982,6100,15.38,3.1,30,56,0,0
2.6937e+05,1.673e+08,2,6099,6042,15.4,3.11,30,56,0,0
2.6986e+05,1.6741e+08,2,6045,6085,15.36,3.27,30,56,0,0
2.7031e+05,1.6752e+08,2,6088,6128,15.41,3.14,30,56,0,0
2.7075e+05,1.6763e+08,2,6123,6057,15.38,3.22,30,56,0,0
2.712e+05,1.6774e+08,2,6059,6100,15.33,3.12,30,56,0,0
2.7164e+05,1.6785e+08,2,6093,5942,15.38,2.97,30,57,0,0
2.7209e+05,1.6796e+08,2,5935,5857,15.37,3.13,30,57,0,0
2.7254e+05,1.6807e+08,2,5871,6000,15.39,3.12,30,57,0,0
2.7338e+05,1.6828e+08,2,5998,5914,15.36,3.38,30,57,0,0
2.7382e+05,1.6838e+08,2,5917,6000,15.42,3.03,30,57,0,0
2.7423e+05,1.6849e+08,2,6001,6085,15.41,3.34,30,57,0,0
2.7468e+05,1.686e+08,2,6084,6071,15.39,3.01,30,57,0,0
2.7516e+05,1.6872e+08,2,6079,6171,15.47,3.2,30,57,0,0
2.7561e+05,1.6882e+08,2,6144,5871,15.38,2.99,30,57,0,0
2.7606e+05,1.6893e+08,2,5890,6071,15.4,3.18,30,57,0,0
2.7646e+05,1.6903e+08,2,6063,5900,15.4,3.07,30,58,0,0
2.7691e+05,1.6915e+08,2,5904,5957,15.35,3.09,30,58,0,0
2.7736e+05,1.6926e+08,2,5957,5957,15.35,3,30,58,0,0
2.778e+05,1.6936e+08,2,5957,5957,15.33,3.09,30,58,0,0
2.7821e+05,1.6947e+08,2,5956,5942,15.38,2.64,30,58,0,0
2.7866e+05,1.6958e+08,2,5942,5942,15.4,2.91,30,58,0,0
2.7952e+05,1.698e+08,2,5932,5657,15.33,2.79,30,58,0,0
2.7996e+05,1.6991e+08,2,5658,5671,15.36,2.82,30,58,0,0
2.8041e+05,1.7002e+08,2,5677,5742,15.36,2.77,30,58,0,0
2.8081e+05,1.7012e+08,2,5740,5685,15.36,2.72,30,58,0,0
2.8131e+05,1.7024e+08,2,5701,5857,15.41,3.06,30,58,0,0
2.8175e+05,1.7035e+08,2,5863,6028,15.34,3.36,30,59,0,0
2.8224e+05,1.7047e+08,2,6037,6128,15.33,3.1,30,59,0,0
2.8264e+05,1.7056e+08,2,6127,6071,15.39,3.24,30,59,0,0
2.8312e+05,1.7068e+08,2,6072,6085,15.36,3.19,30,59,0,0
2.8357e+05,1.7079e+08,2,6076,5957,15.39,2.9,30,59,0,0
2.8402e+05,1.709e+08,2,5959,5985,15.35,3.18,30,59,0,0
2.8447e+05,1.7101e+08,2,5985,5985,15.38,3.26,30,59,0,0
2.8491e+05,1.7112e+08,2,5988,6028,15.36,3.06,30,59,0,0
2.8536e+05,1.7123e+08,2,6022,5957,15.37,2.66,30,59,0,0
2.8576e+05,1.7133e+08,2,5953,5714,15.36,2.38,30,59,0,0
2.8621e+05,1.7144e+08,2,5711,5642,15.39,2.52,30,59,0,0
2.8665e+05,1.7155e+08,2,5642,5700,15.42,2.47,30,60,0,0
2.8714e+05,1.7167e+08,2,5703,5742,15.41,2.66,30,60,0,0
2.8758e+05,1.7177e+08,2,5736,5657,15.39,2.68,30,60,0,0
2.88e+05,1.7188e+08,2,5655,5642,15.39,2.56,30,60,0,0
2.8844e+05,1.7199e+08,2,5653,5814,15.36,2.49,30,60,0,0
2.8884e+05,1.7209e+08,2,5810,5628,15.39,2.5,30,60,0,0
2.8933e+05,1.7221e+08,2,5631,5671,15.39,2.46,30,60,0,0
2.8974e+05,1.7232e+08,2,5669,5657,15.41,2.65,30,60,0,0
2.9014e+05,1.7242e+08,2,5659,5685,15.36,2.43,30,60,0,0
2.9059e+05,1.7253e+08,2,5674,5542,15.33,2.22,30,60,0,0
2.9104e+05,1.7264e+08,2,5545,5600,15.34,2.67,30,60,0,0
2.9144e+05,1.7274e+08,2,5600,5628,15.39,2.69,30,60,0,0
2.9189e+05,1.7285e+08,2,5632,5685,15.36,2.82,30,60,0,0
2.9234e+05,1.7297e+08,2,5699,5857,15.43,2.79,30,61,0,0
2.9319e+05,1.7318e+08,2,5857,5857,15.33,3.1,30,61,0,0
2.936e+05,1.7329e+08,2,5862,6000,15.39,3.06,30,61,0,0
2.9408e+05,1.734e+08,2,5996,5957,15.44,2.67,30,61,0,0
2.9448e+05,1.735e+08,2,5945,5742,15.42,2.51,30,61,0,0
2.9493e+05,1.7361e+08,2,5743,5800,15.42,2.71,30,61,0,0
2.9538e+05,1.7373e+08,2,5794,5685,15.46,2.48,30,61,0,0
2.9584e+05,1.7384e+08,2,5683,5671,15.5,2.49,30,61,0,0
2.9624e+05,1.7394e+08,2,5673,5700,15.42,2.62,30,61,0,0
2.9669e+05,1.7406e+08,2,5718,5914,15.39,2.64,30,61,0,0
2.9758e+05,1.7427e+08,2,5909,5557,15.42,2.57,30,62,0,0
2.9803e+05,1.7438e+08,2,5568,5728,15.44,2.34,30,62,0,0
2.9847e+05,1.7449e+08,2,5723,5657,15.38,2.31,30,62,0,0
2.9892e+05,1.746e+08,2,5652,5614,15.38,2.66,30,62,0,0
2.9933e+05,1.7471e+08,2,5625,5742,15.46,2.12,30,62,0,0
2.9978e+05,1.7482e+08,2,5728,5557,15.45,1.65,30,62,0,0
3.0018e+05,1.7492e+08,2,5547,5371,15.45,2.12,30,62,0,0
3.0064e+05,1.7503e+08,2,5391,5657,15.35,2.41,30,62,0,0
3.0108e+05,1.7514e+08,2,5663,5800,15.32,2.72,30,62,0,0
3.0152e+05,1.7525e+08,2,5805,5871,15.39,2.55,30,62,0,0
3.0241e+05,1.7547e+08,2,5873,5928,15.36,2.81,30,62,0,0
3.0286e+05,1.7558e+08,2,5923,5871,15.41,2.93,30,62,0,0
3.0326e+05,1.7568e+08,2,5872,5942,15.42,2.93,30,63,0,0
3.0371e+05,1.7579e+08,2,5947,6000,15.36,3.21,30,63,0,0
3.0416e+05,1.759e+08,2,6009,6185,15.33,3.56,30,63,0,0
3.046e+05,1.7601e+08,2,6181,6100,15.38,3.36,30,63,0,0
3.0506e+05,1.7613e+08,2,6106,6200,15.42,3.31,30,63,0,0
3.0546e+05,1.7623e+08,2,6196,5971,15.35,3.32,30,63,0,0
3.0595e+05,1.7635e+08,2,5979,6042,15.37,2.84,30,63,0,0
3.0639e+05,1.7646e+08,2,6043,6057,15.46,2.74,30,63,0,0
3.068e+05,1.7656e+08,2,6056,6042,15.43,2.52,30,63,0,0
3.0724e+05,1.7667e+08,2,6031,5928,15.45,2.54,30,63,0,0
3.0814e+05,1.7689e+08,2,5921,5671,15.39,2.11,30,64,0,0
3.0858e+05,1.77e+08,2,5648,5357,15.45,1.8,30,64,0,0
3.0903e+05,1.7711e+08,2,5359,5385,15.31,1.98,30,64,0,0
3.0944e+05,1.7721e+08,2,5385,5385,15.42,2.38,30,64,0,0
3.0989e+05,1.7733e+08,2,5399,5542,15.26,2.57,30,64,0,0
3.1033e+05,1.7743e+08,2,5550,5785,15.26,2.88,30,64,0,0
3.1077e+05,1.7754e+08,2,5794,5914,15.34,2.6,30,64,0,0
3.1166e+05,1.7776e+08,2,5914,5942,15.35,2.89,30,64,0,0
3.1256e+05,1.7798e+08,2,5944,6000,15.35,3.17,30,64,0,0
3.13e+05,1.7809e+08,2,5995,5957,15.31,3.26,30,64,0,0
3.1341e+05,1.7819e+08,2,5960,6028,15.29,3.44,30,65,0,0
3.1386e+05,1.783e+08,2,6031,6128,15.36,3.47,30,65,0,0
3.143e+05,1.7841e+08,2,6137,6257,15.32,3.16,30,65,0,0
3.147e+05,1.7851e+08,2,6258,6314,15.39,3.23,30,65,0,0
3.1516e+05,1.7862e+08,2,6313,6300,15.41,3.36,30,65,0,0
3.156e+05,1.7873e+08,2,6303,6357,15.41,3,30,65,0,0
3.1601e+05,1.7883e+08,2,6353,6128,15.4,2.95,30,65,0,0
3.1646e+05,1.7895e+08,2,6121,6042,15.39,2.46,30,65,0,0
3.1731e+05,1.7916e+08,2,6040,5785,15.39,2.59,30,65,0,0
3.178e+05,1.7928e+08,2,5787,5814,15.4,2.63,30,65,0,0
3.1824e+05,1.7938e+08,2,5815,5857,15.35,2.83,30,66,0,0
3.1869e+05,1.7949e+08,2,5855,5842,15.33,2.92,30,66,0,0
3.1913e+05,1.796e+08,2,5840,5814,15.27,2.97,30,66,0,0
3.1954e+05,1.797e+08,2,5816,5957,15.34,3.39,30,66,0,0
3.2003e+05,1.7982e+08,2,5958,5971,15.3,3.39,30,66,0,0
3.2043e+05,1.7992e+08,2,5974,6214,15.37,3.54,30,66,0,0
3.2088e+05,1.8003e+08,2,6210,6014,15.41,2.97,30,66,0,0
3.2137e+05,1.8015e+08,2,6021,6100,15.35,3.02,30,66,0,0
3.218e+05,1.8025e+08,2,6104,6200,15.27,3.47,30,66,0,0
3.2226e+05,1.8037e+08,2,6184,6028,15.28,3.32,30,66,0,0
3.227e+05,1.8048e+08,2,6050,6271,15.29,3.69,30,66,0,0
3.231e+05,1.8058e+08,2,6271,6271,15.33,3.45,30,67,0,0
3.2355e+05,1.8069e+08,2,6264,6142,15.32,3.46,30,67,0,0
3.24e+05,1.808e+08,2,6147,6271,15.36,3.55,30,67,0,0
3.2441e+05,1.809e+08,2,6265,6171,15.38,3.4,30,67,0,0
3.249e+05,1.8102e+08,2,6185,6342,15.38,3.6,30,67,0,0
3.253e+05,1.8112e+08,2,6332,6157,15.38,3.31,30,67,0,0
3.2575e+05,1.8123e+08,2,6155,6128,15.32,3.52,30,67,0,0
3.262e+05,1.8134e+08,2,6145,6314,15.36,3.33,30,67,0,0
3.2664e+05,1.8146e+08,2,6315,6328,15.35,3.62,30,67,0,0
3.2705e+05,1.8155e+08,2,6328,6357,15.38,3.71,30,68,0,0
3.2749e+05,1.8167e+08,2,6344,6228,15.35,3.23,30,68,0,0
3.2794e+05,1.8177e+08,2,6217,6114,15.41,3.03,30,68,0,0
3.2838e+05,1.8188e+08,2,6108,6057,15.33,3.24,30,68,0,0
3.2883e+05,1.8199e+08,2,6050,5985,15.39,3.1,30,68,0,0
3.2928e+05,1.821e+08,2,5977,5871,15.42,2.72,30,68,0,0
3.2972e+05,1.822e+08,2,5875,5971,15.36,2.86,30,68,0,0
3.3017e+05,1.8232e+08,2,5951,5685,15.45,2.61,30,68,0,0
3.3061e+05,1.8242e+08,2,5680,5628,15.45,2.32,30,68,0,0
3.3106e+05,1.8253e+08,2,5625,5585,15.42,2.35,30,68,0,0
3.315e+05,1.8265e+08,2,5585,5600,15.35,2.48,30,68,0,0
3.3195e+05,1.8275e+08,2,5611,5857,15.41,2.72,30,69,0,0
3.3289e+05,1.8298e+08,2,5865,6042,15.36,3.24,30,69,0,0
3.3329e+05,1.8308e+08,2,6049,6214,15.33,3.52,30,69,0,0
3.3374e+05,1.8319e+08,2,6215,6314,15.3,3.98,30,69,0,0
3.3418e+05,1.833e+08,2,6323,6442,15.3,4,30,69,0,0
3.3463e+05,1.834e+08,2,6443,6514,15.28,3.97,30,69,0,0
3.3556e+05,1.8363e+08,2,6520,6642,15.35,3.68,30,69,0,0
3.3596e+05,1.8373e+08,2,6640,6542,15.34,3.57,30,69,0,0
3.3645e+05,1.8385e+08,2,6513,6285,15.35,3.44,30,70,0,0
3.3685e+05,1.8395e+08,2,6286,6314,15.38,3.52,30,70,0,0
3.3734e+05,1.8407e+08,2,6301,6200,15.35,3.2,30,70,0,0
3.3778e+05,1.8418e+08,2,6211,6285,15.39,3.34,30,70,0,0
3.3819e+05,1.8427e+08,2,6281,6228,15.38,3.12,30,70,0,0
3.3864e+05,1.8438e+08,2,6223,6128,15.39,3.02,30,70,0,0
3.3908e+05,1.8449e+08,2,6128,6142,15.36,3.28,30,70,0,0
3.3952e+05,1.846e+08,2,6137,6042,15.35,3.07,30,70,0,0
3.3997e+05,1.8471e+08,2,6044,6071,15.38,3.24,30,70,0,0
3.4042e+05,1.8483e+08,2,6078,6157,15.35,3.36,30,70,0,0
3.4128e+05,1.8504e+08,2,6160,6257,15.31,3.13,30,71,0,0
3.4216e+05,1.8526e+08,2,6247,6042,15.38,3.06,30,71,0,0
3.4261e+05,1.8538e+08,2,6043,6057,15.32,3.28,30,71,0,0
3.4306e+05,1.8548e+08,2,6053,6014,15.39,3.06,30,71,0,0
3.4347e+05,1.8559e+08,2,6020,6085,15.32,3.07,30,71,0,0
3.4387e+05,1.8569e+08,2,6081,5814,15.36,2.58,30,71,0,0
3.4432e+05,1.858e+08,2,5811,5700,15.33,2.75,30,71,0,0
3.4477e+05,1.8591e+08,2,5697,5657,15.42,2.19,30,71,0,0
3.4522e+05,1.8602e+08,2,5658,5671,15.36,2.89,30,71,0,0
3.4562e+05,1.8613e+08,2,5669,5657,15.42,2.49,30,72,0,0
3.4651e+05,1.8634e+08,2,5656,5614,15.57,2.41,30,72,0,0
3.474e+05,1.8656e+08,2,5592,4671,15.61,1.87,30,72,0,0
3.4788e+05,1.8667e+08,2,4651,4200,15.42,1.31,30,72,0,0
3.4832e+05,1.8678e+08,2,4145,3442,15.61,0.94,30,72,0,0
3.4873e+05,1.8688e+08,2,3418,2785,15.73,0.35,30,72,0,0
3.4922e+05,1.87e+08,2,2782,2757,15.72,0.49,30,72,0,0
3.4962e+05,1.871e+08,2,2755,2728,15.72,0.43,30,72,0,0
3.5007e+05,1.8721e+08,2,2730,2785,15.73,0.39,30,72,0,0
3.5048e+05,1.8731e+08,2,2785,2785,15.73,0.44,30,72,0,0
3.5097e+05,1.8743e+08,2,2782,2757,15.7,0.41,30,72,0,0
3.5186e+05,1.8766e+08,2,2754,2714,15.72,0.44,30,72,0,0
3.5226e+05,1.8776e+08,2,2716,2742,15.74,0.41,30,72,0,0
3.5271e+05,1.8787e+08,2,2742,2757,15.73,0.4,30,72,0,0
3.5316e+05,1.8797e+08,2,2761,2828,15.75,0.43,30,72,0,0
3.536e+05,1.8808e+08,2,2830,2871,15.74,0.38,30,72,0,0
3.5404e+05,1.8819e+08,2,2870,2857,15.76,0.39,30,72,0,0
3.5449e+05,1.883e+08,2,2856,2842,15.74,0.4,30,72,0,0
3.5494e+05,1.8841e+08,2,2840,2828,15.76,0.35,30,72,0,0
3.5539e+05,1.8851e+08,2,2828,2828,15.75,0.4,30,72,0,0
3.5628e+05,1.8873e+08,2,2792,1714,15.82,0,30,72,0,0
3.5673e+05,1.8884e+08,2,1709,1371,15.8,0.04,30,72,0,0
3.5717e+05,1.8894e+08,2,1370,1328,15.8,0.08,30,72,0,0
3.5767e+05,1.8907e+08,2,1326,1314,15.8,0.08,30,72,0,0
3.5807e+05,1.8916e+08,2,1314,1314,15.81,0.09,30,72,0,0
3.5856e+05,1.8928e+08,2,1314,1314,15.81,0.09,30,72,0,0
3.5901e+05,1.8939e+08,2,1313,1300,15.81,0.09,30,72,0,0
3.5946e+05,1.895e+08,2,1301,1314,15.81,0.09,30,72,0,0
3.599e+05,1.896e+08,2,1314,1314,15.81,0.09,30,72,0,0
3.603e+05,1.897e+08,2,1314,1314,15.82,0.09,30,72,0,0
3.6075e+05,1.8981e+08,2,1313,1300,15.82,0.09,30,72,0,0
3.612e+05,1.8992e+08,2,1300,1300,15.82,0.09,30,72,0,0
3.6169e+05,1.9003e+08,2,1301,1314,15.82,0.09,30,72,0,0
3.621e+05,1.9014e+08,2,1314,1314,15.82,0.09,30,72,0,0
3.6254e+05,1.9024e+08,2,1314,1328,15.82,0.09,30,72,0,0
3.6302e+05,1.9035e+08,2,1328,1328,15.82,0.09,30,72,0,0
3.6344e+05,1.9046e+08,2,1327,1314,15.82,0.09,30,72,0,0
3.6388e+05,1.9056e+08,2,1314,1314,15.82,0.09,30,72,0,0
3.6432e+05,1.9067e+08,2,1314,1314,15.83,0.09,30,72,0,0
3.6481e+05,1.9078e+08,2,1314,1314,15.83,0.1,30,72,0,0
3.653e+05,1.909e+08,2,1312,1300,15.83,0.1,30,72,0,0
3.6575e+05,1.9101e+08,2,1301,1314,15.84,0.1,30,72,0,0
3.662e+05,1.9112e+08,2,1314,1314,15.84,0.09,30,72,0,0
3.6663e+05,1.9122e+08,2,1313,1300,15.84,0.09,30,72,0,0
3.6713e+05,1.9134e+08,2,1301,1314,15.83,0.09,30,72,0,0
3.6753e+05,1.9143e+08,2,1314,1314,15.84,0.09,30,72,0,0
3.6797e+05,1.9154e+08,2,1313,1300,15.85,0.09,30,72,0,0
3.6842e+05,1.9166e+08,2,1301,1314,15.85,0.09,30,72,0,0
3.6887e+05,1.9176e+08,2,1314,1314,15.85,0.09,30,72,0,0
3.6932e+05,1.9187e+08,2,1314,1314,15.84,0.09,30,72,0,0
3.6976e+05,1.9197e+08,2,1313,1300,15.85,0.09,30,72,0,0
3.7021e+05,1.9208e+08,2,1300,1314,15.84,0.09,30,72,0,0
3.7066e+05,1.9219e+08,2,1314,1314,15.84,0.09,30,72,0,0
3.7111e+05,1.923e+08,2,1314,1314,15.85,0.09,30,72,0,0
3.7155e+05,1.9241e+08,2,1314,1314,15.85,0.09,30,72,0,0
3.7199e+05,1.9251e+08,2,1314,1314,15.85,0.09,30,72,0,0
3.7244e+05,1.9262e+08,2,1314,1314,15.85,0.09,30,72,0,0
3.7293e+05,1.9274e+08,2,1314,1314,15.86,0.09,30,72,0,0
3.7338e+05,1.9284e+08,2,1314,1314,15.85,0.09,30,72,0,0
3.7382e+05,1.9295e+08,2,1314,1314,15.86,0.09,30,72,0,0
3.7423e+05,1.9305e+08,2,1314,1314,15.85,0.09,30,72,0,0
3.7472e+05,1.9317e+08,2,1314,1314,15.86,0.09,30,72,0,0
3.7513e+05,1.9327e+08,2,1314,1314,15.86,0.09,30,72,0,0
3.7558e+05,1.9337e+08,2,1314,1314,15.86,0.09,30,72,0,0
3.7651e+05,1.936e+08,2,1314,1314,15.87,0.09,30,72,0,0
3.7695e+05,1.9371e+08,2,1314,1314,15.87,0.09,30,72,0,0
3.774e+05,1.9381e+08,2,1314,1314,15.86,0.09,30,72,0,0
3.7785e+05,1.9392e+08,2,1314,1314,15.87,0.09,30,72,0,0
3.783e+05,1.9403e+08,2,1314,1314,15.87,0.09,30,72,0,0
3.7875e+05,1.9414e+08,2,1314,1314,15.87,0.09,30,72,0,0
3.7919e+05,1.9425e+08,2,1312,1300,15.87,0.09,30,72,0,0
3.7963e+05,1.9435e+08,2,1300,1300,15.87,0.09,30,72,0,0
3.8008e+05,1.9446e+08,2,1300,1314,15.87,0.09,30,72,0,0
3.8053e+05,1.9457e+08,2,1312,1300,15.87,0.09,30,72,0,0
3.8097e+05,1.9467e+08,2,1300,1314,15.87,0.09,30,72,0,0
3.8142e+05,1.9478e+08,2,1314,1314,15.88,0.09,30,72,0,0
3.8186e+05,1.9489e+08,2,1314,1314,15.88,0.09,30,72,0,0
3.8231e+05,1.9499e+08,2,1314,1314,15.88,0.09,30,72,0,0
3.8279e+05,1.9511e+08,2,1314,1314,15.88,0.09,30,72,0,0
3.8324e+05,1.9522e+08,2,1314,1328,15.88,0.09,30,72,0,0
3.8372e+05,1.9533e+08,2,1327,1314,15.89,0.09,30,72,0,0
3.8418e+05,1.9544e+08,2,1314,1314,15.88,0.09,30,72,0,0
3.8458e+05,1.9554e+08,2,1314,1314,15.89,0.09,30,72,0,0
3.8507e+05,1.9566e+08,2,1314,1314,15.89,0.09,30,72,0,0
3.8552e+05,1.9576e+08,2,1314,1314,15.88,0.09,30,72,0,0
3.8588e+05,1.9586e+08,2,1314,1314,15.88,0.09,30,72,0,0
3.8633e+05,1.9597e+08,2,1314,1314,15.89,0.1,30,72,0,0
3.8682e+05,1.9609e+08,2,1314,1314,15.89,0.09,30,72,0,0
3.8726e+05,1.9619e+08,2,1314,1314,15.88,0.09,30,72,0,0
3.8771e+05,1.963e+08,2,1314,1314,15.89,0.09,30,72,0,0
3.8815e+05,1.964e+08,2,1314,1314,15.89,0.09,30,72,0,0
3.8856e+05,1.9651e+08,2,1314,1314,15.89,0.09,30,72,0,0
3.8905e+05,1.9663e+08,2,1314,1314,15.89,0.1,30,72,0,0
3.8991e+05,1.9684e+08,2,1314,1328,15.89,0.1,30,72,0,0
3.9036e+05,1.9695e+08,2,1327,1314,15.89,0.1,30,72,0,0
3.9081e+05,1.9706e+08,2,1315,1328,15.89,0.09,30,72,0,0
3.9126e+05,1.9717e+08,2,1328,1328,15.89,0.09,30,72,0,0
3.917e+05,1.9727e+08,2,1328,1328,15.9,0.09,30,72,0,0
3.9215e+05,1.9738e+08,2,1328,1328,15.89,0.09,30,72,0,0
3.926e+05,1.9749e+08,2,1328,1328,15.9,0.09,30,72,0,0
3.9304e+05,1.9759e+08,2,1328,1328,15.9,0.09,30,72,0,0
3.9349e+05,1.977e+08,2,1328,1328,15.9,0.08,30,72,0,0
3.9398e+05,1.9781e+08,2,1328,1328,15.91,0.09,30,72,0,0
3.9442e+05,1.9792e+08,2,1328,1328,15.91,0.09,30,72,0,0
3.9487e+05,1.9803e+08,2,1328,1328,15.9,0.09,30,72,0,0
3.9531e+05,1.9813e+08,2,1328,1328,15.91,0.09,30,72,0,0
3.9576e+05,1.9824e+08,2,1328,1328,15.9,0.09,30,72,0,0
3.9621e+05,1.9835e+08,2,1328,1328,15.91,0.09,30,72,0,0
3.971e+05,1.9857e+08,2,1325,1271,15.93,0.06,30,72,0,0
3.9755e+05,1.9867e+08,2,1258,285,15.92,0,30,72,0,0
3.9804e+05,1.9878e+08,2,259,0,15.92,0.02,29,72,0,0
3.985e+05,1.989e+08,2,0,0,15.92,0.02,29,72,0,0
3.9895e+05,1.99e+08,2,0,0,15.92,0.02,30,72,0,0
3.9932e+05,1.9911e+08,2,0,0,15.92,0.02,30,72,0,0
3.9982e+05,1.9923e+08,2,0,0,15.92,0.02,29,72,0,0
4.0027e+05,1.9934e+08,2,0,0,15.92,0.02,29,72,0,0
4.0122e+05,1.9956e+08,2,0,0,15.93,0.03,29,72,0,0
4.0166e+05,1.9967e+08,2,0,0,15.93,0.03,29,72,0,0
4.0212e+05,1.9977e+08,2,0,0,15.92,0.03,30,72,0,0
4.0257e+05,1.9988e+08,2,0,0,15.93,0.03,29,72,0,0
4.0302e+05,1.9998e+08,2,0,0,15.94,0.03,29,72,0,0
4.0347e+05,2.0009e+08,2,0,0,15.93,0.03,29,72,0,0
4.0396e+05,2.002e+08,2,0,0,15.93,0.03,29,72,0,0
4.0438e+05,2.003e+08,2,0,0,15.94,0.03,29,72,0,0
4.0483e+05,2.0041e+08,2,0,0,15.93,0.03,29,72,0,0
4.0532e+05,2.0052e+08,2,0,0,15.94,0.03,29,72,0,0
4.0577e+05,2.0063e+08,2,0,0,15.94,0.03,29,72,0,0
4.0623e+05,2.0074e+08,2,0,0,15.93,0.02,29,72,0,0
4.0668e+05,2.0085e+08,2,0,0,15.94,0.03,29,72,0,0
4.0717e+05,2.0096e+08,2,0,0,15.93,0.03,29,72,0,0
4.0795e+05,2.0118e+08,2,0,0,15.94,0.03,29,72,0,0
4.0841e+05,2.0129e+08,2,0,0,15.94,0.03,29,72,0,0
4.0886e+05,2.0139e+08,2,0,0,15.94,0.03,29,72,0,0
4.0935e+05,2.0151e+08,2,0,0,15.94,0.03,29,72,0,0
4.1026e+05,2.0173e+08,2,0,0,15.94,0.03,29,72,0,0
4.1071e+05,2.0183e+08,2,0,0,15.95,0.03,29,72,0,0
4.1116e+05,2.0194e+08,2,0,0,15.95,0.03,29,72,0,0
4.1161e+05,2.0205e+08,2,0,0,15.94,0.03,29,72,0,0
4.1211e+05,2.0216e+08,2,0,0,15.94,0.03,29,72,0,0
4.1255e+05,2.0226e+08,2,0,0,15.94,0.02,29,72,0,0
4.1305e+05,2.0238e+08,2,0,0,15.94,0.03,29,72,0,0
4.1346e+05,2.0248e+08,2,0,0,15.94,0.03,29,72,0,0
4.1395e+05,2.026e+08,2,0,0,15.94,0.03,29,72,0,0
4.1441e+05,2.0271e+08,2,0,0,15.95,0.03,29,72,0,0
4.1486e+05,2.0281e+08,2,0,0,15.95,0.03,29,72,0,0
4.1532e+05,2.0292e+08,2,0,0,15.95,0.03,29,72,0,0
4.1577e+05,2.0303e+08,2,0,0,15.95,0.03,29,72,0,0
4.1621e+05,2.0314e+08,2,0,0,15.95,0.02,29,72,0,0
4.1667e+05,2.0325e+08,2,0,0,15.94,0.02,29,72,0,0
4.1712e+05,2.0335e+08,2,0,0,15.95,0.02,29,72,0,0
4.1757e+05,2.0346e+08,2,0,0,15.94,0.02,29,72,0,0
4.1806e+05,2.0358e+08,2,0,0,15.95,0.02,29,72,0,0
4.1852e+05,2.0369e+08,2,0,0,15.95,0.03,29,72,0,0
4.1897e+05,2.0379e+08,2,0,0,15.95,0.03,29,72,0,0
4.1942e+05,2.039e+08,2,0,0,15.95,0.03,29,72,0,0
4.1992e+05,2.0402e+08,2,0,0,15.95,0.03,29,72,0,0
4.2037e+05,2.0412e+08,2,0,0,15.95,0.03,29,72,0,0
4.2082e+05,2.0423e+08,2,0,0,15.95,0.03,29,72,0,0
4.2132e+05,2.0434e+08,2,0,0,15.95,0.03,29,72,0,0
4.2176e+05,2.0445e+08,2,0,0,15.95,0.03,29,72,0,0
4.2222e+05,2.0456e+08,2,0,0,15.95,0.03,29,72,0,0
4.2267e+05,2.0467e+08,2,0,0,15.95,0.03,29,72,0,0
4.2312e+05,2.0477e+08,2,0,0,15.96,0.03,29,72,0,0
4.2361e+05,2.0489e+08,2,0,0,15.96,0.03,29,72,0,0
4.2402e+05,2.0499e+08,2,0,0,15.96,0.03,29,72,0,0
4.2452e+05,2.0511e+08,2,0,0,15.95,0.03,29,72,0,0
4.2497e+05,2.0521e+08,2,0,0,15.95,0.03,29,72,0,0
