LineNo,TimeUS,Instance,RPM,RawRPM,Volt,Curr,Temp,CTot,MotTemp,Err
1703,101450867,2,0,0,16.33,0.03,28,0,0,0
2173,101559629,2,0,0,16.33,0.03,27,0,0,0
2648,101672955,2,0,0,16.33,0.03,27,0,0,0
3104,101779057,2,0,0,16.33,0.03,27,0,0,0
3559,101885414,2,0,0,16.32,0.04,27,0,0,0
4017,101990671,2,0,0,16.33,0.03,28,0,0,0
4507,102100679,2,0,0,16.32,0.03,27,0,0,0
4964,102207872,2,0,0,16.32,0.03,27,0,0,0
5419,102315036,2,0,0,16.32,0.03,28,0,0,0
5870,102418176,2,0,0,16.33,0.03,27,0,0,0
6355,102534705,2,0,0,16.32,0.03,28,0,0,0
6790,102638246,2,0,0,16.33,0.04,27,0,0,0
7235,102746510,2,0,0,16.32,0.03,27,0,0,0
7682,102849656,2,0,0,16.33,0.03,27,0,0,0
8181,102963421,2,19,314,16.32,0.05,28,0,0,0
8638,103071648,2,346,671,16.31,0.09999999,27,0,0,0
9091,103173062,2,688,1085,16.29,0.15,28,0,0,0
9545,103281972,2,1088,1257,16.31,0.11,28,0,0,0
9999,103386078,2,1257,1314,16.31,0.11,27,0,0,0
10488,103499496,2,1315,1342,16.32,0.09999999,28,0,0,0
10943,103604862,2,1342,1357,16.31,0.09999999,28,0,0,0
11353,103710223,2,1357,1357,16.31,0.09999999,28,0,0,0
11828,103821779,2,1357,1357,16.32,0.09,28,0,0,0
12316,103936976,2,1355,1342,16.31,0.09999999,28,0,0,0
12773,104039140,2,1342,1342,16.32,0.09999999,27,0,0,0
13264,104153120,2,1343,1357,16.32,0.09999999,28,0,0,0
13512,104250321,2,1356,1342,16.31,0.09999999,27,0,0,0
14008,104365540,2,1342,1342,16.32,0.09999999,28,0,0,0
14456,104468528,2,1342,1342,16.32,0.09999999,28,0,0,0
14954,104581971,2,1343,1357,16.32,0.09999999,27,0,0,0
15411,104690737,2,1357,1357,16.31,0.09999999,28,0,0,0
15863,104792470,2,1356,1342,16.32,0.09999999,28,0,0,0
16305,104898873,2,1342,1357,16.32,0.09999999,27,0,0,0
16781,105012501,2,1356,1342,16.32,0.09999999,28,0,0,0
17232,105120695,2,1342,1342,16.32,0.09999999,28,0,0,0
17722,105228473,2,1342,1342,16.31,0.09999999,28,0,0,0
18169,105331813,2,1342,1342,16.31,0.09999999,28,0,0,0
18666,105446255,2,1343,1357,16.31,0.09999999,28,0,0,0
19124,105555997,2,1357,1357,16.3,0.09999999,28,0,0,0
19582,105666304,2,1357,1357,16.31,0.09999999,28,0,0,0
20038,105773166,2,1357,1357,16.32,0.09999999,28,0,0,0
20493,105882051,2,1357,1357,16.31,0.09999999,28,0,0,0
20949,105983019,2,1357,1357,16.31,0.09999999,28,0,0,0
21396,106094616,2,1357,1357,16.31,0.09999999,28,0,0,0
21834,106199505,2,1363,1457,16.3,0.18,28,0,0,0
22280,106306463,2,1490,1985,16.23,0.57,28,0,0,0
22733,106409693,2,1993,2485,16.23,0.54,28,0,0,0
23608,106625541,2,2498,3100,16.04,1.01,28,0,0,0
24103,106741528,2,3140,3585,16.04,1.6,28,0,0,0
24557,106847563,2,3645,4200,15.91,2.43,28,0,0,0
24979,106956963,2,4270,5014,15.91,2.45,28,0,0,0
25428,107063730,2,5055,5614,15.69,3.34,28,0,0,0
26301,107280242,2,5634,6228,15.8,3.58,28,1,0,0
26731,107385088,2,6230,6285,15.8,3.66,28,1,0,0
27173,107494058,2,6287,6328,15.81,3.91,28,1,0,0
27673,107610038,2,6326,6314,15.81,3.89,28,1,0,0
28082,107710867,2,6319,6428,15.79,4.35,28,1,0,0
28579,107826624,2,6438,6585,15.79,4.2,28,1,0,0
29031,107935489,2,6592,6671,15.85,4.56,28,1,0,0
29487,108044089,2,6669,6657,15.84,4.66,28,2,0,0
29940,108154165,2,6661,6700,15.75,4.45,28,2,0,0
30391,108261680,2,6692,6600,15.75,4.04,28,2,0,0
31297,108479968,2,6582,6214,15.79,3.6,28,2,0,0
31751,108586998,2,6219,6385,15.79,3.77,28,2,0,0
32192,108693104,2,6377,6242,15.77,3.59,28,2,0,0
32665,108808747,2,6228,6085,15.79,3.26,28,2,0,0
33063,108907301,2,6081,5885,15.79,3.31,28,3,0,0
33561,109025072,2,5887,5914,15.79,3.16,28,3,0,0
34052,109141620,2,5938,6200,15.82,3.37,28,3,0,0
34962,109361671,2,6200,6214,15.73,3.69,28,3,0,0
35376,109464076,2,6221,6314,15.74,3.72,28,3,0,0
35828,109571647,2,6312,6228,15.79,3.4,28,3,0,0
36279,109681169,2,6224,6085,15.77,3.4,28,3,0,0
36731,109786982,2,6085,6085,15.86,3.36,29,3,0,0
37175,109896492,2,6082,6028,15.8,3.29,29,4,0,0
37615,109999413,2,6030,6128,15.73,3.74,29,4,0,0
38472,110215011,2,6134,6442,15.76,3.47,29,4,0,0
38968,110331468,2,6430,6200,15.77,3.56,29,4,0,0
39422,110447060,2,6198,6185,15.81,3.53,29,4,0,0
39824,110547236,2,6188,6228,15.77,3.71,29,4,0,0
40274,110656216,2,6231,6300,15.75,3.85,29,4,0,0
40694,110763061,2,6316,6514,15.8,3.79,29,4,0,0
41120,110872739,2,6483,6242,15.74,3.77,29,5,0,0
41569,110980057,2,6244,6328,15.73,3.84,29,5,0,0
42456,111195516,2,6327,6271,15.74,3.4,29,5,0,0
42941,111312221,2,6273,6300,15.79,3.46,29,5,0,0
43391,111418093,2,6296,6257,15.72,3.13,29,5,0,0
43801,111525741,2,6240,6085,15.72,3.24,29,5,0,0
44246,111633303,2,6083,6071,15.66,3.45,29,5,0,0
44653,111737197,2,6072,6100,15.76,3.24,29,5,0,0
45101,111846620,2,6086,5914,15.76,3.27,29,5,0,0
45505,111949407,2,5924,6300,15.73,3.6,29,6,0,0
46439,112175856,2,6297,6242,15.68,3.7,29,6,0,0
46879,112285425,2,6240,6228,15.65,3.86,29,6,0,0
47284,112385002,2,6223,6171,15.72,3.56,29,6,0,0
48153,112606517,2,6170,6157,15.76,3.58,29,6,0,0
48591,112718103,2,6165,6257,15.79,3.4,29,6,0,0
48998,112819844,2,6248,6085,15.76,3.32,29,6,0,0
49443,112927028,2,6083,6057,15.77,3.39,29,6,0,0
49895,113039667,2,6055,6014,15.8,3.14,29,7,0,0
50340,113149138,2,6002,5842,15.82,2.84,29,7,0,0
50784,113260069,2,5838,5800,15.74,2.81,29,7,0,0
51187,113355867,2,5809,5985,15.77,2.94,29,7,0,0
51637,113469057,2,5977,5885,15.76,2.94,29,7,0,0
52050,113573465,2,5883,5857,15.79,2.74,29,7,0,0
52457,113678644,2,5869,6085,15.7,3.32,29,7,0,0
52912,113793867,2,6084,6071,15.73,3.23,29,7,0,0
53359,113905850,2,6082,6200,15.7,3.35,29,7,0,0
53766,114006006,2,6198,6100,15.71,3.28,29,7,0,0
54213,114118415,2,6099,6071,15.74,3.14,29,8,0,0
54660,114226252,2,6069,5971,15.71,3.15,29,8,0,0
55109,114338974,2,5980,6114,15.71,3.08,29,8,0,0
55558,114444135,2,6103,5900,15.73,3.07,29,8,0,0
56411,114664648,2,5908,6085,15.63,3.42,30,8,0,0
57272,114880464,2,6090,6328,15.67,3.75,30,8,0,0
57721,114986670,2,6326,6257,15.64,3.78,29,8,0,0
58163,115093954,2,6258,6300,15.67,3.59,30,8,0,0
58658,115212008,2,6307,6385,15.72,3.7,30,9,0,0
59105,115322542,2,6374,6271,15.73,3.55,30,9,0,0
59516,115424859,2,6268,6228,15.66,3.41,30,9,0,0
59961,115535635,2,6236,6414,15.64,3.52,30,9,0,0
60412,115648958,2,6424,6514,15.64,3.79,30,9,0,0
60815,115748009,2,6514,6514,15.67,3.59,30,9,0,0
61258,115859215,2,6513,6442,15.7,3.56,30,9,0,0
61743,115968223,2,6442,6442,15.68,3.68,30,9,0,0
62194,116085946,2,6450,6542,15.62,3.75,30,9,0,0
62643,116193939,2,6532,6442,15.64,3.71,30,10,0,0
63084,116298800,2,6455,6628,15.68,4.11,30,10,0,0
63536,116407847,2,6621,6485,15.63,3.78,30,10,0,0
63984,116521002,2,6472,6342,15.69,3.67,30,10,0,0
64389,116619978,2,6343,6428,15.63,3.86,30,10,0,0
64836,116732953,2,6428,6428,15.67,3.63,30,10,0,0
65292,116846865,2,6433,6485,15.58,3.96,30,10,0,0
65696,116948413,2,6483,6400,15.6,3.97,30,10,0,0
66182,117067992,2,6391,6300,15.6,3.68,30,11,0,0
66633,117178808,2,6316,6485,15.67,3.57,30,11,0,0
67078,117289861,2,6460,6200,15.61,3.6,30,11,0,0
67486,117390702,2,6206,6285,15.67,3.87,30,11,0,0
67931,117501258,2,6274,6128,15.69,3.42,30,11,0,0
68379,117611149,2,6141,6285,15.65,3.29,30,11,0,0
68823,117721682,2,6267,6000,15.72,3.08,30,11,0,0
69272,117831566,2,5996,5942,15.67,3.39,30,11,0,0
69721,117943613,2,5963,6171,15.6,3.56,30,11,0,0
70127,118042643,2,6170,6128,15.66,3.49,30,12,0,0
70575,118160214,2,6128,6128,15.61,3.45,30,12,0,0
70985,118265207,2,6127,6085,15.66,3.42,30,12,0,0
71434,118373070,2,6083,6057,15.56,3.71,30,12,0,0
71913,118489952,2,6091,6314,15.6,3.84,30,12,0,0
72362,118599968,2,6312,6300,15.58,3.82,30,12,0,0
72807,118713941,2,6297,6271,15.63,3.87,30,12,0,0
73215,118812945,2,6279,6371,15.64,3.67,30,12,0,0
73667,118929388,2,6355,6271,15.63,3.56,30,12,0,0
74077,119023159,2,6271,6300,15.57,3.51,30,13,0,0
74555,119141433,2,6300,6357,15.63,3.68,30,13,0,0
75009,119257845,2,6342,6257,15.66,3.47,30,13,0,0
75410,119358407,2,6262,6314,15.68,3.2,30,13,0,0
75822,119463319,2,6309,6028,15.69,3.52,30,13,0,0
76303,119575180,2,6029,6042,15.63,3.61,30,13,0,0
77165,119792577,2,6045,6142,15.57,3.66,30,13,0,0
77609,119901634,2,6139,6114,15.58,3.41,30,13,0,0
78058,120011852,2,6112,6100,15.63,3.01,30,13,0,0
78984,120236453,2,6090,5957,15.67,3.08,30,14,0,0
79391,120336207,2,5957,5971,15.63,3.18,30,14,0,0
79845,120451807,2,5958,5871,15.63,3.11,30,14,0,0
80281,120550807,2,5876,5971,15.66,3.16,30,14,0,0
80732,120666056,2,5971,5985,15.66,3.46,30,14,0,0
81175,120774183,2,5996,6142,15.57,3.24,30,14,0,0
81626,120887547,2,6140,6128,15.61,3.38,30,14,0,0
82077,120998097,2,6116,6000,15.59,2.97,30,14,0,0
82509,121098996,2,5997,5900,15.64,2.72,30,14,0,0
82965,121208029,2,5903,5971,15.65,3.06,30,15,0,0
83857,121430819,2,5964,5828,15.6,3.03,30,15,0,0
84261,121529721,2,5827,5814,15.64,2.98,30,15,0,0
84748,121649036,2,5805,5728,15.57,3.03,30,15,0,0
85153,121749948,2,5729,5828,15.63,2.96,30,15,0,0
85642,121869640,2,5829,5842,15.63,2.79,30,15,0,0
86086,121978438,2,5821,5657,15.6,2.91,30,15,0,0
86487,122077999,2,5673,5857,15.58,2.94,30,15,0,0
86934,122186237,2,5855,5842,15.61,2.83,30,15,0,0
87340,122288807,2,5841,5785,15.54,3.03,30,15,0,0
87790,122397852,2,5786,5871,15.58,2.88,30,16,0,0
88279,122519177,2,5858,5728,15.61,2.89,30,16,0,0
88684,122617669,2,5730,5857,15.61,3.16,30,16,0,0
89167,122727316,2,5861,5928,15.55,3.14,30,16,0,0
89576,122831757,2,5928,5971,15.53,3.09,30,16,0,0
90023,122944509,2,5965,5857,15.6,3.07,30,16,0,0
90478,123062237,2,5855,5842,15.57,2.96,30,16,0,0
90925,123169197,2,5844,5871,15.67,2.99,30,16,0,0
91370,123279033,2,5871,5871,15.66,2.81,30,16,0,0
91811,123380423,2,5857,5600,15.61,2.52,30,16,0,0
92257,123491850,2,5602,5628,15.6,2.49,30,16,0,0
92713,123607180,2,5635,5714,15.65,2.63,30,17,0,0
93157,123717737,2,5704,5600,15.61,2.63,30,17,0,0
93607,123828602,2,5601,5614,15.57,2.17,30,17,0,0
94011,123931845,2,5608,5357,15.6,2.34,30,17,0,0
94503,124049173,2,5371,5514,15.62,2.59,30,17,0,0
94907,124151476,2,5517,5728,15.63,2.65,30,17,0,0
95389,124266444,2,5705,5514,15.58,2.84,30,17,0,0
95811,124375215,2,5522,5742,15.58,2.35,30,17,0,0
96248,124478692,2,5739,5628,15.58,2.69,30,17,0,0
96664,124585620,2,5628,5685,15.65,2.64,30,17,0,0
97144,124700660,2,5681,5600,15.68,2.48,30,17,0,0
97639,124818173,2,5609,5742,15.62,2.57,30,17,0,0
98039,124919541,2,5744,5857,15.66,2.98,30,17,0,0
98538,125039662,2,5854,5828,15.6,2.8,30,18,0,0
98945,125143281,2,5830,5857,15.59,2.68,30,18,0,0
99392,125257230,2,5853,5828,15.61,2.55,30,18,0,0
99794,125354703,2,5825,5771,15.63,2.58,30,18,0,0
100205,125461678,2,5772,5828,15.62,2.35,30,18,0,0
100698,125579011,2,5833,5885,15.63,2.71,30,18,0,0
101142,125690868,2,5886,5900,15.6,2.84,30,18,0,0
101591,125798673,2,5894,5842,15.62,2.77,30,18,0,0
101997,125902133,2,5845,5914,15.58,3.02,30,18,0,0
102450,126012073,2,5917,6000,15.54,3.01,30,18,0,0
103349,126237225,2,5981,5585,15.54,2.84,30,18,0,0
103786,126341775,2,5591,5728,15.6,2.84,30,18,0,0
104239,126451944,2,5733,5857,15.6,2.98,30,19,0,0
104683,126564724,2,5854,5828,15.57,3.07,30,19,0,0
104883,126673111,2,5832,5885,15.61,3.11,30,19,0,0
105332,126784008,2,5889,5957,15.59,3.06,30,19,0,0
105746,126892741,2,5970,6100,15.55,3.31,30,19,0,0
106597,127101835,2,6102,6200,15.6,3.37,30,19,0,0
107047,127211746,2,6205,6257,15.52,3.53,30,19,0,0
107493,127323861,2,6262,6342,15.58,3.6,30,19,0,0
107943,127433764,2,6358,6485,15.58,3.91,30,19,0,0
108347,127538081,2,6484,6471,15.53,3.86,30,20,0,0
109241,127756095,2,6463,6314,15.58,3.29,30,20,0,0
109688,127867573,2,6310,6271,15.58,3.36,30,20,0,0
110134,127973035,2,6259,6100,15.57,3.17,30,20,0,0
110538,128075651,2,6100,6100,15.61,3.02,30,20,0,0
110993,128189296,2,6097,6057,15.61,3.19,30,20,0,0
111443,128301011,2,6041,5842,15.53,3.12,30,20,0,0
111850,128402663,2,5847,5957,15.63,3.09,30,20,0,0
112299,128516263,2,5955,5914,15.57,3.05,30,20,0,0
112743,128624748,2,5907,5742,15.62,3.15,30,21,0,0
113183,128732443,2,5754,5871,15.54,3.22,30,21,0,0
113634,128843679,2,5884,6014,15.57,3.1,30,21,0,0
114035,128943045,2,6009,5771,15.6,3,30,21,0,0
114485,129050993,2,5770,5757,15.57,2.83,30,21,0,0
114933,129162753,2,5755,5728,15.57,2.72,30,21,0,0
115342,129268834,2,5738,5885,15.6,3.18,30,21,0,0
115790,129376369,2,5882,5714,15.61,2.97,30,21,0,0
116278,129495166,2,5738,5985,15.59,3.31,30,21,0,0
116683,129593643,2,5989,6157,15.57,3.5,30,21,0,0
117134,129709755,2,6154,6128,15.56,3.6,30,22,0,0
117544,129810610,2,6126,6028,15.55,3.41,30,22,0,0
118439,130031193,2,6027,6014,15.55,3.44,30,22,0,0
118881,130138997,2,6018,6085,15.58,3.54,30,22,0,0
119333,130251215,2,6086,6114,15.5,3.35,30,22,0,0
119779,130359206,2,6112,6071,15.59,3.33,30,22,0,0
120188,130464446,2,6070,6000,15.54,3.24,30,22,0,0
120636,130574731,2,6003,6071,15.52,3.34,30,22,0,0
121078,130682252,2,6071,6085,15.56,3.36,30,22,0,0
121567,130801538,2,6076,6000,15.53,3.09,30,23,0,0
121980,130905414,2,6002,6057,15.58,3.18,30,23,0,0
122464,131023451,2,6066,6128,15.53,3.22,30,23,0,0
122869,131123459,2,6123,6014,15.59,3.21,30,23,0,0
123318,131229635,2,6015,6100,15.53,3.28,30,23,0,0
123761,131337706,2,6103,6185,15.48,3.59,30,23,0,0
124213,131454062,2,6191,6328,15.56,3.62,30,23,0,0
124656,131564178,2,6329,6414,15.58,3.76,30,23,0,0
125094,131671039,2,6415,6442,15.51,3.8,30,23,0,0
125546,131780746,2,6438,6371,15.56,3.93,30,24,0,0
126004,131896857,2,6384,6542,15.48,3.74,30,24,0,0
126900,132121687,2,6516,6114,15.52,3.09,30,24,0,0
127308,132224142,2,6118,6185,15.53,3.32,30,24,0,0
127758,132335083,2,6178,6100,15.53,3.27,30,24,0,0
128205,132442177,2,6101,6185,15.55,3.18,30,24,0,0
128651,132553189,2,6195,6314,15.52,3.61,30,24,0,0
129099,132667282,2,6315,6328,15.52,3.77,30,24,0,0
129511,132768225,2,6339,6485,15.57,4,30,25,0,0
129951,132875245,2,6481,6400,15.55,3.76,30,25,0,0
130397,132984035,2,6395,6300,15.57,3.29,30,25,0,0
130844,133094663,2,6296,6214,15.61,3.06,30,25,0,0
131336,133214982,2,6219,6271,15.53,3.22,30,25,0,0
131739,133315106,2,6266,6200,15.59,2.94,30,25,0,0
132188,133424958,2,6186,6042,15.57,3.11,30,25,0,0
132593,133528222,2,6037,5857,15.52,3,30,25,0,0
133048,133642247,2,5865,5957,15.54,2.94,30,25,0,0
134387,133973458,2,5960,6100,15.54,3.15,30,26,0,0
134799,134074590,2,6098,6014,15.5,3.14,30,26,0,0
135245,134185199,2,6021,6171,15.52,3.36,30,26,0,0
135690,134295707,2,6159,6000,15.53,3.15,30,26,0,0
136139,134405955,2,6000,6014,15.5,3.22,30,26,0,0
136587,134517638,2,6018,6085,15.55,3.14,30,26,0,0
137036,134626614,2,6080,6028,15.52,3.02,30,26,0,0
137474,134733227,2,6029,6142,15.52,3.36,30,26,0,0
137924,134846473,2,6142,6142,15.54,3.41,30,26,0,0
138412,134960524,2,6150,6228,15.52,3.35,30,26,0,0
138812,135062939,2,6218,6100,15.52,3.36,30,27,0,0
139263,135172036,2,6097,6071,15.58,3.44,30,27,0,0
139710,135283814,2,6068,6042,15.53,3.54,30,27,0,0
140163,135393758,2,6043,6057,15.52,3.65,30,27,0,0
140608,135502475,2,6072,6228,15.5,3.42,30,27,0,0
141056,135612051,2,6220,6142,15.52,3.48,30,27,0,0
141459,135715077,2,6144,6285,15.54,3.21,30,27,0,0
141956,135831451,2,6277,6200,15.48,3.4,30,27,0,0
142403,135943737,2,6193,6128,15.54,3.73,30,27,0,0
142854,136051843,2,6142,6285,15.52,3.92,30,28,0,0
143302,136162680,2,6288,6400,15.5,3.99,30,28,0,0
143750,136274062,2,6408,6528,15.47,4.3,30,28,0,0
144157,136375678,2,6527,6514,15.49,4.22,30,28,0,0
144644,136495729,2,6514,6514,15.47,4.2,30,28,0,0
145095,136604679,2,6512,6500,15.51,4,30,28,0,0
145540,136713986,2,6488,6371,15.58,3.76,30,28,0,0
145948,136812537,2,6369,6328,15.55,3.51,30,28,0,0
146401,136928491,2,6331,6371,15.6,3.42,30,29,0,0
146808,137028056,2,6348,6057,15.57,3.31,30,29,0,0
147253,137137855,2,6059,6100,15.55,3.21,30,29,0,0
147706,137253135,2,6084,5985,15.51,3.24,30,29,0,0
148153,137359017,2,5975,5871,15.53,2.98,30,29,0,0
148564,137461808,2,5868,5828,15.57,3.01,30,29,0,0
149011,137571366,2,5834,5985,15.54,3.36,30,29,0,0
149453,137678741,2,5988,6057,15.5,2.93,30,29,0,0
149904,137786975,2,6047,5914,15.52,2.74,30,29,0,0
150349,137897951,2,5919,6000,15.5,2.96,30,29,0,0
150796,138005435,2,6003,6057,15.51,3.18,30,29,0,0
151241,138116314,2,6058,6085,15.6,3.48,30,30,0,0
151690,138225850,2,6098,6271,15.56,3.54,30,30,0,0
152137,138338830,2,6262,6185,15.51,3.37,30,30,0,0
152584,138445756,2,6178,6028,15.48,3.27,30,30,0,0
153031,138555427,2,6033,6100,15.55,3.53,30,30,0,0
153476,138665229,2,6097,6057,15.52,3.49,30,30,0,0
153889,138770219,2,6056,6028,15.48,3.35,30,30,0,0
154333,138882935,2,6032,6128,15.51,3.34,30,30,0,0
154783,138987833,2,6127,6085,15.49,3.46,30,30,0,0
155230,139108504,2,6085,6085,15.55,3.46,30,31,0,0
155714,139217788,2,6085,6085,15.51,3.38,30,31,0,0
156115,139318764,2,6078,6014,15.5,3.33,30,31,0,0
156571,139431539,2,6015,6028,15.53,3.57,30,31,0,0
156981,139534855,2,6034,6100,15.54,3.33,30,31,0,0
157876,139748976,2,6100,6185,15.57,3.52,30,31,0,0
158323,139863076,2,6172,6028,15.52,3.68,30,31,0,0
158805,139975754,2,6036,6157,15.52,3.6,30,31,0,0
159257,140091096,2,6157,6157,15.49,3.51,30,31,0,0
159658,140187250,2,6155,6014,15.5,3.51,30,32,0,0
160106,140298466,2,6025,6142,15.5,3.48,30,32,0,0
160554,140404647,2,6142,6157,15.53,3.6,30,32,0,0
160997,140514982,2,6161,6257,15.52,3.5,30,32,0,0
161452,140626045,2,6255,6242,15.47,3.95,30,32,0,0
161858,140729747,2,6244,6400,15.44,3.91,30,32,0,0
162307,140838063,2,6395,6342,15.5,3.75,30,32,0,0
162755,140947047,2,6343,6371,15.52,3.74,30,32,0,0
163197,141055159,2,6370,6328,15.5,3.62,30,32,0,0
163643,141165526,2,6319,6200,15.51,3.64,30,32,0,0
164124,141280710,2,6201,6214,15.55,3.59,30,33,0,0
164535,141386269,2,6203,6100,15.52,3.21,30,33,0,0
165462,141605849,2,6098,6071,15.45,3.45,30,33,0,0
165868,141711949,2,6076,6200,15.51,3.35,30,33,0,0
166314,141820821,2,6200,6214,15.57,3.67,30,33,0,0
166722,141926180,2,6212,6100,15.47,3.55,30,33,0,0
167212,142044962,2,6110,6257,15.47,3.5,30,33,0,0
167660,142156742,2,6244,6114,15.48,3.42,30,33,0,0
168105,142265659,2,6110,6057,15.5,3.39,30,34,0,0
168506,142362221,2,6058,6128,15.45,3.21,30,34,0,0
168946,142472205,2,6128,6142,15.52,3.36,30,34,0,0
169439,142592213,2,6136,6057,15.48,3.33,30,34,0,0
169850,142696706,2,6065,6171,15.51,3.33,30,34,0,0
170295,142803341,2,6165,6085,15.54,3.57,30,34,0,0
170738,142915073,2,6103,6285,15.49,3.58,30,34,0,0
171144,143011824,2,6284,6228,15.48,3.5,30,34,0,0
171585,143121069,2,6230,6328,15.52,3.38,30,34,0,0
172038,143234511,2,6325,6185,15.5,3.54,30,35,0,0
172482,143346685,2,6172,6042,15.47,3.43,30,35,0,0
173373,143567712,2,6052,6271,15.41,3.6,30,35,0,0
173781,143671450,2,6263,6157,15.46,3.52,30,35,0,0
174233,143779844,2,6158,6185,15.47,3.55,30,35,0,0
174638,143881440,2,6185,6185,15.48,3.55,30,35,0,0
175087,143992885,2,6179,6100,15.47,3.5,30,35,0,0
175978,144209640,2,6101,6128,15.48,3.49,30,35,0,0
176378,144310949,2,6126,6100,15.42,3.72,30,36,0,0
176828,144422031,2,6120,6400,15.5,3.76,30,36,0,0
177273,144534688,2,6385,6242,15.5,3.34,30,36,0,0
178119,144742228,2,6241,6157,15.44,3.76,30,36,0,0
179014,144962655,2,6160,6257,15.45,3.74,30,36,0,0
179459,145072658,2,6253,6200,15.45,3.75,30,36,0,0
179906,145180189,2,6201,6228,15.44,3.77,30,37,0,0
180346,145289441,2,6234,6300,15.45,3.87,30,37,0,0
180794,145397604,2,6300,6300,15.47,3.86,30,37,0,0
181240,145511980,2,6316,6485,15.48,3.7,30,37,0,0
181685,145618425,2,6469,6271,15.44,3.84,30,37,0,0
182099,145725764,2,6276,6357,15.48,3.65,30,37,0,0
182546,145836429,2,6353,6285,15.43,3.64,30,37,0,0
182992,145945406,2,6278,6157,15.42,3.6,30,37,0,0
183441,146055094,2,6172,6428,15.44,3.78,30,37,0,0
183887,146166186,2,6416,6271,15.44,3.95,30,38,0,0
184291,146272923,2,6268,6214,15.44,3.94,30,38,0,0
184738,146380033,2,6218,6400,15.45,3.75,30,38,0,0
185183,146490900,2,6398,6371,15.48,3.75,30,38,0,0
185633,146599973,2,6364,6128,15.44,3.46,30,38,0,0
186080,146711504,2,6122,6071,15.5,3.16,30,38,0,0
186929,146920451,2,6070,6057,15.45,3.3,30,38,0,0
187422,147038733,2,6062,6114,15.49,3.13,30,38,0,0
187827,147142759,2,6096,5928,15.44,3.16,30,39,0,0
188270,147254051,2,5927,5914,15.42,3.02,30,39,0,0
188714,147359684,2,5917,5957,15.45,3.07,30,39,0,0
189160,147470760,2,5948,5828,15.42,3.13,30,39,0,0
189569,147573992,2,5838,6014,15.5,3.08,30,39,0,0
190021,147688706,2,6005,5914,15.47,3.26,30,39,0,0
190465,147794866,2,5926,6085,15.43,3.36,30,39,0,0
190917,147907048,2,6074,5971,15.45,2.92,30,39,0,0
191369,148018624,2,5978,6057,15.45,3.51,30,39,0,0
191775,148122453,2,6060,6100,15.36,4.08,30,39,0,0
192619,148336628,2,6102,6442,15.39,4.14,30,40,0,0
193105,148454721,2,6440,6428,15.33,4.15,30,40,0,0
193509,148555799,2,6428,6485,15.39,4.28,30,40,0,0
193950,148662399,2,6486,6514,15.37,4.01,30,40,0,0
194405,148774714,2,6510,6414,15.36,3.94,30,40,0,0
194850,148885061,2,6415,6457,15.38,3.92,30,40,0,0
195737,149100609,2,6452,6257,15.38,4.22,30,41,0,0
196189,149209704,2,6260,6314,15.39,3.63,30,41,0,0
196635,149324266,2,6310,6271,15.41,3.55,30,41,0,0
197118,149436765,2,6273,6300,15.39,3.83,30,41,0,0
197558,149543951,2,6302,6342,15.41,4.03,30,41,0,0
198014,149654845,2,6355,6500,15.36,4.04,30,41,0,0
198451,149762654,2,6479,6271,15.42,3.57,30,41,0,0
198815,149861478,2,6269,6242,15.42,3.37,30,41,0,0
199305,149978438,2,6239,6214,15.42,3.53,30,41,0,0
199750,150088610,2,6235,6442,15.47,3.66,30,42,0,0
200197,150196682,2,6429,6300,15.44,3.39,30,42,0,0
200646,150310239,2,6302,6328,15.48,3.48,30,42,0,0
201497,150523686,2,6325,6271,15.44,3.34,30,42,0,0
201906,150625665,2,6271,6314,15.4,3.59,30,42,0,0
202348,150734859,2,6315,6357,15.46,3.43,30,42,0,0
202799,150851528,2,6345,6271,15.45,3.26,30,42,0,0
203236,150953066,2,6262,6142,15.39,3.07,30,42,0,0
203687,151065675,2,6136,6100,15.41,3.11,30,42,0,0
204130,151172998,2,6101,6128,15.46,2.89,30,43,0,0
204572,151283127,2,6113,5900,15.48,2.76,30,43,0,0
205023,151391816,2,5886,5700,15.51,2.68,30,43,0,0
205462,151503777,2,5703,5742,15.47,2.81,30,43,0,0
205915,151618812,2,5761,5900,15.45,2.91,30,43,0,0
206319,151718271,2,5896,5728,15.43,2.79,30,43,0,0
206840,151842055,2,5743,5871,15.43,2.9,30,43,0,0
207248,151944070,2,5857,5742,15.45,2.78,30,43,0,0
207704,152059457,2,5759,5885,15.39,2.91,30,43,0,0
208109,152153727,2,5883,5814,15.33,3.02,30,43,0,0
208556,152266453,2,5819,5885,15.44,3.05,30,43,0,0
208960,152369529,2,5885,5942,15.43,2.65,30,44,0,0
209848,152592443,2,5941,5828,15.42,2.82,30,44,0,0
210330,152709501,2,5826,5800,15.41,2.67,30,44,0,0
210781,152821643,2,5801,5814,15.45,2.66,30,44,0,0
211185,152925737,2,5809,5714,15.42,2.61,30,44,0,0
211666,153038018,2,5711,5685,15.47,2.47,30,44,0,0
212117,153153192,2,5681,5642,15.48,2.7,30,44,0,0
212568,153268867,2,5650,5728,15.44,2.5,30,44,0,0
212975,153365809,2,5710,5457,15.47,2.68,30,44,0,0
213864,153585723,2,5465,5728,15.44,2.83,30,44,0,0
214269,153689052,2,5730,5900,15.43,2.96,30,44,0,0
214761,153807162,2,5895,5842,15.41,3.17,30,45,0,0
215197,153911074,2,5847,5957,15.43,3.03,30,45,0,0
215645,154020409,2,5954,5914,15.4,3.19,30,45,0,0
216054,154127008,2,5929,6228,15.39,3.25,30,45,0,0
216501,154234823,2,6225,6171,15.46,2.91,30,45,0,0
216947,154346428,2,6180,6300,15.44,3.13,30,45,0,0
217393,154459651,2,6293,6228,15.48,3.29,30,45,0,0
217840,154566140,2,6236,6342,15.4,3.56,30,45,0,0
218244,154669538,2,6342,6342,15.47,3.23,30,45,0,0
218692,154778674,2,6339,6257,15.44,3.34,30,45,0,0
219180,154899706,2,6255,6242,15.44,3.41,30,46,0,0
219582,154997058,2,6242,6257,15.47,3.45,30,46,0,0
219990,155101024,2,6256,6242,15.46,3.12,30,46,0,0
220473,155213112,2,6239,6200,15.45,2.88,30,46,0,0
220884,155319231,2,6197,6114,15.48,2.93,30,46,0,0
221373,155437709,2,6110,6071,15.45,2.56,30,46,0,0
221814,155546113,2,6078,6185,15.49,2.75,30,46,0,0
222265,155660525,2,6166,6000,15.48,2.28,30,46,0,0
222673,155762098,2,6006,6071,15.43,2.86,30,46,0,0
223111,155867242,2,6072,6100,15.41,2.81,30,46,0,0
223560,155976161,2,6085,5771,15.47,2.58,30,46,0,0
224013,156091736,2,5792,6014,15.48,3,30,47,0,0
224423,156195439,2,6022,6100,15.45,3.21,30,47,0,0
224868,156305635,2,6132,6471,15.43,3.46,30,47,0,0
225317,156415283,2,6447,6228,15.44,2.93,30,47,0,0
225718,156518692,2,6238,6371,15.46,3.08,30,47,0,0
226168,156629834,2,6358,6228,15.46,2.91,30,47,0,0
226617,156742747,2,6231,6271,15.49,3.22,30,47,0,0
227020,156846366,2,6269,6228,15.47,2.96,30,47,0,0
227469,156956389,2,6238,6342,15.48,3.1,30,47,0,0
227913,157065939,2,6330,6242,15.47,2.95,30,47,0,0
228320,157167526,2,6243,6257,15.53,2.8,30,47,0,0
228768,157279081,2,6236,6028,15.48,2.64,30,48,0,0
229653,157499077,2,6020,5857,15.42,2.89,30,48,0,0
230100,157605521,2,5875,6157,15.5,2.87,30,48,0,0
230547,157717699,2,6147,6057,15.44,2.82,30,48,0,0
230956,157819623,2,6056,6014,15.42,2.62,30,48,0,0
231394,157927094,2,6019,6214,15.48,2.65,30,48,0,0
231845,158035874,2,6193,5785,15.44,1.92,30,48,0,0
232295,158149237,2,5777,5700,15.5,2.38,30,48,0,0
232784,158266260,2,5751,5985,15.48,2.69,30,48,0,0
233181,158366102,2,5981,5942,15.48,2.55,30,48,0,0
233624,158475644,2,5943,5971,15.42,2.72,30,48,0,0
234084,158589019,2,5979,6071,15.48,2.91,30,49,0,0
234524,158696990,2,6086,6285,15.45,2.97,30,49,0,0
234928,158798027,2,6282,6100,15.5,3.1,30,49,0,0
235379,158909970,2,6126,6385,15.44,3.01,30,49,0,0
235779,159009639,2,6383,6300,15.49,2.59,30,49,0,0
236222,159119769,2,6294,6071,15.39,2.7,30,49,0,0
236669,159228021,2,6068,6014,15.48,2.58,30,49,0,0
237160,159344819,2,6003,5885,15.36,2.67,30,49,0,0
237606,159460721,2,5883,5871,15.47,2.89,30,49,0,0
238047,159564112,2,5901,6285,15.42,3.5,30,49,0,0
238491,159675204,2,6278,6142,15.48,2.4,30,49,0,0
238943,159786690,2,6127,5985,15.41,2.57,30,49,0,0
239381,159891629,2,5994,6200,15.39,2.7,30,50,0,0
239834,160004494,2,6195,6128,15.45,3.11,30,50,0,0
240284,160115471,2,6138,6285,15.49,2.74,30,50,0,0
240732,160225031,2,6269,6100,15.41,2.49,30,50,0,0
241132,160325212,2,6100,6100,15.39,2.65,30,50,0,0
241619,160444807,2,6098,5971,15.47,2.64,30,50,0,0
242065,160555986,2,5987,6142,15.41,2.94,30,50,0,0
242509,160667979,2,6133,6057,15.47,2.93,30,50,0,0
242912,160764532,2,6057,6100,15.42,3.3,30,50,0,0
243396,160883831,2,6101,6128,15.37,3.25,30,50,0,0
243842,160990239,2,6126,6100,15.4,3.22,30,50,0,0
244253,161095476,2,6096,6014,15.39,3.48,30,51,0,0
244701,161205971,2,6014,6057,15.44,3.31,30,51,0,0
245145,161317286,2,6066,6328,15.39,3.01,30,51,0,0
245590,161423845,2,6323,6228,15.51,2.81,30,51,0,0
246034,161533967,2,6213,6042,15.39,3.28,30,51,0,0
246480,161640750,2,6046,6271,15.37,3.44,30,51,0,0
246920,161748521,2,6265,6157,15.46,3.13,30,51,0,0
247407,161867245,2,6147,6071,15.44,3.24,30,51,0,0
247852,161972767,2,6080,6171,15.36,3.38,30,51,0,0
248258,162076005,2,6171,6185,15.4,3.23,30,51,0,0
248706,162184684,2,6184,6171,15.37,3.29,30,52,0,0
249596,162404495,2,6167,6057,15.44,3.16,30,52,0,0
250079,162526363,2,6057,6057,15.41,3.26,30,52,0,0
250483,162623075,2,6058,6085,15.41,3.39,30,52,0,0
250924,162733165,2,6077,6014,15.44,3.54,30,52,0,0
251817,162949698,2,6016,6085,15.37,3.33,30,52,0,0
252667,163165672,2,6085,6128,15.38,3.09,30,52,0,0
253154,163286816,2,6115,6000,15.37,3.19,30,53,0,0
253558,163385169,2,5999,5985,15.36,2.83,30,53,0,0
254003,163496626,2,5978,5914,15.39,2.84,30,53,0,0
254458,163609197,2,5915,5928,15.42,3.15,30,53,0,0
254896,163714871,2,5918,5785,15.35,3.14,30,53,0,0
255345,163824708,2,5787,5842,15.35,2.96,30,53,0,0
255795,163941090,2,5832,5757,15.35,2.66,30,53,0,0
256245,164052662,2,5734,5542,15.37,2.42,30,53,0,0
257539,164377188,2,5536,5371,15.42,2.53,30,53,0,0
257980,164486045,2,5395,5614,15.4,2.9,30,53,0,0
258386,164585637,2,5618,5914,15.39,3.35,30,53,0,0
258836,164702517,2,5918,6214,15.36,4.07,30,54,0,0
259314,164811191,2,6238,6457,15.32,4.22,30,54,0,0
259759,164920677,2,6470,6628,15.34,4.21,30,54,0,0
260171,165023042,2,6630,6657,15.38,4.62,30,54,0,0
260618,165135065,2,6673,6842,15.3,4.74,30,54,0,0
261065,165247365,2,6836,6785,15.38,4.14,30,54,0,0
261477,165348617,2,6773,6671,15.41,3.6,30,54,0,0
261955,165461859,2,6630,6371,15.38,3.06,30,55,0,0
262364,165562192,2,6366,6300,15.43,2.82,30,55,0,0
263253,165782369,2,6289,6057,15.42,2.53,30,55,0,0
263659,165883689,2,6054,5928,15.38,2.45,30,55,0,0
264150,166004618,2,5931,5971,15.41,2.74,30,55,0,0
264589,166109696,2,5972,5985,15.39,2.81,30,55,0,0
265039,166217004,2,5976,5857,15.47,2.67,30,55,0,0
265437,166321867,2,5859,5985,15.4,2.73,30,55,0,0
266738,166643722,2,5987,6157,15.36,3.21,30,55,0,0
267181,166753702,2,6157,6157,15.41,3.52,30,56,0,0
267623,166862717,2,6155,6128,15.41,3.13,30,56,0,0
268036,166967194,2,6124,5957,15.35,3.15,30,56,0,0
268527,167086611,2,5958,5971,15.34,3.28,30,56,0,0
268974,167194865,2,5982,6100,15.38,3.1,30,56,0,0
269373,167295090,2,6099,6042,15.4,3.11,30,56,0,0
269862,167412452,2,6045,6085,15.36,3.27,30,56,0,0
270306,167519954,2,6088,6128,15.41,3.14,30,56,0,0
270754,167627816,2,6123,6057,15.38,3.22,30,56,0,0
271195,167736628,2,6059,6100,15.33,3.12,30,56,0,0
271645,167845722,2,6093,5942,15.38,2.97,30,57,0,0
272094,167958635,2,5935,5857,15.37,3.13,30,57,0,0
272541,168070274,2,5871,6000,15.39,3.12,30,57,0,0
273380,168276769,2,5998,5914,15.36,3.38,30,57,0,0
273825,168383135,2,5917,6000,15.42,3.03,30,57,0,0
274229,168488413,2,6001,6085,15.41,3.34,30,57,0,0
274677,168595760,2,6084,6071,15.39,3.01,30,57,0,0
275161,168715224,2,6079,6171,15.47,3.2,30,57,0,0
275608,168821667,2,6144,5871,15.38,2.99,30,57,0,0
276057,168932207,2,5890,6071,15.4,3.18,30,57,0,0
276461,169029603,2,6063,5900,15.4,3.07,30,58,0,0
276910,169145053,2,5904,5957,15.35,3.09,30,58,0,0
277357,169256042,2,5957,5957,15.35,3,30,58,0,0
277799,169364656,2,5957,5957,15.33,3.09,30,58,0,0
278209,169473235,2,5956,5942,15.38,2.64,30,58,0,0
278657,169583095,2,5942,5942,15.4,2.91,30,58,0,0
279518,169800450,2,5932,5657,15.33,2.79,30,58,0,0
279963,169911799,2,5658,5671,15.36,2.82,30,58,0,0
280413,170021041,2,5677,5742,15.36,2.77,30,58,0,0
280813,170120874,2,5740,5685,15.36,2.72,30,58,0,0
281306,170238082,2,5701,5857,15.41,3.06,30,58,0,0
281747,170345939,2,5863,6028,15.34,3.36,30,59,0,0
282237,170465083,2,6037,6128,15.33,3.1,30,59,0,0
282638,170559640,2,6127,6071,15.39,3.24,30,59,0,0
283122,170678752,2,6072,6085,15.36,3.19,30,59,0,0
283571,170788610,2,6076,5957,15.39,2.9,30,59,0,0
284017,170899702,2,5959,5985,15.35,3.18,30,59,0,0
284466,171008197,2,5985,5985,15.38,3.26,30,59,0,0
284910,171119951,2,5988,6028,15.36,3.06,30,59,0,0
285355,171227949,2,6022,5957,15.37,2.66,30,59,0,0
285761,171329464,2,5953,5714,15.36,2.38,30,59,0,0
286207,171437249,2,5711,5642,15.39,2.52,30,59,0,0
286653,171547021,2,5642,5700,15.42,2.47,30,60,0,0
287137,171666441,2,5703,5742,15.41,2.66,30,60,0,0
287582,171774036,2,5736,5657,15.39,2.68,30,60,0,0
287997,171883975,2,5655,5642,15.39,2.56,30,60,0,0
288441,171988820,2,5653,5814,15.36,2.49,30,60,0,0
288843,172091230,2,5810,5628,15.39,2.5,30,60,0,0
289330,172207699,2,5631,5671,15.39,2.46,30,60,0,0
289735,172315208,2,5669,5657,15.41,2.65,30,60,0,0
290145,172420341,2,5659,5685,15.36,2.43,30,60,0,0
290586,172528081,2,5674,5542,15.33,2.22,30,60,0,0
291037,172640034,2,5545,5600,15.34,2.67,30,60,0,0
291439,172743633,2,5600,5628,15.39,2.69,30,60,0,0
291889,172854109,2,5632,5685,15.36,2.82,30,60,0,0
292339,172966468,2,5699,5857,15.43,2.79,30,61,0,0
293193,173184710,2,5857,5857,15.33,3.1,30,61,0,0
293597,173287170,2,5862,6000,15.39,3.06,30,61,0,0
294083,173402750,2,5996,5957,15.44,2.67,30,61,0,0
294481,173500718,2,5945,5742,15.42,2.51,30,61,0,0
294927,173608757,2,5743,5800,15.42,2.71,30,61,0,0
295380,173725196,2,5794,5685,15.46,2.48,30,61,0,0
295835,173839963,2,5683,5671,15.5,2.49,30,61,0,0
296240,173943755,2,5673,5700,15.42,2.62,30,61,0,0
296692,174057066,2,5718,5914,15.39,2.64,30,61,0,0
297575,174267962,2,5909,5557,15.42,2.57,30,62,0,0
298026,174379694,2,5568,5728,15.44,2.34,30,62,0,0
298469,174489743,2,5723,5657,15.38,2.31,30,62,0,0
298918,174601068,2,5652,5614,15.38,2.66,30,62,0,0
299327,174706819,2,5625,5742,15.46,2.12,30,62,0,0
299775,174816334,2,5728,5557,15.45,1.65,30,62,0,0
300182,174920524,2,5547,5371,15.45,2.12,30,62,0,0
300635,175031715,2,5391,5657,15.35,2.41,30,62,0,0
301079,175140691,2,5663,5800,15.32,2.72,30,62,0,0
301525,175250071,2,5805,5871,15.39,2.55,30,62,0,0
302408,175467854,2,5873,5928,15.36,2.81,30,62,0,0
302856,175578023,2,5923,5871,15.41,2.93,30,62,0,0
303262,175679945,2,5872,5942,15.42,2.93,30,63,0,0
303707,175794037,2,5947,6000,15.36,3.21,30,63,0,0
304156,175903010,2,6009,6185,15.33,3.56,30,63,0,0
304605,176010711,2,6181,6100,15.38,3.36,30,63,0,0
305057,176128725,2,6106,6200,15.42,3.31,30,63,0,0
305464,176230222,2,6196,5971,15.35,3.32,30,63,0,0
305951,176351678,2,5979,6042,15.37,2.84,30,63,0,0
306394,176458720,2,6043,6057,15.46,2.74,30,63,0,0
306795,176556720,2,6056,6042,15.43,2.52,30,63,0,0
307242,176672007,2,6031,5928,15.45,2.54,30,63,0,0
308136,176888505,2,5921,5671,15.39,2.11,30,64,0,0
308584,176999398,2,5648,5357,15.45,1.8,30,64,0,0
309028,177108531,2,5359,5385,15.31,1.98,30,64,0,0
309437,177210837,2,5385,5385,15.42,2.38,30,64,0,0
309887,177325739,2,5399,5542,15.26,2.57,30,64,0,0
310333,177430027,2,5550,5785,15.26,2.88,30,64,0,0
310774,177540238,2,5794,5914,15.34,2.6,30,64,0,0
311662,177758350,2,5914,5942,15.35,2.89,30,64,0,0
312560,177980463,2,5944,6000,15.35,3.17,30,64,0,0
313004,178089502,2,5995,5957,15.31,3.26,30,64,0,0
313409,178189759,2,5960,6028,15.29,3.44,30,65,0,0
313857,178303166,2,6031,6128,15.36,3.47,30,65,0,0
314304,178409475,2,6137,6257,15.32,3.16,30,65,0,0
314704,178509986,2,6258,6314,15.39,3.23,30,65,0,0
315155,178618865,2,6313,6300,15.41,3.36,30,65,0,0
315602,178732681,2,6303,6357,15.41,3,30,65,0,0
316009,178833329,2,6353,6128,15.4,2.95,30,65,0,0
316458,178946476,2,6121,6042,15.39,2.46,30,65,0,0
317312,179158874,2,6040,5785,15.39,2.59,30,65,0,0
317795,179275670,2,5787,5814,15.4,2.63,30,65,0,0
318242,179381068,2,5815,5857,15.35,2.83,30,66,0,0
318688,179491708,2,5855,5842,15.33,2.92,30,66,0,0
319131,179596497,2,5840,5814,15.27,2.97,30,66,0,0
319537,179701748,2,5816,5957,15.34,3.39,30,66,0,0
320026,179819714,2,5958,5971,15.3,3.39,30,66,0,0
320427,179919467,2,5974,6214,15.37,3.54,30,66,0,0
320876,180028012,2,6210,6014,15.41,2.97,30,66,0,0
321368,180149174,2,6021,6100,15.35,3.02,30,66,0,0
321800,180253292,2,6104,6200,15.27,3.47,30,66,0,0
322256,180365759,2,6184,6028,15.28,3.32,30,66,0,0
322703,180475721,2,6050,6271,15.29,3.69,30,66,0,0
323104,180575499,2,6271,6271,15.33,3.45,30,67,0,0
323547,180687360,2,6264,6142,15.32,3.46,30,67,0,0
324001,180798974,2,6147,6271,15.36,3.55,30,67,0,0
324410,180904603,2,6265,6171,15.38,3.4,30,67,0,0
324904,181023669,2,6185,6342,15.38,3.6,30,67,0,0
325300,181121204,2,6332,6157,15.38,3.31,30,67,0,0
325752,181232535,2,6155,6128,15.32,3.52,30,67,0,0
326195,181344694,2,6145,6314,15.36,3.33,30,67,0,0
326642,181458734,2,6315,6328,15.35,3.62,30,67,0,0
327046,181554729,2,6328,6357,15.38,3.71,30,68,0,0
327493,181666518,2,6344,6228,15.35,3.23,30,68,0,0
327935,181771025,2,6217,6114,15.41,3.03,30,68,0,0
328379,181878739,2,6108,6057,15.33,3.24,30,68,0,0
328830,181987026,2,6050,5985,15.39,3.1,30,68,0,0
329275,182095649,2,5977,5871,15.42,2.72,30,68,0,0
329720,182201780,2,5875,5971,15.36,2.86,30,68,0,0
330168,182316632,2,5951,5685,15.45,2.61,30,68,0,0
330614,182422928,2,5680,5628,15.45,2.32,30,68,0,0
331058,182533814,2,5625,5585,15.42,2.35,30,68,0,0
331504,182645246,2,5585,5600,15.35,2.48,30,68,0,0
331952,182753409,2,5611,5857,15.41,2.72,30,69,0,0
332892,182979501,2,5865,6042,15.36,3.24,30,69,0,0
333291,183080381,2,6049,6214,15.33,3.52,30,69,0,0
333739,183189206,2,6215,6314,15.3,3.98,30,69,0,0
334182,183299179,2,6323,6442,15.3,4,30,69,0,0
334630,183404073,2,6443,6514,15.28,3.97,30,69,0,0
335557,183631219,2,6520,6642,15.35,3.68,30,69,0,0
335961,183730096,2,6640,6542,15.34,3.57,30,69,0,0
336447,183849643,2,6513,6285,15.35,3.44,30,70,0,0
336853,183946813,2,6286,6314,15.38,3.52,30,70,0,0
337338,184065025,2,6301,6200,15.35,3.2,30,70,0,0
337785,184178020,2,6211,6285,15.39,3.34,30,70,0,0
338187,184274744,2,6281,6228,15.38,3.12,30,70,0,0
338635,184384662,2,6223,6128,15.39,3.02,30,70,0,0
339080,184491723,2,6128,6142,15.36,3.28,30,70,0,0
339523,184602263,2,6137,6042,15.35,3.07,30,70,0,0
339969,184713018,2,6044,6071,15.38,3.24,30,70,0,0
340421,184826516,2,6078,6157,15.35,3.36,30,70,0,0
341276,185043643,2,6160,6257,15.31,3.13,30,71,0,0
342159,185263771,2,6247,6042,15.38,3.06,30,71,0,0
342614,185375462,2,6043,6057,15.32,3.28,30,71,0,0
343058,185484758,2,6053,6014,15.39,3.06,30,71,0,0
343466,185586183,2,6020,6085,15.32,3.07,30,71,0,0
343872,185692657,2,6081,5814,15.36,2.58,30,71,0,0
344322,185798087,2,5811,5700,15.33,2.75,30,71,0,0
344768,185912502,2,5697,5657,15.42,2.19,30,71,0,0
345224,186022104,2,5658,5671,15.36,2.89,30,71,0,0
345622,186125070,2,5669,5657,15.42,2.49,30,72,0,0
346508,186340404,2,5656,5614,15.57,2.41,30,72,0,0
347400,186559973,2,5592,4671,15.61,1.87,30,72,0,0
347875,186670284,2,4651,4200,15.42,1.31,30,72,0,0
348323,186779628,2,4145,3442,15.61,0.9399999999999999,30,72,0,0
348732,186882228,2,3418,2785,15.73,0.35,30,72,0,0
349218,186995714,2,2782,2757,15.72,0.49,30,72,0,0
349622,187097993,2,2755,2728,15.72,0.43,30,72,0,0
350072,187210951,2,2730,2785,15.73,0.39,30,72,0,0
350475,187313305,2,2785,2785,15.73,0.44,30,72,0,0
350966,187431132,2,2782,2757,15.7,0.41,30,72,0,0
351858,187656225,2,2754,2714,15.72,0.44,30,72,0,0
352264,187756216,2,2716,2742,15.74,0.41,30,72,0,0
352708,187866202,2,2742,2757,15.73,0.4,30,72,0,0
353159,187973131,2,2761,2828,15.75,0.43,30,72,0,0
353598,188079761,2,2830,2871,15.74,0.38,30,72,0,0
354044,188185191,2,2870,2857,15.76,0.39,30,72,0,0
354491,188296769,2,2856,2842,15.74,0.4,30,72,0,0
354945,188406806,2,2840,2828,15.76,0.35,30,72,0,0
355390,188514847,2,2828,2828,15.75,0.4,30,72,0,0
356277,188728300,2,2792,1714,15.82,0,30,72,0,0
356727,188835855,2,1709,1371,15.8,0.04,30,72,0,0
357169,188944176,2,1370,1328,15.8,0.08,30,72,0,0
357670,189068283,2,1326,1314,15.8,0.08,30,72,0,0
358066,189162253,2,1314,1314,15.81,0.09,30,72,0,0
358558,189280758,2,1314,1314,15.81,0.09,30,72,0,0
359008,189387074,2,1313,1300,15.81,0.09,30,72,0,0
359455,189497549,2,1301,1314,15.81,0.09,30,72,0,0
359900,189602239,2,1314,1314,15.81,0.09,30,72,0,0
360304,189704185,2,1314,1314,15.82,0.09,30,72,0,0
360754,189813729,2,1313,1300,15.82,0.09,30,72,0,0
361196,189918666,2,1300,1300,15.82,0.09,30,72,0,0
361686,190034660,2,1301,1314,15.82,0.09,30,72,0,0
362095,190135251,2,1314,1314,15.82,0.09,30,72,0,0
362542,190240016,2,1314,1328,15.82,0.09,30,72,0,0
363023,190351020,2,1328,1328,15.82,0.09,30,72,0,0
363435,190457734,2,1327,1314,15.82,0.09,30,72,0,0
363880,190562646,2,1314,1314,15.82,0.09,30,72,0,0
364324,190669070,2,1314,1314,15.83,0.09,30,72,0,0
364810,190780765,2,1314,1314,15.83,0.09999999,30,72,0,0
365301,190898458,2,1312,1300,15.83,0.09999999,30,72,0,0
365747,191006498,2,1301,1314,15.84,0.09999999,30,72,0,0
366198,191118870,2,1314,1314,15.84,0.09,30,72,0,0
366634,191216750,2,1313,1300,15.84,0.09,30,72,0,0
367126,191335639,2,1301,1314,15.83,0.09,30,72,0,0
367530,191432197,2,1314,1314,15.84,0.09,30,72,0,0
367974,191544169,2,1313,1300,15.85,0.09,30,72,0,0
368424,191656771,2,1301,1314,15.85,0.09,30,72,0,0
368869,191761068,2,1314,1314,15.85,0.09,30,72,0,0
369318,191872565,2,1314,1314,15.84,0.09,30,72,0,0
369763,191973525,2,1313,1300,15.85,0.09,30,72,0,0
370208,192082028,2,1300,1314,15.84,0.09,30,72,0,0
370662,192190994,2,1314,1314,15.84,0.09,30,72,0,0
371108,192299530,2,1314,1314,15.85,0.09,30,72,0,0
371554,192406518,2,1314,1314,15.85,0.09,30,72,0,0
371994,192513291,2,1314,1314,15.85,0.09,30,72,0,0
372442,192621439,2,1314,1314,15.85,0.09,30,72,0,0
372930,192738084,2,1314,1314,15.86,0.09,30,72,0,0
373377,192840868,2,1314,1314,15.85,0.09,30,72,0,0
373821,192948621,2,1314,1314,15.86,0.09,30,72,0,0
374231,193054643,2,1314,1314,15.85,0.09,30,72,0,0
374725,193169417,2,1314,1314,15.86,0.09,30,72,0,0
375126,193268242,2,1314,1314,15.86,0.09,30,72,0,0
375576,193373877,2,1314,1314,15.86,0.09,30,72,0,0
376510,193597080,2,1314,1314,15.87,0.09,30,72,0,0
376953,193705143,2,1314,1314,15.87,0.09,30,72,0,0
377402,193809538,2,1314,1314,15.86,0.09,30,72,0,0
377849,193920070,2,1314,1314,15.87,0.09,30,72,0,0
378297,194026076,2,1314,1314,15.87,0.09,30,72,0,0
378746,194140683,2,1314,1314,15.87,0.09,30,72,0,0
379192,194250488,2,1312,1300,15.87,0.09,30,72,0,0
379634,194349456,2,1300,1300,15.87,0.09,30,72,0,0
380078,194458049,2,1300,1314,15.87,0.09,30,72,0,0
380526,194565232,2,1312,1300,15.87,0.09,30,72,0,0
380970,194673658,2,1300,1314,15.87,0.09,30,72,0,0
381417,194778772,2,1314,1314,15.88,0.09,30,72,0,0
381859,194889062,2,1314,1314,15.88,0.09,30,72,0,0
382311,194994444,2,1314,1314,15.88,0.09,30,72,0,0
382794,195111509,2,1314,1314,15.88,0.09,30,72,0,0
383237,195216233,2,1314,1328,15.88,0.09,30,72,0,0
383725,195330036,2,1327,1314,15.89,0.09,30,72,0,0
384175,195442940,2,1314,1314,15.88,0.09,30,72,0,0
384576,195536757,2,1314,1314,15.89,0.09,30,72,0,0
385067,195655046,2,1314,1314,15.89,0.09,30,72,0,0
385518,195764873,2,1314,1314,15.88,0.09,30,72,0,0
385880,195858638,2,1314,1314,15.88,0.09,30,72,0,0
386328,195965392,2,1314,1314,15.89,0.09999999,30,72,0,0
386816,196085665,2,1314,1314,15.89,0.09,30,72,0,0
387262,196192084,2,1314,1314,15.88,0.09,30,72,0,0
387708,196301052,2,1314,1314,15.89,0.09,30,72,0,0
388149,196402206,2,1314,1314,15.89,0.09,30,72,0,0
388561,196508690,2,1314,1314,15.89,0.09,30,72,0,0
389053,196626468,2,1314,1314,15.89,0.09999999,30,72,0,0
389906,196835687,2,1314,1328,15.89,0.09999999,30,72,0,0
390359,196948782,2,1327,1314,15.89,0.09999999,30,72,0,0
390807,197059214,2,1315,1328,15.89,0.09,30,72,0,0
391256,197165720,2,1328,1328,15.89,0.09,30,72,0,0
391705,197273877,2,1328,1328,15.9,0.09,30,72,0,0
392151,197378192,2,1328,1328,15.89,0.09,30,72,0,0
392597,197486254,2,1328,1328,15.9,0.09,30,72,0,0
393045,197592200,2,1328,1328,15.9,0.09,30,72,0,0
393492,197703156,2,1328,1328,15.9,0.08,30,72,0,0
393978,197812202,2,1328,1328,15.91,0.09,30,72,0,0
394421,197920324,2,1328,1328,15.91,0.09,30,72,0,0
394871,198029147,2,1328,1328,15.9,0.09,30,72,0,0
395313,198134665,2,1328,1328,15.91,0.09,30,72,0,0
395762,198241684,2,1328,1328,15.9,0.09,30,72,0,0
396207,198349237,2,1328,1328,15.91,0.09,30,72,0,0
397099,198565190,2,1325,1271,15.93,0.06,30,72,0,0
397546,198668727,2,1258,285,15.92,0,30,72,0,0
398044,198784858,2,259,0,15.92,0.02,29,72,0,0
398497,198895500,2,0,0,15.92,0.02,29,72,0,0
398949,199001434,2,0,0,15.92,0.02,30,72,0,0
399325,199110654,2,0,0,15.92,0.02,30,72,0,0
399822,199227503,2,0,0,15.92,0.02,29,72,0,0
400271,199335411,2,0,0,15.92,0.02,29,72,0,0
401215,199558397,2,0,0,15.93,0.03,29,72,0,0
401664,199665645,2,0,0,15.93,0.03,29,72,0,0
402117,199770243,2,0,0,15.92,0.03,30,72,0,0
402567,199877779,2,0,0,15.93,0.03,29,72,0,0
403018,199979651,2,0,0,15.94,0.03,29,72,0,0
403468,200088944,2,0,0,15.93,0.03,29,72,0,0
403965,200203786,2,0,0,15.93,0.03,29,72,0,0
404376,200302754,2,0,0,15.94,0.03,29,72,0,0
404827,200408504,2,0,0,15.93,0.03,29,72,0,0
405317,200524224,2,0,0,15.94,0.03,29,72,0,0
405774,200630730,2,0,0,15.94,0.03,29,72,0,0
406226,200738541,2,0,0,15.93,0.02,29,72,0,0
406675,200846855,2,0,0,15.94,0.03,29,72,0,0
407174,200961685,2,0,0,15.93,0.03,29,72,0,0
407953,201176626,2,0,0,15.94,0.03,29,72,0,0
408411,201289474,2,0,0,15.94,0.03,29,72,0,0
408860,201394489,2,0,0,15.94,0.03,29,72,0,0
409354,201511696,2,0,0,15.94,0.03,29,72,0,0
410259,201727502,2,0,0,15.94,0.03,29,72,0,0
410710,201831999,2,0,0,15.95,0.03,29,72,0,0
411160,201937668,2,0,0,15.95,0.03,29,72,0,0
411607,202045032,2,0,0,15.94,0.03,29,72,0,0
412106,202158405,2,0,0,15.94,0.03,29,72,0,0
412553,202264848,2,0,0,15.94,0.02,29,72,0,0
413049,202381173,2,0,0,15.94,0.03,29,72,0,0
413457,202479685,2,0,0,15.94,0.03,29,72,0,0
413952,202596299,2,0,0,15.94,0.03,29,72,0,0
414409,202708100,2,0,0,15.95,0.03,29,72,0,0
414860,202812465,2,0,0,15.95,0.03,29,72,0,0
415315,202924558,2,0,0,15.95,0.03,29,72,0,0
415768,203031871,2,0,0,15.95,0.03,29,72,0,0
416214,203137487,2,0,0,15.95,0.02,29,72,0,0
416670,203245772,2,0,0,15.94,0.02,29,72,0,0
417119,203353745,2,0,0,15.95,0.02,29,72,0,0
417572,203464856,2,0,0,15.94,0.02,29,72,0,0
418064,203580806,2,0,0,15.95,0.02,29,72,0,0
418517,203686507,2,0,0,15.95,0.03,29,72,0,0
418970,203792012,2,0,0,15.95,0.03,29,72,0,0
419420,203900046,2,0,0,15.95,0.03,29,72,0,0
419919,204015244,2,0,0,15.95,0.03,29,72,0,0
420370,204123405,2,0,0,15.95,0.03,29,72,0,0
420825,204227781,2,0,0,15.95,0.03,29,72,0,0
421315,204344447,2,0,0,15.95,0.03,29,72,0,0
421765,204454939,2,0,0,15.95,0.03,29,72,0,0
422216,204560626,2,0,0,15.95,0.03,29,72,0,0
422666,204668642,2,0,0,15.95,0.03,29,72,0,0
423119,204774469,2,0,0,15.96,0.03,29,72,0,0
423609,204887942,2,0,0,15.96,0.03,29,72,0,0
424022,204986759,2,0,0,15.96,0.03,29,72,0,0
424517,205106480,2,0,0,15.95,0.03,29,72,0,0
424973,205210862,2,0,0,15.95,0.03,29,72,0,0
