LineNo,TimeUS,Instance,RPM,RawRPM,Volt,Curr,Temp,CTot,MotTemp,Err
1821,101475472,3,0,0,16.41,0.05,29,0,0,0
2737,101693368,3,0,0,16.41,0.04,29,0,0,0
3195,101800041,3,0,0,16.42,0.04,29,0,0,0
3652,101906668,3,0,0,16.41,0.04,29,0,0,0
4111,102009857,3,0,0,16.42,0.04,28,0,0,0
4601,102121426,3,0,0,16.41,0.04,29,0,0,0
5057,102227237,3,0,0,16.42,0.04,29,0,0,0
5512,102336266,3,0,0,16.42,0.04,29,0,0,0
5963,102438867,3,0,0,16.42,0.04,29,0,0,0
6398,102545768,3,0,0,16.41,0.04,29,0,0,0
6874,102660011,3,0,0,16.41,0.05,29,0,0,0
7325,102767229,3,0,0,16.41,0.04,28,0,0,0
7772,102871054,3,0,0,16.41,0.04,29,0,0,0
8271,102985420,3,33,371,16.4,0.07000000000000001,29,0,0,0
8727,103091794,3,404,742,16.39,0.12,29,0,0,0
9180,103194109,3,761,1157,16.39,0.16,29,0,0,0
10086,103406678,3,1158,1300,16.39,0.12,29,0,0,0
10578,103520624,3,1302,1328,16.4,0.11,29,0,0,0
11033,103625996,3,1328,1342,16.39,0.11,29,0,0,0
11438,103729973,3,1342,1342,16.41,0.11,29,0,0,0
11913,103842157,3,1342,1342,16.4,0.11,29,0,0,0
12361,103946712,3,1342,1342,16.39,0.11,29,0,0,0
12858,104060445,3,1342,1342,16.39,0.11,29,0,0,0
13309,104162811,3,1341,1328,16.39,0.11,29,0,0,0
13601,104271517,3,1328,1342,16.39,0.11,29,0,0,0
14102,104385442,3,1342,1342,16.4,0.11,29,0,0,0
15003,104592173,3,1342,1342,16.4,0.11,29,0,0,0
15457,104701037,3,1342,1342,16.4,0.11,29,0,0,0
15956,104813428,3,1341,1328,16.4,0.11,29,0,0,0
16391,104919025,3,1328,1328,16.4,0.11,29,0,0,0
16868,105032301,3,1328,1328,16.39,0.11,29,0,0,0
17322,105141008,3,1329,1342,16.39,0.11,29,0,0,0
17808,105248966,3,1342,1342,16.39,0.11,29,0,0,0
18259,105353730,3,1342,1342,16.39,0.11,29,0,0,0
18708,105457793,3,1341,1328,16.4,0.11,29,0,0,0
19169,105566103,3,1328,1342,16.39,0.11,29,0,0,0
19630,105679031,3,1341,1328,16.39,0.11,29,0,0,0
20083,105783388,3,1328,1328,16.39,0.11,29,0,0,0
20538,105892686,3,1328,1328,16.4,0.11,29,0,0,0
21041,106006120,3,1328,1328,16.39,0.11,29,0,0,0
21484,106114672,3,1328,1328,16.39,0.11,29,0,0,0
21920,106218710,3,1341,1485,16.35,0.22,29,0,0,0
22370,106326633,3,1540,2114,16.27,0.6,29,1,0,0
22824,106433161,3,2137,2471,16.25,0.52,29,1,0,0
23741,106657061,3,2507,3242,16.14,1.1,29,1,0,0
24599,106861067,3,3255,4457,15.66,3.21,29,1,0,0
25029,106968640,3,4468,4957,15.88,2.81,29,1,0,0
25489,107083849,3,5001,5442,15.79,3.04,29,1,0,0
25944,107187681,3,5463,5771,15.68,3.55,29,1,0,0
26391,107301609,3,5776,5828,15.76,3.22,29,1,0,0
26820,107406421,3,5811,5585,15.9,2.27,29,1,0,0
27263,107513643,3,5559,5185,15.89,1.93,29,1,0,0
27718,107620779,3,5186,5228,15.85,2.01,29,1,0,0
28172,107731518,3,5217,4985,15.86,1.5,29,1,0,0
28665,107850015,3,4961,4757,15.85,1.57,29,1,0,0
29123,107957963,3,4733,4514,15.88,1.59,29,1,0,0
29578,108071091,3,4512,4500,15.83,1.48,29,1,0,0
30030,108175249,3,4507,4585,15.83,1.77,29,2,0,0
30482,108283071,3,4605,4800,15.88,2.15,29,2,0,0
31841,108608240,3,4806,5114,15.79,2.25,29,2,0,0
32708,108818139,3,5118,5314,15.91,2.42,29,2,0,0
33152,108928680,3,5319,5457,15.82,2.35,29,2,0,0
34100,109154611,3,5455,5414,15.8,2.39,29,2,0,0
34595,109272602,3,5388,5142,15.88,2.23,29,2,0,0
35010,109374696,3,5152,5285,15.79,2.36,29,2,0,0
35466,109484760,3,5281,5242,15.79,2.28,29,2,0,0
35917,109591854,3,5243,5271,15.86,2.31,29,2,0,0
36369,109701699,3,5267,5185,15.76,2.2,29,3,0,0
36820,109807193,3,5180,5071,15.87,2.14,29,3,0,0
37220,109907193,3,5070,5028,15.85,1.83,29,3,0,0
38110,110124510,3,5028,5042,15.78,2.07,29,3,0,0
38561,110235477,3,5042,5042,15.83,1.95,29,3,0,0
39015,110341736,3,5039,4928,15.8,2.02,29,3,0,0
39464,110458822,3,4928,4928,15.77,1.94,29,3,0,0
39916,110571202,3,4922,4871,15.83,1.87,29,3,0,0
40354,110678632,3,4868,4842,15.79,1.9,29,3,0,0
40779,110784492,3,4850,4928,15.8,1.95,29,3,0,0
41165,110884020,3,4926,4828,15.82,1.84,29,3,0,0
41615,110990706,3,4829,4900,15.77,2.16,29,3,0,0
42103,111112195,3,4916,5085,15.8,2.51,29,3,0,0
42546,111216095,3,5093,5200,15.81,2.34,29,3,0,0
42987,111322742,3,5197,5128,15.78,2.04,29,3,0,0
43483,111439416,3,5131,5171,15.77,2.33,29,4,0,0
43890,111547899,3,5191,5385,15.81,2.75,29,4,0,0
44291,111643625,3,5387,5442,15.79,2.71,29,4,0,0
44743,111758400,3,5447,5528,15.77,2.66,29,4,0,0
45187,111869239,3,5523,5485,15.78,2.45,29,4,0,0
45598,111972943,3,5475,5357,15.75,2.54,29,4,0,0
46484,112186696,3,5354,5257,15.67,2.45,29,4,0,0
46926,112295435,3,5259,5300,15.8,2.29,29,4,0,0
47374,112404981,3,5290,5142,15.77,2.24,29,4,0,0
47811,112517548,3,5115,4857,15.82,1.66,29,4,0,0
48239,112627469,3,4854,4814,15.8,1.6,29,4,0,0
48636,112728428,3,4805,4642,15.82,1.71,29,4,0,0
49088,112839448,3,4645,4742,15.67,1.98,29,4,0,0
49535,112950008,3,4748,4842,15.76,1.99,29,4,0,0
49984,113061991,3,4839,4771,15.91,1.67,29,5,0,0
50433,113169431,3,4761,4671,15.81,1.61,29,5,0,0
50830,113270751,3,4683,4842,15.77,2.03,29,5,0,0
51276,113376959,3,4844,4871,15.83,2.15,29,5,0,0
51685,113481231,3,4875,4971,15.83,2.06,29,5,0,0
52140,113594625,3,4981,5114,15.82,2.04,29,5,0,0
52549,113701687,3,5105,4985,15.78,1.96,29,5,0,0
53006,113815438,3,5007,5228,15.77,2.45,30,5,0,0
53406,113916715,3,5228,5257,15.68,2.39,29,5,0,0
53855,114027219,3,5254,5200,15.76,2.46,29,5,0,0
54306,114139459,3,5202,5257,15.8,2.42,30,5,0,0
54752,114251328,3,5267,5357,15.72,2.46,29,5,0,0
55202,114360027,3,5354,5328,15.72,2.58,30,5,0,0
55609,114461520,3,5328,5357,15.7,2.65,29,5,0,0
56058,114571994,3,5361,5414,15.7,2.65,29,5,0,0
56454,114674215,3,5415,5457,15.73,2.67,29,6,0,0
57321,114890020,3,5455,5285,15.67,2.25,30,6,0,0
57814,115006940,3,5273,5114,15.67,2.09,30,6,0,0
58256,115115190,3,5107,5014,15.76,1.95,29,6,0,0
59151,115332514,3,5015,5057,15.79,1.77,29,6,0,0
60050,115556407,3,5057,5071,15.72,1.93,29,6,0,0
60454,115659833,3,5072,5157,15.7,2.56,29,6,0,0
60904,115768069,3,5163,5314,15.69,2.3,30,6,0,0
61348,115879270,3,5311,5142,15.67,1.99,30,6,0,0
61833,115989760,3,5145,5200,15.69,2.41,29,6,0,0
62284,116106423,3,5192,5114,15.69,2.2,30,6,0,0
62689,116204537,3,5113,5100,15.64,2.02,29,6,0,0
63174,116319782,3,5086,4900,15.72,1.84,30,7,0,0
63628,116430738,3,4905,4957,15.71,1.99,29,7,0,0
64031,116532051,3,4952,4871,15.77,2.01,29,7,0,0
64480,116641615,3,4871,4914,15.7,2.04,29,7,0,0
64925,116753628,3,4930,5157,15.71,2.54,30,7,0,0
65375,116870296,3,5155,5142,15.66,2.37,29,7,0,0
65785,116968946,3,5160,5400,15.65,2.15,29,7,0,0
66230,117081003,3,5392,5228,15.6,2.43,29,7,0,0
66678,117189430,3,5229,5271,15.69,2.43,29,7,0,0
67120,117304736,3,5272,5285,15.6,2.47,29,7,0,0
67575,117410645,3,5285,5300,15.72,2.28,29,7,0,0
68017,117526481,3,5286,5200,15.76,2,29,7,0,0
68907,117745525,3,5195,5114,15.67,2.04,29,7,0,0
69311,117845068,3,5114,5128,15.66,2.16,29,7,0,0
69766,117955443,3,5123,5042,15.69,2.27,29,7,0,0
70212,118072662,3,5058,5200,15.69,2.22,29,8,0,0
70661,118182041,3,5203,5242,15.7,2.5,29,8,0,0
71071,118286709,3,5244,5271,15.66,2.34,30,8,0,0
71561,118405618,3,5281,5400,15.65,2.46,29,8,0,0
71958,118500226,3,5398,5371,15.67,2.24,30,8,0,0
72404,118611670,3,5361,5171,15.68,2.18,29,8,0,0
72852,118724714,3,5176,5228,15.71,2.06,29,8,0,0
73302,118834535,3,5219,5142,15.66,2.36,29,8,0,0
73712,118939444,3,5138,5100,15.62,2.46,29,8,0,0
74200,119056037,3,5103,5128,15.66,2.21,29,8,0,0
74641,119164108,3,5121,5057,15.7,1.99,29,8,0,0
75048,119269989,3,5044,4942,15.67,2.16,30,8,0,0
75459,119371173,3,4943,4971,15.7,2.28,30,8,0,0
75907,119486103,3,4975,5028,15.72,2.12,30,8,0,0
76348,119589012,3,5039,5171,15.54,2.51,30,9,0,0
76799,119702258,3,5190,5357,15.61,2.87,30,9,0,0
77251,119813983,3,5365,5442,15.6,2.77,29,9,0,0
77654,119914925,3,5442,5457,15.63,2.86,29,9,0,0
78103,120021604,3,5468,5714,15.66,3.04,30,9,0,0
79031,120246828,3,5709,5614,15.7,2.64,29,9,0,0
79482,120360078,3,5593,5428,15.64,2.53,29,9,0,0
79922,120466953,3,5428,5428,15.67,2.6,29,9,0,0
80374,120577300,3,5423,5385,15.66,2.6,29,9,0,0
80819,120687225,3,5380,5328,15.66,2.36,30,9,0,0
81265,120795174,3,5326,5314,15.72,2.32,29,9,0,0
81671,120898151,3,5314,5342,15.69,2.4,30,10,0,0
82166,121018627,3,5356,5500,15.62,2.91,29,10,0,0
82603,121122333,3,5498,5485,15.72,2.71,30,10,0,0
83052,121229524,3,5489,5557,15.67,2.73,30,10,0,0
83450,121332668,3,5567,5771,15.67,3.13,30,10,0,0
83942,121454115,3,5760,5657,15.65,2.97,29,10,0,0
84347,121551873,3,5654,5585,15.58,2.84,29,10,0,0
84836,121674500,3,5592,5671,15.67,2.85,29,10,0,0
85239,121771799,3,5676,5742,15.59,3.05,30,10,0,0
85684,121881104,3,5753,5857,15.61,3.23,30,10,0,0
86131,121988643,3,5855,5842,15.61,3.28,30,10,0,0
86576,122099051,3,5844,5871,15.61,3.26,29,10,0,0
87026,122206868,3,5874,5914,15.57,3.14,30,11,0,0
87430,122310557,3,5912,5828,15.65,3.02,30,11,0,0
87923,122429039,3,5824,5785,15.61,2.98,30,11,0,0
88324,122530233,3,5774,5642,15.6,2.88,30,11,0,0
88773,122638719,3,5637,5600,15.56,2.82,30,11,0,0
89253,122749193,3,5608,5728,15.68,2.79,30,11,0,0
89708,122865834,3,5733,5785,15.54,2.78,30,11,0,0
90113,122965739,3,5773,5557,15.56,2.73,30,11,0,0
90523,123073119,3,5557,5571,15.6,2.75,30,11,0,0
90970,123180384,3,5568,5471,15.65,2.67,30,11,0,0
91415,123290225,3,5474,5557,15.63,2.86,30,11,0,0
91902,123401367,3,5564,5657,15.62,2.83,30,12,0,0
92303,123502166,3,5658,5728,15.61,2.87,30,12,0,0
92758,123617946,3,5728,5728,15.63,2.75,30,12,0,0
93202,123728052,3,5725,5657,15.63,2.9,30,12,0,0
93701,123849746,3,5679,5914,15.57,3.51,30,12,0,0
94102,123952624,3,5919,6057,15.59,3.35,30,12,0,0
94547,124060713,3,6040,5757,15.65,2.77,30,12,0,0
95001,124172105,3,5752,5714,15.69,3.08,30,12,0,0
95482,124286540,3,5719,5785,15.61,3.02,30,12,0,0
95905,124396259,3,5785,5785,15.63,3.3,30,12,0,0
96344,124501665,3,5773,5614,15.6,2.64,30,12,0,0
96758,124607242,3,5613,5585,15.67,3.07,30,13,0,0
97237,124721210,3,5586,5600,15.64,2.81,30,13,0,0
97684,124828728,3,5600,5600,15.66,2.76,30,13,0,0
98134,124940826,3,5596,5514,15.69,2.39,30,13,0,0
98585,125049950,3,5512,5471,15.67,2.73,30,13,0,0
98990,125153629,3,5468,5414,15.69,2.63,30,13,0,0
99437,125267469,3,5415,5428,15.64,2.53,30,13,0,0
99888,125376019,3,5426,5385,15.66,2.65,30,13,0,0
100298,125481432,3,5387,5528,15.66,2.89,30,13,0,0
100787,125599669,3,5521,5457,15.64,2.62,30,13,0,0
101187,125700703,3,5457,5457,15.63,2.88,30,13,0,0
101639,125809021,3,5466,5671,15.62,2.86,30,13,0,0
102088,125922176,3,5670,5657,15.66,2.62,30,14,0,0
102540,126032459,3,5649,5542,15.6,2.95,30,14,0,0
102987,126145967,3,5568,5842,15.57,3.83,30,14,0,0
103469,126262776,3,5840,5828,15.55,3.19,30,14,0,0
103876,126362650,3,5816,5657,15.63,3.05,30,14,0,0
104322,126474056,3,5653,5600,15.63,2.51,30,14,0,0
104772,126586065,3,5582,5414,15.61,2.38,30,14,0,0
104932,126685608,3,5412,5385,15.66,2.75,30,14,0,0
105380,126796291,3,5395,5542,15.63,2.67,30,14,0,0
105791,126903763,3,5538,5357,15.64,2.43,30,14,0,0
106284,127019474,3,5341,5185,15.63,2.05,30,14,0,0
106686,127122633,3,5188,5242,15.66,2.26,30,14,0,0
107136,127233149,3,5236,5185,15.61,2.14,30,15,0,0
107538,127334033,3,5184,5171,15.6,2.4,30,15,0,0
107988,127445018,3,5167,5100,15.57,1.98,30,15,0,0
108436,127558543,3,5082,4900,15.59,2.07,30,15,0,0
108885,127670996,3,4910,5014,15.54,2.3,30,15,0,0
109287,127766865,3,5016,5157,15.52,2.47,30,15,0,0
110179,127983361,3,5157,5171,15.59,2.61,30,15,0,0
110627,128096250,3,5175,5285,15.58,2.59,30,15,0,0
111082,128209761,3,5286,5314,15.54,2.57,30,15,0,0
111488,128311698,3,5315,5357,15.6,2.52,30,15,0,0
111940,128423658,3,5350,5271,15.61,2.39,30,15,0,0
112388,128537743,3,5277,5342,15.64,2.51,30,15,0,0
112864,128651225,3,5324,5214,15.65,2.42,30,16,0,0
113680,128853830,3,5214,5300,15.64,2.46,30,16,0,0
114126,128964606,3,5308,5414,15.64,2.48,30,16,0,0
114572,129075215,3,5402,5285,15.59,2.6,30,16,0,0
115022,129184636,3,5303,5485,15.57,2.64,30,16,0,0
115433,129290109,3,5473,5228,15.67,2.35,30,16,0,0
115881,129397022,3,5234,5385,15.64,2.35,30,16,0,0
116323,129506578,3,5379,5271,15.63,2.12,30,16,0,0
116773,129617841,3,5258,5114,15.66,2.03,30,16,0,0
117633,129831077,3,5115,5171,15.52,2.46,30,16,0,0
118037,129933846,3,5167,5014,15.63,2.23,30,16,0,0
118968,130162070,3,5019,5157,15.58,2.58,30,16,0,0
119416,130276717,3,5164,5228,15.52,2.71,30,17,0,0
119869,130387520,3,5254,5428,15.6,2.64,30,17,0,0
120318,130497954,3,5436,5528,15.6,2.83,30,17,0,0
120764,130607811,3,5532,5585,15.57,2.86,30,17,0,0
121659,130826101,3,5586,5614,15.61,2.69,30,17,0,0
122054,130921202,3,5611,5514,15.57,2.63,30,17,0,0
122509,131033603,3,5505,5385,15.58,2.54,30,17,0,0
123439,131262092,3,5375,5200,15.59,1.97,30,17,0,0
123845,131360857,3,5188,5014,15.54,2.23,30,17,0,0
124253,131466643,3,5014,5014,15.63,1.92,30,17,0,0
124743,131585496,3,4999,4842,15.62,1.9,30,17,0,0
125180,131693156,3,4842,4842,15.55,2.1,30,18,0,0
125635,131804853,3,4839,4814,15.56,1.86,30,18,0,0
126046,131908755,3,4815,4871,15.58,2.15,30,18,0,0
126495,132018493,3,4877,5142,15.6,2.46,30,18,0,0
126945,132131754,3,5157,5314,15.58,2.58,30,18,0,0
127353,132234684,3,5313,5285,15.53,2.4,30,18,0,0
127803,132345828,3,5284,5271,15.51,2.36,30,18,0,0
128291,132465185,3,5268,5228,15.55,2.41,30,18,0,0
128697,132563682,3,5226,5157,15.52,2.18,30,18,0,0
129147,132680506,3,5139,4971,15.57,2.02,30,18,0,0
129597,132789738,3,4953,4785,15.59,1.73,30,18,0,0
130487,133005458,3,4792,5000,15.61,2.07,30,18,0,0
130933,133115532,3,4998,4971,15.61,2.15,30,18,0,0
131381,133224691,3,4967,4900,15.66,2,30,18,0,0
131828,133335522,3,4904,4957,15.6,2.22,30,19,0,0
132277,133445740,3,4960,5000,15.61,2.32,30,19,0,0
132682,133549193,3,5005,5114,15.63,2.4,30,19,0,0
133136,133667863,3,5121,5200,15.6,2.51,30,19,0,0
133541,133766389,3,5197,5171,15.55,2.43,30,19,0,0
133985,133878240,3,5182,5357,15.56,2.61,30,19,0,0
134432,133984036,3,5354,5300,15.62,2.36,30,19,0,0
134885,134096682,3,5298,5271,15.5,2.39,30,19,0,0
135334,134205439,3,5267,5214,15.57,2.57,30,19,0,0
135780,134316683,3,5247,5600,15.54,3.08,30,19,0,0
136232,134427234,3,5594,5542,15.49,3.06,30,19,0,0
136681,134538835,3,5545,5585,15.59,2.87,30,19,0,0
137082,134638069,3,5583,5500,15.61,2.59,30,19,0,0
137569,134754706,3,5489,5342,15.62,2.11,30,20,0,0
137969,134856531,3,5339,5171,15.61,1.96,30,20,0,0
138461,134971027,3,5161,5028,15.61,2.09,30,20,0,0
138857,135073403,3,5028,5028,15.61,2,30,20,0,0
139356,135192643,3,5029,5042,15.6,2.17,30,20,0,0
139760,135294961,3,5041,5014,15.62,2.05,30,20,0,0
140657,135512628,3,5012,4942,15.5,2.37,30,20,0,0
141105,135622225,3,4943,5071,15.54,2.56,30,20,0,0
141554,135735565,3,5079,5285,15.57,2.55,30,20,0,0
142003,135842079,3,5277,5128,15.58,2.45,30,20,0,0
142449,135953094,3,5128,5185,15.49,2.27,30,20,0,0
142942,136074149,3,5181,5142,15.56,2.02,30,20,0,0
143347,136173150,3,5139,5000,15.54,2.05,30,20,0,0
143839,136295790,3,4993,4928,15.53,1.81,30,20,0,0
144248,136396177,3,4925,4857,15.59,1.71,30,21,0,0
144691,136505986,3,4848,4657,15.57,1.54,30,21,0,0
145140,136614509,3,4657,4700,15.6,1.64,30,21,0,0
145587,136724803,3,4701,4728,15.57,1.66,30,21,0,0
146039,136832493,3,4728,4728,15.6,1.95,30,21,0,0
146488,136950841,3,4739,4842,15.6,1.95,30,21,0,0
146899,137049174,3,4855,5014,15.6,2.03,30,21,0,0
147342,137158262,3,5014,5014,15.58,2.13,30,21,0,0
147751,137263108,3,5016,5185,15.55,2.1,30,21,0,0
148198,137369567,3,5187,5314,15.57,2.41,30,21,0,0
148650,137484220,3,5311,5285,15.55,2.23,30,21,0,0
149100,137592099,3,5274,5157,15.64,2.13,30,21,0,0
149540,137700207,3,5155,5142,15.6,2.56,30,21,0,0
149994,137812267,3,5167,5342,15.63,2.43,30,21,0,0
150439,137918434,3,5332,5228,15.55,2.33,30,21,0,0
150883,138027748,3,5223,5171,15.6,2.06,30,21,0,0
152222,138361268,3,5165,5000,15.5,2.07,30,22,0,0
152666,138468805,3,5001,5014,15.57,2.15,30,22,0,0
153117,138580858,3,5010,4985,15.5,2.07,30,22,0,0
153524,138681745,3,4994,5100,15.58,2.14,30,22,0,0
154419,138904535,3,5104,5214,15.57,2.26,30,22,0,0
155759,139228231,3,5210,5114,15.6,2.24,30,22,0,0
156163,139331876,3,5114,5128,15.54,2.26,30,22,0,0
156616,139441500,3,5129,5171,15.58,2.12,30,22,0,0
157070,139558217,3,5173,5200,15.58,2.27,30,22,0,0
157511,139665997,3,5193,5128,15.53,2.27,30,22,0,0
157962,139775019,3,5136,5214,15.59,1.96,30,23,0,0
158403,139880477,3,5201,5071,15.56,2.1,30,23,0,0
158853,139988123,3,5069,5028,15.56,2.06,30,23,0,0
159258,140091162,3,5028,5042,15.48,2.18,30,23,0,0
159749,140208648,3,5044,5071,15.47,2.16,30,23,0,0
160197,140319776,3,5083,5214,15.57,2.07,30,23,0,0
160643,140425996,3,5206,5128,15.51,2.04,30,23,0,0
161086,140535835,3,5131,5185,15.54,2.22,30,23,0,0
161542,140647854,3,5171,5042,15.52,1.81,30,23,0,0
161948,140750636,3,5029,4914,15.54,1.97,30,23,0,0
162395,140859488,3,4916,4942,15.57,1.94,30,23,0,0
162845,140971766,3,4940,4928,15.57,1.94,30,23,0,0
163283,141076639,3,4918,4828,15.57,1.96,30,23,0,0
163735,141187067,3,4824,4785,15.59,1.85,30,23,0,0
164172,141293231,3,4790,4871,15.55,2.02,29,23,0,0
164580,141397017,3,4874,5071,15.59,2.25,30,23,0,0
165552,141627241,3,5072,5100,15.57,2.12,30,24,0,0
165957,141732437,3,5095,5028,15.49,2.31,30,24,0,0
166407,141842028,3,5035,5185,15.53,2.08,30,24,0,0
166811,141947203,3,5184,5171,15.54,2.11,29,24,0,0
167304,142070520,3,5159,5085,15.47,2.19,29,24,0,0
167751,142177794,3,5094,5185,15.48,2.39,30,24,0,0
168150,142276398,3,5185,5228,15.53,2.45,30,24,0,0
168598,142385230,3,5228,5228,15.52,2.58,29,24,0,0
169035,142493107,3,5232,5414,15.52,2.65,30,24,0,0
169484,142602388,3,5404,5214,15.58,2.46,30,24,0,0
169939,142718032,3,5218,5285,15.48,2.53,30,24,0,0
170384,142824855,3,5278,5214,15.55,2.31,29,24,0,0
170783,142925521,3,5212,5142,15.54,2.37,30,24,0,0
171233,143032790,3,5142,5142,15.52,2.35,30,24,0,0
171674,143142195,3,5143,5185,15.5,2.43,30,25,0,0
172126,143257030,3,5180,5128,15.54,2.19,29,25,0,0
172571,143368039,3,5135,5214,15.5,2.37,29,25,0,0
173418,143578427,3,5212,5142,15.51,2.23,30,25,0,0
173870,143691749,3,5138,5100,15.54,2.25,29,25,0,0
174322,143801101,3,5091,5014,15.54,2.18,30,25,0,0
174727,143903141,3,5020,5114,15.5,2.53,29,25,0,0
175176,144013997,3,5126,5242,15.49,2.3,29,25,0,0
175619,144122511,3,5236,5185,15.51,2.52,29,25,0,0
176068,144231266,3,5194,5285,15.59,2.31,30,25,0,0
176468,144331100,3,5280,5185,15.52,2.14,30,25,0,0
176918,144442471,3,5169,5014,15.53,2.13,29,25,0,0
177318,144545244,3,5016,5142,15.49,2.43,30,26,0,0
177764,144656419,3,5144,5300,15.52,2.47,30,26,0,0
178209,144762682,3,5290,5085,15.44,2.22,29,26,0,0
178654,144873719,3,5095,5300,15.5,2.12,29,26,0,0
179105,144984133,3,5295,5257,15.53,2.44,29,26,0,0
179505,145083539,3,5250,5100,15.54,2.32,29,26,0,0
179996,145202022,3,5114,5257,15.51,2.29,30,26,0,0
180435,145311042,3,5245,5128,15.51,2.25,29,26,0,0
180883,145418145,3,5130,5171,15.51,2.3,29,26,0,0
181731,145628985,3,5169,5042,15.51,2.18,29,26,0,0
182193,145748026,3,5044,5071,15.52,2.12,29,26,0,0
182638,145860174,3,5075,5128,15.52,2.26,29,26,0,0
183089,145968772,3,5118,5028,15.53,2.18,29,26,0,0
183534,146079465,3,5033,5085,15.49,2.26,29,26,0,0
184385,146294204,3,5078,4914,15.4,2.09,29,27,0,0
184834,146403650,3,4930,5157,15.53,2.53,29,27,0,0
185280,146514080,3,5159,5200,15.47,2.59,29,27,0,0
186173,146732487,3,5198,5157,15.54,2.38,29,27,0,0
186622,146842913,3,5155,5142,15.56,2.1,29,27,0,0
187023,146941212,3,5140,5100,15.47,2.51,29,27,0,0
187471,147049496,3,5102,5257,15.48,2.8,29,27,0,0
187920,147163756,3,5261,5314,15.55,2.69,29,27,0,0
188808,147381462,3,5317,5428,15.54,2.57,29,27,0,0
189209,147481459,3,5429,5500,15.51,2.62,29,27,0,0
189662,147595242,3,5495,5428,15.48,2.68,29,27,0,0
190559,147815754,3,5427,5414,15.47,2.7,29,28,0,0
190962,147917701,3,5419,5600,15.44,2.72,29,28,0,0
191865,148142960,3,5584,5242,15.33,2.49,29,28,0,0
192310,148254519,3,5252,5357,15.48,2.45,29,28,0,0
192713,148358280,3,5357,5371,15.42,2.43,30,28,0,0
193150,148464963,3,5363,5257,15.4,2.45,29,28,0,0
193603,148577047,3,5267,5414,15.42,2.59,29,28,0,0
194046,148685472,3,5414,5428,15.4,2.71,29,28,0,0
194495,148794852,3,5424,5385,15.44,2.73,29,28,0,0
194940,148906611,3,5390,5442,15.38,2.62,29,28,0,0
195385,149012018,3,5440,5428,15.47,2.74,29,28,0,0
195829,149121861,3,5429,5442,15.42,2.19,29,29,0,0
196279,149231655,3,5438,5385,15.42,2.67,29,29,0,0
196725,149345018,3,5379,5314,15.48,2.4,29,29,0,0
197647,149565378,3,5304,5128,15.38,2.29,29,29,0,0
198097,149677314,3,5128,5128,15.44,2.25,29,29,0,0
198496,149774006,3,5133,5228,15.45,2.6,29,29,0,0
198905,149881767,3,5233,5371,15.48,2.45,29,29,0,0
199351,149988405,3,5367,5200,15.5,1.96,29,29,0,0
199838,150110981,3,5175,4942,15.56,1.72,29,29,0,0
200283,150218113,3,4933,4857,15.56,1.86,29,29,0,0
200690,150321756,3,4859,4900,15.41,2.31,29,29,0,0
201586,150551224,3,4913,5128,15.35,2.44,29,29,0,0
201996,150646528,3,5129,5157,15.5,2.31,29,29,0,0
202437,150755484,3,5154,5114,15.51,2.27,29,30,0,0
203326,150978072,3,5132,5400,15.5,2.7,29,30,0,0
203770,151088396,3,5403,5442,15.48,2.52,29,30,0,0
204175,151187106,3,5441,5400,15.5,2.77,29,30,0,0
204614,151298535,3,5400,5442,15.54,2.65,29,30,0,0
205107,151415536,3,5445,5471,15.54,2.57,29,30,0,0
205549,151529036,3,5469,5442,15.41,2.72,29,30,0,0
205960,151632198,3,5440,5414,15.39,3.28,29,30,0,0
206405,151740131,3,5428,5728,15.39,3.13,29,30,0,0
206890,151854628,3,5729,5742,15.45,3.13,29,30,0,0
207336,151966531,3,5750,5842,15.45,3.01,29,30,0,0
207746,152071218,3,5836,5771,15.48,2.94,29,31,0,0
208192,152177249,3,5757,5628,15.45,2.97,29,31,0,0
208640,152290747,3,5623,5571,15.48,2.69,29,31,0,0
209051,152394408,3,5565,5514,15.49,2.94,29,31,0,0
209940,152614525,3,5520,5700,15.51,3.1,29,31,0,0
210375,152720038,3,5699,5671,15.47,2.77,29,31,0,0
210871,152842715,3,5672,5685,15.44,2.86,29,31,0,0
211230,152936580,3,5686,5757,15.46,2.9,29,31,0,0
211717,153054512,3,5736,5500,15.48,2.99,29,31,0,0
212162,153163733,3,5498,5485,15.5,2.57,29,31,0,0
212569,153268938,3,5486,5571,15.47,2.87,29,32,0,0
213062,153387692,3,5569,5542,15.47,2.51,29,32,0,0
213955,153606999,3,5543,5585,15.46,2.87,29,32,0,0
214358,153709999,3,5573,5414,15.47,2.65,29,32,0,0
214807,153818076,3,5414,5428,15.51,2.51,29,32,0,0
215289,153933732,3,5429,5442,15.47,2.8,29,32,0,0
215734,154041442,3,5438,5385,15.46,2.64,29,32,0,0
216143,154147871,3,5379,5300,15.51,2.16,29,32,0,0
216586,154257676,3,5284,5128,15.51,2.45,29,32,0,0
217036,154367794,3,5128,5142,15.48,2.13,29,32,0,0
217438,154470210,3,5134,5000,15.41,2.15,29,32,0,0
218337,154692536,3,4998,4942,15.51,2.1,29,33,0,0
218785,154801693,3,4940,4928,15.51,2.16,29,33,0,0
219226,154910868,3,4925,4900,15.5,2.15,29,33,0,0
219673,155016509,3,4894,4814,15.51,1.85,29,33,0,0
220080,155122682,3,4810,4728,15.51,1.95,29,33,0,0
220570,155236679,3,4740,4900,15.54,2.26,29,33,0,0
220973,155339866,3,4901,4985,15.54,2.15,29,33,0,0
221421,155448578,3,4986,5042,15.49,2.42,29,33,0,0
221908,155567494,3,5044,5085,15.54,2.19,29,33,0,0
222311,155670855,3,5091,5242,15.51,2.55,29,33,0,0
222766,155783083,3,5238,5200,15.43,2.59,29,33,0,0
223207,155890706,3,5224,5457,15.48,2.78,29,33,0,0
223653,155996939,3,5468,5614,15.51,2.73,29,33,0,0
224065,156104470,3,5596,5242,15.48,2.4,29,33,0,0
224517,156215832,3,5231,5128,15.5,2.03,29,34,0,0
224917,156316142,3,5125,5000,15.4,2.09,29,34,0,0
225366,156425421,3,5003,5071,15.52,2.16,29,34,0,0
225811,156539984,3,5051,4857,15.57,1.58,29,34,0,0
226219,156641110,3,4852,4685,15.54,1.5,29,34,0,0
226666,156753481,3,4674,4542,15.45,1.58,29,34,0,0
227116,156867706,3,4557,4714,15.53,1.98,29,34,0,0
227518,156966604,3,4714,4714,15.44,1.88,29,34,0,0
227962,157076422,3,4721,4871,15.52,2.08,29,34,0,0
228413,157187528,3,4872,4900,15.39,2.07,29,34,0,0
228817,157289226,3,4899,4871,15.48,2.11,29,34,0,0
229262,157400518,3,4873,5028,15.51,2.18,29,34,0,0
229703,157509949,3,5026,4942,15.54,1.99,29,34,0,0
230193,157626862,3,4929,4800,15.54,1.75,29,34,0,0
230640,157738214,3,4796,4757,15.57,1.71,29,34,0,0
231050,157840700,3,4762,4900,15.53,2.11,29,34,0,0
231488,157947725,3,4895,4814,15.46,2.27,29,34,0,0
231937,158058639,3,4839,5171,15.51,2.56,29,34,0,0
232344,158159715,3,5172,5242,15.54,2.59,29,35,0,0
232830,158277262,3,5245,5285,15.55,2.22,29,35,0,0
233275,158386964,3,5289,5357,15.43,2.86,29,35,0,0
233673,158486006,3,5357,5357,15.48,2.85,29,35,0,0
234129,158599485,3,5355,5328,15.48,2.28,29,35,0,0
234572,158709813,3,5312,5114,15.52,2.05,29,35,0,0
235021,158819505,3,5099,4957,15.54,1.7,29,35,0,0
235468,158931086,3,4947,4857,15.5,1.84,29,35,0,0
235872,159031097,3,4857,4885,15.43,2.52,29,35,0,0
236764,159249157,3,4899,5300,15.45,2.53,29,35,0,0
237205,159355754,3,5304,5400,15.5,2.52,29,35,0,0
237652,159471872,3,5381,5200,15.5,2.14,29,35,0,0
238136,159584875,3,5184,4957,15.51,1.7,29,36,0,0
238580,159696533,3,4977,5257,15.41,3.08,29,36,0,0
238988,159797027,3,5259,5385,15.5,2.62,29,36,0,0
239470,159913235,3,5391,5471,15.41,2.81,29,36,0,0
239924,160025866,3,5442,5157,15.51,1.98,29,36,0,0
240373,160136943,3,5158,5171,15.51,2.17,29,36,0,0
240820,160250061,3,5169,5157,15.52,2.57,29,36,0,0
241221,160346877,3,5161,5414,15.5,2.78,29,36,0,0
241661,160456077,3,5413,5400,15.46,2.61,29,36,0,0
242151,160578990,3,5398,5385,15.48,2.88,29,36,0,0
242551,160679666,3,5381,5314,15.51,2.57,29,36,0,0
243033,160789231,3,5313,5300,15.44,2.42,29,36,0,0
243479,160906006,3,5314,5442,15.42,2.9,29,36,0,0
243931,161016163,3,5451,5542,15.42,2.98,29,37,0,0
244339,161121729,3,5520,5357,15.41,2.56,29,37,0,0
244789,161231707,3,5361,5400,15.42,2.36,29,37,0,0
245184,161330035,3,5398,5257,15.47,2.31,29,37,0,0
245676,161446752,3,5244,5142,15.51,1.96,29,37,0,0
246557,161665498,3,5140,4914,15.51,2.15,29,37,0,0
247003,161771949,3,4917,4985,15.41,2.45,29,37,0,0
247446,161880952,3,4990,5100,15.5,2.18,29,37,0,0
247894,161984980,3,5098,5071,15.49,2.19,29,37,0,0
248346,162098203,3,5072,5085,15.42,2.46,29,37,0,0
248789,162208517,3,5103,5285,15.45,2.57,29,37,0,0
249682,162429454,3,5287,5342,15.41,2.63,29,37,0,0
250124,162537582,3,5348,5414,15.44,2.53,29,38,0,0
250527,162635231,3,5413,5400,15.45,2.39,29,38,0,0
250970,162746989,3,5392,5242,15.48,2.21,29,38,0,0
251455,162865697,3,5249,5314,15.39,2.62,29,38,0,0
251900,162972630,3,5318,5371,15.46,2.54,29,38,0,0
252346,163082472,3,5378,5471,15.38,2.74,29,38,0,0
252758,163187163,3,5477,5657,15.39,3.04,29,38,0,0
253199,163296847,3,5654,5614,15.38,2.78,29,38,0,0
253647,163405695,3,5608,5557,15.39,2.83,29,38,0,0
254092,163517713,3,5557,5557,15.41,2.79,29,38,0,0
254503,163619655,3,5553,5471,15.45,2.68,29,38,0,0
254941,163725533,3,5471,5500,15.41,2.91,29,38,0,0
255436,163845610,3,5519,5714,15.39,3.28,29,39,0,0
256287,164064966,3,5719,5828,15.47,3.39,29,39,0,0
256734,164175076,3,5830,5871,15.4,3.31,29,39,0,0
257178,164284537,3,5873,5900,15.48,3.08,29,39,0,0
257584,164387780,3,5876,5657,15.51,2.63,29,39,0,0
258027,164496625,3,5637,5357,15.46,2.53,29,39,0,0
258475,164606159,3,5357,5357,15.37,2.73,29,39,0,0
258881,164713350,3,5354,5228,15.39,2.13,29,39,0,0
259359,164821429,3,5221,5100,15.36,1.94,29,39,0,0
259804,164930694,3,5090,4885,15.37,1.85,29,39,0,0
260262,165044496,3,4860,4628,15.43,1.32,29,39,0,0
260666,165147502,3,4616,4357,15.42,1.29,29,39,0,0
261113,165260014,3,4351,4271,15.41,1.36,29,40,0,0
262003,165474735,3,4291,4842,15.47,2.28,29,40,0,0
262453,165584056,3,4855,4985,15.45,2.47,29,40,0,0
263342,165803160,3,4994,5214,15.47,2.54,29,40,0,0
263745,165904737,3,5216,5371,15.44,2.76,29,40,0,0
264195,166015433,3,5368,5228,15.41,2.52,29,40,0,0
265125,166241635,3,5239,5428,15.39,2.66,29,40,0,0
265526,166342890,3,5423,5371,15.43,3.04,29,40,0,0
265981,166457196,3,5367,5342,15.46,2.38,29,40,0,0
266382,166558667,3,5335,5271,15.41,2.21,29,40,0,0
266822,166665719,3,5272,5300,15.43,2.56,29,40,0,0
267271,166774615,3,5286,5157,15.39,2.38,29,41,0,0
267715,166883903,3,5169,5328,15.47,2.48,29,41,0,0
268127,166987504,3,5329,5371,15.35,2.6,29,41,0,0
268572,167096218,3,5369,5228,15.42,2.37,29,41,0,0
269023,167205176,3,5226,5157,15.43,2.52,29,41,0,0
269467,167316255,3,5162,5228,15.47,2.58,29,41,0,0
269912,167423136,3,5229,5271,15.45,2.46,29,41,0,0
270358,167532475,3,5270,5257,15.43,2.41,29,41,0,0
270805,167644849,3,5258,5300,15.45,2.49,29,41,0,0
271289,167757859,3,5291,5185,15.49,2.34,29,41,0,0
271734,167868629,3,5190,5314,15.41,2.51,29,41,0,0
272185,167978516,3,5314,5314,15.38,2.56,29,41,0,0
272586,168081401,3,5315,5328,15.4,2.65,29,41,0,0
272989,168180996,3,5328,5357,15.46,2.58,29,42,0,0
273473,168298503,3,5351,5300,15.43,2.24,29,42,0,0
273918,168404649,3,5300,5300,15.42,2.54,29,42,0,0
274323,168509161,3,5297,5157,15.39,2.36,29,42,0,0
274770,168616692,3,5158,5242,15.45,2.53,29,42,0,0
275210,168725534,3,5238,5157,15.36,2.46,29,42,0,0
275704,168841463,3,5164,5242,15.48,2.44,29,42,0,0
276103,168942662,3,5239,5185,15.42,2.48,29,42,0,0
276555,169057476,3,5196,5357,15.34,2.82,29,42,0,0
276959,169156071,3,5357,5400,15.4,2.82,29,42,0,0
277403,169268051,3,5403,5485,15.33,2.57,29,42,0,0
277848,169374446,3,5484,5457,15.42,2.8,29,42,0,0
278303,169494203,3,5463,5528,15.47,2.88,29,42,0,0
279155,169708658,3,5528,5542,15.44,2.83,29,43,0,0
279564,169811036,3,5547,5657,15.43,2.92,29,43,0,0
280008,169922201,3,5652,5557,15.39,2.89,29,43,0,0
280458,170031752,3,5557,5557,15.42,3,29,43,0,0
280906,170142671,3,5564,5728,15.39,3.12,29,43,0,0
281391,170259981,3,5733,5785,15.38,2.89,29,43,0,0
281836,170366952,3,5762,5542,15.39,2.89,29,43,0,0
282282,170475115,3,5543,5571,15.39,2.82,29,43,0,0
282728,170581142,3,5568,5428,15.39,2.67,29,43,0,0
283167,170689470,3,5428,5457,15.43,2.73,29,43,0,0
283662,170809175,3,5458,5471,15.42,2.79,29,44,0,0
284063,170910515,3,5472,5500,15.39,2.7,29,44,0,0
284555,171028797,3,5504,5628,15.29,2.85,29,44,0,0
284956,171130854,3,5631,5685,15.38,3.12,29,44,0,0
285443,171256973,3,5689,5714,15.41,3.04,29,44,0,0
285851,171350521,3,5714,5714,15.45,3.23,29,44,0,0
286742,171568686,3,5711,5585,15.44,2.65,29,44,0,0
287670,171800656,3,5579,5485,15.44,2.71,29,44,0,0
288078,171900509,3,5480,5428,15.46,2.62,29,44,0,0
288563,172017650,3,5455,5600,15.39,2.77,29,44,0,0
288932,172112014,3,5598,5485,15.48,2.82,29,45,0,0
289780,172329632,3,5488,5600,15.47,2.77,29,45,0,0
290675,172548531,3,5603,5700,15.42,3.42,29,45,0,0
291084,172653844,3,5702,5914,15.38,3.32,29,45,0,0
291523,172767749,3,5892,5685,15.41,3.08,29,45,0,0
291972,172878070,3,5686,5700,15.41,3.04,29,45,0,0
292381,172977800,3,5704,5785,15.42,2.85,29,45,0,0
292831,173094776,3,5778,5714,15.39,2.78,29,45,0,0
293279,173211688,3,5700,5571,15.39,2.64,29,45,0,0
293718,173312941,3,5543,5385,15.38,2.51,29,46,0,0
294128,173413762,3,5386,5414,15.45,2.45,29,46,0,0
294571,173521862,3,5411,5385,15.45,2.32,29,46,0,0
295016,173633942,3,5373,5257,15.5,2.01,29,46,0,0
295878,173855459,3,5233,4842,15.57,1.88,29,46,0,0
296328,173966038,3,4860,5028,15.46,2.16,29,46,0,0
296732,174069631,3,5026,4914,15.55,1.73,29,46,0,0
297183,174173743,3,4914,4914,15.51,1.81,29,46,0,0
297665,174292422,3,4909,4857,15.44,2.36,29,46,0,0
298109,174403836,3,4875,5042,15.48,2.49,29,46,0,0
298960,174616518,3,5049,5200,15.51,2.27,29,46,0,0
299369,174722364,3,5199,5171,15.5,2.52,29,46,0,0
299860,174840630,3,5180,5257,15.51,2.61,29,46,0,0
300268,174946428,3,5280,5514,15.37,2.78,29,47,0,0
300679,175044205,3,5517,5671,15.38,3.09,29,47,0,0
301165,175166418,3,5675,5742,15.36,3.04,29,47,0,0
301605,175274056,3,5729,5628,15.48,3.19,29,47,0,0
302497,175488646,3,5627,5614,15.38,3,29,47,0,0
302942,175600237,3,5602,5485,15.42,2.53,29,47,0,0
303351,175708257,3,5492,5557,15.42,2.51,29,47,0,0
304198,175914973,3,5551,5157,15.42,2.17,30,47,0,0
304694,176035841,3,5138,5000,15.46,2.03,29,47,0,0
305102,176139279,3,5008,5171,15.38,2.29,29,47,0,0
305552,176251941,3,5171,5185,15.42,2.37,29,48,0,0
305996,176361962,3,5187,5228,15.45,2.45,29,48,0,0
306439,176468867,3,5206,4885,15.5,1.69,29,48,0,0
306887,176580485,3,4894,5028,15.51,2.22,29,48,0,0
307287,176682040,3,5021,4728,15.5,1.62,29,48,0,0
307777,176801473,3,4752,5028,15.46,2.75,29,48,0,0
308224,176910231,3,5042,5242,15.41,2.64,29,48,0,0
308629,177009649,3,5248,5514,15.4,3.08,29,48,0,0
309073,177118874,3,5520,5771,15.39,3.22,29,48,0,0
309530,177233959,3,5771,5785,15.42,3.12,29,48,0,0
309932,177335965,3,5786,5871,15.32,3.65,29,48,0,0
310457,177458655,3,5893,6042,15.3,3.7,29,48,0,0
310863,177561164,3,6050,6142,15.44,3.47,29,49,0,0
311752,177780543,3,6113,5557,15.38,2.78,29,49,0,0
312151,177878190,3,5552,5400,15.42,2.1,29,49,0,0
312605,177990622,3,5396,5171,15.38,2.34,29,49,0,0
313049,178100052,3,5177,5271,15.41,2.6,29,49,0,0
313498,178209672,3,5277,5371,15.38,2.64,29,49,0,0
313902,178314404,3,5367,5214,15.4,2.17,29,49,0,0
314394,178430736,3,5205,5128,15.36,2.32,29,49,0,0
314793,178530768,3,5124,5057,15.41,2.15,29,49,0,0
315245,178639862,3,5050,4885,15.47,1.79,29,49,0,0
315692,178753384,3,4891,4957,15.41,2.34,29,49,0,0
316097,178858428,3,4969,5128,15.33,2.21,29,49,0,0
316547,178968722,3,5134,5200,15.46,2.5,29,50,0,0
316946,179066969,3,5202,5314,15.47,2.51,29,50,0,0
317401,179180693,3,5310,5228,15.5,2.41,29,50,0,0
317887,179297097,3,5231,5271,15.39,2.58,29,50,0,0
318336,179401677,3,5273,5328,15.44,2.94,29,50,0,0
318781,179511991,3,5351,5585,15.41,3.2,29,50,0,0
319224,179617591,3,5591,5671,15.33,2.8,29,50,0,0
319629,179723309,3,5673,5728,15.33,3.1,29,50,0,0
320074,179830205,3,5726,5628,15.38,2.65,29,50,0,0
320521,179941101,3,5615,5342,15.42,2.06,29,50,0,0
320965,180050762,3,5337,5042,15.46,1.96,29,50,0,0
321414,180159976,3,5041,5000,15.46,2.13,29,50,0,0
321898,180276508,3,5006,5071,15.26,2.66,30,50,0,0
322750,180486683,3,5079,5300,15.36,2.42,29,51,0,0
323197,180596425,3,5300,5314,15.39,2.47,29,51,0,0
323640,180708539,3,5310,5242,15.33,2.22,29,51,0,0
324092,180819999,3,5234,5128,15.38,2.22,29,51,0,0
324501,180924478,3,5129,5157,15.29,2.28,29,51,0,0
324949,181034428,3,5157,5157,15.28,2.52,30,51,0,0
325390,181141728,3,5164,5328,15.39,2.5,29,51,0,0
325792,181244163,3,5326,5200,15.39,2.41,29,51,0,0
326241,181355006,3,5206,5300,15.38,2.34,29,51,0,0
326643,181458755,3,5295,5014,15.42,1.78,29,51,0,0
327136,181574714,3,5005,4857,15.41,1.92,30,51,0,0
327539,181677175,3,4860,5071,15.33,2.52,29,51,0,0
328026,181791982,3,5083,5214,15.35,2.57,30,51,0,0
328427,181889212,3,5215,5285,15.35,2.49,29,51,0,0
328920,182007996,3,5283,5271,15.44,2.48,29,52,0,0
329365,182115983,3,5263,5185,15.44,2.13,29,52,0,0
329811,182223206,3,5186,5200,15.49,2.14,29,52,0,0
330258,182337774,3,5178,4957,15.52,1.91,29,52,0,0
330706,182446420,3,4951,4900,15.5,2.02,29,52,0,0
331149,182555178,3,4912,5042,15.38,2.45,29,52,0,0
331591,182666876,3,5050,5157,15.38,2.53,29,52,0,0
332041,182773977,3,5155,5128,15.39,2.48,29,52,0,0
332487,182884849,3,5126,5114,15.44,2.19,29,52,0,0
332934,182990866,3,5115,5200,15.3,2.25,29,52,0,0
334265,183321308,3,5200,5214,15.32,2.25,29,52,0,0
334717,183425624,3,5197,4957,15.34,1.92,29,52,0,0
335604,183641400,3,4960,5071,15.36,2.29,29,53,0,0
336047,183751855,3,5073,5114,15.35,2.1,29,53,0,0
336486,183862018,3,5108,4871,15.36,2.01,29,53,0,0
336937,183970005,3,4886,5100,15.38,2.03,29,53,0,0
337380,184075626,3,5100,5114,15.35,2.36,29,53,0,0
337830,184187765,3,5114,5114,15.38,2.19,29,53,0,0
338274,184296072,3,5111,5085,15.42,2.25,29,53,0,0
338724,184405532,3,5085,5085,15.36,2.1,29,53,0,0
339169,184516622,3,5086,5100,15.27,2.29,29,53,0,0
339613,184622972,3,5105,5171,15.4,2.2,29,53,0,0
340015,184723382,3,5170,5142,15.41,2.08,30,53,0,0
340467,184836780,3,5135,5042,15.43,2.15,29,53,0,0
342204,185274165,3,5043,5171,15.41,2.33,29,54,0,0
342659,185385971,3,5172,5200,15.34,2.41,29,54,0,0
343107,185497459,3,5197,5171,15.38,2.4,29,54,0,0
343556,185607183,3,5167,5128,15.37,2.31,29,54,0,0
343961,185713194,3,5133,5257,15.4,2.45,29,54,0,0
344408,185819653,3,5257,5257,15.41,2.23,29,54,0,0
344813,185923184,3,5259,5342,15.45,2.59,29,54,0,0
345271,186034427,3,5339,5242,15.47,2.24,29,54,0,0
346144,186250003,3,5243,5357,15.4,2.24,29,54,0,0
346597,186360873,3,5318,4800,15.77,0.68,29,54,0,0
347037,186469110,3,4714,3571,15.44,1.06,29,54,0,0
347490,186580169,3,3580,3671,15.77,0.8,29,54,0,0
347920,186680542,3,3653,2971,15.73,1.21,29,54,0,0
348415,186802183,3,2966,2914,15.72,1.13,29,54,0,0
348823,186903748,3,2879,2557,15.81,0.29,29,54,0,0
349710,187120177,3,2550,2300,15.82,0.26,29,54,0,0
350161,187231615,3,2293,2228,15.82,0.25,29,54,0,0
350566,187334847,3,2228,2257,15.82,0.3,29,54,0,0
351054,187453877,3,2253,2228,15.83,0.31,29,54,0,0
351457,187552560,3,2228,2242,15.78,0.34,29,54,0,0
351903,187666609,3,2241,2228,15.83,0.31,29,54,0,0
352354,187777975,3,2229,2242,15.82,0.36,29,54,0,0
352754,187876498,3,2240,2185,15.83,0.24,29,54,0,0
353249,187993774,3,2178,2114,15.83,0.25,29,54,0,0
353688,188100500,3,2115,2142,15.83,0.24,29,55,0,0
354137,188208216,3,2139,2114,15.84,0.22,29,55,0,0
354583,188317671,3,2113,2100,15.85,0.26,29,55,0,0
355037,188427010,3,2102,2128,15.84,0.3,29,55,0,0
355435,188525392,3,2128,2128,15.84,0.27,29,55,0,0
355929,188640064,3,2108,1900,15.92,0.03,29,55,0,0
356370,188748374,3,1868,1528,15.91,0,29,55,0,0
356820,188858249,3,1512,1328,15.89,0.08,29,55,0,0
357266,188966454,3,1326,1300,15.9,0.09999999,29,55,0,0
357716,189078847,3,1300,1300,15.9,0.09999999,29,55,0,0
358160,189183542,3,1299,1285,15.9,0.11,29,55,0,0
358603,189290653,3,1285,1300,15.9,0.11,29,55,0,0
359097,189408213,3,1298,1285,15.91,0.11,29,55,0,0
359500,189507689,3,1285,1300,15.91,0.11,29,55,0,0
359989,189622210,3,1298,1285,15.91,0.11,29,55,0,0
360393,189725227,3,1286,1300,15.91,0.11,29,55,0,0
360843,189833781,3,1298,1285,15.92,0.11,29,55,0,0
361285,189938136,3,1285,1300,15.92,0.11,29,55,0,0
361733,190045244,3,1300,1300,15.92,0.11,29,55,0,0
362181,190156719,3,1300,1300,15.92,0.09999999,29,55,0,0
362654,190266608,3,1300,1300,15.92,0.11,29,55,0,0
363109,190377087,3,1300,1300,15.92,0.09999999,29,55,0,0
363521,190478847,3,1300,1300,15.92,0.11,29,55,0,0
363966,190583729,3,1299,1285,15.92,0.11,29,55,0,0
364445,190697180,3,1286,1300,15.92,0.09999999,29,55,0,0
364902,190804821,3,1300,1300,15.92,0.09999999,29,55,0,0
365343,190909516,3,1300,1300,15.92,0.09999999,29,55,0,0
365833,191028192,3,1300,1300,15.93,0.11,29,55,0,0
366244,191129494,3,1300,1300,15.92,0.11,29,55,0,0
367171,191350034,3,1300,1300,15.94,0.11,29,55,0,0
367618,191454629,3,1300,1300,15.94,0.11,29,55,0,0
368022,191556073,3,1300,1300,15.94,0.11,29,55,0,0
368958,191782225,3,1300,1300,15.94,0.11,29,55,0,0
369363,191882086,3,1300,1300,15.94,0.09999999,29,55,0,0
369853,191993974,3,1300,1300,15.95,0.11,29,55,0,0
370300,192104725,3,1300,1300,15.94,0.11,29,55,0,0
370751,192211408,3,1300,1300,15.95,0.11,29,55,0,0
371197,192319497,3,1300,1300,15.95,0.09999999,29,55,0,0
371647,192427502,3,1300,1300,15.94,0.09999999,29,55,0,0
372086,192534295,3,1300,1300,15.94,0.09999999,29,55,0,0
372536,192642247,3,1300,1300,15.95,0.09999999,29,55,0,0
373466,192863249,3,1300,1300,15.95,0.11,29,55,0,0
373917,192971961,3,1300,1300,15.95,0.11,29,55,0,0
374324,193074518,3,1300,1300,15.96,0.11,29,55,0,0
374814,193190229,3,1300,1300,15.95,0.11,29,55,0,0
375221,193288566,3,1300,1300,15.95,0.11,29,55,0,0
375669,193394465,3,1300,1300,15.96,0.11,29,55,0,0
376110,193502669,3,1300,1300,15.96,0.11,29,55,0,0
376599,193616466,3,1300,1300,15.96,0.11,29,55,0,0
377042,193726397,3,1300,1300,15.96,0.11,29,55,0,0
377491,193829012,3,1300,1300,15.96,0.11,29,55,0,0
377938,193939645,3,1300,1300,15.97,0.11,29,55,0,0
378388,194057211,3,1300,1300,15.95,0.09999999,29,55,0,0
379718,194372641,3,1300,1300,15.97,0.11,29,55,0,0
380161,194482037,3,1300,1300,15.97,0.11,29,55,0,0
380612,194586754,3,1300,1300,15.97,0.11,29,55,0,0
381054,194695735,3,1300,1300,15.97,0.11,29,55,0,0
381504,194800967,3,1300,1300,15.97,0.11,29,55,0,0
381949,194912699,3,1300,1300,15.98,0.11,29,55,0,0
382397,195019655,3,1300,1300,15.97,0.11,29,55,0,0
382839,195121541,3,1300,1300,15.97,0.11,29,55,0,0
383326,195236203,3,1300,1300,15.97,0.11,29,55,0,0
383814,195350520,3,1300,1300,15.98,0.11,29,55,0,0
384220,195453149,3,1300,1300,15.98,0.11,29,55,0,0
384665,195557518,3,1300,1300,15.97,0.11,29,55,0,0
385112,195665416,3,1300,1300,15.98,0.11,29,55,0,0
385563,195775456,3,1300,1300,15.98,0.11,29,55,0,0
385969,195878565,3,1300,1300,15.98,0.11,29,55,0,0
386417,195986437,3,1300,1300,15.98,0.11,29,55,0,0
386861,196095730,3,1300,1300,15.98,0.11,29,55,0,0
387307,196202200,3,1300,1300,15.98,0.11,29,55,0,0
387797,196321225,3,1300,1300,15.99,0.11,29,55,0,0
388238,196422948,3,1300,1314,15.99,0.11,29,55,0,0
388650,196528964,3,1314,1314,15.99,0.11,29,55,0,0
389098,196636618,3,1313,1300,15.99,0.11,29,55,0,0
389549,196747992,3,1300,1314,16,0.11,29,55,0,0
390001,196862267,3,1312,1300,16,0.11,29,55,0,0
390452,196969258,3,1301,1314,15.99,0.11,29,55,0,0
390855,197069497,3,1314,1314,15.99,0.11,29,55,0,0
391305,197175613,3,1314,1314,15.98,0.11,29,55,0,0
391752,197283303,3,1313,1300,15.99,0.11,29,55,0,0
392242,197398188,3,1300,1300,16,0.11,29,55,0,0
392688,197506751,3,1300,1314,16,0.11,29,55,0,0
393136,197613638,3,1314,1314,15.99,0.11,29,55,0,0
393582,197723082,3,1314,1314,16,0.11,28,55,0,0
394067,197833160,3,1314,1314,16,0.11,29,55,0,0
394467,197930973,3,1314,1314,16,0.11,28,55,0,0
394919,198039566,3,1313,1300,16,0.11,28,55,0,0
395403,198155197,3,1300,1300,16,0.11,29,55,0,0
395811,198252286,3,1300,1300,16.01,0.11,28,55,0,0
396252,198360508,3,1300,1300,16,0.11,28,55,0,0
397189,198584486,3,1290,1071,16.02,0.04,28,55,0,0
397636,198690162,3,1014,257,16.02,0.01,28,55,0,0
398133,198806678,3,235,0,16.01,0.04,28,55,0,0
398542,198906836,3,0,0,16.02,0.04,28,55,0,0
399038,199021530,3,0,0,16.02,0.04,28,55,0,0
399415,199132439,3,0,0,16.02,0.04,28,55,0,0
400360,199356625,3,0,0,16.02,0.04,28,55,0,0
401260,199568620,3,0,0,16.02,0.04,28,55,0,0
401709,199675104,3,0,0,16.02,0.04,28,55,0,0
402207,199791240,3,0,0,16.02,0.04,28,55,0,0
402657,199898981,3,0,0,16.02,0.04,28,55,0,0
403107,200000952,3,0,0,16.03,0.04,28,55,0,0
403558,200109399,3,0,0,16.02,0.04,28,55,0,0
404010,200214651,3,0,0,16.02,0.04,28,55,0,0
404470,200324654,3,0,0,16.03,0.04,28,55,0,0
404920,200428619,3,0,0,16.02,0.04,28,55,0,0
405411,200544444,3,0,0,16.02,0.04,28,55,0,0
405866,200653102,3,0,0,16.03,0.04,28,55,0,0
406319,200760062,3,0,0,16.03,0.04,28,55,0,0
406769,200868731,3,0,0,16.02,0.04,28,55,0,0
407220,200972515,3,0,0,16.02,0.04,28,55,0,0
407543,201080463,3,0,0,16.03,0.04,28,55,0,0
408043,201198202,3,0,0,16.02,0.04,28,55,0,0
408456,201299263,3,0,0,16.03,0.04,28,55,0,0
408950,201414972,3,0,0,16.03,0.04,28,55,0,0
409896,201645187,3,0,0,16.04,0.04,28,55,0,0
410305,201738231,3,0,0,16.04,0.04,28,55,0,0
410799,201854047,3,0,0,16.04,0.04,28,55,0,0
411249,201959354,3,0,0,16.04,0.04,28,55,0,0
411696,202065631,3,0,0,16.04,0.04,28,55,0,0
412195,202179471,3,0,0,16.04,0.04,28,55,0,0
412643,202285638,3,0,0,16.04,0.04,28,55,0,0
413094,202390730,3,0,0,16.04,0.04,28,55,0,0
413546,202501504,3,0,0,16.04,0.04,28,55,0,0
413998,202608037,3,0,0,16.04,0.04,28,55,0,0
414454,202718751,3,0,0,16.04,0.04,28,55,0,0
414951,202834208,3,0,0,16.05,0.04,28,55,0,0
415404,202943865,3,0,0,16.04,0.04,28,55,0,0
415892,203059715,3,0,0,16.04,0.05,28,55,0,0
416305,203159670,3,0,0,16.04,0.04,28,55,0,0
416757,203268308,3,0,0,16.04,0.04,28,55,0,0
417208,203374869,3,0,0,16.05,0.04,28,55,0,0
417661,203486018,3,0,0,16.04,0.04,28,55,0,0
418110,203591017,3,0,0,16.04,0.04,28,55,0,0
418565,203697528,3,0,0,16.05,0.05,28,55,0,0
419063,203812667,3,0,0,16.05,0.05,28,55,0,0
419513,203920263,3,0,0,16.05,0.05,28,55,0,0
420008,204035943,3,0,0,16.04,0.04,28,55,0,0
420415,204134735,3,0,0,16.04,0.04,28,55,0,0
420910,204250270,3,0,0,16.05,0.04,28,55,0,0
421401,204366364,3,0,0,16.05,0.05,28,55,0,0
421854,204478174,3,0,0,16.05,0.04,28,55,0,0
422305,204581614,3,0,0,16.05,0.04,28,55,0,0
422757,204690494,3,0,0,16.04,0.04,28,55,0,0
423210,204795827,3,0,0,16.05,0.04,28,55,0,0
423654,204898719,3,0,0,16.05,0.04,28,55,0,0
424112,205007794,3,0,0,16.05,0.05,28,55,0,0
424607,205127780,3,0,0,16.05,0.04,28,55,0,0
425062,205233299,3,0,0,16.05,0.04,28,55,0,0
425512,205341329,3,0,0,16.05,0.04,28,55,0,0
