LineNo,TimeUS,Instance,RPM,RawRPM,Volt,Curr,Temp,CTot,MotTemp,Err
1821,1.0148e+08,3,0,0,16.41,0.05,29,0,0,0
2737,1.0169e+08,3,0,0,16.41,0.04,29,0,0,0
3195,1.018e+08,3,0,0,16.42,0.04,29,0,0,0
3652,1.0191e+08,3,0,0,16.41,0.04,29,0,0,0
4111,1.0201e+08,3,0,0,16.42,0.04,28,0,0,0
4601,1.0212e+08,3,0,0,16.41,0.04,29,0,0,0
5057,1.0223e+08,3,0,0,16.42,0.04,29,0,0,0
5512,1.0234e+08,3,0,0,16.42,0.04,29,0,0,0
5963,1.0244e+08,3,0,0,16.42,0.04,29,0,0,0
6398,1.0255e+08,3,0,0,16.41,0.04,29,0,0,0
6874,1.0266e+08,3,0,0,16.41,0.05,29,0,0,0
7325,1.0277e+08,3,0,0,16.41,0.04,28,0,0,0
7772,1.0287e+08,3,0,0,16.41,0.04,29,0,0,0
8271,1.0299e+08,3,33,371,16.4,0.07,29,0,0,0
8727,1.0309e+08,3,404,742,16.39,0.12,29,0,0,0
9180,1.0319e+08,3,761,1157,16.39,0.16,29,0,0,0
10086,1.0341e+08,3,1158,1300,16.39,0.12,29,0,0,0
10578,1.0352e+08,3,1302,1328,16.4,0.11,29,0,0,0
11033,1.0363e+08,3,1328,1342,16.39,0.11,29,0,0,0
11438,1.0373e+08,3,1342,1342,16.41,0.11,29,0,0,0
11913,1.0384e+08,3,1342,1342,16.4,0.11,29,0,0,0
12361,1.0395e+08,3,1342,1342,16.39,0.11,29,0,0,0
12858,1.0406e+08,3,1342,1342,16.39,0.11,29,0,0,0
13309,1.0416e+08,3,1341,1328,16.39,0.11,29,0,0,0
13601,1.0427e+08,3,1328,1342,16.39,0.11,29,0,0,0
14102,1.0439e+08,3,1342,1342,16.4,0.11,29,0,0,0
15003,1.0459e+08,3,1342,1342,16.4,0.11,29,0,0,0
15457,1.047e+08,3,1342,1342,16.4,0.11,29,0,0,0
15956,1.0481e+08,3,1341,1328,16.4,0.11,29,0,0,0
16391,1.0492e+08,3,1328,1328,16.4,0.11,29,0,0,0
16868,1.0503e+08,3,1328,1328,16.39,0.11,29,0,0,0
17322,1.0514e+08,3,1329,1342,16.39,0.11,29,0,0,0
17808,1.0525e+08,3,1342,1342,16.39,0.11,29,0,0,0
18259,1.0535e+08,3,1342,1342,16.39,0.11,29,0,0,0
18708,1.0546e+08,3,1341,1328,16.4,0.11,29,0,0,0
19169,1.0557e+08,3,1328,1342,16.39,0.11,29,0,0,0
19630,1.0568e+08,3,1341,1328,16.39,0.11,29,0,0,0
20083,1.0578e+08,3,1328,1328,16.39,0.11,29,0,0,0
20538,1.0589e+08,3,1328,1328,16.4,0.11,29,0,0,0
21041,1.0601e+08,3,1328,1328,16.39,0.11,29,0,0,0
21484,1.0611e+08,3,1328,1328,16.39,0.11,29,0,0,0
21920,1.0622e+08,3,1341,1485,16.35,0.22,29,0,0,0
22370,1.0633e+08,3,1540,2114,16.27,0.6,29,1,0,0
22824,1.0643e+08,3,2137,2471,16.25,0.52,29,1,0,0
23741,1.0666e+08,3,2507,3242,16.14,1.1,29,1,0,0
24599,1.0686e+08,3,3255,4457,15.66,3.21,29,1,0,0
25029,1.0697e+08,3,4468,4957,15.88,2.81,29,1,0,0
25489,1.0708e+08,3,5001,5442,15.79,3.04,29,1,0,0
25944,1.0719e+08,3,5463,5771,15.68,3.55,29,1,0,0
26391,1.073e+08,3,5776,5828,15.76,3.22,29,1,0,0
26820,1.0741e+08,3,5811,5585,15.9,2.27,29,1,0,0
27263,1.0751e+08,3,5559,5185,15.89,1.93,29,1,0,0
27718,1.0762e+08,3,5186,5228,15.85,2.01,29,1,0,0
28172,1.0773e+08,3,5217,4985,15.86,1.5,29,1,0,0
28665,1.0785e+08,3,4961,4757,15.85,1.57,29,1,0,0
29123,1.0796e+08,3,4733,4514,15.88,1.59,29,1,0,0
29578,1.0807e+08,3,4512,4500,15.83,1.48,29,1,0,0
30030,1.0818e+08,3,4507,4585,15.83,1.77,29,2,0,0
30482,1.0828e+08,3,4605,4800,15.88,2.15,29,2,0,0
31841,1.0861e+08,3,4806,5114,15.79,2.25,29,2,0,0
32708,1.0882e+08,3,5118,5314,15.91,2.42,29,2,0,0
33152,1.0893e+08,3,5319,5457,15.82,2.35,29,2,0,0
34100,1.0915e+08,3,5455,5414,15.8,2.39,29,2,0,0
34595,1.0927e+08,3,5388,5142,15.88,2.23,29,2,0,0
35010,1.0937e+08,3,5152,5285,15.79,2.36,29,2,0,0
35466,1.0948e+08,3,5281,5242,15.79,2.28,29,2,0,0
35917,1.0959e+08,3,5243,5271,15.86,2.31,29,2,0,0
36369,1.097e+08,3,5267,5185,15.76,2.2,29,3,0,0
36820,1.0981e+08,3,5180,5071,15.87,2.14,29,3,0,0
37220,1.0991e+08,3,5070,5028,15.85,1.83,29,3,0,0
38110,1.1012e+08,3,5028,5042,15.78,2.07,29,3,0,0
38561,1.1024e+08,3,5042,5042,15.83,1.95,29,3,0,0
39015,1.1034e+08,3,5039,4928,15.8,2.02,29,3,0,0
39464,1.1046e+08,3,4928,4928,15.77,1.94,29,3,0,0
39916,1.1057e+08,3,4922,4871,15.83,1.87,29,3,0,0
40354,1.1068e+08,3,4868,4842,15.79,1.9,29,3,0,0
40779,1.1078e+08,3,4850,4928,15.8,1.95,29,3,0,0
41165,1.1088e+08,3,4926,4828,15.82,1.84,29,3,0,0
41615,1.1099e+08,3,4829,4900,15.77,2.16,29,3,0,0
42103,1.1111e+08,3,4916,5085,15.8,2.51,29,3,0,0
42546,1.1122e+08,3,5093,5200,15.81,2.34,29,3,0,0
42987,1.1132e+08,3,5197,5128,15.78,2.04,29,3,0,0
43483,1.1144e+08,3,5131,5171,15.77,2.33,29,4,0,0
43890,1.1155e+08,3,5191,5385,15.81,2.75,29,4,0,0
44291,1.1164e+08,3,5387,5442,15.79,2.71,29,4,0,0
44743,1.1176e+08,3,5447,5528,15.77,2.66,29,4,0,0
45187,1.1187e+08,3,5523,5485,15.78,2.45,29,4,0,0
45598,1.1197e+08,3,5475,5357,15.75,2.54,29,4,0,0
46484,1.1219e+08,3,5354,5257,15.67,2.45,29,4,0,0
46926,1.123e+08,3,5259,5300,15.8,2.29,29,4,0,0
47374,1.124e+08,3,5290,5142,15.77,2.24,29,4,0,0
47811,1.1252e+08,3,5115,4857,15.82,1.66,29,4,0,0
48239,1.1263e+08,3,4854,4814,15.8,1.6,29,4,0,0
48636,1.1273e+08,3,4805,4642,15.82,1.71,29,4,0,0
49088,1.1284e+08,3,4645,4742,15.67,1.98,29,4,0,0
49535,1.1295e+08,3,4748,4842,15.76,1.99,29,4,0,0
49984,1.1306e+08,3,4839,4771,15.91,1.67,29,5,0,0
50433,1.1317e+08,3,4761,4671,15.81,1.61,29,5,0,0
50830,1.1327e+08,3,4683,4842,15.77,2.03,29,5,0,0
51276,1.1338e+08,3,4844,4871,15.83,2.15,29,5,0,0
51685,1.1348e+08,3,4875,4971,15.83,2.06,29,5,0,0
52140,1.1359e+08,3,4981,5114,15.82,2.04,29,5,0,0
52549,1.137e+08,3,5105,4985,15.78,1.96,29,5,0,0
53006,1.1382e+08,3,5007,5228,15.77,2.45,30,5,0,0
53406,1.1392e+08,3,5228,5257,15.68,2.39,29,5,0,0
53855,1.1403e+08,3,5254,5200,15.76,2.46,29,5,0,0
54306,1.1414e+08,3,5202,5257,15.8,2.42,30,5,0,0
54752,1.1425e+08,3,5267,5357,15.72,2.46,29,5,0,0
55202,1.1436e+08,3,5354,5328,15.72,2.58,30,5,0,0
55609,1.1446e+08,3,5328,5357,15.7,2.65,29,5,0,0
56058,1.1457e+08,3,5361,5414,15.7,2.65,29,5,0,0
56454,1.1467e+08,3,5415,5457,15.73,2.67,29,6,0,0
57321,1.1489e+08,3,5455,5285,15.67,2.25,30,6,0,0
57814,1.1501e+08,3,5273,5114,15.67,2.09,30,6,0,0
58256,1.1512e+08,3,5107,5014,15.76,1.95,29,6,0,0
59151,1.1533e+08,3,5015,5057,15.79,1.77,29,6,0,0
60050,1.1556e+08,3,5057,5071,15.72,1.93,29,6,0,0
60454,1.1566e+08,3,5072,5157,15.7,2.56,29,6,0,0
60904,1.1577e+08,3,5163,5314,15.69,2.3,30,6,0,0
61348,1.1588e+08,3,5311,5142,15.67,1.99,30,6,0,0
61833,1.1599e+08,3,5145,5200,15.69,2.41,29,6,0,0
62284,1.1611e+08,3,5192,5114,15.69,2.2,30,6,0,0
62689,1.162e+08,3,5113,5100,15.64,2.02,29,6,0,0
63174,1.1632e+08,3,5086,4900,15.72,1.84,30,7,0,0
63628,1.1643e+08,3,4905,4957,15.71,1.99,29,7,0,0
64031,1.1653e+08,3,4952,4871,15.77,2.01,29,7,0,0
64480,1.1664e+08,3,4871,4914,15.7,2.04,29,7,0,0
64925,1.1675e+08,3,4930,5157,15.71,2.54,30,7,0,0
65375,1.1687e+08,3,5155,5142,15.66,2.37,29,7,0,0
65785,1.1697e+08,3,5160,5400,15.65,2.15,29,7,0,0
66230,1.1708e+08,3,5392,5228,15.6,2.43,29,7,0,0
66678,1.1719e+08,3,5229,5271,15.69,2.43,29,7,0,0
67120,1.173e+08,3,5272,5285,15.6,2.47,29,7,0,0
67575,1.1741e+08,3,5285,5300,15.72,2.28,29,7,0,0
68017,1.1753e+08,3,5286,5200,15.76,2,29,7,0,0
68907,1.1775e+08,3,5195,5114,15.67,2.04,29,7,0,0
69311,1.1785e+08,3,5114,5128,15.66,2.16,29,7,0,0
69766,1.1796e+08,3,5123,5042,15.69,2.27,29,7,0,0
70212,1.1807e+08,3,5058,5200,15.69,2.22,29,8,0,0
70661,1.1818e+08,3,5203,5242,15.7,2.5,29,8,0,0
71071,1.1829e+08,3,5244,5271,15.66,2.34,30,8,0,0
71561,1.1841e+08,3,5281,5400,15.65,2.46,29,8,0,0
71958,1.185e+08,3,5398,5371,15.67,2.24,30,8,0,0
72404,1.1861e+08,3,5361,5171,15.68,2.18,29,8,0,0
72852,1.1872e+08,3,5176,5228,15.71,2.06,29,8,0,0
73302,1.1883e+08,3,5219,5142,15.66,2.36,29,8,0,0
73712,1.1894e+08,3,5138,5100,15.62,2.46,29,8,0,0
74200,1.1906e+08,3,5103,5128,15.66,2.21,29,8,0,0
74641,1.1916e+08,3,5121,5057,15.7,1.99,29,8,0,0
75048,1.1927e+08,3,5044,4942,15.67,2.16,30,8,0,0
75459,1.1937e+08,3,4943,4971,15.7,2.28,30,8,0,0
75907,1.1949e+08,3,4975,5028,15.72,2.12,30,8,0,0
76348,1.1959e+08,3,5039,5171,15.54,2.51,30,9,0,0
76799,1.197e+08,3,5190,5357,15.61,2.87,30,9,0,0
77251,1.1981e+08,3,5365,5442,15.6,2.77,29,9,0,0
77654,1.1991e+08,3,5442,5457,15.63,2.86,29,9,0,0
78103,1.2002e+08,3,5468,5714,15.66,3.04,30,9,0,0
79031,1.2025e+08,3,5709,5614,15.7,2.64,29,9,0,0
79482,1.2036e+08,3,5593,5428,15.64,2.53,29,9,0,0
79922,1.2047e+08,3,5428,5428,15.67,2.6,29,9,0,0
80374,1.2058e+08,3,5423,5385,15.66,2.6,29,9,0,0
80819,1.2069e+08,3,5380,5328,15.66,2.36,30,9,0,0
81265,1.208e+08,3,5326,5314,15.72,2.32,29,9,0,0
81671,1.209e+08,3,5314,5342,15.69,2.4,30,10,0,0
82166,1.2102e+08,3,5356,5500,15.62,2.91,29,10,0,0
82603,1.2112e+08,3,5498,5485,15.72,2.71,30,10,0,0
83052,1.2123e+08,3,5489,5557,15.67,2.73,30,10,0,0
83450,1.2133e+08,3,5567,5771,15.67,3.13,30,10,0,0
83942,1.2145e+08,3,5760,5657,15.65,2.97,29,10,0,0
84347,1.2155e+08,3,5654,5585,15.58,2.84,29,10,0,0
84836,1.2167e+08,3,5592,5671,15.67,2.85,29,10,0,0
85239,1.2177e+08,3,5676,5742,15.59,3.05,30,10,0,0
85684,1.2188e+08,3,5753,5857,15.61,3.23,30,10,0,0
86131,1.2199e+08,3,5855,5842,15.61,3.28,30,10,0,0
86576,1.221e+08,3,5844,5871,15.61,3.26,29,10,0,0
87026,1.2221e+08,3,5874,5914,15.57,3.14,30,11,0,0
87430,1.2231e+08,3,5912,5828,15.65,3.02,30,11,0,0
87923,1.2243e+08,3,5824,5785,15.61,2.98,30,11,0,0
88324,1.2253e+08,3,5774,5642,15.6,2.88,30,11,0,0
88773,1.2264e+08,3,5637,5600,15.56,2.82,30,11,0,0
89253,1.2275e+08,3,5608,5728,15.68,2.79,30,11,0,0
89708,1.2287e+08,3,5733,5785,15.54,2.78,30,11,0,0
90113,1.2297e+08,3,5773,5557,15.56,2.73,30,11,0,0
90523,1.2307e+08,3,5557,5571,15.6,2.75,30,11,0,0
90970,1.2318e+08,3,5568,5471,15.65,2.67,30,11,0,0
91415,1.2329e+08,3,5474,5557,15.63,2.86,30,11,0,0
91902,1.234e+08,3,5564,5657,15.62,2.83,30,12,0,0
92303,1.235e+08,3,5658,5728,15.61,2.87,30,12,0,0
92758,1.2362e+08,3,5728,5728,15.63,2.75,30,12,0,0
93202,1.2373e+08,3,5725,5657,15.63,2.9,30,12,0,0
93701,1.2385e+08,3,5679,5914,15.57,3.51,30,12,0,0
94102,1.2395e+08,3,5919,6057,15.59,3.35,30,12,0,0
94547,1.2406e+08,3,6040,5757,15.65,2.77,30,12,0,0
95001,1.2417e+08,3,5752,5714,15.69,3.08,30,12,0,0
95482,1.2429e+08,3,5719,5785,15.61,3.02,30,12,0,0
95905,1.244e+08,3,5785,5785,15.63,3.3,30,12,0,0
96344,1.245e+08,3,5773,5614,15.6,2.64,30,12,0,0
96758,1.2461e+08,3,5613,5585,15.67,3.07,30,13,0,0
97237,1.2472e+08,3,5586,5600,15.64,2.81,30,13,0,0
97684,1.2483e+08,3,5600,5600,15.66,2.76,30,13,0,0
98134,1.2494e+08,3,5596,5514,15.69,2.39,30,13,0,0
98585,1.2505e+08,3,5512,5471,15.67,2.73,30,13,0,0
98990,1.2515e+08,3,5468,5414,15.69,2.63,30,13,0,0
99437,1.2527e+08,3,5415,5428,15.64,2.53,30,13,0,0
99888,1.2538e+08,3,5426,5385,15.66,2.65,30,13,0,0
1.003e+05,1.2548e+08,3,5387,5528,15.66,2.89,30,13,0,0
1.0079e+05,1.256e+08,3,5521,5457,15.64,2.62,30,13,0,0
1.0119e+05,1.257e+08,3,5457,5457,15.63,2.88,30,13,0,0
1.0164e+05,1.2581e+08,3,5466,5671,15.62,2.86,30,13,0,0
1.0209e+05,1.2592e+08,3,5670,5657,15.66,2.62,30,14,0,0
1.0254e+05,1.2603e+08,3,5649,5542,15.6,2.95,30,14,0,0
1.0299e+05,1.2615e+08,3,5568,5842,15.57,3.83,30,14,0,0
1.0347e+05,1.2626e+08,3,5840,5828,15.55,3.19,30,14,0,0
1.0388e+05,1.2636e+08,3,5816,5657,15.63,3.05,30,14,0,0
1.0432e+05,1.2647e+08,3,5653,5600,15.63,2.51,30,14,0,0
1.0477e+05,1.2659e+08,3,5582,5414,15.61,2.38,30,14,0,0
1.0493e+05,1.2669e+08,3,5412,5385,15.66,2.75,30,14,0,0
1.0538e+05,1.268e+08,3,5395,5542,15.63,2.67,30,14,0,0
1.0579e+05,1.269e+08,3,5538,5357,15.64,2.43,30,14,0,0
1.0628e+05,1.2702e+08,3,5341,5185,15.63,2.05,30,14,0,0
1.0669e+05,1.2712e+08,3,5188,5242,15.66,2.26,30,14,0,0
1.0714e+05,1.2723e+08,3,5236,5185,15.61,2.14,30,15,0,0
1.0754e+05,1.2733e+08,3,5184,5171,15.6,2.4,30,15,0,0
1.0799e+05,1.2745e+08,3,5167,5100,15.57,1.98,30,15,0,0
1.0844e+05,1.2756e+08,3,5082,4900,15.59,2.07,30,15,0,0
1.0888e+05,1.2767e+08,3,4910,5014,15.54,2.3,30,15,0,0
1.0929e+05,1.2777e+08,3,5016,5157,15.52,2.47,30,15,0,0
1.1018e+05,1.2798e+08,3,5157,5171,15.59,2.61,30,15,0,0
1.1063e+05,1.281e+08,3,5175,5285,15.58,2.59,30,15,0,0
1.1108e+05,1.2821e+08,3,5286,5314,15.54,2.57,30,15,0,0
1.1149e+05,1.2831e+08,3,5315,5357,15.6,2.52,30,15,0,0
1.1194e+05,1.2842e+08,3,5350,5271,15.61,2.39,30,15,0,0
1.1239e+05,1.2854e+08,3,5277,5342,15.64,2.51,30,15,0,0
1.1286e+05,1.2865e+08,3,5324,5214,15.65,2.42,30,16,0,0
1.1368e+05,1.2885e+08,3,5214,5300,15.64,2.46,30,16,0,0
1.1413e+05,1.2896e+08,3,5308,5414,15.64,2.48,30,16,0,0
1.1457e+05,1.2908e+08,3,5402,5285,15.59,2.6,30,16,0,0
1.1502e+05,1.2918e+08,3,5303,5485,15.57,2.64,30,16,0,0
1.1543e+05,1.2929e+08,3,5473,5228,15.67,2.35,30,16,0,0
1.1588e+05,1.294e+08,3,5234,5385,15.64,2.35,30,16,0,0
1.1632e+05,1.2951e+08,3,5379,5271,15.63,2.12,30,16,0,0
1.1677e+05,1.2962e+08,3,5258,5114,15.66,2.03,30,16,0,0
1.1763e+05,1.2983e+08,3,5115,5171,15.52,2.46,30,16,0,0
1.1804e+05,1.2993e+08,3,5167,5014,15.63,2.23,30,16,0,0
1.1897e+05,1.3016e+08,3,5019,5157,15.58,2.58,30,16,0,0
1.1942e+05,1.3028e+08,3,5164,5228,15.52,2.71,30,17,0,0
1.1987e+05,1.3039e+08,3,5254,5428,15.6,2.64,30,17,0,0
1.2032e+05,1.305e+08,3,5436,5528,15.6,2.83,30,17,0,0
1.2076e+05,1.3061e+08,3,5532,5585,15.57,2.86,30,17,0,0
1.2166e+05,1.3083e+08,3,5586,5614,15.61,2.69,30,17,0,0
1.2205e+05,1.3092e+08,3,5611,5514,15.57,2.63,30,17,0,0
1.2251e+05,1.3103e+08,3,5505,5385,15.58,2.54,30,17,0,0
1.2344e+05,1.3126e+08,3,5375,5200,15.59,1.97,30,17,0,0
1.2384e+05,1.3136e+08,3,5188,5014,15.54,2.23,30,17,0,0
1.2425e+05,1.3147e+08,3,5014,5014,15.63,1.92,30,17,0,0
1.2474e+05,1.3159e+08,3,4999,4842,15.62,1.9,30,17,0,0
1.2518e+05,1.3169e+08,3,4842,4842,15.55,2.1,30,18,0,0
1.2564e+05,1.318e+08,3,4839,4814,15.56,1.86,30,18,0,0
1.2605e+05,1.3191e+08,3,4815,4871,15.58,2.15,30,18,0,0
1.265e+05,1.3202e+08,3,4877,5142,15.6,2.46,30,18,0,0
1.2694e+05,1.3213e+08,3,5157,5314,15.58,2.58,30,18,0,0
1.2735e+05,1.3223e+08,3,5313,5285,15.53,2.4,30,18,0,0
1.278e+05,1.3235e+08,3,5284,5271,15.51,2.36,30,18,0,0
1.2829e+05,1.3247e+08,3,5268,5228,15.55,2.41,30,18,0,0
1.287e+05,1.3256e+08,3,5226,5157,15.52,2.18,30,18,0,0
1.2915e+05,1.3268e+08,3,5139,4971,15.57,2.02,30,18,0,0
1.296e+05,1.3279e+08,3,4953,4785,15.59,1.73,30,18,0,0
1.3049e+05,1.3301e+08,3,4792,5000,15.61,2.07,30,18,0,0
1.3093e+05,1.3312e+08,3,4998,4971,15.61,2.15,30,18,0,0
1.3138e+05,1.3322e+08,3,4967,4900,15.66,2,30,18,0,0
1.3183e+05,1.3334e+08,3,4904,4957,15.6,2.22,30,19,0,0
1.3228e+05,1.3345e+08,3,4960,5000,15.61,2.32,30,19,0,0
1.3268e+05,1.3355e+08,3,5005,5114,15.63,2.4,30,19,0,0
1.3314e+05,1.3367e+08,3,5121,5200,15.6,2.51,30,19,0,0
1.3354e+05,1.3377e+08,3,5197,5171,15.55,2.43,30,19,0,0
1.3398e+05,1.3388e+08,3,5182,5357,15.56,2.61,30,19,0,0
1.3443e+05,1.3398e+08,3,5354,5300,15.62,2.36,30,19,0,0
1.3488e+05,1.341e+08,3,5298,5271,15.5,2.39,30,19,0,0
1.3533e+05,1.3421e+08,3,5267,5214,15.57,2.57,30,19,0,0
1.3578e+05,1.3432e+08,3,5247,5600,15.54,3.08,30,19,0,0
1.3623e+05,1.3443e+08,3,5594,5542,15.49,3.06,30,19,0,0
1.3668e+05,1.3454e+08,3,5545,5585,15.59,2.87,30,19,0,0
1.3708e+05,1.3464e+08,3,5583,5500,15.61,2.59,30,19,0,0
1.3757e+05,1.3475e+08,3,5489,5342,15.62,2.11,30,20,0,0
1.3797e+05,1.3486e+08,3,5339,5171,15.61,1.96,30,20,0,0
1.3846e+05,1.3497e+08,3,5161,5028,15.61,2.09,30,20,0,0
1.3886e+05,1.3507e+08,3,5028,5028,15.61,2,30,20,0,0
1.3936e+05,1.3519e+08,3,5029,5042,15.6,2.17,30,20,0,0
1.3976e+05,1.3529e+08,3,5041,5014,15.62,2.05,30,20,0,0
1.4066e+05,1.3551e+08,3,5012,4942,15.5,2.37,30,20,0,0
1.411e+05,1.3562e+08,3,4943,5071,15.54,2.56,30,20,0,0
1.4155e+05,1.3574e+08,3,5079,5285,15.57,2.55,30,20,0,0
1.42e+05,1.3584e+08,3,5277,5128,15.58,2.45,30,20,0,0
1.4245e+05,1.3595e+08,3,5128,5185,15.49,2.27,30,20,0,0
1.4294e+05,1.3607e+08,3,5181,5142,15.56,2.02,30,20,0,0
1.4335e+05,1.3617e+08,3,5139,5000,15.54,2.05,30,20,0,0
1.4384e+05,1.363e+08,3,4993,4928,15.53,1.81,30,20,0,0
1.4425e+05,1.364e+08,3,4925,4857,15.59,1.71,30,21,0,0
1.4469e+05,1.3651e+08,3,4848,4657,15.57,1.54,30,21,0,0
1.4514e+05,1.3661e+08,3,4657,4700,15.6,1.64,30,21,0,0
1.4559e+05,1.3672e+08,3,4701,4728,15.57,1.66,30,21,0,0
1.4604e+05,1.3683e+08,3,4728,4728,15.6,1.95,30,21,0,0
1.4649e+05,1.3695e+08,3,4739,4842,15.6,1.95,30,21,0,0
1.469e+05,1.3705e+08,3,4855,5014,15.6,2.03,30,21,0,0
1.4734e+05,1.3716e+08,3,5014,5014,15.58,2.13,30,21,0,0
1.4775e+05,1.3726e+08,3,5016,5185,15.55,2.1,30,21,0,0
1.482e+05,1.3737e+08,3,5187,5314,15.57,2.41,30,21,0,0
1.4865e+05,1.3748e+08,3,5311,5285,15.55,2.23,30,21,0,0
1.491e+05,1.3759e+08,3,5274,5157,15.64,2.13,30,21,0,0
1.4954e+05,1.377e+08,3,5155,5142,15.6,2.56,30,21,0,0
1.4999e+05,1.3781e+08,3,5167,5342,15.63,2.43,30,21,0,0
1.5044e+05,1.3792e+08,3,5332,5228,15.55,2.33,30,21,0,0
1.5088e+05,1.3803e+08,3,5223,5171,15.6,2.06,30,21,0,0
1.5222e+05,1.3836e+08,3,5165,5000,15.5,2.07,30,22,0,0
1.5267e+05,1.3847e+08,3,5001,5014,15.57,2.15,30,22,0,0
1.5312e+05,1.3858e+08,3,5010,4985,15.5,2.07,30,22,0,0
1.5352e+05,1.3868e+08,3,4994,5100,15.58,2.14,30,22,0,0
1.5442e+05,1.389e+08,3,5104,5214,15.57,2.26,30,22,0,0
1.5576e+05,1.3923e+08,3,5210,5114,15.6,2.24,30,22,0,0
1.5616e+05,1.3933e+08,3,5114,5128,15.54,2.26,30,22,0,0
1.5662e+05,1.3944e+08,3,5129,5171,15.58,2.12,30,22,0,0
1.5707e+05,1.3956e+08,3,5173,5200,15.58,2.27,30,22,0,0
1.5751e+05,1.3967e+08,3,5193,5128,15.53,2.27,30,22,0,0
1.5796e+05,1.3978e+08,3,5136,5214,15.59,1.96,30,23,0,0
1.584e+05,1.3988e+08,3,5201,5071,15.56,2.1,30,23,0,0
1.5885e+05,1.3999e+08,3,5069,5028,15.56,2.06,30,23,0,0
1.5926e+05,1.4009e+08,3,5028,5042,15.48,2.18,30,23,0,0
1.5975e+05,1.4021e+08,3,5044,5071,15.47,2.16,30,23,0,0
1.602e+05,1.4032e+08,3,5083,5214,15.57,2.07,30,23,0,0
1.6064e+05,1.4043e+08,3,5206,5128,15.51,2.04,30,23,0,0
1.6109e+05,1.4054e+08,3,5131,5185,15.54,2.22,30,23,0,0
1.6154e+05,1.4065e+08,3,5171,5042,15.52,1.81,30,23,0,0
1.6195e+05,1.4075e+08,3,5029,4914,15.54,1.97,30,23,0,0
1.624e+05,1.4086e+08,3,4916,4942,15.57,1.94,30,23,0,0
1.6284e+05,1.4097e+08,3,4940,4928,15.57,1.94,30,23,0,0
1.6328e+05,1.4108e+08,3,4918,4828,15.57,1.96,30,23,0,0
1.6374e+05,1.4119e+08,3,4824,4785,15.59,1.85,30,23,0,0
1.6417e+05,1.4129e+08,3,4790,4871,15.55,2.02,29,23,0,0
1.6458e+05,1.414e+08,3,4874,5071,15.59,2.25,30,23,0,0
1.6555e+05,1.4163e+08,3,5072,5100,15.57,2.12,30,24,0,0
1.6596e+05,1.4173e+08,3,5095,5028,15.49,2.31,30,24,0,0
1.6641e+05,1.4184e+08,3,5035,5185,15.53,2.08,30,24,0,0
1.6681e+05,1.4195e+08,3,5184,5171,15.54,2.11,29,24,0,0
1.673e+05,1.4207e+08,3,5159,5085,15.47,2.19,29,24,0,0
1.6775e+05,1.4218e+08,3,5094,5185,15.48,2.39,30,24,0,0
1.6815e+05,1.4228e+08,3,5185,5228,15.53,2.45,30,24,0,0
1.686e+05,1.4239e+08,3,5228,5228,15.52,2.58,29,24,0,0
1.6904e+05,1.4249e+08,3,5232,5414,15.52,2.65,30,24,0,0
1.6948e+05,1.426e+08,3,5404,5214,15.58,2.46,30,24,0,0
1.6994e+05,1.4272e+08,3,5218,5285,15.48,2.53,30,24,0,0
1.7038e+05,1.4282e+08,3,5278,5214,15.55,2.31,29,24,0,0
1.7078e+05,1.4293e+08,3,5212,5142,15.54,2.37,30,24,0,0
1.7123e+05,1.4303e+08,3,5142,5142,15.52,2.35,30,24,0,0
1.7167e+05,1.4314e+08,3,5143,5185,15.5,2.43,30,25,0,0
1.7213e+05,1.4326e+08,3,5180,5128,15.54,2.19,29,25,0,0
1.7257e+05,1.4337e+08,3,5135,5214,15.5,2.37,29,25,0,0
1.7342e+05,1.4358e+08,3,5212,5142,15.51,2.23,30,25,0,0
1.7387e+05,1.4369e+08,3,5138,5100,15.54,2.25,29,25,0,0
1.7432e+05,1.438e+08,3,5091,5014,15.54,2.18,30,25,0,0
1.7473e+05,1.439e+08,3,5020,5114,15.5,2.53,29,25,0,0
1.7518e+05,1.4401e+08,3,5126,5242,15.49,2.3,29,25,0,0
1.7562e+05,1.4412e+08,3,5236,5185,15.51,2.52,29,25,0,0
1.7607e+05,1.4423e+08,3,5194,5285,15.59,2.31,30,25,0,0
1.7647e+05,1.4433e+08,3,5280,5185,15.52,2.14,30,25,0,0
1.7692e+05,1.4444e+08,3,5169,5014,15.53,2.13,29,25,0,0
1.7732e+05,1.4455e+08,3,5016,5142,15.49,2.43,30,26,0,0
1.7776e+05,1.4466e+08,3,5144,5300,15.52,2.47,30,26,0,0
1.7821e+05,1.4476e+08,3,5290,5085,15.44,2.22,29,26,0,0
1.7865e+05,1.4487e+08,3,5095,5300,15.5,2.12,29,26,0,0
1.791e+05,1.4498e+08,3,5295,5257,15.53,2.44,29,26,0,0
1.795e+05,1.4508e+08,3,5250,5100,15.54,2.32,29,26,0,0
1.8e+05,1.452e+08,3,5114,5257,15.51,2.29,30,26,0,0
1.8044e+05,1.4531e+08,3,5245,5128,15.51,2.25,29,26,0,0
1.8088e+05,1.4542e+08,3,5130,5171,15.51,2.3,29,26,0,0
1.8173e+05,1.4563e+08,3,5169,5042,15.51,2.18,29,26,0,0
1.8219e+05,1.4575e+08,3,5044,5071,15.52,2.12,29,26,0,0
1.8264e+05,1.4586e+08,3,5075,5128,15.52,2.26,29,26,0,0
1.8309e+05,1.4597e+08,3,5118,5028,15.53,2.18,29,26,0,0
1.8353e+05,1.4608e+08,3,5033,5085,15.49,2.26,29,26,0,0
1.8438e+05,1.4629e+08,3,5078,4914,15.4,2.09,29,27,0,0
1.8483e+05,1.464e+08,3,4930,5157,15.53,2.53,29,27,0,0
1.8528e+05,1.4651e+08,3,5159,5200,15.47,2.59,29,27,0,0
1.8617e+05,1.4673e+08,3,5198,5157,15.54,2.38,29,27,0,0
1.8662e+05,1.4684e+08,3,5155,5142,15.56,2.1,29,27,0,0
1.8702e+05,1.4694e+08,3,5140,5100,15.47,2.51,29,27,0,0
1.8747e+05,1.4705e+08,3,5102,5257,15.48,2.8,29,27,0,0
1.8792e+05,1.4716e+08,3,5261,5314,15.55,2.69,29,27,0,0
1.8881e+05,1.4738e+08,3,5317,5428,15.54,2.57,29,27,0,0
1.8921e+05,1.4748e+08,3,5429,5500,15.51,2.62,29,27,0,0
1.8966e+05,1.476e+08,3,5495,5428,15.48,2.68,29,27,0,0
1.9056e+05,1.4782e+08,3,5427,5414,15.47,2.7,29,28,0,0
1.9096e+05,1.4792e+08,3,5419,5600,15.44,2.72,29,28,0,0
1.9186e+05,1.4814e+08,3,5584,5242,15.33,2.49,29,28,0,0
1.9231e+05,1.4825e+08,3,5252,5357,15.48,2.45,29,28,0,0
1.9271e+05,1.4836e+08,3,5357,5371,15.42,2.43,30,28,0,0
1.9315e+05,1.4846e+08,3,5363,5257,15.4,2.45,29,28,0,0
1.936e+05,1.4858e+08,3,5267,5414,15.42,2.59,29,28,0,0
1.9405e+05,1.4869e+08,3,5414,5428,15.4,2.71,29,28,0,0
1.945e+05,1.4879e+08,3,5424,5385,15.44,2.73,29,28,0,0
1.9494e+05,1.4891e+08,3,5390,5442,15.38,2.62,29,28,0,0
1.9538e+05,1.4901e+08,3,5440,5428,15.47,2.74,29,28,0,0
1.9583e+05,1.4912e+08,3,5429,5442,15.42,2.19,29,29,0,0
1.9628e+05,1.4923e+08,3,5438,5385,15.42,2.67,29,29,0,0
1.9672e+05,1.4935e+08,3,5379,5314,15.48,2.4,29,29,0,0
1.9765e+05,1.4957e+08,3,5304,5128,15.38,2.29,29,29,0,0
1.981e+05,1.4968e+08,3,5128,5128,15.44,2.25,29,29,0,0
1.985e+05,1.4977e+08,3,5133,5228,15.45,2.6,29,29,0,0
1.989e+05,1.4988e+08,3,5233,5371,15.48,2.45,29,29,0,0
1.9935e+05,1.4999e+08,3,5367,5200,15.5,1.96,29,29,0,0
1.9984e+05,1.5011e+08,3,5175,4942,15.56,1.72,29,29,0,0
2.0028e+05,1.5022e+08,3,4933,4857,15.56,1.86,29,29,0,0
2.0069e+05,1.5032e+08,3,4859,4900,15.41,2.31,29,29,0,0
2.0159e+05,1.5055e+08,3,4913,5128,15.35,2.44,29,29,0,0
2.02e+05,1.5065e+08,3,5129,5157,15.5,2.31,29,29,0,0
2.0244e+05,1.5076e+08,3,5154,5114,15.51,2.27,29,30,0,0
2.0333e+05,1.5098e+08,3,5132,5400,15.5,2.7,29,30,0,0
2.0377e+05,1.5109e+08,3,5403,5442,15.48,2.52,29,30,0,0
2.0418e+05,1.5119e+08,3,5441,5400,15.5,2.77,29,30,0,0
2.0461e+05,1.513e+08,3,5400,5442,15.54,2.65,29,30,0,0
2.0511e+05,1.5142e+08,3,5445,5471,15.54,2.57,29,30,0,0
2.0555e+05,1.5153e+08,3,5469,5442,15.41,2.72,29,30,0,0
2.0596e+05,1.5163e+08,3,5440,5414,15.39,3.28,29,30,0,0
2.064e+05,1.5174e+08,3,5428,5728,15.39,3.13,29,30,0,0
2.0689e+05,1.5185e+08,3,5729,5742,15.45,3.13,29,30,0,0
2.0734e+05,1.5197e+08,3,5750,5842,15.45,3.01,29,30,0,0
2.0775e+05,1.5207e+08,3,5836,5771,15.48,2.94,29,31,0,0
2.0819e+05,1.5218e+08,3,5757,5628,15.45,2.97,29,31,0,0
2.0864e+05,1.5229e+08,3,5623,5571,15.48,2.69,29,31,0,0
2.0905e+05,1.5239e+08,3,5565,5514,15.49,2.94,29,31,0,0
2.0994e+05,1.5261e+08,3,5520,5700,15.51,3.1,29,31,0,0
2.1038e+05,1.5272e+08,3,5699,5671,15.47,2.77,29,31,0,0
2.1087e+05,1.5284e+08,3,5672,5685,15.44,2.86,29,31,0,0
2.1123e+05,1.5294e+08,3,5686,5757,15.46,2.9,29,31,0,0
2.1172e+05,1.5305e+08,3,5736,5500,15.48,2.99,29,31,0,0
2.1216e+05,1.5316e+08,3,5498,5485,15.5,2.57,29,31,0,0
2.1257e+05,1.5327e+08,3,5486,5571,15.47,2.87,29,32,0,0
2.1306e+05,1.5339e+08,3,5569,5542,15.47,2.51,29,32,0,0
2.1396e+05,1.5361e+08,3,5543,5585,15.46,2.87,29,32,0,0
2.1436e+05,1.5371e+08,3,5573,5414,15.47,2.65,29,32,0,0
2.1481e+05,1.5382e+08,3,5414,5428,15.51,2.51,29,32,0,0
2.1529e+05,1.5393e+08,3,5429,5442,15.47,2.8,29,32,0,0
2.1573e+05,1.5404e+08,3,5438,5385,15.46,2.64,29,32,0,0
2.1614e+05,1.5415e+08,3,5379,5300,15.51,2.16,29,32,0,0
2.1659e+05,1.5426e+08,3,5284,5128,15.51,2.45,29,32,0,0
2.1704e+05,1.5437e+08,3,5128,5142,15.48,2.13,29,32,0,0
2.1744e+05,1.5447e+08,3,5134,5000,15.41,2.15,29,32,0,0
2.1834e+05,1.5469e+08,3,4998,4942,15.51,2.1,29,33,0,0
2.1878e+05,1.548e+08,3,4940,4928,15.51,2.16,29,33,0,0
2.1923e+05,1.5491e+08,3,4925,4900,15.5,2.15,29,33,0,0
2.1967e+05,1.5502e+08,3,4894,4814,15.51,1.85,29,33,0,0
2.2008e+05,1.5512e+08,3,4810,4728,15.51,1.95,29,33,0,0
2.2057e+05,1.5524e+08,3,4740,4900,15.54,2.26,29,33,0,0
2.2097e+05,1.5534e+08,3,4901,4985,15.54,2.15,29,33,0,0
2.2142e+05,1.5545e+08,3,4986,5042,15.49,2.42,29,33,0,0
2.2191e+05,1.5557e+08,3,5044,5085,15.54,2.19,29,33,0,0
2.2231e+05,1.5567e+08,3,5091,5242,15.51,2.55,29,33,0,0
2.2277e+05,1.5578e+08,3,5238,5200,15.43,2.59,29,33,0,0
2.2321e+05,1.5589e+08,3,5224,5457,15.48,2.78,29,33,0,0
2.2365e+05,1.56e+08,3,5468,5614,15.51,2.73,29,33,0,0
2.2406e+05,1.561e+08,3,5596,5242,15.48,2.4,29,33,0,0
2.2452e+05,1.5622e+08,3,5231,5128,15.5,2.03,29,34,0,0
2.2492e+05,1.5632e+08,3,5125,5000,15.4,2.09,29,34,0,0
2.2537e+05,1.5643e+08,3,5003,5071,15.52,2.16,29,34,0,0
2.2581e+05,1.5654e+08,3,5051,4857,15.57,1.58,29,34,0,0
2.2622e+05,1.5664e+08,3,4852,4685,15.54,1.5,29,34,0,0
2.2667e+05,1.5675e+08,3,4674,4542,15.45,1.58,29,34,0,0
2.2712e+05,1.5687e+08,3,4557,4714,15.53,1.98,29,34,0,0
2.2752e+05,1.5697e+08,3,4714,4714,15.44,1.88,29,34,0,0
2.2796e+05,1.5708e+08,3,4721,4871,15.52,2.08,29,34,0,0
2.2841e+05,1.5719e+08,3,4872,4900,15.39,2.07,29,34,0,0
2.2882e+05,1.5729e+08,3,4899,4871,15.48,2.11,29,34,0,0
2.2926e+05,1.574e+08,3,4873,5028,15.51,2.18,29,34,0,0
2.297e+05,1.5751e+08,3,5026,4942,15.54,1.99,29,34,0,0
2.3019e+05,1.5763e+08,3,4929,4800,15.54,1.75,29,34,0,0
2.3064e+05,1.5774e+08,3,4796,4757,15.57,1.71,29,34,0,0
2.3105e+05,1.5784e+08,3,4762,4900,15.53,2.11,29,34,0,0
2.3149e+05,1.5795e+08,3,4895,4814,15.46,2.27,29,34,0,0
2.3194e+05,1.5806e+08,3,4839,5171,15.51,2.56,29,34,0,0
2.3234e+05,1.5816e+08,3,5172,5242,15.54,2.59,29,35,0,0
2.3283e+05,1.5828e+08,3,5245,5285,15.55,2.22,29,35,0,0
2.3328e+05,1.5839e+08,3,5289,5357,15.43,2.86,29,35,0,0
2.3367e+05,1.5849e+08,3,5357,5357,15.48,2.85,29,35,0,0
2.3413e+05,1.586e+08,3,5355,5328,15.48,2.28,29,35,0,0
2.3457e+05,1.5871e+08,3,5312,5114,15.52,2.05,29,35,0,0
2.3502e+05,1.5882e+08,3,5099,4957,15.54,1.7,29,35,0,0
2.3547e+05,1.5893e+08,3,4947,4857,15.5,1.84,29,35,0,0
2.3587e+05,1.5903e+08,3,4857,4885,15.43,2.52,29,35,0,0
2.3676e+05,1.5925e+08,3,4899,5300,15.45,2.53,29,35,0,0
2.372e+05,1.5936e+08,3,5304,5400,15.5,2.52,29,35,0,0
2.3765e+05,1.5947e+08,3,5381,5200,15.5,2.14,29,35,0,0
2.3814e+05,1.5958e+08,3,5184,4957,15.51,1.7,29,36,0,0
2.3858e+05,1.597e+08,3,4977,5257,15.41,3.08,29,36,0,0
2.3899e+05,1.598e+08,3,5259,5385,15.5,2.62,29,36,0,0
2.3947e+05,1.5991e+08,3,5391,5471,15.41,2.81,29,36,0,0
2.3992e+05,1.6003e+08,3,5442,5157,15.51,1.98,29,36,0,0
2.4037e+05,1.6014e+08,3,5158,5171,15.51,2.17,29,36,0,0
2.4082e+05,1.6025e+08,3,5169,5157,15.52,2.57,29,36,0,0
2.4122e+05,1.6035e+08,3,5161,5414,15.5,2.78,29,36,0,0
2.4166e+05,1.6046e+08,3,5413,5400,15.46,2.61,29,36,0,0
2.4215e+05,1.6058e+08,3,5398,5385,15.48,2.88,29,36,0,0
2.4255e+05,1.6068e+08,3,5381,5314,15.51,2.57,29,36,0,0
2.4303e+05,1.6079e+08,3,5313,5300,15.44,2.42,29,36,0,0
2.4348e+05,1.6091e+08,3,5314,5442,15.42,2.9,29,36,0,0
2.4393e+05,1.6102e+08,3,5451,5542,15.42,2.98,29,37,0,0
2.4434e+05,1.6112e+08,3,5520,5357,15.41,2.56,29,37,0,0
2.4479e+05,1.6123e+08,3,5361,5400,15.42,2.36,29,37,0,0
2.4518e+05,1.6133e+08,3,5398,5257,15.47,2.31,29,37,0,0
2.4568e+05,1.6145e+08,3,5244,5142,15.51,1.96,29,37,0,0
2.4656e+05,1.6167e+08,3,5140,4914,15.51,2.15,29,37,0,0
2.47e+05,1.6177e+08,3,4917,4985,15.41,2.45,29,37,0,0
2.4745e+05,1.6188e+08,3,4990,5100,15.5,2.18,29,37,0,0
2.4789e+05,1.6198e+08,3,5098,5071,15.49,2.19,29,37,0,0
2.4835e+05,1.621e+08,3,5072,5085,15.42,2.46,29,37,0,0
2.4879e+05,1.6221e+08,3,5103,5285,15.45,2.57,29,37,0,0
2.4968e+05,1.6243e+08,3,5287,5342,15.41,2.63,29,37,0,0
2.5012e+05,1.6254e+08,3,5348,5414,15.44,2.53,29,38,0,0
2.5053e+05,1.6264e+08,3,5413,5400,15.45,2.39,29,38,0,0
2.5097e+05,1.6275e+08,3,5392,5242,15.48,2.21,29,38,0,0
2.5146e+05,1.6287e+08,3,5249,5314,15.39,2.62,29,38,0,0
2.519e+05,1.6297e+08,3,5318,5371,15.46,2.54,29,38,0,0
2.5235e+05,1.6308e+08,3,5378,5471,15.38,2.74,29,38,0,0
2.5276e+05,1.6319e+08,3,5477,5657,15.39,3.04,29,38,0,0
2.532e+05,1.633e+08,3,5654,5614,15.38,2.78,29,38,0,0
2.5365e+05,1.6341e+08,3,5608,5557,15.39,2.83,29,38,0,0
2.5409e+05,1.6352e+08,3,5557,5557,15.41,2.79,29,38,0,0
2.545e+05,1.6362e+08,3,5553,5471,15.45,2.68,29,38,0,0
2.5494e+05,1.6373e+08,3,5471,5500,15.41,2.91,29,38,0,0
2.5544e+05,1.6385e+08,3,5519,5714,15.39,3.28,29,39,0,0
2.5629e+05,1.6406e+08,3,5719,5828,15.47,3.39,29,39,0,0
2.5673e+05,1.6418e+08,3,5830,5871,15.4,3.31,29,39,0,0
2.5718e+05,1.6428e+08,3,5873,5900,15.48,3.08,29,39,0,0
2.5758e+05,1.6439e+08,3,5876,5657,15.51,2.63,29,39,0,0
2.5803e+05,1.645e+08,3,5637,5357,15.46,2.53,29,39,0,0
2.5848e+05,1.6461e+08,3,5357,5357,15.37,2.73,29,39,0,0
2.5888e+05,1.6471e+08,3,5354,5228,15.39,2.13,29,39,0,0
2.5936e+05,1.6482e+08,3,5221,5100,15.36,1.94,29,39,0,0
2.598e+05,1.6493e+08,3,5090,4885,15.37,1.85,29,39,0,0
2.6026e+05,1.6504e+08,3,4860,4628,15.43,1.32,29,39,0,0
2.6067e+05,1.6515e+08,3,4616,4357,15.42,1.29,29,39,0,0
2.6111e+05,1.6526e+08,3,4351,4271,15.41,1.36,29,40,0,0
2.62e+05,1.6547e+08,3,4291,4842,15.47,2.28,29,40,0,0
2.6245e+05,1.6558e+08,3,4855,4985,15.45,2.47,29,40,0,0
2.6334e+05,1.658e+08,3,4994,5214,15.47,2.54,29,40,0,0
2.6374e+05,1.659e+08,3,5216,5371,15.44,2.76,29,40,0,0
2.642e+05,1.6602e+08,3,5368,5228,15.41,2.52,29,40,0,0
2.6512e+05,1.6624e+08,3,5239,5428,15.39,2.66,29,40,0,0
2.6553e+05,1.6634e+08,3,5423,5371,15.43,3.04,29,40,0,0
2.6598e+05,1.6646e+08,3,5367,5342,15.46,2.38,29,40,0,0
2.6638e+05,1.6656e+08,3,5335,5271,15.41,2.21,29,40,0,0
2.6682e+05,1.6667e+08,3,5272,5300,15.43,2.56,29,40,0,0
2.6727e+05,1.6677e+08,3,5286,5157,15.39,2.38,29,41,0,0
2.6772e+05,1.6688e+08,3,5169,5328,15.47,2.48,29,41,0,0
2.6813e+05,1.6699e+08,3,5329,5371,15.35,2.6,29,41,0,0
2.6857e+05,1.671e+08,3,5369,5228,15.42,2.37,29,41,0,0
2.6902e+05,1.6721e+08,3,5226,5157,15.43,2.52,29,41,0,0
2.6947e+05,1.6732e+08,3,5162,5228,15.47,2.58,29,41,0,0
2.6991e+05,1.6742e+08,3,5229,5271,15.45,2.46,29,41,0,0
2.7036e+05,1.6753e+08,3,5270,5257,15.43,2.41,29,41,0,0
2.708e+05,1.6764e+08,3,5258,5300,15.45,2.49,29,41,0,0
2.7129e+05,1.6776e+08,3,5291,5185,15.49,2.34,29,41,0,0
2.7173e+05,1.6787e+08,3,5190,5314,15.41,2.51,29,41,0,0
2.7218e+05,1.6798e+08,3,5314,5314,15.38,2.56,29,41,0,0
2.7259e+05,1.6808e+08,3,5315,5328,15.4,2.65,29,41,0,0
2.7299e+05,1.6818e+08,3,5328,5357,15.46,2.58,29,42,0,0
2.7347e+05,1.683e+08,3,5351,5300,15.43,2.24,29,42,0,0
2.7392e+05,1.684e+08,3,5300,5300,15.42,2.54,29,42,0,0
2.7432e+05,1.6851e+08,3,5297,5157,15.39,2.36,29,42,0,0
2.7477e+05,1.6862e+08,3,5158,5242,15.45,2.53,29,42,0,0
2.7521e+05,1.6873e+08,3,5238,5157,15.36,2.46,29,42,0,0
2.757e+05,1.6884e+08,3,5164,5242,15.48,2.44,29,42,0,0
2.761e+05,1.6894e+08,3,5239,5185,15.42,2.48,29,42,0,0
2.7656e+05,1.6906e+08,3,5196,5357,15.34,2.82,29,42,0,0
2.7696e+05,1.6916e+08,3,5357,5400,15.4,2.82,29,42,0,0
2.774e+05,1.6927e+08,3,5403,5485,15.33,2.57,29,42,0,0
2.7785e+05,1.6937e+08,3,5484,5457,15.42,2.8,29,42,0,0
2.783e+05,1.6949e+08,3,5463,5528,15.47,2.88,29,42,0,0
2.7916e+05,1.6971e+08,3,5528,5542,15.44,2.83,29,43,0,0
2.7956e+05,1.6981e+08,3,5547,5657,15.43,2.92,29,43,0,0
2.8001e+05,1.6992e+08,3,5652,5557,15.39,2.89,29,43,0,0
2.8046e+05,1.7003e+08,3,5557,5557,15.42,3,29,43,0,0
2.8091e+05,1.7014e+08,3,5564,5728,15.39,3.12,29,43,0,0
2.8139e+05,1.7026e+08,3,5733,5785,15.38,2.89,29,43,0,0
2.8184e+05,1.7037e+08,3,5762,5542,15.39,2.89,29,43,0,0
2.8228e+05,1.7048e+08,3,5543,5571,15.39,2.82,29,43,0,0
2.8273e+05,1.7058e+08,3,5568,5428,15.39,2.67,29,43,0,0
2.8317e+05,1.7069e+08,3,5428,5457,15.43,2.73,29,43,0,0
2.8366e+05,1.7081e+08,3,5458,5471,15.42,2.79,29,44,0,0
2.8406e+05,1.7091e+08,3,5472,5500,15.39,2.7,29,44,0,0
2.8456e+05,1.7103e+08,3,5504,5628,15.29,2.85,29,44,0,0
2.8496e+05,1.7113e+08,3,5631,5685,15.38,3.12,29,44,0,0
2.8544e+05,1.7126e+08,3,5689,5714,15.41,3.04,29,44,0,0
2.8585e+05,1.7135e+08,3,5714,5714,15.45,3.23,29,44,0,0
2.8674e+05,1.7157e+08,3,5711,5585,15.44,2.65,29,44,0,0
2.8767e+05,1.718e+08,3,5579,5485,15.44,2.71,29,44,0,0
2.8808e+05,1.719e+08,3,5480,5428,15.46,2.62,29,44,0,0
2.8856e+05,1.7202e+08,3,5455,5600,15.39,2.77,29,44,0,0
2.8893e+05,1.7211e+08,3,5598,5485,15.48,2.82,29,45,0,0
2.8978e+05,1.7233e+08,3,5488,5600,15.47,2.77,29,45,0,0
2.9068e+05,1.7255e+08,3,5603,5700,15.42,3.42,29,45,0,0
2.9108e+05,1.7265e+08,3,5702,5914,15.38,3.32,29,45,0,0
2.9152e+05,1.7277e+08,3,5892,5685,15.41,3.08,29,45,0,0
2.9197e+05,1.7288e+08,3,5686,5700,15.41,3.04,29,45,0,0
2.9238e+05,1.7298e+08,3,5704,5785,15.42,2.85,29,45,0,0
2.9283e+05,1.7309e+08,3,5778,5714,15.39,2.78,29,45,0,0
2.9328e+05,1.7321e+08,3,5700,5571,15.39,2.64,29,45,0,0
2.9372e+05,1.7331e+08,3,5543,5385,15.38,2.51,29,46,0,0
2.9413e+05,1.7341e+08,3,5386,5414,15.45,2.45,29,46,0,0
2.9457e+05,1.7352e+08,3,5411,5385,15.45,2.32,29,46,0,0
2.9502e+05,1.7363e+08,3,5373,5257,15.5,2.01,29,46,0,0
2.9588e+05,1.7386e+08,3,5233,4842,15.57,1.88,29,46,0,0
2.9633e+05,1.7397e+08,3,4860,5028,15.46,2.16,29,46,0,0
2.9673e+05,1.7407e+08,3,5026,4914,15.55,1.73,29,46,0,0
2.9718e+05,1.7417e+08,3,4914,4914,15.51,1.81,29,46,0,0
2.9766e+05,1.7429e+08,3,4909,4857,15.44,2.36,29,46,0,0
2.9811e+05,1.744e+08,3,4875,5042,15.48,2.49,29,46,0,0
2.9896e+05,1.7462e+08,3,5049,5200,15.51,2.27,29,46,0,0
2.9937e+05,1.7472e+08,3,5199,5171,15.5,2.52,29,46,0,0
2.9986e+05,1.7484e+08,3,5180,5257,15.51,2.61,29,46,0,0
3.0027e+05,1.7495e+08,3,5280,5514,15.37,2.78,29,47,0,0
3.0068e+05,1.7504e+08,3,5517,5671,15.38,3.09,29,47,0,0
3.0116e+05,1.7517e+08,3,5675,5742,15.36,3.04,29,47,0,0
3.016e+05,1.7527e+08,3,5729,5628,15.48,3.19,29,47,0,0
3.025e+05,1.7549e+08,3,5627,5614,15.38,3,29,47,0,0
3.0294e+05,1.756e+08,3,5602,5485,15.42,2.53,29,47,0,0
3.0335e+05,1.7571e+08,3,5492,5557,15.42,2.51,29,47,0,0
3.042e+05,1.7591e+08,3,5551,5157,15.42,2.17,30,47,0,0
3.0469e+05,1.7604e+08,3,5138,5000,15.46,2.03,29,47,0,0
3.051e+05,1.7614e+08,3,5008,5171,15.38,2.29,29,47,0,0
3.0555e+05,1.7625e+08,3,5171,5185,15.42,2.37,29,48,0,0
3.06e+05,1.7636e+08,3,5187,5228,15.45,2.45,29,48,0,0
3.0644e+05,1.7647e+08,3,5206,4885,15.5,1.69,29,48,0,0
3.0689e+05,1.7658e+08,3,4894,5028,15.51,2.22,29,48,0,0
3.0729e+05,1.7668e+08,3,5021,4728,15.5,1.62,29,48,0,0
3.0778e+05,1.768e+08,3,4752,5028,15.46,2.75,29,48,0,0
3.0822e+05,1.7691e+08,3,5042,5242,15.41,2.64,29,48,0,0
3.0863e+05,1.7701e+08,3,5248,5514,15.4,3.08,29,48,0,0
3.0907e+05,1.7712e+08,3,5520,5771,15.39,3.22,29,48,0,0
3.0953e+05,1.7723e+08,3,5771,5785,15.42,3.12,29,48,0,0
3.0993e+05,1.7734e+08,3,5786,5871,15.32,3.65,29,48,0,0
3.1046e+05,1.7746e+08,3,5893,6042,15.3,3.7,29,48,0,0
3.1086e+05,1.7756e+08,3,6050,6142,15.44,3.47,29,49,0,0
3.1175e+05,1.7778e+08,3,6113,5557,15.38,2.78,29,49,0,0
3.1215e+05,1.7788e+08,3,5552,5400,15.42,2.1,29,49,0,0
3.126e+05,1.7799e+08,3,5396,5171,15.38,2.34,29,49,0,0
3.1305e+05,1.781e+08,3,5177,5271,15.41,2.6,29,49,0,0
3.135e+05,1.7821e+08,3,5277,5371,15.38,2.64,29,49,0,0
3.139e+05,1.7831e+08,3,5367,5214,15.4,2.17,29,49,0,0
3.1439e+05,1.7843e+08,3,5205,5128,15.36,2.32,29,49,0,0
3.1479e+05,1.7853e+08,3,5124,5057,15.41,2.15,29,49,0,0
3.1524e+05,1.7864e+08,3,5050,4885,15.47,1.79,29,49,0,0
3.1569e+05,1.7875e+08,3,4891,4957,15.41,2.34,29,49,0,0
3.161e+05,1.7886e+08,3,4969,5128,15.33,2.21,29,49,0,0
3.1655e+05,1.7897e+08,3,5134,5200,15.46,2.5,29,50,0,0
3.1695e+05,1.7907e+08,3,5202,5314,15.47,2.51,29,50,0,0
3.174e+05,1.7918e+08,3,5310,5228,15.5,2.41,29,50,0,0
3.1789e+05,1.793e+08,3,5231,5271,15.39,2.58,29,50,0,0
3.1834e+05,1.794e+08,3,5273,5328,15.44,2.94,29,50,0,0
3.1878e+05,1.7951e+08,3,5351,5585,15.41,3.2,29,50,0,0
3.1922e+05,1.7962e+08,3,5591,5671,15.33,2.8,29,50,0,0
3.1963e+05,1.7972e+08,3,5673,5728,15.33,3.1,29,50,0,0
3.2007e+05,1.7983e+08,3,5726,5628,15.38,2.65,29,50,0,0
3.2052e+05,1.7994e+08,3,5615,5342,15.42,2.06,29,50,0,0
3.2096e+05,1.8005e+08,3,5337,5042,15.46,1.96,29,50,0,0
3.2141e+05,1.8016e+08,3,5041,5000,15.46,2.13,29,50,0,0
3.219e+05,1.8028e+08,3,5006,5071,15.26,2.66,30,50,0,0
3.2275e+05,1.8049e+08,3,5079,5300,15.36,2.42,29,51,0,0
3.232e+05,1.806e+08,3,5300,5314,15.39,2.47,29,51,0,0
3.2364e+05,1.8071e+08,3,5310,5242,15.33,2.22,29,51,0,0
3.2409e+05,1.8082e+08,3,5234,5128,15.38,2.22,29,51,0,0
3.245e+05,1.8092e+08,3,5129,5157,15.29,2.28,29,51,0,0
3.2495e+05,1.8103e+08,3,5157,5157,15.28,2.52,30,51,0,0
3.2539e+05,1.8114e+08,3,5164,5328,15.39,2.5,29,51,0,0
3.2579e+05,1.8124e+08,3,5326,5200,15.39,2.41,29,51,0,0
3.2624e+05,1.8136e+08,3,5206,5300,15.38,2.34,29,51,0,0
3.2664e+05,1.8146e+08,3,5295,5014,15.42,1.78,29,51,0,0
3.2714e+05,1.8157e+08,3,5005,4857,15.41,1.92,30,51,0,0
3.2754e+05,1.8168e+08,3,4860,5071,15.33,2.52,29,51,0,0
3.2803e+05,1.8179e+08,3,5083,5214,15.35,2.57,30,51,0,0
3.2843e+05,1.8189e+08,3,5215,5285,15.35,2.49,29,51,0,0
3.2892e+05,1.8201e+08,3,5283,5271,15.44,2.48,29,52,0,0
3.2936e+05,1.8212e+08,3,5263,5185,15.44,2.13,29,52,0,0
3.2981e+05,1.8222e+08,3,5186,5200,15.49,2.14,29,52,0,0
3.3026e+05,1.8234e+08,3,5178,4957,15.52,1.91,29,52,0,0
3.3071e+05,1.8245e+08,3,4951,4900,15.5,2.02,29,52,0,0
3.3115e+05,1.8256e+08,3,4912,5042,15.38,2.45,29,52,0,0
3.3159e+05,1.8267e+08,3,5050,5157,15.38,2.53,29,52,0,0
3.3204e+05,1.8277e+08,3,5155,5128,15.39,2.48,29,52,0,0
3.3249e+05,1.8288e+08,3,5126,5114,15.44,2.19,29,52,0,0
3.3293e+05,1.8299e+08,3,5115,5200,15.3,2.25,29,52,0,0
3.3426e+05,1.8332e+08,3,5200,5214,15.32,2.25,29,52,0,0
3.3472e+05,1.8343e+08,3,5197,4957,15.34,1.92,29,52,0,0
3.356e+05,1.8364e+08,3,4960,5071,15.36,2.29,29,53,0,0
3.3605e+05,1.8375e+08,3,5073,5114,15.35,2.1,29,53,0,0
3.3649e+05,1.8386e+08,3,5108,4871,15.36,2.01,29,53,0,0
3.3694e+05,1.8397e+08,3,4886,5100,15.38,2.03,29,53,0,0
3.3738e+05,1.8408e+08,3,5100,5114,15.35,2.36,29,53,0,0
3.3783e+05,1.8419e+08,3,5114,5114,15.38,2.19,29,53,0,0
3.3827e+05,1.843e+08,3,5111,5085,15.42,2.25,29,53,0,0
3.3872e+05,1.8441e+08,3,5085,5085,15.36,2.1,29,53,0,0
3.3917e+05,1.8452e+08,3,5086,5100,15.27,2.29,29,53,0,0
3.3961e+05,1.8462e+08,3,5105,5171,15.4,2.2,29,53,0,0
3.4002e+05,1.8472e+08,3,5170,5142,15.41,2.08,30,53,0,0
3.4047e+05,1.8484e+08,3,5135,5042,15.43,2.15,29,53,0,0
3.422e+05,1.8527e+08,3,5043,5171,15.41,2.33,29,54,0,0
3.4266e+05,1.8539e+08,3,5172,5200,15.34,2.41,29,54,0,0
3.4311e+05,1.855e+08,3,5197,5171,15.38,2.4,29,54,0,0
3.4356e+05,1.8561e+08,3,5167,5128,15.37,2.31,29,54,0,0
3.4396e+05,1.8571e+08,3,5133,5257,15.4,2.45,29,54,0,0
3.4441e+05,1.8582e+08,3,5257,5257,15.41,2.23,29,54,0,0
3.4481e+05,1.8592e+08,3,5259,5342,15.45,2.59,29,54,0,0
3.4527e+05,1.8603e+08,3,5339,5242,15.47,2.24,29,54,0,0
3.4614e+05,1.8625e+08,3,5243,5357,15.4,2.24,29,54,0,0
3.466e+05,1.8636e+08,3,5318,4800,15.77,0.68,29,54,0,0
3.4704e+05,1.8647e+08,3,4714,3571,15.44,1.06,29,54,0,0
3.4749e+05,1.8658e+08,3,3580,3671,15.77,0.8,29,54,0,0
3.4792e+05,1.8668e+08,3,3653,2971,15.73,1.21,29,54,0,0
3.4842e+05,1.868e+08,3,2966,2914,15.72,1.13,29,54,0,0
3.4882e+05,1.869e+08,3,2879,2557,15.81,0.29,29,54,0,0
3.4971e+05,1.8712e+08,3,2550,2300,15.82,0.26,29,54,0,0
3.5016e+05,1.8723e+08,3,2293,2228,15.82,0.25,29,54,0,0
3.5057e+05,1.8733e+08,3,2228,2257,15.82,0.3,29,54,0,0
3.5105e+05,1.8745e+08,3,2253,2228,15.83,0.31,29,54,0,0
3.5146e+05,1.8755e+08,3,2228,2242,15.78,0.34,29,54,0,0
3.519e+05,1.8767e+08,3,2241,2228,15.83,0.31,29,54,0,0
3.5235e+05,1.8778e+08,3,2229,2242,15.82,0.36,29,54,0,0
3.5275e+05,1.8788e+08,3,2240,2185,15.83,0.24,29,54,0,0
3.5325e+05,1.8799e+08,3,2178,2114,15.83,0.25,29,54,0,0
3.5369e+05,1.881e+08,3,2115,2142,15.83,0.24,29,55,0,0
3.5414e+05,1.8821e+08,3,2139,2114,15.84,0.22,29,55,0,0
3.5458e+05,1.8832e+08,3,2113,2100,15.85,0.26,29,55,0,0
3.5504e+05,1.8843e+08,3,2102,2128,15.84,0.3,29,55,0,0
3.5544e+05,1.8853e+08,3,2128,2128,15.84,0.27,29,55,0,0
3.5593e+05,1.8864e+08,3,2108,1900,15.92,0.03,29,55,0,0
3.5637e+05,1.8875e+08,3,1868,1528,15.91,0,29,55,0,0
3.5682e+05,1.8886e+08,3,1512,1328,15.89,0.08,29,55,0,0
3.5727e+05,1.8897e+08,3,1326,1300,15.9,0.1,29,55,0,0
3.5772e+05,1.8908e+08,3,1300,1300,15.9,0.1,29,55,0,0
3.5816e+05,1.8918e+08,3,1299,1285,15.9,0.11,29,55,0,0
3.586e+05,1.8929e+08,3,1285,1300,15.9,0.11,29,55,0,0
3.591e+05,1.8941e+08,3,1298,1285,15.91,0.11,29,55,0,0
3.595e+05,1.8951e+08,3,1285,1300,15.91,0.11,29,55,0,0
3.5999e+05,1.8962e+08,3,1298,1285,15.91,0.11,29,55,0,0
3.6039e+05,1.8973e+08,3,1286,1300,15.91,0.11,29,55,0,0
3.6084e+05,1.8983e+08,3,1298,1285,15.92,0.11,29,55,0,0
3.6128e+05,1.8994e+08,3,1285,1300,15.92,0.11,29,55,0,0
3.6173e+05,1.9005e+08,3,1300,1300,15.92,0.11,29,55,0,0
3.6218e+05,1.9016e+08,3,1300,1300,15.92,0.1,29,55,0,0
3.6265e+05,1.9027e+08,3,1300,1300,15.92,0.11,29,55,0,0
3.6311e+05,1.9038e+08,3,1300,1300,15.92,0.1,29,55,0,0
3.6352e+05,1.9048e+08,3,1300,1300,15.92,0.11,29,55,0,0
3.6397e+05,1.9058e+08,3,1299,1285,15.92,0.11,29,55,0,0
3.6444e+05,1.907e+08,3,1286,1300,15.92,0.1,29,55,0,0
3.649e+05,1.908e+08,3,1300,1300,15.92,0.1,29,55,0,0
3.6534e+05,1.9091e+08,3,1300,1300,15.92,0.1,29,55,0,0
3.6583e+05,1.9103e+08,3,1300,1300,15.93,0.11,29,55,0,0
3.6624e+05,1.9113e+08,3,1300,1300,15.92,0.11,29,55,0,0
3.6717e+05,1.9135e+08,3,1300,1300,15.94,0.11,29,55,0,0
3.6762e+05,1.9145e+08,3,1300,1300,15.94,0.11,29,55,0,0
3.6802e+05,1.9156e+08,3,1300,1300,15.94,0.11,29,55,0,0
3.6896e+05,1.9178e+08,3,1300,1300,15.94,0.11,29,55,0,0
3.6936e+05,1.9188e+08,3,1300,1300,15.94,0.1,29,55,0,0
3.6985e+05,1.9199e+08,3,1300,1300,15.95,0.11,29,55,0,0
3.703e+05,1.921e+08,3,1300,1300,15.94,0.11,29,55,0,0
3.7075e+05,1.9221e+08,3,1300,1300,15.95,0.11,29,55,0,0
3.712e+05,1.9232e+08,3,1300,1300,15.95,0.1,29,55,0,0
3.7165e+05,1.9243e+08,3,1300,1300,15.94,0.1,29,55,0,0
3.7209e+05,1.9253e+08,3,1300,1300,15.94,0.1,29,55,0,0
3.7254e+05,1.9264e+08,3,1300,1300,15.95,0.1,29,55,0,0
3.7347e+05,1.9286e+08,3,1300,1300,15.95,0.11,29,55,0,0
3.7392e+05,1.9297e+08,3,1300,1300,15.95,0.11,29,55,0,0
3.7432e+05,1.9307e+08,3,1300,1300,15.96,0.11,29,55,0,0
3.7481e+05,1.9319e+08,3,1300,1300,15.95,0.11,29,55,0,0
3.7522e+05,1.9329e+08,3,1300,1300,15.95,0.11,29,55,0,0
3.7567e+05,1.9339e+08,3,1300,1300,15.96,0.11,29,55,0,0
3.7611e+05,1.935e+08,3,1300,1300,15.96,0.11,29,55,0,0
3.766e+05,1.9362e+08,3,1300,1300,15.96,0.11,29,55,0,0
3.7704e+05,1.9373e+08,3,1300,1300,15.96,0.11,29,55,0,0
3.7749e+05,1.9383e+08,3,1300,1300,15.96,0.11,29,55,0,0
3.7794e+05,1.9394e+08,3,1300,1300,15.97,0.11,29,55,0,0
3.7839e+05,1.9406e+08,3,1300,1300,15.95,0.1,29,55,0,0
3.7972e+05,1.9437e+08,3,1300,1300,15.97,0.11,29,55,0,0
3.8016e+05,1.9448e+08,3,1300,1300,15.97,0.11,29,55,0,0
3.8061e+05,1.9459e+08,3,1300,1300,15.97,0.11,29,55,0,0
3.8105e+05,1.947e+08,3,1300,1300,15.97,0.11,29,55,0,0
3.815e+05,1.948e+08,3,1300,1300,15.97,0.11,29,55,0,0
3.8195e+05,1.9491e+08,3,1300,1300,15.98,0.11,29,55,0,0
3.824e+05,1.9502e+08,3,1300,1300,15.97,0.11,29,55,0,0
3.8284e+05,1.9512e+08,3,1300,1300,15.97,0.11,29,55,0,0
3.8333e+05,1.9524e+08,3,1300,1300,15.97,0.11,29,55,0,0
3.8381e+05,1.9535e+08,3,1300,1300,15.98,0.11,29,55,0,0
3.8422e+05,1.9545e+08,3,1300,1300,15.98,0.11,29,55,0,0
3.8466e+05,1.9556e+08,3,1300,1300,15.97,0.11,29,55,0,0
3.8511e+05,1.9567e+08,3,1300,1300,15.98,0.11,29,55,0,0
3.8556e+05,1.9578e+08,3,1300,1300,15.98,0.11,29,55,0,0
3.8597e+05,1.9588e+08,3,1300,1300,15.98,0.11,29,55,0,0
3.8642e+05,1.9599e+08,3,1300,1300,15.98,0.11,29,55,0,0
3.8686e+05,1.961e+08,3,1300,1300,15.98,0.11,29,55,0,0
3.8731e+05,1.962e+08,3,1300,1300,15.98,0.11,29,55,0,0
3.878e+05,1.9632e+08,3,1300,1300,15.99,0.11,29,55,0,0
3.8824e+05,1.9642e+08,3,1300,1314,15.99,0.11,29,55,0,0
3.8865e+05,1.9653e+08,3,1314,1314,15.99,0.11,29,55,0,0
3.891e+05,1.9664e+08,3,1313,1300,15.99,0.11,29,55,0,0
3.8955e+05,1.9675e+08,3,1300,1314,16,0.11,29,55,0,0
3.9e+05,1.9686e+08,3,1312,1300,16,0.11,29,55,0,0
3.9045e+05,1.9697e+08,3,1301,1314,15.99,0.11,29,55,0,0
3.9086e+05,1.9707e+08,3,1314,1314,15.99,0.11,29,55,0,0
3.913e+05,1.9718e+08,3,1314,1314,15.98,0.11,29,55,0,0
3.9175e+05,1.9728e+08,3,1313,1300,15.99,0.11,29,55,0,0
3.9224e+05,1.974e+08,3,1300,1300,16,0.11,29,55,0,0
3.9269e+05,1.9751e+08,3,1300,1314,16,0.11,29,55,0,0
3.9314e+05,1.9761e+08,3,1314,1314,15.99,0.11,29,55,0,0
3.9358e+05,1.9772e+08,3,1314,1314,16,0.11,28,55,0,0
3.9407e+05,1.9783e+08,3,1314,1314,16,0.11,29,55,0,0
3.9447e+05,1.9793e+08,3,1314,1314,16,0.11,28,55,0,0
3.9492e+05,1.9804e+08,3,1313,1300,16,0.11,28,55,0,0
3.954e+05,1.9816e+08,3,1300,1300,16,0.11,29,55,0,0
3.9581e+05,1.9825e+08,3,1300,1300,16.01,0.11,28,55,0,0
3.9625e+05,1.9836e+08,3,1300,1300,16,0.11,28,55,0,0
3.9719e+05,1.9858e+08,3,1290,1071,16.02,0.04,28,55,0,0
3.9764e+05,1.9869e+08,3,1014,257,16.02,0.01,28,55,0,0
3.9813e+05,1.9881e+08,3,235,0,16.01,0.04,28,55,0,0
3.9854e+05,1.9891e+08,3,0,0,16.02,0.04,28,55,0,0
3.9904e+05,1.9902e+08,3,0,0,16.02,0.04,28,55,0,0
3.9942e+05,1.9913e+08,3,0,0,16.02,0.04,28,55,0,0
4.0036e+05,1.9936e+08,3,0,0,16.02,0.04,28,55,0,0
4.0126e+05,1.9957e+08,3,0,0,16.02,0.04,28,55,0,0
4.0171e+05,1.9968e+08,3,0,0,16.02,0.04,28,55,0,0
4.0221e+05,1.9979e+08,3,0,0,16.02,0.04,28,55,0,0
4.0266e+05,1.999e+08,3,0,0,16.02,0.04,28,55,0,0
4.0311e+05,2e+08,3,0,0,16.03,0.04,28,55,0,0
4.0356e+05,2.0011e+08,3,0,0,16.02,0.04,28,55,0,0
4.0401e+05,2.0021e+08,3,0,0,16.02,0.04,28,55,0,0
4.0447e+05,2.0032e+08,3,0,0,16.03,0.04,28,55,0,0
4.0492e+05,2.0043e+08,3,0,0,16.02,0.04,28,55,0,0
4.0541e+05,2.0054e+08,3,0,0,16.02,0.04,28,55,0,0
4.0587e+05,2.0065e+08,3,0,0,16.03,0.04,28,55,0,0
4.0632e+05,2.0076e+08,3,0,0,16.03,0.04,28,55,0,0
4.0677e+05,2.0087e+08,3,0,0,16.02,0.04,28,55,0,0
4.0722e+05,2.0097e+08,3,0,0,16.02,0.04,28,55,0,0
4.0754e+05,2.0108e+08,3,0,0,16.03,0.04,28,55,0,0
4.0804e+05,2.012e+08,3,0,0,16.02,0.04,28,55,0,0
4.0846e+05,2.013e+08,3,0,0,16.03,0.04,28,55,0,0
4.0895e+05,2.0141e+08,3,0,0,16.03,0.04,28,55,0,0
4.099e+05,2.0165e+08,3,0,0,16.04,0.04,28,55,0,0
4.103e+05,2.0174e+08,3,0,0,16.04,0.04,28,55,0,0
4.108e+05,2.0185e+08,3,0,0,16.04,0.04,28,55,0,0
4.1125e+05,2.0196e+08,3,0,0,16.04,0.04,28,55,0,0
4.117e+05,2.0207e+08,3,0,0,16.04,0.04,28,55,0,0
4.122e+05,2.0218e+08,3,0,0,16.04,0.04,28,55,0,0
4.1264e+05,2.0229e+08,3,0,0,16.04,0.04,28,55,0,0
4.1309e+05,2.0239e+08,3,0,0,16.04,0.04,28,55,0,0
4.1355e+05,2.025e+08,3,0,0,16.04,0.04,28,55,0,0
4.14e+05,2.0261e+08,3,0,0,16.04,0.04,28,55,0,0
4.1445e+05,2.0272e+08,3,0,0,16.04,0.04,28,55,0,0
4.1495e+05,2.0283e+08,3,0,0,16.05,0.04,28,55,0,0
4.154e+05,2.0294e+08,3,0,0,16.04,0.04,28,55,0,0
4.1589e+05,2.0306e+08,3,0,0,16.04,0.05,28,55,0,0
4.163e+05,2.0316e+08,3,0,0,16.04,0.04,28,55,0,0
4.1676e+05,2.0327e+08,3,0,0,16.04,0.04,28,55,0,0
4.1721e+05,2.0337e+08,3,0,0,16.05,0.04,28,55,0,0
4.1766e+05,2.0349e+08,3,0,0,16.04,0.04,28,55,0,0
4.1811e+05,2.0359e+08,3,0,0,16.04,0.04,28,55,0,0
4.1856e+05,2.037e+08,3,0,0,16.05,0.05,28,55,0,0
4.1906e+05,2.0381e+08,3,0,0,16.05,0.05,28,55,0,0
4.1951e+05,2.0392e+08,3,0,0,16.05,0.05,28,55,0,0
4.2001e+05,2.0404e+08,3,0,0,16.04,0.04,28,55,0,0
4.2042e+05,2.0413e+08,3,0,0,16.04,0.04,28,55,0,0
4.2091e+05,2.0425e+08,3,0,0,16.05,0.04,28,55,0,0
4.214e+05,2.0437e+08,3,0,0,16.05,0.05,28,55,0,0
4.2185e+05,2.0448e+08,3,0,0,16.05,0.04,28,55,0,0
4.223e+05,2.0458e+08,3,0,0,16.05,0.04,28,55,0,0
4.2276e+05,2.0469e+08,3,0,0,16.04,0.04,28,55,0,0
4.2321e+05,2.048e+08,3,0,0,16.05,0.04,28,55,0,0
4.2365e+05,2.049e+08,3,0,0,16.05,0.04,28,55,0,0
4.2411e+05,2.0501e+08,3,0,0,16.05,0.05,28,55,0,0
4.2461e+05,2.0513e+08,3,0,0,16.05,0.04,28,55,0,0
4.2506e+05,2.0523e+08,3,0,0,16.05,0.04,28,55,0,0
4.2551e+05,2.0534e+08,3,0,0,16.05,0.04,28,55,0,0
