LineNo,TimeUS,Instance,RPM,RawRPM,Volt,Curr,Temp,CTot,MotTemp,Err
1614,1.0143e+08,1,0,0,16.51,0.04,27,0,0,0
2088,1.0154e+08,1,0,0,16.51,0.04,27,0,0,0
3014,1.0176e+08,1,0,0,16.51,0.04,27,0,0,0
3470,1.0187e+08,1,0,0,16.51,0.04,27,0,0,0
3969,1.0198e+08,1,0,0,16.51,0.04,27,0,0,0
4418,1.0208e+08,1,0,0,16.51,0.04,27,0,0,0
4874,1.0219e+08,1,0,0,16.52,0.04,27,0,0,0
5330,1.023e+08,1,0,0,16.51,0.04,27,0,0,0
5825,1.0241e+08,1,0,0,16.52,0.04,27,0,0,0
6266,1.0251e+08,1,0,0,16.51,0.04,27,0,0,0
6701,1.0262e+08,1,0,0,16.51,0.04,27,0,0,0
7142,1.0273e+08,1,0,0,16.51,0.04,27,0,0,0
7643,1.0284e+08,1,0,0,16.51,0.04,27,0,0,0
8091,1.0294e+08,1,12,214,16.51,0.05,27,0,0,0
8551,1.0305e+08,1,232,614,16.5,0.1,27,0,0,0
9045,1.0316e+08,1,645,1000,16.48,0.16,27,0,0,0
9499,1.0327e+08,1,1020,1228,16.51,0.12,27,0,0,0
9954,1.0338e+08,1,1234,1300,16.5,0.12,27,0,0,0
10400,1.0348e+08,1,1301,1328,16.49,0.11,27,0,0,0
10898,1.036e+08,1,1328,1328,16.51,0.11,27,0,0,0
11310,1.037e+08,1,1328,1328,16.51,0.11,27,0,0,0
11742,1.038e+08,1,1328,1342,16.5,0.11,27,0,0,0
12225,1.0392e+08,1,1342,1342,16.5,0.11,27,0,0,0
12681,1.0402e+08,1,1341,1328,16.5,0.11,27,0,0,0
13175,1.0413e+08,1,1328,1328,16.5,0.11,27,0,0,0
13468,1.0424e+08,1,1328,1342,16.5,0.11,27,0,0,0
13919,1.0434e+08,1,1341,1328,16.51,0.11,27,0,0,0
14414,1.0446e+08,1,1328,1328,16.51,0.11,27,0,0,0
14863,1.0456e+08,1,1328,1328,16.5,0.11,27,0,0,0
15318,1.0467e+08,1,1328,1328,16.5,0.11,27,0,0,0
15771,1.0477e+08,1,1328,1328,16.5,0.11,27,0,0,0
16258,1.0489e+08,1,1328,1328,16.5,0.11,27,0,0,0
16692,1.0499e+08,1,1328,1328,16.5,0.11,27,0,0,0
17138,1.051e+08,1,1328,1328,16.5,0.11,27,0,0,0
17631,1.0521e+08,1,1328,1342,16.5,0.11,27,0,0,0
18124,1.0532e+08,1,1342,1342,16.5,0.11,27,0,0,0
18577,1.0542e+08,1,1342,1342,16.5,0.11,27,0,0,0
19033,1.0553e+08,1,1342,1342,16.49,0.11,27,0,0,0
19489,1.0564e+08,1,1342,1342,16.5,0.11,27,0,0,0
19949,1.0575e+08,1,1342,1342,16.5,0.11,27,0,0,0
20405,1.0586e+08,1,1342,1342,16.5,0.11,27,0,0,0
20858,1.0596e+08,1,1341,1328,16.5,0.11,27,0,0,0
21307,1.0607e+08,1,1328,1328,16.5,0.11,27,0,0,0
21791,1.0619e+08,1,1334,1385,16.48,0.16,27,0,0,0
22235,1.063e+08,1,1417,1771,16.39,0.5,27,1,0,0
22688,1.064e+08,1,1798,2428,16.43,0.67,27,1,0,0
23106,1.0651e+08,1,2447,2642,16.22,1.22,27,1,0,0
23562,1.0662e+08,1,2675,3042,16.37,1.15,27,1,0,0
24014,1.0672e+08,1,3077,3571,16.2,1.86,27,1,0,0
24510,1.0684e+08,1,3621,4142,15.69,2.46,27,1,0,0
24887,1.0694e+08,1,4174,4585,16.01,3.79,27,1,0,0
25344,1.0704e+08,1,4593,5285,15.9,3.33,27,1,0,0
25805,1.0716e+08,1,5313,5700,15.88,3.43,27,1,0,0
26216,1.0726e+08,1,5707,5871,15.91,3.23,27,1,0,0
26688,1.0738e+08,1,5847,5600,15.98,2.43,27,1,0,0
27124,1.0748e+08,1,5578,5357,15.98,1.82,27,1,0,0
27579,1.0759e+08,1,5318,4828,15.95,1.36,27,1,0,0
28033,1.077e+08,1,4821,4757,16.03,1.66,27,1,0,0
28485,1.078e+08,1,4754,4714,15.98,1.65,27,1,0,0
28941,1.0792e+08,1,4708,4585,15.95,1.72,27,1,0,0
29397,1.0802e+08,1,4586,4600,15.97,1.61,27,1,0,0
29851,1.0813e+08,1,4588,4471,15.95,1.51,27,2,0,0
30307,1.0824e+08,1,4473,4614,15.91,1.95,28,2,0,0
31252,1.0847e+08,1,4629,4857,15.94,1.92,28,2,0,0
31662,1.0857e+08,1,4859,4914,15.93,2.12,27,2,0,0
32148,1.0868e+08,1,4910,4871,15.94,1.91,27,2,0,0
32579,1.0879e+08,1,4874,4928,15.92,1.96,27,2,0,0
33018,1.089e+08,1,4934,5000,15.95,2.07,28,2,0,0
33516,1.0901e+08,1,4998,4985,16,1.94,28,2,0,0
33963,1.0912e+08,1,4986,5014,15.97,1.91,28,2,0,0
34418,1.0923e+08,1,5010,4971,15.97,2.17,28,2,0,0
34872,1.0934e+08,1,4975,5028,15.92,2.1,28,2,0,0
35331,1.0945e+08,1,5028,5028,15.89,1.93,28,2,0,0
36233,1.0967e+08,1,5013,4700,15.98,1.29,28,2,0,0
36686,1.0978e+08,1,4685,4571,15.97,1.56,28,2,0,0
37132,1.0989e+08,1,4561,4485,15.97,1.36,28,2,0,0
37570,1.0999e+08,1,4502,4671,15.94,1.73,28,2,0,0
37983,1.1009e+08,1,4669,4642,15.95,1.6,28,3,0,0
38875,1.1031e+08,1,4637,4500,15.82,1.37,28,3,0,0
39328,1.1042e+08,1,4492,4371,15.95,1.45,28,3,0,0
39782,1.1054e+08,1,4371,4371,15.92,1.47,28,3,0,0
40229,1.1064e+08,1,4378,4457,15.97,1.53,28,3,0,0
40611,1.1074e+08,1,4458,4500,15.92,1.36,28,3,0,0
41083,1.1086e+08,1,4498,4485,15.82,1.73,28,3,0,0
41527,1.1097e+08,1,4485,4485,15.91,1.6,28,3,0,0
41931,1.1107e+08,1,4487,4585,15.89,1.28,28,3,0,0
42411,1.1118e+08,1,4577,4471,15.9,1.41,28,3,0,0
43299,1.114e+08,1,4471,4471,15.94,1.53,28,3,0,0
43707,1.115e+08,1,4477,4700,15.83,1.83,28,3,0,0
44157,1.1161e+08,1,4695,4614,15.86,1.76,28,3,0,0
44608,1.1173e+08,1,4629,4771,15.85,1.61,28,3,0,0
45460,1.1194e+08,1,4770,4757,15.92,1.95,28,3,0,0
45914,1.1205e+08,1,4753,4714,15.92,1.52,28,3,0,0
46349,1.1215e+08,1,4715,4728,15.9,1.71,28,3,0,0
47239,1.1237e+08,1,4718,4542,15.85,1.33,28,4,0,0
48068,1.1259e+08,1,4528,4214,15.96,1.22,28,4,0,0
48498,1.127e+08,1,4214,4228,15.96,1.26,28,4,0,0
48950,1.1281e+08,1,4226,4200,16,1.16,28,4,0,0
49352,1.1291e+08,1,4201,4257,15.9,1.7,28,4,0,0
49806,1.1302e+08,1,4258,4357,15.93,1.3,28,4,0,0
50295,1.1314e+08,1,4331,4042,15.97,1.08,28,4,0,0
50696,1.1324e+08,1,4056,4200,15.95,1.37,28,4,0,0
51142,1.1335e+08,1,4212,4328,15.92,1.43,28,4,0,0
51552,1.1345e+08,1,4332,4442,15.92,1.52,28,4,0,0
52003,1.1356e+08,1,4417,4171,15.93,1.12,28,4,0,0
52412,1.1367e+08,1,4186,4342,15.91,1.57,28,4,0,0
52823,1.1377e+08,1,4354,4642,15.86,1.77,28,4,0,0
53269,1.1389e+08,1,4645,4700,15.87,1.6,28,4,0,0
53721,1.14e+08,1,4689,4585,15.85,1.62,28,4,0,0
54168,1.1411e+08,1,4594,4685,15.87,1.45,28,4,0,0
55020,1.1432e+08,1,4686,4728,15.91,1.71,28,4,0,0
55512,1.1443e+08,1,4726,4714,15.89,1.65,28,4,0,0
55876,1.1453e+08,1,4718,4871,15.85,1.77,28,4,0,0
56332,1.1464e+08,1,4866,4814,15.76,1.77,28,4,0,0
56754,1.1475e+08,1,4813,4800,15.83,1.71,28,4,0,0
57183,1.1486e+08,1,4801,4828,15.82,1.59,28,5,0,0
57631,1.1497e+08,1,4825,4700,15.82,1.49,28,5,0,0
58118,1.1508e+08,1,4677,4442,15.89,1.41,28,5,0,0
58565,1.1519e+08,1,4446,4500,15.8,1.39,28,5,0,0
59009,1.153e+08,1,4490,4400,15.9,1.2,28,5,0,0
59422,1.154e+08,1,4392,4228,15.85,1.43,28,5,0,0
59865,1.1551e+08,1,4232,4442,15.85,1.76,28,5,0,0
60313,1.1562e+08,1,4447,4657,15.82,1.52,28,5,0,0
61209,1.1585e+08,1,4648,4500,15.86,1.28,28,5,0,0
61650,1.1595e+08,1,4500,4500,15.85,1.48,28,5,0,0
62101,1.1606e+08,1,4500,4500,15.87,1.63,28,5,0,0
62550,1.1617e+08,1,4500,4500,15.82,1.32,28,5,0,0
62990,1.1628e+08,1,4501,4528,15.82,1.5,28,5,0,0
63443,1.1639e+08,1,4524,4385,15.8,1.23,28,5,0,0
63891,1.165e+08,1,4381,4342,15.87,1.39,28,5,0,0
64344,1.1661e+08,1,4351,4442,15.82,1.44,28,5,0,0
64742,1.1671e+08,1,4444,4500,15.8,1.65,28,5,0,0
65196,1.1682e+08,1,4504,4600,15.78,1.67,28,5,0,0
65603,1.1693e+08,1,4599,4585,15.79,1.66,28,5,0,0
66099,1.1704e+08,1,4590,4714,15.82,1.89,28,5,0,0
66989,1.1727e+08,1,4718,4828,15.75,1.83,28,6,0,0
67441,1.1738e+08,1,4822,4771,15.75,1.58,28,6,0,0
67841,1.1748e+08,1,4761,4528,15.83,1.3,28,6,0,0
68289,1.1759e+08,1,4528,4528,15.86,1.21,28,6,0,0
68733,1.177e+08,1,4518,4385,15.87,1.41,28,6,0,0
69183,1.1781e+08,1,4388,4442,15.82,1.57,28,6,0,0
70081,1.1803e+08,1,4447,4714,15.84,1.72,28,6,0,0
70488,1.1814e+08,1,4711,4657,15.76,1.66,28,6,0,0
70940,1.1825e+08,1,4652,4614,15.84,1.55,28,6,0,0
71386,1.1836e+08,1,4617,4657,15.75,1.8,28,6,0,0
71791,1.1846e+08,1,4657,4671,15.78,1.68,28,6,0,0
72276,1.1858e+08,1,4671,4671,15.8,1.63,28,6,0,0
72720,1.1869e+08,1,4659,4542,15.79,1.55,28,6,0,0
73170,1.188e+08,1,4551,4642,15.76,1.69,28,6,0,0
73575,1.189e+08,1,4642,4642,15.82,1.57,28,6,0,0
74962,1.1924e+08,1,4628,4271,15.85,1.43,28,6,0,0
75325,1.1933e+08,1,4271,4271,15.83,1.37,28,6,0,0
75777,1.1945e+08,1,4274,4314,15.85,1.43,28,6,0,0
76181,1.1955e+08,1,4316,4471,15.77,1.87,28,7,0,0
76623,1.1966e+08,1,4478,4785,15.77,1.85,28,7,0,0
77120,1.1978e+08,1,4795,4871,15.77,2.15,28,7,0,0
77563,1.1989e+08,1,4879,4957,15.79,2.2,28,7,0,0
77972,1.1999e+08,1,4961,5014,15.79,2.01,28,7,0,0
78419,1.201e+08,1,5006,4928,15.78,1.93,28,7,0,0
78866,1.2021e+08,1,4929,4942,15.77,1.97,28,7,0,0
79346,1.2033e+08,1,4932,4842,15.79,1.66,28,7,0,0
79803,1.2044e+08,1,4825,4714,15.8,1.5,28,7,0,0
80194,1.2053e+08,1,4711,4614,15.8,1.62,28,7,0,0
80690,1.2065e+08,1,4614,4614,15.76,1.59,28,7,0,0
81130,1.2076e+08,1,4623,4714,15.81,1.76,28,7,0,0
81581,1.2088e+08,1,4719,4771,15.82,1.65,28,7,0,0
81986,1.2098e+08,1,4771,4828,15.79,1.99,28,7,0,0
82464,1.2109e+08,1,4828,4828,15.79,1.68,28,7,0,0
82920,1.212e+08,1,4832,4871,15.8,1.9,28,7,0,0
83812,1.2142e+08,1,4886,5171,15.77,2.1,28,7,0,0
84216,1.2152e+08,1,5162,5014,15.73,1.88,28,8,0,0
84662,1.2163e+08,1,5009,4971,15.76,2.11,28,8,0,0
85107,1.2174e+08,1,4990,5171,15.8,2.09,28,8,0,0
85959,1.2194e+08,1,5172,5414,15.79,2.53,28,8,0,0
86445,1.2207e+08,1,5405,5328,15.75,2.51,28,8,0,0
86891,1.2217e+08,1,5335,5400,15.81,2.21,28,8,0,0
87295,1.2228e+08,1,5397,5342,15.7,2.63,28,8,0,0
87745,1.2239e+08,1,5341,5328,15.77,2.44,28,8,0,0
88639,1.2261e+08,1,5322,5228,15.71,2.23,28,8,0,0
89078,1.2271e+08,1,5229,5271,15.74,2.26,28,8,0,0
89575,1.2283e+08,1,5272,5285,15.75,2.38,28,8,0,0
89978,1.2293e+08,1,5271,5142,15.76,2.05,28,8,0,0
90433,1.2305e+08,1,5139,5128,15.77,2.03,28,9,0,0
90835,1.2315e+08,1,5127,5114,15.71,2.08,28,9,0,0
91766,1.2337e+08,1,5119,5271,15.76,2.15,28,9,0,0
92212,1.2348e+08,1,5266,5228,15.78,2.31,28,9,0,0
92621,1.2358e+08,1,5236,5342,15.74,2.43,28,9,0,0
93518,1.2381e+08,1,5343,5385,15.77,2.18,28,9,0,0
93966,1.2392e+08,1,5387,5414,15.76,2.14,28,9,0,0
94414,1.2403e+08,1,5394,5185,15.83,1.87,28,9,0,0
94821,1.2413e+08,1,5184,5171,15.79,1.99,28,9,0,0
95343,1.2425e+08,1,5164,5114,15.8,2.03,28,9,0,0
95721,1.2435e+08,1,5115,5142,15.8,1.94,28,9,0,0
96203,1.2447e+08,1,5140,5128,15.79,1.68,28,9,0,0
96619,1.2458e+08,1,5120,5042,15.77,1.9,28,9,0,0
97099,1.2469e+08,1,5045,5085,15.75,1.94,28,9,0,0
97544,1.248e+08,1,5088,5128,15.83,1.9,28,10,0,0
97993,1.2491e+08,1,5128,5142,15.8,1.83,28,10,0,0
98443,1.2502e+08,1,5132,5000,15.78,1.82,28,10,0,0
99297,1.2523e+08,1,4997,4900,15.84,1.49,28,10,0,0
99705,1.2533e+08,1,4899,4871,15.77,1.53,28,10,0,0
1.0016e+05,1.2545e+08,1,4872,4900,15.77,1.98,28,10,0,0
1.006e+05,1.2556e+08,1,4902,4942,15.8,1.92,28,10,0,0
1.0105e+05,1.2567e+08,1,4963,5171,15.75,2.33,28,10,0,0
1.015e+05,1.2578e+08,1,5171,5185,15.75,2.15,28,10,0,0
1.0195e+05,1.2589e+08,1,5188,5228,15.77,2.1,28,10,0,0
1.024e+05,1.26e+08,1,5245,5414,15.69,2.51,28,10,0,0
1.028e+05,1.261e+08,1,5415,5457,15.73,2.83,28,10,0,0
1.0326e+05,1.2622e+08,1,5462,5585,15.73,2.51,28,10,0,0
1.0374e+05,1.2633e+08,1,5559,5300,15.75,2.15,28,10,0,0
1.0419e+05,1.2644e+08,1,5285,5142,15.82,1.81,28,10,0,0
1.0459e+05,1.2654e+08,1,5138,5071,15.75,1.96,28,11,0,0
1.0524e+05,1.2676e+08,1,4911,4885,15.66,1.88,28,11,0,0
1.0565e+05,1.2687e+08,1,4874,4728,15.77,1.55,28,11,0,0
1.061e+05,1.2698e+08,1,4719,4614,15.8,1.38,28,11,0,0
1.0655e+05,1.2709e+08,1,4613,4600,15.68,1.55,28,11,0,0
1.0695e+05,1.2719e+08,1,4608,4785,15.76,1.61,28,11,0,0
1.074e+05,1.273e+08,1,4785,4785,15.77,1.88,28,11,0,0
1.0785e+05,1.2741e+08,1,4786,4814,15.72,1.93,28,11,0,0
1.0825e+05,1.2752e+08,1,4816,4871,15.76,1.95,28,11,0,0
1.087e+05,1.2763e+08,1,4870,4842,15.73,1.54,28,11,0,0
1.0915e+05,1.2774e+08,1,4842,4857,15.72,1.75,28,11,0,0
1.0964e+05,1.2786e+08,1,4863,4900,15.73,1.92,28,11,0,0
1.1004e+05,1.2795e+08,1,4901,4928,15.69,2.28,28,11,0,0
1.1049e+05,1.2807e+08,1,4938,5057,15.76,1.9,28,11,0,0
1.109e+05,1.2817e+08,1,5055,5028,15.78,2.28,28,11,0,0
1.1135e+05,1.2828e+08,1,5041,5214,15.8,2.03,28,11,0,0
1.118e+05,1.2839e+08,1,5202,5085,15.73,2.2,28,11,0,0
1.122e+05,1.285e+08,1,5085,5128,15.71,2.06,28,12,0,0
1.1265e+05,1.286e+08,1,5127,5114,15.79,1.99,28,12,0,0
1.1309e+05,1.2871e+08,1,5113,5100,15.79,2.16,28,12,0,0
1.1354e+05,1.2882e+08,1,5119,5371,15.68,2.62,28,12,0,0
1.1394e+05,1.2892e+08,1,5375,5585,15.75,2.78,28,12,0,0
1.1444e+05,1.2904e+08,1,5574,5471,15.79,2.49,28,12,0,0
1.1484e+05,1.2914e+08,1,5458,5271,15.76,2.15,28,12,0,0
1.153e+05,1.2926e+08,1,5285,5428,15.69,2.88,28,12,0,0
1.1619e+05,1.2947e+08,1,5422,5271,15.73,2.25,28,12,0,0
1.1664e+05,1.2958e+08,1,5271,5271,15.77,2.29,28,12,0,0
1.1704e+05,1.2969e+08,1,5267,5228,15.72,2.21,28,12,0,0
1.1745e+05,1.2979e+08,1,5227,5171,15.75,1.96,28,12,0,0
1.179e+05,1.299e+08,1,5165,5042,15.75,2,28,12,0,0
1.1835e+05,1.3001e+08,1,5043,5142,15.71,2.09,28,13,0,0
1.1879e+05,1.3012e+08,1,5137,5057,15.67,2.04,28,13,0,0
1.1924e+05,1.3023e+08,1,5055,5028,15.6,2.52,28,13,0,0
1.1969e+05,1.3034e+08,1,5034,5157,15.71,2.29,28,13,0,0
1.2015e+05,1.3045e+08,1,5164,5271,15.69,2.5,28,13,0,0
1.2059e+05,1.3056e+08,1,5283,5414,15.75,2.97,28,13,0,0
1.2104e+05,1.3067e+08,1,5411,5371,15.69,2.6,28,13,0,0
1.2148e+05,1.3078e+08,1,5365,5300,15.71,2.11,28,13,0,0
1.2189e+05,1.3088e+08,1,5298,5228,15.68,2.24,28,13,0,0
1.2238e+05,1.31e+08,1,5221,5142,15.73,2.02,28,13,0,0
1.2278e+05,1.311e+08,1,5138,5071,15.73,1.93,28,13,0,0
1.2372e+05,1.3133e+08,1,5060,4757,15.67,1.57,28,13,0,0
1.2416e+05,1.3144e+08,1,4750,4685,15.75,1.47,28,13,0,0
1.2457e+05,1.3154e+08,1,4683,4585,15.74,1.48,28,13,0,0
1.255e+05,1.3177e+08,1,4579,4457,15.69,1.43,28,13,0,0
1.2591e+05,1.3187e+08,1,4467,4671,15.71,1.61,28,14,0,0
1.2636e+05,1.3198e+08,1,4670,4657,15.68,1.82,28,14,0,0
1.2681e+05,1.321e+08,1,4656,4642,15.68,1.8,28,14,0,0
1.2726e+05,1.3221e+08,1,4673,4871,15.69,1.73,28,14,0,0
1.2767e+05,1.3231e+08,1,4871,4914,15.69,1.87,28,14,0,0
1.2812e+05,1.3242e+08,1,4913,4885,15.72,1.89,28,14,0,0
1.2902e+05,1.3264e+08,1,4877,4671,15.67,1.64,28,14,0,0
1.2947e+05,1.3276e+08,1,4671,4671,15.7,1.66,28,14,0,0
1.3035e+05,1.3297e+08,1,4662,4514,15.73,1.19,28,14,0,0
1.308e+05,1.3308e+08,1,4506,4342,15.71,1.3,28,14,0,0
1.3124e+05,1.3319e+08,1,4347,4428,15.76,1.45,28,14,0,0
1.3169e+05,1.333e+08,1,4429,4442,15.74,1.46,28,14,0,0
1.3214e+05,1.3342e+08,1,4447,4514,15.73,1.72,28,14,0,0
1.3255e+05,1.3352e+08,1,4523,4714,15.75,1.65,28,14,0,0
1.33e+05,1.3363e+08,1,4714,4714,15.71,1.78,28,14,0,0
1.3341e+05,1.3373e+08,1,4726,4900,15.66,2.07,28,14,0,0
1.3381e+05,1.3383e+08,1,4896,4771,15.71,1.36,28,14,0,0
1.343e+05,1.3395e+08,1,4776,4857,15.72,1.58,28,14,0,0
1.3476e+05,1.3406e+08,1,4845,4700,15.73,1.56,28,15,0,0
1.352e+05,1.3417e+08,1,4710,4814,15.72,1.92,28,15,0,0
1.356e+05,1.3427e+08,1,4824,5085,15.64,2.14,28,15,0,0
1.3605e+05,1.3438e+08,1,5084,5071,15.61,2.38,28,15,0,0
1.3654e+05,1.3451e+08,1,5077,5128,15.7,2.25,28,15,0,0
1.3695e+05,1.3461e+08,1,5120,4914,15.72,1.8,28,15,0,0
1.3788e+05,1.3483e+08,1,4918,5014,15.74,2.16,28,15,0,0
1.3832e+05,1.3494e+08,1,5009,4971,15.73,1.84,28,15,0,0
1.3873e+05,1.3504e+08,1,4970,4914,15.7,1.95,28,15,0,0
1.3917e+05,1.3515e+08,1,4910,4857,15.63,1.84,28,15,0,0
1.3962e+05,1.3526e+08,1,4851,4785,15.7,1.81,28,15,0,0
1.4007e+05,1.3537e+08,1,4785,4785,15.69,1.78,28,15,0,0
1.4052e+05,1.3548e+08,1,4792,4885,15.68,2.47,28,15,0,0
1.4096e+05,1.3559e+08,1,4886,4914,15.7,2.05,28,15,0,0
1.4137e+05,1.3569e+08,1,4912,4842,15.72,1.72,28,15,0,0
1.4186e+05,1.3581e+08,1,4843,4871,15.65,1.82,28,15,0,0
1.4231e+05,1.3592e+08,1,4876,4957,15.68,1.8,28,16,0,0
1.4276e+05,1.3603e+08,1,4955,4942,15.64,2.01,28,16,0,0
1.4321e+05,1.3614e+08,1,4939,4885,15.7,1.81,28,16,0,0
1.4366e+05,1.3625e+08,1,4884,4871,15.67,1.93,28,16,0,0
1.4411e+05,1.3636e+08,1,4871,4871,15.7,1.78,28,16,0,0
1.4455e+05,1.3647e+08,1,4860,4714,15.69,1.51,28,16,0,0
1.45e+05,1.3658e+08,1,4710,4671,15.71,1.46,28,16,0,0
1.4545e+05,1.3669e+08,1,4665,4600,15.71,1.17,28,16,0,0
1.459e+05,1.368e+08,1,4588,4471,15.68,1.38,28,16,0,0
1.4631e+05,1.3691e+08,1,4475,4514,15.68,1.76,28,16,0,0
1.4676e+05,1.3702e+08,1,4529,4671,15.75,1.75,28,16,0,0
1.4716e+05,1.3712e+08,1,4674,4871,15.7,1.86,28,16,0,0
1.4761e+05,1.3722e+08,1,4871,4900,15.73,1.95,28,16,0,0
1.4806e+05,1.3734e+08,1,4905,5042,15.72,1.77,28,16,0,0
1.485e+05,1.3744e+08,1,5043,5100,15.72,2.14,28,16,0,0
1.4892e+05,1.3755e+08,1,5106,5471,15.65,2.72,28,16,0,0
1.4941e+05,1.3767e+08,1,5438,5171,15.7,1.81,28,16,0,0
1.4981e+05,1.3777e+08,1,5160,4971,15.7,1.62,28,16,0,0
1.5026e+05,1.3788e+08,1,4957,4771,15.7,1.55,28,17,0,0
1.5071e+05,1.3798e+08,1,4774,4842,15.73,1.65,28,17,0,0
1.512e+05,1.3811e+08,1,4837,4785,15.64,1.72,28,17,0,0
1.516e+05,1.382e+08,1,4783,4757,15.75,1.96,28,17,0,0
1.5205e+05,1.3832e+08,1,4765,4957,15.72,1.61,28,17,0,0
1.5249e+05,1.3842e+08,1,4955,4871,15.73,1.79,28,17,0,0
1.5294e+05,1.3854e+08,1,4866,4771,15.7,1.94,28,17,0,0
1.5344e+05,1.3865e+08,1,4780,4871,15.71,1.85,28,17,0,0
1.538e+05,1.3875e+08,1,4870,4857,15.68,1.83,28,17,0,0
1.5424e+05,1.3886e+08,1,4857,4914,15.7,1.79,28,17,0,0
1.5469e+05,1.3897e+08,1,4918,5142,15.7,2.14,28,17,0,0
1.5514e+05,1.3908e+08,1,5140,5057,15.66,2.08,28,17,0,0
1.5559e+05,1.3919e+08,1,5059,5085,15.66,1.93,28,17,0,0
1.5603e+05,1.3929e+08,1,5083,5042,15.68,2.25,28,17,0,0
1.5648e+05,1.394e+08,1,5042,5057,15.65,2.14,28,17,0,0
1.5693e+05,1.3952e+08,1,5058,5071,15.67,2.16,28,17,0,0
1.5734e+05,1.3962e+08,1,5068,5014,15.73,1.89,28,17,0,0
1.5779e+05,1.3973e+08,1,5014,5042,15.64,2.14,28,17,0,0
1.5823e+05,1.3984e+08,1,5041,4985,15.7,1.91,28,18,0,0
1.5872e+05,1.3995e+08,1,4982,4928,15.7,2,28,18,0,0
1.5917e+05,1.4007e+08,1,4939,5014,15.7,1.99,28,18,0,0
1.6047e+05,1.4038e+08,1,5013,5000,15.65,2.07,28,18,0,0
1.6095e+05,1.405e+08,1,4981,4842,15.72,1.93,28,18,0,0
1.6141e+05,1.4061e+08,1,4854,4942,15.71,2.29,28,18,0,0
1.6181e+05,1.4072e+08,1,4952,5042,15.63,2.24,28,18,0,0
1.6226e+05,1.4083e+08,1,5054,5157,15.7,2.2,28,18,0,0
1.6267e+05,1.4092e+08,1,5156,5142,15.7,2,28,18,0,0
1.6312e+05,1.4103e+08,1,5140,5014,15.69,1.74,28,18,0,0
1.6355e+05,1.4114e+08,1,5013,4971,15.67,1.98,28,18,0,0
1.6445e+05,1.4137e+08,1,4967,4814,15.67,1.77,28,18,0,0
1.6489e+05,1.4147e+08,1,4814,4814,15.64,1.72,28,18,0,0
1.6537e+05,1.4158e+08,1,4816,4900,15.67,1.87,28,19,0,0
1.6582e+05,1.417e+08,1,4904,4942,15.67,2.1,28,19,0,0
1.6627e+05,1.4181e+08,1,4951,5085,15.63,2.18,28,19,0,0
1.6668e+05,1.4192e+08,1,5087,5142,15.59,2.34,28,19,0,0
1.6713e+05,1.4202e+08,1,5145,5228,15.64,2.37,28,19,0,0
1.6757e+05,1.4213e+08,1,5228,5242,15.69,2.31,28,19,0,0
1.6802e+05,1.4224e+08,1,5242,5271,15.65,2.29,28,19,0,0
1.6846e+05,1.4235e+08,1,5269,5257,15.67,2.2,28,19,0,0
1.6935e+05,1.4257e+08,1,5252,5142,15.65,2.01,28,19,0,0
1.6976e+05,1.4268e+08,1,5141,5100,15.66,1.98,28,19,0,0
1.7025e+05,1.4279e+08,1,5102,5128,15.64,2.3,28,19,0,0
1.7065e+05,1.4289e+08,1,5127,5100,15.66,1.87,28,19,0,0
1.711e+05,1.43e+08,1,5096,5000,15.6,2.16,28,19,0,0
1.7154e+05,1.4311e+08,1,4995,4942,15.66,1.78,28,19,0,0
1.7199e+05,1.4322e+08,1,4935,4871,15.69,1.8,28,19,0,0
1.724e+05,1.4333e+08,1,4870,4842,15.6,1.83,28,20,0,0
1.7284e+05,1.4343e+08,1,4842,4885,15.63,1.83,28,20,0,0
1.7328e+05,1.4355e+08,1,4888,4942,15.66,1.77,28,20,0,0
1.7369e+05,1.4365e+08,1,4939,4771,15.66,1.66,28,20,0,0
1.7419e+05,1.4377e+08,1,4783,4914,15.68,1.96,28,20,0,0
1.7459e+05,1.4387e+08,1,4900,4785,15.64,1.77,28,20,0,0
1.75e+05,1.4397e+08,1,4785,4828,15.61,1.94,28,20,0,0
1.7549e+05,1.4409e+08,1,4834,4900,15.65,1.77,28,20,0,0
1.7593e+05,1.442e+08,1,4902,4928,15.64,1.71,28,20,0,0
1.7633e+05,1.443e+08,1,4918,4771,15.63,1.71,28,20,0,0
1.7678e+05,1.4441e+08,1,4772,4785,15.63,1.72,28,20,0,0
1.7723e+05,1.4452e+08,1,4786,4800,15.65,1.7,28,20,0,0
1.7763e+05,1.4462e+08,1,4800,4800,15.64,1.82,28,20,0,0
1.7808e+05,1.4473e+08,1,4796,4714,15.63,1.8,28,20,0,0
1.7852e+05,1.4484e+08,1,4718,4771,15.54,2.05,28,20,0,0
1.7892e+05,1.4494e+08,1,4769,4757,15.55,1.91,28,20,0,0
1.7942e+05,1.4506e+08,1,4770,4900,15.64,1.9,28,20,0,0
1.7982e+05,1.4516e+08,1,4898,4785,15.64,1.83,28,20,0,0
1.8026e+05,1.4527e+08,1,4790,4914,15.63,1.93,28,21,0,0
1.807e+05,1.4538e+08,1,4913,4871,15.64,1.84,28,21,0,0
1.8115e+05,1.4549e+08,1,4874,4942,15.58,1.97,28,21,0,0
1.816e+05,1.456e+08,1,4928,4771,15.66,1.73,28,21,0,0
1.8201e+05,1.4571e+08,1,4775,4871,15.67,1.8,28,21,0,0
1.8246e+05,1.4582e+08,1,4867,4800,15.6,1.73,28,21,0,0
1.829e+05,1.4592e+08,1,4799,4785,15.66,1.71,28,21,0,0
1.8336e+05,1.4604e+08,1,4785,4785,15.55,1.99,28,21,0,0
1.838e+05,1.4615e+08,1,4792,4942,15.63,1.92,28,21,0,0
1.8425e+05,1.4626e+08,1,4930,4828,15.63,2.04,28,21,0,0
1.8469e+05,1.4637e+08,1,4835,4928,15.61,2.11,28,21,0,0
1.8509e+05,1.4647e+08,1,4928,4942,15.6,2.05,28,21,0,0
1.8554e+05,1.4658e+08,1,4940,4871,15.65,1.77,28,21,0,0
1.8599e+05,1.4669e+08,1,4867,4785,15.64,1.48,28,21,0,0
1.8684e+05,1.469e+08,1,4786,4928,15.66,2.09,28,21,0,0
1.8733e+05,1.4702e+08,1,4921,4857,15.58,1.95,28,21,0,0
1.8774e+05,1.4712e+08,1,4864,4971,15.54,1.86,28,21,0,0
1.8818e+05,1.4723e+08,1,4970,4957,15.57,2.05,28,21,0,0
1.8862e+05,1.4734e+08,1,4958,5000,15.63,1.85,28,22,0,0
1.8907e+05,1.4745e+08,1,5000,5014,15.59,2.17,28,22,0,0
1.8952e+05,1.4756e+08,1,5017,5057,15.62,2.19,28,22,0,0
1.8998e+05,1.4768e+08,1,5054,5028,15.59,2.1,28,22,0,0
1.9038e+05,1.4777e+08,1,5035,5171,15.57,2.02,28,22,0,0
1.9082e+05,1.4789e+08,1,5161,4985,15.64,1.78,28,22,0,0
1.9127e+05,1.48e+08,1,4987,5042,15.58,1.84,28,22,0,0
1.9168e+05,1.481e+08,1,5039,5000,15.54,2.19,28,22,0,0
1.9257e+05,1.4833e+08,1,5005,5128,15.54,2.33,28,22,0,0
1.9302e+05,1.4843e+08,1,5122,5071,15.59,2.06,28,22,0,0
1.9342e+05,1.4854e+08,1,5074,5157,15.56,2.07,28,22,0,0
1.939e+05,1.4865e+08,1,5153,5114,15.58,2.16,28,22,0,0
1.9431e+05,1.4875e+08,1,5113,5057,15.53,1.97,28,22,0,0
1.9476e+05,1.4886e+08,1,5055,4928,15.52,1.9,28,22,0,0
1.952e+05,1.4897e+08,1,4928,4957,15.52,2.07,28,23,0,0
1.9568e+05,1.4909e+08,1,4951,4885,15.57,2.01,28,23,0,0
1.961e+05,1.4919e+08,1,4887,4942,15.54,1.73,28,23,0,0
1.9654e+05,1.493e+08,1,4935,4771,15.59,1.47,28,23,0,0
1.9702e+05,1.4942e+08,1,4751,4571,15.63,1.43,28,23,0,0
1.9746e+05,1.4952e+08,1,4575,4628,15.6,1.5,28,23,0,0
1.9792e+05,1.4964e+08,1,4618,4514,15.61,1.56,28,23,0,0
1.9877e+05,1.4985e+08,1,4514,4514,15.61,1.59,28,23,0,0
1.9922e+05,1.4996e+08,1,4510,4428,15.62,1.36,28,23,0,0
1.9966e+05,1.5007e+08,1,4430,4485,15.66,1.27,28,23,0,0
2.0011e+05,1.5018e+08,1,4477,4342,15.66,1.39,28,23,0,0
2.0055e+05,1.5029e+08,1,4343,4357,15.52,1.52,28,23,0,0
2.0101e+05,1.504e+08,1,4368,4485,15.61,1.78,28,23,0,0
2.0141e+05,1.505e+08,1,4489,4571,15.55,1.52,28,23,0,0
2.0182e+05,1.506e+08,1,4573,4685,15.6,1.77,28,23,0,0
2.0226e+05,1.5072e+08,1,4692,4828,15.61,1.89,28,23,0,0
2.0271e+05,1.5082e+08,1,4827,4800,15.65,1.82,28,23,0,0
2.0315e+05,1.5093e+08,1,4803,4842,15.58,1.72,28,23,0,0
2.036e+05,1.5104e+08,1,4843,4928,15.57,1.9,28,23,0,0
2.0448e+05,1.5126e+08,1,4927,4885,15.63,1.8,28,24,0,0
2.0493e+05,1.5137e+08,1,4888,4928,15.67,1.57,28,24,0,0
2.0538e+05,1.5148e+08,1,4928,4928,15.6,1.82,28,24,0,0
2.0582e+05,1.5159e+08,1,4937,5071,15.6,2.04,28,24,0,0
2.0627e+05,1.5171e+08,1,5074,5114,15.6,1.88,28,24,0,0
2.0672e+05,1.5181e+08,1,5117,5157,15.57,2.06,28,24,0,0
2.0716e+05,1.5192e+08,1,5157,5157,15.6,2.12,28,24,0,0
2.0761e+05,1.5203e+08,1,5165,5285,15.6,2.09,28,24,0,0
2.0802e+05,1.5213e+08,1,5284,5271,15.57,1.91,28,24,0,0
2.0851e+05,1.5226e+08,1,5254,5142,15.53,2.09,28,24,0,0
2.0892e+05,1.5235e+08,1,5136,5071,15.62,1.86,28,24,0,0
2.0933e+05,1.5246e+08,1,5072,5157,15.53,1.84,28,24,0,0
2.0981e+05,1.5258e+08,1,5162,5228,15.55,2.1,28,24,0,0
2.1021e+05,1.5268e+08,1,5228,5228,15.55,1.8,28,24,0,0
2.107e+05,1.528e+08,1,5217,5000,15.66,1.78,28,24,0,0
2.1114e+05,1.5291e+08,1,5004,5042,15.54,2.03,28,24,0,0
2.1155e+05,1.5301e+08,1,5045,5114,15.61,1.86,28,25,0,0
2.1203e+05,1.5313e+08,1,5118,5185,15.66,1.93,28,25,0,0
2.1293e+05,1.5336e+08,1,5176,5057,15.57,1.94,28,25,0,0
2.1337e+05,1.5346e+08,1,5061,5100,15.54,1.93,28,25,0,0
2.1382e+05,1.5358e+08,1,5094,5042,15.61,1.83,28,25,0,0
2.1468e+05,1.5379e+08,1,5044,5114,15.66,2.13,28,25,0,0
2.1511e+05,1.5389e+08,1,5112,5042,15.6,1.96,28,25,0,0
2.1556e+05,1.54e+08,1,5043,5085,15.57,2.06,28,25,0,0
2.1601e+05,1.5412e+08,1,5066,4942,15.62,1.6,28,25,0,0
2.1646e+05,1.5422e+08,1,4923,4728,15.64,1.46,28,25,0,0
2.1686e+05,1.5432e+08,1,4724,4557,15.66,1.17,28,25,0,0
2.1735e+05,1.5445e+08,1,4543,4400,15.63,1.09,28,25,0,0
2.182e+05,1.5466e+08,1,4402,4442,15.6,1.68,28,25,0,0
2.1865e+05,1.5477e+08,1,4442,4442,15.61,1.86,28,25,0,0
2.1909e+05,1.5488e+08,1,4442,4442,15.61,1.28,28,25,0,0
2.1954e+05,1.5499e+08,1,4429,4300,15.64,0.98,28,25,0,0
2.1994e+05,1.5509e+08,1,4290,4200,15.64,1.23,28,25,0,0
2.2038e+05,1.5519e+08,1,4200,4214,15.6,1.53,28,26,0,0
2.2084e+05,1.5531e+08,1,4219,4342,15.64,1.34,28,26,0,0
2.2128e+05,1.5542e+08,1,4349,4542,15.68,1.48,28,26,0,0
2.2173e+05,1.5552e+08,1,4543,4585,15.66,1.53,28,26,0,0
2.2218e+05,1.5564e+08,1,4582,4542,15.64,1.42,28,26,0,0
2.2258e+05,1.5574e+08,1,4549,4700,15.65,1.87,28,26,0,0
2.2307e+05,1.5586e+08,1,4709,4771,15.63,1.71,28,26,0,0
2.2347e+05,1.5596e+08,1,4767,4642,15.62,1.2,28,26,0,0
2.2397e+05,1.5608e+08,1,4640,4628,15.64,1.63,28,26,0,0
2.2438e+05,1.5618e+08,1,4629,4642,15.65,1.39,28,26,0,0
2.2478e+05,1.5628e+08,1,4642,4642,15.61,1.65,28,26,0,0
2.2523e+05,1.5639e+08,1,4642,4642,15.65,1.23,28,26,0,0
2.2563e+05,1.565e+08,1,4625,4200,15.69,0.94,28,26,0,0
2.2608e+05,1.5661e+08,1,4178,3900,15.66,1.19,28,26,0,0
2.2697e+05,1.5683e+08,1,3908,4171,15.63,2.46,28,26,0,0
2.2782e+05,1.5704e+08,1,4177,4357,15.55,1.63,28,26,0,0
2.2823e+05,1.5715e+08,1,4351,4257,15.68,1.18,28,26,0,0
2.2872e+05,1.5727e+08,1,4271,4357,15.58,1.45,28,26,0,0
2.2956e+05,1.5748e+08,1,4360,4457,15.66,1.4,28,26,0,0
2.3001e+05,1.5758e+08,1,4450,4357,15.69,1.15,28,27,0,0
2.3045e+05,1.5769e+08,1,4354,4300,15.57,1.4,28,27,0,0
2.3087e+05,1.578e+08,1,4301,4385,15.66,1.26,28,27,0,0
2.313e+05,1.5791e+08,1,4381,4242,15.63,1.29,28,27,0,0
2.318e+05,1.5803e+08,1,4243,4271,15.66,1.25,28,27,0,0
2.3221e+05,1.5813e+08,1,4278,4385,15.67,1.47,28,27,0,0
2.3265e+05,1.5824e+08,1,4392,4500,15.63,1.74,28,27,0,0
2.3354e+05,1.5845e+08,1,4507,4828,15.6,1.71,28,27,0,0
2.3399e+05,1.5857e+08,1,4819,4700,15.59,1.42,28,27,0,0
2.3443e+05,1.5868e+08,1,4685,4500,15.66,1.22,28,27,0,0
2.3488e+05,1.5879e+08,1,4491,4400,15.67,1.22,28,27,0,0
2.3528e+05,1.5889e+08,1,4397,4342,15.66,1.26,28,27,0,0
2.3573e+05,1.59e+08,1,4355,4485,15.67,1.46,28,27,0,0
2.3618e+05,1.5911e+08,1,4490,4542,15.62,1.57,28,27,0,0
2.3662e+05,1.5922e+08,1,4542,4542,15.64,1.34,28,27,0,0
2.3707e+05,1.5933e+08,1,4533,4414,15.64,1.28,28,27,0,0
2.3751e+05,1.5943e+08,1,4415,4442,15.64,1.46,28,27,0,0
2.3795e+05,1.5954e+08,1,4448,4600,15.58,1.73,28,27,0,0
2.384e+05,1.5965e+08,1,4603,4785,15.61,1.88,28,27,0,0
2.3885e+05,1.5977e+08,1,4781,4700,15.64,1.5,28,27,0,0
2.3933e+05,1.5988e+08,1,4697,4671,15.6,1.58,28,27,0,0
2.3974e+05,1.5998e+08,1,4663,4485,15.62,1.33,28,28,0,0
2.4019e+05,1.601e+08,1,4494,4614,15.58,1.62,28,28,0,0
2.4064e+05,1.6021e+08,1,4619,4685,15.61,1.51,28,28,0,0
2.4109e+05,1.6031e+08,1,4691,4757,15.6,1.92,28,28,0,0
2.4198e+05,1.6054e+08,1,4757,4771,15.58,1.82,28,28,0,0
2.4242e+05,1.6064e+08,1,4768,4742,15.61,1.55,28,28,0,0
2.4287e+05,1.6075e+08,1,4748,4814,15.57,1.79,28,28,0,0
2.4331e+05,1.6086e+08,1,4814,4857,15.56,2.02,28,28,0,0
2.4375e+05,1.6097e+08,1,4853,4785,15.57,1.49,28,28,0,0
2.4421e+05,1.6108e+08,1,4776,4685,15.52,1.68,28,28,0,0
2.4466e+05,1.612e+08,1,4677,4600,15.6,1.24,28,28,0,0
2.4506e+05,1.613e+08,1,4601,4671,15.64,1.38,28,28,0,0
2.455e+05,1.614e+08,1,4666,4400,15.64,0.96,28,28,0,0
2.4594e+05,1.6151e+08,1,4395,4114,15.66,1.45,28,28,0,0
2.4643e+05,1.6163e+08,1,4146,4471,15.62,2.1,28,28,0,0
2.4688e+05,1.6174e+08,1,4479,4614,15.63,1.83,28,28,0,0
2.4732e+05,1.6184e+08,1,4614,4614,15.6,1.49,28,28,0,0
2.4776e+05,1.6195e+08,1,4629,4785,15.6,2,28,28,0,0
2.4817e+05,1.6205e+08,1,4787,4928,15.6,1.54,28,28,0,0
2.4866e+05,1.6217e+08,1,4916,4800,15.51,1.82,28,28,0,0
2.491e+05,1.6228e+08,1,4797,4771,15.62,1.45,28,29,0,0
2.4951e+05,1.6238e+08,1,4770,4742,15.57,1.62,28,29,0,0
2.4995e+05,1.6249e+08,1,4744,4914,15.55,2.01,28,29,0,0
2.504e+05,1.626e+08,1,4913,4871,15.56,1.89,28,29,0,0
2.5084e+05,1.6271e+08,1,4872,4914,15.58,1.87,28,29,0,0
2.5129e+05,1.6282e+08,1,4912,4842,15.59,1.81,28,29,0,0
2.5177e+05,1.6294e+08,1,4863,5100,15.55,2.1,28,29,0,0
2.5222e+05,1.6305e+08,1,5100,5100,15.56,2.33,28,29,0,0
2.5267e+05,1.6317e+08,1,5089,5028,15.57,2.25,28,29,0,0
2.5307e+05,1.6326e+08,1,5032,5071,15.58,2.03,28,29,0,0
2.5352e+05,1.6337e+08,1,5079,5171,15.6,1.98,28,29,0,0
2.5396e+05,1.6348e+08,1,5153,4985,15.55,1.89,28,29,0,0
2.5441e+05,1.6359e+08,1,4993,5114,15.58,2.12,28,29,0,0
2.5481e+05,1.6369e+08,1,5115,5157,15.5,2.25,28,29,0,0
2.5526e+05,1.638e+08,1,5165,5342,15.54,2.35,28,29,0,0
2.5571e+05,1.6391e+08,1,5355,5514,15.43,2.86,28,29,0,0
2.5616e+05,1.6403e+08,1,5527,5714,15.52,2.68,28,29,0,0
2.5656e+05,1.6413e+08,1,5710,5657,15.57,2.51,28,30,0,0
2.5745e+05,1.6435e+08,1,5649,5471,15.6,2.16,28,30,0,0
2.579e+05,1.6446e+08,1,5449,5271,15.64,2.09,28,30,0,0
2.5834e+05,1.6457e+08,1,5250,5057,15.55,1.81,28,30,0,0
2.5879e+05,1.6469e+08,1,5034,4900,15.45,1.81,28,30,0,0
2.5967e+05,1.649e+08,1,4892,4271,15.59,0.85,28,30,0,0
2.6012e+05,1.6501e+08,1,4249,3985,15.52,0.84,28,30,0,0
2.6053e+05,1.6511e+08,1,3966,3657,15.55,1.49,28,30,0,0
2.6098e+05,1.6522e+08,1,3666,3871,15.54,1.51,28,30,0,0
2.6143e+05,1.6534e+08,1,3899,4171,15.58,1.73,28,30,0,0
2.6183e+05,1.6544e+08,1,4173,4285,15.58,1.54,28,30,0,0
2.6232e+05,1.6555e+08,1,4313,4514,15.61,1.68,28,30,0,0
2.6276e+05,1.6566e+08,1,4519,4571,15.62,1.4,28,30,0,0
2.6321e+05,1.6577e+08,1,4573,4600,15.63,1.44,28,30,0,0
2.6361e+05,1.6587e+08,1,4611,4714,15.63,1.62,28,30,0,0
2.6406e+05,1.6598e+08,1,4723,4857,15.61,1.92,28,30,0,0
2.645e+05,1.6609e+08,1,4862,4928,15.57,1.72,28,30,0,0
2.6495e+05,1.662e+08,1,4925,4900,15.55,1.7,28,31,0,0
2.6579e+05,1.6641e+08,1,4900,4971,15.54,1.96,28,31,0,0
2.6625e+05,1.6653e+08,1,4961,4857,15.59,1.65,28,31,0,0
2.6669e+05,1.6663e+08,1,4857,4857,15.53,1.65,28,31,0,0
2.6714e+05,1.6674e+08,1,4857,4857,15.51,1.86,28,31,0,0
2.6758e+05,1.6685e+08,1,4859,4885,15.56,1.57,28,31,0,0
2.6799e+05,1.6696e+08,1,4885,4885,15.57,1.73,28,31,0,0
2.6888e+05,1.6717e+08,1,4884,4871,15.58,1.91,28,31,0,0
2.6977e+05,1.6739e+08,1,4871,4871,15.57,1.91,28,31,0,0
2.7066e+05,1.6761e+08,1,4872,5042,15.56,2.04,28,31,0,0
2.7111e+05,1.6772e+08,1,5043,5100,15.57,2.14,28,31,0,0
2.716e+05,1.6784e+08,1,5111,5228,15.6,2.32,28,31,0,0
2.72e+05,1.6794e+08,1,5227,5214,15.56,2.21,28,31,0,0
2.7245e+05,1.6804e+08,1,5215,5242,15.54,1.98,28,31,0,0
2.7285e+05,1.6815e+08,1,5240,5142,15.54,2.05,28,32,0,0
2.7334e+05,1.6827e+08,1,5142,5142,15.55,2.2,28,32,0,0
2.7378e+05,1.6837e+08,1,5143,5157,15.54,2.05,28,32,0,0
2.7418e+05,1.6848e+08,1,5147,5071,15.5,2.06,28,32,0,0
2.7463e+05,1.6859e+08,1,5065,5000,15.57,1.84,28,32,0,0
2.7507e+05,1.6869e+08,1,5002,5028,15.52,2.03,28,32,0,0
2.7552e+05,1.688e+08,1,5019,4914,15.58,1.8,28,32,0,0
2.7596e+05,1.6891e+08,1,4914,4914,15.54,1.71,28,32,0,0
2.7641e+05,1.6902e+08,1,4914,4914,15.57,1.8,28,32,0,0
2.7682e+05,1.6913e+08,1,4918,4985,15.56,1.96,28,32,0,0
2.7726e+05,1.6923e+08,1,4990,5100,15.53,2.13,28,32,0,0
2.7771e+05,1.6934e+08,1,5095,5042,15.48,2.3,28,32,0,0
2.7816e+05,1.6946e+08,1,5040,5028,15.53,2,28,32,0,0
2.7857e+05,1.6956e+08,1,5040,5157,15.57,2.43,28,32,0,0
2.7897e+05,1.6966e+08,1,5160,5214,15.48,2.08,28,32,0,0
2.7942e+05,1.6978e+08,1,5210,5157,15.57,1.99,28,32,0,0
2.7987e+05,1.6989e+08,1,5155,5114,15.56,1.74,28,33,0,0
2.8032e+05,1.7e+08,1,5120,5185,15.55,2.1,28,33,0,0
2.8072e+05,1.701e+08,1,5183,5142,15.56,1.84,28,33,0,0
2.8121e+05,1.7022e+08,1,5136,5000,15.53,2,28,33,0,0
2.8214e+05,1.7044e+08,1,4999,4985,15.52,1.97,28,33,0,0
2.8259e+05,1.7055e+08,1,4987,5014,15.52,2.02,28,33,0,0
2.8304e+05,1.7066e+08,1,5009,4900,15.57,2.12,28,33,0,0
2.8348e+05,1.7077e+08,1,4896,4857,15.54,1.55,28,33,0,0
2.8393e+05,1.7088e+08,1,4856,4842,15.54,1.85,28,33,0,0
2.8438e+05,1.7099e+08,1,4840,4828,15.53,2,28,33,0,0
2.8482e+05,1.711e+08,1,4844,5071,15.49,2.31,28,33,0,0
2.8527e+05,1.7121e+08,1,5082,5228,15.54,2.14,28,33,0,0
2.8567e+05,1.7131e+08,1,5222,4914,15.57,1.77,28,33,0,0
2.8616e+05,1.7143e+08,1,4906,4828,15.58,1.59,28,33,0,0
2.8656e+05,1.7153e+08,1,4827,4785,15.53,1.87,28,33,0,0
2.8705e+05,1.7164e+08,1,4791,4857,15.6,1.72,28,33,0,0
2.8749e+05,1.7175e+08,1,4859,4914,15.51,2.12,28,33,0,0
2.879e+05,1.7186e+08,1,4915,4957,15.57,1.76,28,34,0,0
2.8835e+05,1.7197e+08,1,4958,5071,15.55,1.9,28,34,0,0
2.888e+05,1.7208e+08,1,5071,5085,15.6,1.82,28,34,0,0
2.8964e+05,1.7229e+08,1,5083,5028,15.58,2.15,28,34,0,0
2.9006e+05,1.724e+08,1,5043,5342,15.6,2.22,28,34,0,0
2.9095e+05,1.7262e+08,1,5342,5357,15.53,2.23,28,34,0,0
2.9139e+05,1.7273e+08,1,5348,5257,15.47,2.04,28,34,0,0
2.9184e+05,1.7284e+08,1,5257,5271,15.48,2.07,28,34,0,0
2.9225e+05,1.7295e+08,1,5260,5157,15.55,2.02,28,34,0,0
2.931e+05,1.7316e+08,1,5158,5200,15.54,2.13,28,34,0,0
2.9399e+05,1.7338e+08,1,5191,5014,15.55,1.77,28,34,0,0
2.9439e+05,1.7348e+08,1,5007,4800,15.6,1.54,28,34,0,0
2.9488e+05,1.736e+08,1,4785,4600,15.6,1.36,28,34,0,0
2.9529e+05,1.737e+08,1,4588,4442,15.63,1.17,28,35,0,0
2.9574e+05,1.7382e+08,1,4436,4328,15.65,1.16,28,35,0,0
2.9615e+05,1.7392e+08,1,4328,4342,15.6,1.51,28,35,0,0
2.966e+05,1.7403e+08,1,4343,4357,15.62,1.07,28,35,0,0
2.9705e+05,1.7414e+08,1,4340,3928,15.63,1.18,28,35,0,0
2.975e+05,1.7425e+08,1,3925,3828,15.69,1.61,28,35,0,0
2.9794e+05,1.7436e+08,1,3832,4100,15.62,2.09,28,35,0,0
2.9838e+05,1.7447e+08,1,4105,4200,15.62,1.46,28,35,0,0
2.9883e+05,1.7458e+08,1,4212,4342,15.57,1.61,28,35,0,0
2.9924e+05,1.7468e+08,1,4350,4528,15.63,1.27,28,35,0,0
2.9969e+05,1.7479e+08,1,4526,4428,15.64,1.19,28,35,0,0
3.0014e+05,1.7491e+08,1,4431,4471,15.58,1.86,28,35,0,0
3.0054e+05,1.7501e+08,1,4486,4785,15.51,2.25,28,35,0,0
3.0099e+05,1.7512e+08,1,4791,4914,15.53,2.02,28,35,0,0
3.0144e+05,1.7523e+08,1,4914,4928,15.5,1.75,28,35,0,0
3.0188e+05,1.7534e+08,1,4927,4914,15.55,1.72,28,35,0,0
3.0281e+05,1.7557e+08,1,4911,4857,15.56,1.58,28,35,0,0
3.0322e+05,1.7567e+08,1,4840,4628,15.55,1.19,28,35,0,0
3.0362e+05,1.7577e+08,1,4628,4642,15.51,1.34,28,35,0,0
3.0411e+05,1.7589e+08,1,4630,4514,15.54,1.23,28,35,0,0
3.0452e+05,1.7599e+08,1,4503,4285,15.57,1.1,28,36,0,0
3.0497e+05,1.761e+08,1,4285,4300,15.56,1.25,28,36,0,0
3.0542e+05,1.7622e+08,1,4302,4328,15.52,1.3,28,36,0,0
3.0586e+05,1.7633e+08,1,4325,4271,15.53,1.3,28,36,0,0
3.0632e+05,1.7643e+08,1,4263,4157,15.61,1.08,28,36,0,0
3.0675e+05,1.7655e+08,1,4141,3957,15.64,1.08,28,36,0,0
3.072e+05,1.7666e+08,1,3951,3900,15.6,1.84,28,36,0,0
3.0809e+05,1.7688e+08,1,3916,4228,15.61,1.62,28,36,0,0
3.085e+05,1.7698e+08,1,4239,4500,15.61,1.51,28,36,0,0
3.0894e+05,1.7709e+08,1,4511,4928,15.55,1.92,28,36,0,0
3.094e+05,1.772e+08,1,4923,4871,15.57,1.69,28,36,0,0
3.098e+05,1.773e+08,1,4882,5114,15.52,2.29,28,36,0,0
3.1029e+05,1.7742e+08,1,5122,5200,15.47,1.97,28,36,0,0
3.1069e+05,1.7752e+08,1,5198,5071,15.5,1.81,28,36,0,0
3.1118e+05,1.7764e+08,1,5049,4842,15.53,1.57,28,36,0,0
3.1157e+05,1.7774e+08,1,4839,4657,15.55,1.14,28,36,0,0
3.1206e+05,1.7786e+08,1,4624,4342,15.54,1.23,28,36,0,0
3.1247e+05,1.7796e+08,1,4341,4328,15.56,1.32,28,36,0,0
3.1336e+05,1.7818e+08,1,4335,4500,15.46,1.43,28,36,0,0
3.1377e+05,1.7828e+08,1,4498,4471,15.58,1.27,28,36,0,0
3.1422e+05,1.7839e+08,1,4468,4300,15.48,1.08,28,37,0,0
3.1466e+05,1.785e+08,1,4295,4242,15.53,1.34,28,37,0,0
3.1511e+05,1.7861e+08,1,4239,4214,15.59,1.14,28,37,0,0
3.1556e+05,1.7872e+08,1,4220,4271,15.54,1.43,28,37,0,0
3.1596e+05,1.7882e+08,1,4275,4328,15.54,1.64,28,37,0,0
3.1641e+05,1.7894e+08,1,4332,4371,15.56,1.05,28,37,0,0
3.1727e+05,1.7915e+08,1,4364,4214,15.52,1.4,28,37,0,0
3.1771e+05,1.7925e+08,1,4216,4328,15.6,1.34,28,37,0,0
3.182e+05,1.7937e+08,1,4356,4657,15.49,2.2,28,37,0,0
3.1865e+05,1.7948e+08,1,4668,4785,15.51,1.79,28,37,0,0
3.1949e+05,1.7969e+08,1,4791,4914,15.44,2.34,28,37,0,0
3.1994e+05,1.798e+08,1,4911,4871,15.5,1.85,28,37,0,0
3.2038e+05,1.7991e+08,1,4848,4628,15.49,1.24,28,37,0,0
3.2083e+05,1.8002e+08,1,4595,4257,15.57,0.71,28,37,0,0
3.2128e+05,1.8013e+08,1,4260,4300,15.59,1.55,28,37,0,0
3.2176e+05,1.8024e+08,1,4321,4471,15.47,1.82,28,37,0,0
3.2216e+05,1.8034e+08,1,4478,4642,15.46,2.1,28,37,0,0
3.2261e+05,1.8045e+08,1,4642,4657,15.45,1.59,28,37,0,0
3.2306e+05,1.8057e+08,1,4649,4571,15.51,1.5,28,37,0,0
3.2391e+05,1.8078e+08,1,4570,4528,15.57,1.51,28,37,0,0
3.2436e+05,1.8089e+08,1,4528,4528,15.54,1.44,28,38,0,0
3.2481e+05,1.81e+08,1,4528,4542,15.54,1.54,28,38,0,0
3.2525e+05,1.8111e+08,1,4539,4500,15.45,1.49,28,38,0,0
3.2566e+05,1.8121e+08,1,4498,4471,15.49,1.43,28,38,0,0
3.261e+05,1.8132e+08,1,4479,4600,15.51,1.48,28,38,0,0
3.2695e+05,1.8153e+08,1,4598,4428,15.52,1.58,28,38,0,0
3.2744e+05,1.8165e+08,1,4441,4542,15.54,1.55,28,38,0,0
3.2784e+05,1.8175e+08,1,4549,4642,15.51,1.75,28,38,0,0
3.2829e+05,1.8186e+08,1,4646,4771,15.44,1.64,28,38,0,0
3.2874e+05,1.8197e+08,1,4768,4728,15.55,1.66,28,38,0,0
3.2918e+05,1.8207e+08,1,4727,4685,15.58,1.36,28,38,0,0
3.2968e+05,1.8219e+08,1,4682,4657,15.58,1.53,28,38,0,0
3.3008e+05,1.823e+08,1,4652,4585,15.62,1.31,28,38,0,0
3.3052e+05,1.824e+08,1,4577,4400,15.6,1.37,28,38,0,0
3.3097e+05,1.8251e+08,1,4403,4571,15.58,1.59,28,38,0,0
3.3146e+05,1.8263e+08,1,4579,4671,15.56,1.43,28,38,0,0
3.3186e+05,1.8273e+08,1,4672,4728,15.55,1.73,28,38,0,0
3.3236e+05,1.8285e+08,1,4726,4714,15.54,1.51,28,38,0,0
3.328e+05,1.8296e+08,1,4699,4557,15.51,1.55,28,38,0,0
3.3324e+05,1.8307e+08,1,4573,4800,15.43,1.7,28,38,0,0
3.3365e+05,1.8317e+08,1,4798,4714,15.4,1.64,28,38,0,0
3.3409e+05,1.8328e+08,1,4714,4728,15.46,1.53,28,39,0,0
3.3454e+05,1.8338e+08,1,4725,4571,15.47,1.27,28,39,0,0
3.3499e+05,1.835e+08,1,4572,4600,15.47,1.55,28,39,0,0
3.3547e+05,1.8361e+08,1,4600,4614,15.45,1.61,28,39,0,0
3.3587e+05,1.8371e+08,1,4613,4585,15.47,1.44,28,39,0,0
3.3636e+05,1.8383e+08,1,4579,4528,15.55,1.29,28,39,0,0
3.3681e+05,1.8394e+08,1,4536,4628,15.55,1.6,28,39,0,0
3.3725e+05,1.8404e+08,1,4634,4700,15.54,1.61,28,39,0,0
3.377e+05,1.8415e+08,1,4705,4785,15.54,1.65,28,39,0,0
3.381e+05,1.8425e+08,1,4783,4657,15.52,1.63,28,39,0,0
3.3859e+05,1.8437e+08,1,4664,4742,15.53,1.82,28,39,0,0
3.3948e+05,1.8459e+08,1,4739,4685,15.53,1.42,28,39,0,0
3.3992e+05,1.847e+08,1,4685,4685,15.49,1.84,28,39,0,0
3.4033e+05,1.848e+08,1,4689,4757,15.48,1.55,28,39,0,0
3.4074e+05,1.8491e+08,1,4760,4828,15.47,1.95,28,39,0,0
3.4123e+05,1.8503e+08,1,4829,4842,15.49,1.65,28,39,0,0
3.4168e+05,1.8514e+08,1,4857,4971,15.51,1.9,28,39,0,0
3.4208e+05,1.8524e+08,1,4968,4800,15.47,1.77,28,39,0,0
3.4252e+05,1.8535e+08,1,4803,4914,15.48,1.84,28,39,0,0
3.4298e+05,1.8546e+08,1,4928,5042,15.55,1.96,28,40,0,0
3.4342e+05,1.8557e+08,1,5050,5157,15.48,2.14,28,40,0,0
3.4383e+05,1.8568e+08,1,5154,5128,15.57,1.92,28,40,0,0
3.4428e+05,1.8579e+08,1,5125,5071,15.52,2.11,28,40,0,0
3.4472e+05,1.859e+08,1,5083,5157,15.56,1.92,28,40,0,0
3.4514e+05,1.86e+08,1,5144,4971,15.56,1.96,28,40,0,0
3.4554e+05,1.861e+08,1,4973,5157,15.61,1.96,28,40,0,0
3.4602e+05,1.8622e+08,1,5136,5000,15.53,2.03,28,40,0,0
3.4646e+05,1.8632e+08,1,5005,5085,15.69,1.45,28,40,0,0
3.4691e+05,1.8643e+08,1,4951,3100,15.94,0.44,28,40,0,0
3.4736e+05,1.8655e+08,1,3080,2914,15.72,1.47,28,40,0,0
3.4779e+05,1.8665e+08,1,2919,3171,15.67,0.94,28,40,0,0
3.4828e+05,1.8677e+08,1,3133,2828,15.82,1.09,28,40,0,0
3.4869e+05,1.8687e+08,1,2786,2471,15.96,0.31,28,40,0,0
3.4917e+05,1.8699e+08,1,2416,2142,15.93,0.2,28,40,0,0
3.4958e+05,1.8709e+08,1,2132,2014,15.92,0.14,28,40,0,0
3.5002e+05,1.872e+08,1,2017,2057,15.94,0.28,28,40,0,0
3.5043e+05,1.873e+08,1,2054,1985,15.9,0.19,28,40,0,0
3.5088e+05,1.8741e+08,1,1985,2014,15.92,0.2,28,40,0,0
3.5132e+05,1.8752e+08,1,2011,1985,15.92,0.18,28,40,0,0
3.5222e+05,1.8775e+08,1,1987,2042,15.92,0.2,28,40,0,0
3.5266e+05,1.8786e+08,1,2040,2028,15.94,0.16,28,40,0,0
3.5307e+05,1.8795e+08,1,2026,1971,15.94,0.19,28,40,0,0
3.5355e+05,1.8807e+08,1,1969,1942,15.94,0.17,28,40,0,0
3.5396e+05,1.8816e+08,1,1942,1957,15.95,0.2,28,40,0,0
3.544e+05,1.8827e+08,1,1957,1985,15.95,0.23,28,40,0,0
3.5486e+05,1.8839e+08,1,1986,2028,15.94,0.27,28,40,0,0
3.553e+05,1.8849e+08,1,2030,2085,15.96,0.24,28,40,0,0
3.5574e+05,1.886e+08,1,2083,1942,16.03,0.09,28,40,0,0
3.5619e+05,1.8871e+08,1,1929,1657,16.01,0.01,28,40,0,0
3.5664e+05,1.8881e+08,1,1653,1357,16,0.04,28,40,0,0
3.5712e+05,1.8893e+08,1,1353,1300,16,0.09,28,40,0,0
3.5758e+05,1.8904e+08,1,1300,1300,16.01,0.1,27,40,0,0
3.5798e+05,1.8914e+08,1,1300,1300,16,0.1,28,40,0,0
3.5846e+05,1.8926e+08,1,1300,1300,16.01,0.1,27,40,0,0
3.5892e+05,1.8937e+08,1,1300,1300,16,0.1,27,40,0,0
3.5936e+05,1.8948e+08,1,1300,1300,16.01,0.1,27,40,0,0
3.5981e+05,1.8958e+08,1,1300,1300,16.01,0.1,28,40,0,0
3.6026e+05,1.8969e+08,1,1300,1300,16.01,0.1,27,40,0,0
3.6066e+05,1.8979e+08,1,1300,1300,16.01,0.1,27,40,0,0
3.6115e+05,1.8991e+08,1,1300,1300,16.01,0.1,27,40,0,0
3.62e+05,1.9011e+08,1,1300,1300,16.02,0.1,28,40,0,0
3.625e+05,1.9023e+08,1,1300,1300,16.01,0.1,27,40,0,0
3.6293e+05,1.9033e+08,1,1300,1300,16.02,0.1,27,40,0,0
3.6339e+05,1.9045e+08,1,1300,1300,16.02,0.1,27,40,0,0
3.6384e+05,1.9055e+08,1,1298,1285,16.02,0.1,27,40,0,0
3.6428e+05,1.9066e+08,1,1285,1300,16.03,0.11,27,40,0,0
3.6476e+05,1.9077e+08,1,1300,1300,16.02,0.11,27,40,0,0
3.6521e+05,1.9088e+08,1,1299,1285,16.02,0.11,27,40,0,0
3.6566e+05,1.9098e+08,1,1285,1285,16.04,0.1,27,40,0,0
3.6611e+05,1.911e+08,1,1285,1285,16.03,0.11,27,40,0,0
3.6704e+05,1.9131e+08,1,1285,1300,16.02,0.1,27,40,0,0
3.6748e+05,1.9142e+08,1,1298,1285,16.03,0.1,27,40,0,0
3.6793e+05,1.9153e+08,1,1287,1300,16.04,0.11,27,40,0,0
3.6834e+05,1.9163e+08,1,1300,1300,16.04,0.11,27,40,0,0
3.6882e+05,1.9175e+08,1,1300,1300,16.04,0.1,27,40,0,0
3.6923e+05,1.9185e+08,1,1300,1300,16.04,0.1,27,40,0,0
3.6971e+05,1.9196e+08,1,1300,1300,16.03,0.1,27,40,0,0
3.7012e+05,1.9206e+08,1,1300,1300,16.05,0.1,27,40,0,0
3.7057e+05,1.9217e+08,1,1300,1300,16.04,0.1,27,40,0,0
3.7106e+05,1.9229e+08,1,1300,1300,16.04,0.11,27,40,0,0
3.7151e+05,1.924e+08,1,1300,1300,16.05,0.1,27,40,0,0
3.7195e+05,1.925e+08,1,1300,1300,16.05,0.1,27,40,0,0
3.724e+05,1.9261e+08,1,1300,1300,16.05,0.1,27,40,0,0
3.7284e+05,1.9272e+08,1,1300,1300,16.05,0.1,27,40,0,0
3.7329e+05,1.9282e+08,1,1300,1300,16.05,0.11,27,40,0,0
3.7373e+05,1.9293e+08,1,1300,1300,16.05,0.1,27,40,0,0
3.7419e+05,1.9304e+08,1,1300,1300,16.05,0.11,27,40,0,0
3.7463e+05,1.9315e+08,1,1300,1300,16.05,0.1,27,40,0,0
3.7508e+05,1.9326e+08,1,1300,1300,16.06,0.1,27,40,0,0
3.7553e+05,1.9336e+08,1,1300,1300,16.06,0.1,27,40,0,0
3.7646e+05,1.9359e+08,1,1300,1300,16.05,0.11,27,40,0,0
3.7686e+05,1.9368e+08,1,1300,1300,16.06,0.11,27,40,0,0
3.7736e+05,1.938e+08,1,1300,1300,16.06,0.1,27,40,0,0
3.7775e+05,1.939e+08,1,1300,1300,16.06,0.1,27,40,0,0
3.7825e+05,1.9402e+08,1,1298,1285,16.07,0.11,27,40,0,0
3.7866e+05,1.9412e+08,1,1286,1300,16.07,0.11,27,40,0,0
3.791e+05,1.9423e+08,1,1300,1300,16.06,0.11,27,40,0,0
3.7959e+05,1.9434e+08,1,1300,1300,16.07,0.11,27,40,0,0
3.8003e+05,1.9445e+08,1,1300,1300,16.06,0.11,27,40,0,0
3.8044e+05,1.9454e+08,1,1299,1285,16.07,0.11,27,40,0,0
3.8092e+05,1.9466e+08,1,1286,1300,16.07,0.11,27,40,0,0
3.8137e+05,1.9477e+08,1,1300,1300,16.06,0.11,27,40,0,0
3.8177e+05,1.9487e+08,1,1300,1300,16.07,0.11,27,40,0,0
3.8227e+05,1.9498e+08,1,1298,1285,16.07,0.11,27,40,0,0
3.8271e+05,1.9509e+08,1,1285,1300,16.07,0.1,27,40,0,0
3.832e+05,1.952e+08,1,1300,1300,16.07,0.11,27,40,0,0
3.836e+05,1.953e+08,1,1300,1300,16.08,0.1,27,40,0,0
3.8409e+05,1.9541e+08,1,1300,1300,16.08,0.11,27,40,0,0
3.8453e+05,1.9553e+08,1,1299,1285,16.07,0.11,27,40,0,0
3.8498e+05,1.9563e+08,1,1285,1300,16.08,0.11,27,40,0,0
3.8588e+05,1.9586e+08,1,1300,1300,16.08,0.1,27,41,0,0
3.8718e+05,1.9617e+08,1,1300,1300,16.08,0.1,27,41,0,0
3.8762e+05,1.9628e+08,1,1300,1300,16.08,0.1,27,41,0,0
3.881e+05,1.9639e+08,1,1300,1314,16.08,0.1,27,41,0,0
3.8852e+05,1.965e+08,1,1314,1314,16.08,0.1,27,41,0,0
3.8896e+05,1.9661e+08,1,1314,1314,16.08,0.1,27,41,0,0
3.8941e+05,1.9672e+08,1,1314,1314,16.08,0.1,27,41,0,0
3.8986e+05,1.9683e+08,1,1314,1314,16.08,0.1,27,41,0,0
3.9027e+05,1.9693e+08,1,1314,1314,16.08,0.1,27,41,0,0
3.9072e+05,1.9704e+08,1,1314,1314,16.09,0.1,27,41,0,0
3.9117e+05,1.9714e+08,1,1314,1314,16.08,0.1,27,41,0,0
3.9161e+05,1.9725e+08,1,1314,1314,16.09,0.1,27,41,0,0
3.9206e+05,1.9736e+08,1,1314,1314,16.09,0.1,27,41,0,0
3.925e+05,1.9747e+08,1,1314,1314,16.1,0.11,27,41,0,0
3.9299e+05,1.9758e+08,1,1314,1314,16.1,0.11,27,41,0,0
3.934e+05,1.9768e+08,1,1313,1300,16.09,0.1,27,41,0,0
3.9388e+05,1.9779e+08,1,1300,1300,16.1,0.11,27,41,0,0
3.9432e+05,1.979e+08,1,1300,1300,16.1,0.11,27,41,0,0
3.9478e+05,1.9801e+08,1,1300,1300,16.1,0.11,27,41,0,0
3.9522e+05,1.9811e+08,1,1300,1300,16.1,0.11,27,41,0,0
3.9567e+05,1.9822e+08,1,1300,1300,16.1,0.11,27,41,0,0
3.9612e+05,1.9833e+08,1,1301,1314,16.09,0.11,27,41,0,0
3.9657e+05,1.9844e+08,1,1312,1300,16.1,0.11,27,41,0,0
3.9701e+05,1.9854e+08,1,1300,1300,16.1,0.11,27,41,0,0
3.9751e+05,1.9866e+08,1,1212,371,16.11,0,27,41,0,0
3.9795e+05,1.9876e+08,1,356,0,16.11,0.02,27,41,0,0
3.9841e+05,1.9887e+08,1,0,0,16.12,0.04,27,41,0,0
3.9886e+05,1.9898e+08,1,0,0,16.11,0.04,27,41,0,0
3.9973e+05,1.9921e+08,1,0,0,16.12,0.04,27,41,0,0
4.0018e+05,1.9931e+08,1,0,0,16.12,0.04,27,41,0,0
4.0112e+05,1.9954e+08,1,0,0,16.12,0.04,27,41,0,0
4.0158e+05,1.9964e+08,1,0,0,16.12,0.04,27,41,0,0
4.0203e+05,1.9975e+08,1,0,0,16.12,0.04,27,41,0,0
4.0252e+05,1.9987e+08,1,0,0,16.12,0.04,27,41,0,0
4.0297e+05,1.9997e+08,1,0,0,16.12,0.04,27,41,0,0
4.0388e+05,2.0018e+08,1,0,0,16.13,0.04,27,41,0,0
4.0433e+05,2.0029e+08,1,0,0,16.13,0.04,27,41,0,0
4.0478e+05,2.004e+08,1,0,0,16.13,0.04,27,41,0,0
4.0523e+05,2.005e+08,1,0,0,16.13,0.04,27,41,0,0
4.0573e+05,2.0062e+08,1,0,0,16.13,0.04,27,41,0,0
4.0618e+05,2.0073e+08,1,0,0,16.13,0.04,27,41,0,0
4.0663e+05,2.0083e+08,1,0,0,16.13,0.04,27,41,0,0
4.0708e+05,2.0094e+08,1,0,0,16.13,0.04,27,41,0,0
4.0786e+05,2.0116e+08,1,0,0,16.13,0.04,27,41,0,0
4.0832e+05,2.0127e+08,1,0,0,16.13,0.04,27,41,0,0
4.0926e+05,2.0149e+08,1,0,0,16.13,0.04,27,41,0,0
4.1017e+05,2.0171e+08,1,0,0,16.14,0.04,27,41,0,0
4.1062e+05,2.0181e+08,1,0,0,16.13,0.05,27,41,0,0
4.1107e+05,2.0192e+08,1,0,0,16.13,0.04,27,41,0,0
4.1157e+05,2.0203e+08,1,0,0,16.14,0.04,27,41,0,0
4.1202e+05,2.0214e+08,1,0,0,16.14,0.04,27,41,0,0
4.1247e+05,2.0224e+08,1,0,0,16.14,0.04,27,41,0,0
4.1296e+05,2.0236e+08,1,0,0,16.14,0.04,27,41,0,0
4.1341e+05,2.0247e+08,1,0,0,16.14,0.04,27,41,0,0
4.1386e+05,2.0258e+08,1,0,0,16.14,0.04,27,41,0,0
4.1432e+05,2.0269e+08,1,0,0,16.14,0.04,27,41,0,0
4.1477e+05,2.0279e+08,1,0,0,16.14,0.04,27,41,0,0
4.1522e+05,2.029e+08,1,0,0,16.14,0.04,27,41,0,0
4.1568e+05,2.0301e+08,1,0,0,16.14,0.04,27,41,0,0
4.1617e+05,2.0313e+08,1,0,0,16.14,0.04,27,41,0,0
4.1662e+05,2.0323e+08,1,0,0,16.14,0.04,27,41,0,0
4.1707e+05,2.0334e+08,1,0,0,16.14,0.04,27,41,0,0
4.1752e+05,2.0345e+08,1,0,0,16.14,0.04,27,41,0,0
4.1842e+05,2.0367e+08,1,0,0,16.14,0.04,26,41,0,0
4.1888e+05,2.0377e+08,1,0,0,16.14,0.04,27,41,0,0
4.1933e+05,2.0388e+08,1,0,0,16.14,0.04,26,41,0,0
4.1983e+05,2.0399e+08,1,0,0,16.14,0.04,27,41,0,0
4.2028e+05,2.041e+08,1,0,0,16.14,0.04,27,41,0,0
4.2078e+05,2.0422e+08,1,0,0,16.14,0.04,27,41,0,0
4.2122e+05,2.0432e+08,1,0,0,16.15,0.04,27,41,0,0
4.2167e+05,2.0443e+08,1,0,0,16.14,0.04,27,41,0,0
4.2213e+05,2.0454e+08,1,0,0,16.14,0.04,27,41,0,0
4.2258e+05,2.0465e+08,1,0,0,16.16,0.04,26,41,0,0
4.2303e+05,2.0475e+08,1,0,0,16.15,0.04,27,41,0,0
4.2352e+05,2.0487e+08,1,0,0,16.15,0.04,27,41,0,0
4.2398e+05,2.0498e+08,1,0,0,16.15,0.04,27,41,0,0
4.2443e+05,2.0509e+08,1,0,0,16.15,0.04,26,41,0,0
4.2488e+05,2.0519e+08,1,0,0,16.15,0.04,26,41,0,0
4.2538e+05,2.0531e+08,1,0,0,16.16,0.04,27,41,0,0
4.2583e+05,2.0541e+08,1,0,0,16.16,0.04,27,41,0,0
