LineNo,TimeUS,I,GyrX,GyrY,GyrZ,AccX,AccY,AccZ,EG,EA,T,GH,AH,GHz,AHz
184,1.0097e+08,2,0.0035226,0.00091917,-0.00041406,0.051928,0.27888,-9.8167,0,0,38.472,1,1,7745,3872
219,1.0098e+08,2,0.0043525,1.9333e-05,-0.0005891,0.051056,0.27622,-9.8187,0,0,38.473,1,1,7745,3872
289,1.01e+08,2,0.0053535,-0.0030292,0.0004342,0.066221,0.26143,-9.8173,0,0,38.474,1,1,7745,3872
404,1.0103e+08,2,0.0019679,-0.0023398,-4.5038e-05,0.039804,0.26319,-9.8266,0,0,38.476,1,1,7745,3872
520,1.0106e+08,2,-0.0015691,0.0032655,0.00070229,0.058609,0.23481,-9.8271,0,0,38.477,1,1,7745,3872
635,1.0109e+08,2,-0.0033761,0.0011166,0.00095558,0.052797,0.24484,-9.784,0,0,38.478,1,1,7745,3872
638,1.0109e+08,2,-0.0029197,3.6799e-06,0.0013023,0.051442,0.24671,-9.7853,0,0,38.478,1,1,7745,3872
749,1.0111e+08,2,-0.0020396,-0.0024285,0.0008256,0.038573,0.26574,-9.8085,0,0,38.478,1,1,7745,3872
784,1.0112e+08,2,-0.0014285,-0.0021699,0.0012545,0.038933,0.26479,-9.8086,0,0,38.478,1,1,7745,3872
858,1.0113e+08,2,0.0013903,-0.002477,0.0005101,0.065864,0.26414,-9.8216,0,0,38.479,1,1,7745,3872
976,1.0117e+08,2,0.003742,-0.00072284,-0.0012372,0.041481,0.25685,-9.8187,0,0,38.48,1,1,7745,3872
1091,1.0122e+08,2,0.00079907,0.001918,0.00098102,0.052832,0.25476,-9.8321,0,0,38.481,1,1,7745,3872
1202,1.0133e+08,2,-0.00021964,0.0015787,0.000227,0.058122,0.24158,-9.7994,0,0,38.483,1,1,7745,3872
1284,1.0137e+08,2,0.00097426,-0.00046466,0.00025209,0.033838,0.25766,-9.8142,0,0,38.483,1,1,7745,3872
1319,1.0137e+08,2,0.0013318,-0.00048783,0.00098685,0.032249,0.25939,-9.8129,0,0,38.483,1,1,7745,3872
1383,1.0138e+08,2,0.0030185,-0.001938,-0.00099748,0.046407,0.2548,-9.81,0,0,38.483,1,1,7745,3872
1475,1.014e+08,2,0.00031564,-0.0012933,-4.6594e-05,0.044224,0.26127,-9.8152,0,0,38.483,1,1,7745,3872
1510,1.014e+08,2,0.00051393,-0.00078768,-0.00054069,0.042146,0.26424,-9.8116,0,0,38.483,1,1,7745,3872
1562,1.0142e+08,2,-0.0012459,0.0024251,-0.00067644,0.043023,0.26408,-9.8081,0,0,38.483,1,1,7745,3872
1572,1.0142e+08,2,-0.00019176,0.0023002,0.00012002,0.043087,0.2616,-9.81,0,0,38.483,1,1,7745,3872
1607,1.0143e+08,2,0.00095917,0.0017452,0.0011935,0.043268,0.25948,-9.8138,0,0,38.483,1,1,7745,3872
1610,1.0143e+08,2,0.00098392,0.0018399,0.0010695,0.044931,0.25937,-9.8178,0,0,38.483,1,1,7745,3872
1613,1.0143e+08,2,0.0010747,0.0025466,-0.0004327,0.047848,0.25859,-9.8236,0,0,38.483,1,1,7745,3872
1617,1.0143e+08,2,0.0010648,0.0027151,-0.00051396,0.048659,0.25805,-9.8279,0,0,38.483,1,1,7745,3872
1652,1.0143e+08,2,-0.00055941,0.0031856,-0.00026747,0.050121,0.25553,-9.8336,0,0,38.483,1,1,7745,3872
1655,1.0144e+08,2,-0.0012348,0.0044618,2.3495e-05,0.050613,0.254,-9.8352,0,0,38.483,1,1,7745,3872
1658,1.0144e+08,2,-0.0012397,0.0051706,0.0005296,0.051448,0.24975,-9.8368,0,0,38.483,1,1,7745,3872
1661,1.0144e+08,2,-0.0013288,0.0043547,0.0013363,0.051428,0.24724,-9.833,0,0,38.483,1,1,7745,3872
1696,1.0144e+08,2,-0.00078279,0.0036306,0.00064174,0.051357,0.2451,-9.8288,0,0,38.483,1,1,7745,3872
1699,1.0145e+08,2,-0.001028,0.0028866,-0.00042015,0.052194,0.24204,-9.8251,0,0,38.483,1,1,7745,3872
1702,1.0145e+08,2,-0.0024144,0.0017804,-0.00084447,0.053911,0.23886,-9.8221,0,0,38.483,1,1,7745,3872
1708,1.0145e+08,2,-0.0021378,0.00049188,-0.00090564,0.056956,0.24083,-9.8196,0,0,38.483,1,1,7745,3872
1743,1.0146e+08,2,-0.00042437,0.00037716,0.00017289,0.060706,0.24566,-9.8186,0,0,38.483,1,1,7745,3872
1746,1.0146e+08,2,-4.4168e-05,0.00091917,0.00090516,0.063099,0.24805,-9.8166,0,0,38.483,1,1,7745,3872
1749,1.0146e+08,2,0.00087181,0.00094395,0.00070101,0.064528,0.25004,-9.8149,0,0,38.483,1,1,7745,3872
1784,1.0147e+08,2,-0.0011734,0.00038797,-0.0012169,0.061558,0.25485,-9.8099,0,0,38.483,1,1,7745,3872
1787,1.0147e+08,2,-0.00087921,0.00061964,-0.0010787,0.059109,0.25893,-9.8095,0,0,38.483,1,1,7745,3872
1790,1.0147e+08,2,-0.00031872,0.00082744,-0.00022343,0.05623,0.2633,-9.8106,0,0,38.483,1,1,7745,3872
1824,1.0148e+08,2,-2.7684e-06,0.0011225,0.00071593,0.05537,0.26424,-9.8121,0,0,38.483,1,1,7745,3872
1827,1.0148e+08,2,-0.00042199,0.0017173,0.0012752,0.055173,0.26493,-9.8149,0,0,38.483,1,1,7745,3872
1830,1.0148e+08,2,-0.00059905,0.0015041,0.0011644,0.054432,0.26456,-9.8189,0,0,38.483,1,1,7745,3872
1833,1.0148e+08,2,0.00096204,0.0001977,0.0008328,0.053627,0.26327,-9.8244,0,0,38.483,1,1,7745,3872
1867,1.0149e+08,2,0.0012046,-0.00054004,0.00055374,0.052411,0.26271,-9.825,0,0,38.483,1,1,7745,3872
1870,1.0149e+08,2,0.00096252,-0.00070537,0.00056343,0.05256,0.26333,-9.8226,0,0,38.483,1,1,7745,3872
1876,1.0149e+08,2,0.00093921,-0.0016772,0.0012496,0.054071,0.26511,-9.8161,0,0,38.483,1,1,7745,3872
1880,1.015e+08,2,0.0012883,-0.0024521,0.0015825,0.055264,0.26485,-9.8129,0,0,38.483,1,1,7745,3872
1913,1.015e+08,2,0.001159,-0.0034805,0.0014053,0.056801,0.26293,-9.8084,0,0,38.483,1,1,7745,3872
1916,1.015e+08,2,-7.2847e-06,-0.0029286,0.00051105,0.058516,0.26134,-9.8051,0,0,38.483,1,1,7745,3872
1919,1.015e+08,2,-0.0011078,-0.0027493,0.00015454,0.060287,0.25999,-9.802,0,0,38.483,1,1,7745,3872
1922,1.0151e+08,2,-0.0018939,-0.0029493,-0.00021906,0.06374,0.25883,-9.7996,0,0,38.483,1,1,7745,3872
1957,1.0151e+08,2,-0.0013784,-0.0028806,-0.00077128,0.066766,0.25777,-9.7997,0,0,38.483,1,1,7745,3872
1961,1.0151e+08,2,-0.00030892,-0.0020025,-0.0024521,0.071643,0.25672,-9.8009,0,0,38.483,1,1,7745,3872
1964,1.0151e+08,2,0.00022794,-0.0011613,-0.002138,0.074597,0.2579,-9.8037,0,0,38.483,1,1,7745,3872
1967,1.0152e+08,2,0.00032395,-0.00017532,-0.00035753,0.077577,0.26121,-9.8092,0,0,38.483,1,1,7745,3872
2000,1.0152e+08,2,0.00074987,-0.00043232,0.00092453,0.07942,0.26272,-9.8152,0,0,38.483,1,1,7745,3872
2003,1.0152e+08,2,0.00095314,-0.00062549,0.0013688,0.080572,0.26364,-9.8203,0,0,38.483,1,1,7745,3872
2006,1.0152e+08,2,0.00080407,9.0602e-06,0.0018175,0.07991,0.26491,-9.8266,0,0,38.483,1,1,7745,3872
2011,1.0153e+08,2,0.00075406,-0.00043432,0.0020398,0.076911,0.26544,-9.8351,0,0,38.483,1,1,7745,3872
2044,1.0153e+08,2,0.00010158,-0.0010688,0.0013865,0.075637,0.26553,-9.837,0,0,38.484,1,1,7745,3872
2048,1.0153e+08,2,-0.00076481,-0.00053231,-0.00027222,0.071077,0.26596,-9.8397,0,0,38.484,1,1,7745,3872
2051,1.0153e+08,2,-0.00063899,-0.00025797,-0.00048797,0.06749,0.26625,-9.8396,0,0,38.484,1,1,7745,3872
2054,1.0154e+08,2,-0.00066604,0.00064582,-0.00013668,0.062551,0.26673,-9.8388,0,0,38.484,1,1,7745,3872
2087,1.0154e+08,2,-0.00051207,0.00067724,-0.00015886,0.06053,0.26758,-9.8368,0,0,38.484,1,1,7745,3872
2091,1.0154e+08,2,0.00014033,0.00035058,0.00016304,0.058506,0.2687,-9.8324,0,0,38.484,1,1,7745,3872
2094,1.0154e+08,2,0.00049518,0.00057429,0.00017089,0.057733,0.27042,-9.8263,0,0,38.484,1,1,7745,3872
2097,1.0155e+08,2,0.00050136,0.0012377,-3.5864e-05,0.058003,0.27065,-9.8222,0,0,38.484,1,1,7745,3872
2130,1.0155e+08,2,-0.0001439,0.0024251,6.9718e-05,0.058359,0.26841,-9.8165,0,0,38.485,1,1,7745,3872
2133,1.0155e+08,2,0.00058395,0.0033132,0.00075854,0.058193,0.26608,-9.8094,0,0,38.485,1,1,7745,3872
2136,1.0155e+08,2,0.0014208,0.0034327,0.0003728,0.058446,0.26399,-9.807,0,0,38.485,1,1,7745,3872
2139,1.0156e+08,2,0.0019496,0.0033172,-1.4224e-06,0.059847,0.26061,-9.8049,0,0,38.485,1,1,7745,3872
2172,1.0156e+08,2,0.0018,0.0027176,-0.00047075,0.059597,0.25835,-9.8022,0,0,38.485,1,1,7745,3872
2176,1.0156e+08,2,0.0014214,0.0021277,-0.0011103,0.058197,0.25588,-9.8005,0,0,38.485,1,1,7745,3872
2179,1.0156e+08,2,0.0012845,0.0022531,-0.0013653,0.057338,0.2546,-9.7985,0,0,38.485,1,1,7745,3872
2182,1.0157e+08,2,0.00091109,0.002494,-0.0015105,0.057886,0.25441,-9.7945,0,0,38.486,1,1,7745,3872
2215,1.0157e+08,2,0.0012135,0.0022724,-0.00031766,0.059404,0.25572,-9.7953,0,0,38.486,1,1,7745,3872
2218,1.0157e+08,2,0.0011357,0.0023642,0.00096012,0.062249,0.25832,-9.8017,0,0,38.486,1,1,7745,3872
2221,1.0157e+08,2,0.0010978,0.0018992,0.0012345,0.063292,0.2599,-9.8072,0,0,38.486,1,1,7745,3872
2224,1.0158e+08,2,0.0022419,0.0015862,0.00070371,0.063083,0.26245,-9.8119,0,0,38.486,1,1,7745,3872
2257,1.0158e+08,2,0.0030356,0.00054908,0.00010784,0.063245,0.26415,-9.8116,0,0,38.486,1,1,7745,3872
2260,1.0158e+08,2,0.0028624,0.00013595,-0.00017219,0.063387,0.26442,-9.8114,0,0,38.486,1,1,7745,3872
2263,1.0158e+08,2,0.002649,-0.00013662,-0.00089656,0.063811,0.26503,-9.8119,0,0,38.486,1,1,7745,3872
2267,1.0159e+08,2,0.0015152,0.00013672,-0.0015117,0.063387,0.26757,-9.8132,0,0,38.487,1,1,7745,3872
2300,1.0159e+08,2,0.00044176,0.00064313,-0.00098366,0.061852,0.26918,-9.8126,0,0,38.487,1,1,7745,3872
2303,1.0159e+08,2,-0.00091115,0.00016264,-0.00011167,0.060292,0.2689,-9.8124,0,0,38.487,1,1,7745,3872
2309,1.0159e+08,2,-0.001448,-0.00016519,0.00031331,0.058472,0.26713,-9.8137,0,0,38.487,1,1,7745,3872
2313,1.016e+08,2,-0.001034,-0.00071108,0.00052743,0.055476,0.26398,-9.8167,0,0,38.487,1,1,7745,3872
2346,1.016e+08,2,-0.00014007,-0.001349,0.00065542,0.053895,0.26241,-9.8169,0,0,38.488,1,1,7745,3872
2350,1.016e+08,2,0.00053464,-0.0018583,0.00078118,0.052719,0.26171,-9.8165,0,0,38.488,1,1,7745,3872
2353,1.016e+08,2,0.00096785,-0.0021375,0.0009866,0.050852,0.26148,-9.815,0,0,38.488,1,1,7745,3872
2356,1.0161e+08,2,0.001251,-0.001768,0.0021521,0.046571,0.26224,-9.8123,0,0,38.488,1,1,7745,3872
2389,1.0161e+08,2,0.0017811,-0.0017553,0.0029932,0.042396,0.26205,-9.8029,0,0,38.488,1,1,7745,3872
2393,1.0161e+08,2,0.0013569,-0.0024502,0.0037434,0.038839,0.26126,-9.7969,0,0,38.489,1,1,7745,3872
2396,1.0161e+08,2,0.0010935,-0.0033121,0.0049089,0.034886,0.25991,-9.7955,0,0,38.489,1,1,7745,3872
2399,1.0162e+08,2,6.5987e-05,-0.0039595,0.0045478,0.033402,0.25883,-9.7983,0,0,38.489,1,1,7745,3872
2432,1.0162e+08,2,-0.00066598,-0.0029629,0.0023268,0.033223,0.25742,-9.8053,0,0,38.489,1,1,7745,3872
2435,1.0162e+08,2,-0.00060085,-0.0012686,0.0008821,0.034452,0.25693,-9.8115,0,0,38.489,1,1,7745,3872
2438,1.0163e+08,2,-0.00023799,-0.0013031,0.00021855,0.035215,0.25744,-9.8129,0,0,38.489,1,1,7745,3872
2441,1.0163e+08,2,-1.9676e-06,-0.0017362,-0.00048303,0.037821,0.25884,-9.8156,0,0,38.49,1,1,7745,3872
2474,1.0163e+08,2,-0.00037229,-0.0020508,-7.8321e-05,0.039968,0.25908,-9.8175,0,0,38.49,1,1,7745,3872
2479,1.0163e+08,2,9.0709e-05,-0.0030949,0.0010509,0.044031,0.25965,-9.8194,0,0,38.49,1,1,7745,3872
2482,1.0164e+08,2,0.00029928,-0.0032192,0.0014769,0.045901,0.26069,-9.8201,0,0,38.49,1,1,7745,3872
2487,1.0164e+08,2,0.00030971,-0.0030249,0.0017804,0.047731,0.2616,-9.8204,0,0,38.49,1,1,7745,3872
2520,1.0164e+08,2,-0.00057015,-0.0027641,0.0017043,0.046649,0.26143,-9.8193,0,0,38.491,1,1,7745,3872
2523,1.0165e+08,2,-0.0019134,-3.5169e-05,0.0015584,0.040618,0.26242,-9.8167,0,0,38.491,1,1,7745,3872
2558,1.0165e+08,2,-8.2163e-05,0.00056959,0.00081991,0.039812,0.25983,-9.8192,0,0,38.491,1,1,7745,3872
2561,1.0165e+08,2,-0.00029078,0.00026942,0.00018153,0.04163,0.25856,-9.8209,0,0,38.492,1,1,7745,3872
2564,1.0166e+08,2,-0.00062691,0.00045516,-0.0010457,0.04411,0.25774,-9.8222,0,0,38.492,1,1,7745,3872
2567,1.0166e+08,2,-0.00047934,0.00090614,-0.0011591,0.045825,0.25753,-9.8226,0,0,38.492,1,1,7745,3872
2602,1.0166e+08,2,-0.00076197,0.0013137,-0.0011297,0.044972,0.26001,-9.8216,0,0,38.492,1,1,7745,3872
2606,1.0167e+08,2,-0.00072119,0.0013268,-0.0014582,0.044081,0.26106,-9.8202,0,0,38.492,1,1,7745,3872
2609,1.0167e+08,2,-0.00090555,0.0020446,-0.00059661,0.043188,0.26243,-9.8205,0,0,38.493,1,1,7745,3872
2612,1.0167e+08,2,-0.00057299,0.0029959,-0.00026836,0.043915,0.26148,-9.8224,0,0,38.493,1,1,7745,3872
2647,1.0167e+08,2,-0.00014185,0.0037919,0.00093186,0.043816,0.2584,-9.8252,0,0,38.493,1,1,7745,3872
2651,1.0168e+08,2,-0.000182,0.0042141,0.00066765,0.045211,0.25665,-9.8258,0,0,38.493,1,1,7745,3872
2654,1.0168e+08,2,-0.00050211,0.0047731,0.0010817,0.046288,0.25705,-9.8244,0,0,38.493,1,1,7745,3872
2657,1.0168e+08,2,-0.00020325,0.0048416,0.00086831,0.04635,0.25752,-9.8219,0,0,38.494,1,1,7745,3872
2692,1.0168e+08,2,6.0792e-05,0.004057,0.0011549,0.045803,0.25818,-9.8183,0,0,38.494,1,1,7745,3872
2695,1.0169e+08,2,0.00068551,0.0033636,0.0010496,0.042828,0.26082,-9.8134,0,0,38.494,1,1,7745,3872
2698,1.0169e+08,2,0.00055634,0.0038585,0.0012051,0.041471,0.26197,-9.813,0,0,38.494,1,1,7745,3872
2701,1.0169e+08,2,-0.00023259,0.0047531,0.00063646,0.039547,0.265,-9.8139,0,0,38.494,1,1,7745,3872
2736,1.0169e+08,2,-0.0003791,0.0045365,-0.00023773,0.042872,0.26785,-9.8133,0,0,38.495,1,1,7745,3872
2740,1.017e+08,2,0.00018583,0.0039292,-0.00093866,0.046649,0.26857,-9.8141,0,0,38.495,1,1,7745,3872
2746,1.017e+08,2,0.00015991,0.0042813,-0.0015329,0.051525,0.26724,-9.8192,0,0,38.495,1,1,7745,3872
2750,1.017e+08,2,0.00052616,0.0039882,-0.0021084,0.052849,0.26558,-9.8227,0,0,38.495,1,1,7745,3872
2785,1.017e+08,2,0.0012864,0.0033655,-0.0013685,0.054661,0.26426,-9.8249,0,0,38.495,1,1,7745,3872
2789,1.0171e+08,2,0.00069113,0.0028656,0.00010459,0.056599,0.26452,-9.8251,0,0,38.496,1,1,7745,3872
2792,1.0171e+08,2,0.00066652,0.0026638,0.0010804,0.057879,0.2656,-9.8244,0,0,38.496,1,1,7745,3872
2795,1.0171e+08,2,0.0018282,0.0019875,0.0014519,0.05992,0.26843,-9.8214,0,0,38.496,1,1,7745,3872
2830,1.0171e+08,2,0.0022968,0.0012288,0.0012722,0.062231,0.2699,-9.8205,0,0,38.496,1,1,7745,3872
2833,1.0172e+08,2,0.0016837,0.0012851,0.00060967,0.062591,0.26971,-9.8201,0,0,38.496,1,1,7745,3872
2836,1.0172e+08,2,0.0012658,0.0012592,9.7489e-05,0.062346,0.26835,-9.8188,0,0,38.496,1,1,7745,3872
2839,1.0172e+08,2,0.001721,0.0012797,8.2539e-05,0.061824,0.26729,-9.8188,0,0,38.497,1,1,7745,3872
2874,1.0172e+08,2,0.0027828,0.0017438,-0.00062624,0.062254,0.26644,-9.8181,0,0,38.497,1,1,7745,3872
2880,1.0173e+08,2,0.0031285,0.0015659,-0.0009075,0.062066,0.26649,-9.8184,0,0,38.497,1,1,7745,3872
2883,1.0173e+08,2,0.0030275,0.0014144,-0.0016136,0.060405,0.26648,-9.8166,0,0,38.497,1,1,7745,3872
2886,1.0173e+08,2,0.0031385,0.0011741,-0.00032379,0.056915,0.26631,-9.809,0,0,38.497,1,1,7745,3872
2921,1.0173e+08,2,0.0032853,-0.00037108,0.00027607,0.052313,0.26549,-9.8027,0,0,38.498,1,1,7745,3872
2924,1.0174e+08,2,0.0030914,-0.0013736,0.00029334,0.050527,0.26493,-9.8011,0,0,38.498,1,1,7745,3872
2927,1.0174e+08,2,0.0037084,-0.0024345,0.0001991,0.052121,0.26401,-9.8,0,0,38.498,1,1,7745,3872
2930,1.0174e+08,2,0.004012,-0.0022749,0.00022394,0.05402,0.26229,-9.7995,0,0,38.498,1,1,7745,3872
2965,1.0175e+08,2,0.0036357,-0.0023111,0.00072829,0.054683,0.25771,-9.8013,0,0,38.498,1,1,7745,3872
2968,1.0175e+08,2,0.0025437,-0.0024551,0.00090342,0.054828,0.25557,-9.8027,0,0,38.498,1,1,7745,3872
2972,1.0175e+08,2,0.0024167,-0.0024158,0.00040979,0.055905,0.25409,-9.8044,0,0,38.498,1,1,7745,3872
2975,1.0175e+08,2,0.0022467,-0.0025448,0.00033165,0.056273,0.25322,-9.8065,0,0,38.499,1,1,7745,3872
3010,1.0176e+08,2,0.0013949,-0.0023297,0.00039546,0.05646,0.25238,-9.8074,0,0,38.499,1,1,7745,3872
3013,1.0176e+08,2,0.0008705,-0.0013917,0.00099168,0.057806,0.2526,-9.8082,0,0,38.499,1,1,7745,3872
3017,1.0176e+08,2,0.00083422,-0.0012903,0.00041503,0.05797,0.25517,-9.8082,0,0,38.499,1,1,7745,3872
3020,1.0176e+08,2,0.00052107,-0.0016342,-0.00024896,0.056448,0.25809,-9.8103,0,0,38.499,1,1,7745,3872
3055,1.0177e+08,2,0.00055498,-0.0014627,0.0009398,0.056005,0.25998,-9.8154,0,0,38.499,1,1,7745,3872
3058,1.0177e+08,2,0.00038395,-0.0010872,0.0013477,0.057311,0.26096,-9.8198,0,0,38.499,1,1,7745,3872
3061,1.0177e+08,2,-0.00061846,0.00013265,0.00054398,0.057346,0.2624,-9.8272,0,0,38.499,1,1,7745,3872
3065,1.0177e+08,2,-0.00084514,4.9953e-05,0.00062773,0.05658,0.26298,-9.8293,0,0,38.499,1,1,7745,3872
3100,1.0178e+08,2,-0.00019188,0.00023035,0.00037898,0.053258,0.2635,-9.8289,0,0,38.499,1,1,7745,3872
3103,1.0178e+08,2,0.00048917,8.7318e-05,-5.1941e-05,0.049197,0.26522,-9.83,0,0,38.499,1,1,7745,3872
3107,1.0178e+08,2,0.0001495,0.00034239,-0.00018982,0.048244,0.26553,-9.8315,0,0,38.5,1,1,7745,3872
3110,1.0178e+08,2,-0.000436,0.00064816,7.8757e-05,0.045577,0.26459,-9.8352,0,0,38.5,1,1,7745,3872
3147,1.0179e+08,2,-0.0010068,0.0010457,3.0387e-05,0.04313,0.26313,-9.8362,0,0,38.5,1,1,7745,3872
3150,1.0179e+08,2,-0.0010178,0.0011738,0.00015553,0.041992,0.26292,-9.8385,0,0,38.5,1,1,7745,3872
3153,1.0179e+08,2,-0.00081681,0.0012094,0.00074052,0.042429,0.26337,-9.8373,0,0,38.5,1,1,7745,3872
3156,1.0179e+08,2,0.00019132,0.0011886,0.0022013,0.045072,0.26324,-9.8321,0,0,38.5,1,1,7745,3872
3191,1.018e+08,2,-0.00014258,0.00083311,0.0020604,0.048517,0.26218,-9.8315,0,0,38.5,1,1,7745,3872
3194,1.018e+08,2,-0.00062494,0.00092529,0.0018153,0.051881,0.25936,-9.8322,0,0,38.5,1,1,7745,3872
3201,1.018e+08,2,-0.0015666,0.0011894,0.0018883,0.053001,0.25696,-9.8312,0,0,38.5,1,1,7745,3872
3205,1.018e+08,2,-0.0025482,0.0019651,0.0014174,0.05311,0.25305,-9.8262,0,0,38.5,1,1,7745,3872
3241,1.0181e+08,2,-0.0018547,0.002362,0.0011752,0.050376,0.25051,-9.8203,0,0,38.5,1,1,7745,3872
3244,1.0181e+08,2,-0.0020378,0.0025245,0.0015201,0.04833,0.25012,-9.8154,0,0,38.5,1,1,7745,3872
3248,1.0181e+08,2,-0.0022308,0.0018949,0.0015317,0.045722,0.25023,-9.8122,0,0,38.5,1,1,7745,3872
3251,1.0181e+08,2,-0.0021713,0.0014146,0.0015329,0.04304,0.2496,-9.8113,0,0,38.5,1,1,7745,3872
3286,1.0182e+08,2,-0.0020173,0.0016189,0.0016614,0.041875,0.24895,-9.81,0,0,38.5,1,1,7745,3872
3289,1.0182e+08,2,-0.0018322,0.0020861,0.0017115,0.042621,0.2486,-9.8099,0,0,38.5,1,1,7745,3872
3292,1.0182e+08,2,-0.0011358,0.0028503,0.0011466,0.044153,0.2491,-9.813,0,0,38.5,1,1,7745,3872
3295,1.0182e+08,2,-0.0012803,0.0022476,-1.5182e-05,0.044779,0.25094,-9.817,0,0,38.5,1,1,7745,3872
3330,1.0183e+08,2,-0.0029786,0.0014176,-0.00015935,0.045661,0.25382,-9.8211,0,0,38.5,1,1,7745,3872
3333,1.0183e+08,2,-0.0036184,0.001494,4.9163e-05,0.046808,0.25433,-9.8215,0,0,38.5,1,1,7745,3872
3338,1.0183e+08,2,-0.0041371,-2.1954e-05,-0.00031432,0.050499,0.25558,-9.8211,0,0,38.5,1,1,7745,3872
3341,1.0184e+08,2,-0.0038752,-0.00062159,-0.00065145,0.052678,0.25627,-9.8207,0,0,38.5,1,1,7745,3872
3376,1.0184e+08,2,-0.0025526,0.00022965,-0.00089048,0.055991,0.25541,-9.8185,0,0,38.5,1,1,7745,3872
3379,1.0184e+08,2,-0.0015604,-9.9984e-05,-0.0030211,0.059747,0.25258,-9.8159,0,0,38.5,1,1,7745,3872
3382,1.0184e+08,2,-0.001572,-0.00058846,-0.0031199,0.060383,0.25144,-9.813,0,0,38.499,1,1,7745,3872
3387,1.0185e+08,2,-0.0013068,-0.0011012,-0.0017678,0.060316,0.25115,-9.8109,0,0,38.499,1,1,7745,3872
3422,1.0186e+08,2,-0.00061963,-0.0013121,0.001767,0.053247,0.25966,-9.8117,0,0,38.499,1,1,7745,3872
3427,1.0186e+08,2,9.0405e-05,-7.6926e-05,0.0013442,0.050165,0.26381,-9.8134,0,0,38.499,1,1,7745,3872
3462,1.0186e+08,2,0.00011301,0.00017059,0.001241,0.049768,0.26783,-9.8133,0,0,38.499,1,1,7745,3872
3466,1.0186e+08,2,-0.00044685,-0.00077098,0.00031231,0.050006,0.27068,-9.8143,0,0,38.499,1,1,7745,3872
3469,1.0186e+08,2,-0.00048648,-0.001476,2.0157e-05,0.051015,0.26986,-9.8177,0,0,38.499,1,1,7745,3872
3473,1.0187e+08,2,-0.00031693,-0.0014957,0.00082454,0.053872,0.26739,-9.8241,0,0,38.499,1,1,7745,3872
3508,1.0187e+08,2,-0.00028673,-0.00098203,0.0019155,0.055352,0.2669,-9.8273,0,0,38.499,1,1,7745,3872
3511,1.0187e+08,2,-0.00010423,-2.5582e-05,0.001276,0.056831,0.26732,-9.8316,0,0,38.499,1,1,7745,3872
3514,1.0188e+08,2,0.00055496,-0.00063464,0.00086595,0.056401,0.26688,-9.8333,0,0,38.499,1,1,7745,3872
3517,1.0188e+08,2,0.00093227,-0.0020171,0.0015117,0.056087,0.26603,-9.8342,0,0,38.499,1,1,7745,3872
3552,1.0188e+08,2,0.00097231,-0.0021313,0.0018454,0.056972,0.26562,-9.8352,0,0,38.499,1,1,7745,3872
3555,1.0188e+08,2,0.0008867,-0.0025389,0.001124,0.057087,0.26556,-9.8369,0,0,38.499,1,1,7745,3872
3558,1.0189e+08,2,0.0009902,-0.0022792,0.0014437,0.056144,0.2645,-9.8378,0,0,38.499,1,1,7745,3872
3562,1.0189e+08,2,0.0017623,-0.0014293,0.0019737,0.055036,0.26142,-9.8367,0,0,38.499,1,1,7745,3872
3597,1.0189e+08,2,0.0026385,-0.0011518,0.0029808,0.054606,0.25839,-9.8341,0,0,38.499,1,1,7745,3872
3600,1.0189e+08,2,0.0023743,-0.0017415,0.0026183,0.054263,0.25716,-9.8325,0,0,38.499,1,1,7745,3872
3603,1.019e+08,2,0.0032419,-0.0019923,0.0018079,0.054062,0.25533,-9.8318,0,0,38.499,1,1,7745,3872
3607,1.019e+08,2,0.0038707,-0.0017694,0.0011413,0.053865,0.25356,-9.8298,0,0,38.499,1,1,7745,3872
3642,1.019e+08,2,0.0032401,-0.0011762,0.0017009,0.05198,0.25306,-9.8274,0,0,38.499,1,1,7745,3872
3645,1.019e+08,2,0.0026831,-0.00041608,0.0021233,0.050322,0.25428,-9.8281,0,0,38.499,1,1,7745,3872
3651,1.0191e+08,2,0.0019275,-0.00027807,0.0023986,0.047472,0.25498,-9.8269,0,0,38.499,1,1,7745,3872
3656,1.0191e+08,2,0.0019652,-0.00030805,0.0024221,0.045281,0.2551,-9.8254,0,0,38.499,1,1,7745,3872
3691,1.0191e+08,2,0.0025249,-0.00032388,0.0029385,0.042635,0.25561,-9.8241,0,0,38.499,1,1,7745,3872
3694,1.0191e+08,2,0.0021347,0.00072284,0.0031636,0.040865,0.25754,-9.8245,0,0,38.499,1,1,7745,3872
3697,1.0192e+08,2,0.0015669,0.0015729,0.0026375,0.038831,0.26028,-9.8252,0,0,38.499,1,1,7745,3872
3701,1.0192e+08,2,0.0014645,0.0018947,0.00092224,0.037082,0.26446,-9.8241,0,0,38.499,1,1,7745,3872
3736,1.0192e+08,2,0.0016807,0.002321,0.0012526,0.037293,0.26636,-9.8206,0,0,38.498,1,1,7745,3872
3739,1.0192e+08,2,0.0013602,0.0024871,0.0012159,0.038101,0.26611,-9.8199,0,0,38.498,1,1,7745,3872
3742,1.0193e+08,2,0.0014682,0.0025837,0.00087553,0.040245,0.26481,-9.8171,0,0,38.498,1,1,7745,3872
3745,1.0193e+08,2,0.0017697,0.0030722,0.00086239,0.042303,0.26092,-9.8137,0,0,38.498,1,1,7745,3872
3780,1.0193e+08,2,0.0013594,0.0034282,0.00070433,0.043849,0.25691,-9.8112,0,0,38.498,1,1,7745,3872
3783,1.0193e+08,2,0.00019423,0.00268,0.0023129,0.045661,0.25351,-9.8141,0,0,38.498,1,1,7745,3872
3790,1.0194e+08,2,0.00019118,0.0027175,0.002056,0.046423,0.25325,-9.8145,0,0,38.498,1,1,7745,3872
3794,1.0194e+08,2,0.0005772,0.002893,0.0019639,0.048185,0.251,-9.8141,0,0,38.498,1,1,7745,3872
3829,1.0194e+08,2,-0.00013632,0.0035003,0.0012791,0.048516,0.25024,-9.8169,0,0,38.498,1,1,7745,3872
3832,1.0195e+08,2,-0.00037813,0.0041256,0.0005614,0.048114,0.24967,-9.818,0,0,38.498,1,1,7745,3872
3835,1.0195e+08,2,-0.00064465,0.0031136,-0.00056029,0.048234,0.24917,-9.8199,0,0,38.498,1,1,7745,3872
3838,1.0195e+08,2,-0.00054612,0.0023795,-0.00084809,0.04873,0.24854,-9.8204,0,0,38.498,1,1,7745,3872
3841,1.0195e+08,2,-0.00026653,0.0021724,-0.0012611,0.050499,0.24908,-9.8198,0,0,38.498,1,1,7745,3872
3876,1.0196e+08,2,-2.2889e-05,0.0014472,-0.0012033,0.051846,0.25231,-9.817,0,0,38.498,1,1,7745,3872
3879,1.0196e+08,2,-0.00051483,0.0006797,-0.00093463,0.053088,0.25508,-9.8162,0,0,38.498,1,1,7745,3872
3883,1.0196e+08,2,-0.00057843,-0.00011268,-9.9349e-05,0.053438,0.25662,-9.8154,0,0,38.498,1,1,7745,3872
3886,1.0196e+08,2,-0.00064777,-0.00068552,0.0010413,0.05372,0.25747,-9.8138,0,0,38.498,1,1,7745,3872
3921,1.0197e+08,2,-0.0010714,-0.00021752,0.00064566,0.055431,0.25822,-9.8073,0,0,38.498,1,1,7745,3872
3924,1.0197e+08,2,-0.0021784,-0.00032967,-0.00066143,0.05692,0.25854,-9.8078,0,0,38.498,1,1,7745,3872
3927,1.0197e+08,2,-0.0027755,-0.00077175,-0.00067903,0.057829,0.25883,-9.8091,0,0,38.498,1,1,7745,3872
3930,1.0197e+08,2,-0.0021946,-0.0015148,-9.9232e-05,0.058022,0.2594,-9.8088,0,0,38.497,1,1,7745,3872
3965,1.0198e+08,2,-0.0010605,-0.001868,0.00041382,0.058379,0.26208,-9.8051,0,0,38.497,1,1,7745,3872
3968,1.0198e+08,2,-0.0007128,-0.0016954,0.00073836,0.056862,0.26737,-9.8037,0,0,38.497,1,1,7745,3872
3973,1.0198e+08,2,-0.00064387,-0.0012086,0.00056232,0.055214,0.26971,-9.8042,0,0,38.497,1,1,7745,3872
3976,1.0198e+08,2,-0.0011302,-0.00095874,0.00071359,0.054783,0.26947,-9.8035,0,0,38.497,1,1,7745,3872
4011,1.0199e+08,2,-0.0021297,-0.0008386,0.0005787,0.054416,0.26778,-9.8009,0,0,38.497,1,1,7745,3872
4014,1.0199e+08,2,-0.0025896,-0.0016201,5.9337e-05,0.052793,0.26487,-9.8019,0,0,38.497,1,1,7745,3872
4020,1.0199e+08,2,-0.0027518,-0.00191,-0.00038898,0.051441,0.26338,-9.8058,0,0,38.497,1,1,7745,3872
4023,1.0199e+08,2,-0.0024704,-0.0012048,-0.00055686,0.050764,0.26045,-9.8132,0,0,38.497,1,1,7745,3872
4058,1.02e+08,2,-0.0022605,-0.00062591,-0.00020585,0.051486,0.25816,-9.8226,0,0,38.497,1,1,7745,3872
4061,1.02e+08,2,-0.0022492,-0.0010505,6.3973e-05,0.05204,0.25768,-9.8256,0,0,38.497,1,1,7745,3872
4064,1.02e+08,2,-0.0026045,-0.0017513,0.00068277,0.053014,0.25717,-9.8304,0,0,38.497,1,1,7745,3872
4067,1.02e+08,2,-0.0023757,-0.00091768,0.0012251,0.053101,0.25605,-9.8325,0,0,38.497,1,1,7745,3872
4104,1.0201e+08,2,-0.0029347,-0.0014686,0.0011793,0.054392,0.25549,-9.8278,0,0,38.497,1,1,7745,3872
4110,1.0201e+08,2,-0.0030821,-0.0018273,0.0011192,0.0549,0.25587,-9.8221,0,0,38.497,1,1,7745,3872
4115,1.0201e+08,2,-0.0022999,-0.0010704,0.0001907,0.055309,0.25786,-9.8156,0,0,38.497,1,1,7745,3872
4118,1.0201e+08,2,-0.00077163,0.0003769,-0.0013388,0.05514,0.26276,-9.8106,0,0,38.497,1,1,7745,3872
4153,1.0202e+08,2,-0.00068374,0.0015181,-0.00082358,0.05477,0.26519,-9.8108,0,0,38.497,1,1,7745,3872
4156,1.0202e+08,2,-0.00019251,0.0019249,0.00096337,0.053758,0.26751,-9.8149,0,0,38.497,1,1,7745,3872
4159,1.0202e+08,2,0.00021875,0.0015354,0.0021261,0.052742,0.26749,-9.8163,0,0,38.497,1,1,7745,3872
4162,1.0202e+08,2,-1.1442e-05,-0.00010769,0.0022321,0.052371,0.26752,-9.8145,0,0,38.497,1,1,7745,3872
4197,1.0203e+08,2,-0.00012152,-0.00059636,0.0018511,0.052649,0.26951,-9.8141,0,0,38.497,1,1,7745,3872
4200,1.0203e+08,2,-0.00027323,2.0037e-05,0.0015503,0.05438,0.27281,-9.8144,0,0,38.497,1,1,7745,3872
4204,1.0203e+08,2,-0.00015142,0.0004172,0.0016933,0.054777,0.27403,-9.8148,0,0,38.497,1,1,7745,3872
4207,1.0203e+08,2,-5.7621e-05,0.0021523,0.0022504,0.055084,0.27693,-9.8185,0,0,38.497,1,1,7745,3872
4242,1.0204e+08,2,-0.00031551,0.0020868,0.002257,0.055451,0.27666,-9.8218,0,0,38.497,1,1,7745,3872
4245,1.0204e+08,2,-0.0003981,0.0010625,0.0011589,0.054779,0.27236,-9.8226,0,0,38.496,1,1,7745,3872
4249,1.0204e+08,2,-7.8306e-05,0.0010953,-3.5329e-05,0.052572,0.26847,-9.8222,0,0,38.496,1,1,7745,3872
4252,1.0204e+08,2,-0.00019253,0.0017287,-0.0011354,0.048838,0.26635,-9.8194,0,0,38.496,1,1,7745,3872
4287,1.0205e+08,2,0.00017103,0.00177,-0.00084902,0.045931,0.2666,-9.8176,0,0,38.496,1,1,7745,3872
4290,1.0205e+08,2,0.00084387,0.0014355,-0.00067784,0.043576,0.26715,-9.82,0,0,38.496,1,1,7745,3872
4296,1.0205e+08,2,0.0019686,0.0017483,0.00032605,0.041757,0.2693,-9.8258,0,0,38.496,1,1,7745,3872
4299,1.0206e+08,2,0.0023639,0.0016899,0.0013268,0.042337,0.27064,-9.8276,0,0,38.496,1,1,7745,3872
4334,1.0206e+08,2,0.0033229,0.0012821,0.0017928,0.044411,0.27126,-9.8276,0,0,38.496,1,1,7745,3872
4337,1.0207e+08,2,0.00088983,0.0014487,0.0014864,0.049283,0.26268,-9.8279,0,0,38.496,1,1,7745,3872
4373,1.0207e+08,2,0.00057492,0.0009378,0.0016192,0.050402,0.25945,-9.824,0,0,38.496,1,1,7745,3872
4376,1.0207e+08,2,0.00097254,0.00080827,0.0018227,0.050782,0.25777,-9.8219,0,0,38.496,1,1,7745,3872
4379,1.0208e+08,2,0.0015788,0.00020201,0.0024014,0.051798,0.25565,-9.8187,0,0,38.496,1,1,7745,3872
4382,1.0208e+08,2,0.001649,-8.7548e-05,0.0024683,0.052036,0.25404,-9.8164,0,0,38.496,1,1,7745,3872
4417,1.0208e+08,2,0.0017815,0.00026744,0.0030906,0.05337,0.25211,-9.8166,0,0,38.496,1,1,7745,3872
4421,1.0208e+08,2,0.0014917,0.00032697,0.003319,0.057635,0.25328,-9.8166,0,0,38.496,1,1,7745,3872
4424,1.0209e+08,2,0.0010392,-5.6335e-05,0.0029956,0.059291,0.25575,-9.8135,0,0,38.496,1,1,7745,3872
4427,1.0209e+08,2,0.0014353,1.6758e-05,0.002985,0.059676,0.25933,-9.8113,0,0,38.496,1,1,7745,3872
4462,1.0209e+08,2,0.0016027,0.00013791,0.0022256,0.059289,0.26072,-9.8108,0,0,38.496,1,1,7745,3872
4465,1.0209e+08,2,0.0013548,-0.00097108,0.0011227,0.059697,0.26037,-9.8112,0,0,38.497,1,1,7745,3872
4468,1.021e+08,2,0.0013841,-0.0011799,0.00033986,0.060627,0.25984,-9.8124,0,0,38.497,1,1,7745,3872
4471,1.021e+08,2,0.0016112,-0.0010079,-0.00010653,0.060168,0.25766,-9.8144,0,0,38.497,1,1,7745,3872
4506,1.021e+08,2,0.0015298,-0.000572,-0.00023911,0.057783,0.25358,-9.8144,0,0,38.497,1,1,7745,3872
4510,1.021e+08,2,0.0013602,-0.00032249,0.0002013,0.055414,0.25059,-9.8129,0,0,38.497,1,1,7745,3872
4513,1.0211e+08,2,0.0014979,5.9515e-05,0.0011061,0.054575,0.24903,-9.8112,0,0,38.497,1,1,7745,3872
4516,1.0211e+08,2,0.0015494,0.00072277,0.0020002,0.054699,0.24845,-9.8118,0,0,38.497,1,1,7745,3872
4551,1.0211e+08,2,0.0014008,-0.00062348,0.0017585,0.053566,0.24747,-9.8124,0,0,38.497,1,1,7745,3872
4557,1.0211e+08,2,0.0011965,-0.0010896,0.0018981,0.053755,0.24827,-9.8088,0,0,38.497,1,1,7745,3872
4562,1.0212e+08,2,0.00084869,-0.0011909,0.0016352,0.054481,0.24878,-9.8077,0,0,38.498,1,1,7745,3872
4565,1.0212e+08,2,0.00090049,-0.00072095,0.001705,0.055553,0.24809,-9.8094,0,0,38.498,1,1,7745,3872
4600,1.0212e+08,2,0.0010978,-0.00065931,0.0012724,0.055813,0.24679,-9.8103,0,0,38.498,1,1,7745,3872
4604,1.0212e+08,2,0.0006274,0.00014942,0.0010245,0.055576,0.24503,-9.8114,0,0,38.498,1,1,7745,3872
4607,1.0213e+08,2,0.00096308,0.00046532,0.0018741,0.054544,0.24333,-9.8136,0,0,38.498,1,1,7745,3872
4610,1.0213e+08,2,0.0014524,0.00058286,0.0028795,0.052654,0.24226,-9.8162,0,0,38.498,1,1,7745,3872
4645,1.0213e+08,2,0.001835,-0.00040703,0.0029805,0.051879,0.24227,-9.8155,0,0,38.498,1,1,7745,3872
4649,1.0213e+08,2,0.001615,-0.00097016,0.0014287,0.050833,0.24208,-9.8108,0,0,38.498,1,1,7745,3872
4652,1.0214e+08,2,0.00070343,-0.00099861,0.0011074,0.049704,0.24246,-9.8099,0,0,38.498,1,1,7745,3872
4655,1.0214e+08,2,-0.00078,-0.00027815,0.0010279,0.047954,0.24313,-9.8127,0,0,38.498,1,1,7745,3872
4690,1.0214e+08,2,-0.0010873,0.00025141,0.00042521,0.046326,0.24408,-9.8157,0,0,38.499,1,1,7745,3872
4693,1.0214e+08,2,-0.0012096,1.1606e-05,0.00087466,0.043856,0.24664,-9.8191,0,0,38.499,1,1,7745,3872
4696,1.0215e+08,2,-0.0017177,7.2004e-05,0.00082367,0.042375,0.24893,-9.8211,0,0,38.499,1,1,7745,3872
4699,1.0215e+08,2,-0.0021787,0.00076903,0.0014122,0.040886,0.25284,-9.8231,0,0,38.499,1,1,7745,3872
4734,1.0215e+08,2,-0.0019521,0.00037937,0.0014391,0.039087,0.25546,-9.827,0,0,38.499,1,1,7745,3872
4739,1.0215e+08,2,-0.0018508,-0.00059159,0.0014625,0.038073,0.25545,-9.8269,0,0,38.499,1,1,7745,3872
4742,1.0216e+08,2,-0.00043842,-0.0018753,0.002065,0.037943,0.25444,-9.8245,0,0,38.499,1,1,7745,3872
4745,1.0216e+08,2,9.5974e-05,-0.0016035,0.0020079,0.039431,0.25311,-9.8216,0,0,38.499,1,1,7745,3872
4748,1.0216e+08,2,0.00052864,-0.0009417,0.0016971,0.043341,0.25211,-9.813,0,0,38.499,1,1,7745,3872
4783,1.0216e+08,2,0.0011006,-0.00048704,0.0013921,0.046665,0.25241,-9.8034,0,0,38.499,1,1,7745,3872
4786,1.0217e+08,2,0.0012708,0.00019921,0.00057018,0.045879,0.2545,-9.7996,0,0,38.499,1,1,7745,3872
4789,1.0217e+08,2,0.00021983,0.0010831,0.00066393,0.043782,0.25733,-9.7997,0,0,38.499,1,1,7745,3872
4792,1.0217e+08,2,-0.00073776,0.0020992,0.0007094,0.039312,0.26061,-9.8034,0,0,38.499,1,1,7745,3872
4827,1.0218e+08,2,-0.00076858,0.0024305,0.0010588,0.035148,0.26358,-9.8105,0,0,38.5,1,1,7745,3872
4831,1.0218e+08,2,-0.00019187,0.0026942,0.0012926,0.032469,0.26643,-9.8149,0,0,38.5,1,1,7745,3872
4835,1.0218e+08,2,-7.3398e-06,0.0027298,0.00089515,0.0313,0.26777,-9.8172,0,0,38.5,1,1,7745,3872
4838,1.0218e+08,2,-0.0010882,0.0023252,0.00023484,0.032035,0.26913,-9.8219,0,0,38.5,1,1,7745,3872
4873,1.0219e+08,2,-0.0018346,0.0019064,0.00045501,0.035595,0.26822,-9.8275,0,0,38.5,1,1,7745,3872
4877,1.0219e+08,2,-0.001217,0.0015082,0.00074296,0.036955,0.26742,-9.829,0,0,38.5,1,1,7745,3872
4880,1.0219e+08,2,-0.00057022,0.0012034,0.00095852,0.040947,0.26453,-9.8332,0,0,38.501,1,1,7745,3872
4883,1.0219e+08,2,-8.0653e-05,0.000879,0.0010576,0.043013,0.2623,-9.8345,0,0,38.501,1,1,7745,3872
4918,1.022e+08,2,-0.00048553,0.0016473,0.001401,0.048166,0.25736,-9.8343,0,0,38.501,1,1,7745,3872
4921,1.022e+08,2,-0.0008265,0.0022077,0.002065,0.054464,0.25326,-9.832,0,0,38.501,1,1,7745,3872
4924,1.022e+08,2,-0.0013408,0.0021673,0.0021013,0.057426,0.25265,-9.8296,0,0,38.501,1,1,7745,3872
4928,1.022e+08,2,-0.0019734,0.00096379,0.0022592,0.058773,0.2533,-9.8254,0,0,38.501,1,1,7745,3872
4963,1.0221e+08,2,-0.00050053,0.0016396,0.0015528,0.057865,0.25259,-9.8212,0,0,38.501,1,1,7745,3872
4967,1.0221e+08,2,0.0001896,0.0019463,0.001175,0.056394,0.25276,-9.8216,0,0,38.501,1,1,7745,3872
4970,1.0221e+08,2,0.00036155,0.0017955,0.0013202,0.055306,0.25312,-9.8223,0,0,38.501,1,1,7745,3872
4973,1.0221e+08,2,0.0009333,0.0019396,0.0020311,0.054867,0.25233,-9.8244,0,0,38.501,1,1,7745,3872
5011,1.0222e+08,2,0.0013337,0.0018212,0.0022777,0.05494,0.2501,-9.8297,0,0,38.502,1,1,7745,3872
5015,1.0222e+08,2,0.001601,0.0014066,0.0018909,0.054997,0.25004,-9.8313,0,0,38.502,1,1,7745,3872
5018,1.0222e+08,2,0.0023354,0.00097726,0.0018746,0.05415,0.25076,-9.8329,0,0,38.502,1,1,7745,3872
5021,1.0222e+08,2,0.0024699,0.00047999,0.0023758,0.052201,0.25326,-9.8332,0,0,38.502,1,1,7745,3872
5056,1.0223e+08,2,0.0025816,0.00048834,0.00092949,0.05215,0.25697,-9.8323,0,0,38.502,1,1,7745,3872
5060,1.0223e+08,2,0.0022155,0.00040263,0.0003266,0.052628,0.25973,-9.83,0,0,38.502,1,1,7745,3872
5064,1.0223e+08,2,0.0012158,-1.9064e-05,0.00016732,0.052543,0.26162,-9.8263,0,0,38.502,1,1,7745,3872
5067,1.0223e+08,2,-0.00030122,-4.018e-05,0.0012551,0.052161,0.2626,-9.8205,0,0,38.502,1,1,7745,3872
5102,1.0224e+08,2,-0.0010058,0.00033271,0.0016723,0.051831,0.26187,-9.8184,0,0,38.502,1,1,7745,3872
5108,1.0224e+08,2,-0.00078424,0.00041376,0.0017783,0.050517,0.26248,-9.8156,0,0,38.502,1,1,7745,3872
5111,1.0224e+08,2,-5.91e-05,0.00040573,0.0016996,0.047468,0.2623,-9.8097,0,0,38.502,1,1,7745,3872
5114,1.0225e+08,2,0.00048474,-2.6901e-05,0.0024389,0.051603,0.25357,-9.8017,0,0,38.503,1,1,7745,3872
5149,1.0225e+08,2,0.0003093,0.00062169,0.0021717,0.053541,0.25074,-9.7993,0,0,38.503,1,1,7745,3872
5153,1.0226e+08,2,0.0011827,0.00048406,0.0019433,0.05322,0.24853,-9.7987,0,0,38.503,1,1,7745,3872
5156,1.0226e+08,2,0.0011528,0.00059664,0.0016483,0.052509,0.24768,-9.7985,0,0,38.503,1,1,7745,3872
5159,1.0226e+08,2,0.00072931,0.0013621,0.0014041,0.053984,0.24838,-9.8005,0,0,38.503,1,1,7745,3872
5194,1.0226e+08,2,0.00056229,0.0008419,0.0013983,0.057291,0.25107,-9.8028,0,0,38.503,1,1,7745,3872
5197,1.0227e+08,2,0.00015364,0.00040336,0.0015257,0.060325,0.25311,-9.8049,0,0,38.503,1,1,7745,3872
5201,1.0227e+08,2,-0.00037267,0.00033416,0.0011054,0.064153,0.25454,-9.8077,0,0,38.503,1,1,7745,3872
5204,1.0227e+08,2,-0.0019746,0.00034877,0.00094337,0.06871,0.25487,-9.8143,0,0,38.503,1,1,7745,3872
5239,1.0227e+08,2,-0.0015525,-0.00020634,0.0010548,0.069633,0.25568,-9.8225,0,0,38.503,1,1,7745,3872
5243,1.0228e+08,2,-0.0010617,-0.00032077,0.0019543,0.069208,0.25628,-9.8264,0,0,38.503,1,1,7745,3872
5246,1.0228e+08,2,-0.00054071,0.00128,0.0027359,0.06755,0.25724,-9.8293,0,0,38.504,1,1,7745,3872
5249,1.0228e+08,2,-0.00034367,0.0022174,0.0026892,0.067309,0.25738,-9.8292,0,0,38.504,1,1,7745,3872
5284,1.0229e+08,2,-0.00080702,0.0021793,0.0022262,0.06769,0.25823,-9.8289,0,0,38.504,1,1,7745,3872
5287,1.0229e+08,2,-0.00099955,0.0023058,0.0010537,0.068487,0.2592,-9.8258,0,0,38.504,1,1,7745,3872
5291,1.0229e+08,2,-0.00041199,0.0018516,0.0006417,0.068626,0.25787,-9.8225,0,0,38.504,1,1,7745,3872
5294,1.0229e+08,2,8.6106e-05,0.00077979,0.0011396,0.069535,0.25556,-9.8205,0,0,38.504,1,1,7745,3872
5329,1.023e+08,2,0.00029861,0.00042866,0.0015058,0.07137,0.25498,-9.8212,0,0,38.504,1,1,7745,3872
5333,1.023e+08,2,-0.00013055,0.00091078,0.0013978,0.071827,0.25405,-9.8206,0,0,38.504,1,1,7745,3872
5336,1.023e+08,2,-0.00016857,0.00097309,0.00162,0.070769,0.2533,-9.8174,0,0,38.504,1,1,7745,3872
5339,1.023e+08,2,-0.0001156,0.0012819,0.00052815,0.068185,0.25256,-9.8104,0,0,38.505,1,1,7745,3872
5374,1.0231e+08,2,-8.3334e-06,0.00087937,-0.00030148,0.066306,0.2531,-9.8053,0,0,38.505,1,1,7745,3872
5377,1.0231e+08,2,5.6106e-05,0.0012153,0.00048654,0.063344,0.25593,-9.8027,0,0,38.505,1,1,7745,3872
5380,1.0231e+08,2,-4.5003e-06,0.0017138,0.00030539,0.062306,0.25742,-9.8048,0,0,38.505,1,1,7745,3872
5383,1.0231e+08,2,-9.1334e-05,0.0016106,-4.6078e-05,0.06106,0.25809,-9.8091,0,0,38.505,1,1,7745,3872
5418,1.0231e+08,2,-0.00065931,0.0010764,-1.0769e-05,0.060103,0.25823,-9.8144,0,0,38.505,1,1,7745,3872
5422,1.0232e+08,2,-0.00012146,0.0011887,7.8368e-05,0.058589,0.25723,-9.8207,0,0,38.505,1,1,7745,3872
5428,1.0232e+08,2,0.00052418,0.0014026,0.00022859,0.057645,0.25592,-9.8249,0,0,38.505,1,1,7745,3872
5432,1.0232e+08,2,-0.00019939,0.0010643,0.00093541,0.055293,0.25469,-9.8316,0,0,38.506,1,1,7745,3872
5467,1.0233e+08,2,-0.0011463,0.0011709,6.8061e-05,0.051484,0.25407,-9.8376,0,0,38.506,1,1,7745,3872
5470,1.0233e+08,2,-0.00044642,0.0016007,0.00024695,0.049893,0.25415,-9.8389,0,0,38.506,1,1,7745,3872
5473,1.0233e+08,2,0.0008614,0.002313,-0.00055343,0.047177,0.25464,-9.8361,0,0,38.506,1,1,7745,3872
5476,1.0233e+08,2,0.0016306,0.0016563,-0.00099331,0.046128,0.2542,-9.833,0,0,38.506,1,1,7745,3872
5511,1.0234e+08,2,0.0019745,4.9535e-05,-0.0021173,0.047827,0.2504,-9.8262,0,0,38.506,1,1,7745,3872
5515,1.0234e+08,2,0.0018902,-0.00011197,-0.0028975,0.050036,0.24878,-9.8239,0,0,38.506,1,1,7745,3872
5518,1.0234e+08,2,0.0015282,-0.00029888,-0.0026095,0.052222,0.2478,-9.8211,0,0,38.506,1,1,7745,3872
5521,1.0234e+08,2,0.0010503,-0.00020175,-0.0020375,0.054901,0.24773,-9.818,0,0,38.507,1,1,7745,3872
5556,1.0235e+08,2,0.0013456,-0.00020179,-0.0023967,0.055974,0.24849,-9.8163,0,0,38.507,1,1,7745,3872
5560,1.0235e+08,2,0.0013866,-0.00016644,-0.002444,0.055701,0.24972,-9.8148,0,0,38.507,1,1,7745,3872
5563,1.0235e+08,2,0.0019832,0.0009015,-0.0017275,0.054337,0.25097,-9.8117,0,0,38.507,1,1,7745,3872
5566,1.0235e+08,2,0.0020248,0.00090086,-0.00048256,0.053178,0.25121,-9.8086,0,0,38.507,1,1,7745,3872
5601,1.0236e+08,2,0.0021244,-3.9478e-05,0.00024769,0.052008,0.25141,-9.8035,0,0,38.507,1,1,7745,3872
5604,1.0236e+08,2,0.0012876,0.00047708,0.0014925,0.051892,0.25365,-9.8004,0,0,38.507,1,1,7745,3872
5607,1.0236e+08,2,0.0011941,7.5433e-05,0.0018766,0.051568,0.25483,-9.7987,0,0,38.507,1,1,7745,3872
5610,1.0236e+08,2,0.0012388,-5.5308e-05,0.002334,0.050288,0.2554,-9.7973,0,0,38.507,1,1,7745,3872
5645,1.0237e+08,2,0.0013424,0.0003808,0.0024323,0.049814,0.25508,-9.7969,0,0,38.507,1,1,7745,3872
5650,1.0237e+08,2,0.0015907,0.00051848,0.0031802,0.050543,0.25552,-9.7978,0,0,38.507,1,1,7745,3872
5653,1.0237e+08,2,0.0021642,0.00015052,0.0031307,0.051091,0.25655,-9.7998,0,0,38.508,1,1,7745,3872
5656,1.0237e+08,2,0.0023175,0.00018347,0.0017326,0.050697,0.25721,-9.8058,0,0,38.508,1,1,7745,3872
5691,1.0238e+08,2,0.0017072,-7.5043e-05,0.0013313,0.050803,0.25779,-9.8075,0,0,38.508,1,1,7745,3872
5694,1.0238e+08,2,0.0013809,-0.00053341,0.00036979,0.052545,0.26126,-9.8093,0,0,38.508,1,1,7745,3872
5697,1.0238e+08,2,0.00128,-0.00042611,0.00021521,0.053885,0.26254,-9.8084,0,0,38.508,1,1,7745,3872
5700,1.0238e+08,2,0.0008089,-0.00028767,0.00014527,0.055777,0.26252,-9.8093,0,0,38.508,1,1,7745,3872
5735,1.0239e+08,2,0.00084682,-0.00049523,0.0024158,0.054936,0.26238,-9.8139,0,0,38.508,1,1,7745,3872
5739,1.0239e+08,2,0.001295,-0.00045083,0.0041034,0.054692,0.2628,-9.815,0,0,38.508,1,1,7745,3872
5742,1.0239e+08,2,0.001422,-0.001009,0.0039545,0.054648,0.2622,-9.8141,0,0,38.508,1,1,7745,3872
5745,1.024e+08,2,0.0014831,-0.0013244,0.0026595,0.05591,0.25989,-9.8125,0,0,38.508,1,1,7745,3872
5780,1.024e+08,2,0.0016099,-0.00083314,0.0021623,0.056393,0.25764,-9.8076,0,0,38.509,1,1,7745,3872
5783,1.024e+08,2,0.0013379,-0.00040126,0.0019935,0.054546,0.25736,-9.8013,0,0,38.509,1,1,7745,3872
5786,1.024e+08,2,0.0014275,-0.0003645,0.0013642,0.053715,0.25756,-9.8021,0,0,38.509,1,1,7745,3872
5789,1.0241e+08,2,0.0017683,0.00017832,0.0011059,0.052373,0.25751,-9.8074,0,0,38.509,1,1,7745,3872
5824,1.0241e+08,2,0.0012537,0.0011963,0.0017818,0.051586,0.25654,-9.8105,0,0,38.509,1,1,7745,3872
5828,1.0241e+08,2,0.00072136,0.0010289,0.0018987,0.051043,0.2558,-9.8131,0,0,38.509,1,1,7745,3872
5831,1.0241e+08,2,0.00049427,0.00084392,0.0017417,0.049952,0.25587,-9.8157,0,0,38.509,1,1,7745,3872
5834,1.0242e+08,2,0.00071875,0.00066523,0.0010285,0.048144,0.25591,-9.8168,0,0,38.509,1,1,7745,3872
5869,1.0242e+08,2,0.0012753,0.00070526,0.00081262,0.047006,0.25632,-9.8195,0,0,38.509,1,1,7745,3872
5873,1.0242e+08,2,0.0020286,0.00050643,0.0013151,0.046358,0.25881,-9.8247,0,0,38.509,1,1,7745,3872
5879,1.0242e+08,2,0.0023353,0.00092895,0.0014487,0.046397,0.26158,-9.8268,0,0,38.51,1,1,7745,3872
5883,1.0243e+08,2,0.0022743,0.00076271,0.0020317,0.046424,0.26291,-9.832,0,0,38.51,1,1,7745,3872
5918,1.0243e+08,2,0.00099946,0.00088836,0.0022981,0.045836,0.26184,-9.836,0,0,38.51,1,1,7745,3872
5921,1.0243e+08,2,-0.00015771,0.00050927,0.0014272,0.045415,0.26178,-9.8376,0,0,38.51,1,1,7745,3872
5924,1.0243e+08,2,-0.0011971,0.00020172,0.001128,0.044763,0.26192,-9.8377,0,0,38.51,1,1,7745,3872
5927,1.0244e+08,2,-0.001846,0.0010578,0.00034116,0.042504,0.26099,-9.8375,0,0,38.51,1,1,7745,3872
5962,1.0244e+08,2,-0.0020301,0.0013485,-0.00013471,0.04166,0.26021,-9.8374,0,0,38.51,1,1,7745,3872
5966,1.0244e+08,2,-0.0020659,0.0016977,-0.00022714,0.039494,0.25943,-9.8375,0,0,38.51,1,1,7745,3872
5969,1.0244e+08,2,-0.0018493,0.0022773,-0.00018662,0.039163,0.26024,-9.8386,0,0,38.511,1,1,7745,3872
5974,1.0245e+08,2,-0.0015644,0.0026658,0.00045681,0.039974,0.26041,-9.8395,0,0,38.511,1,1,7745,3872
6009,1.0245e+08,2,-0.002077,0.002176,0.0018588,0.046936,0.26257,-9.835,0,0,38.511,1,1,7745,3872
6012,1.0245e+08,2,-0.0016735,0.0016773,0.0013893,0.050817,0.26123,-9.8344,0,0,38.511,1,1,7745,3872
6015,1.0246e+08,2,-0.0018331,-0.00099417,0.0018025,0.055427,0.25502,-9.8276,0,0,38.511,1,1,7745,3872
6048,1.0246e+08,2,-0.0013138,-0.00073167,0.0015239,0.057694,0.25118,-9.8188,0,0,38.512,1,1,7745,3872
6052,1.0247e+08,2,-0.001937,-0.0004142,0.001623,0.057487,0.24719,-9.8112,0,0,38.512,1,1,7745,3872
6055,1.0247e+08,2,-0.0030674,-0.00038693,0.0019377,0.057154,0.24576,-9.8078,0,0,38.512,1,1,7745,3872
6058,1.0247e+08,2,-0.0030493,0.0001562,0.0018615,0.056579,0.24492,-9.8048,0,0,38.512,1,1,7745,3872
6091,1.0247e+08,2,-0.0023718,0.00047239,0.0019478,0.056581,0.24451,-9.8024,0,0,38.512,1,1,7745,3872
6094,1.0248e+08,2,-0.00067298,0.0015464,0.001069,0.057832,0.24499,-9.7998,0,0,38.512,1,1,7745,3872
6098,1.0248e+08,2,-0.00048826,0.0017645,-0.0001479,0.058448,0.24612,-9.7972,0,0,38.512,1,1,7745,3872
6101,1.0248e+08,2,-0.00069731,0.001519,-0.00069763,0.057942,0.24953,-9.7949,0,0,38.512,1,1,7745,3872
6134,1.0248e+08,2,-0.00044733,0.0011825,-0.0010338,0.056775,0.25296,-9.7942,0,0,38.513,1,1,7745,3872
6138,1.0249e+08,2,0.00070281,-0.00015298,-0.0010791,0.055346,0.2578,-9.7933,0,0,38.513,1,1,7745,3872
6141,1.0249e+08,2,0.00059009,-2.1326e-05,-0.00089324,0.054752,0.26057,-9.793,0,0,38.513,1,1,7745,3872
6144,1.0249e+08,2,0.00027779,0.00041812,-0.00099549,0.054853,0.26168,-9.7946,0,0,38.513,1,1,7745,3872
6177,1.0249e+08,2,0.0010283,0.00085194,-0.0010998,0.054718,0.26126,-9.7975,0,0,38.513,1,1,7745,3872
6181,1.025e+08,2,0.0016208,0.0017803,-0.00024915,0.054865,0.26011,-9.8006,0,0,38.513,1,1,7745,3872
6184,1.025e+08,2,0.0016635,0.003472,0.00040008,0.054423,0.25706,-9.8038,0,0,38.513,1,1,7745,3872
6187,1.025e+08,2,0.001438,0.0030065,0.00032234,0.054087,0.25558,-9.8058,0,0,38.513,1,1,7745,3872
6222,1.025e+08,2,0.0016092,0.0014048,-0.00074853,0.052662,0.25395,-9.8096,0,0,38.514,1,1,7745,3872
6226,1.0251e+08,2,0.0019793,0.0013242,-0.0010606,0.050732,0.25277,-9.8137,0,0,38.514,1,1,7745,3872
6229,1.0251e+08,2,0.0021743,0.0013287,-0.001063,0.048558,0.25183,-9.8216,0,0,38.514,1,1,7745,3872
6232,1.0251e+08,2,0.0020968,0.0014989,-0.00043125,0.049103,0.25223,-9.8263,0,0,38.514,1,1,7745,3872
6265,1.0251e+08,2,0.0035587,0.0023004,0.00022933,0.050491,0.25461,-9.8328,0,0,38.514,1,1,7745,3872
6269,1.0252e+08,2,0.0035202,0.0024693,-0.00014365,0.050604,0.25743,-9.8374,0,0,38.514,1,1,7745,3872
6272,1.0252e+08,2,0.0038297,0.0024841,-0.00038477,0.049785,0.25911,-9.8388,0,0,38.514,1,1,7745,3872
6275,1.0252e+08,2,0.0041785,0.0019027,3.2476e-05,0.048017,0.26019,-9.8397,0,0,38.514,1,1,7745,3872
6308,1.0252e+08,2,0.0033957,0.0014792,0.00074277,0.047375,0.2605,-9.8396,0,0,38.514,1,1,7745,3872
6314,1.0253e+08,2,0.0027971,0.00066784,0.00064344,0.046412,0.26258,-9.8369,0,0,38.514,1,1,7745,3872
6318,1.0253e+08,2,0.0028581,-0.00026107,0.00088425,0.045406,0.26506,-9.8339,0,0,38.514,1,1,7745,3872
6321,1.0253e+08,2,0.0041422,0.00017832,0.0014521,0.046189,0.26819,-9.827,0,0,38.514,1,1,7745,3872
6354,1.0253e+08,2,0.0049774,0.0011569,0.0020889,0.048202,0.26906,-9.8214,0,0,38.514,1,1,7745,3872
6358,1.0254e+08,2,0.0046119,0.0011589,0.0019487,0.049912,0.2696,-9.8177,0,0,38.515,1,1,7745,3872
6361,1.0254e+08,2,0.0038101,0.00074732,0.0029177,0.051622,0.2699,-9.815,0,0,38.515,1,1,7745,3872
6364,1.0254e+08,2,0.0038431,0.00064018,0.0024721,0.052889,0.26812,-9.8129,0,0,38.515,1,1,7745,3872
6397,1.0255e+08,2,0.0034213,0.00025425,0.0020068,0.053796,0.26455,-9.8101,0,0,38.515,1,1,7745,3872
6401,1.0255e+08,2,0.003481,-0.00043333,0.0012032,0.05536,0.26247,-9.8092,0,0,38.515,1,1,7745,3872
6404,1.0255e+08,2,0.0035801,-6.7066e-05,0.0011664,0.057642,0.26288,-9.8079,0,0,38.515,1,1,7745,3872
6407,1.0255e+08,2,0.0021019,-7.6307e-05,0.0014947,0.061493,0.26341,-9.8063,0,0,38.515,1,1,7745,3872
6440,1.0256e+08,2,0.00080913,0.00057097,0.0014461,0.063403,0.26413,-9.8044,0,0,38.515,1,1,7745,3872
6444,1.0256e+08,2,0.00014276,0.0014445,0.001984,0.064102,0.26534,-9.8025,0,0,38.515,1,1,7745,3872
6447,1.0256e+08,2,0.00026425,0.0012645,0.002643,0.063723,0.26533,-9.8023,0,0,38.515,1,1,7745,3872
6450,1.0256e+08,2,0.00098161,0.00026153,0.0029309,0.063344,0.2636,-9.8042,0,0,38.515,1,1,7745,3872
6483,1.0256e+08,2,0.00096542,0.00013424,0.0027536,0.063538,0.26295,-9.805,0,0,38.515,1,1,7745,3872
6487,1.0257e+08,2,0.00092331,0.00078582,0.0035042,0.063799,0.26205,-9.8093,0,0,38.515,1,1,7745,3872
6490,1.0257e+08,2,0.0006939,0.00071242,0.0033409,0.063211,0.26104,-9.8133,0,0,38.515,1,1,7745,3872
6493,1.0257e+08,2,-0.00034355,0.0004735,0.0029511,0.061721,0.25915,-9.818,0,0,38.515,1,1,7745,3872
6527,1.0257e+08,2,-0.00028744,0.00056177,0.0021017,0.060745,0.2587,-9.8204,0,0,38.515,1,1,7745,3872
6530,1.0258e+08,2,-0.00083084,-0.00035069,0.0030608,0.060513,0.26047,-9.8216,0,0,38.515,1,1,7745,3872
6533,1.0258e+08,2,-0.0012837,-0.00059796,0.0041385,0.061445,0.26273,-9.8203,0,0,38.515,1,1,7745,3872
6536,1.0258e+08,2,-0.0019588,-0.00086884,0.0041599,0.061138,0.2636,-9.8161,0,0,38.515,1,1,7745,3872
6539,1.0258e+08,2,-0.0020125,-0.0010462,0.003782,0.061476,0.26238,-9.8129,0,0,38.515,1,1,7745,3872
6573,1.0259e+08,2,-0.0017574,-0.001351,0.0040277,0.061697,0.25984,-9.8059,0,0,38.515,1,1,7745,3872
6576,1.0259e+08,2,-0.0018373,-0.0017516,0.0035867,0.061734,0.2585,-9.8005,0,0,38.515,1,1,7745,3872
6579,1.0259e+08,2,-0.0011464,-0.0021518,0.0031057,0.061449,0.25524,-9.7973,0,0,38.516,1,1,7745,3872
6582,1.026e+08,2,-0.00064613,-0.0015809,0.0033126,0.060292,0.25387,-9.7977,0,0,38.516,1,1,7745,3872
6615,1.026e+08,2,-0.00106,-0.00068469,0.0030162,0.058415,0.25336,-9.7991,0,0,38.516,1,1,7745,3872
6619,1.026e+08,2,-0.0014214,-0.00015677,0.0021488,0.055957,0.25374,-9.8001,0,0,38.516,1,1,7745,3872
6622,1.026e+08,2,-0.0017383,-9.4587e-05,0.0013027,0.051204,0.25316,-9.7997,0,0,38.516,1,1,7745,3872
6625,1.0261e+08,2,-0.0023055,-0.00043815,0.00071853,0.046812,0.25101,-9.8028,0,0,38.516,1,1,7745,3872
6658,1.0261e+08,2,-0.0023754,8.5938e-05,0.00047482,0.04435,0.24927,-9.8066,0,0,38.516,1,1,7745,3872
6661,1.0261e+08,2,-0.0017746,0.0008399,0.00055564,0.04238,0.24857,-9.8094,0,0,38.516,1,1,7745,3872
6664,1.0261e+08,2,-0.0016559,0.00082432,0.00065855,0.042109,0.2494,-9.8132,0,0,38.516,1,1,7745,3872
6667,1.0262e+08,2,-0.0019327,-5.7791e-05,-0.00027416,0.042588,0.25119,-9.8188,0,0,38.516,1,1,7745,3872
6700,1.0262e+08,2,-0.001987,-0.00076677,0.00050384,0.043871,0.25619,-9.829,0,0,38.516,1,1,7745,3872
6704,1.0262e+08,2,-0.0018871,-0.0011228,0.0010155,0.044581,0.25987,-9.8343,0,0,38.516,1,1,7745,3872
6707,1.0262e+08,2,-0.00090528,-0.00040067,0.001684,0.045222,0.26596,-9.8388,0,0,38.516,1,1,7745,3872
6710,1.0263e+08,2,-0.0011716,6.2559e-05,0.002213,0.045525,0.2678,-9.8404,0,0,38.516,1,1,7745,3872
6746,1.0263e+08,2,-0.0015292,-0.0001443,0.0013325,0.044571,0.26806,-9.8398,0,0,38.516,1,1,7745,3872
6750,1.0263e+08,2,-0.0015754,0.00024136,-0.00096268,0.043636,0.26635,-9.8358,0,0,38.516,1,1,7745,3872
6753,1.0263e+08,2,-0.0012392,0.00039616,-0.00229,0.043241,0.26458,-9.8325,0,0,38.516,1,1,7745,3872
6756,1.0264e+08,2,-0.00057148,0.00033607,-0.0020921,0.04372,0.2635,-9.8289,0,0,38.516,1,1,7745,3872
6789,1.0264e+08,2,-0.00079166,0.00075024,-0.0015623,0.044381,0.26362,-9.8279,0,0,38.516,1,1,7745,3872
6793,1.0264e+08,2,-0.00061987,0.00029587,-0.00066227,0.043917,0.26366,-9.8294,0,0,38.516,1,1,7745,3872
6796,1.0264e+08,2,0.00020291,-2.0177e-05,-0.00079798,0.043271,0.26248,-9.8306,0,0,38.516,1,1,7745,3872
6799,1.0265e+08,2,0.00016078,-9.0031e-05,-0.0011415,0.042089,0.25974,-9.8313,0,0,38.516,1,1,7745,3872
6832,1.0265e+08,2,-0.00024758,-0.0001617,-0.0017789,0.04192,0.25619,-9.8333,0,0,38.517,1,1,7745,3872
6837,1.0265e+08,2,-0.00017905,-0.000326,-0.0020256,0.042375,0.25432,-9.8328,0,0,38.517,1,1,7745,3872
6840,1.0265e+08,2,0.00061767,-0.00082268,-0.0025467,0.043236,0.25339,-9.8318,0,0,38.517,1,1,7745,3872
6843,1.0266e+08,2,0.00034494,0.00033028,-0.00092442,0.040725,0.25411,-9.8281,0,0,38.517,1,1,7745,3872
6877,1.0266e+08,2,0.0013141,0.0030523,0.0011025,0.041368,0.25689,-9.8214,0,0,38.517,1,1,7745,3872
6880,1.0267e+08,2,0.0015984,0.0034422,0.0012954,0.043448,0.25827,-9.8203,0,0,38.517,1,1,7745,3872
6883,1.0267e+08,2,0.00086192,0.0032895,0.00011322,0.048712,0.26066,-9.8244,0,0,38.517,1,1,7745,3872
6918,1.0268e+08,2,-0.000476,0.0043063,0.00041726,0.055509,0.26123,-9.8324,0,0,38.517,1,1,7745,3872
6921,1.0268e+08,2,-0.00071619,0.0042811,0.00072235,0.05498,0.26143,-9.8315,0,0,38.518,1,1,7745,3872
6924,1.0268e+08,2,-0.00021317,0.0037138,0.0013252,0.053553,0.26184,-9.8292,0,0,38.518,1,1,7745,3872
6959,1.0268e+08,2,0.00022372,0.0022885,0.0019637,0.050716,0.26249,-9.8238,0,0,38.518,1,1,7745,3872
6962,1.0269e+08,2,-1.1415e-05,0.0013403,0.0020511,0.045429,0.26184,-9.8164,0,0,38.518,1,1,7745,3872
6965,1.0269e+08,2,0.00067093,0.0016715,0.0022686,0.041304,0.26048,-9.8127,0,0,38.518,1,1,7745,3872
6968,1.0269e+08,2,0.002176,0.0019745,0.0015913,0.037529,0.25867,-9.8081,0,0,38.518,1,1,7745,3872
7003,1.0269e+08,2,0.0022477,0.0019238,0.0012682,0.035374,0.25821,-9.8013,0,0,38.518,1,1,7745,3872
7006,1.027e+08,2,0.0014109,0.0019065,-0.00011009,0.035064,0.25928,-9.792,0,0,38.518,1,1,7745,3872
7010,1.027e+08,2,0.00086109,0.0018405,-0.00064699,0.036675,0.25969,-9.7871,0,0,38.518,1,1,7745,3872
7013,1.027e+08,2,0.00092739,0.0017117,-0.001162,0.041397,0.26031,-9.7787,0,0,38.518,1,1,7745,3872
7048,1.027e+08,2,0.0010709,0.0018203,-0.001426,0.045643,0.2602,-9.7759,0,0,38.519,1,1,7745,3872
7051,1.0271e+08,2,0.00061619,0.0021235,-0.00073923,0.052419,0.26075,-9.7792,0,0,38.519,1,1,7745,3872
7056,1.0271e+08,2,0.0010386,0.0020006,-0.00049185,0.056953,0.2622,-9.7861,0,0,38.519,1,1,7745,3872
7059,1.0271e+08,2,0.0013472,0.00087077,0.00071303,0.061317,0.26558,-9.797,0,0,38.519,1,1,7745,3872
7094,1.0271e+08,2,0.0011434,0.00033218,0.0011184,0.06264,0.26866,-9.8019,0,0,38.519,1,1,7745,3872
7097,1.0272e+08,2,0.0010596,0.00063093,0.00042146,0.063839,0.27038,-9.8074,0,0,38.519,1,1,7745,3872
7100,1.0272e+08,2,0.00067492,0.00073039,0.00090322,0.063135,0.2706,-9.8093,0,0,38.519,1,1,7745,3872
7103,1.0272e+08,2,0.00061091,0.00035296,0.0017901,0.061261,0.26998,-9.8107,0,0,38.519,1,1,7745,3872
7138,1.0272e+08,2,0.0010694,0.00045383,0.0018571,0.05968,0.26866,-9.8139,0,0,38.519,1,1,7745,3872
7141,1.0273e+08,2,0.0010183,0.0004568,0.0020537,0.05938,0.26674,-9.8216,0,0,38.519,1,1,7745,3872
7145,1.0273e+08,2,0.00054076,3.4053e-05,0.0025013,0.059225,0.26655,-9.8257,0,0,38.519,1,1,7745,3872
7151,1.0273e+08,2,9.6442e-05,-0.00053616,0.0027813,0.058746,0.267,-9.8288,0,0,38.52,1,1,7745,3872
7187,1.0273e+08,2,0.00019712,0.00019942,0.0023738,0.05793,0.26786,-9.8303,0,0,38.52,1,1,7745,3872
7190,1.0274e+08,2,0.0006264,0.00039854,0.0022001,0.056709,0.2674,-9.8301,0,0,38.52,1,1,7745,3872
7193,1.0274e+08,2,0.00073104,0.00016322,0.0019946,0.056079,0.26584,-9.8289,0,0,38.52,1,1,7745,3872
7196,1.0274e+08,2,-0.00012375,-0.00081819,0.0017545,0.055222,0.26488,-9.8269,0,0,38.52,1,1,7745,3872
7231,1.0274e+08,2,-0.00091931,-0.00075559,0.0016588,0.055741,0.2641,-9.8283,0,0,38.52,1,1,7745,3872
7234,1.0275e+08,2,-0.001315,-0.00062041,0.00098192,0.057067,0.26176,-9.8304,0,0,38.52,1,1,7745,3872
7239,1.0275e+08,2,-0.00096773,-0.00073977,0.00023317,0.058064,0.25886,-9.831,0,0,38.52,1,1,7745,3872
7242,1.0275e+08,2,-0.0011685,-0.00050078,0.00017265,0.058081,0.25796,-9.8309,0,0,38.52,1,1,7745,3872
7277,1.0275e+08,2,-0.0015562,1.8205e-05,-0.00032009,0.057819,0.25654,-9.8322,0,0,38.52,1,1,7745,3872
7280,1.0276e+08,2,-0.0012102,9.049e-05,-0.0004207,0.058964,0.25573,-9.8353,0,0,38.52,1,1,7745,3872
7283,1.0276e+08,2,-0.00071337,0.00012335,-4.6618e-05,0.059951,0.25558,-9.8345,0,0,38.52,1,1,7745,3872
7286,1.0276e+08,2,0.00013153,0.00036969,0.0012003,0.060688,0.2565,-9.8275,0,0,38.52,1,1,7745,3872
7321,1.0276e+08,2,-0.0002987,0.00076589,0.0018745,0.060194,0.25758,-9.8214,0,0,38.52,1,1,7745,3872
7324,1.0277e+08,2,-0.00024101,0.0011412,0.0018994,0.059714,0.25968,-9.816,0,0,38.52,1,1,7745,3872
7328,1.0277e+08,2,-0.00031085,0.0010715,0.00085496,0.059046,0.26173,-9.8168,0,0,38.52,1,1,7745,3872
7331,1.0277e+08,2,-0.00088707,0.0010397,0.0010395,0.059105,0.26371,-9.8259,0,0,38.521,1,1,7745,3872
7366,1.0277e+08,2,-0.00087325,0.00072362,0.00086719,0.059727,0.26464,-9.8316,0,0,38.521,1,1,7745,3872
7369,1.0278e+08,2,-0.00059244,0.00082527,0.00024494,0.060699,0.26672,-9.8399,0,0,38.521,1,1,7745,3872
7372,1.0278e+08,2,0.0002479,0.0011236,0.00041801,0.061635,0.26659,-9.8411,0,0,38.521,1,1,7745,3872
7407,1.0279e+08,2,-0.0002354,0.0010956,0.001267,0.062308,0.26488,-9.8402,0,0,38.521,1,1,7745,3872
7410,1.0279e+08,2,-0.00045725,0.0009461,0.0012559,0.06299,0.26342,-9.8394,0,0,38.521,1,1,7745,3872
7414,1.0279e+08,2,-0.00055326,0.00033523,9.8323e-05,0.064335,0.26276,-9.8353,0,0,38.521,1,1,7745,3872
7417,1.0279e+08,2,-0.00030924,0.00042232,-0.00070673,0.06446,0.26355,-9.8296,0,0,38.521,1,1,7745,3872
7452,1.028e+08,2,0.00040194,0.0017207,-9.1589e-05,0.064434,0.26301,-9.8183,0,0,38.521,1,1,7745,3872
7455,1.028e+08,2,0.0011551,0.0028371,-0.00044126,0.065408,0.26235,-9.809,0,0,38.521,1,1,7745,3872
7460,1.028e+08,2,0.00116,0.0024002,-0.00071069,0.065676,0.26383,-9.8035,0,0,38.521,1,1,7745,3872
7464,1.028e+08,2,0.0010151,0.0012265,-0.00041489,0.065831,0.26613,-9.7978,0,0,38.521,1,1,7745,3872
7500,1.0281e+08,2,0.00012985,0.00095143,0.00045411,0.065052,0.26668,-9.7952,0,0,38.521,1,1,7745,3872
7503,1.0281e+08,2,-0.00030191,0.00073075,0.0017495,0.06293,0.264,-9.7926,0,0,38.521,1,1,7745,3872
7506,1.0281e+08,2,0.00020648,0.00057936,0.00223,0.060588,0.25969,-9.794,0,0,38.521,1,1,7745,3872
7509,1.0281e+08,2,0.0004359,0.00071267,0.0016163,0.057347,0.25561,-9.7955,0,0,38.521,1,1,7745,3872
7544,1.0282e+08,2,0.00072704,0.0014604,0.0011906,0.052696,0.25161,-9.7939,0,0,38.521,1,1,7745,3872
7547,1.0282e+08,2,0.00079755,0.0014373,0.00060831,0.050895,0.25108,-9.7942,0,0,38.521,1,1,7745,3872
7551,1.0282e+08,2,0.0010694,0.0015027,-0.0014637,0.050444,0.25313,-9.794,0,0,38.521,1,1,7745,3872
7554,1.0282e+08,2,0.0027407,0.0009465,-0.00010286,0.050035,0.26057,-9.7927,0,0,38.521,1,1,7745,3872
7589,1.0283e+08,2,0.0062238,-8.656e-05,0.0042473,0.048039,0.26548,-9.8015,0,0,38.521,1,1,7745,3872
7592,1.0283e+08,2,0.004051,0.00063504,0.0066222,0.045532,0.26536,-9.8086,0,0,38.521,1,1,7745,3872
7595,1.0283e+08,2,0.00064077,0.0019064,0.009063,0.044543,0.26325,-9.8124,0,0,38.521,1,1,7745,3872
7601,1.0283e+08,2,0.00084608,0.0022657,0.010765,0.044354,0.25646,-9.8112,0,0,38.522,1,1,7745,3872
7637,1.0284e+08,2,0.005071,0.0002764,0.0093557,0.044606,0.25014,-9.8109,0,0,38.522,1,1,7745,3872
7642,1.0284e+08,2,0.0057308,-0.00088734,0.0063836,0.043068,0.24821,-9.8267,0,0,38.522,1,1,7745,3872
7646,1.0285e+08,2,0.001305,0.001488,0.0046689,0.046099,0.25459,-9.8338,0,0,38.522,1,1,7745,3872
7681,1.0285e+08,2,-0.0026705,0.0014125,0.0070373,0.045463,0.2556,-9.8315,0,0,38.522,1,1,7745,3872
7685,1.0285e+08,2,-0.0038074,0.002979,0.0099156,0.044018,0.25994,-9.83,0,0,38.522,1,1,7745,3872
7688,1.0285e+08,2,0.0089411,0.003472,0.012923,0.040661,0.26627,-9.8248,0,0,38.522,1,1,7745,3872
7691,1.0286e+08,2,0.016355,8.2982e-05,0.012507,0.038853,0.26613,-9.8287,0,0,38.522,1,1,7745,3872
7726,1.0286e+08,2,-0.0082086,-0.0015621,0.012363,0.039952,0.26032,-9.8402,0,0,38.522,1,1,7745,3872
7729,1.0286e+08,2,-0.02083,0.0044179,0.012427,0.040755,0.25769,-9.8294,0,0,38.522,1,1,7745,3872
7733,1.0287e+08,2,-0.011706,0.0080807,0.011119,0.041884,0.25601,-9.8133,0,0,38.522,1,1,7745,3872
7736,1.0287e+08,2,0.024154,0.0030679,0.0078653,0.041429,0.25231,-9.8172,0,0,38.522,1,1,7745,3872
7771,1.0287e+08,2,0.015431,-0.00067654,0.0055793,0.038198,0.25007,-9.8583,0,0,38.522,1,1,7745,3872
7775,1.0287e+08,2,-0.014784,0.0029949,0.0066386,0.035497,0.25162,-9.8671,0,0,38.522,1,1,7745,3872
7778,1.0288e+08,2,-0.029649,0.0066969,0.0078201,0.034291,0.25513,-9.8469,0,0,38.522,1,1,7745,3872
7781,1.0288e+08,2,0.0040532,0.0016392,0.0067939,0.035625,0.25693,-9.8183,0,0,38.522,1,1,7745,3872
7816,1.0288e+08,2,0.028368,-0.0021316,0.0020621,0.041291,0.25249,-9.8233,0,0,38.522,1,1,7745,3872
7819,1.0288e+08,2,0.007091,0.0039345,-0.00040964,0.046786,0.24982,-9.8439,0,0,38.522,1,1,7745,3872
7822,1.0289e+08,2,-0.02188,0.0099055,-0.0016381,0.056271,0.24878,-9.8347,0,0,38.522,1,1,7745,3872
7825,1.0289e+08,2,-0.027235,0.0068342,-0.0032716,0.061474,0.24841,-9.8029,0,0,38.522,1,1,7745,3872
7860,1.0289e+08,2,0.026763,-0.0086179,-0.0089494,0.064026,0.2477,-9.8015,0,0,38.522,1,1,7745,3872
7864,1.0289e+08,2,0.029419,-0.0014482,-0.010817,0.066191,0.24675,-9.8347,0,0,38.522,1,1,7745,3872
7867,1.029e+08,2,0.001275,0.011966,-0.010859,0.069796,0.24909,-9.8466,0,0,38.522,1,1,7745,3872
7870,1.029e+08,2,-0.027502,0.0089534,-0.010646,0.072973,0.25216,-9.8041,0,0,38.522,1,1,7745,3872
7905,1.029e+08,2,0.006315,-0.013685,-0.01442,0.066512,0.24888,-9.788,0,0,38.522,1,1,7745,3872
7908,1.029e+08,2,0.028067,-0.0046586,-0.016407,0.060403,0.25172,-9.8268,0,0,38.522,1,1,7745,3872
7912,1.0291e+08,2,0.0082148,0.011076,-0.014237,0.057703,0.25417,-9.8347,0,0,38.522,1,1,7745,3872
7916,1.0291e+08,2,-0.02556,0.011667,-0.012371,0.057178,0.25253,-9.8088,0,0,38.521,1,1,7745,3872
7951,1.0291e+08,2,-0.01906,-0.005745,-0.01505,0.058185,0.24558,-9.7592,0,0,38.521,1,1,7745,3872
7955,1.0291e+08,2,0.005399,-0.016716,-0.019453,0.058898,0.2399,-9.7669,0,0,38.521,1,1,7745,3872
7958,1.0292e+08,2,0.021537,-0.0010188,-0.023198,0.065354,0.23825,-9.8212,0,0,38.521,1,1,7745,3872
7961,1.0292e+08,2,0.0087278,0.0085427,-0.020677,0.070171,0.24189,-9.8395,0,0,38.521,1,1,7745,3872
7996,1.0292e+08,2,-0.014483,-0.0054552,-0.016475,0.073081,0.24154,-9.8185,0,0,38.521,1,1,7745,3872
8000,1.0293e+08,2,-0.012825,-0.018254,-0.015176,0.078237,0.24309,-9.7898,0,0,38.521,1,1,7745,3872
8003,1.0293e+08,2,0.0028013,-0.0097974,-0.014887,0.080631,0.24332,-9.7942,0,0,38.521,1,1,7745,3872
8007,1.0293e+08,2,0.013693,0.0069149,-0.015347,0.084989,0.24631,-9.8268,0,0,38.521,1,1,7745,3872
8042,1.0293e+08,2,0.0090215,0.0030466,-0.0168,0.08505,0.25017,-9.8375,0,0,38.521,1,1,7745,3872
8045,1.0294e+08,2,-0.0055923,-0.010727,-0.019453,0.080881,0.25172,-9.8255,0,0,38.521,1,1,7745,3872
8051,1.0294e+08,2,-0.013466,-0.0098407,-0.019473,0.078838,0.25192,-9.8107,0,0,38.521,1,1,7745,3872
8055,1.0294e+08,2,-0.0050413,-0.0056113,-0.016087,0.073261,0.25578,-9.8047,0,0,38.521,1,1,7745,3872
8090,1.0294e+08,2,0.010488,-0.0074577,-0.013611,0.063552,0.26114,-9.818,0,0,38.521,1,1,7745,3872
8094,1.0295e+08,2,0.018082,-0.0080109,-0.011585,0.051313,0.26501,-9.8541,0,0,38.521,1,1,7745,3872
8097,1.0295e+08,2,0.010265,-0.0036309,-0.0086156,0.045655,0.2656,-9.8613,0,0,38.521,1,1,7745,3872
8100,1.0295e+08,2,-0.015777,0.0046322,-0.0037921,0.0414,0.26366,-9.8354,0,0,38.521,1,1,7745,3872
8135,1.0295e+08,2,-0.018078,0.0027525,-0.0023232,0.04058,0.26245,-9.8171,0,0,38.521,1,1,7745,3872
8138,1.0296e+08,2,0.0075691,-0.0079763,-0.0037022,0.036793,0.25772,-9.8352,0,0,38.521,1,1,7745,3872
8141,1.0296e+08,2,0.016993,-0.0062605,-0.0043223,0.035819,0.25487,-9.8686,0,0,38.521,1,1,7745,3872
8144,1.0296e+08,2,-0.0055275,0.0062327,-0.001193,0.03664,0.25824,-9.8899,0,0,38.521,1,1,7745,3872
8180,1.0296e+08,2,-0.022068,0.0067801,0.0042805,0.03466,0.26704,-9.865,0,0,38.521,1,1,7745,3872
8184,1.0297e+08,2,-0.010622,0.0014526,0.006667,0.032377,0.27004,-9.8528,0,0,38.521,1,1,7745,3872
8187,1.0297e+08,2,0.0096279,0.0015931,0.0076949,0.027661,0.27168,-9.8635,0,0,38.521,1,1,7745,3872
8190,1.0297e+08,2,0.0046286,0.0079216,0.0078247,0.024254,0.27392,-9.8716,0,0,38.521,1,1,7745,3872
8225,1.0297e+08,2,-0.015315,0.011851,0.0094589,0.021131,0.27839,-9.8628,0,0,38.521,1,1,7745,3872
