LineNo,TimeUS,I,GyrX,GyrY,GyrZ,AccX,AccY,AccZ,EG,EA,T,GH,AH,GHz,AHz
182,1.0097e+08,0,0.0039771,-0.00031364,-0.0006875,-0.020312,0.32787,-9.7704,0,0,44.899,1,1,8008,4004
217,1.0098e+08,0,0.0038824,3.7867e-05,-0.0002672,-0.020007,0.32901,-9.772,0,0,44.899,1,1,8008,4004
287,1.01e+08,0,0.0019749,-0.0044918,-6.4068e-06,-0.0062,0.3156,-9.7782,0,0,44.899,1,1,8008,4004
402,1.0103e+08,0,0.00054412,-0.0006066,-0.00073841,-0.021239,0.29887,-9.7765,0,0,44.899,1,1,8008,4004
518,1.0106e+08,0,-0.0017565,0.0033002,0.002264,-0.026178,0.30333,-9.7794,0,0,44.899,1,1,8008,4004
633,1.0109e+08,0,-0.0057737,0.0013055,0.0013844,-0.018411,0.29819,-9.7752,0,0,44.9,1,1,8008,4004
636,1.0109e+08,0,-0.0054468,0.00077492,0.0014546,-0.017908,0.30024,-9.7775,0,0,44.9,1,1,8008,4004
747,1.0111e+08,0,-0.0032803,-0.0021535,0.0010261,-0.029505,0.31374,-9.7828,0,0,44.9,1,1,8008,4004
782,1.0112e+08,0,-0.0021896,-0.0035008,0.0009905,-0.028957,0.31157,-9.7807,0,0,44.9,1,1,8008,4004
856,1.0113e+08,0,0.0001186,-0.002513,0.0013435,-0.025311,0.31497,-9.7773,0,0,44.901,1,1,8008,4004
974,1.0117e+08,0,0.0028681,0.00085817,-0.0010886,-0.033539,0.32685,-9.7779,0,0,44.902,1,1,8008,4004
1089,1.0122e+08,0,-0.0026002,0.0012156,-0.00029105,-0.013945,0.30292,-9.7741,0,0,44.906,1,1,8008,4004
1200,1.0133e+08,0,-0.00088504,-0.00032132,-0.00086698,-0.023871,0.31355,-9.7825,0,0,44.917,1,1,8008,4004
1282,1.0137e+08,0,-0.001935,-0.0016327,-0.00038826,-0.020272,0.31526,-9.7547,0,0,44.919,1,1,8008,4004
1317,1.0137e+08,0,-0.001294,-0.0015252,0.001632,-0.020938,0.31088,-9.7508,0,0,44.919,1,1,8008,4004
1381,1.0138e+08,0,-0.00031782,-0.0024732,-7.6498e-05,-0.026771,0.29804,-9.7527,0,0,44.92,1,1,8008,4004
1473,1.014e+08,0,-0.00029705,-0.0011548,-0.0020386,-0.035912,0.30879,-9.7621,0,0,44.921,1,1,8008,4004
1508,1.014e+08,0,-0.00059767,3.6078e-05,-0.0015357,-0.040086,0.31095,-9.7559,0,0,44.921,1,1,8008,4004
1558,1.0141e+08,0,-0.00040478,0.00043383,-0.00024154,-0.043835,0.31245,-9.7505,0,0,44.921,1,1,8008,4004
1560,1.0142e+08,0,-0.00087088,0.0016663,-0.0005103,-0.042036,0.3145,-9.7441,0,0,44.921,1,1,8008,4004
1570,1.0142e+08,0,-0.001034,0.001432,-0.00041304,-0.041842,0.3161,-9.7474,0,0,44.921,1,1,8008,4004
1605,1.0143e+08,0,-0.0007416,0.0021628,-0.00091746,-0.039007,0.31543,-9.7532,0,0,44.921,1,1,8008,4004
1608,1.0143e+08,0,-0.0001303,0.0025296,-0.00088402,-0.036456,0.31304,-9.7559,0,0,44.921,1,1,8008,4004
1611,1.0143e+08,0,-3.3804e-05,0.003182,-0.00070631,-0.032939,0.30961,-9.7574,0,0,44.922,1,1,8008,4004
1615,1.0143e+08,0,-0.00025347,0.0025637,-0.00080979,-0.030543,0.3071,-9.7592,0,0,44.922,1,1,8008,4004
1650,1.0143e+08,0,-0.0010813,0.0031464,-0.00070129,-0.027373,0.30599,-9.7629,0,0,44.922,1,1,8008,4004
1653,1.0144e+08,0,-0.0010915,0.0043508,-0.0002751,-0.024484,0.30568,-9.7654,0,0,44.922,1,1,8008,4004
1656,1.0144e+08,0,-0.00056081,0.0041175,0.00059859,-0.022049,0.30399,-9.7692,0,0,44.922,1,1,8008,4004
1659,1.0144e+08,0,-0.00013956,0.0029983,0.00096516,-0.020024,0.30249,-9.7713,0,0,44.922,1,1,8008,4004
1694,1.0144e+08,0,0.00086831,0.0015989,0.0010761,-0.015817,0.29986,-9.7708,0,0,44.922,1,1,8008,4004
1697,1.0145e+08,0,0.00071453,0.0016785,0.00076522,-0.012186,0.2984,-9.7692,0,0,44.921,1,1,8008,4004
1700,1.0145e+08,0,-0.00041094,0.0015472,-0.00068114,-0.0069617,0.2979,-9.7696,0,0,44.921,1,1,8008,4004
1706,1.0145e+08,0,-0.0012297,0.0015667,-0.001307,-0.0054693,0.29719,-9.7723,0,0,44.921,1,1,8008,4004
1741,1.0146e+08,0,-0.0011979,0.00032132,-0.0010691,-0.0032364,0.29583,-9.777,0,0,44.921,1,1,8008,4004
1744,1.0146e+08,0,-0.0012422,0.00032088,-0.00075068,-0.0024572,0.29448,-9.7769,0,0,44.922,1,1,8008,4004
1747,1.0146e+08,0,-0.00033586,-0.00082339,0.0010819,-0.0039763,0.29143,-9.7699,0,0,44.922,1,1,8008,4004
1782,1.0147e+08,0,-0.0010821,-4.763e-05,0.00054515,-0.0087975,0.29471,-9.7618,0,0,44.922,1,1,8008,4004
1785,1.0147e+08,0,-0.0019246,0.00012353,0.00046089,-0.011927,0.29705,-9.7592,0,0,44.922,1,1,8008,4004
1788,1.0147e+08,0,-0.0019055,-0.00054076,0.00073038,-0.014185,0.29854,-9.7597,0,0,44.922,1,1,8008,4004
1822,1.0148e+08,0,-0.0011996,-0.0014835,0.001129,-0.017445,0.3014,-9.7613,0,0,44.921,1,1,8008,4004
1825,1.0148e+08,0,-0.00037641,-0.0017589,0.0006888,-0.018847,0.30281,-9.7615,0,0,44.921,1,1,8008,4004
1828,1.0148e+08,0,0.00047271,-0.0010198,5.4323e-05,-0.020174,0.30108,-9.7619,0,0,44.921,1,1,8008,4004
1831,1.0148e+08,0,0.00061227,-0.00065512,-2.9587e-05,-0.02006,0.29931,-9.7627,0,0,44.921,1,1,8008,4004
1865,1.0149e+08,0,0.00050095,-0.0010017,-0.00056509,-0.018658,0.29867,-9.7635,0,0,44.921,1,1,8008,4004
1868,1.0149e+08,0,-0.00056957,-0.0015101,-0.00080486,-0.015642,0.2991,-9.7596,0,0,44.922,1,1,8008,4004
1874,1.0149e+08,0,-0.0013913,-0.0018582,-0.00024848,-0.012708,0.29927,-9.755,0,0,44.922,1,1,8008,4004
1878,1.015e+08,0,-0.0015386,-0.0019183,0.00014219,-0.0066846,0.29888,-9.7531,0,0,44.922,1,1,8008,4004
1911,1.015e+08,0,-0.00037176,-0.0022663,0.00023252,-0.0014454,0.29775,-9.7545,0,0,44.922,1,1,8008,4004
1914,1.015e+08,0,-0.00019071,-0.0035438,0.0001256,0.00016324,0.29797,-9.7545,0,0,44.922,1,1,8008,4004
1917,1.015e+08,0,-0.0011705,-0.0039198,-0.00028208,0.0013474,0.2994,-9.7524,0,0,44.922,1,1,8008,4004
1920,1.0151e+08,0,-0.0016857,-0.003145,-0.00038452,0.00088222,0.29998,-9.7509,0,0,44.922,1,1,8008,4004
1955,1.0151e+08,0,-0.0018609,-0.0022169,-0.00060193,-0.0021133,0.2986,-9.7488,0,0,44.922,1,1,8008,4004
1959,1.0151e+08,0,-0.0015775,-0.0018388,-0.0013882,-0.0037486,0.29728,-9.7483,0,0,44.922,1,1,8008,4004
1962,1.0151e+08,0,-0.00031122,-0.0018383,-0.0020683,-0.0036197,0.29445,-9.7497,0,0,44.922,1,1,8008,4004
1965,1.0152e+08,0,2.2886e-05,-0.0021998,-0.0017649,-0.0021911,0.29229,-9.751,0,0,44.922,1,1,8008,4004
1998,1.0152e+08,0,-0.00019066,-0.0033406,-0.00033202,-0.00078359,0.29028,-9.7535,0,0,44.922,1,1,8008,4004
2001,1.0152e+08,0,-0.00026868,-0.0033554,0.00046094,-0.0022087,0.29077,-9.7546,0,0,44.922,1,1,8008,4004
2004,1.0152e+08,0,0.000159,-0.0024406,0.0015514,-0.0064373,0.29326,-9.7563,0,0,44.922,1,1,8008,4004
2009,1.0153e+08,0,0.00086487,-0.0017738,0.0014005,-0.0088272,0.29495,-9.7573,0,0,44.922,1,1,8008,4004
2042,1.0153e+08,0,0.0014538,-0.0011742,0.00071818,-0.013332,0.29471,-9.7593,0,0,44.921,1,1,8008,4004
2046,1.0153e+08,0,0.0010549,-0.0012623,-0.00010731,-0.017155,0.29265,-9.7608,0,0,44.921,1,1,8008,4004
2049,1.0153e+08,0,0.00073772,-0.0016183,-0.00087408,-0.021373,0.29162,-9.7623,0,0,44.921,1,1,8008,4004
2052,1.0154e+08,0,0.00057926,-0.0016102,-0.00097263,-0.024362,0.29366,-9.7656,0,0,44.921,1,1,8008,4004
2085,1.0154e+08,0,0.00066232,-0.00097258,-0.00058718,-0.026021,0.2956,-9.7701,0,0,44.921,1,1,8008,4004
2089,1.0154e+08,0,0.00085776,0.0014105,-0.00053195,-0.028965,0.2971,-9.7779,0,0,44.921,1,1,8008,4004
2092,1.0154e+08,0,0.00055391,0.0023626,-0.00037084,-0.030136,0.29756,-9.7833,0,0,44.921,1,1,8008,4004
2095,1.0155e+08,0,0.00066004,0.0027172,-0.00083106,-0.029839,0.297,-9.7898,0,0,44.921,1,1,8008,4004
2128,1.0155e+08,0,0.0018262,0.0023202,-0.0005508,-0.027673,0.29678,-9.7923,0,0,44.921,1,1,8008,4004
2131,1.0155e+08,0,0.0023453,0.0030107,-0.00090628,-0.02587,0.29672,-9.7937,0,0,44.921,1,1,8008,4004
2134,1.0155e+08,0,0.0019288,0.0028248,-0.00098,-0.025164,0.29842,-9.7918,0,0,44.921,1,1,8008,4004
2137,1.0156e+08,0,0.0019707,0.0024379,-0.00013321,-0.025614,0.30099,-9.7877,0,0,44.921,1,1,8008,4004
2170,1.0156e+08,0,0.0007367,0.0026782,0.0013087,-0.026724,0.3023,-9.7816,0,0,44.921,1,1,8008,4004
2174,1.0156e+08,0,0.00054252,0.0023775,0.0010855,-0.026948,0.30257,-9.7788,0,0,44.921,1,1,8008,4004
2177,1.0156e+08,0,0.0013334,0.0011317,1.2135e-05,-0.025044,0.30322,-9.7761,0,0,44.921,1,1,8008,4004
2180,1.0157e+08,0,0.0017036,0.0003196,-0.0001889,-0.022219,0.30405,-9.7741,0,0,44.921,1,1,8008,4004
2213,1.0157e+08,0,0.0022297,-0.0006393,0.00017109,-0.018512,0.30528,-9.7699,0,0,44.921,1,1,8008,4004
2216,1.0157e+08,0,0.0019639,-0.0010091,8.7361e-05,-0.017268,0.30534,-9.7665,0,0,44.92,1,1,8008,4004
2219,1.0157e+08,0,0.0016128,-0.00038919,6.5674e-05,-0.016153,0.30588,-9.7632,0,0,44.92,1,1,8008,4004
2222,1.0158e+08,0,0.0016479,0.00020702,7.0121e-05,-0.015255,0.3066,-9.7625,0,0,44.92,1,1,8008,4004
2255,1.0158e+08,0,0.0023475,0.00095208,-8.4563e-07,-0.014058,0.30563,-9.762,0,0,44.92,1,1,8008,4004
2258,1.0158e+08,0,0.0019677,0.0011633,-0.000498,-0.0132,0.3027,-9.7639,0,0,44.92,1,1,8008,4004
2261,1.0158e+08,0,0.0015974,0.0011451,-0.00098358,-0.01305,0.30132,-9.7656,0,0,44.92,1,1,8008,4004
2265,1.0159e+08,0,0.0011951,0.0010396,-0.0014501,-0.013495,0.30069,-9.7673,0,0,44.92,1,1,8008,4004
2298,1.0159e+08,0,0.00019157,0.00049485,-0.001668,-0.013766,0.30118,-9.7701,0,0,44.92,1,1,8008,4004
2301,1.0159e+08,0,0.00061436,-0.00054029,-0.001164,-0.01341,0.30118,-9.7729,0,0,44.92,1,1,8008,4004
2307,1.0159e+08,0,0.00068869,-0.0015095,-0.00033272,-0.013368,0.30062,-9.7824,0,0,44.921,1,1,8008,4004
2311,1.016e+08,0,0.00028109,-0.0020744,0.0004627,-0.012823,0.29903,-9.7872,0,0,44.921,1,1,8008,4004
2344,1.016e+08,0,0.00092973,-0.0022367,0.00081197,-0.012934,0.29607,-9.7905,0,0,44.921,1,1,8008,4004
2348,1.016e+08,0,0.0020389,-0.0025096,2.922e-05,-0.013241,0.29454,-9.7922,0,0,44.921,1,1,8008,4004
2351,1.016e+08,0,0.0019727,-0.002423,-0.00057497,-0.012792,0.2939,-9.7932,0,0,44.921,1,1,8008,4004
2354,1.0161e+08,0,0.0010063,-0.0019164,0.00011763,-0.013214,0.29484,-9.7934,0,0,44.921,1,1,8008,4004
2387,1.0161e+08,0,-0.0009916,-0.00098852,0.0015625,-0.014488,0.29845,-9.7893,0,0,44.92,1,1,8008,4004
2391,1.0161e+08,0,-0.0024195,-0.0021211,0.0017841,-0.017116,0.30149,-9.7798,0,0,44.92,1,1,8008,4004
2394,1.0161e+08,0,-0.0017469,-0.0030247,0.0016783,-0.01884,0.30138,-9.7746,0,0,44.92,1,1,8008,4004
2397,1.0162e+08,0,-0.00011189,-0.0033159,0.0015534,-0.018667,0.3012,-9.7715,0,0,44.921,1,1,8008,4004
2430,1.0162e+08,0,-0.00014226,-0.0031208,0.00057179,-0.018413,0.30009,-9.7714,0,0,44.921,1,1,8008,4004
2433,1.0162e+08,0,-0.00058356,-0.0030824,-9.4774e-05,-0.019439,0.29923,-9.7723,0,0,44.921,1,1,8008,4004
2436,1.0163e+08,0,-0.0010286,-0.0022017,-0.00090981,-0.020872,0.29846,-9.7728,0,0,44.921,1,1,8008,4004
2439,1.0163e+08,0,-0.00096391,-0.0021771,-0.00089432,-0.020729,0.29729,-9.7719,0,0,44.921,1,1,8008,4004
2472,1.0163e+08,0,-0.00029848,-0.0036034,-1.724e-05,-0.019294,0.29558,-9.7686,0,0,44.921,1,1,8008,4004
2477,1.0163e+08,0,-3.3167e-05,-0.0040587,0.00033525,-0.017463,0.29452,-9.7657,0,0,44.921,1,1,8008,4004
2480,1.0164e+08,0,-0.0014796,-0.0034291,0.0011422,-0.016303,0.29365,-9.7632,0,0,44.921,1,1,8008,4004
2485,1.0164e+08,0,-0.0021914,-0.0024754,0.0011898,-0.017351,0.29315,-9.7611,0,0,44.921,1,1,8008,4004
2518,1.0164e+08,0,-0.0027422,-0.00079714,0.00042933,-0.020113,0.29246,-9.7579,0,0,44.92,1,1,8008,4004
2521,1.0165e+08,0,-0.0017788,0.00085785,0.00053261,-0.026981,0.29458,-9.747,0,0,44.92,1,1,8008,4004
2556,1.0165e+08,0,-0.0016543,0.00091668,0.00086917,-0.025702,0.29775,-9.7474,0,0,44.92,1,1,8008,4004
2559,1.0165e+08,0,-0.0024948,0.00037499,0.00065208,-0.024169,0.30115,-9.7485,0,0,44.92,1,1,8008,4004
2562,1.0166e+08,0,-0.0024142,0.00067935,0.00020747,-0.023689,0.30524,-9.7502,0,0,44.92,1,1,8008,4004
2565,1.0166e+08,0,-0.001666,0.0013917,-0.00050021,-0.024397,0.30759,-9.7523,0,0,44.92,1,1,8008,4004
2600,1.0166e+08,0,-0.00081087,0.002417,-0.00082016,-0.025553,0.31029,-9.7559,0,0,44.921,1,1,8008,4004
2604,1.0167e+08,0,-1.0276e-05,0.0027105,-0.00028178,-0.025891,0.31305,-9.7576,0,0,44.921,1,1,8008,4004
2607,1.0167e+08,0,0.00036813,0.0028969,-7.2264e-05,-0.024453,0.31506,-9.7594,0,0,44.921,1,1,8008,4004
2610,1.0167e+08,0,-0.00051052,0.0033369,0.00054402,-0.021305,0.31519,-9.7629,0,0,44.921,1,1,8008,4004
2645,1.0167e+08,0,-0.00086002,0.0035613,0.0018111,-0.018667,0.31375,-9.7639,0,0,44.921,1,1,8008,4004
2649,1.0168e+08,0,-0.00055846,0.0037498,0.0025772,-0.018233,0.31223,-9.7661,0,0,44.921,1,1,8008,4004
2652,1.0168e+08,0,-0.00072422,0.0040528,0.001079,-0.020061,0.30926,-9.7703,0,0,44.921,1,1,8008,4004
2655,1.0168e+08,0,-0.00073209,0.0041179,-0.00046548,-0.022189,0.30796,-9.7722,0,0,44.921,1,1,8008,4004
2690,1.0168e+08,0,-0.00075009,0.0036675,-0.0011086,-0.023051,0.30631,-9.7775,0,0,44.921,1,1,8008,4004
2693,1.0169e+08,0,-0.0012424,0.0033959,-0.001002,-0.022159,0.30546,-9.7796,0,0,44.922,1,1,8008,4004
2696,1.0169e+08,0,-0.0023565,0.0032383,-0.00087891,-0.02111,0.30623,-9.7759,0,0,44.922,1,1,8008,4004
2699,1.0169e+08,0,-0.0023844,0.0035913,-0.00092549,-0.020718,0.3069,-9.7732,0,0,44.922,1,1,8008,4004
2734,1.0169e+08,0,-0.0009012,0.004161,-0.00097856,-0.020208,0.30736,-9.7716,0,0,44.922,1,1,8008,4004
2738,1.017e+08,0,0.00033432,0.0033966,-0.00055101,-0.018011,0.30777,-9.7706,0,0,44.922,1,1,8008,4004
2744,1.017e+08,0,0.00036722,0.003797,-0.00012405,-0.016911,0.30765,-9.7694,0,0,44.922,1,1,8008,4004
2748,1.017e+08,0,0.0013698,0.0042616,9.9639e-05,-0.015991,0.30678,-9.7688,0,0,44.923,1,1,8008,4004
2783,1.017e+08,0,0.0009032,0.0032925,0.00029478,-0.015065,0.30618,-9.7658,0,0,44.923,1,1,8008,4004
2787,1.0171e+08,0,0.0013129,0.0019103,0.00053209,-0.01466,0.307,-9.7644,0,0,44.923,1,1,8008,4004
2790,1.0171e+08,0,0.0018333,0.0023577,0.00077439,-0.014552,0.31075,-9.7627,0,0,44.923,1,1,8008,4004
2793,1.0171e+08,0,0.0024623,0.0025209,0.0011902,-0.015234,0.31221,-9.7604,0,0,44.923,1,1,8008,4004
2828,1.0171e+08,0,0.002083,0.0011277,0.00045816,-0.015878,0.3123,-9.7585,0,0,44.923,1,1,8008,4004
2831,1.0172e+08,0,0.00095017,-0.00034136,-0.00067406,-0.016125,0.31195,-9.7564,0,0,44.924,1,1,8008,4004
2834,1.0172e+08,0,0.00038584,-0.00015518,-0.0012316,-0.016586,0.31099,-9.7566,0,0,44.924,1,1,8008,4004
2837,1.0172e+08,0,0.00046381,-0.00037884,-0.001647,-0.016392,0.30904,-9.7603,0,0,44.924,1,1,8008,4004
2872,1.0172e+08,0,0.00047684,-0.00064602,-0.0015316,-0.016018,0.30761,-9.7628,0,0,44.924,1,1,8008,4004
2878,1.0173e+08,0,0.00073798,-0.0013265,-0.0016961,-0.016018,0.30606,-9.7659,0,0,44.924,1,1,8008,4004
2881,1.0173e+08,0,0.00072002,-0.0019398,-0.0013968,-0.016124,0.30411,-9.7672,0,0,44.924,1,1,8008,4004
2884,1.0173e+08,0,0.0004642,-0.0014729,-0.00013606,-0.015812,0.30355,-9.77,0,0,44.925,1,1,8008,4004
2919,1.0173e+08,0,0.000887,-0.0013506,0.00038074,-0.016015,0.30353,-9.7734,0,0,44.925,1,1,8008,4004
2922,1.0174e+08,0,0.001839,-0.0010557,0.00054197,-0.015032,0.30396,-9.7752,0,0,44.925,1,1,8008,4004
2925,1.0174e+08,0,0.0027243,-0.00072786,4.0274e-05,-0.010926,0.30231,-9.776,0,0,44.925,1,1,8008,4004
2928,1.0174e+08,0,0.0024001,-0.0013343,-0.00081348,-0.0086603,0.30206,-9.7768,0,0,44.925,1,1,8008,4004
2963,1.0175e+08,0,0.0012925,-0.001854,-0.0011017,-0.0072778,0.30241,-9.7773,0,0,44.925,1,1,8008,4004
2966,1.0175e+08,0,0.00018218,-0.0014906,-0.00063559,-0.0064837,0.30251,-9.7772,0,0,44.925,1,1,8008,4004
2970,1.0175e+08,0,0.00088223,-0.0012799,-0.00060226,-0.0078011,0.30327,-9.7741,0,0,44.925,1,1,8008,4004
2973,1.0175e+08,0,0.0010385,-0.0016938,-0.00032781,-0.0087687,0.30325,-9.7697,0,0,44.926,1,1,8008,4004
3008,1.0176e+08,0,0.0015614,-0.0011631,-0.00013703,-0.011136,0.30199,-9.7632,0,0,44.926,1,1,8008,4004
3011,1.0176e+08,0,0.0017002,-0.0011614,-0.00074837,-0.013422,0.30114,-9.7607,0,0,44.926,1,1,8008,4004
3015,1.0176e+08,0,0.0013823,-0.002394,-0.00059071,-0.016045,0.30117,-9.7583,0,0,44.926,1,1,8008,4004
3018,1.0176e+08,0,0.0014463,-0.002887,-0.00088943,-0.015512,0.30064,-9.7581,0,0,44.926,1,1,8008,4004
3053,1.0177e+08,0,0.0024211,-0.0024313,-0.00098247,-0.014228,0.29889,-9.7603,0,0,44.926,1,1,8008,4004
3056,1.0177e+08,0,0.0020312,-0.0010526,-0.0004794,-0.013506,0.29707,-9.7643,0,0,44.926,1,1,8008,4004
3059,1.0177e+08,0,0.00097556,-0.00049696,-0.00028711,-0.012874,0.29537,-9.7672,0,0,44.926,1,1,8008,4004
3063,1.0177e+08,0,-0.00070454,2.2724e-05,-0.00067879,-0.013081,0.29416,-9.7735,0,0,44.926,1,1,8008,4004
3098,1.0178e+08,0,-0.0023617,0.00057824,-0.00038097,-0.015903,0.2945,-9.7803,0,0,44.926,1,1,8008,4004
3101,1.0178e+08,0,-0.0024643,0.00053715,0.00031581,-0.018566,0.29418,-9.7835,0,0,44.926,1,1,8008,4004
3105,1.0178e+08,0,-0.0017541,0.00025013,0.00034331,-0.019304,0.29347,-9.7835,0,0,44.926,1,1,8008,4004
3108,1.0178e+08,0,-0.00093723,-8.3718e-05,0.00047565,-0.019106,0.29336,-9.782,0,0,44.926,1,1,8008,4004
3145,1.0179e+08,0,-0.00067419,2.6012e-05,0.00062082,-0.017938,0.29385,-9.7794,0,0,44.926,1,1,8008,4004
3148,1.0179e+08,0,-0.000802,0.00088498,0.00070202,-0.017102,0.2956,-9.7774,0,0,44.926,1,1,8008,4004
3151,1.0179e+08,0,-0.00024972,0.0013838,0.001175,-0.015262,0.2985,-9.7725,0,0,44.927,1,1,8008,4004
3154,1.0179e+08,0,-0.00063916,0.0012324,0.0015555,-0.013768,0.30041,-9.7698,0,0,44.927,1,1,8008,4004
3189,1.018e+08,0,-0.00093322,0.0009755,0.00084049,-0.012761,0.30352,-9.7665,0,0,44.927,1,1,8008,4004
3192,1.018e+08,0,-0.0008065,4.7853e-05,0.00052212,-0.013319,0.30514,-9.7637,0,0,44.927,1,1,8008,4004
3199,1.018e+08,0,-2.0378e-05,1.3729e-05,0.00078077,-0.012436,0.30797,-9.7596,0,0,44.927,1,1,8008,4004
3203,1.018e+08,0,-0.00031788,0.00094135,0.00069681,-0.010212,0.30967,-9.7586,0,0,44.927,1,1,8008,4004
3239,1.0181e+08,0,-0.0018918,0.0014609,0.00074295,-0.0076224,0.30872,-9.7569,0,0,44.927,1,1,8008,4004
3242,1.0181e+08,0,-0.0018178,0.0010779,0.00029186,-0.0056631,0.30657,-9.7541,0,0,44.927,1,1,8008,4004
3246,1.0181e+08,0,-0.0019384,0.0018042,0.0004786,-0.0056278,0.30468,-9.754,0,0,44.927,1,1,8008,4004
3249,1.0181e+08,0,-0.0029132,0.001781,0.0011896,-0.0079015,0.30268,-9.7539,0,0,44.927,1,1,8008,4004
3284,1.0182e+08,0,-0.0026638,0.0016061,0.0013038,-0.0097744,0.3032,-9.7532,0,0,44.928,1,1,8008,4004
3287,1.0182e+08,0,-0.0025449,0.001865,0.00040224,-0.01096,0.3055,-9.7521,0,0,44.928,1,1,8008,4004
3290,1.0182e+08,0,-0.002763,0.0018438,-0.0011913,-0.011055,0.30807,-9.7514,0,0,44.928,1,1,8008,4004
3293,1.0182e+08,0,-0.0022804,0.0019096,-0.0019149,-0.012362,0.31304,-9.7526,0,0,44.928,1,1,8008,4004
3328,1.0183e+08,0,-0.0027846,0.0019751,-0.00080604,-0.012569,0.31562,-9.7522,0,0,44.928,1,1,8008,4004
3331,1.0183e+08,0,-0.0033187,0.00059968,0.0011102,-0.012907,0.31579,-9.7506,0,0,44.928,1,1,8008,4004
3336,1.0183e+08,0,-0.0032868,0.00027841,0.0016523,-0.012769,0.31448,-9.7494,0,0,44.929,1,1,8008,4004
3339,1.0184e+08,0,-0.0018389,0.00066401,0.00078381,-0.012814,0.31115,-9.7455,0,0,44.929,1,1,8008,4004
3374,1.0184e+08,0,-0.00067973,-0.00015444,-0.00058556,-0.015145,0.30698,-9.7435,0,0,44.929,1,1,8008,4004
3377,1.0184e+08,0,-0.00071709,-0.00098375,-0.0013303,-0.015886,0.30587,-9.7453,0,0,44.929,1,1,8008,4004
3380,1.0184e+08,0,-0.0014014,-0.0016922,-0.0015088,-0.015907,0.30828,-9.7478,0,0,44.93,1,1,8008,4004
3385,1.0185e+08,0,-0.0014514,-0.0022841,-0.0011292,-0.01574,0.31005,-9.7482,0,0,44.93,1,1,8008,4004
3420,1.0186e+08,0,-0.00063434,-0.00071056,-0.0008417,-0.019786,0.30882,-9.742,0,0,44.93,1,1,8008,4004
3425,1.0186e+08,0,-0.0010167,-0.00058163,-0.0010963,-0.020639,0.306,-9.7422,0,0,44.931,1,1,8008,4004
3460,1.0186e+08,0,-0.00027045,-0.0010201,-0.0012934,-0.023915,0.30161,-9.7446,0,0,44.931,1,1,8008,4004
3464,1.0186e+08,0,5.5827e-05,-0.0011076,-0.00058305,-0.026699,0.3001,-9.7478,0,0,44.931,1,1,8008,4004
3467,1.0186e+08,0,7.1494e-05,-0.0026882,-0.00057251,-0.029376,0.30217,-9.7519,0,0,44.931,1,1,8008,4004
3471,1.0187e+08,0,-0.00020292,-0.0030959,-0.00082928,-0.030027,0.30435,-9.756,0,0,44.931,1,1,8008,4004
3506,1.0187e+08,0,-0.00014245,-0.0030784,-0.00088175,-0.028249,0.30734,-9.7633,0,0,44.931,1,1,8008,4004
3509,1.0187e+08,0,0.00036497,-0.0030184,-0.00083406,-0.026134,0.30958,-9.7678,0,0,44.932,1,1,8008,4004
3512,1.0188e+08,0,0.00039838,-0.0030635,-0.0014294,-0.022702,0.31087,-9.7725,0,0,44.932,1,1,8008,4004
3515,1.0188e+08,0,-0.00027523,-0.0029895,-0.0021119,-0.021497,0.3104,-9.7742,0,0,44.932,1,1,8008,4004
3550,1.0188e+08,0,-0.00088919,-0.0029566,-0.002012,-0.019573,0.30913,-9.7752,0,0,44.932,1,1,8008,4004
3553,1.0188e+08,0,-0.00052721,-0.0027702,-0.00092994,-0.018438,0.3089,-9.7766,0,0,44.932,1,1,8008,4004
3556,1.0189e+08,0,0.00076072,-0.0033046,-0.00018064,-0.019954,0.30884,-9.7794,0,0,44.932,1,1,8008,4004
3560,1.0189e+08,0,0.0011435,-0.003469,-0.00022636,-0.022477,0.30905,-9.7808,0,0,44.932,1,1,8008,4004
3595,1.0189e+08,0,0.0018395,-0.0032502,-0.0002676,-0.024801,0.30963,-9.7819,0,0,44.933,1,1,8008,4004
3598,1.0189e+08,0,0.0025163,-0.0019905,-0.0005535,-0.024991,0.30842,-9.781,0,0,44.933,1,1,8008,4004
3601,1.019e+08,0,0.0034531,-0.0017999,0.00037846,-0.024858,0.30618,-9.7785,0,0,44.933,1,1,8008,4004
3605,1.019e+08,0,0.002853,-0.0014358,0.00071855,-0.023724,0.30313,-9.7754,0,0,44.933,1,1,8008,4004
3640,1.019e+08,0,0.0022056,-0.00065877,0.0017728,-0.022572,0.30079,-9.7692,0,0,44.933,1,1,8008,4004
3643,1.019e+08,0,0.0023724,-0.00070726,0.0019434,-0.022084,0.29901,-9.7645,0,0,44.933,1,1,8008,4004
3649,1.0191e+08,0,0.0030198,-0.0011971,0.001116,-0.019948,0.29451,-9.7611,0,0,44.934,1,1,8008,4004
3654,1.0191e+08,0,0.0032021,-0.00098216,-9.8951e-05,-0.018668,0.29249,-9.7598,0,0,44.934,1,1,8008,4004
3689,1.0191e+08,0,0.0023735,0.00042376,-0.00099056,-0.019575,0.29231,-9.7601,0,0,44.934,1,1,8008,4004
3692,1.0191e+08,0,0.0011617,0.00039816,-0.00047582,-0.020778,0.29342,-9.7613,0,0,44.934,1,1,8008,4004
3695,1.0192e+08,0,0.00024225,4.5284e-05,0.00086529,-0.021928,0.29532,-9.7629,0,0,44.934,1,1,8008,4004
3699,1.0192e+08,0,0.00012981,0.00020948,0.001572,-0.022824,0.29643,-9.7641,0,0,44.934,1,1,8008,4004
3734,1.0192e+08,0,0.00065257,0.0007457,0.002038,-0.024867,0.29747,-9.7653,0,0,44.935,1,1,8008,4004
3737,1.0192e+08,0,0.00042701,0.0012116,0.00079755,-0.026824,0.29826,-9.7662,0,0,44.935,1,1,8008,4004
3740,1.0193e+08,0,0.00063396,0.0017691,-0.00038923,-0.025722,0.29941,-9.7667,0,0,44.935,1,1,8008,4004
3743,1.0193e+08,0,0.0016198,0.0019703,-0.0016093,-0.021966,0.30247,-9.7678,0,0,44.935,1,1,8008,4004
3778,1.0193e+08,0,0.0015431,0.00098138,-0.001264,-0.021075,0.30639,-9.7681,0,0,44.936,1,1,8008,4004
3781,1.0193e+08,0,0.001923,0.0014459,-0.00076297,-0.020702,0.30761,-9.7696,0,0,44.936,1,1,8008,4004
3788,1.0194e+08,0,0.0019329,0.0026318,-0.00045121,-0.02074,0.30483,-9.7705,0,0,44.936,1,1,8008,4004
3792,1.0194e+08,0,0.0010732,0.00318,0.00024167,-0.020739,0.30293,-9.769,0,0,44.936,1,1,8008,4004
3827,1.0194e+08,0,0.0014283,0.0031476,0.0012828,-0.019258,0.30076,-9.7699,0,0,44.936,1,1,8008,4004
3830,1.0195e+08,0,0.0010798,0.0025403,0.0010852,-0.015629,0.29996,-9.7727,0,0,44.937,1,1,8008,4004
3833,1.0195e+08,0,0.00056313,0.0021846,0.00035354,-0.013919,0.30012,-9.7726,0,0,44.937,1,1,8008,4004
3836,1.0195e+08,0,-0.00071527,0.0019256,1.0656e-05,-0.011826,0.30187,-9.7692,0,0,44.937,1,1,8008,4004
3839,1.0195e+08,0,-0.0010798,0.0022069,-0.00016215,-0.0092967,0.30169,-9.7648,0,0,44.937,1,1,8008,4004
3874,1.0196e+08,0,-0.0005156,0.0028478,-0.00017053,-0.0073376,0.29969,-9.7646,0,0,44.938,1,1,8008,4004
3877,1.0196e+08,0,8.3615e-05,0.0032076,-0.00050757,-0.0076461,0.29808,-9.764,0,0,44.938,1,1,8008,4004
3881,1.0196e+08,0,-0.00020054,0.0030782,-0.00038276,-0.0074208,0.29751,-9.7618,0,0,44.938,1,1,8008,4004
3884,1.0196e+08,0,-0.00095112,0.0020847,-0.00041424,-0.0052618,0.29639,-9.7597,0,0,44.938,1,1,8008,4004
3919,1.0197e+08,0,-0.0019956,0.0011539,-1.6349e-05,-0.0022251,0.2954,-9.7598,0,0,44.939,1,1,8008,4004
3922,1.0197e+08,0,-0.0017436,0.00056872,0.00051838,0.00037694,0.29511,-9.7612,0,0,44.939,1,1,8008,4004
3925,1.0197e+08,0,-0.00069073,-0.00012074,0.0011514,0.0028126,0.29673,-9.7646,0,0,44.939,1,1,8008,4004
3928,1.0197e+08,0,-0.00062519,-0.00056876,0.00071165,0.0034098,0.29808,-9.7666,0,0,44.939,1,1,8008,4004
3963,1.0198e+08,0,-0.0011988,-0.00085096,-0.00015936,0.0030306,0.2999,-9.7702,0,0,44.939,1,1,8008,4004
3966,1.0198e+08,0,-0.0010759,-0.0009427,-0.00081932,0.00011718,0.29998,-9.7734,0,0,44.94,1,1,8008,4004
3971,1.0198e+08,0,-0.0012587,-0.0016518,-2.7207e-05,-0.0027334,0.29968,-9.7748,0,0,44.94,1,1,8008,4004
3974,1.0198e+08,0,-0.0023332,-0.0015469,0.00051252,-0.005632,0.29964,-9.7758,0,0,44.94,1,1,8008,4004
4009,1.0199e+08,0,-0.0023939,-0.00065561,-0.00035883,-0.0099572,0.29943,-9.7764,0,0,44.94,1,1,8008,4004
4012,1.0199e+08,0,-0.0022374,-0.00062094,-0.00075951,-0.012829,0.30081,-9.7759,0,0,44.941,1,1,8008,4004
4018,1.0199e+08,0,-0.0013433,-0.0010165,-0.00045696,-0.015497,0.30358,-9.7753,0,0,44.941,1,1,8008,4004
4021,1.0199e+08,0,-0.00099053,-0.0019041,-0.00061945,-0.016129,0.30501,-9.7754,0,0,44.941,1,1,8008,4004
4056,1.02e+08,0,-0.0008689,-0.0020216,-0.00048254,-0.01638,0.30647,-9.7753,0,0,44.941,1,1,8008,4004
4059,1.02e+08,0,-0.0019174,-0.0024316,0.00023581,-0.01604,0.30643,-9.7729,0,0,44.941,1,1,8008,4004
4062,1.02e+08,0,-0.0032255,-0.002416,0.00030352,-0.016595,0.3061,-9.7697,0,0,44.941,1,1,8008,4004
4065,1.02e+08,0,-0.0037214,-0.0022809,0.00035272,-0.018177,0.30594,-9.7672,0,0,44.941,1,1,8008,4004
4102,1.0201e+08,0,-0.003403,-0.0011866,0.0004033,-0.021192,0.30633,-9.7658,0,0,44.942,1,1,8008,4004
4108,1.0201e+08,0,-0.0029128,-0.00019951,0.00068104,-0.020333,0.30674,-9.7624,0,0,44.942,1,1,8008,4004
4113,1.0201e+08,0,-0.0023102,0.00010491,0.0011945,-0.017365,0.30709,-9.7592,0,0,44.942,1,1,8008,4004
4116,1.0201e+08,0,-0.0019304,-0.00033429,0.00078575,-0.014147,0.30855,-9.7567,0,0,44.942,1,1,8008,4004
4151,1.0202e+08,0,-0.0018965,-0.00083204,-0.00056025,-0.0090125,0.31272,-9.7541,0,0,44.942,1,1,8008,4004
4154,1.0202e+08,0,-0.0020597,-0.00078172,-0.0013478,-0.0066526,0.31478,-9.7536,0,0,44.942,1,1,8008,4004
4157,1.0202e+08,0,-0.0013899,-0.00011261,-0.0012307,-0.0060465,0.31533,-9.7546,0,0,44.943,1,1,8008,4004
4160,1.0202e+08,0,-0.00065607,0.00028604,-0.00070961,-0.005685,0.31527,-9.7569,0,0,44.943,1,1,8008,4004
4195,1.0203e+08,0,0.00027987,0.00060944,-0.00070124,-0.0039913,0.31475,-9.7584,0,0,44.943,1,1,8008,4004
4198,1.0203e+08,0,0.00068054,0.00042968,-0.0010267,-0.002106,0.31421,-9.7586,0,0,44.943,1,1,8008,4004
4202,1.0203e+08,0,0.00041976,8.612e-05,-0.0012419,-0.0027834,0.31432,-9.7575,0,0,44.943,1,1,8008,4004
4205,1.0203e+08,0,1.2076e-05,0.00063403,-0.00072613,-0.0033421,0.314,-9.7549,0,0,44.943,1,1,8008,4004
4240,1.0204e+08,0,-0.00032943,0.000919,5.3417e-05,-0.0033908,0.3133,-9.7549,0,0,44.944,1,1,8008,4004
4243,1.0204e+08,0,0.00033138,0.00039302,-9.0046e-05,-0.0036938,0.31248,-9.7574,0,0,44.944,1,1,8008,4004
4247,1.0204e+08,0,0.0012246,0.00049949,-0.00064018,-0.0037117,0.31161,-9.7601,0,0,44.944,1,1,8008,4004
4250,1.0204e+08,0,0.0012854,4.6629e-05,-0.0010973,-0.0025845,0.31161,-9.7616,0,0,44.944,1,1,8008,4004
4285,1.0205e+08,0,0.0010967,-0.0002977,-0.0015531,-0.0020711,0.31312,-9.764,0,0,44.944,1,1,8008,4004
4288,1.0205e+08,0,0.00064505,1.7424e-07,-0.0010116,-0.0043007,0.31529,-9.7668,0,0,44.944,1,1,8008,4004
4294,1.0205e+08,0,0.00049502,0.0003588,-0.00021243,-0.0069143,0.31678,-9.7695,0,0,44.944,1,1,8008,4004
4297,1.0206e+08,0,0.0010282,6.1086e-05,0.00078337,-0.01231,0.31751,-9.7721,0,0,44.945,1,1,8008,4004
4332,1.0206e+08,0,0.0012881,0.00032686,0.00063943,-0.013736,0.31702,-9.7719,0,0,44.945,1,1,8008,4004
4335,1.0207e+08,0,0.00098817,0.0011322,-5.723e-05,-0.024624,0.31034,-9.7674,0,0,44.945,1,1,8008,4004
4371,1.0207e+08,0,0.0024183,0.00099379,0.00027947,-0.022798,0.30655,-9.7687,0,0,44.945,1,1,8008,4004
4374,1.0207e+08,0,0.0026325,0.00076129,0.00096777,-0.020793,0.30197,-9.7692,0,0,44.946,1,1,8008,4004
4377,1.0208e+08,0,0.0024207,0.00040652,0.0015769,-0.018692,0.29677,-9.7677,0,0,44.946,1,1,8008,4004
4380,1.0208e+08,0,0.0021788,0.00026623,0.0018551,-0.017161,0.28755,-9.7613,0,0,44.946,1,1,8008,4004
4415,1.0208e+08,0,0.0015281,-9.3316e-05,0.0020523,-0.017149,0.28449,-9.758,0,0,44.946,1,1,8008,4004
4419,1.0208e+08,0,0.0016537,-0.00040046,0.0020426,-0.019827,0.28391,-9.7526,0,0,44.947,1,1,8008,4004
4422,1.0209e+08,0,0.0020183,-0.00080472,0.0017464,-0.022787,0.28703,-9.7491,0,0,44.947,1,1,8008,4004
4425,1.0209e+08,0,0.0016328,-0.0012832,0.0010592,-0.023318,0.2903,-9.7467,0,0,44.947,1,1,8008,4004
4460,1.0209e+08,0,0.0019865,-0.0012757,0.00080586,-0.021705,0.29437,-9.7462,0,0,44.947,1,1,8008,4004
4463,1.0209e+08,0,0.0031975,-0.00091396,0.00042654,-0.015708,0.29938,-9.7493,0,0,44.947,1,1,8008,4004
4466,1.021e+08,0,0.0032838,-0.001008,0.0010804,-0.011994,0.3035,-9.7514,0,0,44.947,1,1,8008,4004
4469,1.021e+08,0,0.0017721,-0.00017951,0.0013467,-0.011603,0.30518,-9.7518,0,0,44.947,1,1,8008,4004
4504,1.021e+08,0,0.0010143,0.00074604,0.001312,-0.011527,0.30652,-9.7526,0,0,44.948,1,1,8008,4004
4508,1.021e+08,0,0.00085865,0.0013585,0.0012134,-0.014408,0.30757,-9.7523,0,0,44.948,1,1,8008,4004
4511,1.0211e+08,0,0.0012451,0.00033444,0.001823,-0.017683,0.30739,-9.7507,0,0,44.948,1,1,8008,4004
4514,1.0211e+08,0,0.00093289,-0.0015343,0.0023201,-0.022873,0.30687,-9.7497,0,0,44.948,1,1,8008,4004
4549,1.0211e+08,0,0.0004228,-0.0021817,0.00089582,-0.023102,0.30643,-9.7516,0,0,44.948,1,1,8008,4004
4555,1.0211e+08,0,0.00015464,-0.002832,0.00029648,-0.021578,0.30387,-9.7531,0,0,44.949,1,1,8008,4004
4560,1.0212e+08,0,-0.00058352,-0.0035278,0.00058086,-0.018631,0.30044,-9.7545,0,0,44.949,1,1,8008,4004
4563,1.0212e+08,0,-0.00083496,-0.0032809,0.00069759,-0.017292,0.29921,-9.7561,0,0,44.949,1,1,8008,4004
4598,1.0212e+08,0,-0.0012649,-0.0028345,0.0011744,-0.016319,0.29997,-9.7585,0,0,44.949,1,1,8008,4004
4602,1.0212e+08,0,-0.00097844,-0.002991,0.00037004,-0.014875,0.29982,-9.7614,0,0,44.949,1,1,8008,4004
4605,1.0213e+08,0,-0.0010286,-0.0032201,2.9195e-05,-0.014103,0.29886,-9.7652,0,0,44.95,1,1,8008,4004
4608,1.0213e+08,0,-0.001797,-0.0028398,0.00028714,-0.015158,0.29804,-9.7642,0,0,44.95,1,1,8008,4004
4643,1.0213e+08,0,-0.0017459,-0.0020089,1.3932e-05,-0.017749,0.29741,-9.7589,0,0,44.95,1,1,8008,4004
4647,1.0213e+08,0,-0.0011269,-0.0024989,-1.2686e-05,-0.020411,0.29748,-9.7556,0,0,44.95,1,1,8008,4004
4650,1.0214e+08,0,-6.8871e-05,-0.0016988,0.0004231,-0.025072,0.29659,-9.7526,0,0,44.95,1,1,8008,4004
4653,1.0214e+08,0,-0.00071257,-0.0004774,0.00113,-0.02628,0.29592,-9.7541,0,0,44.951,1,1,8008,4004
4688,1.0214e+08,0,-0.0011902,0.00041847,5.356e-05,-0.026381,0.29625,-9.7615,0,0,44.951,1,1,8008,4004
4691,1.0214e+08,0,-0.0015252,0.00076085,-0.00027991,-0.025835,0.29802,-9.7661,0,0,44.951,1,1,8008,4004
4694,1.0215e+08,0,-0.00039279,0.00041836,0.0002089,-0.025655,0.30228,-9.7665,0,0,44.951,1,1,8008,4004
4697,1.0215e+08,0,9.0745e-05,0.0006015,0.00038302,-0.026266,0.30456,-9.7648,0,0,44.951,1,1,8008,4004
4732,1.0215e+08,0,-0.00048702,0.00066506,5.2987e-05,-0.026285,0.3079,-9.7636,0,0,44.951,1,1,8008,4004
4737,1.0215e+08,0,-0.0007059,0.00038906,0.00010331,-0.024577,0.31001,-9.766,0,0,44.952,1,1,8008,4004
4740,1.0216e+08,0,-0.00053005,6.6387e-05,-0.00022233,-0.022634,0.31059,-9.7683,0,0,44.952,1,1,8008,4004
4743,1.0216e+08,0,0.00056475,-0.00085504,-0.00091285,-0.017783,0.31165,-9.7691,0,0,44.952,1,1,8008,4004
4746,1.0216e+08,0,0.00062137,-0.0010584,-0.0013009,-0.013764,0.31133,-9.7673,0,0,44.952,1,1,8008,4004
4781,1.0216e+08,0,0.00022076,-0.0011455,-0.0011714,-0.01058,0.30968,-9.762,0,0,44.952,1,1,8008,4004
4784,1.0217e+08,0,0.00067399,-0.0015206,-0.00057662,-0.012903,0.30931,-9.7612,0,0,44.952,1,1,8008,4004
4787,1.0217e+08,0,0.0010053,0.00027432,-0.00067886,-0.017178,0.30682,-9.7628,0,0,44.952,1,1,8008,4004
4790,1.0217e+08,0,0.001135,0.0010825,-0.0011544,-0.018894,0.30528,-9.7643,0,0,44.953,1,1,8008,4004
4825,1.0218e+08,0,0.0009882,0.001799,-0.00067647,-0.023788,0.30314,-9.7674,0,0,44.953,1,1,8008,4004
4829,1.0218e+08,0,0.00010008,0.0016445,-0.00058078,-0.028331,0.30235,-9.7674,0,0,44.953,1,1,8008,4004
4833,1.0218e+08,0,-0.00051159,0.0014263,-0.00086161,-0.037921,0.30252,-9.7685,0,0,44.953,1,1,8008,4004
4836,1.0218e+08,0,-0.00051358,0.00097563,-0.0014,-0.043228,0.30225,-9.7706,0,0,44.953,1,1,8008,4004
4871,1.0219e+08,0,-0.00026489,0.00046858,-0.0011034,-0.04708,0.30194,-9.7744,0,0,44.953,1,1,8008,4004
4875,1.0219e+08,0,0.00011632,0.00091525,-0.00099243,-0.047393,0.30265,-9.7746,0,0,44.953,1,1,8008,4004
4878,1.0219e+08,0,0.00018712,0.0017973,-0.00057049,-0.045544,0.30225,-9.7733,0,0,44.953,1,1,8008,4004
4881,1.0219e+08,0,0.00086795,0.0026119,-0.00045445,-0.042056,0.29981,-9.7714,0,0,44.953,1,1,8008,4004
4916,1.022e+08,0,0.0012665,0.0028611,-0.00041823,-0.037617,0.29575,-9.7727,0,0,44.953,1,1,8008,4004
4919,1.022e+08,0,0.001001,0.0024339,-0.00026048,-0.032072,0.29407,-9.7718,0,0,44.954,1,1,8008,4004
4922,1.022e+08,0,0.00042769,0.0023811,-0.0003556,-0.026956,0.29373,-9.7686,0,0,44.954,1,1,8008,4004
4926,1.022e+08,0,-0.00037658,0.0020714,-0.00044713,-0.021877,0.29358,-9.7671,0,0,44.954,1,1,8008,4004
4961,1.0221e+08,0,-0.00041496,0.00079493,-0.00043675,-0.015562,0.2937,-9.7654,0,0,44.954,1,1,8008,4004
4965,1.0221e+08,0,0.0001478,0.00057992,0.00031717,-0.012723,0.29408,-9.7631,0,0,44.954,1,1,8008,4004
4968,1.0221e+08,0,5.9379e-05,0.00053796,0.0015951,-0.013066,0.29472,-9.7628,0,0,44.954,1,1,8008,4004
4971,1.0221e+08,0,-0.00025179,0.000705,0.0021493,-0.013831,0.29689,-9.7617,0,0,44.954,1,1,8008,4004
5009,1.0222e+08,0,-0.00072746,0.00033672,0.0016087,-0.016457,0.29987,-9.7604,0,0,44.954,1,1,8008,4004
5013,1.0222e+08,0,-0.00035332,0.0012178,0.00032605,-0.01923,0.30199,-9.7618,0,0,44.954,1,1,8008,4004
5016,1.0222e+08,0,-0.00054615,0.0018448,-0.00059381,-0.019938,0.30404,-9.7633,0,0,44.954,1,1,8008,4004
5019,1.0222e+08,0,-0.000258,0.0015363,-0.00025744,-0.021126,0.30653,-9.7644,0,0,44.954,1,1,8008,4004
5054,1.0223e+08,0,0.00061316,-4.881e-05,0.00050237,-0.024478,0.31045,-9.767,0,0,44.954,1,1,8008,4004
5058,1.0223e+08,0,0.00086638,-0.0007439,0.00069206,-0.027307,0.31383,-9.7691,0,0,44.954,1,1,8008,4004
5062,1.0223e+08,0,0.00069628,-0.001314,0.00054699,-0.028596,0.3142,-9.7705,0,0,44.953,1,1,8008,4004
5065,1.0223e+08,0,0.00023701,-0.001277,-0.00022461,-0.028394,0.31408,-9.7724,0,0,44.953,1,1,8008,4004
5100,1.0224e+08,0,0.00010199,-0.0011975,-0.0017417,-0.027178,0.31604,-9.7731,0,0,44.953,1,1,8008,4004
5106,1.0224e+08,0,-0.00065984,-0.0010212,-0.0018243,-0.026757,0.31644,-9.7711,0,0,44.953,1,1,8008,4004
5109,1.0224e+08,0,-0.0017999,-0.00064414,-7.6217e-05,-0.026275,0.3146,-9.7665,0,0,44.953,1,1,8008,4004
5112,1.0225e+08,0,0.00055421,0.0020345,0.00015234,-0.019932,0.30306,-9.7546,0,0,44.953,1,1,8008,4004
5147,1.0225e+08,0,0.00071272,0.0027755,0.00013365,-0.01611,0.30097,-9.7507,0,0,44.953,1,1,8008,4004
5151,1.0226e+08,0,0.00061107,0.001772,0.00090386,-0.013874,0.29974,-9.749,0,0,44.953,1,1,8008,4004
5154,1.0226e+08,0,-0.0001693,-0.00063354,0.0014576,-0.013772,0.29908,-9.7466,0,0,44.953,1,1,8008,4004
5157,1.0226e+08,0,-7.1161e-05,-0.0012185,0.0023739,-0.01203,0.30139,-9.7439,0,0,44.953,1,1,8008,4004
5192,1.0226e+08,0,-8.4059e-05,-0.00064306,0.0031172,-0.0084847,0.30466,-9.7441,0,0,44.953,1,1,8008,4004
5195,1.0227e+08,0,0.00010874,-0.00014565,0.0032443,-0.0045559,0.30783,-9.7466,0,0,44.953,1,1,8008,4004
5199,1.0227e+08,0,-0.0012679,-0.00015347,0.0017218,-3.598e-05,0.31036,-9.7524,0,0,44.953,1,1,8008,4004
5202,1.0227e+08,0,-0.0023096,0.000437,0.0012561,0.0018723,0.31186,-9.7539,0,0,44.953,1,1,8008,4004
5237,1.0227e+08,0,-0.0028997,0.00088276,0.0018722,0.0018241,0.31482,-9.7535,0,0,44.953,1,1,8008,4004
5241,1.0228e+08,0,-0.0026304,-9.9099e-05,0.0027874,-2.5496e-05,0.31609,-9.7543,0,0,44.953,1,1,8008,4004
5244,1.0228e+08,0,-0.002004,-0.0011575,0.0022985,-0.0016948,0.31644,-9.7551,0,0,44.953,1,1,8008,4004
5247,1.0228e+08,0,-0.00058106,-0.0022339,0.00014922,-0.0044984,0.31654,-9.7572,0,0,44.953,1,1,8008,4004
5282,1.0229e+08,0,3.8452e-05,-0.0021108,-0.00029881,-0.0087992,0.31407,-9.7581,0,0,44.953,1,1,8008,4004
5285,1.0229e+08,0,0.00061498,-0.0013371,0.00026664,-0.011884,0.31247,-9.759,0,0,44.953,1,1,8008,4004
5289,1.0229e+08,0,0.0013409,-0.00036572,0.00054668,-0.015116,0.31148,-9.763,0,0,44.953,1,1,8008,4004
5292,1.0229e+08,0,0.00089093,0.00022439,0.00027831,-0.015524,0.31061,-9.765,0,0,44.953,1,1,8008,4004
5327,1.023e+08,0,-0.00045936,0.00062406,-4.4026e-05,-0.016059,0.30955,-9.7656,0,0,44.953,1,1,8008,4004
5331,1.023e+08,0,-0.0010975,0.00057267,9.9041e-05,-0.017797,0.30876,-9.7651,0,0,44.953,1,1,8008,4004
5334,1.023e+08,0,-0.0018259,0.00052741,-0.00088262,-0.019402,0.30579,-9.7648,0,0,44.953,1,1,8008,4004
5337,1.023e+08,0,-0.0023149,0.00019219,-0.0014438,-0.019532,0.30359,-9.7653,0,0,44.953,1,1,8008,4004
5372,1.0231e+08,0,-0.0012475,0.00039626,-0.00063365,-0.019706,0.301,-9.7688,0,0,44.953,1,1,8008,4004
5375,1.0231e+08,0,-0.00057244,0.0018813,-0.00066794,-0.02068,0.30007,-9.7708,0,0,44.954,1,1,8008,4004
5378,1.0231e+08,0,-0.0002597,0.0031738,-0.00087371,-0.020609,0.29968,-9.7712,0,0,44.954,1,1,8008,4004
5381,1.0231e+08,0,-0.00061371,0.0028856,-0.00076601,-0.019804,0.29978,-9.7708,0,0,44.954,1,1,8008,4004
5416,1.0231e+08,0,-0.0010565,0.0023561,-0.00064919,-0.016574,0.3,-9.7695,0,0,44.954,1,1,8008,4004
5420,1.0232e+08,0,-0.00049201,0.0024313,-0.00051918,-0.013691,0.30001,-9.7679,0,0,44.954,1,1,8008,4004
5426,1.0232e+08,0,0.00053451,0.001869,-0.00073799,-0.011241,0.2986,-9.765,0,0,44.954,1,1,8008,4004
5430,1.0232e+08,0,0.00068193,0.00096098,-0.0015835,-0.010917,0.29749,-9.7659,0,0,44.954,1,1,8008,4004
5465,1.0233e+08,0,-0.00081986,-0.00030265,-0.002556,-0.012753,0.2955,-9.7715,0,0,44.955,1,1,8008,4004
5468,1.0233e+08,0,-0.0015336,-0.00060875,-0.0017513,-0.012749,0.29594,-9.7731,0,0,44.955,1,1,8008,4004
5471,1.0233e+08,0,-0.0023148,-0.00052767,-0.00073265,-0.012479,0.2987,-9.7752,0,0,44.955,1,1,8008,4004
5474,1.0233e+08,0,-0.0020342,-0.00053166,-0.00023171,-0.01137,0.30043,-9.7752,0,0,44.955,1,1,8008,4004
5509,1.0234e+08,0,-0.0012292,-0.00044667,-0.00060451,-0.0098859,0.30468,-9.7717,0,0,44.955,1,1,8008,4004
5513,1.0234e+08,0,-0.00079907,-0.00087632,-0.001258,-0.0077002,0.31018,-9.7649,0,0,44.955,1,1,8008,4004
5516,1.0234e+08,0,-0.00084705,-0.0013562,-0.0011523,-0.0056461,0.31195,-9.7597,0,0,44.955,1,1,8008,4004
5519,1.0234e+08,0,-0.00087908,-0.0013196,-0.0014649,-0.0035951,0.31227,-9.7553,0,0,44.955,1,1,8008,4004
5554,1.0235e+08,0,0.00048544,-0.00072811,-0.0013467,-0.0053356,0.31051,-9.7549,0,0,44.955,1,1,8008,4004
5558,1.0235e+08,0,0.0010005,-0.00040906,-0.0010408,-0.0068796,0.30957,-9.7552,0,0,44.956,1,1,8008,4004
5561,1.0235e+08,0,0.0010038,0.0003274,-0.0006148,-0.0089647,0.31014,-9.7549,0,0,44.956,1,1,8008,4004
5564,1.0235e+08,0,0.00082601,-0.00013409,-0.00079345,-0.010653,0.31006,-9.7528,0,0,44.956,1,1,8008,4004
5599,1.0236e+08,0,0.00030489,-0.0014197,-0.0012283,-0.012768,0.30955,-9.752,0,0,44.956,1,1,8008,4004
5602,1.0236e+08,0,0.00026378,-0.0021382,-0.001199,-0.014773,0.30941,-9.7528,0,0,44.956,1,1,8008,4004
5605,1.0236e+08,0,-5.028e-05,-0.0017516,-0.0003506,-0.020223,0.30988,-9.7566,0,0,44.956,1,1,8008,4004
5608,1.0236e+08,0,-0.00026528,-0.00069102,0.00030035,-0.024676,0.30914,-9.7587,0,0,44.956,1,1,8008,4004
5643,1.0237e+08,0,-0.00015453,0.00031804,0.00042661,-0.031299,0.30649,-9.7594,0,0,44.956,1,1,8008,4004
5648,1.0237e+08,0,0.00022642,0.00065859,0.00042295,-0.034821,0.30623,-9.7574,0,0,44.956,1,1,8008,4004
5651,1.0237e+08,0,0.00026934,-0.00060084,-0.00049149,-0.037127,0.30667,-9.7568,0,0,44.956,1,1,8008,4004
5654,1.0237e+08,0,-0.00033378,-0.00093386,-8.2213e-05,-0.037367,0.30778,-9.7588,0,0,44.957,1,1,8008,4004
5689,1.0238e+08,0,-0.00025082,-0.00079807,0.001533,-0.035147,0.30864,-9.7621,0,0,44.957,1,1,8008,4004
5692,1.0238e+08,0,0.00050408,-0.0010999,0.0027086,-0.032009,0.30843,-9.7629,0,0,44.957,1,1,8008,4004
5695,1.0238e+08,0,0.0010245,-0.0013089,0.0038921,-0.027874,0.30631,-9.7599,0,0,44.957,1,1,8008,4004
5698,1.0238e+08,0,0.0011964,-0.00077843,0.0033327,-0.025183,0.30513,-9.7589,0,0,44.957,1,1,8008,4004
5733,1.0239e+08,0,0.00061288,0.00052292,0.0021528,-0.023972,0.30389,-9.7597,0,0,44.957,1,1,8008,4004
5737,1.0239e+08,0,0.00029634,0.000552,0.0011711,-0.024894,0.30534,-9.7628,0,0,44.957,1,1,8008,4004
5740,1.0239e+08,0,0.00016107,0.00023634,0.0010328,-0.024276,0.30566,-9.7652,0,0,44.957,1,1,8008,4004
5743,1.024e+08,0,0.00045684,0.00020203,0.00028453,-0.023596,0.30514,-9.7685,0,0,44.957,1,1,8008,4004
5778,1.024e+08,0,9.5156e-05,0.0012154,-0.00029475,-0.022308,0.30471,-9.7664,0,0,44.958,1,1,8008,4004
5781,1.024e+08,0,-0.00019483,0.0018296,0.00027397,-0.020929,0.3048,-9.7643,0,0,44.958,1,1,8008,4004
5784,1.024e+08,0,0.00020385,0.0010805,0.0013377,-0.019558,0.30653,-9.7625,0,0,44.958,1,1,8008,4004
5787,1.0241e+08,0,-0.00022245,0.0001764,0.0020005,-0.01912,0.30829,-9.7617,0,0,44.958,1,1,8008,4004
5822,1.0241e+08,0,-0.0013541,-0.00097007,0.0028387,-0.018334,0.31086,-9.7614,0,0,44.958,1,1,8008,4004
5826,1.0241e+08,0,-0.00095231,-0.00072736,0.003065,-0.018681,0.31127,-9.7629,0,0,44.958,1,1,8008,4004
5829,1.0241e+08,0,-0.00029855,-4.8087e-05,0.0024595,-0.021672,0.31105,-9.7662,0,0,44.958,1,1,8008,4004
5832,1.0242e+08,0,-0.00042774,0.00013887,0.0012561,-0.024398,0.31128,-9.7674,0,0,44.959,1,1,8008,4004
5867,1.0242e+08,0,-0.00084672,0.0005583,0.00010151,-0.029236,0.31091,-9.7688,0,0,44.959,1,1,8008,4004
5871,1.0242e+08,0,-0.0012279,0.001277,0.00067465,-0.03229,0.30976,-9.7697,0,0,44.959,1,1,8008,4004
5877,1.0242e+08,0,-0.0025279,0.0010241,0.0018208,-0.035247,0.31121,-9.7717,0,0,44.959,1,1,8008,4004
5881,1.0243e+08,0,-0.0031501,0.0010158,0.0019848,-0.036418,0.31285,-9.7728,0,0,44.959,1,1,8008,4004
5916,1.0243e+08,0,-0.0029788,0.0013448,0.0011374,-0.038247,0.31539,-9.7728,0,0,44.959,1,1,8008,4004
5919,1.0243e+08,0,-0.0030284,0.0019718,0.0013017,-0.039833,0.31646,-9.7733,0,0,44.959,1,1,8008,4004
5922,1.0243e+08,0,-0.0031681,0.0026788,0.0014714,-0.03892,0.3165,-9.7737,0,0,44.96,1,1,8008,4004
5925,1.0244e+08,0,-0.0031586,0.0022085,0.0017974,-0.037172,0.31551,-9.775,0,0,44.96,1,1,8008,4004
5960,1.0244e+08,0,-0.0026397,0.0015321,0.0015694,-0.034884,0.31262,-9.7787,0,0,44.96,1,1,8008,4004
5964,1.0244e+08,0,-0.0028353,0.0020373,0.0015604,-0.033855,0.3106,-9.7789,0,0,44.96,1,1,8008,4004
5967,1.0244e+08,0,-0.0041199,0.0027134,0.0010032,-0.033231,0.30694,-9.7766,0,0,44.96,1,1,8008,4004
5972,1.0245e+08,0,-0.0036726,0.0026348,0.00086545,-0.032486,0.30529,-9.7739,0,0,44.96,1,1,8008,4004
6007,1.0245e+08,0,-0.003556,0.0021451,0.0010118,-0.021455,0.30927,-9.7658,0,0,44.96,1,1,8008,4004
6010,1.0245e+08,0,-0.0028779,0.00091695,0.00093123,-0.017643,0.31144,-9.7633,0,0,44.96,1,1,8008,4004
6013,1.0246e+08,0,-0.0031456,-0.0011446,-0.00051456,-0.011133,0.3134,-9.7551,0,0,44.96,1,1,8008,4004
6046,1.0246e+08,0,-0.0037626,-0.00052091,-0.0011003,-0.012106,0.31316,-9.7545,0,0,44.96,1,1,8008,4004
6050,1.0247e+08,0,-0.0030136,-9.6438e-05,-0.00081174,-0.014175,0.31197,-9.7557,0,0,44.96,1,1,8008,4004
6053,1.0247e+08,0,-0.0017642,0.00014979,0.00017798,-0.017012,0.31014,-9.7565,0,0,44.961,1,1,8008,4004
6056,1.0247e+08,0,-0.0019133,-0.00019272,0.0001913,-0.018306,0.31055,-9.756,0,0,44.961,1,1,8008,4004
6089,1.0247e+08,0,-0.0022703,3.682e-05,0.00024473,-0.021091,0.31249,-9.7574,0,0,44.961,1,1,8008,4004
6092,1.0248e+08,0,-0.0016727,0.00051443,0.0010248,-0.022887,0.31394,-9.7625,0,0,44.961,1,1,8008,4004
6096,1.0248e+08,0,-0.00061098,0.0003047,0.00099739,-0.025716,0.31494,-9.7698,0,0,44.961,1,1,8008,4004
6099,1.0248e+08,0,-0.00044021,9.9092e-05,0.00055901,-0.029281,0.31571,-9.7723,0,0,44.961,1,1,8008,4004
6132,1.0248e+08,0,-0.00053253,0.00040783,-0.00066681,-0.033321,0.31615,-9.7738,0,0,44.961,1,1,8008,4004
6136,1.0249e+08,0,-0.00044936,0.0008798,-0.0019802,-0.035993,0.31539,-9.7752,0,0,44.961,1,1,8008,4004
6139,1.0249e+08,0,-0.00054927,0.0010385,-0.0018007,-0.038563,0.31318,-9.7749,0,0,44.961,1,1,8008,4004
6142,1.0249e+08,0,-0.00038635,0.00098827,-0.00071474,-0.041624,0.30979,-9.7735,0,0,44.961,1,1,8008,4004
6175,1.0249e+08,0,-0.00076285,0.00067334,0.00011131,-0.040202,0.30682,-9.7691,0,0,44.961,1,1,8008,4004
6179,1.025e+08,0,-0.0010738,0.00010354,0.00041022,-0.038491,0.30486,-9.7667,0,0,44.962,1,1,8008,4004
6182,1.025e+08,0,0.00014849,0.00078417,-0.00033076,-0.034428,0.30267,-9.7645,0,0,44.962,1,1,8008,4004
6185,1.025e+08,0,0.00081084,0.001989,-0.0010452,-0.031448,0.30308,-9.7637,0,0,44.962,1,1,8008,4004
6220,1.025e+08,0,0.0019703,0.0028011,-0.00073951,-0.028624,0.30461,-9.7615,0,0,44.962,1,1,8008,4004
6224,1.0251e+08,0,0.00239,0.0017598,-0.00054268,-0.026931,0.30525,-9.7591,0,0,44.962,1,1,8008,4004
6227,1.0251e+08,0,0.0024627,0.00034042,-0.00036375,-0.022749,0.30669,-9.7575,0,0,44.962,1,1,8008,4004
6230,1.0251e+08,0,0.0026929,-0.0002442,-0.00078153,-0.019715,0.30822,-9.7559,0,0,44.962,1,1,8008,4004
6263,1.0251e+08,0,0.0029427,-0.00040355,-0.0010426,-0.016194,0.31106,-9.7546,0,0,44.962,1,1,8008,4004
6267,1.0252e+08,0,0.0030361,0.00071794,-0.00093216,-0.014794,0.31259,-9.7543,0,0,44.962,1,1,8008,4004
6270,1.0252e+08,0,0.003055,0.0015289,-0.00019733,-0.014364,0.31316,-9.7537,0,0,44.962,1,1,8008,4004
6273,1.0252e+08,0,0.0025277,0.0014767,0.00018592,-0.014777,0.31394,-9.7537,0,0,44.962,1,1,8008,4004
6306,1.0252e+08,0,0.0015967,0.00089335,0.00054573,-0.015339,0.31373,-9.7533,0,0,44.963,1,1,8008,4004
6312,1.0253e+08,0,0.00097751,0.00079116,-2.5702e-05,-0.015692,0.31086,-9.7536,0,0,44.963,1,1,8008,4004
6316,1.0253e+08,0,0.0013963,0.00091639,-0.00084657,-0.016894,0.30696,-9.7553,0,0,44.963,1,1,8008,4004
6319,1.0253e+08,0,0.001495,0.00079658,-0.0013682,-0.017116,0.30522,-9.756,0,0,44.963,1,1,8008,4004
6352,1.0253e+08,0,0.0014032,0.0003929,-0.0016243,-0.016024,0.30225,-9.7562,0,0,44.963,1,1,8008,4004
6356,1.0254e+08,0,0.00091507,-0.00030057,-0.0015347,-0.01404,0.29999,-9.7585,0,0,44.963,1,1,8008,4004
6359,1.0254e+08,0,0.0011835,-0.00077407,-0.00096676,-0.013324,0.29935,-9.7627,0,0,44.963,1,1,8008,4004
6362,1.0254e+08,0,0.0015149,-0.0016678,-0.00071245,-0.010963,0.29963,-9.7718,0,0,44.963,1,1,8008,4004
6395,1.0255e+08,0,0.0013129,-0.00026733,-0.000825,-0.0072069,0.29989,-9.7771,0,0,44.963,1,1,8008,4004
6399,1.0255e+08,0,0.001134,0.00094133,-0.00017395,-0.0050099,0.30008,-9.7778,0,0,44.964,1,1,8008,4004
6402,1.0255e+08,0,0.0015182,0.0011342,0.0014827,-0.0027363,0.3025,-9.7784,0,0,44.964,1,1,8008,4004
6405,1.0255e+08,0,0.0022109,0.00095874,0.0019316,-0.0027811,0.3046,-9.7765,0,0,44.964,1,1,8008,4004
6438,1.0256e+08,0,0.0021935,0.00071157,0.0014602,-0.0040155,0.30579,-9.7702,0,0,44.964,1,1,8008,4004
6442,1.0256e+08,0,0.0013863,0.00019955,0.0006877,-0.0058059,0.30535,-9.7661,0,0,44.964,1,1,8008,4004
6445,1.0256e+08,0,0.00014314,0.00020535,-0.00050153,-0.0089643,0.30483,-9.7626,0,0,44.964,1,1,8008,4004
6448,1.0256e+08,0,-0.00047636,-0.00040436,-0.00080408,-0.011678,0.30538,-9.7594,0,0,44.964,1,1,8008,4004
6481,1.0256e+08,0,0.00016619,-0.0004197,-0.00021104,-0.016361,0.30615,-9.7587,0,0,44.964,1,1,8008,4004
6485,1.0257e+08,0,0.0010055,5.2974e-05,0.00020302,-0.018623,0.30519,-9.7608,0,0,44.964,1,1,8008,4004
6488,1.0257e+08,0,0.00039521,0.00012769,-0.00010994,-0.019782,0.30192,-9.7662,0,0,44.964,1,1,8008,4004
6491,1.0257e+08,0,-0.00032747,-0.0001006,0.00011277,-0.018568,0.29995,-9.769,0,0,44.965,1,1,8008,4004
6525,1.0257e+08,0,-0.00079132,-0.0011285,-0.00074189,-0.014159,0.29749,-9.7696,0,0,44.965,1,1,8008,4004
6528,1.0258e+08,0,-0.00073376,-0.0015295,-0.0011111,-0.011697,0.29623,-9.7713,0,0,44.965,1,1,8008,4004
6531,1.0258e+08,0,-0.00063585,-0.0018298,0.0002697,-0.0097045,0.29528,-9.7761,0,0,44.965,1,1,8008,4004
6534,1.0258e+08,0,-0.00071319,-0.0019194,0.0012841,-0.0090596,0.29491,-9.7769,0,0,44.965,1,1,8008,4004
6537,1.0258e+08,0,-0.0012173,-0.0018637,0.001682,-0.0090128,0.29549,-9.7727,0,0,44.965,1,1,8008,4004
6571,1.0259e+08,0,-0.00047973,-0.0014996,0.0017665,-0.010789,0.29699,-9.7689,0,0,44.965,1,1,8008,4004
6574,1.0259e+08,0,-0.00078838,-0.00071699,0.0017846,-0.0137,0.2985,-9.7643,0,0,44.965,1,1,8008,4004
6577,1.0259e+08,0,-0.0018344,-0.00088076,0.0021038,-0.016359,0.29851,-9.7623,0,0,44.965,1,1,8008,4004
6580,1.026e+08,0,-0.0015908,-0.0022226,0.0022504,-0.018688,0.29925,-9.7601,0,0,44.966,1,1,8008,4004
6613,1.026e+08,0,-0.00074725,-0.002308,0.00081396,-0.021256,0.30203,-9.7585,0,0,44.966,1,1,8008,4004
6617,1.026e+08,0,-0.00027281,-0.0017723,0.0011535,-0.024571,0.30303,-9.7585,0,0,44.966,1,1,8008,4004
6620,1.026e+08,0,0.00027982,-0.0023951,0.0019279,-0.028921,0.30414,-9.7607,0,0,44.966,1,1,8008,4004
6623,1.0261e+08,0,-9.8229e-05,-0.0033011,0.0010245,-0.030228,0.30542,-9.7628,0,0,44.966,1,1,8008,4004
6656,1.0261e+08,0,-0.001345,-0.0043583,-0.00018936,-0.030462,0.30737,-9.7675,0,0,44.966,1,1,8008,4004
6659,1.0261e+08,0,-0.0013142,-0.0039004,-0.00048137,-0.030549,0.30777,-9.7704,0,0,44.966,1,1,8008,4004
6662,1.0261e+08,0,-0.002009,-0.0026189,-0.0012668,-0.029638,0.30653,-9.7692,0,0,44.967,1,1,8008,4004
6665,1.0262e+08,0,-0.0027662,-0.0015383,-0.0011973,-0.027281,0.30604,-9.7655,0,0,44.967,1,1,8008,4004
6698,1.0262e+08,0,-0.0039079,-0.0013688,0.00058596,-0.022354,0.30743,-9.7638,0,0,44.967,1,1,8008,4004
6702,1.0262e+08,0,-0.0032657,-0.0018954,0.0015023,-0.018783,0.30861,-9.7659,0,0,44.967,1,1,8008,4004
6705,1.0262e+08,0,-0.0012684,-0.0020529,0.0024578,-0.014787,0.31049,-9.7697,0,0,44.967,1,1,8008,4004
6708,1.0263e+08,0,-0.00056521,-0.0015441,0.0030068,-0.013997,0.31076,-9.7707,0,0,44.967,1,1,8008,4004
6744,1.0263e+08,0,-0.0012644,-0.00028136,0.0025516,-0.012875,0.3113,-9.7708,0,0,44.967,1,1,8008,4004
6748,1.0263e+08,0,-0.0023373,0.00049165,0.0016482,-0.012482,0.31185,-9.7709,0,0,44.967,1,1,8008,4004
6751,1.0263e+08,0,-0.0027893,0.00012217,0.00040629,-0.013469,0.31118,-9.7699,0,0,44.967,1,1,8008,4004
6754,1.0264e+08,0,-0.0021492,-0.00088082,-0.00026948,-0.015495,0.31084,-9.7698,0,0,44.967,1,1,8008,4004
6787,1.0264e+08,0,-0.0013659,-0.00049463,-0.00014913,-0.018108,0.31182,-9.7718,0,0,44.967,1,1,8008,4004
6791,1.0264e+08,0,-0.00083703,0.00033914,0.00045624,-0.019097,0.31401,-9.7744,0,0,44.968,1,1,8008,4004
6794,1.0264e+08,0,-0.00013662,0.0012296,0.00021929,-0.022459,0.3171,-9.7798,0,0,44.968,1,1,8008,4004
6797,1.0265e+08,0,0.00060648,0.0018346,-0.0004567,-0.025689,0.31915,-9.7844,0,0,44.968,1,1,8008,4004
6830,1.0265e+08,0,0.00010472,0.0027064,-0.001668,-0.032001,0.32084,-9.7874,0,0,44.968,1,1,8008,4004
6835,1.0265e+08,0,2.6217e-05,0.0022971,-0.0019509,-0.034165,0.32139,-9.787,0,0,44.968,1,1,8008,4004
6838,1.0265e+08,0,0.00089957,0.00042105,-0.0025019,-0.035842,0.32122,-9.7845,0,0,44.968,1,1,8008,4004
6841,1.0266e+08,0,0.0017172,-0.00031287,-0.0021243,-0.03492,0.31841,-9.7833,0,0,44.968,1,1,8008,4004
6875,1.0266e+08,0,0.0011146,0.00077531,-0.0013853,-0.032991,0.31544,-9.7825,0,0,44.968,1,1,8008,4004
6878,1.0267e+08,0,0.0014196,0.0010195,-0.0015378,-0.03067,0.31269,-9.7842,0,0,44.968,1,1,8008,4004
6881,1.0267e+08,0,0.0017282,0.00099709,-0.0007385,-0.027978,0.30703,-9.7835,0,0,44.968,1,1,8008,4004
6916,1.0268e+08,0,0.0013565,0.0010843,-0.0015304,-0.022641,0.29878,-9.773,0,0,44.968,1,1,8008,4004
6919,1.0268e+08,0,0.0011973,0.00090366,-0.00199,-0.019007,0.29721,-9.7691,0,0,44.968,1,1,8008,4004
6922,1.0268e+08,0,0.001838,0.00038603,-0.00099856,-0.015519,0.29587,-9.7655,0,0,44.968,1,1,8008,4004
6957,1.0268e+08,0,0.0021452,0.00060375,-0.0013341,-0.01714,0.29396,-9.7639,0,0,44.968,1,1,8008,4004
6960,1.0269e+08,0,0.0024916,0.00043477,-0.0019064,-0.01933,0.29161,-9.7648,0,0,44.968,1,1,8008,4004
6963,1.0269e+08,0,0.0021995,1.7157e-05,-0.0015855,-0.022784,0.28985,-9.7685,0,0,44.968,1,1,8008,4004
6966,1.0269e+08,0,0.0017789,-0.00027467,-0.0012746,-0.025105,0.29072,-9.7719,0,0,44.968,1,1,8008,4004
7001,1.0269e+08,0,0.00065107,-0.00049599,-0.0013956,-0.027615,0.29288,-9.7753,0,0,44.968,1,1,8008,4004
7004,1.027e+08,0,0.00024562,-0.00029404,-0.0014962,-0.028336,0.2953,-9.7763,0,0,44.968,1,1,8008,4004
7008,1.027e+08,0,0.00056364,0.00033339,-0.000815,-0.03007,0.30026,-9.7775,0,0,44.968,1,1,8008,4004
7011,1.027e+08,0,0.0010582,0.00048064,0.00043112,-0.031043,0.30248,-9.7773,0,0,44.968,1,1,8008,4004
7046,1.027e+08,0,0.0013536,0.00022227,0.0018688,-0.030972,0.3032,-9.7741,0,0,44.968,1,1,8008,4004
7049,1.0271e+08,0,0.0017168,-0.00019877,0.0025923,-0.029407,0.30358,-9.771,0,0,44.968,1,1,8008,4004
7054,1.0271e+08,0,0.0016339,-0.00047926,0.0024926,-0.026719,0.30336,-9.7679,0,0,44.968,1,1,8008,4004
7057,1.0271e+08,0,0.0015284,-0.00019209,0.0017418,-0.024813,0.30335,-9.7663,0,0,44.968,1,1,8008,4004
7092,1.0271e+08,0,0.0011304,0.00019846,0.00017849,-0.0207,0.30381,-9.7661,0,0,44.967,1,1,8008,4004
7095,1.0272e+08,0,-0.00064332,0.00055988,-0.001179,-0.015773,0.30448,-9.7668,0,0,44.967,1,1,8008,4004
7098,1.0272e+08,0,-0.0018404,-9.7197e-05,-0.0011235,-0.012638,0.30561,-9.7668,0,0,44.967,1,1,8008,4004
7101,1.0272e+08,0,-0.0021364,-0.0014289,6.3703e-05,-0.010294,0.30873,-9.7664,0,0,44.967,1,1,8008,4004
7136,1.0272e+08,0,-0.0022507,-0.0014362,0.00062254,-0.010011,0.30989,-9.767,0,0,44.967,1,1,8008,4004
7139,1.0273e+08,0,-0.0021044,-0.0013889,0.00087318,-0.010155,0.31109,-9.7701,0,0,44.967,1,1,8008,4004
7143,1.0273e+08,0,-0.0016091,-0.0019115,0.0010371,-0.010091,0.3103,-9.7727,0,0,44.967,1,1,8008,4004
7149,1.0273e+08,0,-0.0018761,-0.001367,0.0014754,-0.014438,0.30686,-9.7755,0,0,44.967,1,1,8008,4004
7185,1.0273e+08,0,-0.0023806,-0.00036336,0.0010097,-0.018499,0.30419,-9.7758,0,0,44.967,1,1,8008,4004
7188,1.0274e+08,0,-0.0023549,-0.00034083,0.00061858,-0.024322,0.30087,-9.7764,0,0,44.967,1,1,8008,4004
7191,1.0274e+08,0,-0.0018562,-0.00041484,0.00090168,-0.026236,0.30006,-9.7749,0,0,44.967,1,1,8008,4004
7194,1.0274e+08,0,-0.00078923,-0.0010378,0.0013526,-0.025931,0.30098,-9.7739,0,0,44.967,1,1,8008,4004
7229,1.0274e+08,0,-0.0011587,-0.001005,0.0021021,-0.023698,0.30323,-9.7748,0,0,44.967,1,1,8008,4004
7232,1.0275e+08,0,-0.0018726,-0.00028538,0.0021523,-0.02,0.30464,-9.7769,0,0,44.967,1,1,8008,4004
7237,1.0275e+08,0,-0.0018689,0.00059189,0.0014867,-0.013311,0.305,-9.7828,0,0,44.966,1,1,8008,4004
7240,1.0275e+08,0,-0.0022002,0.0010628,0.0002904,-0.0097255,0.30334,-9.7875,0,0,44.966,1,1,8008,4004
7275,1.0275e+08,0,-0.0021688,0.0007525,-0.0010411,-0.0079739,0.29987,-9.793,0,0,44.966,1,1,8008,4004
7278,1.0276e+08,0,-0.0020338,0.00047561,-0.0012637,-0.0082532,0.29913,-9.7946,0,0,44.966,1,1,8008,4004
7281,1.0276e+08,0,-0.0022661,0.00048412,-0.0012153,-0.0073708,0.29756,-9.7951,0,0,44.966,1,1,8008,4004
7284,1.0276e+08,0,-0.0024317,0.00091827,-0.00063973,-0.007572,0.29449,-9.7934,0,0,44.966,1,1,8008,4004
7319,1.0276e+08,0,-0.0025385,0.0014766,0.00042212,-0.0083278,0.2929,-9.7914,0,0,44.966,1,1,8008,4004
7322,1.0277e+08,0,-0.0025467,0.0020299,0.00072507,-0.0080519,0.29236,-9.789,0,0,44.966,1,1,8008,4004
7326,1.0277e+08,0,-0.0023698,0.0027664,0.00072706,-0.0064579,0.29267,-9.7871,0,0,44.966,1,1,8008,4004
7329,1.0277e+08,0,-0.0028909,0.0029587,0.00067194,-0.004604,0.29514,-9.784,0,0,44.966,1,1,8008,4004
7364,1.0277e+08,0,-0.0031493,0.0028421,0.00022269,-0.0045202,0.29695,-9.7816,0,0,44.967,1,1,8008,4004
7367,1.0278e+08,0,-0.0030283,0.0025545,-0.00072704,-0.0037135,0.29783,-9.7791,0,0,44.967,1,1,8008,4004
7370,1.0278e+08,0,-0.001606,0.0026187,-0.000325,0.00099421,0.29829,-9.7777,0,0,44.967,1,1,8008,4004
7405,1.0279e+08,0,-0.00073309,0.0019318,-0.00018722,0.0030651,0.29767,-9.7747,0,0,44.967,1,1,8008,4004
7408,1.0279e+08,0,3.6871e-05,0.00037404,0.00021007,0.0049878,0.29901,-9.7733,0,0,44.967,1,1,8008,4004
7412,1.0279e+08,0,0.00075846,-0.00011565,-0.00019089,0.003821,0.30187,-9.7723,0,0,44.967,1,1,8008,4004
7415,1.0279e+08,0,0.0024862,0.00032778,-0.00095872,0.0011281,0.30622,-9.7692,0,0,44.967,1,1,8008,4004
7450,1.028e+08,0,0.0027895,-0.00099831,-0.0020007,-0.0023705,0.3092,-9.7641,0,0,44.967,1,1,8008,4004
7453,1.028e+08,0,0.0013429,-0.0012435,-0.0030854,-0.0057946,0.31079,-9.7604,0,0,44.967,1,1,8008,4004
7458,1.028e+08,0,-0.00063427,-0.0010927,-0.0033825,-0.010494,0.31134,-9.7581,0,0,44.967,1,1,8008,4004
7462,1.028e+08,0,-0.0015495,-0.0013154,-0.0026068,-0.013562,0.31198,-9.7572,0,0,44.967,1,1,8008,4004
7498,1.0281e+08,0,-0.00093312,-0.00063411,-0.0013906,-0.019196,0.31242,-9.7558,0,0,44.967,1,1,8008,4004
7501,1.0281e+08,0,-0.00039977,-0.00025105,-0.0014739,-0.022955,0.31263,-9.7558,0,0,44.967,1,1,8008,4004
7504,1.0281e+08,0,0.0011192,0.0002206,-0.001676,-0.026246,0.31205,-9.7565,0,0,44.967,1,1,8008,4004
7507,1.0281e+08,0,0.0013932,0.00026445,-0.001751,-0.028378,0.31016,-9.7565,0,0,44.967,1,1,8008,4004
7542,1.0282e+08,0,0.0022569,0.00094119,-0.0021745,-0.030741,0.30895,-9.759,0,0,44.967,1,1,8008,4004
7545,1.0282e+08,0,0.0021471,0.001147,-0.0020212,-0.030504,0.31052,-9.7619,0,0,44.967,1,1,8008,4004
7549,1.0282e+08,0,0.0010861,0.0010961,-0.0017431,-0.02813,0.31563,-9.7643,0,0,44.967,1,1,8008,4004
7552,1.0282e+08,0,0.00080101,0.00038608,-0.0014331,-0.024481,0.31988,-9.7651,0,0,44.967,1,1,8008,4004
7587,1.0283e+08,0,0.0054255,-0.0015386,0.0022396,-0.016235,0.33025,-9.7667,0,0,44.967,1,1,8008,4004
7590,1.0283e+08,0,0.0058817,-0.001499,0.0040377,-0.012745,0.33096,-9.7677,0,0,44.967,1,1,8008,4004
7593,1.0283e+08,0,0.001101,0.001386,0.0081972,-0.011564,0.31959,-9.7672,0,0,44.967,1,1,8008,4004
7599,1.0283e+08,0,-0.0016616,0.0030377,0.0095754,-0.013269,0.31775,-9.7697,0,0,44.967,1,1,8008,4004
7635,1.0284e+08,0,0.0056291,-0.0002242,0.0084261,-0.015246,0.32054,-9.7732,0,0,44.967,1,1,8008,4004
7640,1.0284e+08,0,0.008558,-0.002396,0.0057384,-0.016873,0.31345,-9.771,0,0,44.967,1,1,8008,4004
7644,1.0285e+08,0,0.0030473,0.0010739,0.0040022,-0.015661,0.31755,-9.769,0,0,44.967,1,1,8008,4004
7679,1.0285e+08,0,0.0021649,-0.0014927,0.0062174,-0.013981,0.30563,-9.7557,0,0,44.967,1,1,8008,4004
7683,1.0285e+08,0,-0.0055699,0.0011915,0.0087521,-0.021293,0.29438,-9.7504,0,0,44.966,1,1,8008,4004
7686,1.0285e+08,0,-0.0015065,0.0050512,0.010283,-0.022585,0.3142,-9.7669,0,0,44.966,1,1,8008,4004
7689,1.0286e+08,0,0.018728,0.0013219,0.012784,-0.015118,0.33714,-9.7859,0,0,44.966,1,1,8008,4004
7724,1.0286e+08,0,0.0074109,-0.005524,0.013866,-0.016461,0.2923,-9.7628,0,0,44.966,1,1,8008,4004
7727,1.0286e+08,0,-0.030382,0.0022354,0.011565,-0.034419,0.26383,-9.7378,0,0,44.966,1,1,8008,4004
7731,1.0287e+08,0,-0.012614,0.0090308,0.008883,-0.0423,0.29538,-9.7467,0,0,44.966,1,1,8008,4004
7734,1.0287e+08,0,0.026562,0.0029522,0.0061879,-0.039143,0.3495,-9.782,0,0,44.966,1,1,8008,4004
7769,1.0287e+08,0,0.035489,-0.0071868,0.002821,-0.039269,0.33229,-9.7849,0,0,44.966,1,1,8008,4004
7773,1.0287e+08,0,-0.0064868,-0.0025671,0.0030167,-0.055027,0.26295,-9.7464,0,0,44.966,1,1,8008,4004
7776,1.0288e+08,0,-0.049878,0.010281,0.0056048,-0.059836,0.2632,-9.7296,0,0,44.966,1,1,8008,4004
7779,1.0288e+08,0,-0.019748,0.0063148,0.0054003,-0.041109,0.34757,-9.7584,0,0,44.965,1,1,8008,4004
7814,1.0288e+08,0,0.045754,-0.0095954,0.0014872,-0.026141,0.36328,-9.7903,0,0,44.965,1,1,8008,4004
7817,1.0288e+08,0,0.011308,0.00088576,-0.0011449,-0.035496,0.30291,-9.7718,0,0,44.965,1,1,8008,4004
7820,1.0289e+08,0,-0.037298,0.013814,-0.0030773,-0.043896,0.25549,-9.7209,0,0,44.965,1,1,8008,4004
7823,1.0289e+08,0,-0.048816,0.013308,-0.0048133,-0.024579,0.29628,-9.7148,0,0,44.965,1,1,8008,4004
7858,1.0289e+08,0,0.013218,-0.01268,-0.0086715,0.0024972,0.361,-9.7555,0,0,44.965,1,1,8008,4004
7862,1.0289e+08,0,0.04799,-0.014051,-0.012953,-0.024732,0.32717,-9.7632,0,0,44.965,1,1,8008,4004
7865,1.029e+08,0,0.01076,0.0074457,-0.011323,-0.045152,0.27245,-9.7257,0,0,44.965,1,1,8008,4004
7868,1.029e+08,0,-0.046514,0.020072,-0.0112,-0.016864,0.26824,-9.6951,0,0,44.965,1,1,8008,4004
7903,1.029e+08,0,0.017211,-0.025795,-0.019565,0.020442,0.34896,-9.7476,0,0,44.965,1,1,8008,4004
7906,1.029e+08,0,0.045492,-0.022113,-0.021988,-0.0057488,0.35959,-9.7848,0,0,44.965,1,1,8008,4004
7910,1.0291e+08,0,0.005053,0.016038,-0.016017,-0.05704,0.29917,-9.7718,0,0,44.965,1,1,8008,4004
7914,1.0291e+08,0,-0.033833,0.024165,-0.013137,-0.044336,0.26905,-9.7326,0,0,44.965,1,1,8008,4004
7949,1.0291e+08,0,-0.025965,-0.010071,-0.01754,0.0073997,0.29166,-9.7102,0,0,44.965,1,1,8008,4004
7953,1.0291e+08,0,0.026904,-0.025272,-0.02492,-7.0843e-05,0.3298,-9.7563,0,0,44.965,1,1,8008,4004
7956,1.0292e+08,0,0.033532,-0.0025843,-0.024199,-0.031504,0.31669,-9.7786,0,0,44.965,1,1,8008,4004
7959,1.0292e+08,0,-0.0049902,0.018826,-0.018172,-0.027231,0.26569,-9.7773,0,0,44.965,1,1,8008,4004
7994,1.0292e+08,0,-0.026879,-0.01184,-0.017191,0.035472,0.26609,-9.7583,0,0,44.965,1,1,8008,4004
7998,1.0293e+08,0,-0.01811,-0.026847,-0.017822,0.031285,0.28369,-9.7317,0,0,44.965,1,1,8008,4004
8001,1.0293e+08,0,0.012295,-0.0068471,-0.017704,0.00029172,0.29619,-9.7355,0,0,44.965,1,1,8008,4004
8005,1.0293e+08,0,0.020243,0.0094851,-0.016189,-0.012282,0.30416,-9.7567,0,0,44.966,1,1,8008,4004
8040,1.0293e+08,0,0.0090201,0.00079202,-0.017854,0.013974,0.29115,-9.8004,0,0,44.966,1,1,8008,4004
8043,1.0294e+08,0,-0.0049024,-0.014962,-0.019398,0.024987,0.28574,-9.8056,0,0,44.966,1,1,8008,4004
8049,1.0294e+08,0,-0.018639,-0.012602,-0.019575,-0.0080212,0.28822,-9.7509,0,0,44.966,1,1,8008,4004
8053,1.0294e+08,0,-0.014285,-0.0017201,-0.016579,-0.027298,0.29067,-9.7278,0,0,44.966,1,1,8008,4004
8088,1.0294e+08,0,0.010692,-0.0049627,-0.013771,-0.015638,0.31762,-9.7861,0,0,44.966,1,1,8008,4004
