LineNo,TimeUS,C1,C2,C3,C4,C5,C6,C7,C8,C9,C10,C11,C12,C13,C14
211,1.0097e+08,0,0,0,0,0,0,0,0,1000,1000,1000,1000,1000,1000
776,1.0111e+08,0,0,0,0,0,0,0,0,1000,1000,1000,1000,1000,1000
1311,1.0137e+08,0,0,0,0,0,0,0,0,1000,1000,1000,1000,1000,1000
1502,1.014e+08,0,0,0,0,0,0,0,0,1000,1000,1000,1000,1000,1000
1599,1.0142e+08,0,0,0,0,0,0,0,0,1000,1000,1000,1000,1000,1000
1644,1.0143e+08,0,0,0,0,0,0,0,0,1000,1000,1000,1000,1000,1000
1688,1.0144e+08,0,0,0,0,0,0,0,0,1000,1000,1000,1000,1000,1000
1735,1.0145e+08,0,0,0,0,0,0,0,0,1000,1000,1000,1000,1000,1000
1776,1.0146e+08,0,0,0,0,0,0,0,0,1000,1000,1000,1000,1000,1000
1815,1.0148e+08,0,0,0,0,0,0,0,0,1000,1000,1000,1000,1000,1000
1858,1.0149e+08,0,0,0,0,0,0,0,0,1000,1000,1000,1000,1000,1000
1905,1.015e+08,0,0,0,0,0,0,0,0,1000,1000,1000,1000,1000,1000
1949,1.0151e+08,0,0,0,0,0,0,0,0,1000,1000,1000,1000,1000,1000
1992,1.0152e+08,0,0,0,0,0,0,0,0,1000,1000,1000,1000,1000,1000
2036,1.0153e+08,0,0,0,0,0,0,0,0,1000,1000,1000,1000,1000,1000
2079,1.0154e+08,0,0,0,0,0,0,0,0,1000,1000,1000,1000,1000,1000
2122,1.0155e+08,0,0,0,0,0,0,0,0,1000,1000,1000,1000,1000,1000
2164,1.0156e+08,0,0,0,0,0,0,0,0,1000,1000,1000,1000,1000,1000
2207,1.0157e+08,0,0,0,0,0,0,0,0,1000,1000,1000,1000,1000,1000
2249,1.0158e+08,0,0,0,0,0,0,0,0,1000,1000,1000,1000,1000,1000
2292,1.0159e+08,0,0,0,0,0,0,0,0,1000,1000,1000,1000,1000,1000
2338,1.016e+08,0,0,0,0,0,0,0,0,1000,1000,1000,1000,1000,1000
2381,1.0161e+08,0,0,0,0,0,0,0,0,1000,1000,1000,1000,1000,1000
2424,1.0162e+08,0,0,0,0,0,0,0,0,1000,1000,1000,1000,1000,1000
2466,1.0163e+08,0,0,0,0,0,0,0,0,1000,1000,1000,1000,1000,1000
2512,1.0164e+08,0,0,0,0,0,0,0,0,1000,1000,1000,1000,1000,1000
2550,1.0165e+08,0,0,0,0,0,0,0,0,1000,1000,1000,1000,1000,1000
2594,1.0166e+08,0,0,0,0,0,0,0,0,1000,1000,1000,1000,1000,1000
2639,1.0167e+08,0,0,0,0,0,0,0,0,1000,1000,1000,1000,1000,1000
2684,1.0168e+08,0,0,0,0,0,0,0,0,1000,1000,1000,1000,1000,1000
2728,1.0169e+08,0,0,0,0,0,0,0,0,1000,1000,1000,1000,1000,1000
2777,1.017e+08,0,0,0,0,0,0,0,0,1000,1000,1000,1000,1000,1000
2822,1.0171e+08,0,0,0,0,0,0,0,0,1000,1000,1000,1000,1000,1000
2866,1.0172e+08,0,0,0,0,0,0,0,0,1000,1000,1000,1000,1000,1000
2913,1.0173e+08,0,0,0,0,0,0,0,0,1000,1000,1000,1000,1000,1000
2957,1.0174e+08,0,0,0,0,0,0,0,0,1000,1000,1000,1000,1000,1000
3002,1.0175e+08,0,0,0,0,0,0,0,0,1000,1000,1000,1000,1000,1000
3047,1.0176e+08,0,0,0,0,0,0,0,0,1000,1000,1000,1000,1000,1000
3092,1.0177e+08,0,0,0,0,0,0,0,0,1000,1000,1000,1000,1000,1000
3139,1.0179e+08,0,0,0,0,0,0,0,0,1000,1000,1000,1000,1000,1000
3183,1.018e+08,0,0,0,0,0,0,0,0,1000,1000,1000,1000,1000,1000
3233,1.0181e+08,0,0,0,0,0,0,0,0,1000,1000,1000,1000,1000,1000
3278,1.0182e+08,0,0,0,0,0,0,0,0,1000,1000,1000,1000,1000,1000
3322,1.0183e+08,0,0,0,0,0,0,0,0,1000,1000,1000,1000,1000,1000
3368,1.0184e+08,0,0,0,0,0,0,0,0,1000,1000,1000,1000,1000,1000
3414,1.0185e+08,0,0,0,0,0,0,0,0,1000,1000,1000,1000,1000,1000
3454,1.0186e+08,0,0,0,0,0,0,0,0,1000,1000,1000,1000,1000,1000
3500,1.0187e+08,0,0,0,0,0,0,0,0,1000,1000,1000,1000,1000,1000
3544,1.0188e+08,0,0,0,0,0,0,0,0,1000,1000,1000,1000,1000,1000
3589,1.0189e+08,0,0,0,0,0,0,0,0,1000,1000,1000,1000,1000,1000
3634,1.019e+08,0,0,0,0,0,0,0,0,1000,1000,1000,1000,1000,1000
3683,1.0191e+08,0,0,0,0,0,0,0,0,1000,1000,1000,1000,1000,1000
3728,1.0192e+08,0,0,0,0,0,0,0,0,1000,1000,1000,1000,1000,1000
3772,1.0193e+08,0,0,0,0,0,0,0,0,1000,1000,1000,1000,1000,1000
3821,1.0194e+08,0,0,0,0,0,0,0,0,1000,1000,1000,1000,1000,1000
3868,1.0195e+08,0,0,0,0,0,0,0,0,1000,1000,1000,1000,1000,1000
3913,1.0197e+08,0,0,0,0,0,0,0,0,1000,1000,1000,1000,1000,1000
3957,1.0198e+08,0,0,0,0,0,0,0,0,1000,1000,1000,1000,1000,1000
4003,1.0199e+08,0,0,0,0,0,0,0,0,1000,1000,1000,1000,1000,1000
4050,1.02e+08,0,0,0,0,0,0,0,0,1000,1000,1000,1000,1000,1000
4096,1.0201e+08,0,0,0,0,0,0,0,0,1000,1000,1000,1000,1000,1000
4145,1.0202e+08,0,0,0,0,0,0,0,0,1000,1000,1000,1000,1000,1000
4189,1.0203e+08,0,0,0,0,0,0,0,0,1000,1000,1000,1000,1000,1000
4234,1.0204e+08,0,0,0,0,0,0,0,0,1000,1000,1000,1000,1000,1000
4279,1.0205e+08,0,0,0,0,0,0,0,0,1000,1000,1000,1000,1000,1000
4326,1.0206e+08,0,0,0,0,0,0,0,0,1000,1000,1000,1000,1000,1000
4364,1.0207e+08,0,0,0,0,0,0,0,0,1000,1000,1000,1000,1000,1000
4409,1.0208e+08,0,0,0,0,0,0,0,0,1000,1000,1000,1000,1000,1000
4454,1.0209e+08,0,0,0,0,0,0,0,0,1000,1000,1000,1000,1000,1000
4498,1.021e+08,0,0,0,0,0,0,0,0,1000,1000,1000,1000,1000,1000
4543,1.0211e+08,0,0,0,0,0,0,0,0,1000,1000,1000,1000,1000,1000
4592,1.0212e+08,0,0,0,0,0,0,0,0,1000,1000,1000,1000,1000,1000
4637,1.0213e+08,0,0,0,0,0,0,0,0,1000,1000,1000,1000,1000,1000
4682,1.0214e+08,0,0,0,0,0,0,0,0,1000,1000,1000,1000,1000,1000
4726,1.0215e+08,0,0,0,0,0,0,0,0,1000,1000,1000,1000,1000,1000
4775,1.0216e+08,0,0,0,0,0,0,0,0,1000,1000,1000,1000,1000,1000
4819,1.0217e+08,0,0,0,0,0,0,0,0,1000,1000,1000,1000,1000,1000
4865,1.0218e+08,0,0,0,0,0,0,0,0,1000,1000,1000,1000,1000,1000
4910,1.022e+08,0,0,0,0,0,0,0,0,1000,1000,1000,1000,1000,1000
4955,1.0221e+08,0,0,0,0,0,0,0,0,1000,1000,1000,1000,1000,1000
5000,1.0222e+08,0,0,0,0,0,0,0,0,1000,1000,1000,1000,1000,1000
5048,1.0223e+08,0,0,0,0,0,0,0,0,1000,1000,1000,1000,1000,1000
5094,1.0224e+08,0,0,0,0,0,0,0,0,1000,1000,1000,1000,1000,1000
5141,1.0225e+08,0,0,0,0,0,0,0,0,1000,1000,1000,1000,1000,1000
5186,1.0226e+08,0,0,0,0,0,0,0,0,1000,1000,1000,1000,1000,1000
5231,1.0227e+08,0,0,0,0,0,0,0,0,1000,1000,1000,1000,1000,1000
5276,1.0228e+08,0,0,0,0,0,0,0,0,1000,1000,1000,1000,1000,1000
5321,1.0229e+08,0,0,0,0,0,0,0,0,1000,1000,1000,1000,1000,1000
5366,1.023e+08,0,0,0,0,0,0,0,0,1000,1000,1000,1000,1000,1000
5410,1.0231e+08,0,0,0,0,0,0,0,0,1000,1000,1000,1000,1000,1000
5459,1.0232e+08,0,0,0,0,0,0,0,0,1000,1000,1000,1000,1000,1000
5503,1.0233e+08,0,0,0,0,0,0,0,0,1000,1000,1000,1000,1000,1000
5548,1.0235e+08,0,0,0,0,0,0,0,0,1000,1000,1000,1000,1000,1000
5593,1.0236e+08,0,0,0,0,0,0,0,0,1000,1000,1000,1000,1000,1000
5637,1.0237e+08,0,0,0,0,0,0,0,0,1000,1000,1000,1000,1000,1000
5683,1.0238e+08,0,0,0,0,0,0,0,0,1000,1000,1000,1000,1000,1000
5727,1.0239e+08,0,0,0,0,0,0,0,0,1000,1000,1000,1000,1000,1000
5772,1.024e+08,0,0,0,0,0,0,0,0,1000,1000,1000,1000,1000,1000
5816,1.0241e+08,0,0,0,0,0,0,0,0,1000,1000,1000,1000,1000,1000
5861,1.0242e+08,0,0,0,0,0,0,0,0,1000,1000,1000,1000,1000,1000
5910,1.0243e+08,0,0,0,0,0,0,0,0,1000,1000,1000,1000,1000,1000
5954,1.0244e+08,0,0,0,0,0,0,0,0,1000,1000,1000,1000,1000,1000
6001,1.0245e+08,0,0,0,0,0,0,0,0,1000,1000,1000,1000,1000,1000
6040,1.0246e+08,0,0,0,0,0,0,0,0,1000,1000,1000,1000,1000,1000
6083,1.0247e+08,0,0,0,0,0,0,0,0,1000,1000,1000,1000,1000,1000
6126,1.0248e+08,0,0,0,0,0,0,0,0,1000,1000,1000,1000,1000,1000
6169,1.0249e+08,0,0,0,0,0,0,0,0,1000,1000,1000,1000,1000,1000
6214,1.025e+08,0,0,0,0,0,0,0,0,1000,1000,1000,1000,1000,1000
6257,1.0251e+08,0,0,0,0,0,0,0,0,1000,1000,1000,1000,1000,1000
6300,1.0252e+08,0,0,0,0,0,0,0,0,1000,1000,1000,1000,1000,1000
6346,1.0253e+08,0,0,0,0,0,0,0,0,1000,1000,1000,1000,1000,1000
6389,1.0254e+08,0,0,0,0,0,0,0,0,1000,1000,1000,1000,1000,1000
6432,1.0255e+08,0,0,0,0,0,0,0,0,1000,1000,1000,1000,1000,1000
6475,1.0256e+08,0,0,0,0,0,0,0,0,1000,1000,1000,1000,1000,1000
6518,1.0257e+08,0,0,0,0,0,0,0,0,1000,1000,1000,1000,1000,1000
6564,1.0259e+08,0,0,0,0,0,0,0,0,1000,1000,1000,1000,1000,1000
6607,1.026e+08,0,0,0,0,0,0,0,0,1000,1000,1000,1000,1000,1000
6650,1.0261e+08,0,0,0,0,0,0,0,0,1000,1000,1000,1000,1000,1000
6692,1.0262e+08,0,0,0,0,0,0,0,0,1000,1000,1000,1000,1000,1000
6735,1.0263e+08,0,0,0,0,0,0,0,0,1000,1000,1000,1000,1000,1000
6781,1.0264e+08,0,0,0,0,0,0,0,0,1000,1000,1000,1000,1000,1000
6824,1.0265e+08,0,0,0,0,0,0,0,0,1000,1000,1000,1000,1000,1000
6868,1.0266e+08,0,0,0,0,0,0,0,0,1000,1000,1000,1000,1000,1000
6910,1.0267e+08,0,0,0,0,0,0,0,0,1000,1000,1000,1000,1000,1000
6951,1.0268e+08,0,0,0,0,0,0,0,0,1000,1000,1000,1000,1000,1000
6995,1.0269e+08,0,0,0,0,0,0,0,0,1000,1000,1000,1000,1000,1000
7040,1.027e+08,0,0,0,0,0,0,0,0,1000,1000,1000,1000,1000,1000
7086,1.0271e+08,0,0,0,0,0,0,0,0,1000,1000,1000,1000,1000,1000
7130,1.0272e+08,0,0,0,0,0,0,0,0,1000,1000,1000,1000,1000,1000
7178,1.0273e+08,0,0,0,0,0,0,0,0,1000,1000,1000,1000,1000,1000
7223,1.0274e+08,0,0,0,0,0,0,0,0,1000,1000,1000,1000,1000,1000
7269,1.0275e+08,0,0,0,0,0,0,0,0,1000,1000,1000,1000,1000,1000
7313,1.0276e+08,0,0,0,0,0,0,0,0,1000,1000,1000,1000,1000,1000
7358,1.0277e+08,0,0,0,0,0,0,0,0,1000,1000,1000,1000,1000,1000
7399,1.0278e+08,0,0,0,0,0,0,0,0,1000,1000,1000,1000,1000,1000
7444,1.0279e+08,0,0,0,0,0,0,0,0,1000,1000,1000,1000,1000,1000
7491,1.028e+08,0,0,0,0,0,0,0,0,1000,1000,1000,1000,1000,1000
7536,1.0281e+08,0,0,0,0,0,0,0,0,1002,1002,1002,1002,1002,1002
7581,1.0282e+08,0,0,0,0,0,0,0,0,1005,1005,1005,1005,1005,1005
7628,1.0283e+08,0,0,0,0,0,0,0,0,1008,1008,1008,1008,1008,1008
7673,1.0285e+08,0,0,0,0,0,0,0,0,1012,1012,1012,1012,1012,1012
7718,1.0286e+08,0,0,0,0,0,0,0,0,1015,1015,1015,1015,1015,1015
7763,1.0287e+08,0,0,0,0,0,0,0,0,1018,1018,1018,1018,1018,1018
7808,1.0288e+08,0,0,0,0,0,0,0,0,1021,1021,1021,1021,1021,1021
7852,1.0289e+08,0,0,0,0,0,0,0,0,1024,1024,1024,1024,1024,1024
7897,1.029e+08,0,0,0,0,0,0,0,0,1027,1027,1027,1027,1027,1027
7943,1.0291e+08,0,0,0,0,0,0,0,0,1030,1030,1030,1030,1030,1030
7988,1.0292e+08,0,0,0,0,0,0,0,0,1033,1033,1033,1033,1033,1033
8034,1.0293e+08,0,0,0,0,0,0,0,0,1036,1036,1036,1036,1036,1036
8082,1.0294e+08,0,0,0,0,0,0,0,0,1039,1039,1039,1039,1039,1039
8127,1.0295e+08,0,0,0,0,0,0,0,0,1042,1042,1042,1042,1042,1042
8172,1.0296e+08,0,0,0,0,0,0,0,0,1045,1045,1045,1045,1045,1045
8217,1.0297e+08,0,0,0,0,0,0,0,0,1048,1048,1048,1048,1048,1048
8262,1.0298e+08,0,0,0,0,0,0,0,0,1051,1051,1051,1051,1051,1051
8310,1.0299e+08,0,0,0,0,0,0,0,0,1054,1054,1054,1054,1054,1054
8355,1.03e+08,0,0,0,0,0,0,0,0,1057,1057,1057,1057,1057,1057
8399,1.0301e+08,0,0,0,0,0,0,0,0,1060,1060,1060,1060,1060,1060
8446,1.0303e+08,0,0,0,0,0,0,0,0,1063,1063,1063,1063,1063,1063
8491,1.0304e+08,0,0,0,0,0,0,0,0,1066,1066,1066,1066,1066,1066
8540,1.0305e+08,0,0,0,0,0,0,0,0,1069,1069,1069,1069,1069,1069
8584,1.0306e+08,0,0,0,0,0,0,0,0,1072,1072,1072,1072,1072,1072
8626,1.0307e+08,0,0,0,0,0,0,0,0,1075,1075,1075,1075,1075,1075
8671,1.0308e+08,0,0,0,0,0,0,0,0,1078,1078,1078,1078,1078,1078
8718,1.0309e+08,0,0,0,0,0,0,0,0,1081,1081,1081,1081,1081,1081
8763,1.031e+08,0,0,0,0,0,0,0,0,1084,1084,1084,1084,1084,1084
8808,1.0311e+08,0,0,0,0,0,0,0,0,1087,1087,1087,1087,1087,1087
8853,1.0312e+08,0,0,0,0,0,0,0,0,1090,1090,1090,1090,1090,1090
8899,1.0313e+08,0,0,0,0,0,0,0,0,1093,1093,1093,1093,1093,1093
8943,1.0314e+08,0,0,0,0,0,0,0,0,1096,1096,1096,1096,1096,1096
8992,1.0315e+08,0,0,0,0,0,0,0,0,1099,1099,1099,1099,1099,1099
9036,1.0316e+08,0,0,0,0,0,0,0,0,1100,1100,1100,1100,1100,1100
9082,1.0317e+08,0,0,0,0,0,0,0,0,1100,1100,1100,1100,1100,1100
9127,1.0318e+08,0,0,0,0,0,0,0,0,1100,1100,1100,1100,1100,1100
9174,1.0319e+08,0,0,0,0,0,0,0,0,1100,1100,1100,1100,1100,1100
9219,1.032e+08,0,0,0,0,0,0,0,0,1100,1100,1100,1100,1100,1100
9264,1.0321e+08,0,0,0,0,0,0,0,0,1100,1100,1100,1100,1100,1100
9309,1.0323e+08,0,0,0,0,0,0,0,0,1100,1100,1100,1100,1100,1100
9354,1.0324e+08,0,0,0,0,0,0,0,0,1100,1100,1100,1100,1100,1100
9398,1.0325e+08,0,0,0,0,0,0,0,0,1100,1100,1100,1100,1100,1100
9449,1.0326e+08,0,0,0,0,0,0,0,0,1100,1100,1100,1100,1100,1100
9487,1.0327e+08,0,0,0,0,0,0,0,0,1100,1100,1100,1100,1100,1100
9533,1.0328e+08,0,0,0,0,0,0,0,0,1100,1100,1100,1100,1100,1100
9578,1.0329e+08,0,0,0,0,0,0,0,0,1100,1100,1100,1100,1100,1100
9622,1.033e+08,0,0,0,0,0,0,0,0,1100,1100,1100,1100,1100,1100
9666,1.0331e+08,0,0,0,0,0,0,0,0,1100,1100,1100,1100,1100,1100
9711,1.0332e+08,0,0,0,0,0,0,0,0,1100,1100,1100,1100,1100,1100
9755,1.0333e+08,0,0,0,0,0,0,0,0,1100,1100,1100,1100,1100,1100
9802,1.0334e+08,0,0,0,0,0,0,0,0,1100,1100,1100,1100,1100,1100
9846,1.0335e+08,0,0,0,0,0,0,0,0,1100,1100,1100,1100,1100,1100
9895,1.0336e+08,0,0,0,0,0,0,0,0,1100,1100,1100,1100,1100,1100
9939,1.0337e+08,0,0,0,0,0,0,0,0,1100,1100,1100,1100,1100,1100
9984,1.0338e+08,0,0,0,0,0,0,0,0,1100,1100,1100,1100,1100,1100
10029,1.0339e+08,0,0,0,0,0,0,0,0,1100,1100,1100,1100,1100,1100
10070,1.034e+08,0,0,0,0,0,0,0,0,1100,1100,1100,1100,1100,1100
10119,1.0341e+08,0,0,0,0,0,0,0,0,1100,1100,1100,1100,1100,1100
10163,1.0342e+08,0,0,0,0,0,0,0,0,1100,1100,1100,1100,1100,1100
10208,1.0343e+08,0,0,0,0,0,0,0,0,1100,1100,1100,1100,1100,1100
10251,1.0345e+08,0,0,0,0,0,0,0,0,1100,1100,1100,1100,1100,1100
10301,1.0346e+08,0,0,0,0,0,0,0,0,1100,1100,1100,1100,1100,1100
10345,1.0347e+08,0,0,0,0,0,0,0,0,1100,1100,1100,1100,1100,1100
10391,1.0348e+08,0,0,0,0,0,0,0,0,1100,1100,1100,1100,1100,1100
10438,1.0349e+08,0,0,0,0,0,0,0,0,1100,1100,1100,1100,1100,1100
10479,1.035e+08,0,0,0,0,0,0,0,0,1100,1100,1100,1100,1100,1100
10524,1.0351e+08,0,0,0,0,0,0,0,0,1100,1100,1100,1100,1100,1100
10569,1.0352e+08,0,0,0,0,0,0,0,0,1100,1100,1100,1100,1100,1100
10614,1.0353e+08,0,0,0,0,0,0,0,0,1100,1100,1100,1100,1100,1100
10658,1.0354e+08,0,0,0,0,0,0,0,0,1100,1100,1100,1100,1100,1100
10703,1.0355e+08,0,0,0,0,0,0,0,0,1100,1100,1100,1100,1100,1100
10756,1.0356e+08,0,0,0,0,0,0,0,0,1100,1100,1100,1100,1100,1100
10800,1.0357e+08,0,0,0,0,0,0,0,0,1100,1100,1100,1100,1100,1100
10845,1.0358e+08,0,0,0,0,0,0,0,0,1100,1100,1100,1100,1100,1100
10889,1.0359e+08,0,0,0,0,0,0,0,0,1100,1100,1100,1100,1100,1100
10934,1.036e+08,0,0,0,0,0,0,0,0,1100,1100,1100,1100,1100,1100
10979,1.0361e+08,0,0,0,0,0,0,0,0,1100,1100,1100,1100,1100,1100
11024,1.0362e+08,0,0,0,0,0,0,0,0,1100,1100,1100,1100,1100,1100
11069,1.0363e+08,0,0,0,0,0,0,0,0,1100,1100,1100,1100,1100,1100
11118,1.0365e+08,0,0,0,0,0,0,0,0,1100,1100,1100,1100,1100,1100
11166,1.0366e+08,0,0,0,0,0,0,0,0,1100,1100,1100,1100,1100,1100
11209,1.0367e+08,0,0,0,0,0,0,0,0,1100,1100,1100,1100,1100,1100
11253,1.0368e+08,0,0,0,0,0,0,0,0,1100,1100,1100,1100,1100,1100
11295,1.0369e+08,0,0,0,0,0,0,0,0,1100,1100,1100,1100,1100,1100
11338,1.037e+08,0,0,0,0,0,0,0,0,1100,1100,1100,1100,1100,1100
11384,1.0372e+08,0,0,0,0,0,0,0,0,1100,1100,1100,1100,1100,1100
11426,1.0373e+08,0,0,0,0,0,0,0,0,1100,1100,1100,1100,1100,1100
11469,1.0374e+08,0,0,0,0,0,0,0,0,1100,1100,1100,1100,1100,1100
11511,1.0375e+08,0,0,0,0,0,0,0,0,1100,1100,1100,1100,1100,1100
11555,1.0376e+08,0,0,0,0,0,0,0,0,1100,1100,1100,1100,1100,1100
11601,1.0377e+08,0,0,0,0,0,0,0,0,1100,1100,1100,1100,1100,1100
11644,1.0378e+08,0,0,0,0,0,0,0,0,1100,1100,1100,1100,1100,1100
11687,1.0379e+08,0,0,0,0,0,0,0,0,1100,1100,1100,1100,1100,1100
11730,1.038e+08,0,0,0,0,0,0,0,0,1100,1100,1100,1100,1100,1100
11774,1.0381e+08,0,0,0,0,0,0,0,0,1100,1100,1100,1100,1100,1100
11816,1.0382e+08,0,0,0,0,0,0,0,0,1100,1100,1100,1100,1100,1100
11859,1.0383e+08,0,0,0,0,0,0,0,0,1100,1100,1100,1100,1100,1100
11901,1.0384e+08,0,0,0,0,0,0,0,0,1100,1100,1100,1100,1100,1100
11946,1.0385e+08,0,0,0,0,0,0,0,0,1100,1100,1100,1100,1100,1100
11987,1.0386e+08,0,0,0,0,0,0,0,0,1100,1100,1100,1100,1100,1100
12037,1.0387e+08,0,0,0,0,0,0,0,0,1100,1100,1100,1100,1100,1100
12082,1.0388e+08,0,0,0,0,0,0,0,0,1100,1100,1100,1100,1100,1100
12127,1.0389e+08,0,0,0,0,0,0,0,0,1100,1100,1100,1100,1100,1100
12172,1.039e+08,0,0,0,0,0,0,0,0,1100,1100,1100,1100,1100,1100
12216,1.0391e+08,0,0,0,0,0,0,0,0,1100,1100,1100,1100,1100,1100
12263,1.0392e+08,0,0,0,0,0,0,0,0,1100,1100,1100,1100,1100,1100
12307,1.0393e+08,0,0,0,0,0,0,0,0,1100,1100,1100,1100,1100,1100
12352,1.0394e+08,0,0,0,0,0,0,0,0,1100,1100,1100,1100,1100,1100
12397,1.0396e+08,0,0,0,0,0,0,0,0,1100,1100,1100,1100,1100,1100
12441,1.0397e+08,0,0,0,0,0,0,0,0,1100,1100,1100,1100,1100,1100
12490,1.0398e+08,0,0,0,0,0,0,0,0,1100,1100,1100,1100,1100,1100
12537,1.0399e+08,0,0,0,0,0,0,0,0,1100,1100,1100,1100,1100,1100
12582,1.04e+08,0,0,0,0,0,0,0,0,1100,1100,1100,1100,1100,1100
12627,1.0401e+08,0,0,0,0,0,0,0,0,1100,1100,1100,1100,1100,1100
12672,1.0402e+08,0,0,0,0,0,0,0,0,1100,1100,1100,1100,1100,1100
12718,1.0403e+08,0,0,0,0,0,0,0,0,1100,1100,1100,1100,1100,1100
12764,1.0404e+08,0,0,0,0,0,0,0,0,1100,1100,1100,1100,1100,1100
12803,1.0405e+08,0,0,0,0,0,0,0,0,1100,1100,1100,1100,1100,1100
12849,1.0406e+08,0,0,0,0,0,0,0,0,1100,1100,1100,1100,1100,1100
12894,1.0407e+08,0,0,0,0,0,0,0,0,1100,1100,1100,1100,1100,1100
12942,1.0408e+08,0,0,0,0,0,0,0,0,1100,1100,1100,1100,1100,1100
12987,1.0409e+08,0,0,0,0,0,0,0,0,1100,1100,1100,1100,1100,1100
13032,1.041e+08,0,0,0,0,0,0,0,0,1100,1100,1100,1100,1100,1100
13077,1.0411e+08,0,0,0,0,0,0,0,0,1100,1100,1100,1100,1100,1100
13122,1.0412e+08,0,0,0,0,0,0,0,0,1100,1100,1100,1100,1100,1100
13166,1.0413e+08,0,0,0,0,0,0,0,0,1100,1100,1100,1100,1100,1100
13211,1.0414e+08,0,0,0,0,0,0,0,0,1100,1100,1100,1100,1100,1100
13255,1.0415e+08,0,0,0,0,0,0,0,0,1100,1100,1100,1100,1100,1100
13300,1.0416e+08,0,0,0,0,0,0,0,0,1100,1100,1100,1100,1100,1100
13345,1.0417e+08,0,0,0,0,0,0,0,0,1100,1100,1100,1100,1100,1100
13393,1.0418e+08,0,0,0,0,0,0,0,0,1100,1100,1100,1100,1100,1100
13459,1.0423e+08,0,0,0,0,0,0,0,0,1100,1100,1100,1100,1100,1100
13503,1.0425e+08,0,0,0,0,0,0,0,0,1100,1100,1100,1100,1100,1100
13545,1.0426e+08,0,0,0,0,0,0,0,0,1100,1100,1100,1100,1100,1100
13589,1.0427e+08,0,0,0,0,0,0,0,0,1100,1100,1100,1100,1100,1100
13637,1.0428e+08,0,0,0,0,0,0,0,0,1100,1100,1100,1100,1100,1100
13682,1.0429e+08,0,0,0,0,0,0,0,0,1100,1100,1100,1100,1100,1100
13727,1.043e+08,0,0,0,0,0,0,0,0,1100,1100,1100,1100,1100,1100
13771,1.0431e+08,0,0,0,0,0,0,0,0,1100,1100,1100,1100,1100,1100
13816,1.0432e+08,0,0,0,0,0,0,0,0,1100,1100,1100,1100,1100,1100
13861,1.0433e+08,0,0,0,0,0,0,0,0,1100,1100,1100,1100,1100,1100
13907,1.0434e+08,0,0,0,0,0,0,0,0,1100,1100,1100,1100,1100,1100
13952,1.0435e+08,0,0,0,0,0,0,0,0,1100,1100,1100,1100,1100,1100
13996,1.0436e+08,0,0,0,0,0,0,0,0,1100,1100,1100,1100,1100,1100
14041,1.0437e+08,0,0,0,0,0,0,0,0,1100,1100,1100,1100,1100,1100
14089,1.0438e+08,0,0,0,0,0,0,0,0,1100,1100,1100,1100,1100,1100
14135,1.0439e+08,0,0,0,0,0,0,0,0,1100,1100,1100,1100,1100,1100
14180,1.044e+08,0,0,0,0,0,0,0,0,1100,1100,1100,1100,1100,1100
14224,1.0441e+08,0,0,0,0,0,0,0,0,1100,1100,1100,1100,1100,1100
14270,1.0442e+08,0,0,0,0,0,0,0,0,1100,1100,1100,1100,1100,1100
14314,1.0443e+08,0,0,0,0,0,0,0,0,1100,1100,1100,1100,1100,1100
14359,1.0444e+08,0,0,0,0,0,0,0,0,1100,1100,1100,1100,1100,1100
14402,1.0445e+08,0,0,0,0,0,0,0,0,1100,1100,1100,1100,1100,1100
14447,1.0447e+08,0,0,0,0,0,0,0,0,1100,1100,1100,1100,1100,1100
14495,1.0448e+08,0,0,0,0,0,0,0,0,1100,1100,1100,1100,1100,1100
14543,1.0449e+08,0,0,0,0,0,0,0,0,1100,1100,1100,1100,1100,1100
14587,1.045e+08,0,0,0,0,0,0,0,0,1100,1100,1100,1100,1100,1100
14631,1.0451e+08,0,0,0,0,0,0,0,0,1100,1100,1100,1100,1100,1100
14676,1.0452e+08,0,0,0,0,0,0,0,0,1100,1100,1100,1100,1100,1100
14720,1.0453e+08,0,0,0,0,0,0,0,0,1100,1100,1100,1100,1100,1100
14765,1.0454e+08,0,0,0,0,0,0,0,0,1100,1100,1100,1100,1100,1100
14810,1.0455e+08,0,0,0,0,0,0,0,0,1100,1100,1100,1100,1100,1100
14854,1.0456e+08,0,0,0,0,0,0,0,0,1100,1100,1100,1100,1100,1100
14899,1.0457e+08,0,0,0,0,0,0,0,0,1100,1100,1100,1100,1100,1100
14945,1.0458e+08,0,0,0,0,0,0,0,0,1100,1100,1100,1100,1100,1100
14994,1.0459e+08,0,0,0,0,0,0,0,0,1100,1100,1100,1100,1100,1100
15039,1.046e+08,0,0,0,0,0,0,0,0,1100,1100,1100,1100,1100,1100
15083,1.0461e+08,0,0,0,0,0,0,0,0,1100,1100,1100,1100,1100,1100
15128,1.0462e+08,0,0,0,0,0,0,0,0,1100,1100,1100,1100,1100,1100
15175,1.0463e+08,0,0,0,0,0,0,0,0,1100,1100,1100,1100,1100,1100
15220,1.0464e+08,0,0,0,0,0,0,0,0,1100,1100,1100,1100,1100,1100
15267,1.0465e+08,0,0,0,0,0,0,0,0,1100,1100,1100,1100,1100,1100
15309,1.0467e+08,0,0,0,0,0,0,0,0,1100,1100,1100,1100,1100,1100
15354,1.0468e+08,0,0,0,0,0,0,0,0,1100,1100,1100,1100,1100,1100
15399,1.0469e+08,0,0,0,0,0,0,0,0,1100,1100,1100,1100,1100,1100
15448,1.047e+08,0,0,0,0,0,0,0,0,1100,1100,1100,1100,1100,1100
15494,1.0471e+08,0,0,0,0,0,0,0,0,1100,1100,1100,1100,1100,1100
15538,1.0472e+08,0,0,0,0,0,0,0,0,1100,1100,1100,1100,1100,1100
15583,1.0473e+08,0,0,0,0,0,0,0,0,1100,1100,1100,1100,1100,1100
15627,1.0474e+08,0,0,0,0,0,0,0,0,1100,1100,1100,1100,1100,1100
15673,1.0475e+08,0,0,0,0,0,0,0,0,1100,1100,1100,1100,1100,1100
15717,1.0476e+08,0,0,0,0,0,0,0,0,1100,1100,1100,1100,1100,1100
15762,1.0477e+08,0,0,0,0,0,0,0,0,1100,1100,1100,1100,1100,1100
15807,1.0478e+08,0,0,0,0,0,0,0,0,1100,1100,1100,1100,1100,1100
15851,1.0479e+08,0,0,0,0,0,0,0,0,1100,1100,1100,1100,1100,1100
15900,1.048e+08,0,0,0,0,0,0,0,0,1100,1100,1100,1100,1100,1100
15947,1.0481e+08,0,0,0,0,0,0,0,0,1100,1100,1100,1100,1100,1100
15992,1.0482e+08,0,0,0,0,0,0,0,0,1100,1100,1100,1100,1100,1100
16036,1.0483e+08,0,0,0,0,0,0,0,0,1100,1100,1100,1100,1100,1100
16080,1.0484e+08,0,0,0,0,0,0,0,0,1100,1100,1100,1100,1100,1100
16117,1.0485e+08,0,0,0,0,0,0,0,0,1100,1100,1100,1100,1100,1100
16159,1.0486e+08,0,0,0,0,0,0,0,0,1100,1100,1100,1100,1100,1100
16203,1.0487e+08,0,0,0,0,0,0,0,0,1100,1100,1100,1100,1100,1100
16246,1.0488e+08,0,0,0,0,0,0,0,0,1100,1100,1100,1100,1100,1100
16289,1.0489e+08,0,0,0,0,0,0,0,0,1100,1100,1100,1100,1100,1100
16337,1.049e+08,0,0,0,0,0,0,0,0,1100,1100,1100,1100,1100,1100
16379,1.0491e+08,0,0,0,0,0,0,0,0,1100,1100,1100,1100,1100,1100
16426,1.0493e+08,0,0,0,0,0,0,0,0,1100,1100,1100,1100,1100,1100
16468,1.0494e+08,0,0,0,0,0,0,0,0,1100,1100,1100,1100,1100,1100
16511,1.0495e+08,0,0,0,0,0,0,0,0,1100,1100,1100,1100,1100,1100
16553,1.0496e+08,0,0,0,0,0,0,0,0,1100,1100,1100,1100,1100,1100
16598,1.0497e+08,0,0,0,0,0,0,0,0,1100,1100,1100,1100,1100,1100
16641,1.0498e+08,0,0,0,0,0,0,0,0,1100,1100,1100,1100,1100,1100
16683,1.0499e+08,0,0,0,0,0,0,0,0,1100,1100,1100,1100,1100,1100
16729,1.05e+08,0,0,0,0,0,0,0,0,1100,1100,1100,1100,1100,1100
16772,1.0501e+08,0,0,0,0,0,0,0,0,1100,1100,1100,1100,1100,1100
16817,1.0502e+08,0,0,0,0,0,0,0,0,1100,1100,1100,1100,1100,1100
16859,1.0503e+08,0,0,0,0,0,0,0,0,1100,1100,1100,1100,1100,1100
16902,1.0504e+08,0,0,0,0,0,0,0,0,1100,1100,1100,1100,1100,1100
16947,1.0505e+08,0,0,0,0,0,0,0,0,1100,1100,1100,1100,1100,1100
16986,1.0506e+08,0,0,0,0,0,0,0,0,1100,1100,1100,1100,1100,1100
17031,1.0507e+08,0,0,0,0,0,0,0,0,1100,1100,1100,1100,1100,1100
17079,1.0508e+08,0,0,0,0,0,0,0,0,1100,1100,1100,1100,1100,1100
17123,1.0509e+08,0,0,0,0,0,0,0,0,1100,1100,1100,1100,1100,1100
17171,1.051e+08,0,0,0,0,0,0,0,0,1100,1100,1100,1100,1100,1100
17216,1.0511e+08,0,0,0,0,0,0,0,0,1100,1100,1100,1100,1100,1100
17262,1.0512e+08,0,0,0,0,0,0,0,0,1100,1100,1100,1100,1100,1100
17307,1.0513e+08,0,0,0,0,0,0,0,0,1100,1100,1100,1100,1100,1100
17352,1.0514e+08,0,0,0,0,0,0,0,0,1100,1100,1100,1100,1100,1100
17396,1.0515e+08,0,0,0,0,0,0,0,0,1100,1100,1100,1100,1100,1100
17441,1.0517e+08,0,0,0,0,0,0,0,0,1100,1100,1100,1100,1100,1100
17485,1.0518e+08,0,0,0,0,0,0,0,0,1100,1100,1100,1100,1100,1100
17530,1.0519e+08,0,0,0,0,0,0,0,0,1100,1100,1100,1100,1100,1100
17574,1.052e+08,0,0,0,0,0,0,0,0,1100,1100,1100,1100,1100,1100
17621,1.0521e+08,0,0,0,0,0,0,0,0,1100,1100,1100,1100,1100,1100
17668,1.0522e+08,0,0,0,0,0,0,0,0,1100,1100,1100,1100,1100,1100
17713,1.0523e+08,0,0,0,0,0,0,0,0,1100,1100,1100,1100,1100,1100
17761,1.0524e+08,0,0,0,0,0,0,0,0,1100,1100,1100,1100,1100,1100
17799,1.0525e+08,0,0,0,0,0,0,0,0,1100,1100,1100,1100,1100,1100
17841,1.0526e+08,0,0,0,0,0,0,0,0,1100,1100,1100,1100,1100,1100
17886,1.0527e+08,0,0,0,0,0,0,0,0,1100,1100,1100,1100,1100,1100
17930,1.0528e+08,0,0,0,0,0,0,0,0,1100,1100,1100,1100,1100,1100
17975,1.0529e+08,0,0,0,0,0,0,0,0,1100,1100,1100,1100,1100,1100
18020,1.053e+08,0,0,0,0,0,0,0,0,1100,1100,1100,1100,1100,1100
18068,1.0531e+08,0,0,0,0,0,0,0,0,1100,1100,1100,1100,1100,1100
18115,1.0532e+08,0,0,0,0,0,0,0,0,1100,1100,1100,1100,1100,1100
18160,1.0533e+08,0,0,0,0,0,0,0,0,1100,1100,1100,1100,1100,1100
18205,1.0534e+08,0,0,0,0,0,0,0,0,1100,1100,1100,1100,1100,1100
18250,1.0535e+08,0,0,0,0,0,0,0,0,1100,1100,1100,1100,1100,1100
18296,1.0536e+08,0,0,0,0,0,0,0,0,1100,1100,1100,1100,1100,1100
18340,1.0537e+08,0,0,0,0,0,0,0,0,1100,1100,1100,1100,1100,1100
18385,1.0538e+08,0,0,0,0,0,0,0,0,1100,1100,1100,1100,1100,1100
18429,1.0539e+08,0,0,0,0,0,0,0,0,1100,1100,1100,1100,1100,1100
18474,1.054e+08,0,0,0,0,0,0,0,0,1100,1100,1100,1100,1100,1100
18522,1.0541e+08,0,0,0,0,0,0,0,0,1100,1100,1100,1100,1100,1100
18568,1.0542e+08,0,0,0,0,0,0,0,0,1100,1100,1100,1100,1100,1100
18613,1.0543e+08,0,0,0,0,0,0,0,0,1100,1100,1100,1100,1100,1100
18660,1.0545e+08,0,0,0,0,0,0,0,0,1100,1100,1100,1100,1100,1100
18702,1.0546e+08,0,0,0,0,0,0,0,0,1100,1100,1100,1100,1100,1100
18750,1.0547e+08,0,0,0,0,0,0,0,0,1100,1100,1100,1100,1100,1100
18794,1.0548e+08,0,0,0,0,0,0,0,0,1100,1100,1100,1100,1100,1100
18839,1.0549e+08,0,0,0,0,0,0,0,0,1100,1100,1100,1100,1100,1100
18883,1.055e+08,0,0,0,0,0,0,0,0,1100,1100,1100,1100,1100,1100
18928,1.0551e+08,0,0,0,0,0,0,0,0,1100,1100,1100,1100,1100,1100
18979,1.0552e+08,0,0,0,0,0,0,0,0,1100,1100,1100,1100,1100,1100
19024,1.0553e+08,0,0,0,0,0,0,0,0,1100,1100,1100,1100,1100,1100
19069,1.0554e+08,0,0,0,0,0,0,0,0,1100,1100,1100,1100,1100,1100
19118,1.0556e+08,0,0,0,0,0,0,0,0,1100,1100,1100,1100,1100,1100
19163,1.0557e+08,0,0,0,0,0,0,0,0,1100,1100,1100,1100,1100,1100
19208,1.0558e+08,0,0,0,0,0,0,0,0,1100,1100,1100,1100,1100,1100
19252,1.0559e+08,0,0,0,0,0,0,0,0,1100,1100,1100,1100,1100,1100
19297,1.056e+08,0,0,0,0,0,0,0,0,1100,1100,1100,1100,1100,1100
19342,1.0561e+08,0,0,0,0,0,0,0,0,1100,1100,1100,1100,1100,1100
19387,1.0562e+08,0,0,0,0,0,0,0,0,1100,1100,1100,1100,1100,1100
19435,1.0563e+08,0,0,0,0,0,0,0,0,1100,1100,1100,1100,1100,1100
19480,1.0564e+08,0,0,0,0,0,0,0,0,1100,1100,1100,1100,1100,1100
19531,1.0565e+08,0,0,0,0,0,0,0,0,1100,1100,1100,1100,1100,1100
19576,1.0567e+08,0,0,0,0,0,0,0,0,1100,1100,1100,1100,1100,1100
19621,1.0568e+08,0,0,0,0,0,0,0,0,1100,1100,1100,1100,1100,1100
19666,1.0569e+08,0,0,0,0,0,0,0,0,1100,1100,1100,1100,1100,1100
19711,1.057e+08,0,0,0,0,0,0,0,0,1100,1100,1100,1100,1100,1100
19756,1.0571e+08,0,0,0,0,0,0,0,0,1100,1100,1100,1100,1100,1100
19800,1.0572e+08,0,0,0,0,0,0,0,0,1100,1100,1100,1100,1100,1100
19849,1.0573e+08,0,0,0,0,0,0,0,0,1100,1100,1100,1100,1100,1100
19894,1.0574e+08,0,0,0,0,0,0,0,0,1100,1100,1100,1100,1100,1100
19940,1.0575e+08,0,0,0,0,0,0,0,0,1100,1100,1100,1100,1100,1100
19985,1.0576e+08,0,0,0,0,0,0,0,0,1100,1100,1100,1100,1100,1100
20032,1.0577e+08,0,0,0,0,0,0,0,0,1100,1100,1100,1100,1100,1100
20077,1.0578e+08,0,0,0,0,0,0,0,0,1100,1100,1100,1100,1100,1100
20122,1.0579e+08,0,0,0,0,0,0,0,0,1100,1100,1100,1100,1100,1100
20167,1.058e+08,0,0,0,0,0,0,0,0,1100,1100,1100,1100,1100,1100
20212,1.0582e+08,0,0,0,0,0,0,0,0,1100,1100,1100,1100,1100,1100
20256,1.0583e+08,0,0,0,0,0,0,0,0,1100,1100,1100,1100,1100,1100
20305,1.0584e+08,0,0,0,0,0,0,0,0,1100,1100,1100,1100,1100,1100
20349,1.0585e+08,0,0,0,0,0,0,0,0,1100,1100,1100,1100,1100,1100
20396,1.0586e+08,0,0,0,0,0,0,0,0,1100,1100,1100,1100,1100,1100
20435,1.0587e+08,0,0,0,0,0,0,0,0,1100,1100,1100,1100,1100,1100
20484,1.0588e+08,0,0,0,0,0,0,0,0,1100,1100,1100,1100,1100,1100
20529,1.0589e+08,0,0,0,0,0,0,0,0,1100,1100,1100,1100,1100,1100
20574,1.059e+08,0,0,0,0,0,0,0,0,1100,1100,1100,1100,1100,1100
20619,1.0591e+08,0,0,0,0,0,0,0,0,1100,1100,1100,1100,1100,1100
20664,1.0592e+08,0,0,0,0,0,0,0,0,1100,1100,1100,1100,1100,1100
20711,1.0593e+08,0,0,0,0,0,0,0,0,1100,1100,1100,1100,1100,1100
20757,1.0594e+08,0,0,0,0,0,0,0,0,1100,1100,1100,1100,1100,1100
20802,1.0595e+08,0,0,0,0,0,0,0,0,1100,1100,1100,1100,1100,1100
20849,1.0596e+08,0,0,0,0,0,0,0,0,1100,1100,1100,1100,1100,1100
20896,1.0597e+08,0,0,0,0,0,0,0,0,1100,1100,1100,1100,1100,1100
20940,1.0598e+08,0,0,0,0,0,0,0,0,1100,1100,1100,1100,1100,1100
20988,1.0599e+08,0,0,0,0,0,0,0,0,1100,1100,1100,1100,1100,1100
21032,1.06e+08,0,0,0,0,0,0,0,0,1100,1100,1100,1100,1100,1100
21077,1.0601e+08,0,0,0,0,0,0,0,0,1100,1100,1100,1100,1100,1100
21123,1.0603e+08,0,0,0,0,0,0,0,0,1100,1100,1100,1100,1100,1100
21171,1.0604e+08,0,0,0,0,0,0,0,0,1100,1100,1100,1100,1100,1100
21218,1.0605e+08,0,0,0,0,0,0,0,0,1100,1100,1100,1100,1100,1100
21257,1.0606e+08,0,0,0,0,0,0,0,0,1100,1100,1100,1100,1100,1100
21301,1.0607e+08,0,0,0,0,0,0,0,0,1100,1100,1100,1100,1100,1100
21344,1.0608e+08,0,0,0,0,0,0,0,0,1100,1100,1100,1100,1100,1100
21387,1.0609e+08,0,0,0,0,0,0,0,0,1100,1100,1100,1100,1100,1100
21430,1.061e+08,0,0,0,0,0,0,0,0,1103,1103,1103,1103,1103,1103
21473,1.0611e+08,0,0,0,0,0,0,0,0,1106,1106,1106,1106,1106,1106
21518,1.0612e+08,0,0,0,0,0,0,0,0,1109,1109,1109,1109,1109,1109
21561,1.0613e+08,0,0,0,0,0,0,0,0,1112,1112,1112,1112,1112,1112
21607,1.0614e+08,0,0,0,0,0,0,0,0,1115,1115,1115,1115,1115,1115
21651,1.0615e+08,0,0,0,0,0,0,0,0,1118,1118,1118,1118,1118,1118
21693,1.0616e+08,0,0,0,0,0,0,0,0,1121,1121,1121,1121,1121,1121
21737,1.0617e+08,0,0,0,0,0,0,0,0,1124,1124,1124,1124,1124,1124
21782,1.0619e+08,0,0,0,0,0,0,0,0,1127,1127,1127,1127,1127,1127
21825,1.062e+08,0,0,0,0,0,0,0,0,1130,1130,1130,1130,1130,1130
21868,1.0621e+08,0,0,0,0,0,0,0,0,1133,1133,1133,1133,1133,1133
21911,1.0622e+08,0,0,0,0,0,0,0,0,1136,1136,1136,1136,1136,1136
21954,1.0623e+08,0,0,0,0,0,0,0,0,1139,1139,1139,1139,1139,1139
22000,1.0624e+08,0,0,0,0,0,0,0,0,1142,1142,1142,1142,1142,1142
22046,1.0625e+08,0,0,0,0,0,0,0,0,1146,1146,1146,1146,1146,1146
22088,1.0626e+08,0,0,0,0,0,0,0,0,1149,1149,1149,1149,1149,1149
22133,1.0627e+08,0,0,0,0,0,0,0,0,1150,1249,1228,1176,1177,1227
22179,1.0628e+08,0,0,0,0,0,0,0,0,1173,1205,1167,1210,1150,1225
22223,1.0629e+08,0,0,0,0,0,0,0,0,1253,1150,1200,1211,1248,1156
22268,1.063e+08,0,0,0,0,0,0,0,0,1153,1159,1154,1158,1150,1163
22313,1.0631e+08,0,0,0,0,0,0,0,0,1150,1253,1223,1187,1172,1236
22358,1.0632e+08,0,0,0,0,0,0,0,0,1209,1183,1150,1237,1163,1226
22403,1.0633e+08,0,0,0,0,0,0,0,0,1253,1150,1193,1218,1242,1164
22451,1.0634e+08,0,0,0,0,0,0,0,0,1244,1162,1217,1194,1253,1150
22496,1.0635e+08,0,0,0,0,0,0,0,0,1150,1253,1226,1184,1173,1235
22541,1.0636e+08,0,0,0,0,0,0,0,0,1150,1253,1215,1196,1161,1245
22586,1.0637e+08,0,0,0,0,0,0,0,0,1156,1249,1202,1209,1150,1253
22631,1.0638e+08,0,0,0,0,0,0,0,0,1253,1150,1184,1226,1234,1175
22672,1.0639e+08,0,0,0,0,0,0,0,0,1253,1150,1184,1226,1233,1176
22721,1.0641e+08,0,0,0,0,0,0,0,0,1245,1160,1214,1197,1253,1150
22769,1.0642e+08,0,0,0,0,0,0,0,0,1239,1193,1253,1176,1272,1150
22813,1.0643e+08,0,0,0,0,0,0,0,0,1150,1286,1239,1210,1168,1274
22865,1.0645e+08,0,0,0,0,0,0,0,0,1303,1150,1177,1285,1257,1212
22912,1.0646e+08,0,0,0,0,0,0,0,0,1247,1150,1198,1206,1243,1155
22957,1.0647e+08,0,0,0,0,0,0,0,0,1150,1280,1252,1188,1190,1251
23001,1.0648e+08,0,0,0,0,0,0,0,0,1150,1342,1295,1218,1200,1310
23050,1.0649e+08,0,0,0,0,0,0,0,0,1162,1350,1262,1275,1150,1357
23097,1.065e+08,0,0,0,0,0,0,0,0,1150,1324,1307,1177,1228,1267
23145,1.0652e+08,0,0,0,0,0,0,0,0,1150,1386,1356,1201,1245,1324
23189,1.0653e+08,0,0,0,0,0,0,0,0,1237,1277,1178,1323,1150,1340
23234,1.0654e+08,0,0,0,0,0,0,0,0,1375,1150,1271,1288,1367,1164
23282,1.0655e+08,0,0,0,0,0,0,0,0,1290,1196,1150,1321,1205,1284
23329,1.0656e+08,0,0,0,0,0,0,0,0,1390,1150,1223,1346,1340,1231
23374,1.0657e+08,0,0,0,0,0,0,0,0,1244,1235,1288,1183,1290,1180
23419,1.0658e+08,0,0,0,0,0,0,0,0,1150,1408,1320,1281,1178,1394
23463,1.0659e+08,0,0,0,0,0,0,0,0,1243,1266,1314,1184,1304,1198
23509,1.066e+08,0,0,0,0,0,0,0,0,1216,1345,1236,1330,1150,1385
23553,1.0661e+08,0,0,0,0,0,0,0,0,1346,1174,1234,1303,1317,1216
23599,1.0662e+08,0,0,0,0,0,0,0,0,1335,1209,1295,1258,1351,1185
23644,1.0663e+08,0,0,0,0,0,0,0,0,1150,1399,1315,1273,1181,1382
23687,1.0664e+08,0,0,0,0,0,0,0,0,1320,1262,1256,1325,1287,1296
23735,1.0666e+08,0,0,0,0,0,0,0,0,1350,1245,1317,1284,1364,1224
23780,1.0667e+08,0,0,0,0,0,0,0,0,1209,1386,1328,1285,1235,1369
23825,1.0668e+08,0,0,0,0,0,0,0,0,1383,1231,1221,1390,1306,1323
23870,1.0669e+08,0,0,0,0,0,0,0,0,1326,1317,1403,1219,1406,1215
23914,1.067e+08,0,0,0,0,0,0,0,0,1185,1434,1402,1238,1284,1367
23959,1.0671e+08,0,0,0,0,0,0,0,0,1332,1337,1236,1414,1231,1418
24005,1.0672e+08,0,0,0,0,0,0,0,0,1423,1239,1350,1332,1430,1230
24050,1.0673e+08,0,0,0,0,0,0,0,0,1260,1421,1438,1234,1365,1330
24094,1.0674e+08,0,0,0,0,0,0,0,0,1381,1326,1159,1488,1201,1468
24139,1.0675e+08,0,0,0,0,0,0,0,0,1400,1318,1295,1418,1339,1382
24187,1.0676e+08,0,0,0,0,0,0,0,0,1318,1412,1500,1176,1461,1249
24231,1.0677e+08,0,0,0,0,0,0,0,0,1410,1335,1381,1367,1415,1329
24275,1.0678e+08,0,0,0,0,0,0,0,0,1419,1338,1219,1499,1273,1467
24321,1.0679e+08,0,0,0,0,0,0,0,0,1262,1485,1372,1401,1240,1498
24366,1.068e+08,0,0,0,0,0,0,0,0,1311,1463,1462,1312,1390,1395
24410,1.0681e+08,0,0,0,0,0,0,0,0,1557,1158,1405,1393,1560,1150
24457,1.0682e+08,0,0,0,0,0,0,0,0,1522,1252,1334,1468,1463,1339
24501,1.0683e+08,0,0,0,0,0,0,0,0,1321,1488,1389,1432,1291,1508
24546,1.0684e+08,0,0,0,0,0,0,0,0,1150,1663,1530,1398,1267,1614
24593,1.0686e+08,0,0,0,0,0,0,0,0,1529,1298,1342,1499,1458,1392
24642,1.0687e+08,0,0,0,0,0,0,0,0,1150,1636,1522,1366,1280,1577
24687,1.0688e+08,0,0,0,0,0,0,0,0,1150,1629,1557,1303,1339,1533
24732,1.0689e+08,0,0,0,0,0,0,0,0,1479,1406,1428,1459,1460,1427
24783,1.0691e+08,0,0,0,0,0,0,0,0,1455,1450,1499,1401,1499,1402
24831,1.0692e+08,0,0,0,0,0,0,0,0,1362,1542,1506,1409,1415,1501
24875,1.0693e+08,0,0,0,0,0,0,0,0,1545,1371,1425,1502,1509,1418
24921,1.0694e+08,0,0,0,0,0,0,0,0,1535,1398,1429,1510,1496,1444
24967,1.0695e+08,0,0,0,0,0,0,0,0,1456,1497,1474,1479,1451,1501
25013,1.0696e+08,0,0,0,0,0,0,0,0,1347,1591,1553,1401,1435,1526
25062,1.0697e+08,0,0,0,0,0,0,0,0,1359,1593,1534,1437,1415,1552
25106,1.0698e+08,0,0,0,0,0,0,0,0,1422,1557,1490,1497,1414,1563
25151,1.07e+08,0,0,0,0,0,0,0,0,1491,1507,1473,1524,1460,1535
25195,1.0701e+08,0,0,0,0,0,0,0,0,1486,1522,1502,1507,1478,1530
25240,1.0702e+08,0,0,0,0,0,0,0,0,1565,1450,1458,1558,1512,1508
25285,1.0703e+08,0,0,0,0,0,0,0,0,1552,1477,1474,1554,1506,1525
25335,1.0704e+08,0,0,0,0,0,0,0,0,1511,1534,1556,1487,1536,1508
25378,1.0705e+08,0,0,0,0,0,0,0,0,1475,1579,1547,1510,1485,1570
25422,1.0706e+08,0,0,0,0,0,0,0,0,1503,1563,1552,1516,1511,1556
25474,1.0708e+08,0,0,0,0,0,0,0,0,1579,1500,1540,1541,1567,1512
25519,1.0709e+08,0,0,0,0,0,0,0,0,1573,1516,1556,1535,1571,1519
25564,1.071e+08,0,0,0,0,0,0,0,0,1572,1529,1583,1517,1590,1509
25608,1.0711e+08,0,0,0,0,0,0,0,0,1563,1549,1588,1522,1581,1530
25660,1.0712e+08,0,0,0,0,0,0,0,0,1567,1559,1578,1548,1566,1560
25704,1.0713e+08,0,0,0,0,0,0,0,0,1603,1529,1571,1564,1589,1545
25749,1.0714e+08,0,0,0,0,0,0,0,0,1595,1546,1571,1570,1577,1565
25796,1.0716e+08,0,0,0,0,0,0,0,0,1567,1577,1590,1554,1564,1580
25843,1.0717e+08,0,0,0,0,0,0,0,0,1562,1584,1597,1548,1564,1581
25887,1.0718e+08,0,0,0,0,0,0,0,0,1594,1553,1577,1570,1573,1574
25935,1.0719e+08,0,0,0,0,0,0,0,0,1620,1524,1561,1587,1582,1566
25980,1.072e+08,0,0,0,0,0,0,0,0,1613,1533,1579,1569,1591,1557
26024,1.0721e+08,0,0,0,0,0,0,0,0,1559,1589,1622,1522,1577,1570
26069,1.0722e+08,0,0,0,0,0,0,0,0,1598,1548,1576,1570,1567,1580
26113,1.0723e+08,0,0,0,0,0,0,0,0,1584,1560,1598,1545,1572,1573
26159,1.0724e+08,0,0,0,0,0,0,0,0,1588,1555,1620,1520,1596,1546
26207,1.0725e+08,0,0,0,0,0,0,0,0,1582,1560,1595,1545,1561,1581
26250,1.0727e+08,0,0,0,0,0,0,0,0,1612,1525,1551,1588,1543,1596
26292,1.0728e+08,0,0,0,0,0,0,0,0,1602,1533,1553,1583,1532,1603
26339,1.0729e+08,0,0,0,0,0,0,0,0,1577,1557,1607,1525,1559,1576
26382,1.073e+08,0,0,0,0,0,0,0,0,1612,1517,1595,1536,1579,1553
26425,1.0731e+08,0,0,0,0,0,0,0,0,1607,1519,1545,1583,1519,1608
26468,1.0732e+08,0,0,0,0,0,0,0,0,1567,1559,1594,1531,1522,1601
26507,1.0733e+08,0,0,0,0,0,0,0,0,1575,1548,1611,1508,1547,1576
26550,1.0734e+08,0,0,0,0,0,0,0,0,1605,1511,1599,1518,1563,1557
26592,1.0735e+08,0,0,0,0,0,0,0,0,1613,1496,1565,1549,1534,1580
26635,1.0736e+08,0,0,0,0,0,0,0,0,1582,1525,1606,1498,1541,1567
26679,1.0737e+08,0,0,0,0,0,0,0,0,1588,1514,1611,1487,1550,1553
26722,1.0738e+08,0,0,0,0,0,0,0,0,1615,1476,1586,1511,1550,1549
26769,1.0739e+08,0,0,0,0,0,0,0,0,1590,1502,1590,1502,1523,1571
26811,1.074e+08,0,0,0,0,0,0,0,0,1589,1498,1598,1488,1528,1562
26854,1.0741e+08,0,0,0,0,0,0,0,0,1607,1473,1587,1496,1534,1553
26897,1.0743e+08,0,0,0,0,0,0,0,0,1591,1487,1583,1496,1509,1572
26940,1.0744e+08,0,0,0,0,0,0,0,0,1562,1515,1605,1466,1497,1579
26984,1.0745e+08,0,0,0,0,0,0,0,0,1590,1479,1625,1435,1545,1528
27027,1.0746e+08,0,0,0,0,0,0,0,0,1602,1461,1584,1483,1510,1560
27070,1.0747e+08,0,0,0,0,0,0,0,0,1567,1499,1599,1460,1484,1580
27115,1.0748e+08,0,0,0,0,0,0,0,0,1596,1463,1582,1480,1492,1572
27160,1.0749e+08,0,0,0,0,0,0,0,0,1582,1478,1609,1444,1502,1561
27209,1.075e+08,0,0,0,0,0,0,0,0,1589,1469,1612,1440,1508,1554
27254,1.0751e+08,0,0,0,0,0,0,0,0,1654,1382,1564,1499,1526,1539
27299,1.0752e+08,0,0,0,0,0,0,0,0,1645,1398,1592,1468,1540,1526
27346,1.0754e+08,0,0,0,0,0,0,0,0,1629,1421,1590,1471,1513,1553
27391,1.0755e+08,0,0,0,0,0,0,0,0,1650,1394,1564,1504,1504,1564
27435,1.0756e+08,0,0,0,0,0,0,0,0,1646,1403,1590,1477,1522,1549
27480,1.0757e+08,0,0,0,0,0,0,0,0,1611,1454,1596,1472,1482,1588
27525,1.0758e+08,0,0,0,0,0,0,0,0,1618,1446,1598,1471,1489,1583
27570,1.0759e+08,0,0,0,0,0,0,0,0,1639,1419,1587,1486,1495,1579
27620,1.076e+08,0,0,0,0,0,0,0,0,1646,1412,1617,1451,1534,1544
27664,1.0761e+08,0,0,0,0,0,0,0,0,1645,1415,1613,1458,1526,1554
27709,1.0762e+08,0,0,0,0,0,0,0,0,1672,1376,1569,1511,1505,1575
27755,1.0763e+08,0,0,0,0,0,0,0,0,1634,1433,1651,1408,1548,1534
27799,1.0764e+08,0,0,0,0,0,0,0,0,1664,1386,1644,1417,1573,1506
27846,1.0766e+08,0,0,0,0,0,0,0,0,1612,1459,1626,1439,1488,1587
27890,1.0767e+08,0,0,0,0,0,0,0,0,1645,1413,1587,1488,1479,1594
27935,1.0768e+08,0,0,0,0,0,0,0,0,1582,1491,1620,1445,1439,1624
27980,1.0769e+08,0,0,0,0,0,0,0,0,1606,1461,1625,1436,1475,1595
28024,1.077e+08,0,0,0,0,0,0,0,0,1669,1369,1592,1477,1512,1561
28073,1.0771e+08,0,0,0,0,0,0,0,0,1611,1451,1628,1428,1482,1586
28119,1.0772e+08,0,0,0,0,0,0,0,0,1613,1449,1643,1407,1500,1570
28163,1.0773e+08,0,0,0,0,0,0,0,0,1645,1402,1619,1438,1510,1559
28208,1.0774e+08,0,0,0,0,0,0,0,0,1630,1423,1629,1423,1502,1566
28252,1.0775e+08,0,0,0,0,0,0,0,0,1635,1414,1650,1391,1531,1537
28297,1.0776e+08,0,0,0,0,0,0,0,0,1651,1389,1614,1442,1507,1559
28341,1.0777e+08,0,0,0,0,0,0,0,0,1646,1397,1632,1418,1521,1546
28386,1.0778e+08,0,0,0,0,0,0,0,0,1634,1415,1632,1417,1503,1563
28431,1.0779e+08,0,0,0,0,0,0,0,0,1648,1394,1605,1454,1484,1580
28476,1.078e+08,0,0,0,0,0,0,0,0,1610,1446,1623,1429,1454,1604
28525,1.0781e+08,0,0,0,0,0,0,0,0,1664,1369,1635,1413,1532,1535
28570,1.0782e+08,0,0,0,0,0,0,0,0,1700,1306,1620,1434,1554,1513
28621,1.0784e+08,0,0,0,0,0,0,0,0,1689,1328,1633,1416,1551,1516
28659,1.0785e+08,0,0,0,0,0,0,0,0,1637,1411,1633,1417,1484,1580
28704,1.0786e+08,0,0,0,0,0,0,0,0,1677,1350,1623,1432,1518,1551
28749,1.0787e+08,0,0,0,0,0,0,0,0,1653,1391,1638,1413,1501,1568
28794,1.0788e+08,0,0,0,0,0,0,0,0,1617,1443,1666,1371,1490,1578
28839,1.0789e+08,0,0,0,0,0,0,0,0,1654,1390,1646,1402,1509,1561
28884,1.079e+08,0,0,0,0,0,0,0,0,1657,1386,1653,1392,1519,1553
28928,1.0791e+08,0,0,0,0,0,0,0,0,1681,1348,1659,1384,1551,1520
28977,1.0792e+08,0,0,0,0,0,0,0,0,1706,1303,1613,1450,1527,1545
29022,1.0793e+08,0,0,0,0,0,0,0,0,1615,1448,1660,1383,1466,1600
29069,1.0794e+08,0,0,0,0,0,0,0,0,1636,1419,1630,1427,1449,1614
29117,1.0796e+08,0,0,0,0,0,0,0,0,1626,1434,1634,1423,1433,1627
29162,1.0797e+08,0,0,0,0,0,0,0,0,1648,1404,1664,1379,1495,1577
29207,1.0798e+08,0,0,0,0,0,0,0,0,1672,1367,1680,1353,1539,1536
29251,1.0799e+08,0,0,0,0,0,0,0,0,1716,1287,1626,1435,1525,1550
29296,1.08e+08,0,0,0,0,0,0,0,0,1707,1304,1623,1439,1504,1570
29340,1.0801e+08,0,0,0,0,0,0,0,0,1625,1437,1695,1328,1484,1587
29388,1.0802e+08,0,0,0,0,0,0,0,0,1628,1435,1678,1358,1459,1609
29433,1.0803e+08,0,0,0,0,0,0,0,0,1679,1359,1621,1445,1447,1619
29478,1.0804e+08,0,0,0,0,0,0,0,0,1629,1434,1661,1387,1429,1633
29525,1.0805e+08,0,0,0,0,0,0,0,0,1655,1397,1655,1396,1454,1613
29563,1.0806e+08,0,0,0,0,0,0,0,0,1605,1466,1675,1366,1413,1644
29609,1.0807e+08,0,0,0,0,0,0,0,0,1650,1406,1605,1466,1377,1669
29653,1.0808e+08,0,0,0,0,0,0,0,0,1607,1465,1660,1392,1398,1656
29698,1.0809e+08,0,0,0,0,0,0,0,0,1650,1407,1645,1415,1439,1628
29742,1.0811e+08,0,0,0,0,0,0,0,0,1684,1354,1613,1459,1447,1622
29787,1.0812e+08,0,0,0,0,0,0,0,0,1628,1439,1656,1399,1431,1633
29839,1.0813e+08,0,0,0,0,0,0,0,0,1649,1410,1627,1440,1425,1638
29884,1.0814e+08,0,0,0,0,0,0,0,0,1654,1402,1610,1462,1415,1644
29928,1.0815e+08,0,0,0,0,0,0,0,0,1661,1391,1652,1404,1488,1588
29974,1.0816e+08,0,0,0,0,0,0,0,0,1662,1388,1630,1434,1468,1603
30018,1.0817e+08,0,0,0,0,0,0,0,0,1635,1426,1637,1423,1452,1615
30063,1.0818e+08,0,0,0,0,0,0,0,0,1663,1384,1642,1415,1504,1571
30108,1.0819e+08,0,0,0,0,0,0,0,0,1651,1402,1634,1426,1489,1584
30153,1.082e+08,0,0,0,0,0,0,0,0,1645,1410,1641,1416,1501,1574
30200,1.0821e+08,0,0,0,0,0,0,0,0,1666,1379,1638,1420,1531,1546
30245,1.0822e+08,0,0,0,0,0,0,0,0,1627,1435,1665,1380,1525,1551
30293,1.0823e+08,0,0,0,0,0,0,0,0,1661,1385,1608,1460,1506,1569
30340,1.0825e+08,0,0,0,0,0,0,0,0,1600,1470,1607,1461,1435,1627
30382,1.0826e+08,0,0,0,0,0,0,0,0,1601,1467,1601,1468,1436,1626
30429,1.0827e+08,0,0,0,0,0,0,0,0,1573,1501,1630,1430,1442,1621
30473,1.0828e+08,0,0,0,0,0,0,0,0,1614,1451,1589,1482,1448,1616
30518,1.0829e+08,0,0,0,0,0,0,0,0,1595,1475,1599,1470,1439,1622
30563,1.083e+08,0,0,0,0,0,0,0,0,1612,1452,1593,1475,1461,1605
30607,1.0831e+08,0,0,0,0,0,0,0,0,1647,1403,1581,1489,1495,1576
30652,1.0832e+08,0,0,0,0,0,0,0,0,1570,1501,1638,1417,1473,1594
30697,1.0833e+08,0,0,0,0,0,0,0,0,1587,1481,1604,1460,1456,1608
30746,1.0835e+08,0,0,0,0,0,0,0,0,1615,1447,1563,1508,1444,1617
30790,1.0836e+08,0,0,0,0,0,0,0,0,1575,1495,1609,1454,1453,1609
30834,1.0837e+08,0,0,0,0,0,0,0,0,1616,1444,1565,1505,1455,1608
30878,1.0838e+08,0,0,0,0,0,0,0,0,1597,1468,1571,1499,1439,1620
30926,1.0839e+08,0,0,0,0,0,0,0,0,1630,1424,1607,1456,1526,1545
30970,1.084e+08,0,0,0,0,0,0,0,0,1616,1442,1606,1455,1512,1557
31015,1.0841e+08,0,0,0,0,0,0,0,0,1613,1443,1603,1456,1508,1559
31060,1.0842e+08,0,0,0,0,0,0,0,0,1601,1457,1612,1444,1508,1558
31105,1.0843e+08,0,0,0,0,0,0,0,0,1637,1408,1585,1476,1521,1544
31151,1.0844e+08,0,0,0,0,0,0,0,0,1613,1441,1618,1433,1533,1532
31202,1.0845e+08,0,0,0,0,0,0,0,0,1611,1442,1612,1441,1526,1538
31243,1.0846e+08,0,0,0,0,0,0,0,0,1643,1396,1581,1478,1532,1531
31285,1.0848e+08,0,0,0,0,0,0,0,0,1623,1423,1604,1449,1535,1527
31330,1.0849e+08,0,0,0,0,0,0,0,0,1598,1458,1593,1464,1495,1566
31375,1.085e+08,0,0,0,0,0,0,0,0,1591,1467,1575,1486,1466,1592
31419,1.0851e+08,0,0,0,0,0,0,0,0,1595,1463,1591,1468,1493,1570
31465,1.0852e+08,0,0,0,0,0,0,0,0,1634,1412,1558,1507,1502,1563
31509,1.0853e+08,0,0,0,0,0,0,0,0,1605,1453,1571,1493,1482,1581
31554,1.0854e+08,0,0,0,0,0,0,0,0,1616,1441,1583,1482,1509,1559
31598,1.0855e+08,0,0,0,0,0,0,0,0,1615,1445,1574,1495,1496,1573
31647,1.0856e+08,0,0,0,0,0,0,0,0,1580,1490,1576,1495,1457,1607
31692,1.0857e+08,0,0,0,0,0,0,0,0,1623,1440,1572,1502,1504,1570
31739,1.0858e+08,0,0,0,0,0,0,0,0,1642,1415,1591,1481,1549,1529
31788,1.086e+08,0,0,0,0,0,0,0,0,1621,1446,1625,1442,1561,1517
31832,1.0861e+08,0,0,0,0,0,0,0,0,1603,1471,1621,1448,1538,1543
31877,1.0862e+08,0,0,0,0,0,0,0,0,1637,1428,1558,1523,1508,1572
31922,1.0863e+08,0,0,0,0,0,0,0,0,1616,1457,1581,1498,1510,1571
31967,1.0864e+08,0,0,0,0,0,0,0,0,1592,1486,1613,1459,1520,1562
32014,1.0865e+08,0,0,0,0,0,0,0,0,1599,1478,1587,1492,1499,1580
32054,1.0866e+08,0,0,0,0,0,0,0,0,1597,1480,1569,1512,1477,1599
32096,1.0867e+08,0,0,0,0,0,0,0,0,1623,1448,1572,1508,1515,1567
32139,1.0868e+08,0,0,0,0,0,0,0,0,1640,1425,1577,1503,1540,1542
32183,1.0869e+08,0,0,0,0,0,0,0,0,1594,1483,1570,1509,1482,1594
32226,1.087e+08,0,0,0,0,0,0,0,0,1583,1493,1590,1485,1494,1582
32268,1.0871e+08,0,0,0,0,0,0,0,0,1625,1439,1592,1481,1548,1530
32310,1.0872e+08,0,0,0,0,0,0,0,0,1639,1417,1571,1504,1544,1532
32352,1.0873e+08,0,0,0,0,0,0,0,0,1603,1463,1561,1512,1494,1577
32395,1.0874e+08,0,0,0,0,0,0,0,0,1575,1495,1603,1461,1512,1560
32439,1.0875e+08,0,0,0,0,0,0,0,0,1631,1422,1582,1484,1554,1515
32485,1.0876e+08,0,0,0,0,0,0,0,0,1625,1429,1547,1522,1512,1556
32528,1.0877e+08,0,0,0,0,0,0,0,0,1574,1491,1549,1519,1456,1603
32570,1.0879e+08,0,0,0,0,0,0,0,0,1565,1499,1572,1492,1475,1587
32613,1.088e+08,0,0,0,0,0,0,0,0,1624,1428,1565,1500,1536,1530
32656,1.0881e+08,0,0,0,0,0,0,0,0,1629,1420,1550,1516,1528,1538
32699,1.0882e+08,0,0,0,0,0,0,0,0,1578,1485,1565,1499,1487,1576
32742,1.0883e+08,0,0,0,0,0,0,0,0,1558,1506,1600,1457,1506,1558
32784,1.0884e+08,0,0,0,0,0,0,0,0,1613,1439,1597,1459,1564,1498
32827,1.0885e+08,0,0,0,0,0,0,0,0,1633,1412,1540,1524,1528,1537
32871,1.0886e+08,0,0,0,0,0,0,0,0,1607,1447,1541,1523,1500,1563
32913,1.0887e+08,0,0,0,0,0,0,0,0,1564,1498,1577,1483,1491,1570
32959,1.0888e+08,0,0,0,0,0,0,0,0,1592,1465,1545,1518,1489,1572
33003,1.0889e+08,0,0,0,0,0,0,0,0,1616,1434,1537,1525,1509,1553
33048,1.089e+08,0,0,0,0,0,0,0,0,1594,1462,1555,1506,1504,1558
33099,1.0892e+08,0,0,0,0,0,0,0,0,1648,1388,1554,1507,1565,1495
33143,1.0893e+08,0,0,0,0,0,0,0,0,1605,1446,1587,1469,1552,1508
33190,1.0894e+08,0,0,0,0,0,0,0,0,1576,1481,1583,1473,1518,1543
33234,1.0895e+08,0,0,0,0,0,0,0,0,1601,1450,1554,1505,1516,1544
33279,1.0896e+08,0,0,0,0,0,0,0,0,1619,1426,1552,1507,1534,1525
33324,1.0897e+08,0,0,0,0,0,0,0,0,1610,1438,1569,1488,1542,1517
33374,1.0898e+08,0,0,0,0,0,0,0,0,1568,1488,1588,1464,1517,1541
33418,1.0899e+08,0,0,0,0,0,0,0,0,1589,1462,1576,1477,1528,1529
33463,1.09e+08,0,0,0,0,0,0,0,0,1593,1454,1584,1465,1542,1512
33507,1.0901e+08,0,0,0,0,0,0,0,0,1636,1394,1575,1475,1580,1468
33552,1.0902e+08,0,0,0,0,0,0,0,0,1603,1439,1556,1495,1526,1526
33597,1.0903e+08,0,0,0,0,0,0,0,0,1579,1467,1516,1535,1457,1588
33644,1.0904e+08,0,0,0,0,0,0,0,0,1521,1530,1567,1482,1446,1596
33685,1.0906e+08,0,0,0,0,0,0,0,0,1615,1422,1541,1510,1525,1526
33730,1.0907e+08,0,0,0,0,0,0,0,0,1569,1480,1580,1468,1516,1537
33774,1.0908e+08,0,0,0,0,0,0,0,0,1598,1446,1593,1452,1560,1491
33823,1.0909e+08,0,0,0,0,0,0,0,0,1630,1404,1561,1490,1561,1490
33867,1.091e+08,0,0,0,0,0,0,0,0,1611,1430,1533,1521,1512,1543
33913,1.0911e+08,0,0,0,0,0,0,0,0,1561,1492,1542,1514,1462,1588
33957,1.0912e+08,0,0,0,0,0,0,0,0,1532,1525,1589,1461,1483,1571
34002,1.0913e+08,0,0,0,0,0,0,0,0,1607,1439,1579,1475,1552,1505
34046,1.0914e+08,0,0,0,0,0,0,0,0,1624,1419,1542,1517,1531,1528
34091,1.0915e+08,0,0,0,0,0,0,0,0,1610,1439,1543,1516,1516,1544
34136,1.0916e+08,0,0,0,0,0,0,0,0,1573,1484,1596,1457,1531,1529
34180,1.0917e+08,0,0,0,0,0,0,0,0,1625,1418,1613,1434,1603,1447
34225,1.0918e+08,0,0,0,0,0,0,0,0,1658,1370,1564,1494,1589,1465
34275,1.0919e+08,0,0,0,0,0,0,0,0,1624,1421,1541,1520,1527,1534
34320,1.092e+08,0,0,0,0,0,0,0,0,1565,1494,1585,1471,1506,1553
34365,1.0922e+08,0,0,0,0,0,0,0,0,1556,1504,1606,1444,1521,1540
34409,1.0923e+08,0,0,0,0,0,0,0,0,1616,1432,1573,1486,1548,1512
34454,1.0924e+08,0,0,0,0,0,0,0,0,1619,1428,1549,1512,1526,1535
34499,1.0925e+08,0,0,0,0,0,0,0,0,1613,1437,1578,1480,1546,1516
34545,1.0926e+08,0,0,0,0,0,0,0,0,1647,1391,1547,1517,1551,1512
34589,1.0927e+08,0,0,0,0,0,0,0,0,1587,1473,1600,1458,1536,1529
34635,1.0928e+08,0,0,0,0,0,0,0,0,1547,1520,1611,1446,1504,1562
34684,1.0929e+08,0,0,0,0,0,0,0,0,1591,1473,1549,1520,1479,1586
34729,1.093e+08,0,0,0,0,0,0,0,0,1554,1516,1602,1461,1495,1573
34774,1.0931e+08,0,0,0,0,0,0,0,0,1630,1426,1589,1478,1561,1510
34819,1.0933e+08,0,0,0,0,0,0,0,0,1664,1376,1562,1510,1571,1500
34863,1.0934e+08,0,0,0,0,0,0,0,0,1617,1445,1609,1455,1564,1508
34908,1.0935e+08,0,0,0,0,0,0,0,0,1594,1473,1619,1443,1548,1525
34956,1.0936e+08,0,0,0,0,0,0,0,0,1598,1469,1562,1511,1486,1584
35001,1.0937e+08,0,0,0,0,0,0,0,0,1551,1523,1621,1441,1499,1574
35046,1.0938e+08,0,0,0,0,0,0,0,0,1588,1483,1594,1475,1506,1567
35090,1.0939e+08,0,0,0,0,0,0,0,0,1624,1438,1557,1518,1504,1570
35139,1.094e+08,0,0,0,0,0,0,0,0,1618,1446,1572,1501,1512,1562
35183,1.0941e+08,0,0,0,0,0,0,0,0,1634,1426,1610,1457,1568,1507
35228,1.0943e+08,0,0,0,0,0,0,0,0,1618,1447,1568,1508,1504,1571
35276,1.0944e+08,0,0,0,0,0,0,0,0,1611,1456,1591,1482,1518,1558
35320,1.0945e+08,0,0,0,0,0,0,0,0,1621,1444,1637,1423,1577,1497
35364,1.0946e+08,0,0,0,0,0,0,0,0,1642,1415,1567,1508,1525,1551
35410,1.0947e+08,0,0,0,0,0,0,0,0,1613,1454,1595,1476,1520,1555
35454,1.0948e+08,0,0,0,0,0,0,0,0,1636,1422,1584,1488,1533,1543
35499,1.0949e+08,0,0,0,0,0,0,0,0,1634,1422,1559,1514,1503,1569
35543,1.095e+08,0,0,0,0,0,0,0,0,1574,1496,1600,1466,1477,1590
35592,1.0951e+08,0,0,0,0,0,0,0,0,1587,1479,1611,1450,1506,1564
35636,1.0952e+08,0,0,0,0,0,0,0,0,1627,1427,1564,1504,1498,1569
35682,1.0953e+08,0,0,0,0,0,0,0,0,1601,1460,1566,1501,1468,1595
35727,1.0954e+08,0,0,0,0,0,0,0,0,1590,1472,1612,1445,1507,1560
35771,1.0956e+08,0,0,0,0,0,0,0,0,1630,1419,1565,1499,1501,1563
35815,1.0957e+08,0,0,0,0,0,0,0,0,1588,1472,1588,1472,1476,1585
35861,1.0958e+08,0,0,0,0,0,0,0,0,1598,1458,1585,1474,1485,1575
35905,1.0959e+08,0,0,0,0,0,0,0,0,1638,1403,1554,1507,1497,1564
35950,1.096e+08,0,0,0,0,0,0,0,0,1614,1434,1549,1511,1461,1592
35994,1.0961e+08,0,0,0,0,0,0,0,0,1591,1460,1566,1489,1453,1597
36043,1.0962e+08,0,0,0,0,0,0,0,0,1580,1471,1599,1448,1479,1573
36087,1.0963e+08,0,0,0,0,0,0,0,0,1643,1384,1569,1482,1520,1534
36133,1.0964e+08,0,0,0,0,0,0,0,0,1663,1351,1568,1482,1541,1511
36179,1.0965e+08,0,0,0,0,0,0,0,0,1618,1419,1599,1443,1521,1531
36218,1.0966e+08,0,0,0,0,0,0,0,0,1638,1390,1550,1502,1491,1560
36263,1.0967e+08,0,0,0,0,0,0,0,0,1614,1424,1557,1494,1467,1581
36309,1.0968e+08,0,0,0,0,0,0,0,0,1559,1491,1599,1444,1449,1595
36354,1.0969e+08,0,0,0,0,0,0,0,0,1594,1451,1564,1486,1446,1597
36399,1.0971e+08,0,0,0,0,0,0,0,0,1640,1387,1517,1535,1452,1593
36443,1.0972e+08,0,0,0,0,0,0,0,0,1602,1439,1572,1476,1465,1581
36492,1.0973e+08,0,0,0,0,0,0,0,0,1594,1450,1594,1449,1480,1568
36537,1.0974e+08,0,0,0,0,0,0,0,0,1644,1377,1545,1504,1486,1561
36582,1.0975e+08,0,0,0,0,0,0,0,0,1615,1416,1558,1487,1465,1577
36628,1.0976e+08,0,0,0,0,0,0,0,0,1628,1396,1556,1488,1478,1564
36672,1.0977e+08,0,0,0,0,0,0,0,0,1606,1423,1602,1429,1506,1536
36716,1.0978e+08,0,0,0,0,0,0,0,0,1629,1389,1572,1465,1500,1541
36761,1.0979e+08,0,0,0,0,0,0,0,0,1625,1393,1531,1508,1448,1584
36805,1.098e+08,0,0,0,0,0,0,0,0,1609,1414,1594,1433,1500,1537
36850,1.0981e+08,0,0,0,0,0,0,0,0,1613,1407,1610,1411,1523,1513
36894,1.0982e+08,0,0,0,0,0,0,0,0,1681,1293,1540,1495,1529,1506
36943,1.0983e+08,0,0,0,0,0,0,0,0,1662,1327,1535,1499,1500,1534
36988,1.0984e+08,0,0,0,0,0,0,0,0,1610,1407,1588,1437,1496,1537
37032,1.0985e+08,0,0,0,0,0,0,0,0,1627,1381,1552,1479,1474,1556
37081,1.0986e+08,0,0,0,0,0,0,0,0,1612,1403,1541,1491,1442,1583
37122,1.0988e+08,0,0,0,0,0,0,0,0,1578,1446,1579,1445,1446,1579
37162,1.0989e+08,0,0,0,0,0,0,0,0,1638,1364,1546,1484,1480,1550
37205,1.099e+08,0,0,0,0,0,0,0,0,1612,1402,1583,1441,1489,1542
37250,1.0991e+08,0,0,0,0,0,0,0,0,1610,1406,1603,1417,1508,1525
37294,1.0992e+08,0,0,0,0,0,0,0,0,1611,1408,1586,1441,1488,1546
37341,1.0993e+08,0,0,0,0,0,0,0,0,1605,1420,1593,1435,1487,1550
37389,1.0994e+08,0,0,0,0,0,0,0,0,1598,1432,1585,1448,1466,1570
37434,1.0995e+08,0,0,0,0,0,0,0,0,1600,1433,1614,1413,1500,1542
37478,1.0996e+08,0,0,0,0,0,0,0,0,1625,1402,1595,1442,1505,1540
37523,1.0997e+08,0,0,0,0,0,0,0,0,1625,1404,1565,1481,1468,1576
37564,1.0999e+08,0,0,0,0,0,0,0,0,1664,1349,1573,1476,1523,1530
37609,1.1e+08,0,0,0,0,0,0,0,0,1658,1362,1590,1458,1532,1523
37656,1.1001e+08,0,0,0,0,0,0,0,0,1609,1437,1620,1423,1505,1552
37700,1.1002e+08,0,0,0,0,0,0,0,0,1599,1453,1619,1427,1491,1568
37744,1.1003e+08,0,0,0,0,0,0,0,0,1654,1378,1564,1496,1494,1567
37788,1.1004e+08,0,0,0,0,0,0,0,0,1630,1416,1613,1439,1518,1546
37837,1.1005e+08,0,0,0,0,0,0,0,0,1623,1427,1627,1421,1525,1540
37883,1.1007e+08,0,0,0,0,0,0,0,0,1646,1396,1601,1458,1522,1544
37927,1.1008e+08,0,0,0,0,0,0,0,0,1656,1381,1564,1501,1493,1572
37974,1.1009e+08,0,0,0,0,0,0,0,0,1620,1433,1575,1489,1459,1600
38019,1.101e+08,0,0,0,0,0,0,0,0,1570,1494,1627,1424,1462,1598
38060,1.1011e+08,0,0,0,0,0,0,0,0,1640,1403,1638,1406,1556,1508
38104,1.1012e+08,0,0,0,0,0,0,0,0,1649,1387,1610,1442,1537,1526
38149,1.1014e+08,0,0,0,0,0,0,0,0,1670,1352,1587,1468,1537,1524
38194,1.1015e+08,0,0,0,0,0,0,0,0,1631,1408,1609,1438,1517,1542
38243,1.1016e+08,0,0,0,0,0,0,0,0,1614,1430,1634,1403,1526,1531
38287,1.1017e+08,0,0,0,0,0,0,0,0,1651,1375,1576,1476,1503,1551
38332,1.1018e+08,0,0,0,0,0,0,0,0,1626,1410,1594,1451,1494,1558
38377,1.1019e+08,0,0,0,0,0,0,0,0,1621,1415,1623,1413,1522,1531
38418,1.102e+08,0,0,0,0,0,0,0,0,1651,1367,1565,1482,1495,1554
38459,1.1021e+08,0,0,0,0,0,0,0,0,1640,1382,1591,1449,1511,1537
38505,1.1022e+08,0,0,0,0,0,0,0,0,1650,1364,1578,1463,1509,1537
38549,1.1023e+08,0,0,0,0,0,0,0,0,1636,1384,1549,1495,1458,1581
38594,1.1024e+08,0,0,0,0,0,0,0,0,1595,1440,1567,1473,1427,1604
38640,1.1025e+08,0,0,0,0,0,0,0,0,1570,1470,1603,1429,1441,1594
38689,1.1027e+08,0,0,0,0,0,0,0,0,1622,1404,1598,1436,1498,1546
38734,1.1028e+08,0,0,0,0,0,0,0,0,1609,1421,1611,1418,1497,1546
38779,1.1029e+08,0,0,0,0,0,0,0,0,1635,1384,1584,1453,1497,1545
38825,1.103e+08,0,0,0,0,0,0,0,0,1648,1364,1589,1447,1517,1526
38869,1.1031e+08,0,0,0,0,0,0,0,0,1620,1405,1572,1466,1463,1574
38918,1.1032e+08,0,0,0,0,0,0,0,0,1635,1381,1529,1513,1434,1598
38962,1.1033e+08,0,0,0,0,0,0,0,0,1581,1454,1591,1441,1438,1594
39009,1.1034e+08,0,0,0,0,0,0,0,0,1608,1419,1580,1455,1459,1577
39051,1.1035e+08,0,0,0,0,0,0,0,0,1655,1348,1545,1495,1477,1561
39095,1.1036e+08,0,0,0,0,0,0,0,0,1643,1367,1559,1479,1476,1561
39144,1.1037e+08,0,0,0,0,0,0,0,0,1624,1396,1593,1438,1490,1549
39188,1.1038e+08,0,0,0,0,0,0,0,0,1657,1347,1593,1440,1529,1513
39233,1.104e+08,0,0,0,0,0,0,0,0,1646,1365,1549,1493,1466,1573
39278,1.1041e+08,0,0,0,0,0,0,0,0,1573,1466,1584,1453,1410,1616
39322,1.1042e+08,0,0,0,0,0,0,0,0,1665,1338,1571,1471,1509,1536
39370,1.1043e+08,0,0,0,0,0,0,0,0,1643,1376,1573,1470,1482,1562
39416,1.1045e+08,0,0,0,0,0,0,0,0,1602,1434,1610,1423,1475,1568
39458,1.1046e+08,0,0,0,0,0,0,0,0,1658,1351,1563,1481,1489,1556
39503,1.1047e+08,0,0,0,0,0,0,0,0,1658,1353,1569,1475,1494,1553
39552,1.1048e+08,0,0,0,0,0,0,0,0,1628,1399,1603,1433,1495,1551
39597,1.1049e+08,0,0,0,0,0,0,0,0,1653,1361,1606,1430,1527,1521
39642,1.105e+08,0,0,0,0,0,0,0,0,1656,1355,1556,1490,1474,1570
39687,1.1051e+08,0,0,0,0,0,0,0,0,1575,1468,1614,1418,1442,1596
39732,1.1053e+08,0,0,0,0,0,0,0,0,1645,1374,1597,1441,1506,1542
39776,1.1054e+08,0,0,0,0,0,0,0,0,1615,1419,1597,1443,1467,1578
39818,1.1055e+08,0,0,0,0,0,0,0,0,1634,1393,1603,1436,1496,1553
39863,1.1056e+08,0,0,0,0,0,0,0,0,1659,1354,1594,1447,1516,1534
39907,1.1057e+08,0,0,0,0,0,0,0,0,1635,1391,1588,1455,1478,1568
39952,1.1058e+08,0,0,0,0,0,0,0,0,1625,1407,1601,1439,1480,1567
40001,1.1059e+08,0,0,0,0,0,0,0,0,1620,1415,1569,1480,1432,1607
40045,1.106e+08,0,0,0,0,0,0,0,0,1573,1476,1617,1422,1431,1610
40090,1.1061e+08,0,0,0,0,0,0,0,0,1615,1424,1604,1440,1468,1581
40134,1.1062e+08,0,0,0,0,0,0,0,0,1649,1377,1559,1495,1455,1592
40176,1.1063e+08,0,0,0,0,0,0,0,0,1598,1451,1598,1450,1435,1610
40220,1.1064e+08,0,0,0,0,0,0,0,0,1632,1410,1610,1440,1490,1569
40263,1.1065e+08,0,0,0,0,0,0,0,0,1652,1383,1593,1464,1494,1568
40305,1.1066e+08,0,0,0,0,0,0,0,0,1606,1449,1622,1429,1470,1589
40345,1.1068e+08,0,0,0,0,0,0,0,0,1668,1361,1588,1473,1506,1559
40388,1.1069e+08,0,0,0,0,0,0,0,0,1677,1347,1572,1492,1500,1565
40435,1.107e+08,0,0,0,0,0,0,0,0,1609,1448,1610,1446,1457,1601
40477,1.1071e+08,0,0,0,0,0,0,0,0,1623,1428,1594,1466,1457,1601
40520,1.1072e+08,0,0,0,0,0,0,0,0,1654,1384,1571,1493,1470,1591
40562,1.1073e+08,0,0,0,0,0,0,0,0,1630,1418,1565,1499,1432,1619
40602,1.1074e+08,0,0,0,0,0,0,0,0,1626,1422,1623,1426,1500,1563
40646,1.1075e+08,0,0,0,0,0,0,0,0,1662,1367,1585,1472,1501,1560
40685,1.1076e+08,0,0,0,0,0,0,0,0,1632,1410,1598,1455,1481,1577
40728,1.1077e+08,0,0,0,0,0,0,0,0,1608,1441,1631,1409,1494,1564
40770,1.1078e+08,0,0,0,0,0,0,0,0,1646,1385,1571,1484,1471,1582
40814,1.1079e+08,0,0,0,0,0,0,0,0,1624,1417,1610,1434,1490,1565
40861,1.108e+08,0,0,0,0,0,0,0,0,1610,1434,1621,1418,1488,1566
40903,1.1081e+08,0,0,0,0,0,0,0,0,1651,1374,1574,1478,1483,1569
40947,1.1082e+08,0,0,0,0,0,0,0,0,1634,1399,1597,1449,1490,1562
40989,1.1083e+08,0,0,0,0,0,0,0,0,1611,1430,1616,1424,1484,1567
41032,1.1084e+08,0,0,0,0,0,0,0,0,1633,1400,1587,1461,1477,1574
41074,1.1085e+08,0,0,0,0,0,0,0,0,1647,1378,1562,1490,1465,1583
41111,1.1087e+08,0,0,0,0,0,0,0,0,1649,1374,1630,1403,1546,1506
41153,1.1088e+08,0,0,0,0,0,0,0,0,1650,1372,1590,1456,1502,1550
41200,1.1089e+08,0,0,0,0,0,0,0,0,1601,1445,1655,1367,1520,1535
41244,1.109e+08,0,0,0,0,0,0,0,0,1637,1398,1601,1448,1496,1560
41293,1.1091e+08,0,0,0,0,0,0,0,0,1628,1417,1608,1443,1490,1569
41337,1.1092e+08,0,0,0,0,0,0,0,0,1629,1418,1636,1407,1523,1541
41384,1.1093e+08,0,0,0,0,0,0,0,0,1652,1386,1613,1441,1522,1543
41428,1.1094e+08,0,0,0,0,0,0,0,0,1663,1371,1605,1454,1526,1541
41474,1.1095e+08,0,0,0,0,0,0,0,0,1625,1429,1619,1437,1493,1573
41515,1.1096e+08,0,0,0,0,0,0,0,0,1642,1409,1605,1458,1497,1572
41557,1.1098e+08,0,0,0,0,0,0,0,0,1637,1418,1604,1461,1487,1583
41603,1.1099e+08,0,0,0,0,0,0,0,0,1635,1423,1609,1457,1491,1581
41648,1.11e+08,0,0,0,0,0,0,0,0,1647,1408,1606,1463,1501,1574
41692,1.1101e+08,0,0,0,0,0,0,0,0,1658,1393,1576,1500,1479,1595
41741,1.1102e+08,0,0,0,0,0,0,0,0,1619,1450,1605,1467,1463,1609
41785,1.1103e+08,0,0,0,0,0,0,0,0,1643,1416,1621,1446,1512,1566
41830,1.1104e+08,0,0,0,0,0,0,0,0,1697,1331,1551,1528,1501,1577
41874,1.1105e+08,0,0,0,0,0,0,0,0,1663,1387,1600,1472,1513,1565
41920,1.1106e+08,0,0,0,0,0,0,0,0,1668,1377,1591,1483,1510,1567
41961,1.1107e+08,0,0,0,0,0,0,0,0,1659,1393,1567,1511,1469,1603
41999,1.1108e+08,0,0,0,0,0,0,0,0,1676,1366,1612,1457,1542,1536
42043,1.1109e+08,0,0,0,0,0,0,0,0,1680,1357,1551,1526,1481,1592
42087,1.111e+08,0,0,0,0,0,0,0,0,1648,1407,1582,1492,1473,1598
42133,1.1112e+08,0,0,0,0,0,0,0,0,1641,1414,1633,1426,1526,1548
42182,1.1113e+08,0,0,0,0,0,0,0,0,1669,1368,1583,1487,1505,1566
42226,1.1114e+08,0,0,0,0,0,0,0,0,1617,1442,1581,1486,1437,1621
42271,1.1115e+08,0,0,0,0,0,0,0,0,1606,1454,1614,1443,1466,1596
42315,1.1116e+08,0,0,0,0,0,0,0,0,1649,1392,1589,1472,1491,1573
42356,1.1117e+08,0,0,0,0,0,0,0,0,1626,1420,1565,1497,1434,1616
42402,1.1118e+08,0,0,0,0,0,0,0,0,1623,1423,1596,1459,1469,1587
42447,1.1119e+08,0,0,0,0,0,0,0,0,1660,1366,1549,1511,1463,1591
42489,1.112e+08,0,0,0,0,0,0,0,0,1670,1348,1571,1485,1503,1555
42533,1.1121e+08,0,0,0,0,0,0,0,0,1638,1398,1600,1450,1497,1560
42579,1.1122e+08,0,0,0,0,0,0,0,0,1644,1389,1616,1429,1523,1535
42627,1.1123e+08,0,0,0,0,0,0,0,0,1695,1300,1552,1505,1517,1540
42672,1.1124e+08,0,0,0,0,0,0,0,0,1650,1377,1590,1460,1504,1551
42716,1.1125e+08,0,0,0,0,0,0,0,0,1627,1410,1614,1428,1506,1549
42763,1.1127e+08,0,0,0,0,0,0,0,0,1637,1396,1556,1498,1451,1596
42802,1.1128e+08,0,0,0,0,0,0,0,0,1609,1435,1591,1458,1458,1591
42844,1.1129e+08,0,0,0,0,0,0,0,0,1678,1328,1551,1502,1503,1551
42888,1.113e+08,0,0,0,0,0,0,0,0,1653,1369,1586,1463,1511,1543
42932,1.1131e+08,0,0,0,0,0,0,0,0,1639,1391,1614,1426,1527,1527
42978,1.1132e+08,0,0,0,0,0,0,0,0,1628,1408,1603,1442,1501,1552
43023,1.1133e+08,0,0,0,0,0,0,0,0,1629,1406,1591,1457,1492,1561
43072,1.1134e+08,0,0,0,0,0,0,0,0,1619,1420,1603,1442,1495,1558
43117,1.1135e+08,0,0,0,0,0,0,0,0,1626,1410,1603,1442,1505,1549
43162,1.1136e+08,0,0,0,0,0,0,0,0,1654,1368,1600,1444,1539,1515
43207,1.1137e+08,0,0,0,0,0,0,0,0,1670,1340,1549,1505,1506,1547
43245,1.1138e+08,0,0,0,0,0,0,0,0,1614,1428,1591,1457,1484,1569
43290,1.114e+08,0,0,0,0,0,0,0,0,1626,1411,1584,1466,1494,1559
43335,1.1141e+08,0,0,0,0,0,0,0,0,1629,1408,1536,1520,1444,1602
43382,1.1142e+08,0,0,0,0,0,0,0,0,1608,1438,1556,1501,1443,1604
43430,1.1143e+08,0,0,0,0,0,0,0,0,1599,1452,1594,1458,1480,1576
43474,1.1144e+08,0,0,0,0,0,0,0,0,1632,1408,1561,1498,1484,1573
43523,1.1145e+08,0,0,0,0,0,0,0,0,1652,1382,1545,1517,1494,1567
43570,1.1147e+08,0,0,0,0,0,0,0,0,1612,1442,1563,1501,1466,1593
43615,1.1148e+08,0,0,0,0,0,0,0,0,1629,1424,1579,1486,1505,1562
43659,1.1149e+08,0,0,0,0,0,0,0,0,1630,1425,1570,1500,1497,1572
43701,1.115e+08,0,0,0,0,0,0,0,0,1606,1459,1584,1487,1485,1585
43746,1.1151e+08,0,0,0,0,0,0,0,0,1637,1421,1540,1536,1475,1596
43792,1.1152e+08,0,0,0,0,0,0,0,0,1634,1428,1553,1525,1486,1588
43837,1.1153e+08,0,0,0,0,0,0,0,0,1602,1471,1591,1484,1492,1584
43881,1.1155e+08,0,0,0,0,0,0,0,0,1650,1407,1539,1541,1493,1584
43930,1.1156e+08,0,0,0,0,0,0,0,0,1650,1409,1544,1536,1501,1577
43975,1.1157e+08,0,0,0,0,0,0,0,0,1638,1425,1588,1489,1535,1546
44021,1.1158e+08,0,0,0,0,0,0,0,0,1616,1455,1596,1479,1519,1561
44065,1.1159e+08,0,0,0,0,0,0,0,0,1630,1435,1575,1503,1514,1565
44106,1.116e+08,0,0,0,0,0,0,0,0,1642,1419,1555,1525,1507,1571
44148,1.1161e+08,0,0,0,0,0,0,0,0,1643,1419,1574,1505,1527,1553
44193,1.1162e+08,0,0,0,0,0,0,0,0,1619,1452,1570,1510,1496,1583
44237,1.1163e+08,0,0,0,0,0,0,0,0,1656,1400,1526,1555,1494,1585
44282,1.1164e+08,0,0,0,0,0,0,0,0,1647,1413,1549,1532,1507,1572
44329,1.1165e+08,0,0,0,0,0,0,0,0,1614,1457,1610,1462,1535,1545
