LineNo,TimeUS,C1,C2,C3,C4,C5,C6,C7,C8,C9,C10,C11,C12,C13,C14
211,100973043,0,0,0,0,0,0,0,0,1000,1000,1000,1000,1000,1000
776,101114603,0,0,0,0,0,0,0,0,1000,1000,1000,1000,1000,1000
1311,101367512,0,0,0,0,0,0,0,0,1000,1000,1000,1000,1000,1000
1502,101401198,0,0,0,0,0,0,0,0,1000,1000,1000,1000,1000,1000
1599,101423068,0,0,0,0,0,0,0,0,1000,1000,1000,1000,1000,1000
1644,101433071,0,0,0,0,0,0,0,0,1000,1000,1000,1000,1000,1000
1688,101443005,0,0,0,0,0,0,0,0,1000,1000,1000,1000,1000,1000
1735,101453967,0,0,0,0,0,0,0,0,1000,1000,1000,1000,1000,1000
1776,101464561,0,0,0,0,0,0,0,0,1000,1000,1000,1000,1000,1000
1815,101475111,0,0,0,0,0,0,0,0,1000,1000,1000,1000,1000,1000
1858,101485711,0,0,0,0,0,0,0,0,1000,1000,1000,1000,1000,1000
1905,101496416,0,0,0,0,0,0,0,0,1000,1000,1000,1000,1000,1000
1949,101506372,0,0,0,0,0,0,0,0,1000,1000,1000,1000,1000,1000
1992,101516659,0,0,0,0,0,0,0,0,1000,1000,1000,1000,1000,1000
2036,101526478,0,0,0,0,0,0,0,0,1000,1000,1000,1000,1000,1000
2079,101536476,0,0,0,0,0,0,0,0,1000,1000,1000,1000,1000,1000
2122,101547482,0,0,0,0,0,0,0,0,1000,1000,1000,1000,1000,1000
2164,101557227,0,0,0,0,0,0,0,0,1000,1000,1000,1000,1000,1000
2207,101567741,0,0,0,0,0,0,0,0,1000,1000,1000,1000,1000,1000
2249,101577768,0,0,0,0,0,0,0,0,1000,1000,1000,1000,1000,1000
2292,101587237,0,0,0,0,0,0,0,0,1000,1000,1000,1000,1000,1000
2338,101597596,0,0,0,0,0,0,0,0,1000,1000,1000,1000,1000,1000
2381,101607990,0,0,0,0,0,0,0,0,1000,1000,1000,1000,1000,1000
2424,101618442,0,0,0,0,0,0,0,0,1000,1000,1000,1000,1000,1000
2466,101628187,0,0,0,0,0,0,0,0,1000,1000,1000,1000,1000,1000
2512,101638729,0,0,0,0,0,0,0,0,1000,1000,1000,1000,1000,1000
2550,101650013,0,0,0,0,0,0,0,0,1000,1000,1000,1000,1000,1000
2594,101660967,0,0,0,0,0,0,0,0,1000,1000,1000,1000,1000,1000
2639,101671316,0,0,0,0,0,0,0,0,1000,1000,1000,1000,1000,1000
2684,101681452,0,0,0,0,0,0,0,0,1000,1000,1000,1000,1000,1000
2728,101691760,0,0,0,0,0,0,0,0,1000,1000,1000,1000,1000,1000
2777,101702417,0,0,0,0,0,0,0,0,1000,1000,1000,1000,1000,1000
2822,101712734,0,0,0,0,0,0,0,0,1000,1000,1000,1000,1000,1000
2866,101722695,0,0,0,0,0,0,0,0,1000,1000,1000,1000,1000,1000
2913,101733066,0,0,0,0,0,0,0,0,1000,1000,1000,1000,1000,1000
2957,101742925,0,0,0,0,0,0,0,0,1000,1000,1000,1000,1000,1000
3002,101753257,0,0,0,0,0,0,0,0,1000,1000,1000,1000,1000,1000
3047,101763998,0,0,0,0,0,0,0,0,1000,1000,1000,1000,1000,1000
3092,101774646,0,0,0,0,0,0,0,0,1000,1000,1000,1000,1000,1000
3139,101785197,0,0,0,0,0,0,0,0,1000,1000,1000,1000,1000,1000
3183,101795418,0,0,0,0,0,0,0,0,1000,1000,1000,1000,1000,1000
3233,101805708,0,0,0,0,0,0,0,0,1000,1000,1000,1000,1000,1000
3278,101815642,0,0,0,0,0,0,0,0,1000,1000,1000,1000,1000,1000
3322,101825770,0,0,0,0,0,0,0,0,1000,1000,1000,1000,1000,1000
3368,101836451,0,0,0,0,0,0,0,0,1000,1000,1000,1000,1000,1000
3414,101846687,0,0,0,0,0,0,0,0,1000,1000,1000,1000,1000,1000
3454,101858216,0,0,0,0,0,0,0,0,1000,1000,1000,1000,1000,1000
3500,101868040,0,0,0,0,0,0,0,0,1000,1000,1000,1000,1000,1000
3544,101878247,0,0,0,0,0,0,0,0,1000,1000,1000,1000,1000,1000
3589,101888861,0,0,0,0,0,0,0,0,1000,1000,1000,1000,1000,1000
3634,101899453,0,0,0,0,0,0,0,0,1000,1000,1000,1000,1000,1000
3683,101909565,0,0,0,0,0,0,0,0,1000,1000,1000,1000,1000,1000
3728,101919757,0,0,0,0,0,0,0,0,1000,1000,1000,1000,1000,1000
3772,101930287,0,0,0,0,0,0,0,0,1000,1000,1000,1000,1000,1000
3821,101940983,0,0,0,0,0,0,0,0,1000,1000,1000,1000,1000,1000
3868,101954466,0,0,0,0,0,0,0,0,1000,1000,1000,1000,1000,1000
3913,101965086,0,0,0,0,0,0,0,0,1000,1000,1000,1000,1000,1000
3957,101975402,0,0,0,0,0,0,0,0,1000,1000,1000,1000,1000,1000
4003,101985483,0,0,0,0,0,0,0,0,1000,1000,1000,1000,1000,1000
4050,101995654,0,0,0,0,0,0,0,0,1000,1000,1000,1000,1000,1000
4096,102005636,0,0,0,0,0,0,0,0,1000,1000,1000,1000,1000,1000
4145,102015502,0,0,0,0,0,0,0,0,1000,1000,1000,1000,1000,1000
4189,102025575,0,0,0,0,0,0,0,0,1000,1000,1000,1000,1000,1000
4234,102035495,0,0,0,0,0,0,0,0,1000,1000,1000,1000,1000,1000
4279,102045806,0,0,0,0,0,0,0,0,1000,1000,1000,1000,1000,1000
4326,102055960,0,0,0,0,0,0,0,0,1000,1000,1000,1000,1000,1000
4364,102067966,0,0,0,0,0,0,0,0,1000,1000,1000,1000,1000,1000
4409,102078518,0,0,0,0,0,0,0,0,1000,1000,1000,1000,1000,1000
4454,102088618,0,0,0,0,0,0,0,0,1000,1000,1000,1000,1000,1000
4498,102098646,0,0,0,0,0,0,0,0,1000,1000,1000,1000,1000,1000
4543,102109190,0,0,0,0,0,0,0,0,1000,1000,1000,1000,1000,1000
4592,102119286,0,0,0,0,0,0,0,0,1000,1000,1000,1000,1000,1000
4637,102129222,0,0,0,0,0,0,0,0,1000,1000,1000,1000,1000,1000
4682,102139057,0,0,0,0,0,0,0,0,1000,1000,1000,1000,1000,1000
4726,102149951,0,0,0,0,0,0,0,0,1000,1000,1000,1000,1000,1000
4775,102163225,0,0,0,0,0,0,0,0,1000,1000,1000,1000,1000,1000
4819,102174383,0,0,0,0,0,0,0,0,1000,1000,1000,1000,1000,1000
4865,102184778,0,0,0,0,0,0,0,0,1000,1000,1000,1000,1000,1000
4910,102195472,0,0,0,0,0,0,0,0,1000,1000,1000,1000,1000,1000
4955,102205673,0,0,0,0,0,0,0,0,1000,1000,1000,1000,1000,1000
5000,102215642,0,0,0,0,0,0,0,0,1000,1000,1000,1000,1000,1000
5048,102225650,0,0,0,0,0,0,0,0,1000,1000,1000,1000,1000,1000
5094,102235754,0,0,0,0,0,0,0,0,1000,1000,1000,1000,1000,1000
5141,102252204,0,0,0,0,0,0,0,0,1000,1000,1000,1000,1000,1000
5186,102262526,0,0,0,0,0,0,0,0,1000,1000,1000,1000,1000,1000
5231,102272704,0,0,0,0,0,0,0,0,1000,1000,1000,1000,1000,1000
5276,102283160,0,0,0,0,0,0,0,0,1000,1000,1000,1000,1000,1000
5321,102293091,0,0,0,0,0,0,0,0,1000,1000,1000,1000,1000,1000
5366,102303389,0,0,0,0,0,0,0,0,1000,1000,1000,1000,1000,1000
5410,102313056,0,0,0,0,0,0,0,0,1000,1000,1000,1000,1000,1000
5459,102324059,0,0,0,0,0,0,0,0,1000,1000,1000,1000,1000,1000
5503,102334646,0,0,0,0,0,0,0,0,1000,1000,1000,1000,1000,1000
5548,102345057,0,0,0,0,0,0,0,0,1000,1000,1000,1000,1000,1000
5593,102355315,0,0,0,0,0,0,0,0,1000,1000,1000,1000,1000,1000
5637,102365503,0,0,0,0,0,0,0,0,1000,1000,1000,1000,1000,1000
5683,102375409,0,0,0,0,0,0,0,0,1000,1000,1000,1000,1000,1000
5727,102385867,0,0,0,0,0,0,0,0,1000,1000,1000,1000,1000,1000
5772,102396473,0,0,0,0,0,0,0,0,1000,1000,1000,1000,1000,1000
5816,102406688,0,0,0,0,0,0,0,0,1000,1000,1000,1000,1000,1000
5861,102416465,0,0,0,0,0,0,0,0,1000,1000,1000,1000,1000,1000
5910,102426692,0,0,0,0,0,0,0,0,1000,1000,1000,1000,1000,1000
5954,102436360,0,0,0,0,0,0,0,0,1000,1000,1000,1000,1000,1000
6001,102447178,0,0,0,0,0,0,0,0,1000,1000,1000,1000,1000,1000
6040,102461104,0,0,0,0,0,0,0,0,1000,1000,1000,1000,1000,1000
6083,102471216,0,0,0,0,0,0,0,0,1000,1000,1000,1000,1000,1000
6126,102481630,0,0,0,0,0,0,0,0,1000,1000,1000,1000,1000,1000
6169,102492060,0,0,0,0,0,0,0,0,1000,1000,1000,1000,1000,1000
6214,102501864,0,0,0,0,0,0,0,0,1000,1000,1000,1000,1000,1000
6257,102512494,0,0,0,0,0,0,0,0,1000,1000,1000,1000,1000,1000
6300,102522500,0,0,0,0,0,0,0,0,1000,1000,1000,1000,1000,1000
6346,102532775,0,0,0,0,0,0,0,0,1000,1000,1000,1000,1000,1000
6389,102543126,0,0,0,0,0,0,0,0,1000,1000,1000,1000,1000,1000
6432,102553119,0,0,0,0,0,0,0,0,1000,1000,1000,1000,1000,1000
6475,102562959,0,0,0,0,0,0,0,0,1000,1000,1000,1000,1000,1000
6518,102572953,0,0,0,0,0,0,0,0,1000,1000,1000,1000,1000,1000
6564,102585660,0,0,0,0,0,0,0,0,1000,1000,1000,1000,1000,1000
6607,102596116,0,0,0,0,0,0,0,0,1000,1000,1000,1000,1000,1000
6650,102606252,0,0,0,0,0,0,0,0,1000,1000,1000,1000,1000,1000
6692,102616034,0,0,0,0,0,0,0,0,1000,1000,1000,1000,1000,1000
6735,102626424,0,0,0,0,0,0,0,0,1000,1000,1000,1000,1000,1000
6781,102636516,0,0,0,0,0,0,0,0,1000,1000,1000,1000,1000,1000
6824,102647056,0,0,0,0,0,0,0,0,1000,1000,1000,1000,1000,1000
6868,102659844,0,0,0,0,0,0,0,0,1000,1000,1000,1000,1000,1000
6910,102670780,0,0,0,0,0,0,0,0,1000,1000,1000,1000,1000,1000
6951,102681247,0,0,0,0,0,0,0,0,1000,1000,1000,1000,1000,1000
6995,102691087,0,0,0,0,0,0,0,0,1000,1000,1000,1000,1000,1000
7040,102701037,0,0,0,0,0,0,0,0,1000,1000,1000,1000,1000,1000
7086,102711634,0,0,0,0,0,0,0,0,1000,1000,1000,1000,1000,1000
7130,102721670,0,0,0,0,0,0,0,0,1000,1000,1000,1000,1000,1000
7178,102731736,0,0,0,0,0,0,0,0,1000,1000,1000,1000,1000,1000
7223,102742080,0,0,0,0,0,0,0,0,1000,1000,1000,1000,1000,1000
7269,102752021,0,0,0,0,0,0,0,0,1000,1000,1000,1000,1000,1000
7313,102762498,0,0,0,0,0,0,0,0,1000,1000,1000,1000,1000,1000
7358,102772474,0,0,0,0,0,0,0,0,1000,1000,1000,1000,1000,1000
7399,102782485,0,0,0,0,0,0,0,0,1000,1000,1000,1000,1000,1000
7444,102793326,0,0,0,0,0,0,0,0,1000,1000,1000,1000,1000,1000
7491,102803414,0,0,0,0,0,0,0,0,1000,1000,1000,1000,1000,1000
7536,102813741,0,0,0,0,0,0,0,0,1002,1002,1002,1002,1002,1002
7581,102823705,0,0,0,0,0,0,0,0,1005,1005,1005,1005,1005,1005
7628,102834446,0,0,0,0,0,0,0,0,1008,1008,1008,1008,1008,1008
7673,102847745,0,0,0,0,0,0,0,0,1012,1012,1012,1012,1012,1012
7718,102858618,0,0,0,0,0,0,0,0,1015,1015,1015,1015,1015,1015
7763,102868736,0,0,0,0,0,0,0,0,1018,1018,1018,1018,1018,1018
7808,102879026,0,0,0,0,0,0,0,0,1021,1021,1021,1021,1021,1021
7852,102889667,0,0,0,0,0,0,0,0,1024,1024,1024,1024,1024,1024
7897,102900246,0,0,0,0,0,0,0,0,1027,1027,1027,1027,1027,1027
7943,102910952,0,0,0,0,0,0,0,0,1030,1030,1030,1030,1030,1030
7988,102921191,0,0,0,0,0,0,0,0,1033,1033,1033,1033,1033,1033
8034,102931404,0,0,0,0,0,0,0,0,1036,1036,1036,1036,1036,1036
8082,102941234,0,0,0,0,0,0,0,0,1039,1039,1039,1039,1039,1039
8127,102951461,0,0,0,0,0,0,0,0,1042,1042,1042,1042,1042,1042
8172,102961702,0,0,0,0,0,0,0,0,1045,1045,1045,1045,1045,1045
8217,102972524,0,0,0,0,0,0,0,0,1048,1048,1048,1048,1048,1048
8262,102983619,0,0,0,0,0,0,0,0,1051,1051,1051,1051,1051,1051
8310,102994208,0,0,0,0,0,0,0,0,1054,1054,1054,1054,1054,1054
8355,103004531,0,0,0,0,0,0,0,0,1057,1057,1057,1057,1057,1057
8399,103014945,0,0,0,0,0,0,0,0,1060,1060,1060,1060,1060,1060
8446,103025489,0,0,0,0,0,0,0,0,1063,1063,1063,1063,1063,1063
8491,103035620,0,0,0,0,0,0,0,0,1066,1066,1066,1066,1066,1066
8540,103045845,0,0,0,0,0,0,0,0,1069,1069,1069,1069,1069,1069
8584,103056232,0,0,0,0,0,0,0,0,1072,1072,1072,1072,1072,1072
8626,103066843,0,0,0,0,0,0,0,0,1075,1075,1075,1075,1075,1075
8671,103076677,0,0,0,0,0,0,0,0,1078,1078,1078,1078,1078,1078
8718,103089732,0,0,0,0,0,0,0,0,1081,1081,1081,1081,1081,1081
8763,103099759,0,0,0,0,0,0,0,0,1084,1084,1084,1084,1084,1084
8808,103110678,0,0,0,0,0,0,0,0,1087,1087,1087,1087,1087,1087
8853,103120996,0,0,0,0,0,0,0,0,1090,1090,1090,1090,1090,1090
8899,103130818,0,0,0,0,0,0,0,0,1093,1093,1093,1093,1093,1093
8943,103140610,0,0,0,0,0,0,0,0,1096,1096,1096,1096,1096,1096
8992,103150630,0,0,0,0,0,0,0,0,1099,1099,1099,1099,1099,1099
9036,103160487,0,0,0,0,0,0,0,0,1100,1100,1100,1100,1100,1100
9082,103171227,0,0,0,0,0,0,0,0,1100,1100,1100,1100,1100,1100
9127,103181085,0,0,0,0,0,0,0,0,1100,1100,1100,1100,1100,1100
9174,103193993,0,0,0,0,0,0,0,0,1100,1100,1100,1100,1100,1100
9219,103204524,0,0,0,0,0,0,0,0,1100,1100,1100,1100,1100,1100
9264,103214602,0,0,0,0,0,0,0,0,1100,1100,1100,1100,1100,1100
9309,103225101,0,0,0,0,0,0,0,0,1100,1100,1100,1100,1100,1100
9354,103235006,0,0,0,0,0,0,0,0,1100,1100,1100,1100,1100,1100
9398,103245728,0,0,0,0,0,0,0,0,1100,1100,1100,1100,1100,1100
9449,103255703,0,0,0,0,0,0,0,0,1100,1100,1100,1100,1100,1100
9487,103266508,0,0,0,0,0,0,0,0,1100,1100,1100,1100,1100,1100
9533,103277119,0,0,0,0,0,0,0,0,1100,1100,1100,1100,1100,1100
9578,103287006,0,0,0,0,0,0,0,0,1100,1100,1100,1100,1100,1100
9622,103297476,0,0,0,0,0,0,0,0,1100,1100,1100,1100,1100,1100
9666,103307744,0,0,0,0,0,0,0,0,1100,1100,1100,1100,1100,1100
9711,103318445,0,0,0,0,0,0,0,0,1100,1100,1100,1100,1100,1100
9755,103328231,0,0,0,0,0,0,0,0,1100,1100,1100,1100,1100,1100
9802,103338495,0,0,0,0,0,0,0,0,1100,1100,1100,1100,1100,1100
9846,103348728,0,0,0,0,0,0,0,0,1100,1100,1100,1100,1100,1100
9895,103358670,0,0,0,0,0,0,0,0,1100,1100,1100,1100,1100,1100
9939,103369358,0,0,0,0,0,0,0,0,1100,1100,1100,1100,1100,1100
9984,103379066,0,0,0,0,0,0,0,0,1100,1100,1100,1100,1100,1100
10029,103389244,0,0,0,0,0,0,0,0,1100,1100,1100,1100,1100,1100
10070,103399445,0,0,0,0,0,0,0,0,1100,1100,1100,1100,1100,1100
10119,103411704,0,0,0,0,0,0,0,0,1100,1100,1100,1100,1100,1100
10163,103422526,0,0,0,0,0,0,0,0,1100,1100,1100,1100,1100,1100
10208,103433106,0,0,0,0,0,0,0,0,1100,1100,1100,1100,1100,1100
10251,103446018,0,0,0,0,0,0,0,0,1100,1100,1100,1100,1100,1100
10301,103456986,0,0,0,0,0,0,0,0,1100,1100,1100,1100,1100,1100
10345,103467236,0,0,0,0,0,0,0,0,1100,1100,1100,1100,1100,1100
10391,103477240,0,0,0,0,0,0,0,0,1100,1100,1100,1100,1100,1100
10438,103487092,0,0,0,0,0,0,0,0,1100,1100,1100,1100,1100,1100
10479,103497682,0,0,0,0,0,0,0,0,1100,1100,1100,1100,1100,1100
10524,103508172,0,0,0,0,0,0,0,0,1100,1100,1100,1100,1100,1100
10569,103518245,0,0,0,0,0,0,0,0,1100,1100,1100,1100,1100,1100
10614,103528812,0,0,0,0,0,0,0,0,1100,1100,1100,1100,1100,1100
10658,103539447,0,0,0,0,0,0,0,0,1100,1100,1100,1100,1100,1100
10703,103549533,0,0,0,0,0,0,0,0,1100,1100,1100,1100,1100,1100
10756,103561769,0,0,0,0,0,0,0,0,1100,1100,1100,1100,1100,1100
10800,103572569,0,0,0,0,0,0,0,0,1100,1100,1100,1100,1100,1100
10845,103582640,0,0,0,0,0,0,0,0,1100,1100,1100,1100,1100,1100
10889,103592659,0,0,0,0,0,0,0,0,1100,1100,1100,1100,1100,1100
10934,103602686,0,0,0,0,0,0,0,0,1100,1100,1100,1100,1100,1100
10979,103613433,0,0,0,0,0,0,0,0,1100,1100,1100,1100,1100,1100
11024,103624380,0,0,0,0,0,0,0,0,1100,1100,1100,1100,1100,1100
11069,103634602,0,0,0,0,0,0,0,0,1100,1100,1100,1100,1100,1100
11118,103646614,0,0,0,0,0,0,0,0,1100,1100,1100,1100,1100,1100
11166,103662075,0,0,0,0,0,0,0,0,1100,1100,1100,1100,1100,1100
11209,103672668,0,0,0,0,0,0,0,0,1100,1100,1100,1100,1100,1100
11253,103682639,0,0,0,0,0,0,0,0,1100,1100,1100,1100,1100,1100
11295,103692727,0,0,0,0,0,0,0,0,1100,1100,1100,1100,1100,1100
11338,103702732,0,0,0,0,0,0,0,0,1100,1100,1100,1100,1100,1100
11384,103715416,0,0,0,0,0,0,0,0,1100,1100,1100,1100,1100,1100
11426,103725735,0,0,0,0,0,0,0,0,1100,1100,1100,1100,1100,1100
11469,103736322,0,0,0,0,0,0,0,0,1100,1100,1100,1100,1100,1100
11511,103746398,0,0,0,0,0,0,0,0,1100,1100,1100,1100,1100,1100
11555,103756006,0,0,0,0,0,0,0,0,1100,1100,1100,1100,1100,1100
11601,103766428,0,0,0,0,0,0,0,0,1100,1100,1100,1100,1100,1100
11644,103776694,0,0,0,0,0,0,0,0,1100,1100,1100,1100,1100,1100
11687,103787099,0,0,0,0,0,0,0,0,1100,1100,1100,1100,1100,1100
11730,103797523,0,0,0,0,0,0,0,0,1100,1100,1100,1100,1100,1100
11774,103807512,0,0,0,0,0,0,0,0,1100,1100,1100,1100,1100,1100
11816,103817185,0,0,0,0,0,0,0,0,1100,1100,1100,1100,1100,1100
11859,103827489,0,0,0,0,0,0,0,0,1100,1100,1100,1100,1100,1100
11901,103837859,0,0,0,0,0,0,0,0,1100,1100,1100,1100,1100,1100
11946,103848625,0,0,0,0,0,0,0,0,1100,1100,1100,1100,1100,1100
11987,103862221,0,0,0,0,0,0,0,0,1100,1100,1100,1100,1100,1100
12037,103872526,0,0,0,0,0,0,0,0,1100,1100,1100,1100,1100,1100
12082,103882727,0,0,0,0,0,0,0,0,1100,1100,1100,1100,1100,1100
12127,103893141,0,0,0,0,0,0,0,0,1100,1100,1100,1100,1100,1100
12172,103903573,0,0,0,0,0,0,0,0,1100,1100,1100,1100,1100,1100
12216,103914085,0,0,0,0,0,0,0,0,1100,1100,1100,1100,1100,1100
12263,103924720,0,0,0,0,0,0,0,0,1100,1100,1100,1100,1100,1100
12307,103934971,0,0,0,0,0,0,0,0,1100,1100,1100,1100,1100,1100
12352,103944797,0,0,0,0,0,0,0,0,1100,1100,1100,1100,1100,1100
12397,103955237,0,0,0,0,0,0,0,0,1100,1100,1100,1100,1100,1100
12441,103965185,0,0,0,0,0,0,0,0,1100,1100,1100,1100,1100,1100
12490,103975680,0,0,0,0,0,0,0,0,1100,1100,1100,1100,1100,1100
12537,103986126,0,0,0,0,0,0,0,0,1100,1100,1100,1100,1100,1100
12582,103996099,0,0,0,0,0,0,0,0,1100,1100,1100,1100,1100,1100
12627,104006709,0,0,0,0,0,0,0,0,1100,1100,1100,1100,1100,1100
12672,104017494,0,0,0,0,0,0,0,0,1100,1100,1100,1100,1100,1100
12718,104027110,0,0,0,0,0,0,0,0,1100,1100,1100,1100,1100,1100
12764,104037471,0,0,0,0,0,0,0,0,1100,1100,1100,1100,1100,1100
12803,104048025,0,0,0,0,0,0,0,0,1100,1100,1100,1100,1100,1100
12849,104058761,0,0,0,0,0,0,0,0,1100,1100,1100,1100,1100,1100
12894,104068657,0,0,0,0,0,0,0,0,1100,1100,1100,1100,1100,1100
12942,104078727,0,0,0,0,0,0,0,0,1100,1100,1100,1100,1100,1100
12987,104089405,0,0,0,0,0,0,0,0,1100,1100,1100,1100,1100,1100
13032,104099420,0,0,0,0,0,0,0,0,1100,1100,1100,1100,1100,1100
13077,104109162,0,0,0,0,0,0,0,0,1100,1100,1100,1100,1100,1100
13122,104120422,0,0,0,0,0,0,0,0,1100,1100,1100,1100,1100,1100
13166,104130262,0,0,0,0,0,0,0,0,1100,1100,1100,1100,1100,1100
13211,104140830,0,0,0,0,0,0,0,0,1100,1100,1100,1100,1100,1100
13255,104151035,0,0,0,0,0,0,0,0,1100,1100,1100,1100,1100,1100
13300,104161176,0,0,0,0,0,0,0,0,1100,1100,1100,1100,1100,1100
13345,104171443,0,0,0,0,0,0,0,0,1100,1100,1100,1100,1100,1100
13393,104181521,0,0,0,0,0,0,0,0,1100,1100,1100,1100,1100,1100
13459,104234964,0,0,0,0,0,0,0,0,1100,1100,1100,1100,1100,1100
13503,104245725,0,0,0,0,0,0,0,0,1100,1100,1100,1100,1100,1100
13545,104256176,0,0,0,0,0,0,0,0,1100,1100,1100,1100,1100,1100
13589,104266733,0,0,0,0,0,0,0,0,1100,1100,1100,1100,1100,1100
13637,104277453,0,0,0,0,0,0,0,0,1100,1100,1100,1100,1100,1100
13682,104287247,0,0,0,0,0,0,0,0,1100,1100,1100,1100,1100,1100
13727,104297247,0,0,0,0,0,0,0,0,1100,1100,1100,1100,1100,1100
13771,104308468,0,0,0,0,0,0,0,0,1100,1100,1100,1100,1100,1100
13816,104318806,0,0,0,0,0,0,0,0,1100,1100,1100,1100,1100,1100
13861,104329740,0,0,0,0,0,0,0,0,1100,1100,1100,1100,1100,1100
13907,104340256,0,0,0,0,0,0,0,0,1100,1100,1100,1100,1100,1100
13952,104350206,0,0,0,0,0,0,0,0,1100,1100,1100,1100,1100,1100
13996,104360712,0,0,0,0,0,0,0,0,1100,1100,1100,1100,1100,1100
14041,104371082,0,0,0,0,0,0,0,0,1100,1100,1100,1100,1100,1100
14089,104381072,0,0,0,0,0,0,0,0,1100,1100,1100,1100,1100,1100
14135,104391606,0,0,0,0,0,0,0,0,1100,1100,1100,1100,1100,1100
14180,104401872,0,0,0,0,0,0,0,0,1100,1100,1100,1100,1100,1100
14224,104411945,0,0,0,0,0,0,0,0,1100,1100,1100,1100,1100,1100
14270,104422690,0,0,0,0,0,0,0,0,1100,1100,1100,1100,1100,1100
14314,104432665,0,0,0,0,0,0,0,0,1100,1100,1100,1100,1100,1100
14359,104442644,0,0,0,0,0,0,0,0,1100,1100,1100,1100,1100,1100
14402,104453062,0,0,0,0,0,0,0,0,1100,1100,1100,1100,1100,1100
14447,104466507,0,0,0,0,0,0,0,0,1100,1100,1100,1100,1100,1100
14495,104476521,0,0,0,0,0,0,0,0,1100,1100,1100,1100,1100,1100
14543,104486722,0,0,0,0,0,0,0,0,1100,1100,1100,1100,1100,1100
14587,104496778,0,0,0,0,0,0,0,0,1100,1100,1100,1100,1100,1100
14631,104507068,0,0,0,0,0,0,0,0,1100,1100,1100,1100,1100,1100
14676,104517592,0,0,0,0,0,0,0,0,1100,1100,1100,1100,1100,1100
14720,104527261,0,0,0,0,0,0,0,0,1100,1100,1100,1100,1100,1100
14765,104538243,0,0,0,0,0,0,0,0,1100,1100,1100,1100,1100,1100
14810,104549042,0,0,0,0,0,0,0,0,1100,1100,1100,1100,1100,1100
14854,104559025,0,0,0,0,0,0,0,0,1100,1100,1100,1100,1100,1100
14899,104569514,0,0,0,0,0,0,0,0,1100,1100,1100,1100,1100,1100
14945,104579939,0,0,0,0,0,0,0,0,1100,1100,1100,1100,1100,1100
14994,104589997,0,0,0,0,0,0,0,0,1100,1100,1100,1100,1100,1100
15039,104600008,0,0,0,0,0,0,0,0,1100,1100,1100,1100,1100,1100
15083,104610255,0,0,0,0,0,0,0,0,1100,1100,1100,1100,1100,1100
15128,104620466,0,0,0,0,0,0,0,0,1100,1100,1100,1100,1100,1100
15175,104632730,0,0,0,0,0,0,0,0,1100,1100,1100,1100,1100,1100
15220,104643450,0,0,0,0,0,0,0,0,1100,1100,1100,1100,1100,1100
15267,104654406,0,0,0,0,0,0,0,0,1100,1100,1100,1100,1100,1100
15309,104668452,0,0,0,0,0,0,0,0,1100,1100,1100,1100,1100,1100
15354,104678330,0,0,0,0,0,0,0,0,1100,1100,1100,1100,1100,1100
15399,104688950,0,0,0,0,0,0,0,0,1100,1100,1100,1100,1100,1100
15448,104699062,0,0,0,0,0,0,0,0,1100,1100,1100,1100,1100,1100
15494,104709157,0,0,0,0,0,0,0,0,1100,1100,1100,1100,1100,1100
15538,104718867,0,0,0,0,0,0,0,0,1100,1100,1100,1100,1100,1100
15583,104729363,0,0,0,0,0,0,0,0,1100,1100,1100,1100,1100,1100
15627,104739074,0,0,0,0,0,0,0,0,1100,1100,1100,1100,1100,1100
15673,104749748,0,0,0,0,0,0,0,0,1100,1100,1100,1100,1100,1100
15717,104760214,0,0,0,0,0,0,0,0,1100,1100,1100,1100,1100,1100
15762,104770118,0,0,0,0,0,0,0,0,1100,1100,1100,1100,1100,1100
15807,104780043,0,0,0,0,0,0,0,0,1100,1100,1100,1100,1100,1100
15851,104790688,0,0,0,0,0,0,0,0,1100,1100,1100,1100,1100,1100
15900,104801064,0,0,0,0,0,0,0,0,1100,1100,1100,1100,1100,1100
15947,104811424,0,0,0,0,0,0,0,0,1100,1100,1100,1100,1100,1100
15992,104821435,0,0,0,0,0,0,0,0,1100,1100,1100,1100,1100,1100
16036,104831225,0,0,0,0,0,0,0,0,1100,1100,1100,1100,1100,1100
16080,104841694,0,0,0,0,0,0,0,0,1100,1100,1100,1100,1100,1100
16117,104852415,0,0,0,0,0,0,0,0,1100,1100,1100,1100,1100,1100
16159,104862897,0,0,0,0,0,0,0,0,1100,1100,1100,1100,1100,1100
16203,104873406,0,0,0,0,0,0,0,0,1100,1100,1100,1100,1100,1100
16246,104884088,0,0,0,0,0,0,0,0,1100,1100,1100,1100,1100,1100
16289,104894193,0,0,0,0,0,0,0,0,1100,1100,1100,1100,1100,1100
16337,104904170,0,0,0,0,0,0,0,0,1100,1100,1100,1100,1100,1100
16379,104914662,0,0,0,0,0,0,0,0,1100,1100,1100,1100,1100,1100
16426,104927309,0,0,0,0,0,0,0,0,1100,1100,1100,1100,1100,1100
16468,104938159,0,0,0,0,0,0,0,0,1100,1100,1100,1100,1100,1100
16511,104948853,0,0,0,0,0,0,0,0,1100,1100,1100,1100,1100,1100
16553,104959438,0,0,0,0,0,0,0,0,1100,1100,1100,1100,1100,1100
16598,104969507,0,0,0,0,0,0,0,0,1100,1100,1100,1100,1100,1100
16641,104979493,0,0,0,0,0,0,0,0,1100,1100,1100,1100,1100,1100
16683,104989761,0,0,0,0,0,0,0,0,1100,1100,1100,1100,1100,1100
16729,105000268,0,0,0,0,0,0,0,0,1100,1100,1100,1100,1100,1100
16772,105010079,0,0,0,0,0,0,0,0,1100,1100,1100,1100,1100,1100
16817,105020189,0,0,0,0,0,0,0,0,1100,1100,1100,1100,1100,1100
16859,105030748,0,0,0,0,0,0,0,0,1100,1100,1100,1100,1100,1100
16902,105041038,0,0,0,0,0,0,0,0,1100,1100,1100,1100,1100,1100
16947,105051469,0,0,0,0,0,0,0,0,1100,1100,1100,1100,1100,1100
16986,105063055,0,0,0,0,0,0,0,0,1100,1100,1100,1100,1100,1100
17031,105073240,0,0,0,0,0,0,0,0,1100,1100,1100,1100,1100,1100
17079,105083120,0,0,0,0,0,0,0,0,1100,1100,1100,1100,1100,1100
17123,105093170,0,0,0,0,0,0,0,0,1100,1100,1100,1100,1100,1100
17171,105103724,0,0,0,0,0,0,0,0,1100,1100,1100,1100,1100,1100
17216,105114033,0,0,0,0,0,0,0,0,1100,1100,1100,1100,1100,1100
17262,105123742,0,0,0,0,0,0,0,0,1100,1100,1100,1100,1100,1100
17307,105133973,0,0,0,0,0,0,0,0,1100,1100,1100,1100,1100,1100
17352,105144499,0,0,0,0,0,0,0,0,1100,1100,1100,1100,1100,1100
17396,105154865,0,0,0,0,0,0,0,0,1100,1100,1100,1100,1100,1100
17441,105165469,0,0,0,0,0,0,0,0,1100,1100,1100,1100,1100,1100
17485,105175703,0,0,0,0,0,0,0,0,1100,1100,1100,1100,1100,1100
17530,105185659,0,0,0,0,0,0,0,0,1100,1100,1100,1100,1100,1100
17574,105195637,0,0,0,0,0,0,0,0,1100,1100,1100,1100,1100,1100
17621,105206069,0,0,0,0,0,0,0,0,1100,1100,1100,1100,1100,1100
17668,105216024,0,0,0,0,0,0,0,0,1100,1100,1100,1100,1100,1100
17713,105226085,0,0,0,0,0,0,0,0,1100,1100,1100,1100,1100,1100
17761,105236239,0,0,0,0,0,0,0,0,1100,1100,1100,1100,1100,1100
17799,105246970,0,0,0,0,0,0,0,0,1100,1100,1100,1100,1100,1100
17841,105257655,0,0,0,0,0,0,0,0,1100,1100,1100,1100,1100,1100
17886,105268057,0,0,0,0,0,0,0,0,1100,1100,1100,1100,1100,1100
17930,105278604,0,0,0,0,0,0,0,0,1100,1100,1100,1100,1100,1100
17975,105288719,0,0,0,0,0,0,0,0,1100,1100,1100,1100,1100,1100
18020,105299295,0,0,0,0,0,0,0,0,1100,1100,1100,1100,1100,1100
18068,105309608,0,0,0,0,0,0,0,0,1100,1100,1100,1100,1100,1100
18115,105319874,0,0,0,0,0,0,0,0,1100,1100,1100,1100,1100,1100
18160,105330007,0,0,0,0,0,0,0,0,1100,1100,1100,1100,1100,1100
18205,105340465,0,0,0,0,0,0,0,0,1100,1100,1100,1100,1100,1100
18250,105350945,0,0,0,0,0,0,0,0,1100,1100,1100,1100,1100,1100
18296,105360972,0,0,0,0,0,0,0,0,1100,1100,1100,1100,1100,1100
18340,105371190,0,0,0,0,0,0,0,0,1100,1100,1100,1100,1100,1100
18385,105381479,0,0,0,0,0,0,0,0,1100,1100,1100,1100,1100,1100
18429,105391863,0,0,0,0,0,0,0,0,1100,1100,1100,1100,1100,1100
18474,105402188,0,0,0,0,0,0,0,0,1100,1100,1100,1100,1100,1100
18522,105412480,0,0,0,0,0,0,0,0,1100,1100,1100,1100,1100,1100
18568,105422468,0,0,0,0,0,0,0,0,1100,1100,1100,1100,1100,1100
18613,105432888,0,0,0,0,0,0,0,0,1100,1100,1100,1100,1100,1100
18660,105446008,0,0,0,0,0,0,0,0,1100,1100,1100,1100,1100,1100
18702,105457623,0,0,0,0,0,0,0,0,1100,1100,1100,1100,1100,1100
18750,105468152,0,0,0,0,0,0,0,0,1100,1100,1100,1100,1100,1100
18794,105478261,0,0,0,0,0,0,0,0,1100,1100,1100,1100,1100,1100
18839,105488537,0,0,0,0,0,0,0,0,1100,1100,1100,1100,1100,1100
18883,105499105,0,0,0,0,0,0,0,0,1100,1100,1100,1100,1100,1100
18928,105509030,0,0,0,0,0,0,0,0,1100,1100,1100,1100,1100,1100
18979,105521328,0,0,0,0,0,0,0,0,1100,1100,1100,1100,1100,1100
19024,105532119,0,0,0,0,0,0,0,0,1100,1100,1100,1100,1100,1100
19069,105542773,0,0,0,0,0,0,0,0,1100,1100,1100,1100,1100,1100
19118,105555671,0,0,0,0,0,0,0,0,1100,1100,1100,1100,1100,1100
19163,105565998,0,0,0,0,0,0,0,0,1100,1100,1100,1100,1100,1100
19208,105576003,0,0,0,0,0,0,0,0,1100,1100,1100,1100,1100,1100
19252,105586147,0,0,0,0,0,0,0,0,1100,1100,1100,1100,1100,1100
19297,105596659,0,0,0,0,0,0,0,0,1100,1100,1100,1100,1100,1100
19342,105607058,0,0,0,0,0,0,0,0,1100,1100,1100,1100,1100,1100
19387,105617181,0,0,0,0,0,0,0,0,1100,1100,1100,1100,1100,1100
19435,105627455,0,0,0,0,0,0,0,0,1100,1100,1100,1100,1100,1100
19480,105637675,0,0,0,0,0,0,0,0,1100,1100,1100,1100,1100,1100
19531,105653329,0,0,0,0,0,0,0,0,1100,1100,1100,1100,1100,1100
19576,105666067,0,0,0,0,0,0,0,0,1100,1100,1100,1100,1100,1100
19621,105677019,0,0,0,0,0,0,0,0,1100,1100,1100,1100,1100,1100
19666,105687297,0,0,0,0,0,0,0,0,1100,1100,1100,1100,1100,1100
19711,105698016,0,0,0,0,0,0,0,0,1100,1100,1100,1100,1100,1100
19756,105708408,0,0,0,0,0,0,0,0,1100,1100,1100,1100,1100,1100
19800,105718172,0,0,0,0,0,0,0,0,1100,1100,1100,1100,1100,1100
19849,105728720,0,0,0,0,0,0,0,0,1100,1100,1100,1100,1100,1100
19894,105739296,0,0,0,0,0,0,0,0,1100,1100,1100,1100,1100,1100
19940,105750057,0,0,0,0,0,0,0,0,1100,1100,1100,1100,1100,1100
19985,105760081,0,0,0,0,0,0,0,0,1100,1100,1100,1100,1100,1100
20032,105772989,0,0,0,0,0,0,0,0,1100,1100,1100,1100,1100,1100
20077,105783114,0,0,0,0,0,0,0,0,1100,1100,1100,1100,1100,1100
20122,105793960,0,0,0,0,0,0,0,0,1100,1100,1100,1100,1100,1100
20167,105804759,0,0,0,0,0,0,0,0,1100,1100,1100,1100,1100,1100
20212,105815544,0,0,0,0,0,0,0,0,1100,1100,1100,1100,1100,1100
20256,105825754,0,0,0,0,0,0,0,0,1100,1100,1100,1100,1100,1100
20305,105835866,0,0,0,0,0,0,0,0,1100,1100,1100,1100,1100,1100
20349,105845871,0,0,0,0,0,0,0,0,1100,1100,1100,1100,1100,1100
20396,105856151,0,0,0,0,0,0,0,0,1100,1100,1100,1100,1100,1100
20435,105867523,0,0,0,0,0,0,0,0,1100,1100,1100,1100,1100,1100
20484,105880163,0,0,0,0,0,0,0,0,1100,1100,1100,1100,1100,1100
20529,105890631,0,0,0,0,0,0,0,0,1100,1100,1100,1100,1100,1100
20574,105900969,0,0,0,0,0,0,0,0,1100,1100,1100,1100,1100,1100
20619,105911179,0,0,0,0,0,0,0,0,1100,1100,1100,1100,1100,1100
20664,105920990,0,0,0,0,0,0,0,0,1100,1100,1100,1100,1100,1100
20711,105931469,0,0,0,0,0,0,0,0,1100,1100,1100,1100,1100,1100
20757,105941539,0,0,0,0,0,0,0,0,1100,1100,1100,1100,1100,1100
20802,105951620,0,0,0,0,0,0,0,0,1100,1100,1100,1100,1100,1100
20849,105961215,0,0,0,0,0,0,0,0,1100,1100,1100,1100,1100,1100
20896,105971043,0,0,0,0,0,0,0,0,1100,1100,1100,1100,1100,1100
20940,105981442,0,0,0,0,0,0,0,0,1100,1100,1100,1100,1100,1100
20988,105993989,0,0,0,0,0,0,0,0,1100,1100,1100,1100,1100,1100
21032,106004476,0,0,0,0,0,0,0,0,1100,1100,1100,1100,1100,1100
21077,106014708,0,0,0,0,0,0,0,0,1100,1100,1100,1100,1100,1100
21123,106025091,0,0,0,0,0,0,0,0,1100,1100,1100,1100,1100,1100
21171,106035734,0,0,0,0,0,0,0,0,1100,1100,1100,1100,1100,1100
21218,106048724,0,0,0,0,0,0,0,0,1100,1100,1100,1100,1100,1100
21257,106059463,0,0,0,0,0,0,0,0,1100,1100,1100,1100,1100,1100
21301,106071852,0,0,0,0,0,0,0,0,1100,1100,1100,1100,1100,1100
21344,106082178,0,0,0,0,0,0,0,0,1100,1100,1100,1100,1100,1100
21387,106092444,0,0,0,0,0,0,0,0,1100,1100,1100,1100,1100,1100
21430,106102191,0,0,0,0,0,0,0,0,1103,1103,1103,1103,1103,1103
21473,106112634,0,0,0,0,0,0,0,0,1106,1106,1106,1106,1106,1106
21518,106122529,0,0,0,0,0,0,0,0,1109,1109,1109,1109,1109,1109
21561,106132918,0,0,0,0,0,0,0,0,1112,1112,1112,1112,1112,1112
21607,106142945,0,0,0,0,0,0,0,0,1115,1115,1115,1115,1115,1115
21651,106152900,0,0,0,0,0,0,0,0,1118,1118,1118,1118,1118,1118
21693,106163167,0,0,0,0,0,0,0,0,1121,1121,1121,1121,1121,1121
21737,106173449,0,0,0,0,0,0,0,0,1124,1124,1124,1124,1124,1124
21782,106186838,0,0,0,0,0,0,0,0,1127,1127,1127,1127,1127,1127
21825,106197132,0,0,0,0,0,0,0,0,1130,1130,1130,1130,1130,1130
21868,106206655,0,0,0,0,0,0,0,0,1133,1133,1133,1133,1133,1133
21911,106216686,0,0,0,0,0,0,0,0,1136,1136,1136,1136,1136,1136
21954,106227216,0,0,0,0,0,0,0,0,1139,1139,1139,1139,1139,1139
22000,106237083,0,0,0,0,0,0,0,0,1142,1142,1142,1142,1142,1142
22046,106250185,0,0,0,0,0,0,0,0,1146,1146,1146,1146,1146,1146
22088,106260530,0,0,0,0,0,0,0,0,1149,1149,1149,1149,1149,1149
22133,106271209,0,0,0,0,0,0,0,0,1150,1249,1228,1176,1177,1227
22179,106281567,0,0,0,0,0,0,0,0,1173,1205,1167,1210,1150,1225
22223,106291851,0,0,0,0,0,0,0,0,1253,1150,1200,1211,1248,1156
22268,106301835,0,0,0,0,0,0,0,0,1153,1159,1154,1158,1150,1163
22313,106312198,0,0,0,0,0,0,0,0,1150,1253,1223,1187,1172,1236
22358,106322228,0,0,0,0,0,0,0,0,1209,1183,1150,1237,1163,1226
22403,106332419,0,0,0,0,0,0,0,0,1253,1150,1193,1218,1242,1164
22451,106342264,0,0,0,0,0,0,0,0,1244,1162,1217,1194,1253,1150
22496,106352249,0,0,0,0,0,0,0,0,1150,1253,1226,1184,1173,1235
22541,106362680,0,0,0,0,0,0,0,0,1150,1253,1215,1196,1161,1245
22586,106372717,0,0,0,0,0,0,0,0,1156,1249,1202,1209,1150,1253
22631,106382707,0,0,0,0,0,0,0,0,1253,1150,1184,1226,1234,1175
22672,106392578,0,0,0,0,0,0,0,0,1253,1150,1184,1226,1233,1176
22721,106405445,0,0,0,0,0,0,0,0,1245,1160,1214,1197,1253,1150
22769,106418242,0,0,0,0,0,0,0,0,1239,1193,1253,1176,1272,1150
22813,106428508,0,0,0,0,0,0,0,0,1150,1286,1239,1210,1168,1274
22865,106447535,0,0,0,0,0,0,0,0,1303,1150,1177,1285,1257,1212
22912,106457639,0,0,0,0,0,0,0,0,1247,1150,1198,1206,1243,1155
22957,106467979,0,0,0,0,0,0,0,0,1150,1280,1252,1188,1190,1251
23001,106478103,0,0,0,0,0,0,0,0,1150,1342,1295,1218,1200,1310
23050,106491741,0,0,0,0,0,0,0,0,1162,1350,1262,1275,1150,1357
23097,106504641,0,0,0,0,0,0,0,0,1150,1324,1307,1177,1228,1267
23145,106517031,0,0,0,0,0,0,0,0,1150,1386,1356,1201,1245,1324
23189,106527742,0,0,0,0,0,0,0,0,1237,1277,1178,1323,1150,1340
23234,106538110,0,0,0,0,0,0,0,0,1375,1150,1271,1288,1367,1164
23282,106548643,0,0,0,0,0,0,0,0,1290,1196,1150,1321,1205,1284
23329,106560958,0,0,0,0,0,0,0,0,1390,1150,1223,1346,1340,1231
23374,106571704,0,0,0,0,0,0,0,0,1244,1235,1288,1183,1290,1180
23419,106582478,0,0,0,0,0,0,0,0,1150,1408,1320,1281,1178,1394
23463,106592711,0,0,0,0,0,0,0,0,1243,1266,1314,1184,1304,1198
23509,106603133,0,0,0,0,0,0,0,0,1216,1345,1236,1330,1150,1385
23553,106613118,0,0,0,0,0,0,0,0,1346,1174,1234,1303,1317,1216
23599,106623108,0,0,0,0,0,0,0,0,1335,1209,1295,1258,1351,1185
23644,106632961,0,0,0,0,0,0,0,0,1150,1399,1315,1273,1181,1382
23687,106643851,0,0,0,0,0,0,0,0,1320,1262,1256,1325,1287,1296
23735,106656743,0,0,0,0,0,0,0,0,1350,1245,1317,1284,1364,1224
23780,106667505,0,0,0,0,0,0,0,0,1209,1386,1328,1285,1235,1369
23825,106677752,0,0,0,0,0,0,0,0,1383,1231,1221,1390,1306,1323
23870,106688101,0,0,0,0,0,0,0,0,1326,1317,1403,1219,1406,1215
23914,106698716,0,0,0,0,0,0,0,0,1185,1434,1402,1238,1284,1367
23959,106709002,0,0,0,0,0,0,0,0,1332,1337,1236,1414,1231,1418
24005,106719185,0,0,0,0,0,0,0,0,1423,1239,1350,1332,1430,1230
24050,106729504,0,0,0,0,0,0,0,0,1260,1421,1438,1234,1365,1330
24094,106739730,0,0,0,0,0,0,0,0,1381,1326,1159,1488,1201,1468
24139,106750520,0,0,0,0,0,0,0,0,1400,1318,1295,1418,1339,1382
24187,106760828,0,0,0,0,0,0,0,0,1318,1412,1500,1176,1461,1249
24231,106771489,0,0,0,0,0,0,0,0,1410,1335,1381,1367,1415,1329
24275,106781999,0,0,0,0,0,0,0,0,1419,1338,1219,1499,1273,1467
24321,106792271,0,0,0,0,0,0,0,0,1262,1485,1372,1401,1240,1498
24366,106802754,0,0,0,0,0,0,0,0,1311,1463,1462,1312,1390,1395
24410,106812942,0,0,0,0,0,0,0,0,1557,1158,1405,1393,1560,1150
24457,106823788,0,0,0,0,0,0,0,0,1522,1252,1334,1468,1463,1339
24501,106834266,0,0,0,0,0,0,0,0,1321,1488,1389,1432,1291,1508
24546,106844966,0,0,0,0,0,0,0,0,1150,1663,1530,1398,1267,1614
24593,106860954,0,0,0,0,0,0,0,0,1529,1298,1342,1499,1458,1392
24642,106871491,0,0,0,0,0,0,0,0,1150,1636,1522,1366,1280,1577
24687,106881437,0,0,0,0,0,0,0,0,1150,1629,1557,1303,1339,1533
24732,106891806,0,0,0,0,0,0,0,0,1479,1406,1428,1459,1460,1427
24783,106907540,0,0,0,0,0,0,0,0,1455,1450,1499,1401,1499,1402
24831,106920441,0,0,0,0,0,0,0,0,1362,1542,1506,1409,1415,1501
24875,106931177,0,0,0,0,0,0,0,0,1545,1371,1425,1502,1509,1418
24921,106942020,0,0,0,0,0,0,0,0,1535,1398,1429,1510,1496,1444
24967,106952242,0,0,0,0,0,0,0,0,1456,1497,1474,1479,1451,1501
25013,106963129,0,0,0,0,0,0,0,0,1347,1591,1553,1401,1435,1526
25062,106973991,0,0,0,0,0,0,0,0,1359,1593,1534,1437,1415,1552
25106,106984710,0,0,0,0,0,0,0,0,1422,1557,1490,1497,1414,1563
25151,106995645,0,0,0,0,0,0,0,0,1491,1507,1473,1524,1460,1535
25195,107006151,0,0,0,0,0,0,0,0,1486,1522,1502,1507,1478,1530
25240,107016742,0,0,0,0,0,0,0,0,1565,1450,1458,1558,1512,1508
25285,107027027,0,0,0,0,0,0,0,0,1552,1477,1474,1554,1506,1525
25335,107039735,0,0,0,0,0,0,0,0,1511,1534,1556,1487,1536,1508
25378,107053351,0,0,0,0,0,0,0,0,1475,1579,1547,1510,1485,1570
25422,107063457,0,0,0,0,0,0,0,0,1503,1563,1552,1516,1511,1556
25474,107076247,0,0,0,0,0,0,0,0,1579,1500,1540,1541,1567,1512
25519,107087002,0,0,0,0,0,0,0,0,1573,1516,1556,1535,1571,1519
25564,107097508,0,0,0,0,0,0,0,0,1572,1529,1583,1517,1590,1509
25608,107107773,0,0,0,0,0,0,0,0,1563,1549,1588,1522,1581,1530
25660,107123292,0,0,0,0,0,0,0,0,1567,1559,1578,1548,1566,1560
25704,107134071,0,0,0,0,0,0,0,0,1603,1529,1571,1564,1589,1545
25749,107144940,0,0,0,0,0,0,0,0,1595,1546,1571,1570,1577,1565
25796,107155119,0,0,0,0,0,0,0,0,1567,1577,1590,1554,1564,1580
25843,107165504,0,0,0,0,0,0,0,0,1562,1584,1597,1548,1564,1581
25887,107175667,0,0,0,0,0,0,0,0,1594,1553,1577,1570,1573,1574
25935,107185839,0,0,0,0,0,0,0,0,1620,1524,1561,1587,1582,1566
25980,107196191,0,0,0,0,0,0,0,0,1613,1533,1579,1569,1591,1557
26024,107206705,0,0,0,0,0,0,0,0,1559,1589,1622,1522,1577,1570
26069,107219642,0,0,0,0,0,0,0,0,1598,1548,1576,1570,1567,1580
26113,107230649,0,0,0,0,0,0,0,0,1584,1560,1598,1545,1572,1573
26159,107240943,0,0,0,0,0,0,0,0,1588,1555,1620,1520,1596,1546
26207,107254456,0,0,0,0,0,0,0,0,1582,1560,1595,1545,1561,1581
26250,107267668,0,0,0,0,0,0,0,0,1612,1525,1551,1588,1543,1596
26292,107278457,0,0,0,0,0,0,0,0,1602,1533,1553,1583,1532,1603
26339,107288834,0,0,0,0,0,0,0,0,1577,1557,1607,1525,1559,1576
26382,107299434,0,0,0,0,0,0,0,0,1612,1517,1595,1536,1579,1553
26425,107309808,0,0,0,0,0,0,0,0,1607,1519,1545,1583,1519,1608
26468,107319956,0,0,0,0,0,0,0,0,1567,1559,1594,1531,1522,1601
26507,107330957,0,0,0,0,0,0,0,0,1575,1548,1611,1508,1547,1576
26550,107341296,0,0,0,0,0,0,0,0,1605,1511,1599,1518,1563,1557
26592,107351733,0,0,0,0,0,0,0,0,1613,1496,1565,1549,1534,1580
26635,107362413,0,0,0,0,0,0,0,0,1582,1525,1606,1498,1541,1567
26679,107372532,0,0,0,0,0,0,0,0,1588,1514,1611,1487,1550,1553
26722,107383008,0,0,0,0,0,0,0,0,1615,1476,1586,1511,1550,1549
26769,107393464,0,0,0,0,0,0,0,0,1590,1502,1590,1502,1523,1571
26811,107404470,0,0,0,0,0,0,0,0,1589,1498,1598,1488,1528,1562
26854,107414789,0,0,0,0,0,0,0,0,1607,1473,1587,1496,1534,1553
26897,107425117,0,0,0,0,0,0,0,0,1591,1487,1583,1496,1509,1572
26940,107435645,0,0,0,0,0,0,0,0,1562,1515,1605,1466,1497,1579
26984,107445744,0,0,0,0,0,0,0,0,1590,1479,1625,1435,1545,1528
27027,107456043,0,0,0,0,0,0,0,0,1602,1461,1584,1483,1510,1560
27070,107470097,0,0,0,0,0,0,0,0,1567,1499,1599,1460,1484,1580
27115,107480871,0,0,0,0,0,0,0,0,1596,1463,1582,1480,1492,1572
27160,107491479,0,0,0,0,0,0,0,0,1582,1478,1609,1444,1502,1561
27209,107501615,0,0,0,0,0,0,0,0,1589,1469,1612,1440,1508,1554
27254,107511670,0,0,0,0,0,0,0,0,1654,1382,1564,1499,1526,1539
27299,107522094,0,0,0,0,0,0,0,0,1645,1398,1592,1468,1540,1526
27346,107535006,0,0,0,0,0,0,0,0,1629,1421,1590,1471,1513,1553
27391,107546015,0,0,0,0,0,0,0,0,1650,1394,1564,1504,1504,1564
27435,107556067,0,0,0,0,0,0,0,0,1646,1403,1590,1477,1522,1549
27480,107566256,0,0,0,0,0,0,0,0,1611,1454,1596,1472,1482,1588
27525,107576634,0,0,0,0,0,0,0,0,1618,1446,1598,1471,1489,1583
27570,107587366,0,0,0,0,0,0,0,0,1639,1419,1587,1486,1495,1579
27620,107598053,0,0,0,0,0,0,0,0,1646,1412,1617,1451,1534,1544
27664,107608268,0,0,0,0,0,0,0,0,1645,1415,1613,1458,1526,1554
27709,107618975,0,0,0,0,0,0,0,0,1672,1376,1569,1511,1505,1575
27755,107629242,0,0,0,0,0,0,0,0,1634,1433,1651,1408,1548,1534
27799,107639634,0,0,0,0,0,0,0,0,1664,1386,1644,1417,1573,1506
27846,107656642,0,0,0,0,0,0,0,0,1612,1459,1626,1439,1488,1587
27890,107666980,0,0,0,0,0,0,0,0,1645,1413,1587,1488,1479,1594
27935,107677128,0,0,0,0,0,0,0,0,1582,1491,1620,1445,1439,1624
27980,107686994,0,0,0,0,0,0,0,0,1606,1461,1625,1436,1475,1595
28024,107697956,0,0,0,0,0,0,0,0,1669,1369,1592,1477,1512,1561
28073,107708512,0,0,0,0,0,0,0,0,1611,1451,1628,1428,1482,1586
28119,107718846,0,0,0,0,0,0,0,0,1613,1449,1643,1407,1500,1570
28163,107729227,0,0,0,0,0,0,0,0,1645,1402,1619,1438,1510,1559
28208,107739425,0,0,0,0,0,0,0,0,1630,1423,1629,1423,1502,1566
28252,107750774,0,0,0,0,0,0,0,0,1635,1414,1650,1391,1531,1537
28297,107761026,0,0,0,0,0,0,0,0,1651,1389,1614,1442,1507,1559
28341,107771315,0,0,0,0,0,0,0,0,1646,1397,1632,1418,1521,1546
28386,107781675,0,0,0,0,0,0,0,0,1634,1415,1632,1417,1503,1563
28431,107792243,0,0,0,0,0,0,0,0,1648,1394,1605,1454,1484,1580
28476,107802674,0,0,0,0,0,0,0,0,1610,1446,1623,1429,1454,1604
28525,107813672,0,0,0,0,0,0,0,0,1664,1369,1635,1413,1532,1535
28570,107824501,0,0,0,0,0,0,0,0,1700,1306,1620,1434,1554,1513
28621,107837726,0,0,0,0,0,0,0,0,1689,1328,1633,1416,1551,1516
28659,107849784,0,0,0,0,0,0,0,0,1637,1411,1633,1417,1484,1580
28704,107860032,0,0,0,0,0,0,0,0,1677,1350,1623,1432,1518,1551
28749,107870737,0,0,0,0,0,0,0,0,1653,1391,1638,1413,1501,1568
28794,107881413,0,0,0,0,0,0,0,0,1617,1443,1666,1371,1490,1578
28839,107892052,0,0,0,0,0,0,0,0,1654,1390,1646,1402,1509,1561
28884,107902445,0,0,0,0,0,0,0,0,1657,1386,1653,1392,1519,1553
28928,107912763,0,0,0,0,0,0,0,0,1681,1348,1659,1384,1551,1520
28977,107923204,0,0,0,0,0,0,0,0,1706,1303,1613,1450,1527,1545
29022,107933666,0,0,0,0,0,0,0,0,1615,1448,1660,1383,1466,1600
29069,107944523,0,0,0,0,0,0,0,0,1636,1419,1630,1427,1449,1614
29117,107957754,0,0,0,0,0,0,0,0,1626,1434,1634,1423,1433,1627
29162,107968682,0,0,0,0,0,0,0,0,1648,1404,1664,1379,1495,1577
29207,107979292,0,0,0,0,0,0,0,0,1672,1367,1680,1353,1539,1536
29251,107989666,0,0,0,0,0,0,0,0,1716,1287,1626,1435,1525,1550
29296,107999750,0,0,0,0,0,0,0,0,1707,1304,1623,1439,1504,1570
29340,108009689,0,0,0,0,0,0,0,0,1625,1437,1695,1328,1484,1587
29388,108020475,0,0,0,0,0,0,0,0,1628,1435,1678,1358,1459,1609
29433,108030686,0,0,0,0,0,0,0,0,1679,1359,1621,1445,1447,1619
29478,108041435,0,0,0,0,0,0,0,0,1629,1434,1661,1387,1429,1633
29525,108051620,0,0,0,0,0,0,0,0,1655,1397,1655,1396,1454,1613
29563,108063103,0,0,0,0,0,0,0,0,1605,1466,1675,1366,1413,1644
29609,108073721,0,0,0,0,0,0,0,0,1650,1406,1605,1466,1377,1669
29653,108083696,0,0,0,0,0,0,0,0,1607,1465,1660,1392,1398,1656
29698,108094217,0,0,0,0,0,0,0,0,1650,1407,1645,1415,1439,1628
29742,108105035,0,0,0,0,0,0,0,0,1684,1354,1613,1459,1447,1622
29787,108115308,0,0,0,0,0,0,0,0,1628,1439,1656,1399,1431,1633
29839,108128257,0,0,0,0,0,0,0,0,1649,1410,1627,1440,1425,1638
29884,108138464,0,0,0,0,0,0,0,0,1654,1402,1610,1462,1415,1644
29928,108149021,0,0,0,0,0,0,0,0,1661,1391,1652,1404,1488,1588
29974,108159660,0,0,0,0,0,0,0,0,1662,1388,1630,1434,1468,1603
30018,108170337,0,0,0,0,0,0,0,0,1635,1426,1637,1423,1452,1615
30063,108180685,0,0,0,0,0,0,0,0,1663,1384,1642,1415,1504,1571
30108,108191224,0,0,0,0,0,0,0,0,1651,1402,1634,1426,1489,1584
30153,108202010,0,0,0,0,0,0,0,0,1645,1410,1641,1416,1501,1574
30200,108212809,0,0,0,0,0,0,0,0,1666,1379,1638,1420,1531,1546
30245,108223692,0,0,0,0,0,0,0,0,1627,1435,1665,1380,1525,1551
30293,108234664,0,0,0,0,0,0,0,0,1661,1385,1608,1460,1506,1569
30340,108247987,0,0,0,0,0,0,0,0,1600,1470,1607,1461,1435,1627
30382,108259385,0,0,0,0,0,0,0,0,1601,1467,1601,1468,1436,1626
30429,108269988,0,0,0,0,0,0,0,0,1573,1501,1630,1430,1442,1621
30473,108280665,0,0,0,0,0,0,0,0,1614,1451,1589,1482,1448,1616
30518,108291707,0,0,0,0,0,0,0,0,1595,1475,1599,1470,1439,1622
30563,108302640,0,0,0,0,0,0,0,0,1612,1452,1593,1475,1461,1605
30607,108313114,0,0,0,0,0,0,0,0,1647,1403,1581,1489,1495,1576
30652,108323450,0,0,0,0,0,0,0,0,1570,1501,1638,1417,1473,1594
30697,108334604,0,0,0,0,0,0,0,0,1587,1481,1604,1460,1456,1608
30746,108345465,0,0,0,0,0,0,0,0,1615,1447,1563,1508,1444,1617
30790,108355743,0,0,0,0,0,0,0,0,1575,1495,1609,1454,1453,1609
30834,108366101,0,0,0,0,0,0,0,0,1616,1444,1565,1505,1455,1608
30878,108376742,0,0,0,0,0,0,0,0,1597,1468,1571,1499,1439,1620
30926,108390060,0,0,0,0,0,0,0,0,1630,1424,1607,1456,1526,1545
30970,108400715,0,0,0,0,0,0,0,0,1616,1442,1606,1455,1512,1557
31015,108410978,0,0,0,0,0,0,0,0,1613,1443,1603,1456,1508,1559
31060,108420756,0,0,0,0,0,0,0,0,1601,1457,1612,1444,1508,1558
31105,108431613,0,0,0,0,0,0,0,0,1637,1408,1585,1476,1521,1544
31151,108441703,0,0,0,0,0,0,0,0,1613,1441,1618,1433,1533,1532
31202,108452882,0,0,0,0,0,0,0,0,1611,1442,1612,1441,1526,1538
31243,108464051,0,0,0,0,0,0,0,0,1643,1396,1581,1478,1532,1531
31285,108475502,0,0,0,0,0,0,0,0,1623,1423,1604,1449,1535,1527
31330,108485850,0,0,0,0,0,0,0,0,1598,1458,1593,1464,1495,1566
31375,108496612,0,0,0,0,0,0,0,0,1591,1467,1575,1486,1466,1592
31419,108507747,0,0,0,0,0,0,0,0,1595,1463,1591,1468,1493,1570
31465,108518525,0,0,0,0,0,0,0,0,1634,1412,1558,1507,1502,1563
31509,108529049,0,0,0,0,0,0,0,0,1605,1453,1571,1493,1482,1581
31554,108539235,0,0,0,0,0,0,0,0,1616,1441,1583,1482,1509,1559
31598,108549221,0,0,0,0,0,0,0,0,1615,1445,1574,1495,1496,1573
31647,108559273,0,0,0,0,0,0,0,0,1580,1490,1576,1495,1457,1607
31692,108569698,0,0,0,0,0,0,0,0,1623,1440,1572,1502,1504,1570
31739,108582252,0,0,0,0,0,0,0,0,1642,1415,1591,1481,1549,1529
31788,108595990,0,0,0,0,0,0,0,0,1621,1446,1625,1442,1561,1517
31832,108606466,0,0,0,0,0,0,0,0,1603,1471,1621,1448,1538,1543
31877,108616645,0,0,0,0,0,0,0,0,1637,1428,1558,1523,1508,1572
31922,108627080,0,0,0,0,0,0,0,0,1616,1457,1581,1498,1510,1571
31967,108637093,0,0,0,0,0,0,0,0,1592,1486,1613,1459,1520,1562
32014,108647483,0,0,0,0,0,0,0,0,1599,1478,1587,1492,1499,1580
32054,108659102,0,0,0,0,0,0,0,0,1597,1480,1569,1512,1477,1599
32096,108669652,0,0,0,0,0,0,0,0,1623,1448,1572,1508,1515,1567
32139,108680075,0,0,0,0,0,0,0,0,1640,1425,1577,1503,1540,1542
32183,108690846,0,0,0,0,0,0,0,0,1594,1483,1570,1509,1482,1594
32226,108701677,0,0,0,0,0,0,0,0,1583,1493,1590,1485,1494,1582
32268,108712434,0,0,0,0,0,0,0,0,1625,1439,1592,1481,1548,1530
32310,108722187,0,0,0,0,0,0,0,0,1639,1417,1571,1504,1544,1532
32352,108732947,0,0,0,0,0,0,0,0,1603,1463,1561,1512,1494,1577
32395,108743081,0,0,0,0,0,0,0,0,1575,1495,1603,1461,1512,1560
32439,108753087,0,0,0,0,0,0,0,0,1631,1422,1582,1484,1554,1515
32485,108763943,0,0,0,0,0,0,0,0,1625,1429,1547,1522,1512,1556
32528,108774811,0,0,0,0,0,0,0,0,1574,1491,1549,1519,1456,1603
32570,108785621,0,0,0,0,0,0,0,0,1565,1499,1572,1492,1475,1587
32613,108795959,0,0,0,0,0,0,0,0,1624,1428,1565,1500,1536,1530
32656,108806023,0,0,0,0,0,0,0,0,1629,1420,1550,1516,1528,1538
32699,108816179,0,0,0,0,0,0,0,0,1578,1485,1565,1499,1487,1576
32742,108826199,0,0,0,0,0,0,0,0,1558,1506,1600,1457,1506,1558
32784,108836640,0,0,0,0,0,0,0,0,1613,1439,1597,1459,1564,1498
32827,108847254,0,0,0,0,0,0,0,0,1633,1412,1540,1524,1528,1537
32871,108857587,0,0,0,0,0,0,0,0,1607,1447,1541,1523,1500,1563
32913,108869539,0,0,0,0,0,0,0,0,1564,1498,1577,1483,1491,1570
32959,108879732,0,0,0,0,0,0,0,0,1592,1465,1545,1518,1489,1572
33003,108889736,0,0,0,0,0,0,0,0,1616,1434,1537,1525,1509,1553
33048,108900089,0,0,0,0,0,0,0,0,1594,1462,1555,1506,1504,1558
33099,108916098,0,0,0,0,0,0,0,0,1648,1388,1554,1507,1565,1495
33143,108926749,0,0,0,0,0,0,0,0,1605,1446,1587,1469,1552,1508
33190,108937250,0,0,0,0,0,0,0,0,1576,1481,1583,1473,1518,1543
33234,108947559,0,0,0,0,0,0,0,0,1601,1450,1554,1505,1516,1544
33279,108958105,0,0,0,0,0,0,0,0,1619,1426,1552,1507,1534,1525
33324,108968443,0,0,0,0,0,0,0,0,1610,1438,1569,1488,1542,1517
33374,108979027,0,0,0,0,0,0,0,0,1568,1488,1588,1464,1517,1541
33418,108989610,0,0,0,0,0,0,0,0,1589,1462,1576,1477,1528,1529
33463,109000003,0,0,0,0,0,0,0,0,1593,1454,1584,1465,1542,1512
33507,109010802,0,0,0,0,0,0,0,0,1636,1394,1575,1475,1580,1468
33552,109022247,0,0,0,0,0,0,0,0,1603,1439,1556,1495,1526,1526
33597,109032992,0,0,0,0,0,0,0,0,1579,1467,1516,1535,1457,1588
33644,109044048,0,0,0,0,0,0,0,0,1521,1530,1567,1482,1446,1596
33685,109058704,0,0,0,0,0,0,0,0,1615,1422,1541,1510,1525,1526
33730,109068866,0,0,0,0,0,0,0,0,1569,1480,1580,1468,1516,1537
33774,109079452,0,0,0,0,0,0,0,0,1598,1446,1593,1452,1560,1491
33823,109089969,0,0,0,0,0,0,0,0,1630,1404,1561,1490,1561,1490
33867,109100120,0,0,0,0,0,0,0,0,1611,1430,1533,1521,1512,1543
33913,109110651,0,0,0,0,0,0,0,0,1561,1492,1542,1514,1462,1588
33957,109120690,0,0,0,0,0,0,0,0,1532,1525,1589,1461,1483,1571
34002,109130948,0,0,0,0,0,0,0,0,1607,1439,1579,1475,1552,1505
34046,109141434,0,0,0,0,0,0,0,0,1624,1419,1542,1517,1531,1528
34091,109152223,0,0,0,0,0,0,0,0,1610,1439,1543,1516,1516,1544
34136,109162050,0,0,0,0,0,0,0,0,1573,1484,1596,1457,1531,1529
34180,109172928,0,0,0,0,0,0,0,0,1625,1418,1613,1434,1603,1447
34225,109183670,0,0,0,0,0,0,0,0,1658,1370,1564,1494,1589,1465
34275,109194151,0,0,0,0,0,0,0,0,1624,1421,1541,1520,1527,1534
34320,109204745,0,0,0,0,0,0,0,0,1565,1494,1585,1471,1506,1553
34365,109215538,0,0,0,0,0,0,0,0,1556,1504,1606,1444,1521,1540
34409,109226111,0,0,0,0,0,0,0,0,1616,1432,1573,1486,1548,1512
34454,109236787,0,0,0,0,0,0,0,0,1619,1428,1549,1512,1526,1535
34499,109247744,0,0,0,0,0,0,0,0,1613,1437,1578,1480,1546,1516
34545,109261081,0,0,0,0,0,0,0,0,1647,1391,1547,1517,1551,1512
34589,109272436,0,0,0,0,0,0,0,0,1587,1473,1600,1458,1536,1529
34635,109282922,0,0,0,0,0,0,0,0,1547,1520,1611,1446,1504,1562
34684,109293656,0,0,0,0,0,0,0,0,1591,1473,1549,1520,1479,1586
34729,109303760,0,0,0,0,0,0,0,0,1554,1516,1602,1461,1495,1573
34774,109314851,0,0,0,0,0,0,0,0,1630,1426,1589,1478,1561,1510
34819,109326019,0,0,0,0,0,0,0,0,1664,1376,1562,1510,1571,1500
34863,109337713,0,0,0,0,0,0,0,0,1617,1445,1609,1455,1564,1508
34908,109348637,0,0,0,0,0,0,0,0,1594,1473,1619,1443,1548,1525
34956,109361499,0,0,0,0,0,0,0,0,1598,1469,1562,1511,1486,1584
35001,109372207,0,0,0,0,0,0,0,0,1551,1523,1621,1441,1499,1574
35046,109382666,0,0,0,0,0,0,0,0,1588,1483,1594,1475,1506,1567
35090,109392916,0,0,0,0,0,0,0,0,1624,1438,1557,1518,1504,1570
35139,109403432,0,0,0,0,0,0,0,0,1618,1446,1572,1501,1512,1562
35183,109414071,0,0,0,0,0,0,0,0,1634,1426,1610,1457,1568,1507
35228,109425060,0,0,0,0,0,0,0,0,1618,1447,1568,1508,1504,1571
35276,109435505,0,0,0,0,0,0,0,0,1611,1456,1591,1482,1518,1558
35320,109446218,0,0,0,0,0,0,0,0,1621,1444,1637,1423,1577,1497
35364,109458117,0,0,0,0,0,0,0,0,1642,1415,1567,1508,1525,1551
35410,109469525,0,0,0,0,0,0,0,0,1613,1454,1595,1476,1520,1555
35454,109479791,0,0,0,0,0,0,0,0,1636,1422,1584,1488,1533,1543
35499,109490656,0,0,0,0,0,0,0,0,1634,1422,1559,1514,1503,1569
35543,109501216,0,0,0,0,0,0,0,0,1574,1496,1600,1466,1477,1590
35592,109511794,0,0,0,0,0,0,0,0,1587,1479,1611,1450,1506,1564
35636,109522483,0,0,0,0,0,0,0,0,1627,1427,1564,1504,1498,1569
35682,109533619,0,0,0,0,0,0,0,0,1601,1460,1566,1501,1468,1595
35727,109544690,0,0,0,0,0,0,0,0,1590,1472,1612,1445,1507,1560
35771,109555801,0,0,0,0,0,0,0,0,1630,1419,1565,1499,1501,1563
35815,109566673,0,0,0,0,0,0,0,0,1588,1472,1588,1472,1476,1585
35861,109577476,0,0,0,0,0,0,0,0,1598,1458,1585,1474,1485,1575
35905,109587702,0,0,0,0,0,0,0,0,1638,1403,1554,1507,1497,1564
35950,109597658,0,0,0,0,0,0,0,0,1614,1434,1549,1511,1461,1592
35994,109608168,0,0,0,0,0,0,0,0,1591,1460,1566,1489,1453,1597
36043,109618971,0,0,0,0,0,0,0,0,1580,1471,1599,1448,1479,1573
36087,109629615,0,0,0,0,0,0,0,0,1643,1384,1569,1482,1520,1534
36133,109640205,0,0,0,0,0,0,0,0,1663,1351,1568,1482,1541,1511
36179,109650630,0,0,0,0,0,0,0,0,1618,1419,1599,1443,1521,1531
36218,109662642,0,0,0,0,0,0,0,0,1638,1390,1550,1502,1491,1560
36263,109673099,0,0,0,0,0,0,0,0,1614,1424,1557,1494,1467,1581
36309,109683470,0,0,0,0,0,0,0,0,1559,1491,1599,1444,1449,1595
36354,109694970,0,0,0,0,0,0,0,0,1594,1451,1564,1486,1446,1597
36399,109705674,0,0,0,0,0,0,0,0,1640,1387,1517,1535,1452,1593
36443,109715803,0,0,0,0,0,0,0,0,1602,1439,1572,1476,1465,1581
36492,109726451,0,0,0,0,0,0,0,0,1594,1450,1594,1449,1480,1568
36537,109736662,0,0,0,0,0,0,0,0,1644,1377,1545,1504,1486,1561
36582,109746899,0,0,0,0,0,0,0,0,1615,1416,1558,1487,1465,1577
36628,109757047,0,0,0,0,0,0,0,0,1628,1396,1556,1488,1478,1564
36672,109767480,0,0,0,0,0,0,0,0,1606,1423,1602,1429,1506,1536
36716,109779615,0,0,0,0,0,0,0,0,1629,1389,1572,1465,1500,1541
36761,109790219,0,0,0,0,0,0,0,0,1625,1393,1531,1508,1448,1584
36805,109800512,0,0,0,0,0,0,0,0,1609,1414,1594,1433,1500,1537
36850,109810980,0,0,0,0,0,0,0,0,1613,1407,1610,1411,1523,1513
36894,109821697,0,0,0,0,0,0,0,0,1681,1293,1540,1495,1529,1506
36943,109832497,0,0,0,0,0,0,0,0,1662,1327,1535,1499,1500,1534
36988,109843296,0,0,0,0,0,0,0,0,1610,1407,1588,1437,1496,1537
37032,109853666,0,0,0,0,0,0,0,0,1627,1381,1552,1479,1474,1556
37081,109863869,0,0,0,0,0,0,0,0,1612,1403,1541,1491,1442,1583
37122,109875707,0,0,0,0,0,0,0,0,1578,1446,1579,1445,1446,1579
37162,109888097,0,0,0,0,0,0,0,0,1638,1364,1546,1484,1480,1550
37205,109899871,0,0,0,0,0,0,0,0,1612,1402,1583,1441,1489,1542
37250,109909999,0,0,0,0,0,0,0,0,1610,1406,1603,1417,1508,1525
37294,109920542,0,0,0,0,0,0,0,0,1611,1408,1586,1441,1488,1546
37341,109930866,0,0,0,0,0,0,0,0,1605,1420,1593,1435,1487,1550
37389,109941282,0,0,0,0,0,0,0,0,1598,1432,1585,1448,1466,1570
37434,109951714,0,0,0,0,0,0,0,0,1600,1433,1614,1413,1500,1542
37478,109962285,0,0,0,0,0,0,0,0,1625,1402,1595,1442,1505,1540
37523,109973314,0,0,0,0,0,0,0,0,1625,1404,1565,1481,1468,1576
37564,109988128,0,0,0,0,0,0,0,0,1664,1349,1573,1476,1523,1530
37609,109999175,0,0,0,0,0,0,0,0,1658,1362,1590,1458,1532,1523
37656,110009626,0,0,0,0,0,0,0,0,1609,1437,1620,1423,1505,1552
37700,110019497,0,0,0,0,0,0,0,0,1599,1453,1619,1427,1491,1568
37744,110029686,0,0,0,0,0,0,0,0,1654,1378,1564,1496,1494,1567
37788,110039944,0,0,0,0,0,0,0,0,1630,1416,1613,1439,1518,1546
37837,110050041,0,0,0,0,0,0,0,0,1623,1427,1627,1421,1525,1540
37883,110066957,0,0,0,0,0,0,0,0,1646,1396,1601,1458,1522,1544
37927,110077220,0,0,0,0,0,0,0,0,1656,1381,1564,1501,1493,1572
37974,110088087,0,0,0,0,0,0,0,0,1620,1433,1575,1489,1459,1600
38019,110099038,0,0,0,0,0,0,0,0,1570,1494,1627,1424,1462,1598
38060,110114067,0,0,0,0,0,0,0,0,1640,1403,1638,1406,1556,1508
38104,110124230,0,0,0,0,0,0,0,0,1649,1387,1610,1442,1537,1526
38149,110135015,0,0,0,0,0,0,0,0,1670,1352,1587,1468,1537,1524
38194,110145542,0,0,0,0,0,0,0,0,1631,1408,1609,1438,1517,1542
38243,110155831,0,0,0,0,0,0,0,0,1614,1430,1634,1403,1526,1531
38287,110166527,0,0,0,0,0,0,0,0,1651,1375,1576,1476,1503,1551
38332,110176759,0,0,0,0,0,0,0,0,1626,1410,1594,1451,1494,1558
38377,110187038,0,0,0,0,0,0,0,0,1621,1415,1623,1413,1522,1531
38418,110198175,0,0,0,0,0,0,0,0,1651,1367,1565,1482,1495,1554
38459,110209517,0,0,0,0,0,0,0,0,1640,1382,1591,1449,1511,1537
38505,110220049,0,0,0,0,0,0,0,0,1650,1364,1578,1463,1509,1537
38549,110230202,0,0,0,0,0,0,0,0,1636,1384,1549,1495,1458,1581
38594,110240215,0,0,0,0,0,0,0,0,1595,1440,1567,1473,1427,1604
38640,110250595,0,0,0,0,0,0,0,0,1570,1470,1603,1429,1441,1594
38689,110265625,0,0,0,0,0,0,0,0,1622,1404,1598,1436,1498,1546
38734,110276049,0,0,0,0,0,0,0,0,1609,1421,1611,1418,1497,1546
38779,110286370,0,0,0,0,0,0,0,0,1635,1384,1584,1453,1497,1545
38825,110296510,0,0,0,0,0,0,0,0,1648,1364,1589,1447,1517,1526
38869,110310501,0,0,0,0,0,0,0,0,1620,1405,1572,1466,1463,1574
38918,110320872,0,0,0,0,0,0,0,0,1635,1381,1529,1513,1434,1598
38962,110331363,0,0,0,0,0,0,0,0,1581,1454,1591,1441,1438,1594
39009,110341571,0,0,0,0,0,0,0,0,1608,1419,1580,1455,1459,1577
39051,110352958,0,0,0,0,0,0,0,0,1655,1348,1545,1495,1477,1561
39095,110363115,0,0,0,0,0,0,0,0,1643,1367,1559,1479,1476,1561
39144,110373428,0,0,0,0,0,0,0,0,1624,1396,1593,1438,1490,1549
39188,110384217,0,0,0,0,0,0,0,0,1657,1347,1593,1440,1529,1513
39233,110395172,0,0,0,0,0,0,0,0,1646,1365,1549,1493,1466,1573
39278,110405540,0,0,0,0,0,0,0,0,1573,1466,1584,1453,1410,1616
39322,110419653,0,0,0,0,0,0,0,0,1665,1338,1571,1471,1509,1536
39370,110433757,0,0,0,0,0,0,0,0,1643,1376,1573,1470,1482,1562
39416,110446876,0,0,0,0,0,0,0,0,1602,1434,1610,1423,1475,1568
39458,110458675,0,0,0,0,0,0,0,0,1658,1351,1563,1481,1489,1556
39503,110468997,0,0,0,0,0,0,0,0,1658,1353,1569,1475,1494,1553
39552,110479748,0,0,0,0,0,0,0,0,1628,1399,1603,1433,1495,1551
39597,110490531,0,0,0,0,0,0,0,0,1653,1361,1606,1430,1527,1521
39642,110501004,0,0,0,0,0,0,0,0,1656,1355,1556,1490,1474,1570
39687,110511866,0,0,0,0,0,0,0,0,1575,1468,1614,1418,1442,1596
39732,110525715,0,0,0,0,0,0,0,0,1645,1374,1597,1441,1506,1542
39776,110536247,0,0,0,0,0,0,0,0,1615,1419,1597,1443,1467,1578
39818,110547053,0,0,0,0,0,0,0,0,1634,1393,1603,1436,1496,1553
39863,110558066,0,0,0,0,0,0,0,0,1659,1354,1594,1447,1516,1534
39907,110568682,0,0,0,0,0,0,0,0,1635,1391,1588,1455,1478,1568
39952,110579519,0,0,0,0,0,0,0,0,1625,1407,1601,1439,1480,1567
40001,110590003,0,0,0,0,0,0,0,0,1620,1415,1569,1480,1432,1607
40045,110600536,0,0,0,0,0,0,0,0,1573,1476,1617,1422,1431,1610
40090,110610784,0,0,0,0,0,0,0,0,1615,1424,1604,1440,1468,1581
40134,110620534,0,0,0,0,0,0,0,0,1649,1377,1559,1495,1455,1592
40176,110631794,0,0,0,0,0,0,0,0,1598,1451,1598,1450,1435,1610
40220,110641679,0,0,0,0,0,0,0,0,1632,1410,1610,1440,1490,1569
40263,110653152,0,0,0,0,0,0,0,0,1652,1383,1593,1464,1494,1568
40305,110664851,0,0,0,0,0,0,0,0,1606,1449,1622,1429,1470,1589
40345,110676189,0,0,0,0,0,0,0,0,1668,1361,1588,1473,1506,1559
40388,110686254,0,0,0,0,0,0,0,0,1677,1347,1572,1492,1500,1565
40435,110696728,0,0,0,0,0,0,0,0,1609,1448,1610,1446,1457,1601
40477,110707262,0,0,0,0,0,0,0,0,1623,1428,1594,1466,1457,1601
40520,110717743,0,0,0,0,0,0,0,0,1654,1384,1571,1493,1470,1591
40562,110727689,0,0,0,0,0,0,0,0,1630,1418,1565,1499,1432,1619
40602,110738703,0,0,0,0,0,0,0,0,1626,1422,1623,1426,1500,1563
40646,110749629,0,0,0,0,0,0,0,0,1662,1367,1585,1472,1501,1560
40685,110760962,0,0,0,0,0,0,0,0,1632,1410,1598,1455,1481,1577
40728,110771678,0,0,0,0,0,0,0,0,1608,1441,1631,1409,1494,1564
40770,110782118,0,0,0,0,0,0,0,0,1646,1385,1571,1484,1471,1582
40814,110792531,0,0,0,0,0,0,0,0,1624,1417,1610,1434,1490,1565
40861,110802715,0,0,0,0,0,0,0,0,1610,1434,1621,1418,1488,1566
40903,110812972,0,0,0,0,0,0,0,0,1651,1374,1574,1478,1483,1569
40947,110823098,0,0,0,0,0,0,0,0,1634,1399,1597,1449,1490,1562
40989,110833162,0,0,0,0,0,0,0,0,1611,1430,1616,1424,1484,1567
41032,110843281,0,0,0,0,0,0,0,0,1633,1400,1587,1461,1477,1574
41074,110854504,0,0,0,0,0,0,0,0,1647,1378,1562,1490,1465,1583
41111,110867182,0,0,0,0,0,0,0,0,1649,1374,1630,1403,1546,1506
41153,110879188,0,0,0,0,0,0,0,0,1650,1372,1590,1456,1502,1550
41200,110889832,0,0,0,0,0,0,0,0,1601,1445,1655,1367,1520,1535
41244,110900485,0,0,0,0,0,0,0,0,1637,1398,1601,1448,1496,1560
41293,110910658,0,0,0,0,0,0,0,0,1628,1417,1608,1443,1490,1569
41337,110920863,0,0,0,0,0,0,0,0,1629,1418,1636,1407,1523,1541
41384,110931603,0,0,0,0,0,0,0,0,1652,1386,1613,1441,1522,1543
41428,110942071,0,0,0,0,0,0,0,0,1663,1371,1605,1454,1526,1541
41474,110952427,0,0,0,0,0,0,0,0,1625,1429,1619,1437,1493,1573
41515,110963955,0,0,0,0,0,0,0,0,1642,1409,1605,1458,1497,1572
41557,110975486,0,0,0,0,0,0,0,0,1637,1418,1604,1461,1487,1583
41603,110986007,0,0,0,0,0,0,0,0,1635,1423,1609,1457,1491,1581
41648,110996513,0,0,0,0,0,0,0,0,1647,1408,1606,1463,1501,1574
41692,111006746,0,0,0,0,0,0,0,0,1658,1393,1576,1500,1479,1595
41741,111016654,0,0,0,0,0,0,0,0,1619,1450,1605,1467,1463,1609
41785,111027610,0,0,0,0,0,0,0,0,1643,1416,1621,1446,1512,1566
41830,111038001,0,0,0,0,0,0,0,0,1697,1331,1551,1528,1501,1577
41874,111048621,0,0,0,0,0,0,0,0,1663,1387,1600,1472,1513,1565
41920,111058780,0,0,0,0,0,0,0,0,1668,1377,1591,1483,1510,1567
41961,111071417,0,0,0,0,0,0,0,0,1659,1393,1567,1511,1469,1603
41999,111083751,0,0,0,0,0,0,0,0,1676,1366,1612,1457,1542,1536
42043,111094145,0,0,0,0,0,0,0,0,1680,1357,1551,1526,1481,1592
42087,111104654,0,0,0,0,0,0,0,0,1648,1407,1582,1492,1473,1598
42133,111115243,0,0,0,0,0,0,0,0,1641,1414,1633,1426,1526,1548
42182,111125656,0,0,0,0,0,0,0,0,1669,1368,1583,1487,1505,1566
42226,111136010,0,0,0,0,0,0,0,0,1617,1442,1581,1486,1437,1621
42271,111146280,0,0,0,0,0,0,0,0,1606,1454,1614,1443,1466,1596
42315,111156214,0,0,0,0,0,0,0,0,1649,1392,1589,1472,1491,1573
42356,111168471,0,0,0,0,0,0,0,0,1626,1420,1565,1497,1434,1616
42402,111179377,0,0,0,0,0,0,0,0,1623,1423,1596,1459,1469,1587
42447,111189748,0,0,0,0,0,0,0,0,1660,1366,1549,1511,1463,1591
42489,111200830,0,0,0,0,0,0,0,0,1670,1348,1571,1485,1503,1555
42533,111211470,0,0,0,0,0,0,0,0,1638,1398,1600,1450,1497,1560
42579,111221953,0,0,0,0,0,0,0,0,1644,1389,1616,1429,1523,1535
42627,111232730,0,0,0,0,0,0,0,0,1695,1300,1552,1505,1517,1540
42672,111242723,0,0,0,0,0,0,0,0,1650,1377,1590,1460,1504,1551
42716,111252820,0,0,0,0,0,0,0,0,1627,1410,1614,1428,1506,1549
42763,111266183,0,0,0,0,0,0,0,0,1637,1396,1556,1498,1451,1596
42802,111278797,0,0,0,0,0,0,0,0,1609,1435,1591,1458,1458,1591
42844,111290068,0,0,0,0,0,0,0,0,1678,1328,1551,1502,1503,1551
42888,111300262,0,0,0,0,0,0,0,0,1653,1369,1586,1463,1511,1543
42932,111310239,0,0,0,0,0,0,0,0,1639,1391,1614,1426,1527,1527
42978,111320718,0,0,0,0,0,0,0,0,1628,1408,1603,1442,1501,1552
43023,111331250,0,0,0,0,0,0,0,0,1629,1406,1591,1457,1492,1561
43072,111341461,0,0,0,0,0,0,0,0,1619,1420,1603,1442,1495,1558
43117,111352090,0,0,0,0,0,0,0,0,1626,1410,1603,1442,1505,1549
43162,111362213,0,0,0,0,0,0,0,0,1654,1368,1600,1444,1539,1515
43207,111372446,0,0,0,0,0,0,0,0,1670,1340,1549,1505,1506,1547
43245,111384985,0,0,0,0,0,0,0,0,1614,1428,1591,1457,1484,1569
43290,111395862,0,0,0,0,0,0,0,0,1626,1411,1584,1466,1494,1559
43335,111406183,0,0,0,0,0,0,0,0,1629,1408,1536,1520,1444,1602
43382,111416086,0,0,0,0,0,0,0,0,1608,1438,1556,1501,1443,1604
43430,111426660,0,0,0,0,0,0,0,0,1599,1452,1594,1458,1480,1576
43474,111437122,0,0,0,0,0,0,0,0,1632,1408,1561,1498,1484,1573
43523,111448013,0,0,0,0,0,0,0,0,1652,1382,1545,1517,1494,1567
43570,111465244,0,0,0,0,0,0,0,0,1612,1442,1563,1501,1466,1593
43615,111476057,0,0,0,0,0,0,0,0,1629,1424,1579,1486,1505,1562
43659,111489623,0,0,0,0,0,0,0,0,1630,1425,1570,1500,1497,1572
43701,111501473,0,0,0,0,0,0,0,0,1606,1459,1584,1487,1485,1585
43746,111512722,0,0,0,0,0,0,0,0,1637,1421,1540,1536,1475,1596
43792,111523450,0,0,0,0,0,0,0,0,1634,1428,1553,1525,1486,1588
43837,111534433,0,0,0,0,0,0,0,0,1602,1471,1591,1484,1492,1584
43881,111545460,0,0,0,0,0,0,0,0,1650,1407,1539,1541,1493,1584
43930,111555971,0,0,0,0,0,0,0,0,1650,1409,1544,1536,1501,1577
43975,111566407,0,0,0,0,0,0,0,0,1638,1425,1588,1489,1535,1546
44021,111576622,0,0,0,0,0,0,0,0,1616,1455,1596,1479,1519,1561
44065,111586901,0,0,0,0,0,0,0,0,1630,1435,1575,1503,1514,1565
44106,111598268,0,0,0,0,0,0,0,0,1642,1419,1555,1525,1507,1571
44148,111609834,0,0,0,0,0,0,0,0,1643,1419,1574,1505,1527,1553
44193,111620448,0,0,0,0,0,0,0,0,1619,1452,1570,1510,1496,1583
44237,111631189,0,0,0,0,0,0,0,0,1656,1400,1526,1555,1494,1585
44282,111641693,0,0,0,0,0,0,0,0,1647,1413,1549,1532,1507,1572
44329,111652695,0,0,0,0,0,0,0,0,1614,1457,1610,1462,1535,1545
44375,111664221,0,0,0,0,0,0,0,0,1647,1411,1535,1545,1493,1583
44420,111675681,0,0,0,0,0,0,0,0,1630,1434,1571,1506,1512,1566
44465,111686061,0,0,0,0,0,0,0,0,1626,1439,1570,1508,1505,1572
44509,111696276,0,0,0,0,0,0,0,0,1642,1417,1560,1518,1513,1565
44551,111707720,0,0,0,0,0,0,0,0,1662,1387,1556,1521,1531,1547
44596,111721731,0,0,0,0,0,0,0,0,1654,1399,1566,1510,1532,1545
44641,111732397,0,0,0,0,0,0,0,0,1656,1395,1526,1551,1492,1582
44686,111743075,0,0,0,0,0,0,0,0,1612,1455,1580,1494,1495,1579
44731,111753363,0,0,0,0,0,0,0,0,1632,1428,1586,1487,1523,1553
44776,111763771,0,0,0,0,0,0,0,0,1652,1400,1559,1516,1518,1558
44824,111774672,0,0,0,0,0,0,0,0,1644,1411,1551,1524,1498,1575
44868,111785508,0,0,0,0,0,0,0,0,1646,1407,1560,1514,1509,1565
44915,111795727,0,0,0,0,0,0,0,0,1640,1415,1577,1496,1517,1557
