LineNo,TimeUS,C,Roll,Pitch,Yaw,VN,VE,VD,dPD,PN,PE,PD,GX,GY,GZ,OH
194,1.0097e+08,0,-0.39,0.55,12.45,-0.013734,0.0044927,-0.0059885,-0.027872,-0.031188,0.54583,1.4383,-0.01,0,0,95.52
759,1.0111e+08,0,-0.39,0.55,12.45,-0.013192,0.0042554,-0.0078822,-0.018875,-0.035156,0.54642,1.435,-0.01,0,0,95.52
1294,1.0136e+08,0,-0.39,0.54,12.45,-0.010371,0.0039344,-0.49613,-0.4512,-0.039652,0.54578,1.3798,-0.01,0,0,95.52
1485,1.014e+08,0,-0.39,0.54,12.45,-0.0099053,0.0034977,-0.49573,-0.46949,-0.040344,0.54555,1.3624,-0.01,0,0,95.52
1582,1.0142e+08,0,-0.39,0.54,12.45,-0.0099232,0.0034776,-0.49542,-0.48112,-0.040654,0.54551,1.3513,-0.01,0,0,95.52
1627,1.0143e+08,0,-0.39,0.54,12.45,-0.0096203,0.0032797,-0.49538,-0.486,-0.040834,0.54544,1.3461,-0.01,0,0,95.52
1671,1.0144e+08,0,-0.39,0.54,12.45,-0.0092433,0.0031524,-0.49543,-0.49058,-0.041003,0.54538,1.3409,-0.01,0,0,95.52
1718,1.0145e+08,0,-0.39,0.55,12.45,-0.0087491,0.0030111,-0.49555,-0.49479,-0.041156,0.54531,1.3356,-0.01,0,0,95.52
1759,1.0146e+08,0,-0.39,0.54,12.45,-0.0080068,0.0027654,-0.49406,-0.4952,-0.041293,0.5452,1.3327,-0.01,0,0,95.52
1800,1.0147e+08,0,-0.4,0.54,12.45,-0.0074543,0.0026283,-0.4927,-0.48388,-0.041398,0.54509,1.3306,-0.01,0,0,95.52
1843,1.0148e+08,0,-0.4,0.54,12.45,-0.006819,0.0023996,-0.49146,-0.46708,-0.041487,0.54499,1.3284,-0.01,0,0,95.52
1890,1.0149e+08,0,-0.4,0.54,12.45,-0.0058838,0.0022858,-0.49002,-0.44256,-0.041567,0.54489,1.3256,-0.01,0,0,95.52
1932,1.015e+08,0,-0.4,0.54,12.45,-0.0056358,0.0022174,-0.48977,-0.41789,-0.041624,0.54491,1.3207,-0.01,0,0,95.52
1977,1.0151e+08,0,-0.4,0.54,12.45,-0.0047664,0.0019441,-0.48863,-0.39526,-0.041676,0.54482,1.3183,-0.01,0,0,95.52
2021,1.0152e+08,0,-0.4,0.54,12.45,-0.0042743,0.0018105,-0.48744,-0.3739,-0.041713,0.54472,1.3158,-0.01,0,0,95.52
2064,1.0153e+08,0,-0.4,0.53,12.45,-0.0038342,0.0015352,-0.48657,-0.35364,-0.041745,0.54463,1.3127,-0.01,0,0,95.52
2107,1.0154e+08,0,-0.4,0.54,12.45,-0.0033297,0.0012766,-0.48593,-0.33907,-0.041762,0.54453,1.31,-0.01,0,0,95.52
2149,1.0156e+08,0,-0.4,0.54,12.45,-0.0032308,0.0012671,-0.48592,-0.32411,-0.041794,0.54455,1.3051,-0.01,0,0,95.52
2192,1.0157e+08,0,-0.39,0.54,12.45,-0.002601,0.0011686,-0.48501,-0.3123,-0.041797,0.54446,1.3024,-0.01,0,0,95.52
2234,1.0158e+08,0,-0.39,0.54,12.46,-0.0020817,0.0010754,-0.48407,-0.30251,-0.04179,0.54437,1.2995,-0.01,0,0,95.52
2277,1.0159e+08,0,-0.39,0.54,12.46,-0.001566,0.00089259,-0.48335,-0.29427,-0.041772,0.54429,1.2966,-0.01,0,0,95.52
2323,1.016e+08,0,-0.39,0.54,12.46,-0.00096768,0.0006759,-0.4829,-0.28861,-0.041745,0.5442,1.2936,-0.01,0,0,95.52
2366,1.0161e+08,0,-0.39,0.53,12.46,-0.00047486,0.0005749,-0.48236,-0.285,-0.041709,0.54412,1.2905,-0.01,0,0,95.52
2409,1.0162e+08,0,-0.39,0.53,12.46,2.5296e-05,0.0004376,-0.48155,-0.28142,-0.041666,0.54405,1.2869,-0.01,0,0,95.52
2451,1.0163e+08,0,-0.39,0.53,12.46,0.0002134,0.00026414,-0.48159,-0.2793,-0.041665,0.54405,1.282,-0.01,0,0,95.52
2497,1.0164e+08,0,-0.39,0.53,12.46,0.00065913,4.6465e-05,-0.48076,-0.27974,-0.041609,0.54397,1.2787,-0.01,0,0,95.52
2533,1.0165e+08,0,-0.4,0.53,12.46,0.00090143,-0.00025995,-0.47882,-0.2757,-0.041831,0.5438,1.277,-0.01,0,0,95.52
2577,1.0166e+08,0,-0.4,0.53,12.46,0.0011136,-0.00035616,-0.47717,-0.26474,-0.042037,0.54363,1.2761,-0.01,0,0,95.52
2622,1.0167e+08,0,-0.4,0.53,12.46,0.0014599,-0.00052082,-0.47556,-0.25126,-0.042226,0.54347,1.2746,-0.01,0,0,95.52
2667,1.0168e+08,0,-0.4,0.53,12.46,0.0015938,-0.00078371,-0.4743,-0.23715,-0.042401,0.54331,1.2733,-0.01,0,0,95.52
2711,1.0169e+08,0,-0.4,0.54,12.46,0.0018815,-0.00094934,-0.47287,-0.22371,-0.042562,0.54316,1.272,-0.01,0,0,95.52
2760,1.017e+08,0,-0.4,0.54,12.46,0.0022367,-0.0011526,-0.47151,-0.2078,-0.042707,0.543,1.27,-0.01,0,0,95.52
2805,1.0171e+08,0,-0.4,0.54,12.46,0.0024129,-0.0010832,-0.47137,-0.19308,-0.042681,0.54299,1.2648,-0.01,0,0,95.52
2849,1.0172e+08,0,-0.4,0.54,12.46,0.002715,-0.0012966,-0.47015,-0.18327,-0.042812,0.54284,1.2632,-0.01,0,0,95.52
2896,1.0173e+08,0,-0.4,0.54,12.46,0.0029721,-0.0015188,-0.4691,-0.17609,-0.042931,0.5427,1.2615,-0.01,0,0,95.52
2940,1.0174e+08,0,-0.39,0.54,12.46,0.0034055,-0.001678,-0.46802,-0.1705,-0.043037,0.54255,1.2595,-0.01,0,0,95.52
2985,1.0175e+08,0,-0.39,0.54,12.46,0.0036893,-0.0018809,-0.46676,-0.16901,-0.043132,0.54241,1.2574,-0.01,0,0,95.52
3030,1.0176e+08,0,-0.39,0.54,12.46,0.0039913,-0.0021262,-0.46575,-0.17011,-0.043216,0.54227,1.2553,-0.01,0,0,95.52
3075,1.0177e+08,0,-0.39,0.54,12.46,0.0042728,-0.0024385,-0.46508,-0.17178,-0.043285,0.54213,1.2525,-0.01,0,0,95.52
3120,1.0178e+08,0,-0.39,0.54,12.46,0.0045812,-0.0027278,-0.46419,-0.17441,-0.043344,0.54199,1.2497,-0.01,0,0,95.52
3166,1.0179e+08,0,-0.39,0.54,12.46,0.0048485,-0.0026957,-0.46412,-0.17744,-0.043297,0.54197,1.245,-0.01,0,0,95.52
3216,1.018e+08,0,-0.39,0.54,12.46,0.005168,-0.002781,-0.46313,-0.18314,-0.043347,0.54183,1.2426,-0.01,0,0,95.52
3261,1.0181e+08,0,-0.39,0.54,12.46,0.0054559,-0.0029886,-0.46211,-0.19155,-0.043383,0.5417,1.2396,-0.01,0,0,95.52
3305,1.0182e+08,0,-0.4,0.54,12.46,0.0057193,-0.0028983,-0.46121,-0.20009,-0.043416,0.54157,1.237,-0.01,0,0,95.52
3351,1.0183e+08,0,-0.4,0.54,12.46,0.0059744,-0.0031642,-0.46008,-0.21002,-0.043441,0.54144,1.2343,-0.01,0,0,95.52
3397,1.0184e+08,0,-0.4,0.54,12.46,0.0061414,-0.0030434,-0.45999,-0.21861,-0.043381,0.54141,1.2297,-0.01,0,0,95.52
3437,1.0186e+08,0,-0.4,0.54,12.46,0.0065197,-0.003732,-0.45782,-0.21945,-0.043486,0.54106,1.2288,-0.01,0,0,95.52
3483,1.0187e+08,0,-0.4,0.54,12.46,0.0067827,-0.0041727,-0.45617,-0.21297,-0.04359,0.54071,1.2286,-0.01,0,0,95.52
3527,1.0188e+08,0,-0.4,0.54,12.45,0.0071936,-0.0046378,-0.45456,-0.20333,-0.04368,0.54037,1.2282,-0.01,0,0,95.52
3572,1.0189e+08,0,-0.4,0.53,12.45,0.0074385,-0.0050913,-0.45311,-0.19828,-0.043758,0.54004,1.2276,-0.01,0,0,95.52
3617,1.019e+08,0,-0.4,0.53,12.45,0.0078804,-0.0056777,-0.45152,-0.18711,-0.043815,0.53971,1.2265,-0.01,0,0,95.52
3666,1.0191e+08,0,-0.39,0.53,12.45,0.0081429,-0.0059404,-0.45137,-0.17462,-0.043735,0.53965,1.222,-0.01,0,0,95.52
3711,1.0192e+08,0,-0.39,0.53,12.45,0.0083926,-0.0064285,-0.44992,-0.16505,-0.043783,0.53932,1.2212,-0.01,0,0,95.52
3755,1.0193e+08,0,-0.39,0.53,12.45,0.0087899,-0.0068146,-0.4485,-0.15733,-0.043811,0.53898,1.2198,-0.01,0,0,95.52
3804,1.0194e+08,0,-0.39,0.54,12.45,0.0091426,-0.007383,-0.44718,-0.1567,-0.043837,0.53865,1.2187,-0.01,0,0,95.52
3851,1.0195e+08,0,-0.39,0.54,12.45,0.0098165,-0.0078524,-0.44586,-0.15034,-0.043811,0.5383,1.2156,-0.01,0,0,95.52
3896,1.0196e+08,0,-0.39,0.54,12.45,0.010368,-0.0083429,-0.44456,-0.15123,-0.0438,0.53797,1.2138,-0.01,0,0,95.52
3940,1.0197e+08,0,-0.39,0.54,12.45,0.010809,-0.0083906,-0.44465,-0.15087,-0.043694,0.53789,1.2094,-0.01,0,0,95.52
3986,1.0198e+08,0,-0.39,0.54,12.45,0.011145,-0.0088874,-0.44357,-0.15274,-0.043676,0.53756,1.2079,-0.01,0,0,95.52
4033,1.0199e+08,0,-0.39,0.54,12.45,0.011475,-0.0091912,-0.44254,-0.15324,-0.043646,0.53724,1.2063,-0.01,0,0,95.52
4077,1.02e+08,0,-0.4,0.54,12.45,0.011754,-0.0095845,-0.44142,-0.15649,-0.043608,0.53693,1.2045,-0.01,0,0,95.52
4128,1.0201e+08,0,-0.4,0.54,12.45,0.012292,-0.0097499,-0.44021,-0.16081,-0.04356,0.53662,1.2027,-0.01,0,0,95.52
4172,1.0202e+08,0,-0.4,0.54,12.45,0.012601,-0.0097844,-0.4402,-0.16653,-0.043436,0.53652,1.1983,-0.01,0,0,95.52
4217,1.0203e+08,0,-0.4,0.54,12.45,0.013057,-0.010024,-0.439,-0.1734,-0.043375,0.53621,1.1964,-0.01,0,0,95.52
4262,1.0204e+08,0,-0.4,0.54,12.45,0.01344,-0.010016,-0.43906,-0.18621,-0.043243,0.53611,1.192,-0.01,0,0,95.52
4309,1.0205e+08,0,-0.4,0.54,12.45,0.013697,-0.010264,-0.43817,-0.20025,-0.043144,0.53578,1.1892,-0.01,0,0,95.52
4347,1.0207e+08,0,-0.4,0.54,12.45,0.013908,-0.010366,-0.43624,-0.20299,-0.043319,0.53559,1.1893,-0.01,0,0,95.52
4392,1.0208e+08,0,-0.39,0.54,12.45,0.014278,-0.010813,-0.43413,-0.19611,-0.043472,0.5354,1.1892,-0.01,0,0,95.52
4437,1.0209e+08,0,-0.39,0.54,12.45,0.014401,-0.010787,-0.4321,-0.18378,-0.043621,0.53522,1.1894,-0.01,0,0,95.52
4481,1.021e+08,0,-0.39,0.54,12.45,0.014746,-0.010782,-0.43035,-0.17253,-0.043752,0.53505,1.1894,-0.01,0,0,95.52
4526,1.0211e+08,0,-0.39,0.54,12.45,0.014836,-0.010869,-0.42856,-0.16021,-0.043854,0.53487,1.1888,-0.01,0,0,95.52
4575,1.0212e+08,0,-0.39,0.53,12.46,0.015203,-0.01101,-0.42843,-0.14667,-0.043703,0.53476,1.1845,-0.01,0,0,95.52
4620,1.0213e+08,0,-0.39,0.53,12.46,0.015417,-0.011172,-0.42677,-0.13593,-0.043801,0.53459,1.1842,-0.01,0,0,95.52
4665,1.0214e+08,0,-0.39,0.53,12.46,0.015542,-0.01134,-0.42532,-0.12674,-0.043885,0.53442,1.1837,-0.01,0,0,95.52
4709,1.0215e+08,0,-0.39,0.53,12.46,0.015673,-0.011278,-0.42384,-0.12104,-0.043956,0.53426,1.1831,-0.01,0,0,95.52
4758,1.0216e+08,0,-0.39,0.53,12.45,0.016204,-0.011285,-0.42244,-0.11516,-0.043966,0.53407,1.1811,-0.01,0,0,95.52
4802,1.0217e+08,0,-0.39,0.53,12.45,0.016274,-0.011405,-0.42124,-0.11115,-0.043992,0.5339,1.1797,-0.01,0,0,95.52
4848,1.0218e+08,0,-0.39,0.53,12.45,0.016054,-0.011598,-0.42013,-0.10799,-0.044008,0.53373,1.1782,-0.01,0,0,95.52
4893,1.0219e+08,0,-0.39,0.54,12.45,0.016279,-0.011811,-0.41895,-0.10904,-0.044015,0.53357,1.1766,-0.01,0,0,95.52
4938,1.022e+08,0,-0.39,0.54,12.45,0.016648,-0.011894,-0.41885,-0.1098,-0.043851,0.53345,1.1724,-0.01,0,0,95.52
4983,1.0221e+08,0,-0.39,0.54,12.45,0.016804,-0.011959,-0.41765,-0.11344,-0.04386,0.5333,1.1711,-0.01,0,0,95.52
5031,1.0222e+08,0,-0.39,0.54,12.45,0.016891,-0.011954,-0.41668,-0.11979,-0.043859,0.53314,1.1697,-0.01,0,0,95.52
5077,1.0223e+08,0,-0.39,0.54,12.45,0.017036,-0.011924,-0.41577,-0.12698,-0.043848,0.533,1.1682,-0.01,0,0,95.52
5124,1.0225e+08,0,-0.39,0.54,12.45,0.017154,-0.012079,-0.41338,-0.1312,-0.044077,0.53276,1.1664,-0.01,0,0,95.52
5169,1.0226e+08,0,-0.39,0.54,12.46,0.017243,-0.012023,-0.41119,-0.12211,-0.044384,0.5326,1.1669,-0.01,0,0,95.52
5214,1.0227e+08,0,-0.39,0.54,12.46,0.017355,-0.011916,-0.40933,-0.11542,-0.044703,0.53246,1.1679,-0.01,0,0,95.52
5259,1.0228e+08,0,-0.39,0.54,12.46,0.0173,-0.011888,-0.4075,-0.1058,-0.044969,0.5323,1.168,-0.01,0,0,95.52
5304,1.0229e+08,0,-0.39,0.54,12.46,0.017515,-0.011946,-0.40746,-0.093347,-0.044795,0.53219,1.1639,-0.01,0,0,95.52
5349,1.023e+08,0,-0.39,0.54,12.46,0.017463,-0.012102,-0.40578,-0.083381,-0.04506,0.53204,1.1643,-0.01,0,0,95.52
5393,1.0231e+08,0,-0.39,0.54,12.46,0.017464,-0.012174,-0.40419,-0.074468,-0.045308,0.5319,1.1644,-0.01,0,0,95.52
5442,1.0232e+08,0,-0.39,0.54,12.46,0.017512,-0.012351,-0.40272,-0.069244,-0.045537,0.53176,1.1644,-0.01,0,0,95.52
5486,1.0233e+08,0,-0.39,0.54,12.46,0.017629,-0.012325,-0.40125,-0.061969,-0.045732,0.53161,1.1638,-0.01,0,0,95.52
5531,1.0234e+08,0,-0.39,0.54,12.46,0.017764,-0.012277,-0.39967,-0.058955,-0.04591,0.53146,1.1631,-0.01,0,0,95.52
5576,1.0235e+08,0,-0.39,0.54,12.46,0.017927,-0.01232,-0.39942,-0.055615,-0.045732,0.53133,1.1591,-0.01,0,0,95.52
5620,1.0236e+08,0,-0.39,0.54,12.46,0.017682,-0.012459,-0.39814,-0.055953,-0.045913,0.5312,1.1586,-0.01,0,0,95.52
5666,1.0237e+08,0,-0.39,0.54,12.46,0.017567,-0.012434,-0.39676,-0.057344,-0.046083,0.53106,1.1582,-0.01,0,0,95.52
5710,1.0238e+08,0,-0.39,0.54,12.46,0.017644,-0.012564,-0.39537,-0.064741,-0.04624,0.53093,1.1577,-0.01,0,0,95.52
5755,1.0239e+08,0,-0.39,0.54,12.46,0.017597,-0.012616,-0.39421,-0.06983,-0.046366,0.53078,1.1566,-0.01,0,0,95.52
5799,1.024e+08,0,-0.39,0.54,12.46,0.017767,-0.012555,-0.39405,-0.07287,-0.046189,0.53065,1.1526,-0.01,0,0,95.52
5844,1.0241e+08,0,-0.39,0.54,12.46,0.017598,-0.012613,-0.39297,-0.078324,-0.04632,0.53052,1.1518,-0.01,0,0,95.52
5893,1.0242e+08,0,-0.39,0.54,12.47,0.017412,-0.012602,-0.39197,-0.084512,-0.04644,0.53039,1.1509,-0.01,0,0,95.52
5937,1.0243e+08,0,-0.39,0.54,12.47,0.01732,-0.01269,-0.39111,-0.092987,-0.04655,0.53026,1.1498,-0.01,0,0,95.52
5984,1.0244e+08,0,-0.39,0.54,12.47,0.017286,-0.012806,-0.39006,-0.10167,-0.046648,0.53013,1.1486,-0.01,0,0,95.52
6025,1.0246e+08,0,-0.4,0.54,12.47,0.017443,-0.01264,-0.38774,-0.10711,-0.046894,0.52994,1.1482,-0.01,0,0,95.52
6068,1.0247e+08,0,-0.4,0.54,12.47,0.017309,-0.012598,-0.38572,-0.10165,-0.047205,0.52983,1.1496,-0.01,0,0,95.52
6111,1.0248e+08,0,-0.4,0.54,12.47,0.016987,-0.012557,-0.38411,-0.092809,-0.047498,0.52971,1.1508,-0.01,0,0,95.52
6154,1.0249e+08,0,-0.4,0.54,12.47,0.016803,-0.012688,-0.38226,-0.076535,-0.047756,0.52959,1.1513,-0.01,0,0,95.52
6197,1.025e+08,0,-0.4,0.55,12.47,0.016992,-0.012754,-0.38213,-0.059385,-0.047587,0.52946,1.1475,-0.01,0,0,95.52
6242,1.0251e+08,0,-0.39,0.55,12.47,0.017033,-0.012644,-0.38023,-0.04948,-0.047847,0.52935,1.1483,-0.01,0,0,95.52
6285,1.0252e+08,0,-0.39,0.55,12.47,0.01697,-0.012581,-0.37849,-0.038722,-0.048087,0.52924,1.1489,-0.01,0,0,95.52
6331,1.0253e+08,0,-0.39,0.55,12.47,0.01702,-0.012722,-0.37687,-0.030167,-0.04831,0.52913,1.1494,-0.01,0,0,95.52
6374,1.0254e+08,0,-0.39,0.55,12.47,0.017263,-0.012758,-0.37565,-0.024617,-0.048499,0.529,1.1493,-0.01,0,0,95.52
6417,1.0255e+08,0,-0.39,0.55,12.47,0.017532,-0.012751,-0.37538,-0.018473,-0.048325,0.52888,1.1455,-0.01,0,0,95.52
6460,1.0256e+08,0,-0.39,0.55,12.47,0.017477,-0.012779,-0.37381,-0.016184,-0.048513,0.52877,1.1457,-0.01,0,0,95.52
6503,1.0257e+08,0,-0.39,0.55,12.47,0.017653,-0.012943,-0.37264,-0.016202,-0.048686,0.52866,1.1456,-0.01,0,0,95.52
6549,1.0258e+08,0,-0.39,0.55,12.47,0.017801,-0.013032,-0.37127,-0.019578,-0.048789,0.52851,1.1442,-0.01,0,0,95.52
6592,1.0259e+08,0,-0.39,0.54,12.47,0.0178,-0.013085,-0.36994,-0.028781,-0.048932,0.52839,1.1439,-0.01,0,0,95.52
6635,1.026e+08,0,-0.39,0.54,12.48,0.017796,-0.013158,-0.36995,-0.034957,-0.048755,0.52826,1.1402,-0.01,0,0,95.52
6677,1.0261e+08,0,-0.39,0.54,12.48,0.017901,-0.01319,-0.36865,-0.042614,-0.048886,0.52815,1.1397,-0.01,0,0,95.52
6720,1.0262e+08,0,-0.39,0.54,12.48,0.017992,-0.013144,-0.36762,-0.050727,-0.049003,0.52804,1.1391,-0.01,0,0,95.52
6766,1.0263e+08,0,-0.39,0.54,12.48,0.017981,-0.013118,-0.36661,-0.060663,-0.049107,0.52793,1.1384,-0.01,0,0,95.52
6809,1.0264e+08,0,-0.39,0.54,12.48,0.017851,-0.012964,-0.36594,-0.071009,-0.049198,0.52782,1.1375,-0.01,0,0,95.52
6853,1.0266e+08,0,-0.39,0.54,12.48,0.017581,-0.012783,-0.36407,-0.076819,-0.049562,0.52776,1.1377,-0.01,0,0,95.52
6893,1.0267e+08,0,-0.39,0.54,12.47,0.017382,-0.012767,-0.36227,-0.070782,-0.049955,0.52773,1.1388,-0.01,0,0,95.52
6934,1.0268e+08,0,-0.39,0.54,12.47,0.017334,-0.012694,-0.36036,-0.065173,-0.050343,0.52772,1.14,-0.01,0,0,95.52
6978,1.0269e+08,0,-0.39,0.54,12.47,0.017314,-0.012912,-0.36047,-0.053594,-0.05017,0.52759,1.1364,-0.01,0,0,95.52
7023,1.027e+08,0,-0.39,0.54,12.47,0.017078,-0.012748,-0.35873,-0.043618,-0.050541,0.52757,1.1374,-0.01,0,0,95.52
7069,1.0271e+08,0,-0.39,0.54,12.47,0.017036,-0.012643,-0.35702,-0.034081,-0.050892,0.52756,1.1382,-0.01,0,0,95.52
7113,1.0272e+08,0,-0.39,0.54,12.47,0.01704,-0.012389,-0.35549,-0.02287,-0.051203,0.52753,1.1385,-0.01,0,0,95.52
7161,1.0273e+08,0,-0.39,0.54,12.47,0.016843,-0.012395,-0.35411,-0.015412,-0.051512,0.52751,1.139,-0.01,0,0,95.52
7206,1.0274e+08,0,-0.39,0.54,12.47,0.016748,-0.012262,-0.35275,-0.01256,-0.051804,0.52749,1.1393,-0.01,0,0,95.52
7252,1.0275e+08,0,-0.39,0.54,12.47,0.017156,-0.012392,-0.35304,-0.0083234,-0.051634,0.52737,1.1358,-0.01,0,0,95.52
7296,1.0276e+08,0,-0.39,0.54,12.47,0.017176,-0.012436,-0.3518,-0.0076455,-0.051889,0.52734,1.1356,-0.01,0,0,95.52
7341,1.0277e+08,0,-0.39,0.55,12.47,0.017267,-0.012273,-0.35058,-0.0099385,-0.052143,0.52731,1.1357,-0.01,0,0,95.52
7382,1.0278e+08,0,-0.39,0.55,12.47,0.017542,-0.012265,-0.34931,-0.013371,-0.052377,0.52729,1.1356,-0.01,0,0,95.52
7427,1.0279e+08,0,-0.39,0.55,12.47,0.017525,-0.012033,-0.34807,-0.019706,-0.052595,0.52727,1.1355,-0.01,0,0,95.52
7474,1.028e+08,0,-0.39,0.55,12.47,0.017591,-0.012048,-0.34787,-0.023504,-0.052419,0.52715,1.132,-0.01,0,0,95.52
7519,1.0281e+08,0,-0.39,0.55,12.47,0.017388,-0.012016,-0.34662,-0.02955,-0.052624,0.52713,1.1317,-0.01,0,0,95.52
7564,1.0282e+08,0,-0.39,0.55,12.47,0.017463,-0.011456,-0.34558,-0.036412,-0.052812,0.5271,1.1313,-0.01,0,0,95.52
7611,1.0283e+08,0,-0.39,0.55,12.47,0.017338,-0.01134,-0.34469,-0.045543,-0.052986,0.52708,1.1307,-0.01,0,0,95.52
7656,1.0285e+08,0,-0.38,0.55,12.47,0.017484,-0.011528,-0.34225,-0.04889,-0.053351,0.52699,1.1305,-0.01,0,0,95.52
7701,1.0286e+08,0,-0.38,0.55,12.48,0.017329,-0.011434,-0.34086,-0.043988,-0.053779,0.52695,1.1319,-0.01,0,0,95.52
7746,1.0287e+08,0,-0.37,0.55,12.48,0.01666,-0.01094,-0.33971,-0.034253,-0.054169,0.5269,1.1327,-0.01,0,0,95.52
7791,1.0288e+08,0,-0.38,0.55,12.49,0.016311,-0.0091758,-0.33849,-0.025605,-0.054557,0.52686,1.1338,-0.01,0,0,95.52
7835,1.0289e+08,0,-0.4,0.55,12.48,0.016558,-0.0091633,-0.3358,-0.018534,-0.054923,0.52681,1.1347,-0.01,0,0,95.52
7880,1.029e+08,0,-0.4,0.55,12.47,0.017055,-0.0093585,-0.33377,-0.0086938,-0.055252,0.52676,1.1351,-0.01,0,0,95.52
7926,1.0291e+08,0,-0.4,0.55,12.46,0.016914,-0.011113,-0.33071,0.0019668,-0.055578,0.52672,1.1357,-0.01,0,0,95.52
7971,1.0292e+08,0,-0.39,0.55,12.45,0.017365,-0.011523,-0.33056,0.010107,-0.055865,0.52667,1.1357,-0.01,0,0,95.52
8017,1.0293e+08,0,-0.38,0.55,12.44,0.016803,-0.011221,-0.33132,0.016219,-0.0557,0.52656,1.1324,-0.01,0,0,95.52
8065,1.0294e+08,0,-0.39,0.54,12.43,0.016409,-0.011058,-0.3293,0.01896,-0.055981,0.52651,1.1327,-0.01,0,0,95.52
8110,1.0295e+08,0,-0.4,0.54,12.43,0.016396,-0.011669,-0.32651,0.018294,-0.056248,0.52646,1.1328,-0.01,0,0,95.52
8155,1.0296e+08,0,-0.39,0.54,12.42,0.0163,-0.012527,-0.32642,0.012989,-0.056499,0.52642,1.1328,-0.01,0,0,95.52
8200,1.0297e+08,0,-0.39,0.55,12.43,0.016079,-0.011955,-0.32612,0.0048799,-0.056716,0.52636,1.1325,-0.01,0,0,95.52
8245,1.0298e+08,0,-0.39,0.55,12.44,0.016064,-0.011223,-0.32473,-0.00097691,-0.056919,0.52631,1.132,-0.01,0,0,95.52
8291,1.0299e+08,0,-0.39,0.54,12.45,0.016606,-0.011147,-0.32299,-0.0061205,-0.057103,0.52626,1.1314,-0.01,0,0,95.52
8338,1.03e+08,0,-0.38,0.54,12.46,0.016937,-0.010319,-0.32366,-0.011862,-0.056938,0.52616,1.1281,-0.01,0,0,95.52
8382,1.0301e+08,0,-0.38,0.54,12.48,0.016111,-0.0095243,-0.3223,-0.020215,-0.057123,0.52613,1.1277,-0.01,0,0,95.52
8429,1.0302e+08,0,-0.39,0.55,12.48,0.014793,-0.010309,-0.32193,-0.03271,-0.057267,0.52607,1.1266,-0.01,0,0,95.52
8474,1.0303e+08,0,-0.39,0.55,12.48,0.014484,-0.011662,-0.32094,-0.044262,-0.057434,0.52602,1.126,-0.01,0,0,95.52
8523,1.0304e+08,0,-0.38,0.55,12.48,0.015402,-0.011789,-0.32049,-0.055453,-0.057279,0.52591,1.1228,-0.01,0,0,95.52
8567,1.0305e+08,0,-0.38,0.54,12.47,0.01642,-0.010165,-0.32048,-0.069395,-0.057406,0.52585,1.1218,-0.01,0,0,95.52
8609,1.0306e+08,0,-0.39,0.54,12.46,0.015425,-0.0090613,-0.31854,-0.071599,-0.057914,0.52606,1.1231,-0.01,0,0,95.52
8654,1.0307e+08,0,-0.39,0.55,12.44,0.014346,-0.0099336,-0.31562,-0.067863,-0.058429,0.52626,1.1245,-0.01,0,0,95.52
8701,1.0309e+08,0,-0.39,0.54,12.43,0.015229,-0.0091421,-0.31506,-0.059013,-0.058878,0.52644,1.125,-0.01,0,0,95.52
8746,1.031e+08,0,-0.38,0.55,12.43,0.015236,-0.0088984,-0.31402,-0.051521,-0.059339,0.52664,1.1262,-0.01,0,0,95.52
8791,1.0311e+08,0,-0.39,0.55,12.42,0.014129,-0.009825,-0.30962,-0.042118,-0.05978,0.52682,1.1273,-0.01,0,0,95.52
8836,1.0312e+08,0,-0.39,0.55,12.42,0.014479,-0.0083818,-0.31068,-0.033523,-0.06019,0.52699,1.1279,-0.01,0,0,95.52
8882,1.0313e+08,0,-0.39,0.55,12.42,0.015657,-0.0063041,-0.31237,-0.023946,-0.06004,0.52692,1.1247,-0.01,0,0,95.52
8926,1.0314e+08,0,-0.38,0.55,12.43,0.013923,-0.0062549,-0.3072,-0.010789,-0.060431,0.52713,1.1255,-0.01,0,0,95.52
8975,1.0315e+08,0,-0.37,0.54,12.44,0.012339,-0.0074348,-0.30719,-0.0065817,-0.060824,0.52732,1.1261,-0.01,0,0,95.52
9019,1.0316e+08,0,-0.37,0.56,12.45,0.013737,-0.0092576,-0.30789,-0.0049126,-0.061202,0.5275,1.1265,-0.01,0,0,95.52
9065,1.0317e+08,0,-0.38,0.55,12.46,0.017233,-0.0077482,-0.30503,-0.0034209,-0.061528,0.52765,1.1267,-0.01,0,0,95.52
9110,1.0318e+08,0,-0.39,0.54,12.47,0.014715,-0.0029069,-0.30502,-0.0019635,-0.061357,0.5276,1.1237,-0.01,0,0,95.52
9157,1.0319e+08,0,-0.37,0.55,12.46,0.010679,-0.0040679,-0.30518,-0.0054229,-0.061667,0.5278,1.1232,-0.01,0,0,95.52
9202,1.032e+08,0,-0.37,0.56,12.47,0.012901,-0.0096591,-0.30138,-0.0048163,-0.061998,0.52796,1.1234,-0.01,0,0,95.52
9247,1.0321e+08,0,-0.38,0.56,12.45,0.01608,-0.0087892,-0.30064,-0.012073,-0.062265,0.52809,1.1233,-0.01,0,0,95.52
9292,1.0322e+08,0,-0.38,0.55,12.46,0.01283,-0.0017628,-0.30123,-0.021482,-0.062524,0.52826,1.1233,-0.01,0,0,95.52
9337,1.0323e+08,0,-0.37,0.55,12.43,0.010233,-0.0029504,-0.29615,-0.021033,-0.062409,0.52825,1.1203,-0.01,0,0,95.52
9381,1.0324e+08,0,-0.35,0.55,12.43,0.013725,-0.0075682,-0.30131,-0.033,-0.062689,0.52842,1.1202,-0.01,0,0,95.52
9432,1.0325e+08,0,-0.38,0.54,12.41,0.015315,-0.0099433,-0.29451,-0.034612,-0.062907,0.52854,1.1197,-0.01,0,0,95.52
9470,1.0326e+08,0,-0.39,0.54,12.41,0.012953,-0.0017922,-0.29843,-0.045116,-0.063334,0.52874,1.1214,-0.01,0,0,95.52
9516,1.0327e+08,0,-0.36,0.54,12.41,0.0097442,-0.0021278,-0.29254,-0.041021,-0.063788,0.529,1.1232,-0.01,0,0,95.52
9561,1.0329e+08,0,-0.35,0.55,12.4,0.014423,-0.0074154,-0.2981,-0.037595,-0.063666,0.52895,1.1202,-0.01,0,0,95.52
9605,1.033e+08,0,-0.38,0.53,12.41,0.016436,-0.010235,-0.28951,-0.021191,-0.064046,0.52913,1.1219,-0.01,0,0,95.52
9649,1.0331e+08,0,-0.39,0.53,12.42,0.013207,-0.00049275,-0.2938,-0.014713,-0.064395,0.52932,1.1232,-0.01,0,0,95.52
9694,1.0332e+08,0,-0.36,0.53,12.43,0.0092059,-0.00046726,-0.2875,-0.0066475,-0.064789,0.52958,1.1247,-0.01,0,0,95.52
9738,1.0333e+08,0,-0.35,0.55,12.43,0.014353,-0.0068797,-0.29025,-0.00046342,-0.064675,0.52954,1.1218,-0.01,0,0,95.52
9785,1.0334e+08,0,-0.38,0.54,12.44,0.016191,-0.010216,-0.28553,0.010228,-0.064997,0.5297,1.1231,-0.01,0,0,95.52
9829,1.0335e+08,0,-0.39,0.55,12.45,0.012764,-0.0012049,-0.28687,0.014554,-0.065308,0.52987,1.1242,-0.01,0,0,95.52
9878,1.0336e+08,0,-0.36,0.55,12.45,0.0091185,0.00080562,-0.28404,0.024596,-0.065635,0.53012,1.1249,-0.01,0,0,95.52
9922,1.0337e+08,0,-0.36,0.56,12.44,0.015646,-0.0039361,-0.28313,0.024458,-0.065936,0.53033,1.1257,-0.01,0,0,95.52
9967,1.0338e+08,0,-0.38,0.54,12.44,0.016038,-0.0074042,-0.28485,0.025688,-0.065771,0.53026,1.1229,-0.01,0,0,95.52
10012,1.0339e+08,0,-0.4,0.55,12.44,0.010961,0.0003298,-0.28148,0.028307,-0.066037,0.53044,1.1236,-0.01,0,0,95.52
10053,1.034e+08,0,-0.36,0.55,12.43,0.0079887,0.0015708,-0.28192,0.026006,-0.066337,0.53067,1.1241,-0.01,0,0,95.52
10102,1.0341e+08,0,-0.36,0.54,12.42,0.016752,-0.0044695,-0.27391,0.029365,-0.066536,0.53086,1.1236,-0.01,0,0,95.52
10146,1.0342e+08,0,-0.37,0.55,12.4,0.014023,-0.0042496,-0.28062,0.017546,-0.066721,0.531,1.1238,-0.01,0,0,95.52
10191,1.0343e+08,0,-0.38,0.53,12.41,0.0082387,0.0037773,-0.27162,0.021754,-0.06693,0.5312,1.1236,-0.01,0,0,95.52
10234,1.0344e+08,0,-0.35,0.55,12.39,0.015935,-1.8042e-05,-0.275,0.017997,-0.067486,0.53131,1.1245,-0.01,0,0,95.52
10284,1.0345e+08,0,-0.35,0.52,12.4,0.01832,-0.0046401,-0.27135,0.020181,-0.067971,0.53136,1.1261,-0.01,0,0,95.52
10328,1.0346e+08,0,-0.38,0.53,12.4,0.010344,0.00017641,-0.27147,0.020157,-0.068441,0.53141,1.1271,-0.01,0,0,95.52
10374,1.0348e+08,0,-0.35,0.53,12.41,0.0071904,0.0018129,-0.27121,0.025742,-0.068359,0.53143,1.1245,-0.01,0,0,95.52
10419,1.0349e+08,0,-0.35,0.55,12.41,0.015945,-0.0004229,-0.26715,0.032192,-0.06884,0.53151,1.1257,-0.01,0,0,95.52
10462,1.035e+08,0,-0.34,0.54,12.42,0.013235,-0.0026743,-0.27067,0.031657,-0.069222,0.53157,1.1266,-0.01,0,0,95.52
10507,1.0351e+08,0,-0.37,0.54,12.43,0.0054519,0.00045299,-0.26329,0.042616,-0.069648,0.53163,1.1276,-0.01,0,0,95.52
10552,1.0352e+08,0,-0.33,0.56,12.44,0.00524,-0.00072602,-0.26725,0.038883,-0.070104,0.53171,1.1285,-0.01,0,0,95.52
10597,1.0353e+08,0,-0.35,0.55,12.43,0.015014,-0.0024704,-0.25919,0.04585,-0.070474,0.53176,1.1292,-0.01,0,0,95.52
10641,1.0354e+08,0,-0.35,0.56,12.43,0.012879,-0.0016023,-0.26556,0.039643,-0.070774,0.5318,1.1295,-0.01,0,0,95.52
10686,1.0355e+08,0,-0.36,0.54,12.42,0.0066929,0.0017432,-0.2566,0.049616,-0.070679,0.5318,1.1269,-0.01,0,0,95.52
10739,1.0356e+08,0,-0.35,0.55,12.42,0.015707,-0.0017834,-0.26007,0.040925,-0.071029,0.53187,1.1266,-0.01,0,0,95.52
10783,1.0357e+08,0,-0.35,0.52,12.41,0.015684,-0.0023081,-0.26075,0.035817,-0.071308,0.53191,1.1269,-0.01,0,0,95.52
10828,1.0358e+08,0,-0.37,0.53,12.4,0.0053925,0.0018713,-0.25732,0.033858,-0.071602,0.53195,1.1269,-0.01,0,0,95.52
10872,1.0359e+08,0,-0.34,0.54,12.4,0.0043258,0.0007292,-0.26016,0.023466,-0.071958,0.53202,1.1269,-0.01,0,0,95.52
10917,1.036e+08,0,-0.36,0.55,12.4,0.014627,-0.00068626,-0.25293,0.022396,-0.07223,0.53205,1.1271,-0.01,0,0,95.52
10962,1.0361e+08,0,-0.35,0.54,12.4,0.012178,0.0021134,-0.26119,0.0041194,-0.072442,0.53209,1.1272,-0.01,0,0,95.52
11007,1.0362e+08,0,-0.36,0.54,12.4,0.0043511,0.0040054,-0.25002,0.0066855,-0.072697,0.53215,1.1268,-0.01,0,0,95.52
11052,1.0363e+08,0,-0.34,0.55,12.41,0.0096886,-0.0018249,-0.25507,-0.0044753,-0.072647,0.53216,1.1243,-0.01,0,0,95.52
11101,1.0365e+08,0,-0.36,0.54,12.42,0.015772,-0.0027903,-0.25074,-0.011739,-0.072796,0.53219,1.1234,-0.01,0,0,95.52
11151,1.0366e+08,0,-0.37,0.54,12.42,0.0041427,0.0054323,-0.24549,-0.0086068,-0.073958,0.53245,1.1279,-0.01,0,0,95.52
11194,1.0367e+08,0,-0.34,0.55,12.43,0.0096868,0.00039206,-0.24723,-0.0078326,-0.074518,0.53259,1.1293,-0.01,0,0,95.52
11238,1.0368e+08,0,-0.34,0.54,12.43,0.01608,-6.9018e-05,-0.24418,0.0038384,-0.074361,0.53259,1.1266,-0.01,0,0,95.52
11280,1.0369e+08,0,-0.35,0.53,12.42,0.0080152,0.0020815,-0.24663,0.007282,-0.074823,0.53272,1.1278,-0.01,0,0,95.52
11323,1.037e+08,0,-0.34,0.54,12.43,0.0025503,0.0025463,-0.24361,0.014139,-0.075338,0.53286,1.1289,-0.01,0,0,95.52
11369,1.0371e+08,0,-0.36,0.55,12.42,0.015326,-0.00077589,-0.24175,0.020521,-0.075775,0.53297,1.1293,-0.01,0,0,95.52
11411,1.0372e+08,0,-0.36,0.55,12.43,0.013754,0.001044,-0.24616,0.01699,-0.076137,0.53307,1.1301,-0.01,0,0,95.52
11454,1.0373e+08,0,-0.35,0.53,12.4,0.0050135,0.006581,-0.24079,0.021737,-0.076538,0.5332,1.1305,-0.01,0,0,95.52
11496,1.0374e+08,0,-0.33,0.55,12.41,0.0091286,0.0027772,-0.24366,0.020437,-0.076492,0.53324,1.1281,-0.01,0,0,95.52
11540,1.0375e+08,0,-0.33,0.52,12.4,0.017989,0.0029083,-0.23806,0.02429,-0.076834,0.53333,1.1287,-0.01,0,0,95.52
11586,1.0376e+08,0,-0.35,0.53,12.4,0.010819,0.0044811,-0.24167,0.018022,-0.077149,0.53343,1.1291,-0.01,0,0,95.52
11629,1.0377e+08,0,-0.33,0.52,12.4,0.0030879,0.0060552,-0.2356,0.019092,-0.077526,0.53355,1.1294,-0.01,0,0,95.52
11672,1.0378e+08,0,-0.34,0.54,12.4,0.010522,-0.0013754,-0.23398,0.014038,-0.07788,0.53366,1.1294,-0.01,0,0,95.52
11715,1.038e+08,0,-0.34,0.54,12.41,0.013702,0.00059542,-0.23397,0.0092526,-0.078129,0.53374,1.1294,-0.01,0,0,95.52
11759,1.0381e+08,0,-0.35,0.53,12.4,0.0045115,0.0029105,-0.23489,0.0053176,-0.078017,0.53377,1.1271,-0.01,0,0,95.52
11801,1.0382e+08,0,-0.34,0.56,12.42,0.0022099,0.0020234,-0.23425,4.2058e-05,-0.07836,0.53389,1.127,-0.01,0,0,95.52
11844,1.0383e+08,0,-0.36,0.55,12.41,0.011572,-0.002407,-0.23121,-0.00022659,-0.078653,0.53398,1.1273,-0.01,0,0,95.52
11886,1.0384e+08,0,-0.36,0.55,12.43,0.011923,0.00018445,-0.23138,-0.0083832,-0.078864,0.53406,1.1272,-0.01,0,0,95.52
11931,1.0385e+08,0,-0.36,0.53,12.41,0.0041818,0.0029594,-0.23113,-0.017279,-0.07912,0.53417,1.1269,-0.01,0,0,95.52
11970,1.0386e+08,0,-0.33,0.55,12.43,0.0084037,0.0024325,-0.22993,-0.022285,-0.079344,0.53432,1.1276,-0.01,0,0,95.52
12020,1.0387e+08,0,-0.33,0.53,12.43,0.01322,0.0049346,-0.2289,-0.01967,-0.079471,0.53442,1.1291,-0.01,0,0,95.52
12065,1.0388e+08,0,-0.34,0.54,12.41,0.0039464,0.0067863,-0.22702,-0.013895,-0.079616,0.53456,1.1304,-0.01,0,0,95.52
12110,1.0389e+08,0,-0.33,0.56,12.42,0.0029676,0.0046617,-0.22532,-0.0035878,-0.079816,0.5347,1.1313,-0.01,0,0,95.52
12155,1.039e+08,0,-0.33,0.54,12.4,0.013632,-0.00011081,-0.22278,0.0096141,-0.079735,0.53473,1.1291,-0.01,0,0,95.52
12199,1.0391e+08,0,-0.36,0.55,12.41,0.012502,0.0027146,-0.22321,0.01573,-0.079798,0.53485,1.1301,-0.01,0,0,95.52
12246,1.0392e+08,0,-0.35,0.53,12.38,0.0051942,0.0037858,-0.22156,0.024512,-0.079934,0.53498,1.1312,-0.01,0,0,95.52
12290,1.0393e+08,0,-0.34,0.57,12.41,0.010081,0.0033461,-0.22251,0.030783,-0.080062,0.53513,1.1318,-0.01,0,0,95.52
12335,1.0394e+08,0,-0.35,0.53,12.39,0.016576,0.0055493,-0.22309,0.03264,-0.080101,0.53522,1.1326,-0.01,0,0,95.52
12380,1.0395e+08,0,-0.35,0.56,12.4,0.0072786,0.008235,-0.22157,0.033617,-0.080143,0.53535,1.1333,-0.01,0,0,95.52
12424,1.0396e+08,0,-0.35,0.55,12.39,0.0042835,0.0084954,-0.22213,0.035083,-0.08009,0.53541,1.1311,-0.01,0,0,95.52
12473,1.0397e+08,0,-0.34,0.56,12.41,0.013074,0.0033312,-0.21828,0.037571,-0.080159,0.53551,1.1317,-0.01,0,0,95.52
12518,1.0398e+08,0,-0.35,0.54,12.42,0.016822,0.0066403,-0.21669,0.035566,-0.080121,0.53561,1.132,-0.01,0,0,95.52
12565,1.0399e+08,0,-0.33,0.54,12.41,0.007377,0.0068128,-0.21601,0.030801,-0.080147,0.53574,1.1324,-0.01,0,0,95.52
12610,1.04e+08,0,-0.32,0.55,12.42,0.0087854,0.0040352,-0.2136,0.027213,-0.08021,0.53586,1.1328,-0.01,0,0,95.52
12655,1.0401e+08,0,-0.33,0.53,12.42,0.018988,-0.00036938,-0.21437,0.022033,-0.080183,0.53595,1.1329,-0.01,0,0,95.52
12701,1.0403e+08,0,-0.35,0.53,12.43,0.014096,0.004066,-0.21207,0.021808,-0.080013,0.53599,1.1307,-0.01,0,0,95.52
12747,1.0404e+08,0,-0.34,0.53,12.4,0.0070549,0.0039984,-0.2139,0.014886,-0.080036,0.53612,1.1309,-0.01,0,0,95.52
12786,1.0405e+08,0,-0.34,0.55,12.42,0.011492,0.0023314,-0.2116,0.014677,-0.080657,0.5362,1.1323,-0.01,0,0,95.52
12832,1.0406e+08,0,-0.36,0.54,12.4,0.017459,0.0050609,-0.21139,0.017326,-0.081179,0.53624,1.1337,-0.01,0,0,95.52
12877,1.0407e+08,0,-0.35,0.54,12.4,0.006769,0.010424,-0.21226,0.022289,-0.08168,0.53633,1.1348,-0.01,0,0,95.52
12925,1.0408e+08,0,-0.34,0.55,12.39,0.0040105,0.0098334,-0.20796,0.031276,-0.082251,0.53643,1.1359,-0.01,0,0,95.52
12970,1.0409e+08,0,-0.33,0.54,12.4,0.012049,0.0052498,-0.20665,0.034585,-0.082766,0.53649,1.1369,-0.01,0,0,95.52
13015,1.041e+08,0,-0.35,0.54,12.4,0.013867,0.0093867,-0.20522,0.041009,-0.08262,0.53654,1.1349,-0.01,0,0,95.52
13060,1.0411e+08,0,-0.33,0.53,12.39,0.0039608,0.010881,-0.20615,0.041614,-0.083105,0.53664,1.1358,-0.01,0,0,95.52
13105,1.0412e+08,0,-0.32,0.55,12.4,0.0053644,0.0066656,-0.20143,0.047737,-0.083619,0.53675,1.1366,-0.01,0,0,95.52
13149,1.0413e+08,0,-0.32,0.55,12.4,0.014081,0.004229,-0.20428,0.043319,-0.08404,0.53681,1.1373,-0.01,0,0,95.52
13194,1.0414e+08,0,-0.34,0.53,12.41,0.0082481,0.0082925,-0.20064,0.043494,-0.084427,0.53689,1.1381,-0.01,0,0,95.52
13238,1.0415e+08,0,-0.32,0.55,12.4,0.0019055,0.0066015,-0.20258,0.041492,-0.084384,0.53698,1.1361,-0.01,0,0,95.52
13283,1.0416e+08,0,-0.33,0.54,12.42,0.0083704,0.0025468,-0.19786,0.04363,-0.084833,0.53705,1.1368,-0.01,0,0,95.52
13328,1.0417e+08,0,-0.32,0.56,12.42,0.013781,0.0039984,-0.20024,0.034748,-0.085189,0.5371,1.1374,-0.01,0,0,95.52
13376,1.0418e+08,0,-0.34,0.53,12.42,0.0053172,0.0074246,-0.19793,0.030912,-0.08553,0.53719,1.1379,-0.01,0,0,95.52
13421,1.0419e+08,0,-0.32,0.56,12.41,0.0018838,0.0056113,-0.19804,0.027727,-0.085493,0.53727,1.1359,-0.01,0,0,95.52
13442,1.0423e+08,0,-0.35,0.54,12.41,0.0093031,0.0071507,-0.19184,0.0099438,-0.086775,0.53757,1.1367,-0.01,0,0,95.52
13486,1.0424e+08,0,-0.34,0.56,12.41,0.013278,0.0054784,-0.19423,0.0043646,-0.08737,0.53748,1.1379,-0.01,0,0,95.52
13528,1.0425e+08,0,-0.36,0.53,12.4,0.0045444,0.0099358,-0.19247,0.0077432,-0.087957,0.53743,1.1392,-0.01,0,0,95.52
13572,1.0426e+08,0,-0.34,0.56,12.39,0.00048354,0.0076724,-0.19162,0.011535,-0.088604,0.53739,1.1404,-0.01,0,0,95.52
13620,1.0427e+08,0,-0.36,0.55,12.41,0.01052,0.0037561,-0.18956,0.019972,-0.089181,0.53733,1.1413,-0.01,0,0,95.52
13665,1.0429e+08,0,-0.36,0.55,12.41,0.013107,0.0074254,-0.1881,0.029048,-0.089054,0.53739,1.1394,-0.01,0,0,95.52
13710,1.043e+08,0,-0.35,0.55,12.4,0.0026756,0.011747,-0.19019,0.031096,-0.089603,0.53738,1.1404,-0.01,0,0,95.52
13754,1.0431e+08,0,-0.35,0.54,12.4,0.0066628,0.008418,-0.18475,0.03874,-0.090183,0.53737,1.141,-0.01,0,0,95.52
13799,1.0432e+08,0,-0.34,0.56,12.42,0.012704,0.0065731,-0.18739,0.035755,-0.090676,0.53731,1.142,-0.01,0,0,95.52
13844,1.0433e+08,0,-0.36,0.51,12.41,0.006684,0.011945,-0.18349,0.038727,-0.091115,0.53729,1.1427,-0.01,0,0,95.52
13890,1.0434e+08,0,-0.3,0.57,12.41,-0.0029546,0.010148,-0.18599,0.036664,-0.091634,0.5373,1.1432,-0.01,0,0,95.52
13935,1.0435e+08,0,-0.32,0.53,12.4,0.0046314,0.0049971,-0.18157,0.04281,-0.091608,0.53737,1.1414,-0.01,0,0,95.52
13979,1.0436e+08,0,-0.32,0.57,12.42,0.0081186,0.0057404,-0.18386,0.039299,-0.092029,0.53731,1.142,-0.01,0,0,95.52
14024,1.0437e+08,0,-0.33,0.55,12.4,-0.00091675,0.0096273,-0.18104,0.038873,-0.092455,0.5373,1.1423,-0.01,0,0,95.52
14072,1.0438e+08,0,-0.33,0.58,12.4,-0.0006978,0.0041101,-0.1807,0.034361,-0.092944,0.53729,1.1427,-0.01,0,0,95.52
14118,1.0439e+08,0,-0.34,0.56,12.4,0.0088066,0.0005845,-0.17788,0.031829,-0.093353,0.53723,1.1431,-0.01,0,0,95.52
14163,1.044e+08,0,-0.37,0.55,12.4,0.0082625,0.0041009,-0.17759,0.027509,-0.09369,0.53718,1.1431,-0.01,0,0,95.52
14207,1.0441e+08,0,-0.34,0.55,12.4,-0.0013907,0.007977,-0.17879,0.022994,-0.093671,0.53726,1.1413,-0.01,0,0,95.52
14253,1.0442e+08,0,-0.36,0.56,12.39,0.0029746,0.0032584,-0.17708,0.019875,-0.094097,0.53724,1.1414,-0.01,0,0,95.52
14297,1.0443e+08,0,-0.36,0.56,12.41,0.0080546,0.0044026,-0.17968,0.012741,-0.094415,0.53719,1.1416,-0.01,0,0,95.52
14342,1.0444e+08,0,-0.38,0.54,12.39,0.003186,0.0095046,-0.17494,0.012497,-0.094721,0.53716,1.1418,-0.01,0,0,95.52
14385,1.0445e+08,0,-0.33,0.57,12.41,-0.0031579,0.010129,-0.17855,0.0056981,-0.095226,0.53728,1.1438,-0.01,0,0,95.52
14430,1.0446e+08,0,-0.33,0.54,12.41,0.0087774,0.0026218,-0.16984,0.021714,-0.095657,0.53737,1.1448,-0.01,0,0,95.52
14476,1.0447e+08,0,-0.34,0.55,12.42,0.0070955,0.0060328,-0.17133,0.028403,-0.096024,0.53745,1.1464,-0.01,0,0,95.52
14526,1.0448e+08,0,-0.32,0.55,12.41,-0.0022498,0.010447,-0.17046,0.037262,-0.096426,0.53757,1.1479,-0.01,0,0,95.52
14570,1.0449e+08,0,-0.32,0.57,12.41,0.002413,0.0043647,-0.16978,0.044364,-0.09643,0.53767,1.1462,-0.01,0,0,95.52
14614,1.0451e+08,0,-0.33,0.56,12.43,0.0081008,0.0034662,-0.17011,0.049397,-0.096769,0.53774,1.1475,-0.01,0,0,95.52
14659,1.0452e+08,0,-0.35,0.55,12.42,0.0051831,0.0078109,-0.16583,0.05937,-0.09708,0.53782,1.1487,-0.01,0,0,95.52
14703,1.0453e+08,0,-0.32,0.58,12.42,-0.0023943,0.010909,-0.17,0.058693,-0.097443,0.53795,1.1501,-0.01,0,0,95.52
14748,1.0454e+08,0,-0.34,0.54,12.4,0.0058963,0.0064329,-0.16341,0.068381,-0.09779,0.53804,1.1514,-0.01,0,0,95.52
14793,1.0455e+08,0,-0.34,0.58,12.43,0.01056,0.009845,-0.16886,0.067655,-0.098043,0.53811,1.1524,-0.01,0,0,95.52
14837,1.0456e+08,0,-0.35,0.51,12.39,0.0043786,0.015001,-0.16323,0.077511,-0.098299,0.53822,1.1533,-0.01,0,0,95.52
14882,1.0457e+08,0,-0.33,0.57,12.4,0.0014994,0.009116,-0.16358,0.078092,-0.098619,0.53834,1.1542,-0.01,0,0,95.52
14928,1.0458e+08,0,-0.34,0.52,12.39,0.006681,0.0024934,-0.16205,0.080666,-0.098866,0.53841,1.1548,-0.01,0,0,95.52
14977,1.0459e+08,0,-0.36,0.54,12.41,0.0046355,0.0047714,-0.15873,0.084839,-0.098798,0.53847,1.1532,-0.01,0,0,95.52
15022,1.046e+08,0,-0.35,0.54,12.39,-0.0043982,0.0092276,-0.16234,0.079371,-0.099057,0.53858,1.1539,-0.01,0,0,95.52
15066,1.0461e+08,0,-0.35,0.56,12.39,-0.0012153,0.0043151,-0.15737,0.077954,-0.099341,0.53868,1.1544,-0.01,0,0,95.52
15111,1.0462e+08,0,-0.37,0.56,12.41,0.0037233,0.0040049,-0.16107,0.068114,-0.099548,0.53874,1.1549,-0.01,0,0,95.52
15158,1.0463e+08,0,-0.37,0.53,12.4,0.0033377,0.012593,-0.15572,0.066091,-0.099724,0.53885,1.1551,-0.01,0,0,95.52
15203,1.0464e+08,0,-0.33,0.57,12.42,0.0007862,0.0098921,-0.15782,0.056443,-0.099971,0.53898,1.1557,-0.01,0,0,95.52
15250,1.0465e+08,0,-0.33,0.52,12.4,0.0079091,0.00317,-0.15491,0.053102,-0.10016,0.53905,1.156,-0.01,0,0,95.52
15292,1.0467e+08,0,-0.37,0.55,12.42,0.00031534,0.0090376,-0.15085,0.05275,-0.10039,0.53907,1.157,-0.01,0,0,95.52
15337,1.0468e+08,0,-0.33,0.57,12.42,-0.0044149,0.011662,-0.15515,0.0486,-0.10067,0.53912,1.1586,-0.01,0,0,95.52
15382,1.0469e+08,0,-0.33,0.55,12.4,0.0058323,0.0063815,-0.14926,0.055403,-0.10094,0.53915,1.1598,-0.01,0,0,95.52
15431,1.047e+08,0,-0.34,0.57,12.42,0.0083228,0.0075898,-0.1541,0.054744,-0.10087,0.5392,1.1583,-0.01,0,0,95.52
15477,1.0471e+08,0,-0.35,0.54,12.4,0.0025096,0.012003,-0.14943,0.061394,-0.10109,0.53923,1.1595,-0.01,0,0,95.52
15521,1.0472e+08,0,-0.33,0.59,12.41,0.0010363,0.0094566,-0.15113,0.061288,-0.10134,0.53928,1.1607,-0.01,0,0,95.52
15566,1.0473e+08,0,-0.34,0.55,12.39,0.0093807,0.004274,-0.14707,0.066322,-0.10154,0.53929,1.1618,-0.01,0,0,95.52
15610,1.0474e+08,0,-0.36,0.57,12.41,0.0082361,0.0076105,-0.14854,0.066283,-0.10168,0.53929,1.1629,-0.01,0,0,95.52
15656,1.0475e+08,0,-0.36,0.54,12.39,0.0018421,0.012405,-0.14675,0.068209,-0.10185,0.53935,1.1638,-0.01,0,0,95.52
15700,1.0476e+08,0,-0.36,0.58,12.39,0.002046,0.0069196,-0.14506,0.07072,-0.10204,0.53942,1.1645,-0.01,0,0,95.52
15745,1.0477e+08,0,-0.38,0.55,12.39,0.0078295,0.0042101,-0.14629,0.07055,-0.10198,0.53948,1.163,-0.01,0,0,95.52
15790,1.0478e+08,0,-0.37,0.56,12.41,0.0023949,0.0094028,-0.14447,0.070287,-0.10209,0.5395,1.1638,-0.01,0,0,95.52
15834,1.0479e+08,0,-0.35,0.55,12.4,-0.0032259,0.013573,-0.14586,0.062815,-0.10225,0.53957,1.1644,-0.01,0,0,95.52
15883,1.048e+08,0,-0.34,0.56,12.4,0.0025374,0.0077782,-0.14196,0.059483,-0.10241,0.53963,1.1648,-0.01,0,0,95.52
15930,1.0481e+08,0,-0.35,0.57,12.42,0.0055093,0.0070131,-0.14444,0.052256,-0.10234,0.53968,1.1634,-0.01,0,0,95.52
15975,1.0482e+08,0,-0.35,0.55,12.41,-0.00020116,0.010967,-0.13944,0.050922,-0.10245,0.53972,1.1639,-0.01,0,0,95.52
16019,1.0483e+08,0,-0.32,0.6,12.42,-0.003596,0.010711,-0.14227,0.040842,-0.1026,0.53979,1.1643,-0.01,0,0,95.52
16063,1.0484e+08,0,-0.33,0.56,12.4,0.0069282,0.0036559,-0.13696,0.038839,-0.10271,0.53982,1.1646,-0.01,0,0,95.52
16102,1.0485e+08,0,-0.35,0.6,12.42,0.0057676,0.0073922,-0.13966,0.030684,-0.10306,0.53967,1.166,-0.01,0,0,95.52
16144,1.0486e+08,0,-0.36,0.55,12.4,0.00099675,0.011664,-0.13693,0.031329,-0.10346,0.53955,1.1677,-0.01,0,0,95.52
16188,1.0487e+08,0,-0.34,0.6,12.4,0.0044072,0.0067223,-0.13668,0.03523,-0.10385,0.53945,1.169,-0.01,0,0,95.52
16231,1.0488e+08,0,-0.36,0.55,12.39,0.0078627,0.0046824,-0.13892,0.039023,-0.10415,0.53931,1.1702,-0.01,0,0,95.52
16274,1.0489e+08,0,-0.36,0.55,12.4,0.0013451,0.0084096,-0.13463,0.050686,-0.1041,0.53937,1.1688,-0.01,0,0,95.52
16322,1.049e+08,0,-0.35,0.55,12.39,-0.0031643,0.010206,-0.1376,0.052119,-0.10446,0.53929,1.1701,-0.01,0,0,95.52
16364,1.0491e+08,0,-0.35,0.54,12.38,0.0035599,0.0031141,-0.13184,0.057995,-0.10478,0.53918,1.1712,-0.01,0,0,95.52
16411,1.0493e+08,0,-0.39,0.6,12.42,0.0032255,0.0066617,-0.13391,0.056523,-0.10502,0.53906,1.1718,-0.01,0,0,95.52
16453,1.0494e+08,0,-0.4,0.53,12.39,-0.00049151,0.012058,-0.12961,0.05974,-0.10531,0.53898,1.1729,-0.01,0,0,95.52
16496,1.0495e+08,0,-0.36,0.62,12.41,0.003445,0.0078507,-0.13038,0.060051,-0.10562,0.53893,1.1737,-0.01,0,0,95.52
16538,1.0496e+08,0,-0.38,0.55,12.4,0.0093011,0.0052348,-0.13066,0.061069,-0.10583,0.53883,1.1744,-0.01,0,0,95.52
16581,1.0497e+08,0,-0.38,0.59,12.41,0.0040112,0.0083114,-0.12725,0.066317,-0.10578,0.53889,1.1731,-0.01,0,0,95.52
16626,1.0498e+08,0,-0.37,0.58,12.41,-0.0013303,0.012369,-0.13206,0.060498,-0.10605,0.53885,1.1739,-0.01,0,0,95.52
16668,1.0499e+08,0,-0.36,0.59,12.4,0.0052649,0.0050322,-0.12553,0.062373,-0.1063,0.53879,1.1746,-0.01,0,0,95.52
16714,1.05e+08,0,-0.38,0.61,12.42,0.0031135,0.0068644,-0.13157,0.050693,-0.10646,0.53871,1.1751,-0.01,0,0,95.52
16757,1.0501e+08,0,-0.38,0.55,12.4,-0.0010833,0.011146,-0.12424,0.054633,-0.10644,0.5388,1.1739,-0.01,0,0,95.52
16802,1.0502e+08,0,-0.34,0.62,12.42,-0.0032074,0.012351,-0.13026,0.04367,-0.10668,0.53878,1.1744,-0.01,0,0,95.52
16844,1.0503e+08,0,-0.35,0.54,12.39,0.0060845,0.0080502,-0.12279,0.04375,-0.10687,0.53872,1.1749,-0.01,0,0,95.52
16887,1.0504e+08,0,-0.33,0.61,12.43,0.0035158,0.0091734,-0.12388,0.034852,-0.10701,0.53866,1.1751,-0.01,0,0,95.52
16932,1.0505e+08,0,-0.33,0.52,12.39,-0.00050711,0.012416,-0.12276,0.030877,-0.10701,0.53876,1.1739,-0.01,0,0,95.52
16969,1.0506e+08,0,-0.32,0.58,12.4,0.0041648,0.0031169,-0.11831,0.032201,-0.10746,0.5386,1.1751,-0.01,0,0,95.52
17014,1.0507e+08,0,-0.33,0.56,12.39,0.0063123,0.0025284,-0.12449,0.026755,-0.10782,0.53838,1.1765,-0.01,0,0,95.52
17062,1.0508e+08,0,-0.34,0.57,12.4,8.3914e-05,0.007171,-0.1179,0.035457,-0.10819,0.53819,1.1777,-0.01,0,0,95.52
17106,1.0509e+08,0,-0.33,0.59,12.39,-0.0025726,0.011191,-0.12336,0.031443,-0.10859,0.53804,1.1788,-0.01,0,0,95.52
17154,1.051e+08,0,-0.33,0.59,12.39,0.0048753,0.0053473,-0.11815,0.038288,-0.10895,0.53787,1.1798,-0.01,0,0,95.52
17199,1.0511e+08,0,-0.35,0.6,12.41,0.0047689,0.0075405,-0.12123,0.038651,-0.10922,0.53768,1.1806,-0.01,0,0,95.52
17245,1.0512e+08,0,-0.34,0.57,12.4,-0.00095071,0.010565,-0.11775,0.046135,-0.1092,0.53775,1.1794,-0.01,0,0,95.52
17290,1.0513e+08,0,-0.32,0.61,12.42,0.0012115,0.0093488,-0.1182,0.045525,-0.10954,0.53762,1.1802,-0.01,0,0,95.52
17335,1.0514e+08,0,-0.33,0.56,12.39,0.0086172,0.003904,-0.11731,0.04574,-0.10981,0.53745,1.181,-0.01,0,0,95.52
17379,1.0515e+08,0,-0.36,0.58,12.43,0.004235,0.0067152,-0.11424,0.049073,-0.11004,0.53728,1.1818,-0.01,0,0,95.52
17424,1.0516e+08,0,-0.36,0.54,12.4,5.5706e-05,0.010106,-0.11573,0.048327,-0.11033,0.53716,1.1827,-0.01,0,0,95.52
17468,1.0517e+08,0,-0.34,0.59,12.42,0.0057142,0.0065512,-0.11079,0.053822,-0.11033,0.53725,1.1815,-0.01,0,0,95.52
17513,1.0518e+08,0,-0.34,0.53,12.4,0.0097655,0.0037687,-0.11398,0.049524,-0.11055,0.5371,1.1824,-0.01,0,0,95.52
17557,1.0519e+08,0,-0.35,0.56,12.42,0.0020816,0.0074325,-0.10905,0.053029,-0.11077,0.53697,1.1831,-0.01,0,0,95.52
17604,1.052e+08,0,-0.33,0.54,12.39,-0.001869,0.011076,-0.11392,0.047666,-0.11104,0.53688,1.1837,-0.01,0,0,95.52
17651,1.0521e+08,0,-0.32,0.56,12.4,0.0030917,0.0038387,-0.10835,0.05025,-0.11127,0.5368,1.1841,-0.01,0,0,95.52
17696,1.0522e+08,0,-0.34,0.55,12.39,0.0019885,0.0030595,-0.11324,0.042087,-0.11121,0.53684,1.183,-0.01,0,0,95.52
17744,1.0523e+08,0,-0.33,0.56,12.4,-0.0051467,0.0060664,-0.1077,0.04313,-0.11143,0.53674,1.1835,-0.01,0,0,95.52
17782,1.0525e+08,0,-0.31,0.59,12.4,-0.0023353,0.007851,-0.11159,0.035901,-0.11188,0.53657,1.1844,-0.01,0,0,95.52
17824,1.0526e+08,0,-0.31,0.56,12.38,0.0068749,0.004807,-0.10934,0.037845,-0.11225,0.53637,1.1853,-0.01,0,0,95.52
17869,1.0527e+08,0,-0.34,0.58,12.41,0.00090258,0.0081005,-0.11079,0.037573,-0.11258,0.53616,1.1863,-0.01,0,0,95.52
17913,1.0528e+08,0,-0.34,0.55,12.39,-0.0035839,0.011882,-0.10606,0.043213,-0.11297,0.53599,1.1871,-0.01,0,0,95.52
17958,1.0529e+08,0,-0.31,0.59,12.41,0.0026976,0.0076491,-0.10473,0.046246,-0.11334,0.53584,1.1877,-0.01,0,0,95.52
18003,1.053e+08,0,-0.3,0.54,12.4,0.0060209,0.0050737,-0.10612,0.044154,-0.11362,0.53565,1.1884,-0.01,0,0,95.52
18051,1.0531e+08,0,-0.32,0.58,12.41,-0.0017973,0.0077191,-0.10179,0.049154,-0.11361,0.5357,1.1874,-0.01,0,0,95.52
18098,1.0532e+08,0,-0.31,0.55,12.4,-0.0033126,0.010422,-0.10576,0.043801,-0.11396,0.53555,1.188,-0.01,0,0,95.52
18143,1.0533e+08,0,-0.3,0.57,12.4,0.004516,0.0012457,-0.099089,0.046372,-0.11426,0.53541,1.1884,-0.01,0,0,95.52
18188,1.0534e+08,0,-0.32,0.55,12.4,0.0028724,0.00099333,-0.10608,0.034602,-0.1145,0.53522,1.1888,-0.01,0,0,95.52
18233,1.0535e+08,0,-0.33,0.56,12.4,-0.0037905,0.0045573,-0.097442,0.040337,-0.1145,0.53527,1.1878,-0.01,0,0,95.52
18279,1.0536e+08,0,-0.32,0.58,12.4,-0.0012529,0.0039799,-0.10433,0.029599,-0.11481,0.53516,1.1883,-0.01,0,0,95.52
18323,1.0537e+08,0,-0.32,0.55,12.38,0.0058603,-0.00039441,-0.098832,0.031433,-0.11504,0.53501,1.1888,-0.01,0,0,95.52
18368,1.0538e+08,0,-0.35,0.58,12.39,-0.00022312,0.0026417,-0.10369,0.022472,-0.11524,0.53485,1.1892,-0.01,0,0,95.52
18412,1.0539e+08,0,-0.34,0.54,12.37,-0.0046584,0.0066733,-0.098522,0.023725,-0.11549,0.53473,1.1896,-0.01,0,0,95.52
18457,1.054e+08,0,-0.34,0.59,12.39,0.0028933,0.0058176,-0.098809,0.020393,-0.11573,0.53464,1.1898,-0.01,0,0,95.52
18505,1.0541e+08,0,-0.32,0.53,12.37,0.007129,0.0039544,-0.099385,0.017793,-0.11568,0.53467,1.1888,-0.01,0,0,95.52
18551,1.0542e+08,0,-0.34,0.57,12.39,-0.0018311,0.0082841,-0.097238,0.016322,-0.11587,0.53455,1.1889,-0.01,0,0,95.52
18596,1.0543e+08,0,-0.32,0.54,12.38,-0.0026109,0.010913,-0.10083,0.0087278,-0.11609,0.53447,1.1891,-0.01,0,0,95.52
18643,1.0544e+08,0,-0.32,0.55,12.38,0.0051504,0.00010468,-0.093323,0.011183,-0.11626,0.53438,1.1889,-0.01,0,0,95.52
18685,1.0546e+08,0,-0.37,0.58,12.4,-0.0010361,0.0030262,-0.099289,0.0040065,-0.11663,0.53421,1.1899,-0.01,0,0,95.52
18731,1.0547e+08,0,-0.36,0.55,12.38,-0.0050966,0.006191,-0.093654,0.011859,-0.11707,0.53407,1.191,-0.01,0,0,95.52
18777,1.0548e+08,0,-0.36,0.61,12.4,0.0018856,0.0068645,-0.094758,0.015559,-0.11748,0.53396,1.1919,-0.01,0,0,95.52
18822,1.0549e+08,0,-0.35,0.54,12.39,0.0051843,0.007231,-0.097188,0.014665,-0.1178,0.53381,1.1928,-0.01,0,0,95.52
18866,1.055e+08,0,-0.36,0.57,12.41,-0.0019213,0.010703,-0.089592,0.026075,-0.11815,0.53369,1.1935,-0.01,0,0,95.52
18911,1.0551e+08,0,-0.32,0.55,12.39,-0.0025735,0.011538,-0.095415,0.024827,-0.1182,0.53376,1.1926,-0.01,0,0,95.52
18962,1.0552e+08,0,-0.34,0.54,12.38,0.0036519,-0.003125,-0.085351,0.037817,-0.11853,0.53365,1.193,-0.01,0,0,95.52
19007,1.0553e+08,0,-0.37,0.56,12.4,-0.002986,-0.0011684,-0.091967,0.033304,-0.11882,0.53352,1.1937,-0.01,0,0,95.52
19052,1.0554e+08,0,-0.36,0.54,12.38,-0.0085129,0.0033742,-0.086436,0.040534,-0.11917,0.53342,1.1943,-0.01,0,0,95.52
19101,1.0555e+08,0,-0.31,0.57,12.38,0.0035221,0.0081356,-0.086037,0.040997,-0.1195,0.53337,1.1944,-0.01,0,0,95.52
19146,1.0556e+08,0,-0.31,0.54,12.38,0.0035474,0.0051727,-0.092871,0.033051,-0.11974,0.53325,1.195,-0.01,0,0,95.52
19191,1.0557e+08,0,-0.31,0.56,12.38,-0.0042779,0.0069731,-0.083148,0.041259,-0.12002,0.53316,1.1954,-0.01,0,0,95.52
19235,1.0558e+08,0,-0.3,0.57,12.38,-0.0030606,0.006096,-0.092721,0.029319,-0.12008,0.53322,1.1945,-0.01,0,0,95.52
19280,1.0559e+08,0,-0.3,0.56,12.38,0.0047516,0.0014334,-0.081409,0.037379,-0.12032,0.53314,1.1949,-0.01,0,0,95.52
19325,1.056e+08,0,-0.33,0.55,12.38,0.00052577,-0.00045221,-0.088298,0.026534,-0.12052,0.53305,1.1952,-0.01,0,0,95.52
19370,1.0562e+08,0,-0.32,0.56,12.38,-0.0057427,0.0038949,-0.081513,0.029167,-0.12078,0.53298,1.1955,-0.01,0,0,95.52
19418,1.0563e+08,0,-0.34,0.56,12.39,0.0017399,0.0035314,-0.085653,0.020955,-0.12102,0.53294,1.1957,-0.01,0,0,95.52
19463,1.0564e+08,0,-0.33,0.56,12.39,0.0061296,0.0021742,-0.083294,0.020512,-0.12097,0.53297,1.1949,-0.01,0,0,95.52
19514,1.0565e+08,0,-0.32,0.55,12.39,-0.0036038,0.0060274,-0.08052,0.018274,-0.12153,0.53272,1.1961,-0.01,0,0,95.52
19559,1.0566e+08,0,-0.35,0.54,12.38,0.0024389,0.0055126,-0.083103,0.015815,-0.12191,0.53258,1.1966,-0.01,0,0,95.52
19604,1.0567e+08,0,-0.34,0.55,12.39,0.0036459,0.0059633,-0.083677,0.013659,-0.12219,0.53242,1.1973,-0.01,0,0,95.52
19649,1.0569e+08,0,-0.37,0.54,12.38,-0.0051081,0.0084152,-0.081106,0.017142,-0.12248,0.53226,1.198,-0.01,0,0,95.52
19694,1.057e+08,0,-0.32,0.57,12.39,-0.0064687,0.0095523,-0.082479,0.018515,-0.12254,0.53233,1.1972,-0.01,0,0,95.52
19739,1.0571e+08,0,-0.33,0.57,12.38,0.0053452,0.0048637,-0.078632,0.023927,-0.12283,0.5322,1.1977,-0.01,0,0,95.52
19783,1.0572e+08,0,-0.34,0.54,12.38,0.0038756,0.0033593,-0.080402,0.023873,-0.12307,0.53204,1.1982,-0.01,0,0,95.52
19832,1.0573e+08,0,-0.33,0.56,12.37,-0.0046622,0.0068022,-0.076246,0.028987,-0.12336,0.5319,1.1986,-0.01,0,0,95.52
19877,1.0574e+08,0,-0.32,0.55,12.37,0.0012359,0.0036153,-0.079896,0.026009,-0.12368,0.5318,1.1989,-0.01,0,0,95.52
19923,1.0575e+08,0,-0.32,0.56,12.38,0.0074475,0.0018264,-0.074865,0.029671,-0.1239,0.53168,1.1993,-0.01,0,0,95.52
19968,1.0576e+08,0,-0.35,0.52,12.37,-0.0036581,0.0048783,-0.07982,0.023966,-0.12411,0.53155,1.1994,-0.01,0,0,95.52
20015,1.0577e+08,0,-0.29,0.55,12.39,-0.0064196,0.0053211,-0.077794,0.023729,-0.12442,0.53148,1.1995,-0.01,0,0,95.52
20060,1.0578e+08,0,-0.32,0.54,12.38,0.0024908,0.0018909,-0.073599,0.026122,-0.12464,0.53137,1.1998,-0.01,0,0,95.52
20105,1.0579e+08,0,-0.32,0.53,12.39,-0.00017927,0.00016017,-0.077544,0.019947,-0.12481,0.53125,1.2,-0.01,0,0,95.52
20150,1.058e+08,0,-0.34,0.55,12.39,-0.0072365,0.0042147,-0.073681,0.021776,-0.12505,0.53115,1.2001,-0.01,0,0,95.52
20195,1.0581e+08,0,-0.34,0.53,12.38,0.0021524,0.0028184,-0.075967,0.017288,-0.12529,0.53106,1.2002,-0.01,0,0,95.52
20239,1.0582e+08,0,-0.34,0.57,12.4,0.0051784,0.0032783,-0.075048,0.016291,-0.12527,0.53109,1.1994,-0.01,0,0,95.52
20288,1.0583e+08,0,-0.37,0.53,12.38,-0.00086567,0.0049138,-0.074991,0.013277,-0.12544,0.53098,1.1995,-0.01,0,0,95.52
20332,1.0584e+08,0,-0.34,0.57,12.39,-0.0058616,0.0074089,-0.073773,0.010409,-0.12567,0.53092,1.1995,-0.01,0,0,95.52
20379,1.0585e+08,0,-0.36,0.53,12.37,0.0044345,0.0049085,-0.072479,0.0077432,-0.12584,0.53085,1.1995,-0.01,0,0,95.52
20418,1.0587e+08,0,-0.35,0.55,12.38,-0.0019095,0.00075209,-0.070556,0.0070062,-0.12608,0.5308,1.2003,-0.01,0,0,95.52
20467,1.0588e+08,0,-0.36,0.57,12.38,-0.0092934,0.0045836,-0.070558,0.0085649,-0.1264,0.53077,1.201,-0.01,0,0,95.52
20512,1.0589e+08,0,-0.34,0.55,12.37,-0.00058827,0.0034526,-0.069995,0.0094484,-0.1267,0.53075,1.2017,-0.01,0,0,95.52
20557,1.059e+08,0,-0.34,0.56,12.38,0.0035664,0.0056143,-0.073936,0.0084227,-0.1269,0.53073,1.2024,-0.01,0,0,95.52
20602,1.0591e+08,0,-0.35,0.52,12.36,-0.0041861,0.0075855,-0.072902,0.013576,-0.12689,0.53077,1.2017,-0.01,0,0,95.52
20647,1.0592e+08,0,-0.33,0.56,12.38,-0.0063769,0.0086079,-0.072453,0.016929,-0.12719,0.53076,1.2023,-0.01,0,0,95.52
20694,1.0593e+08,0,-0.32,0.53,12.37,0.004799,0.0053656,-0.06906,0.022836,-0.12741,0.53075,1.2029,-0.01,0,0,95.52
20740,1.0594e+08,0,-0.3,0.55,12.38,0.0026422,0.0049409,-0.070195,0.023045,-0.12758,0.53073,1.2034,-0.01,0,0,95.52
20785,1.0595e+08,0,-0.33,0.52,12.36,-0.0071734,0.0060463,-0.068077,0.02598,-0.12779,0.53071,1.2038,-0.01,0,0,95.52
20830,1.0596e+08,0,-0.32,0.56,12.37,-0.0054252,0.0043303,-0.066432,0.029218,-0.12786,0.53077,1.2032,-0.01,0,0,95.52
20879,1.0597e+08,0,-0.34,0.53,12.37,0.0043851,0.00099825,-0.063986,0.031796,-0.12803,0.53075,1.2036,-0.01,0,0,95.52
20923,1.0598e+08,0,-0.34,0.55,12.37,-0.0010149,0.00099649,-0.065892,0.029483,-0.12816,0.53073,1.204,-0.01,0,0,95.52
20971,1.0599e+08,0,-0.37,0.55,12.37,-0.008472,0.0067271,-0.067175,0.02678,-0.12839,0.53074,1.2041,-0.01,0,0,95.52
21015,1.06e+08,0,-0.37,0.55,12.36,0.0027608,0.0051176,-0.066625,0.025652,-0.12858,0.53073,1.2044,-0.01,0,0,95.52
21060,1.0601e+08,0,-0.37,0.54,12.38,0.0048031,0.0057694,-0.067887,0.02264,-0.12868,0.53072,1.2046,-0.01,0,0,95.52
21106,1.0602e+08,0,-0.38,0.52,12.35,-0.0048965,0.0066439,-0.067465,0.020741,-0.12882,0.53071,1.2047,-0.01,0,0,95.52
21154,1.0603e+08,0,-0.35,0.55,12.38,-0.0073645,0.0049108,-0.064391,0.02144,-0.12904,0.53073,1.2047,-0.01,0,0,95.52
21201,1.0605e+08,0,-0.38,0.53,12.35,0.002513,0.0047295,-0.062561,0.021089,-0.12921,0.53058,1.2053,-0.01,0,0,95.52
21242,1.0606e+08,0,-0.38,0.55,12.36,-0.0064736,0.0056717,-0.061944,0.022089,-0.12936,0.53044,1.2061,-0.01,0,0,95.52
21286,1.0607e+08,0,-0.33,0.57,12.37,-0.0076874,0.0060275,-0.058505,0.028494,-0.12962,0.53034,1.207,-0.01,0,0,95.52
21329,1.0608e+08,0,-0.32,0.53,12.35,0.0042433,0.0020123,-0.059933,0.029221,-0.12979,0.5302,1.208,-0.01,0,0,95.52
21372,1.0609e+08,0,-0.33,0.56,12.38,0.0015143,0.0035517,-0.057585,0.036253,-0.12976,0.53024,1.2074,-0.01,0,0,95.52
21415,1.061e+08,0,-0.32,0.52,12.34,-0.0075729,0.0023103,-0.062177,0.035283,-0.12994,0.53011,1.2083,-0.01,0,0,95.52
21458,1.0611e+08,0,-0.32,0.57,12.38,-0.005243,0.00099612,-0.056039,0.04483,-0.13014,0.53,1.2091,-0.01,0,0,95.52
21503,1.0612e+08,0,-0.34,0.52,12.35,0.0028872,0.00078864,-0.061671,0.04312,-0.13025,0.52988,1.2098,-0.01,0,0,95.52
21546,1.0613e+08,0,-0.34,0.55,12.38,-0.0059687,0.0017392,-0.057567,0.049764,-0.13033,0.52977,1.2105,-0.01,0,0,95.52
21592,1.0614e+08,0,-0.35,0.54,12.35,-0.012818,0.0044296,-0.061756,0.046489,-0.13049,0.52967,1.2111,-0.01,0,0,95.52
21636,1.0615e+08,0,-0.35,0.57,12.38,-0.0043471,0.0020134,-0.053822,0.056044,-0.13056,0.52971,1.2105,-0.01,0,0,95.52
21678,1.0616e+08,0,-0.37,0.56,12.37,0.0027283,0.004138,-0.058504,0.050439,-0.13062,0.52961,1.2111,-0.01,0,0,95.52
21722,1.0617e+08,0,-0.36,0.56,12.37,-0.0054815,0.0061657,-0.05431,0.052827,-0.1307,0.52953,1.2117,-0.01,0,0,95.52
21767,1.0618e+08,0,-0.36,0.59,12.38,-0.0033843,0.005667,-0.052368,0.052637,-0.13086,0.52948,1.2123,-0.01,0,0,95.52
21810,1.062e+08,0,-0.35,0.53,12.37,0.0049295,0.0036864,-0.055551,0.047737,-0.13092,0.52941,1.213,-0.01,0,0,95.52
21853,1.062e+08,0,-0.35,0.57,12.38,-0.003084,0.0051295,-0.052728,0.050692,-0.13088,0.52948,1.2125,-0.01,0,0,95.52
21896,1.0622e+08,0,-0.35,0.55,12.36,-0.010981,0.0053179,-0.057528,0.045731,-0.13099,0.52942,1.2132,-0.01,0,0,95.52
21939,1.0622e+08,0,-0.32,0.56,12.39,0.00068481,0.006067,-0.055544,0.046852,-0.13109,0.52937,1.2138,-0.01,0,0,95.52
21985,1.0624e+08,0,-0.34,0.55,12.39,0.0062534,0.0083741,-0.056527,0.044292,-0.1311,0.52931,1.2143,-0.01,0,0,95.52
22031,1.0625e+08,0,-0.33,0.52,12.37,-0.0062896,0.00080407,-0.051151,0.048844,-0.13123,0.52912,1.2152,-0.01,0,0,95.52
22071,1.0626e+08,0,-0.28,0.53,12.39,0.00048087,0.0059223,-0.055756,0.045775,-0.13137,0.52892,1.2161,-0.01,0,0,95.52
22116,1.0627e+08,0,-0.32,0.52,12.38,0.0024937,0.006867,-0.049288,0.053046,-0.13144,0.52871,1.217,-0.01,0,0,95.52
22162,1.0628e+08,0,-0.33,0.55,12.38,-0.00479,-0.00063278,-0.048584,0.056426,-0.13145,0.52875,1.2165,-0.01,0,0,95.52
22206,1.0629e+08,0,-0.28,0.52,12.39,-0.00051064,0.0058493,-0.053115,0.054682,-0.13157,0.52857,1.2177,-0.01,0,0,95.52
22251,1.063e+08,0,-0.28,0.53,12.38,-0.00094758,0.0075791,-0.053693,0.056656,-0.13166,0.5284,1.2189,-0.01,0,0,95.52
22296,1.0631e+08,0,-0.35,0.53,12.38,0.00097774,0.0028587,-0.050139,0.062889,-0.13174,0.5282,1.2199,-0.01,0,0,95.52
22341,1.0632e+08,0,-0.32,0.55,12.41,-0.00051346,-0.00078334,-0.051813,0.062808,-0.13181,0.52804,1.2209,-0.01,0,0,95.52
22386,1.0633e+08,0,-0.25,0.51,12.38,-0.0028954,-5.3836e-05,-0.051447,0.066235,-0.13183,0.52809,1.2203,-0.01,0,0,95.52
22434,1.0634e+08,0,-0.21,0.46,12.41,-0.00046097,0.010848,-0.055783,0.063388,-0.13189,0.52796,1.2212,-0.01,0,0,95.52
22479,1.0635e+08,0,-0.32,0.48,12.39,-0.00092595,0.015237,-0.052709,0.06734,-0.13195,0.5278,1.2221,-0.01,0,0,95.52
22524,1.0636e+08,0,-0.44,0.5,12.42,0.0060256,0.012924,-0.051733,0.067865,-0.132,0.52765,1.2229,-0.01,0,0,95.52
22569,1.0637e+08,0,-0.43,0.52,12.42,0.0027378,0.0041721,-0.039315,0.079279,-0.132,0.52772,1.2224,-0.01,0,0,95.52
22614,1.0638e+08,0,-0.27,0.47,12.42,0.0049952,-0.001364,-0.038058,0.078837,-0.13204,0.52764,1.2231,-0.01,0,0,95.52
22655,1.0639e+08,0,-0.21,0.46,12.42,-0.0002468,0.005228,-0.041646,0.073327,-0.13207,0.52758,1.2241,-0.01,0,0,95.52
22704,1.064e+08,0,-0.21,0.42,12.41,0.0025341,0.011422,-0.047526,0.065898,-0.13209,0.52749,1.2249,-0.01,0,0,95.52
22752,1.0642e+08,0,-0.2,0.4,12.38,-0.0017813,0.0095629,-0.040909,0.069711,-0.13211,0.52741,1.2256,-0.01,0,0,95.52
22796,1.0643e+08,0,-0.26,0.44,12.41,0.0031105,0.018512,-0.053559,0.055305,-0.13211,0.52731,1.2264,-0.01,0,0,95.52
22848,1.0645e+08,0,-0.18,0.47,12.4,-0.00082118,0.0035353,-0.044795,0.062337,-0.13226,0.52717,1.2271,-0.01,0,0,95.52
22893,1.0646e+08,0,-0.16,0.46,12.37,-0.0028666,-7.228e-05,-0.0405,0.067212,-0.13242,0.52696,1.228,-0.01,0,0,95.52
22940,1.0647e+08,0,-0.22,0.45,12.4,0.0016511,0.010097,-0.053585,0.053904,-0.13252,0.52671,1.229,-0.01,0,0,95.52
22984,1.0648e+08,0,-0.33,0.46,12.38,0.00023384,0.003465,-0.038699,0.068784,-0.13263,0.52646,1.2298,-0.01,0,0,95.52
23033,1.0649e+08,0,-0.28,0.46,12.44,-0.0030991,0.0074543,-0.042345,0.064802,-0.13276,0.52628,1.2306,-0.01,0,0,95.52
23080,1.065e+08,0,-0.29,0.42,12.4,-0.0011602,0.0075936,-0.045085,0.062704,-0.1329,0.52609,1.2314,-0.01,0,0,95.52
23128,1.0652e+08,0,-0.29,0.39,12.4,0.001062,0.0045078,-0.031623,0.076845,-0.133,0.5259,1.2321,-0.01,0,0,95.52
23172,1.0653e+08,0,-0.31,0.47,12.46,0.0019527,-0.00067959,-0.037931,0.070387,-0.13309,0.52574,1.2329,-0.01,0,0,95.52
23217,1.0654e+08,0,-0.21,0.38,12.4,-0.00025976,-0.0014532,-0.024725,0.083173,-0.1332,0.52561,1.2336,-0.01,0,0,95.52
23265,1.0655e+08,0,-0.19,0.46,12.45,-0.007514,0.0019799,-0.036311,0.06984,-0.1333,0.52552,1.2342,-0.01,0,0,95.52
23312,1.0656e+08,0,-0.16,0.44,12.43,-0.0016371,0.0032123,-0.047887,0.056191,-0.1334,0.52538,1.2347,-0.01,0,0,95.52
23357,1.0657e+08,0,-0.21,0.39,12.4,0.0027984,0.010028,-0.0277,0.073763,-0.13344,0.52522,1.2353,-0.01,0,0,95.52
23402,1.0658e+08,0,-0.35,0.47,12.43,-0.0016493,0.0048416,-0.043922,0.053899,-0.13348,0.52509,1.2357,-0.01,0,0,95.52
23446,1.0659e+08,0,-0.32,0.41,12.39,-0.0036994,0.002286,-0.041935,0.052304,-0.1335,0.52512,1.2354,-0.01,0,0,95.52
23492,1.066e+08,0,-0.34,0.48,12.42,0.0023567,9.7385e-05,-0.022926,0.067406,-0.13355,0.525,1.2357,-0.01,0,0,95.52
23536,1.0661e+08,0,-0.24,0.41,12.42,0.00394,0.0070842,-0.045433,0.040932,-0.13355,0.5249,1.2361,-0.01,0,0,95.52
23582,1.0662e+08,0,-0.24,0.37,12.4,0.0053732,0.010572,-0.023122,0.058995,-0.13356,0.52477,1.2365,-0.01,0,0,95.52
23627,1.0663e+08,0,-0.41,0.45,12.41,-0.000962,-0.0034471,-0.026131,0.051286,-0.1336,0.52468,1.2368,-0.01,0,0,95.52
23670,1.0664e+08,0,-0.3,0.45,12.4,-0.0041619,0.0050907,-0.040702,0.032867,-0.13368,0.52442,1.2377,-0.01,0,0,95.52
23718,1.0665e+08,0,-0.26,0.4,12.39,0.0013183,-0.0044974,-0.035099,0.036664,-0.13371,0.52419,1.2385,-0.01,0,0,95.52
23763,1.0667e+08,0,-0.38,0.44,12.41,-0.00061535,-0.011416,-0.013136,0.057314,-0.13377,0.52392,1.2393,-0.01,0,0,95.52
23808,1.0668e+08,0,-0.23,0.46,12.42,-0.00077213,0.0073837,-0.053318,0.017759,-0.13379,0.52397,1.239,-0.01,0,0,95.52
23853,1.0669e+08,0,-0.25,0.33,12.41,0.003192,0.0085928,-0.032787,0.038217,-0.13382,0.52373,1.2397,-0.01,0,0,95.52
23897,1.067e+08,0,-0.37,0.38,12.42,0.0057538,0.0077074,-0.019949,0.051861,-0.13382,0.52347,1.2403,-0.01,0,0,95.52
23942,1.0671e+08,0,-0.34,0.48,12.43,0.0020256,-0.00099304,-0.038525,0.033516,-0.13386,0.52325,1.2409,-0.01,0,0,95.52
23988,1.0672e+08,0,-0.23,0.37,12.42,-0.0072,0.0012712,-0.048149,0.022732,-0.13384,0.5233,1.2407,-0.01,0,0,95.52
24033,1.0673e+08,0,-0.36,0.3,12.43,0.0061937,0.010631,-0.0041101,0.065525,-0.13386,0.52309,1.2413,-0.01,0,0,95.52
24077,1.0674e+08,0,-0.3,0.51,12.44,0.00094146,0.00073449,-0.029779,0.038829,-0.13394,0.5229,1.2418,-0.01,0,0,95.52
24122,1.0675e+08,0,-0.22,0.49,12.42,-0.013668,0.0074231,-0.055848,0.012071,-0.13401,0.52274,1.2424,-0.01,0,0,95.52
24170,1.0676e+08,0,-0.28,0.34,12.41,-0.0068743,0.00092413,-0.025414,0.041376,-0.13404,0.52257,1.243,-0.01,0,0,95.52
24214,1.0677e+08,0,-0.22,0.35,12.43,0.015457,0.0013139,0.0014132,0.06661,-0.13404,0.52241,1.2434,-0.01,0,0,95.52
24258,1.0678e+08,0,-0.16,0.48,12.42,0.010384,0.011273,-0.030589,0.033375,-0.13404,0.52223,1.2438,-0.01,0,0,95.52
24302,1.0679e+08,0,-0.35,0.5,12.44,-0.0096573,0.0066369,-0.048577,0.014585,-0.13404,0.52223,1.2436,-0.01,0,0,95.52
24349,1.068e+08,0,-0.36,0.41,12.44,-0.010701,-0.0035231,-0.035802,0.02567,-0.13406,0.52207,1.2439,-0.01,0,0,95.52
24393,1.0681e+08,0,-0.08,0.28,12.42,0.0025657,-0.0095932,-0.01999,0.040156,-0.13406,0.52197,1.2445,-0.01,0,0,95.52
24440,1.0682e+08,0,0,0.32,12.43,0.0090208,0.017662,-0.030877,0.028513,-0.13406,0.52185,1.2449,-0.01,0,0,95.52
24484,1.0683e+08,0,-0.15,0.39,12.43,0.0028178,0.036737,-0.036691,0.022253,-0.13406,0.52168,1.2454,-0.01,0,0,95.52
24529,1.0684e+08,0,-0.51,0.44,12.45,-0.0033407,0.0092554,-0.036792,0.021495,-0.13404,0.52149,1.2459,-0.01,0,0,95.52
24576,1.0686e+08,0,0.08,0.38,12.43,-0.0042995,0.047169,-0.032646,0.025631,-0.13417,0.52153,1.2461,-0.01,0,0,95.52
24625,1.0687e+08,0,-0.29,0.44,12.42,-0.0097833,0.039832,-0.047253,0.010141,-0.13426,0.52126,1.2465,-0.01,0,0,95.52
24670,1.0688e+08,0,-0.42,0.42,12.44,0.0035926,-0.0013933,-0.024217,0.032015,-0.13434,0.52105,1.2468,-0.01,0,0,95.52
24715,1.0689e+08,0,-0.3,0.41,12.47,0.011653,0.0020256,-0.015965,0.038566,-0.1344,0.52097,1.247,-0.01,0,0,95.52
24766,1.0691e+08,0,-0.33,0.35,12.46,-0.00019227,-0.0045113,-0.020057,0.031591,-0.13442,0.52099,1.2472,-0.01,0,0,95.52
24814,1.0692e+08,0,-0.39,0.39,12.45,-0.0027067,-0.0090025,-0.023875,0.025438,-0.13448,0.52098,1.2474,-0.01,0,0,95.52
24858,1.0693e+08,0,-0.2,0.37,12.46,-0.0012216,-0.021441,-0.018597,0.028765,-0.13454,0.52097,1.2476,-0.01,0,0,95.52
24904,1.0694e+08,0,-0.15,0.37,12.46,-0.0017777,-0.0022719,-0.023793,0.021887,-0.13458,0.52098,1.2478,-0.01,0,0,95.52
24948,1.0695e+08,0,-0.17,0.36,12.45,-0.0040912,0.019777,-0.04072,0.0033291,-0.1346,0.521,1.2479,-0.01,0,0,95.52
24996,1.0696e+08,0,-0.3,0.32,12.44,-0.0027326,0.0052146,-0.039099,0.0031275,-0.13458,0.52095,1.248,-0.01,0,0,95.52
