LineNo,TimeUS,C,Roll,Pitch,Yaw,VN,VE,VD,dPD,PN,PE,PD,GX,GY,GZ,OH
194,100971237,0,-0.39,0.55,12.45,-0.0137342,0.004492719,-0.005988523,-0.02787179,-0.03118849,0.5458285,1.438311,-0.01,0,0,95.52
759,101112539,0,-0.39,0.55,12.45,-0.01319241,0.004255352,-0.007882152,-0.01887479,-0.03515624,0.5464168,1.435006,-0.01,0,0,95.52
1294,101364862,0,-0.39,0.54,12.45,-0.01037149,0.003934391,-0.4961323,-0.4511957,-0.03965181,0.5457765,1.379826,-0.01,0,0,95.52
1485,101399064,0,-0.39,0.54,12.45,-0.009905271,0.003497749,-0.4957308,-0.4694863,-0.04034359,0.5455481,1.362384,-0.01,0,0,95.52
1582,101421115,0,-0.39,0.54,12.45,-0.009923247,0.003477563,-0.4954221,-0.4811158,-0.04065407,0.5455148,1.351263,-0.01,0,0,95.52
1627,101431201,0,-0.39,0.54,12.45,-0.009620343999999999,0.0032797,-0.495375,-0.485999,-0.04083414,0.5454434,1.346096,-0.01,0,0,95.52
1671,101441277,0,-0.39,0.54,12.45,-0.009243322999999999,0.003152446,-0.4954268,-0.4905781,-0.04100283,0.5453755,1.340939,-0.01,0,0,95.52
1718,101451298,0,-0.39,0.55,12.45,-0.008749111,0.003011106,-0.4955536,-0.4947942,-0.04115568,0.545309,1.335641,-0.01,0,0,95.52
1759,101462679,0,-0.39,0.54,12.45,-0.008006823999999999,0.002765387,-0.4940598,-0.4951952,-0.04129308,0.5452021,1.332679,-0.01,0,0,95.52
1800,101473397,0,-0.4,0.54,12.45,-0.007454267,0.002628279,-0.4927005,-0.483881,-0.04139768,0.545094,1.330583,-0.01,0,0,95.52
1843,101483484,0,-0.4,0.54,12.45,-0.006819033,0.002399557,-0.4914639,-0.4670797,-0.04148738,0.5449897,1.328374,-0.01,0,0,95.52
1890,101493982,0,-0.4,0.54,12.45,-0.005883835,0.00228583,-0.4900205,-0.442565,-0.04156696,0.5448916,1.325567,-0.01,0,0,95.52
1932,101504629,0,-0.4,0.54,12.45,-0.005635843,0.002217407,-0.4897663,-0.4178859,-0.04162437,0.5449142,1.320673,-0.01,0,0,95.52
1977,101514526,0,-0.4,0.54,12.45,-0.004766371,0.001944055,-0.4886285,-0.3952611,-0.04167587,0.5448152000000001,1.31827,-0.01,0,0,95.52
2021,101524424,0,-0.4,0.54,12.45,-0.004274296,0.0018105,-0.487437,-0.3738976,-0.04171347,0.5447191,1.315771,-0.01,0,0,95.52
2064,101534719,0,-0.4,0.53,12.45,-0.003834153,0.00153518,-0.4865673,-0.3536423,-0.04174468,0.5446265,1.312678,-0.01,0,0,95.52
2107,101544849,0,-0.4,0.54,12.45,-0.003329749,0.001276643,-0.4859263,-0.339073,-0.04176164,0.5445347,1.309985,-0.01,0,0,95.52
2149,101555697,0,-0.4,0.54,12.45,-0.003230836,0.001267149,-0.4859186,-0.324115,-0.04179404,0.5445474,1.305131,-0.01,0,0,95.52
2192,101565706,0,-0.39,0.54,12.45,-0.002601043,0.001168605,-0.4850142,-0.3123049,-0.04179693,0.544457,1.302362,-0.01,0,0,95.52
2234,101575696,0,-0.39,0.54,12.46,-0.002081714,0.001075354,-0.4840707,-0.302514,-0.04178962,0.5443704,1.299512,-0.01,0,0,95.52
2277,101585701,0,-0.39,0.54,12.46,-0.001565956,0.000892593,-0.4833464,-0.2942727,-0.04177184,0.5442863,1.296581,-0.01,0,0,95.52
2323,101595685,0,-0.39,0.54,12.46,-0.0009676835,0.0006759006,-0.4829046,-0.2886116,-0.04174523,0.5442049,1.293572,-0.01,0,0,95.52
2366,101605754,0,-0.39,0.53,12.46,-0.0004748606,0.0005748988,-0.4823629,-0.2850023,-0.04170939,0.544125,1.290491,-0.01,0,0,95.52
2409,101615860,0,-0.39,0.53,12.46,2.529635e-05,0.0004376043,-0.4815473,-0.281421,-0.04166576,0.5440487000000001,1.286859,-0.01,0,0,95.52
2451,101626529,0,-0.39,0.53,12.46,0.0002134027,0.000264141,-0.4815915,-0.2793042,-0.0416649,0.5440521,1.282049,-0.01,0,0,95.52
2497,101636521,0,-0.39,0.53,12.46,0.0006591309,4.646485e-05,-0.4807643,-0.2797391,-0.04160856,0.5439745,1.278743,-0.01,0,0,95.52
2533,101648067,0,-0.4,0.53,12.46,0.0009014347,-0.0002599495,-0.4788224,-0.2756959,-0.04183087,0.5438018,1.277025,-0.01,0,0,95.52
2577,101658308,0,-0.4,0.53,12.46,0.001113598,-0.0003561592,-0.4771698,-0.2647445,-0.04203666,0.5436341,1.276104,-0.01,0,0,95.52
2622,101668875,0,-0.4,0.53,12.46,0.001459869,-0.0005208221,-0.4755608,-0.2512556,-0.04222631,0.5434709,1.274559,-0.01,0,0,95.52
2667,101679517,0,-0.4,0.53,12.46,0.001593761,-0.0007837147,-0.4742994,-0.2371477,-0.04240132,0.543312,1.273337,-0.01,0,0,95.52
2711,101689508,0,-0.4,0.54,12.46,0.001881492,-0.0009493353,-0.4728687,-0.2237074,-0.04256226,0.5431566,1.271974,-0.01,0,0,95.52
2760,101699740,0,-0.4,0.54,12.46,0.002236737,-0.00115262,-0.4715069,-0.2078038,-0.0427066,0.5430042,1.270004,-0.01,0,0,95.52
2805,101710822,0,-0.4,0.54,12.46,0.002412861,-0.001083231,-0.4713718,-0.1930755,-0.04268101,0.5429922,1.264824,-0.01,0,0,95.52
2849,101720393,0,-0.4,0.54,12.46,0.002714988,-0.001296606,-0.4701451,-0.1832689,-0.04281231,0.5428429,1.263218,-0.01,0,0,95.52
2896,101730378,0,-0.4,0.54,12.46,0.002972077,-0.001518807,-0.4691038,-0.1760921,-0.04293114,0.5426961,1.261492,-0.01,0,0,95.52
2940,101741006,0,-0.39,0.54,12.46,0.003405462,-0.001678025,-0.4680244,-0.1704953,-0.04303703,0.5425522,1.259516,-0.01,0,0,95.52
2985,101751362,0,-0.39,0.54,12.46,0.003689298,-0.001880882,-0.4667625,-0.1690139,-0.04313178,0.5424112,1.257438,-0.01,0,0,95.52
3030,101761654,0,-0.39,0.54,12.46,0.003991263,-0.002126186,-0.4657504,-0.1701066,-0.04321615,0.5422722,1.255261,-0.01,0,0,95.52
3075,101771827,0,-0.39,0.54,12.46,0.004272755,-0.002438493,-0.4650812,-0.1717824,-0.04328489,0.5421327,1.252518,-0.01,0,0,95.52
3120,101782746,0,-0.39,0.54,12.46,0.00458123,-0.002727807,-0.4641908,-0.1744149,-0.04334353,0.5419942,1.249679,-0.01,0,0,95.52
3166,101793369,0,-0.39,0.54,12.46,0.00484851,-0.00269571,-0.4641181,-0.1774388,-0.04329656,0.5419671,1.245043,-0.01,0,0,95.52
3216,101803531,0,-0.39,0.54,12.46,0.005167963,-0.002780998,-0.4631333,-0.1831396,-0.04334737,0.5418326999999999,1.242592,-0.01,0,0,95.52
3261,101813833,0,-0.39,0.54,12.46,0.00545591,-0.002988636,-0.4621086,-0.1915458,-0.0433832,0.5416974,1.239599,-0.01,0,0,95.52
3305,101823877,0,-0.4,0.54,12.46,0.005719319,-0.002898304,-0.4612064,-0.2000853,-0.0434161,0.5415683999999999,1.236988,-0.01,0,0,95.52
3351,101833982,0,-0.4,0.54,12.46,0.005974386,-0.003164192,-0.4600846,-0.2100205,-0.04344132,0.5414425,1.234302,-0.01,0,0,95.52
3397,101844701,0,-0.4,0.54,12.46,0.006141445,-0.003043351,-0.4599915,-0.2186117,-0.04338063,0.5414114,1.229706,-0.01,0,0,95.52
3437,101856225,0,-0.4,0.54,12.46,0.006519717,-0.00373197,-0.4578185,-0.2194478,-0.04348607,0.5410557,1.228762,-0.01,0,0,95.52
3483,101866274,0,-0.4,0.54,12.46,0.00678265,-0.004172722,-0.4561696,-0.2129709,-0.04359012,0.5407110000000001,1.228557,-0.01,0,0,95.52
3527,101876238,0,-0.4,0.54,12.45,0.007193609,-0.004637755,-0.4545622,-0.203326,-0.04367977,0.5403732,1.228177,-0.01,0,0,95.52
3572,101886220,0,-0.4,0.53,12.45,0.007438547,-0.005091336,-0.4531052,-0.198277,-0.04375799,0.5400402,1.227646,-0.01,0,0,95.52
3617,101896868,0,-0.4,0.53,12.45,0.007880448,-0.005677733,-0.4515182,-0.1871095,-0.04381479,0.5397057,1.226502,-0.01,0,0,95.52
3666,101907624,0,-0.39,0.53,12.45,0.008142882000000001,-0.005940414,-0.4513715,-0.1746178,-0.04373473,0.5396476,1.221993,-0.01,0,0,95.52
3711,101917617,0,-0.39,0.53,12.45,0.008392617999999999,-0.006428483,-0.449923,-0.1650459,-0.04378283,0.5393153000000001,1.221175,-0.01,0,0,95.52
3755,101927781,0,-0.39,0.53,12.45,0.008789882000000001,-0.006814625,-0.4485029,-0.1573335,-0.04381085,0.5389799,1.219768,-0.01,0,0,95.52
3804,101938724,0,-0.39,0.54,12.45,0.009142627,-0.007383022,-0.4471781,-0.1566975,-0.04383688,0.5386541,1.218688,-0.01,0,0,95.52
3851,101951759,0,-0.39,0.54,12.45,0.009816515,-0.007852428,-0.4458554,-0.1503447,-0.04381083,0.5383,1.215633,-0.01,0,0,95.52
3896,101962717,0,-0.39,0.54,12.45,0.01036781,-0.008342855999999999,-0.4445617,-0.151228,-0.04379991,0.5379699999999999,1.213802,-0.01,0,0,95.52
3940,101973266,0,-0.39,0.54,12.45,0.01080859,-0.008390559000000001,-0.4446455,-0.1508654,-0.04369381,0.5378863,1.209361,-0.01,0,0,95.52
3986,101983650,0,-0.39,0.54,12.45,0.01114502,-0.008887358999999999,-0.4435685,-0.1527365,-0.04367564,0.5375637,1.207868,-0.01,0,0,95.52
4033,101993425,0,-0.39,0.54,12.45,0.01147501,-0.009191230999999999,-0.4425366,-0.1532365,-0.04364647,0.5372440000000001,1.206256,-0.01,0,0,95.52
4077,102003805,0,-0.4,0.54,12.45,0.01175434,-0.009584547000000001,-0.4414206,-0.1564885,-0.04360807,0.5369286,1.204534,-0.01,0,0,95.52
4128,102013846,0,-0.4,0.54,12.45,0.01229161,-0.009749855999999999,-0.4402082,-0.1608082,-0.04356027,0.536617,1.202708,-0.01,0,0,95.52
4172,102023888,0,-0.4,0.54,12.45,0.01260144,-0.009784375999999999,-0.4401981,-0.1665348,-0.0434361,0.5365196,1.198311,-0.01,0,0,95.52
4217,102033804,0,-0.4,0.54,12.45,0.0130567,-0.01002368,-0.439005,-0.1733956,-0.04337487,0.5362103,1.196404,-0.01,0,0,95.52
4262,102043885,0,-0.4,0.54,12.45,0.01343971,-0.01001562,-0.4390567,-0.1862099,-0.04324263,0.53611,1.192019,-0.01,0,0,95.52
4309,102054116,0,-0.4,0.54,12.45,0.01369681,-0.01026358,-0.438175,-0.2002503,-0.04314425,0.5357807999999999,1.189178,-0.01,0,0,95.52
4347,102066054,0,-0.4,0.54,12.45,0.01390818,-0.01036562,-0.4362446,-0.2029937,-0.04331861,0.5355903,1.189304,-0.01,0,0,95.52
4392,102076152,0,-0.39,0.54,12.45,0.01427769,-0.0108127,-0.4341287,-0.1961065,-0.04347204,0.5354004999999999,1.189237,-0.01,0,0,95.52
4437,102086780,0,-0.39,0.54,12.45,0.01440131,-0.01078721,-0.4320994,-0.1837816,-0.04362119,0.5352231,1.189411,-0.01,0,0,95.52
4481,102096715,0,-0.39,0.54,12.45,0.01474552,-0.01078229,-0.4303498,-0.1725349,-0.04375228,0.5350497,1.189402,-0.01,0,0,95.52
4526,102106761,0,-0.39,0.54,12.45,0.01483573,-0.0108692,-0.4285552,-0.1602147,-0.04385368,0.5348684,1.188799,-0.01,0,0,95.52
4575,102117284,0,-0.39,0.53,12.46,0.01520347,-0.01101038,-0.4284329,-0.1466718,-0.04370324,0.5347587,1.184518,-0.01,0,0,95.52
4620,102127266,0,-0.39,0.53,12.46,0.01541651,-0.01117206,-0.4267657,-0.1359326,-0.04380093,0.5345895000000001,1.1842,-0.01,0,0,95.52
4665,102137256,0,-0.39,0.53,12.46,0.01554164,-0.01133964,-0.4253243,-0.1267384,-0.04388481,0.5344225,1.183728,-0.01,0,0,95.52
4709,102147230,0,-0.39,0.53,12.46,0.01567252,-0.01127836,-0.4238419,-0.1210428,-0.04395578,0.534259,1.18312,-0.01,0,0,95.52
4758,102160509,0,-0.39,0.53,12.45,0.01620361,-0.01128547,-0.4224409,-0.1151611,-0.04396552,0.5340658,1.181066,-0.01,0,0,95.52
4802,102171383,0,-0.39,0.53,12.45,0.0162737,-0.01140509,-0.4212422,-0.1111469,-0.04399227,0.5338981,1.179716,-0.01,0,0,95.52
4848,102182420,0,-0.39,0.53,12.45,0.01605397,-0.0115979,-0.4201341,-0.1079859,-0.04400849,0.5337319,1.178228,-0.01,0,0,95.52
4893,102192770,0,-0.39,0.54,12.45,0.0162786,-0.01181067,-0.4189547,-0.1090443,-0.04401546,0.5335671,1.17662,-0.01,0,0,95.52
4938,102203732,0,-0.39,0.54,12.45,0.01664764,-0.0118942,-0.4188482,-0.1098009,-0.04385119,0.5334486000000001,1.172436,-0.01,0,0,95.52
4983,102213753,0,-0.39,0.54,12.45,0.01680411,-0.01195908,-0.4176453,-0.1134437,-0.04385959,0.5332955,1.171142,-0.01,0,0,95.52
5031,102223635,0,-0.39,0.54,12.45,0.01689064,-0.01195371,-0.4166804,-0.1197894,-0.04385851,0.5331448,1.169734,-0.01,0,0,95.52
5077,102233936,0,-0.39,0.54,12.45,0.01703623,-0.01192415,-0.4157729,-0.1269838,-0.04384824,0.5329971999999999,1.168211,-0.01,0,0,95.52
5124,102249875,0,-0.39,0.54,12.45,0.01715379,-0.01207902,-0.4133827,-0.1312029,-0.04407658,0.53276,1.166399,-0.01,0,0,95.52
5169,102260527,0,-0.39,0.54,12.46,0.01724289,-0.01202278,-0.4111897,-0.1221072,-0.04438393,0.5325965,1.166855,-0.01,0,0,95.52
5214,102270272,0,-0.39,0.54,12.46,0.01735453,-0.01191623,-0.4093266,-0.1154248,-0.04470345,0.5324607,1.167936,-0.01,0,0,95.52
5259,102280822,0,-0.39,0.54,12.46,0.01730016,-0.01188848,-0.4075013,-0.1058029,-0.04496856,0.5323042,1.168011,-0.01,0,0,95.52
5304,102291249,0,-0.39,0.54,12.46,0.0175154,-0.01194564,-0.4074643,-0.09334671999999999,-0.04479496,0.532185,1.163941,-0.01,0,0,95.52
5349,102301275,0,-0.39,0.54,12.46,0.01746334,-0.01210221,-0.4057846,-0.08338129,-0.04506024,0.5320414999999999,1.164265,-0.01,0,0,95.52
5393,102311195,0,-0.39,0.54,12.46,0.01746383,-0.01217356,-0.4041872,-0.07446754999999999,-0.04530764,0.5318992,1.164411,-0.01,0,0,95.52
5442,102321167,0,-0.39,0.54,12.46,0.01751218,-0.01235057,-0.4027228,-0.06924355,-0.04553738,0.531758,1.164394,-0.01,0,0,95.52
5486,102332114,0,-0.39,0.54,12.46,0.01762891,-0.0123246,-0.4012548,-0.06196935,-0.04573184,0.5316052999999999,1.163806,-0.01,0,0,95.52
5531,102342764,0,-0.39,0.54,12.46,0.01776377,-0.01227685,-0.3996684,-0.05895531,-0.04591003,0.5314557,1.163075,-0.01,0,0,95.52
5576,102353183,0,-0.39,0.54,12.46,0.01792694,-0.01232036,-0.3994233,-0.05561534,-0.0457318,0.5313328,1.159083,-0.01,0,0,95.52
5620,102363284,0,-0.39,0.54,12.46,0.0176818,-0.01245887,-0.3981434,-0.05595347,-0.04591338,0.5311962,1.158623,-0.01,0,0,95.52
5666,102373282,0,-0.39,0.54,12.46,0.01756671,-0.01243406,-0.3967556,-0.05734449,-0.0460828,0.5310603,1.158203,-0.01,0,0,95.52
5710,102383332,0,-0.39,0.54,12.46,0.01764386,-0.01256415,-0.3953705,-0.06474066000000001,-0.04623982,0.5309253,1.157656,-0.01,0,0,95.52
5755,102394084,0,-0.39,0.54,12.46,0.01759745,-0.01261557,-0.3942088,-0.06982995,-0.04636551,0.5307786,1.156569,-0.01,0,0,95.52
5799,102404857,0,-0.39,0.54,12.46,0.0177669,-0.01255523,-0.3940506,-0.07286974,-0.04618877,0.5306528,1.152632,-0.01,0,0,95.52
5844,102414734,0,-0.39,0.54,12.46,0.0175977,-0.01261344,-0.3929727,-0.07832385,-0.04631967,0.5305197,1.151821,-0.01,0,0,95.52
5893,102424708,0,-0.39,0.54,12.47,0.01741163,-0.01260242,-0.3919686,-0.08451203,-0.04643999,0.5303875,1.150879,-0.01,0,0,95.52
5937,102434753,0,-0.39,0.54,12.47,0.01732022,-0.01269019,-0.3911076,-0.09298676,-0.04654985,0.5302567,1.149815,-0.01,0,0,95.52
5984,102444547,0,-0.39,0.54,12.47,0.01728578,-0.01280639,-0.390062,-0.1016744,-0.04664841,0.5301257,1.14863,-0.01,0,0,95.52
6025,102458868,0,-0.4,0.54,12.47,0.01744339,-0.01264007,-0.3877423,-0.1071115,-0.04689414,0.5299445,1.148224,-0.01,0,0,95.52
6068,102469512,0,-0.4,0.54,12.47,0.01730881,-0.01259813,-0.3857237,-0.1016544,-0.04720501,0.5298284,1.149604,-0.01,0,0,95.52
6111,102479275,0,-0.4,0.54,12.47,0.01698672,-0.01255707,-0.3841121,-0.09280918000000001,-0.04749793,0.5297145,1.150775,-0.01,0,0,95.52
6154,102489723,0,-0.4,0.54,12.47,0.01680294,-0.01268767,-0.382255,-0.07653487,-0.04775587,0.5295885,1.151348,-0.01,0,0,95.52
6197,102500057,0,-0.4,0.55,12.47,0.01699178,-0.01275369,-0.3821318,-0.05938521,-0.04758691,0.5294613,1.147531,-0.01,0,0,95.52
6242,102510028,0,-0.39,0.55,12.47,0.01703321,-0.01264397,-0.3802268,-0.04948006,-0.04784665,0.5293482,1.148337,-0.01,0,0,95.52
6285,102520397,0,-0.39,0.55,12.47,0.01696973,-0.01258131,-0.3784885,-0.03872209,-0.04808705,0.5292372,1.148947,-0.01,0,0,95.52
6331,102530455,0,-0.39,0.55,12.47,0.01702028,-0.01272221,-0.3768695,-0.03016679,-0.04831023,0.5291264,1.149381,-0.01,0,0,95.52
6374,102540855,0,-0.39,0.55,12.47,0.01726346,-0.01275797,-0.3756466,-0.02461734,-0.04849904,0.5290028,1.149275,-0.01,0,0,95.52
6417,102551237,0,-0.39,0.55,12.47,0.01753213,-0.01275064,-0.3753842,-0.01847321,-0.04832504,0.5288754,1.145524,-0.01,0,0,95.52
6460,102561163,0,-0.39,0.55,12.47,0.01747723,-0.01277867,-0.3738073,-0.01618361,-0.04851339,0.5287654000000001,1.14565,-0.01,0,0,95.52
6503,102571160,0,-0.39,0.55,12.47,0.01765334,-0.01294285,-0.3726375,-0.01620163,-0.04868591,0.5286551,1.145571,-0.01,0,0,95.52
6549,102584016,0,-0.39,0.55,12.47,0.01780055,-0.01303184,-0.3712705,-0.01957817,-0.04878864,0.528505,1.144233,-0.01,0,0,95.52
6592,102593946,0,-0.39,0.54,12.47,0.01780037,-0.01308469,-0.369939,-0.0287809,-0.04893207,0.5283934,1.143886,-0.01,0,0,95.52
6635,102604389,0,-0.39,0.54,12.48,0.0177959,-0.01315825,-0.3699538,-0.03495681,-0.04875465,0.5282621,1.140191,-0.01,0,0,95.52
6677,102614274,0,-0.39,0.54,12.48,0.01790102,-0.01319002,-0.3686477,-0.04261376,-0.04888648,0.5281506,1.139723,-0.01,0,0,95.52
6720,102624247,0,-0.39,0.54,12.48,0.01799203,-0.01314375,-0.3676217,-0.05072711,-0.04900297,0.5280397999999999,1.139118,-0.01,0,0,95.52
6766,102634188,0,-0.39,0.54,12.48,0.0179814,-0.0131176,-0.3666132,-0.06066296,-0.0491066,0.5279295000000001,1.138388,-0.01,0,0,95.52
6809,102644783,0,-0.39,0.54,12.48,0.01785114,-0.01296351,-0.3659357,-0.07100887,-0.04919844,0.5278205,1.137531,-0.01,0,0,95.52
6853,102658233,0,-0.39,0.54,12.48,0.01758106,-0.0127828,-0.3640747,-0.07681936,-0.04956204,0.5277563,1.137719,-0.01,0,0,95.52
6893,102668807,0,-0.39,0.54,12.47,0.01738239,-0.01276735,-0.3622653,-0.07078151000000001,-0.04995505,0.5277303,1.138753,-0.01,0,0,95.52
6934,102678868,0,-0.39,0.54,12.47,0.01733365,-0.01269356,-0.3603551,-0.06517276,-0.050343,0.5277152000000001,1.139955,-0.01,0,0,95.52
6978,102689250,0,-0.39,0.54,12.47,0.01731394,-0.01291243,-0.3604654,-0.05359407,-0.05016991,0.5275869,1.136355,-0.01,0,0,95.52
7023,102699231,0,-0.39,0.54,12.47,0.01707825,-0.01274759,-0.3587299,-0.04361789,-0.05054135,0.5275714,1.137387,-0.01,0,0,95.52
7069,102709259,0,-0.39,0.54,12.47,0.01703645,-0.0126434,-0.357025,-0.03408112,-0.05089192,0.5275551000000001,1.138232,-0.01,0,0,95.52
7113,102719745,0,-0.39,0.54,12.47,0.01704036,-0.01238883,-0.3554893,-0.02286983,-0.05120292,0.5275261999999999,1.138531,-0.01,0,0,95.52
7161,102729682,0,-0.39,0.54,12.47,0.01684272,-0.01239523,-0.3541055,-0.01541236,-0.05151162,0.5275096,1.139014,-0.01,0,0,95.52
7206,102739629,0,-0.39,0.54,12.47,0.01674805,-0.01226239,-0.3527503,-0.01256033,-0.05180363,0.5274908,1.139338,-0.01,0,0,95.52
7252,102750097,0,-0.39,0.54,12.47,0.0171561,-0.01239153,-0.3530383,-0.008323443,-0.05163405,0.5273682,1.135814,-0.01,0,0,95.52
7296,102760655,0,-0.39,0.54,12.47,0.01717577,-0.01243566,-0.3517981,-0.007645517,-0.05188918,0.5273364,1.135642,-0.01,0,0,95.52
7341,102770709,0,-0.39,0.55,12.47,0.01726729,-0.01227348,-0.3505815,-0.009938529,-0.05214275,0.5273148,1.135673,-0.01,0,0,95.52
7382,102780758,0,-0.39,0.55,12.47,0.01754197,-0.0122652,-0.3493096,-0.01337109,-0.0523774,0.5272925000000001,1.135636,-0.01,0,0,95.52
7427,102790961,0,-0.39,0.55,12.47,0.01752515,-0.01203325,-0.3480715,-0.01970599,-0.05259455,0.5272697,1.135462,-0.01,0,0,95.52
7474,102801752,0,-0.39,0.55,12.47,0.01759056,-0.01204784,-0.3478732,-0.02350433,-0.05241914,0.5271495,1.131987,-0.01,0,0,95.52
7519,102811391,0,-0.39,0.55,12.47,0.01738787,-0.01201556,-0.3466233,-0.02954954,-0.05262366,0.5271271,1.131697,-0.01,0,0,95.52
7564,102821390,0,-0.39,0.55,12.47,0.01746349,-0.01145647,-0.3455814,-0.03641228,-0.05281229,0.5271046,1.131266,-0.01,0,0,95.52
7611,102831386,0,-0.39,0.55,12.47,0.01733773,-0.01133967,-0.3446908,-0.04554281,-0.05298556,0.5270829,1.130713,-0.01,0,0,95.52
7656,102845962,0,-0.38,0.55,12.47,0.01748446,-0.01152824,-0.3422538,-0.0488902,-0.05335126,0.5269867,1.130538,-0.01,0,0,95.52
7701,102855913,0,-0.38,0.55,12.48,0.01732861,-0.01143379,-0.3408584,-0.04398824,-0.05377903,0.5269492,1.131873,-0.01,0,0,95.52
7746,102866773,0,-0.37,0.55,12.48,0.0166604,-0.01093979,-0.3397057,-0.03425331,-0.05416896,0.5268986,1.132668,-0.01,0,0,95.52
7791,102876718,0,-0.38,0.55,12.49,0.01631138,-0.009175796999999999,-0.3384887,-0.02560515,-0.05455666,0.5268574,1.133765,-0.01,0,0,95.52
7835,102887154,0,-0.4,0.55,12.48,0.01655766,-0.009163309,-0.3358039,-0.01853361,-0.05492271,0.5268145,1.134686,-0.01,0,0,95.52
7880,102897756,0,-0.4,0.55,12.47,0.01705452,-0.009358451,-0.3337704,-0.008693826999999999,-0.05525169,0.5267615,1.135094,-0.01,0,0,95.52
7926,102908309,0,-0.4,0.55,12.46,0.01691361,-0.01111284,-0.330714,0.001966791,-0.05557784,0.5267207,1.135656,-0.01,0,0,95.52
7971,102919037,0,-0.39,0.55,12.45,0.0173652,-0.0115227,-0.3305585,0.01010652,-0.05586524,0.5266669,1.135724,-0.01,0,0,95.52
8017,102929276,0,-0.38,0.55,12.44,0.01680302,-0.01122088,-0.3313156,0.01621851,-0.0557004,0.5265570000000001,1.132425,-0.01,0,0,95.52
8065,102939277,0,-0.39,0.54,12.43,0.01640851,-0.01105752,-0.3292969,0.01896001,-0.05598147,0.5265105,1.132694,-0.01,0,0,95.52
8110,102949276,0,-0.4,0.54,12.43,0.01639589,-0.01166856,-0.32651,0.01829357,-0.0562484,0.5264635,1.132813,-0.01,0,0,95.52
8155,102959471,0,-0.39,0.54,12.42,0.01630016,-0.01252675,-0.3264244,0.01298872,-0.0564988,0.526417,1.132791,-0.01,0,0,95.52
8200,102969749,0,-0.39,0.55,12.43,0.01607889,-0.01195461,-0.3261165,0.004879869,-0.05671649,0.5263597,1.132456,-0.01,0,0,95.52
8245,102980798,0,-0.39,0.55,12.44,0.01606429,-0.01122259,-0.3247305,-0.0009769075999999999,-0.05691862,0.5263072,1.131983,-0.01,0,0,95.52
8291,102991707,0,-0.39,0.54,12.45,0.01660637,-0.01114696,-0.3229926,-0.006120458,-0.05710313,0.5262609,1.131376,-0.01,0,0,95.52
8338,103002441,0,-0.38,0.54,12.46,0.01693693,-0.0103194,-0.3236558,-0.01186169,-0.05693844,0.5261648,1.12814,-0.01,0,0,95.52
8382,103012632,0,-0.38,0.54,12.48,0.0161107,-0.009524257,-0.3222993,-0.02021538,-0.05712259,0.5261284000000001,1.127748,-0.01,0,0,95.52
8429,103023009,0,-0.39,0.55,12.48,0.01479281,-0.01030858,-0.321932,-0.03270979,-0.05726723,0.526067,1.126595,-0.01,0,0,95.52
8474,103033482,0,-0.39,0.55,12.48,0.01448362,-0.01166228,-0.3209385,-0.04426154,-0.0574343,0.5260172,1.125978,-0.01,0,0,95.52
8523,103043849,0,-0.38,0.55,12.48,0.01540163,-0.0117886,-0.3204919,-0.05545274,-0.05727908,0.5259073,1.122777,-0.01,0,0,95.52
8567,103054600,0,-0.38,0.54,12.47,0.01641979,-0.01016501,-0.3204822,-0.06939549,-0.057406,0.5258455,1.121759,-0.01,0,0,95.52
8609,103064893,0,-0.39,0.54,12.46,0.0154245,-0.009061252000000001,-0.318537,-0.071599,-0.05791412,0.5260550000000001,1.123084,-0.01,0,0,95.52
8654,103074797,0,-0.39,0.55,12.44,0.01434636,-0.009933599,-0.3156227,-0.06786336,-0.05842886,0.5262644,1.124548,-0.01,0,0,95.52
8701,103088046,0,-0.39,0.54,12.43,0.01522937,-0.009142061,-0.3150606,-0.05901319,-0.05887848,0.5264363,1.125011,-0.01,0,0,95.52
8746,103098066,0,-0.38,0.55,12.43,0.0152356,-0.008898398,-0.3140204,-0.05152081,-0.05933863,0.5266379,1.126229,-0.01,0,0,95.52
8791,103108042,0,-0.39,0.55,12.42,0.01412884,-0.00982503,-0.3096231,-0.04211815,-0.0597804,0.526825,1.127289,-0.01,0,0,95.52
8836,103118773,0,-0.39,0.55,12.42,0.01447945,-0.008381774999999999,-0.3106825,-0.0335227,-0.0601902,0.5269932000000001,1.127861,-0.01,0,0,95.52
8882,103128781,0,-0.39,0.55,12.42,0.01565681,-0.006304099,-0.3123684,-0.02394594,-0.0600395,0.5269195,1.124747,-0.01,0,0,95.52
8926,103138899,0,-0.38,0.55,12.43,0.01392263,-0.00625486,-0.3071957,-0.01078874,-0.06043124,0.527127,1.125472,-0.01,0,0,95.52
8975,103148776,0,-0.37,0.54,12.44,0.01233859,-0.007434761,-0.3071891,-0.006581723,-0.06082433,0.527321,1.126053,-0.01,0,0,95.52
9019,103158794,0,-0.37,0.5600000000000001,12.45,0.01373711,-0.009257636,-0.3078902,-0.00491258,-0.06120201,0.5274958,1.126452,-0.01,0,0,95.52
9065,103168830,0,-0.38,0.55,12.46,0.01723302,-0.007748193,-0.3050324,-0.003420866,-0.06152804,0.5276529,1.126742,-0.01,0,0,95.52
9110,103179243,0,-0.39,0.54,12.47,0.01471527,-0.002906949,-0.3050233,-0.001963463,-0.06135749,0.527595,1.123699,-0.01,0,0,95.52
9157,103192048,0,-0.37,0.55,12.46,0.01067859,-0.004067891,-0.3051849,-0.005422927,-0.06166742,0.5277987,1.123168,-0.01,0,0,95.52
9202,103202431,0,-0.37,0.5600000000000001,12.47,0.01290111,-0.009659062,-0.3013785,-0.004816255,-0.06199782,0.5279648,1.123413,-0.01,0,0,95.52
9247,103212690,0,-0.38,0.5600000000000001,12.45,0.01608001,-0.0087892,-0.3006396,-0.01207331,-0.06226547,0.5280889,1.123276,-0.01,0,0,95.52
9292,103222691,0,-0.38,0.55,12.46,0.01282976,-0.0017628,-0.3012284,-0.02148201,-0.06252377000000001,0.5282632,1.123267,-0.01,0,0,95.52
9337,103233175,0,-0.37,0.55,12.43,0.01023294,-0.00295037,-0.2961463,-0.02103291,-0.06240939,0.5282487,1.120297,-0.01,0,0,95.52
9381,103243160,0,-0.35,0.55,12.43,0.01372543,-0.007568232,-0.3013115,-0.03300003,-0.06268899999999999,0.5284215,1.120189,-0.01,0,0,95.52
9432,103253841,0,-0.38,0.54,12.41,0.01531547,-0.009943298,-0.2945063,-0.03461155,-0.06290713000000001,0.5285373,1.119681,-0.01,0,0,95.52
9470,103264758,0,-0.39,0.54,12.41,0.01295328,-0.001792187,-0.2984303,-0.04511567,-0.06333370000000001,0.5287434,1.121366,-0.01,0,0,95.52
9516,103274860,0,-0.36,0.54,12.41,0.00974418,-0.002127799,-0.2925428,-0.04102076,-0.06378764000000001,0.5289997,1.123179,-0.01,0,0,95.52
9561,103285220,0,-0.35,0.55,12.4,0.01442317,-0.007415371,-0.2981028,-0.03759525,-0.06366608999999999,0.5289535,1.120222,-0.01,0,0,95.52
9605,103295266,0,-0.38,0.53,12.41,0.01643575,-0.01023522,-0.289506,-0.02119107,-0.06404561,0.5291252,1.121858,-0.01,0,0,95.52
9649,103305770,0,-0.39,0.53,12.42,0.01320678,-0.0004927537,-0.2938041,-0.01471269,-0.06439489,0.5293189,1.123186,-0.01,0,0,95.52
9694,103315835,0,-0.36,0.53,12.43,0.009205869,-0.0004672623,-0.287499,-0.006647483,-0.06478935,0.5295773,1.124661,-0.01,0,0,95.52
9738,103326543,0,-0.35,0.55,12.43,0.01435301,-0.006879719,-0.2902493,-0.0004634153,-0.06467468,0.5295423,1.121776,-0.01,0,0,95.52
9785,103336663,0,-0.38,0.54,12.44,0.01619061,-0.01021563,-0.2855284,0.01022786,-0.06499653,0.5296978,1.12311,-0.01,0,0,95.52
9829,103346750,0,-0.39,0.55,12.45,0.01276354,-0.001204922,-0.2868653,0.01455433,-0.0653083,0.5298743,1.124233,-0.01,0,0,95.52
9878,103356674,0,-0.36,0.55,12.45,0.009118466,0.0008056205,-0.2840405,0.02459561,-0.06563537999999999,0.5301207999999999,1.124918,-0.01,0,0,95.52
9922,103366851,0,-0.36,0.5600000000000001,12.44,0.01564577,-0.003936119,-0.2831342,0.02445829,-0.06593607999999999,0.5303302,1.125732,-0.01,0,0,95.52
9967,103377331,0,-0.38,0.54,12.44,0.01603753,-0.007404152,-0.2848548,0.02568776,-0.06577064000000001,0.5302612,1.122927,-0.01,0,0,95.52
10012,103387320,0,-0.4,0.55,12.44,0.01096114,0.0003297986,-0.2814837,0.02830723,-0.06603748,0.5304373,1.123583,-0.01,0,0,95.52
10053,103397280,0,-0.36,0.55,12.43,0.007988731000000001,0.001570756,-0.2819208,0.02600564,-0.06633708000000001,0.5306679,1.124083,-0.01,0,0,95.52
10102,103410048,0,-0.36,0.54,12.42,0.01675245,-0.004469543,-0.2739067,0.02936506,-0.06653599,0.530859,1.123585,-0.01,0,0,95.52
10146,103419755,0,-0.37,0.55,12.4,0.01402326,-0.004249595,-0.2806202,0.01754571,-0.06672109,0.5310041,1.123804,-0.01,0,0,95.52
10191,103430428,0,-0.38,0.53,12.41,0.008238659000000001,0.003777318,-0.2716226,0.02175407,-0.06693012,0.5312011,1.123606,-0.01,0,0,95.52
10234,103444431,0,-0.35,0.55,12.39,0.01593509,-1.80417e-05,-0.2749989,0.01799669,-0.06748617,0.5313116,1.12449,-0.01,0,0,95.52
10284,103454614,0,-0.35,0.52,12.4,0.01831985,-0.00464006,-0.2713545,0.02018094,-0.06797076000000001,0.5313634,1.12606,-0.01,0,0,95.52
10328,103464944,0,-0.38,0.53,12.4,0.01034384,0.0001764139,-0.2714659,0.02015674,-0.06844051,0.5314057,1.127136,-0.01,0,0,95.52
10374,103475617,0,-0.35,0.53,12.41,0.007190357,0.00181292,-0.2712082,0.02574156,-0.06835885,0.5314261,1.124458,-0.01,0,0,95.52
10419,103485532,0,-0.35,0.55,12.41,0.01594522,-0.0004228958,-0.2671518,0.03219235,-0.06884024,0.5315115,1.125666,-0.01,0,0,95.52
10462,103495678,0,-0.34,0.54,12.42,0.01323493,-0.002674343,-0.2706746,0.03165694,-0.06922159999999999,0.5315658,1.126625,-0.01,0,0,95.52
10507,103505779,0,-0.37,0.54,12.43,0.005451917,0.0004529867,-0.2632947,0.04261558,-0.06964822,0.5316278,1.127636,-0.01,0,0,95.52
10552,103516284,0,-0.33,0.5600000000000001,12.44,0.005240019,-0.0007260207,-0.2672473,0.03888342,-0.070104,0.5317063,1.128524,-0.01,0,0,95.52
10597,103526260,0,-0.35,0.55,12.43,0.01501407,-0.002470361,-0.2591931,0.0458504,-0.07047439,0.5317587,1.12924,-0.01,0,0,95.52
10641,103536798,0,-0.35,0.5600000000000001,12.43,0.01287926,-0.001602328,-0.26556,0.0396427,-0.07077382,0.531798,1.129546,-0.01,0,0,95.52
10686,103547695,0,-0.36,0.54,12.42,0.006692857,0.001743195,-0.2565997,0.04961647,-0.07067937000000001,0.531805,1.126934,-0.01,0,0,95.52
10739,103559886,0,-0.35,0.55,12.42,0.01570682,-0.001783405,-0.2600748,0.04092537,-0.07102859,0.5318677000000001,1.126597,-0.01,0,0,95.52
10783,103569843,0,-0.35,0.52,12.41,0.01568408,-0.002308069,-0.2607524,0.03581702,-0.07130771,0.5319073,1.12695,-0.01,0,0,95.52
10828,103580802,0,-0.37,0.53,12.4,0.005392511,0.001871316,-0.2573179,0.03385764,-0.07160203,0.5319541,1.126853,-0.01,0,0,95.52
10872,103590742,0,-0.34,0.54,12.4,0.004325772,0.000729199,-0.2601637,0.02346562,-0.07195789,0.5320154,1.126941,-0.01,0,0,95.52
10917,103601040,0,-0.36,0.55,12.4,0.01462662,-0.0006862583999999999,-0.2529284,0.02239629,-0.07223018,0.5320526,1.127105,-0.01,0,0,95.52
10962,103611106,0,-0.35,0.54,12.4,0.01217809,0.002113392,-0.261191,0.004119396,-0.07244211,0.5320881,1.127175,-0.01,0,0,95.52
11007,103621655,0,-0.36,0.54,12.4,0.004351105,0.004005378,-0.2500152,0.006685486,-0.07269676999999999,0.5321538,1.126841,-0.01,0,0,95.52
11052,103632529,0,-0.34,0.55,12.41,0.009688578,-0.001824886,-0.2550695,-0.004475327,-0.07264671,0.5321628,1.124306,-0.01,0,0,95.52
11101,103645022,0,-0.36,0.54,12.42,0.01577166,-0.002790257,-0.2507434,-0.0117391,-0.07279611,0.532188,1.123407,-0.01,0,0,95.52
11151,103660217,0,-0.37,0.54,12.42,0.004142709,0.0054323,-0.2454895,-0.008606799,-0.07395785000000001,0.5324479,1.127919,-0.01,0,0,95.52
11194,103670101,0,-0.34,0.55,12.43,0.009686787000000001,0.0003920644,-0.2472345,-0.007832550000000001,-0.07451814,0.5325854,1.129287,-0.01,0,0,95.52
11238,103680791,0,-0.34,0.54,12.43,0.01608009,-6.901822e-05,-0.2441802,0.003838352,-0.0743611,0.5325913,1.126586,-0.01,0,0,95.52
11280,103690811,0,-0.35,0.53,12.42,0.008015223,0.002081542,-0.2466283,0.007282014,-0.07482295,0.5327157,1.127797,-0.01,0,0,95.52
11323,103700726,0,-0.34,0.54,12.43,0.002550291,0.002546341,-0.2436107,0.01413878,-0.07533810000000001,0.5328594,1.128892,-0.01,0,0,95.52
11369,103713436,0,-0.36,0.55,12.42,0.01532615,-0.0007758855,-0.2417537,0.02052054,-0.0757747,0.5329663,1.129326,-0.01,0,0,95.52
11411,103723891,0,-0.36,0.55,12.43,0.01375434,0.001043961,-0.2461599,0.01698976,-0.07613729,0.5330706,1.130119,-0.01,0,0,95.52
11454,103734045,0,-0.35,0.53,12.4,0.005013483,0.006580991,-0.2407851,0.0217372,-0.07653762,0.5331993,1.13053,-0.01,0,0,95.52
11496,103744625,0,-0.33,0.55,12.41,0.009128618999999999,0.002777183,-0.243658,0.02043737,-0.07649246,0.5332355,1.128119,-0.01,0,0,95.52
11540,103754504,0,-0.33,0.52,12.4,0.01798882,0.002908329,-0.2380615,0.0242905,-0.07683442,0.5333303,1.128677,-0.01,0,0,95.52
11586,103764531,0,-0.35,0.53,12.4,0.01081882,0.004481077,-0.2416749,0.01802225,-0.07714939,0.5334343,1.12909,-0.01,0,0,95.52
11629,103774621,0,-0.33,0.52,12.4,0.003087925,0.006055231,-0.2356015,0.01909176,-0.07752649,0.533554,1.1294,-0.01,0,0,95.52
11672,103784884,0,-0.34,0.54,12.4,0.01052227,-0.00137537,-0.233985,0.01403803,-0.07788048,0.5336587,1.12935,-0.01,0,0,95.52
11715,103795186,0,-0.34,0.54,12.41,0.01370222,0.0005954165,-0.2339728,0.009252599,-0.07812893,0.533744,1.129433,-0.01,0,0,95.52
11759,103805745,0,-0.35,0.53,12.4,0.004511531,0.002910494,-0.2348929,0.005317588,-0.07801742,0.5337692000000001,1.127074,-0.01,0,0,95.52
11801,103815699,0,-0.34,0.5600000000000001,12.42,0.002209897,0.002023398,-0.234251,4.205829e-05,-0.07836039,0.5338939,1.12701,-0.01,0,0,95.52
11844,103825748,0,-0.36,0.55,12.41,0.01157229,-0.002406983,-0.2312113,-0.0002265943,-0.07865285,0.533977,1.127284,-0.01,0,0,95.52
11886,103835739,0,-0.36,0.55,12.43,0.01192343,0.0001844484,-0.2313814,-0.008383194,-0.07886405,0.5340605,1.12724,-0.01,0,0,95.52
11931,103846016,0,-0.36,0.53,12.41,0.004181759,0.002959356,-0.2311343,-0.01727868,-0.07912039999999999,0.5341691,1.126851,-0.01,0,0,95.52
11970,103860012,0,-0.33,0.55,12.43,0.008403749,0.002432525,-0.2299254,-0.02228465,-0.07934392,0.5343153,1.127585,-0.01,0,0,95.52
12020,103870289,0,-0.33,0.53,12.43,0.0132201,0.004934649,-0.2288982,-0.01967005,-0.07947100999999999,0.5344244,1.129077,-0.01,0,0,95.52
12065,103880263,0,-0.34,0.54,12.41,0.003946421,0.006786273,-0.2270212,-0.01389491,-0.07961649,0.5345553,1.130397,-0.01,0,0,95.52
12110,103890837,0,-0.33,0.5600000000000001,12.42,0.002967551,0.004661749,-0.2253219,-0.003587798,-0.07981563,0.5347009,1.131331,-0.01,0,0,95.52
12155,103901499,0,-0.33,0.54,12.4,0.01363166,-0.0001108052,-0.2227757,0.009614101,-0.07973529,0.5347269,1.129085,-0.01,0,0,95.52
12199,103912079,0,-0.36,0.55,12.41,0.01250222,0.002714648,-0.2232081,0.01573,-0.07979840000000001,0.5348479,1.130138,-0.01,0,0,95.52
12246,103922301,0,-0.35,0.53,12.38,0.005194185,0.003785777,-0.2215627,0.02451208,-0.07993444,0.5349848,1.131246,-0.01,0,0,95.52
12290,103932845,0,-0.34,0.57,12.41,0.01008052,0.00334608,-0.2225125,0.0307826,-0.08006248000000001,0.5351266,1.131771,-0.01,0,0,95.52
12335,103942781,0,-0.35,0.53,12.39,0.0165761,0.00554928,-0.2230887,0.03263987,-0.08010121000000001,0.5352234,1.132614,-0.01,0,0,95.52
12380,103952790,0,-0.35,0.5600000000000001,12.4,0.007278649,0.008235029,-0.2215715,0.03361734,-0.08014341,0.535348,1.133324,-0.01,0,0,95.52
12424,103963462,0,-0.35,0.55,12.39,0.004283465,0.008495394999999999,-0.2221283,0.03508284,-0.08008954,0.5354061,1.131122,-0.01,0,0,95.52
12473,103973452,0,-0.34,0.5600000000000001,12.41,0.01307379,0.003331175,-0.2182781,0.03757115,-0.08015923,0.5355124,1.131735,-0.01,0,0,95.52
12518,103983860,0,-0.35,0.54,12.42,0.016822,0.00664027,-0.2166895,0.03556648,-0.08012087,0.5356090999999999,1.132004,-0.01,0,0,95.52
12565,103994256,0,-0.33,0.54,12.41,0.007376976,0.006812778,-0.2160135,0.03080057,-0.08014715,0.5357394,1.132378,-0.01,0,0,95.52
12610,104004178,0,-0.32,0.55,12.42,0.008785415,0.004035235,-0.2136025,0.02721282,-0.08021004,0.5358624,1.132787,-0.01,0,0,95.52
12655,104014745,0,-0.33,0.53,12.42,0.01898753,-0.0003693844,-0.2143668,0.02203325,-0.08018332,0.5359488,1.132871,-0.01,0,0,95.52
12701,104025645,0,-0.35,0.53,12.43,0.01409563,0.004065969,-0.2120681,0.02180793,-0.08001263,0.5359921,1.130732,-0.01,0,0,95.52
12747,104035667,0,-0.34,0.53,12.4,0.007054942,0.003998414,-0.2139015,0.01488592,-0.08003613,0.5361208,1.130906,-0.01,0,0,95.52
12786,104046303,0,-0.34,0.55,12.42,0.01149244,0.002331424,-0.2115961,0.01467718,-0.08065719,0.5361987,1.132305,-0.01,0,0,95.52
12832,104056311,0,-0.36,0.54,12.4,0.0174588,0.005060919,-0.2113929,0.01732552,-0.0811785,0.5362409,1.133732,-0.01,0,0,95.52
12877,104066903,0,-0.35,0.54,12.4,0.006768992,0.01042408,-0.2122624,0.02228943,-0.08167964,0.5363348999999999,1.134802,-0.01,0,0,95.52
12925,104076884,0,-0.34,0.55,12.39,0.004010498,0.009833438,-0.2079578,0.03127603,-0.08225092000000001,0.5364292000000001,1.135922,-0.01,0,0,95.52
12970,104086867,0,-0.33,0.54,12.4,0.01204873,0.00524983,-0.2066493,0.03458545,-0.08276649,0.536493,1.136939,-0.01,0,0,95.52
13015,104097335,0,-0.35,0.54,12.4,0.0138667,0.009386713,-0.2052207,0.04100935,-0.08261968,0.5365415,1.134881,-0.01,0,0,95.52
13060,104107569,0,-0.33,0.53,12.39,0.003960816,0.0108811,-0.2061547,0.04161357,-0.08310541,0.5366445,1.135777,-0.01,0,0,95.52
13105,104117774,0,-0.32,0.55,12.4,0.005364356,0.006665647,-0.2014296,0.0477371,-0.08361898,0.5367506,1.136618,-0.01,0,0,95.52
13149,104128691,0,-0.32,0.55,12.4,0.01408109,0.004228971,-0.2042789,0.04331881,-0.08403968000000001,0.5368107,1.137347,-0.01,0,0,95.52
13194,104138718,0,-0.34,0.53,12.41,0.008248096,0.008292533,-0.2006392,0.04349447,-0.08442663,0.5368912,1.13815,-0.01,0,0,95.52
13238,104148847,0,-0.32,0.55,12.4,0.001905545,0.006601524,-0.2025787,0.04149169,-0.08438419,0.5369759,1.136124,-0.01,0,0,95.52
13283,104158837,0,-0.33,0.54,12.42,0.008370424,0.002546797,-0.1978565,0.04363034,-0.08483296,0.5370521,1.136819,-0.01,0,0,95.52
13328,104169253,0,-0.32,0.5600000000000001,12.42,0.01378073,0.003998449,-0.2002358,0.03474807,-0.08518926,0.5371009,1.137408,-0.01,0,0,95.52
13376,104179263,0,-0.34,0.53,12.42,0.005317202,0.007424569,-0.1979334,0.03091206,-0.08552969000000001,0.5371869,1.137892,-0.01,0,0,95.52
13421,104189264,0,-0.32,0.5600000000000001,12.41,0.001883776,0.005611252,-0.1980428,0.02772666,-0.08549281,0.5372691000000001,1.135903,-0.01,0,0,95.52
13442,104232442,0,-0.35,0.54,12.41,0.009303123,0.007150686,-0.1918363,0.009943830000000001,-0.08677530999999999,0.5375723,1.13673,-0.01,0,0,95.52
13486,104243856,0,-0.34,0.5600000000000001,12.41,0.01327768,0.005478391,-0.1942255,0.004364599,-0.08737002000000001,0.5374849,1.137862,-0.01,0,0,95.52
13528,104254541,0,-0.36,0.53,12.4,0.004544419,0.009935810999999999,-0.1924748,0.007743198,-0.08795703000000001,0.5374289,1.139232,-0.01,0,0,95.52
13572,104264674,0,-0.34,0.5600000000000001,12.39,0.0004835438,0.007672424,-0.1916187,0.01153456,-0.08860419999999999,0.5373914,1.140432,-0.01,0,0,95.52
13620,104274858,0,-0.36,0.55,12.41,0.01051953,0.003756101,-0.1895591,0.01997219,-0.08918121,0.5373302,1.141318,-0.01,0,0,95.52
13665,104285612,0,-0.36,0.55,12.41,0.01310702,0.0074254,-0.1880962,0.02904796,-0.08905417,0.5373905,1.139416,-0.01,0,0,95.52
13710,104295524,0,-0.35,0.55,12.4,0.002675564,0.01174681,-0.1901853,0.03109563,-0.08960314,0.5373766,1.14038,-0.01,0,0,95.52
13754,104305819,0,-0.35,0.54,12.4,0.00666281,0.008418017,-0.1847471,0.03874036,-0.09018257,0.5373694,1.141023,-0.01,0,0,95.52
13799,104316681,0,-0.34,0.5600000000000001,12.42,0.01270378,0.00657308,-0.1873939,0.03575527,-0.09067552,0.5373138,1.142004,-0.01,0,0,95.52
13844,104326832,0,-0.36,0.51,12.41,0.006683959,0.01194509,-0.1834902,0.03872667,-0.09111527,0.5372874,1.142675,-0.01,0,0,95.52
13890,104338021,0,-0.3,0.57,12.41,-0.002954615,0.01014795,-0.1859897,0.03666408,-0.09163365,0.5373011,1.143204,-0.01,0,0,95.52
13935,104348464,0,-0.32,0.53,12.4,0.004631402,0.004997096,-0.1815692,0.0428102,-0.09160838,0.5373718,1.14138,-0.01,0,0,95.52
13979,104358308,0,-0.32,0.57,12.42,0.008118584,0.005740426,-0.1838572,0.03929906,-0.09202912000000001,0.5373129,1.141994,-0.01,0,0,95.52
14024,104368789,0,-0.33,0.55,12.4,-0.000916753,0.009627347,-0.1810448,0.03887345,-0.09245481,0.5373014,1.142338,-0.01,0,0,95.52
14072,104379226,0,-0.33,0.58,12.4,-0.0006977976,0.004110149,-0.180701,0.03436111,-0.09294391,0.5372877,1.142739,-0.01,0,0,95.52
14118,104389172,0,-0.34,0.5600000000000001,12.4,0.008806585,0.0005845022,-0.1778765,0.03182875,-0.09335321000000001,0.5372274,1.143062,-0.01,0,0,95.52
14163,104399697,0,-0.37,0.55,12.4,0.008262525999999999,0.004100905,-0.1775947,0.02750909,-0.0936901,0.5371768,1.143076,-0.01,0,0,95.52
14207,104409870,0,-0.34,0.55,12.4,-0.001390684,0.007976980999999999,-0.1787881,0.02299358,-0.09367138,0.5372644,1.141296,-0.01,0,0,95.52
14253,104419784,0,-0.36,0.5600000000000001,12.39,0.002974598,0.003258374,-0.1770755,0.01987478,-0.09409736,0.537237,1.141401,-0.01,0,0,95.52
14297,104430817,0,-0.36,0.5600000000000001,12.41,0.008054611999999999,0.004402635,-0.1796795,0.0127409,-0.09441525000000001,0.5371852,1.141594,-0.01,0,0,95.52
14342,104440671,0,-0.38,0.54,12.39,0.003186005,0.009504584999999999,-0.1749432,0.01249684,-0.09472068,0.5371629,1.141843,-0.01,0,0,95.52
14385,104451451,0,-0.33,0.57,12.41,-0.003157924,0.01012942,-0.1785481,0.00569809,-0.09522565,0.5372823,1.143772,-0.01,0,0,95.52
14430,104464759,0,-0.33,0.54,12.41,0.008777386999999999,0.00262185,-0.1698402,0.02171376,-0.09565715,0.5373737,1.144837,-0.01,0,0,95.52
14476,104474777,0,-0.34,0.55,12.42,0.007095464,0.006032779,-0.1713276,0.02840279,-0.09602387,0.5374473,1.146425,-0.01,0,0,95.52
14526,104484707,0,-0.32,0.55,12.41,-0.002249835,0.01044665,-0.1704564,0.03726185,-0.09642555999999999,0.5375719,1.147893,-0.01,0,0,95.52
14570,104494897,0,-0.32,0.57,12.41,0.002413007,0.004364744,-0.1697757,0.04436425,-0.09642953,0.5376681,1.146164,-0.01,0,0,95.52
14614,104505021,0,-0.33,0.5600000000000001,12.43,0.008100784,0.003466155,-0.1701079,0.04939652,-0.09676944,0.5377368,1.147532,-0.01,0,0,95.52
14659,104515707,0,-0.35,0.55,12.42,0.005183051,0.007810943,-0.1658339,0.05936981,-0.09707997,0.53782,1.148725,-0.01,0,0,95.52
14703,104525697,0,-0.32,0.58,12.42,-0.002394272,0.01090934,-0.1700018,0.05869266,-0.09744252,0.5379477,1.150149,-0.01,0,0,95.52
14748,104535729,0,-0.34,0.54,12.4,0.005896252,0.006432925,-0.1634078,0.06838143000000001,-0.0977898,0.5380397,1.151428,-0.01,0,0,95.52
14793,104546379,0,-0.34,0.58,12.43,0.01055975,0.009844978000000001,-0.1688616,0.06765498,-0.09804265,0.5381097,1.152413,-0.01,0,0,95.52
14837,104557123,0,-0.35,0.51,12.39,0.004378602,0.01500051,-0.1632329,0.07751101000000001,-0.09829944,0.5382188999999999,1.153274,-0.01,0,0,95.52
14882,104567120,0,-0.33,0.57,12.4,0.001499442,0.009115977000000001,-0.1635774,0.07809190000000001,-0.09861875000000001,0.5383412,1.154158,-0.01,0,0,95.52
14928,104577691,0,-0.34,0.52,12.39,0.006680955,0.002493405,-0.1620455,0.0806661,-0.09886577000000001,0.5384148,1.15479,-0.01,0,0,95.52
14977,104588029,0,-0.36,0.54,12.41,0.004635546,0.004771425,-0.1587317,0.08483896,-0.09879757,0.5384679,1.153159,-0.01,0,0,95.52
15022,104597873,0,-0.35,0.54,12.39,-0.004398247,0.009227581,-0.1623445,0.07937097,-0.09905748,0.5385786,1.15385,-0.01,0,0,95.52
15066,104607864,0,-0.35,0.5600000000000001,12.39,-0.001215256,0.004315088,-0.1573747,0.07795399,-0.09934095,0.5386798,1.154431,-0.01,0,0,95.52
15111,104618313,0,-0.37,0.5600000000000001,12.41,0.003723291,0.004004864,-0.1610686,0.06811422,-0.09954752,0.5387425,1.154921,-0.01,0,0,95.52
15158,104631046,0,-0.37,0.53,12.4,0.003337688,0.01259307,-0.1557247,0.06609078,-0.09972433999999999,0.5388545,1.155123,-0.01,0,0,95.52
15203,104640828,0,-0.33,0.57,12.42,0.0007861959,0.009892094000000001,-0.1578169,0.05644317,-0.09997091,0.538977,1.155684,-0.01,0,0,95.52
15250,104651667,0,-0.33,0.52,12.4,0.00790913,0.003170048,-0.1549083,0.05310226,-0.1001628,0.5390547999999999,1.156017,-0.01,0,0,95.52
15292,104666108,0,-0.37,0.55,12.42,0.0003153395,0.009037561,-0.1508485,0.05275008,-0.1003851,0.5390703999999999,1.157045,-0.01,0,0,95.52
15337,104676633,0,-0.33,0.57,12.42,-0.00441488,0.01166165,-0.1551507,0.04859962,-0.1006737,0.5391236,1.158555,-0.01,0,0,95.52
15382,104686690,0,-0.33,0.55,12.4,0.005832303,0.006381527,-0.1492645,0.0554025,-0.1009359,0.5391529,1.159784,-0.01,0,0,95.52
15431,104696996,0,-0.34,0.57,12.42,0.008322814,0.007589765,-0.1541045,0.05474387,-0.10087,0.5392019,1.158262,-0.01,0,0,95.52
15477,104706995,0,-0.35,0.54,12.4,0.002509645,0.01200334,-0.1494305,0.06139362,-0.1010871,0.5392261,1.159536,-0.01,0,0,95.52
15521,104716868,0,-0.33,0.59,12.41,0.001036274,0.009456635999999999,-0.1511342,0.06128809,-0.1013431,0.5392805000000001,1.160666,-0.01,0,0,95.52
15566,104726870,0,-0.34,0.55,12.39,0.009380665,0.004273981,-0.1470665,0.06632201,-0.1015426,0.5392914,1.161842,-0.01,0,0,95.52
15610,104737514,0,-0.36,0.57,12.41,0.008236122,0.007610456,-0.1485409,0.06628315999999999,-0.1016824,0.5392945,1.162874,-0.01,0,0,95.52
15656,104747547,0,-0.36,0.54,12.39,0.001842101,0.01240454,-0.146751,0.06820850000000001,-0.1018531,0.5393461000000001,1.163817,-0.01,0,0,95.52
15700,104757844,0,-0.36,0.58,12.39,0.002045954,0.006919585,-0.1450633,0.07072046,-0.1020422,0.5394165,1.164478,-0.01,0,0,95.52
15745,104768299,0,-0.38,0.55,12.39,0.007829531000000001,0.004210075,-0.14629,0.07054958,-0.1019796,0.539475,1.16304,-0.01,0,0,95.52
15790,104778293,0,-0.37,0.5600000000000001,12.41,0.002394918,0.009402792,-0.1444668,0.0702866,-0.1020918,0.5394974,1.163763,-0.01,0,0,95.52
15834,104788228,0,-0.35,0.55,12.4,-0.003225891,0.01357315,-0.1458568,0.0628153,-0.1022543,0.5395682000000001,1.164425,-0.01,0,0,95.52
15883,104798786,0,-0.34,0.5600000000000001,12.4,0.00253742,0.007778181,-0.1419591,0.05948261,-0.1024114,0.5396278,1.164839,-0.01,0,0,95.52
15930,104809211,0,-0.35,0.57,12.42,0.005509282,0.007013132,-0.1444376,0.05225554,-0.1023395,0.5396808,1.16342,-0.01,0,0,95.52
15975,104819114,0,-0.35,0.55,12.41,-0.0002011629,0.01096725,-0.139442,0.05092232,-0.102448,0.5397174,1.163898,-0.01,0,0,95.52
16019,104829412,0,-0.32,0.6,12.42,-0.003596,0.01071075,-0.1422743,0.04084247,-0.1026004,0.539789,1.164292,-0.01,0,0,95.52
16063,104839654,0,-0.33,0.5600000000000001,12.4,0.006928203,0.00365589,-0.1369595,0.03883897,-0.1027106,0.5398206,1.164598,-0.01,0,0,95.52
16102,104850731,0,-0.35,0.6,12.42,0.005767644,0.007392248,-0.1396619,0.03068435,-0.1030592,0.539668,1.166023,-0.01,0,0,95.52
16144,104860232,0,-0.36,0.55,12.4,0.0009967494,0.01166375,-0.1369343,0.03132923,-0.1034552,0.5395455,1.167748,-0.01,0,0,95.52
16188,104870832,0,-0.34,0.6,12.4,0.004407212,0.006722257,-0.1366804,0.03522998,-0.1038505,0.5394539,1.169034,-0.01,0,0,95.52
16231,104881663,0,-0.36,0.55,12.39,0.00786269,0.004682358,-0.1389214,0.03902325,-0.1041486,0.5393105,1.170209,-0.01,0,0,95.52
16274,104892039,0,-0.36,0.55,12.4,0.0013451,0.00840962,-0.134627,0.05068636,-0.1041027,0.5393715,1.168843,-0.01,0,0,95.52
16322,104902192,0,-0.35,0.55,12.39,-0.003164252,0.01020632,-0.1375982,0.0521194,-0.1044554,0.5392865999999999,1.17005,-0.01,0,0,95.52
16364,104912146,0,-0.35,0.54,12.38,0.003559872,0.003114083,-0.1318395,0.05799489,-0.1047829,0.5391768,1.171156,-0.01,0,0,95.52
16411,104925312,0,-0.39,0.6,12.42,0.003225463,0.006661662,-0.1339108,0.0565228,-0.1050227,0.5390603,1.171757,-0.01,0,0,95.52
16453,104935733,0,-0.4,0.53,12.39,-0.0004915082000000001,0.01205771,-0.1296061,0.05974044,-0.1053121,0.5389794999999999,1.172857,-0.01,0,0,95.52
16496,104946319,0,-0.36,0.62,12.41,0.003445004,0.007850711999999999,-0.1303827,0.06005063,-0.1056161,0.5389292999999999,1.173685,-0.01,0,0,95.52
16538,104957055,0,-0.38,0.55,12.4,0.009301133,0.005234849,-0.1306583,0.06106933,-0.1058256,0.5388250999999999,1.174437,-0.01,0,0,95.52
16581,104967644,0,-0.38,0.59,12.41,0.004011195,0.00831139,-0.1272498,0.06631742,-0.1057845,0.5388871,1.173129,-0.01,0,0,95.52
16626,104977677,0,-0.37,0.58,12.41,-0.001330301,0.01236885,-0.1320615,0.06049836,-0.1060494,0.5388482,1.173926,-0.01,0,0,95.52
16668,104987543,0,-0.36,0.59,12.4,0.005264909,0.005032228,-0.1255254,0.06237264,-0.1062974,0.5387927,1.174624,-0.01,0,0,95.52
16714,104997818,0,-0.38,0.61,12.42,0.003113463,0.006864416,-0.1315698,0.0506931,-0.1064628,0.5387141,1.175122,-0.01,0,0,95.52
16757,105008529,0,-0.38,0.55,12.4,-0.001083295,0.01114581,-0.1242408,0.05463308,-0.1064365,0.5387978,1.17386,-0.01,0,0,95.52
16802,105018474,0,-0.34,0.62,12.42,-0.003207423,0.01235104,-0.130262,0.04366974,-0.1066777,0.5387806000000001,1.174387,-0.01,0,0,95.52
16844,105028329,0,-0.35,0.54,12.39,0.006084541,0.008050226000000001,-0.1227907,0.04375029,-0.1068658,0.5387198,1.174872,-0.01,0,0,95.52
16887,105038819,0,-0.33,0.61,12.43,0.003515808,0.009173363,-0.1238768,0.03485206,-0.1070141,0.5386605,1.175118,-0.01,0,0,95.52
16932,105049329,0,-0.33,0.52,12.39,-0.0005071083,0.01241585,-0.1227582,0.03087723,-0.1070052,0.5387608,1.173898,-0.01,0,0,95.52
16969,105061105,0,-0.32,0.58,12.4,0.004164775,0.003116861,-0.1183133,0.03220059,-0.1074589,0.5386004,1.175107,-0.01,0,0,95.52
17014,105071091,0,-0.33,0.5600000000000001,12.39,0.006312323,0.002528401,-0.1244938,0.02675531,-0.1078222,0.5383828000000001,1.17646,-0.01,0,0,95.52
17062,105081186,0,-0.34,0.57,12.4,8.391426e-05,0.007170961,-0.1178974,0.03545734,-0.1081943,0.538191,1.177681,-0.01,0,0,95.52
17106,105091130,0,-0.33,0.59,12.39,-0.002572576,0.01119106,-0.1233574,0.03144276,-0.1085948,0.5380391,1.1788,-0.01,0,0,95.52
17154,105101090,0,-0.33,0.59,12.39,0.004875316,0.00534727,-0.1181475,0.03828765,-0.1089453,0.5378684,1.179817,-0.01,0,0,95.52
17199,105111746,0,-0.35,0.6,12.41,0.004768862,0.007540526,-0.1212318,0.03865113,-0.1092184,0.5376789,1.180582,-0.01,0,0,95.52
17245,105121697,0,-0.34,0.57,12.4,-0.0009507053,0.01056521,-0.1177494,0.04613478,-0.1091998,0.5377473,1.179412,-0.01,0,0,95.52
17290,105131736,0,-0.32,0.61,12.42,0.001211486,0.009348819,-0.1181951,0.04552549,-0.1095434,0.5376195,1.180219,-0.01,0,0,95.52
17335,105141673,0,-0.33,0.5600000000000001,12.39,0.008617237,0.003903972,-0.1173062,0.04573961,-0.1098132,0.5374514,1.180963,-0.01,0,0,95.52
17379,105152731,0,-0.36,0.58,12.43,0.004235012,0.006715243,-0.1142368,0.04907288,-0.1100437,0.5372848,1.18181,-0.01,0,0,95.52
17424,105163258,0,-0.36,0.54,12.4,5.570601e-05,0.0101058,-0.1157281,0.04832689,-0.1103327,0.5371604,1.182697,-0.01,0,0,95.52
17468,105173868,0,-0.34,0.59,12.42,0.005714175,0.00655116,-0.110794,0.05382175,-0.1103333,0.537253,1.181547,-0.01,0,0,95.52
17513,105183780,0,-0.34,0.53,12.4,0.009765505000000001,0.003768711,-0.1139764,0.04952392,-0.1105487,0.5371026,1.182369,-0.01,0,0,95.52
17557,105193665,0,-0.35,0.5600000000000001,12.42,0.00208155,0.007432455,-0.1090517,0.05302903,-0.1107731,0.5369712,1.183072,-0.01,0,0,95.52
17604,105203848,0,-0.33,0.54,12.39,-0.001869039,0.01107588,-0.1139162,0.04766559,-0.1110411,0.5368816,1.183694,-0.01,0,0,95.52
17651,105214207,0,-0.32,0.5600000000000001,12.4,0.003091696,0.003838726,-0.1083521,0.05025018,-0.1112662,0.5367986,1.184119,-0.01,0,0,95.52
17696,105224288,0,-0.34,0.55,12.39,0.001988539,0.003059461,-0.1132412,0.04208697,-0.111206,0.5368396,1.183011,-0.01,0,0,95.52
17744,105234077,0,-0.33,0.5600000000000001,12.4,-0.005146708,0.006066448,-0.1077024,0.04313014,-0.1114268,0.5367417,1.183478,-0.01,0,0,95.52
17782,105245160,0,-0.31,0.59,12.4,-0.002335284,0.007851044999999999,-0.1115902,0.03590076,-0.1118828,0.5365725,1.184396,-0.01,0,0,95.52
17824,105255758,0,-0.31,0.5600000000000001,12.38,0.006874919,0.004807,-0.1093413,0.03784459,-0.1122481,0.5363717,1.185338,-0.01,0,0,95.52
17869,105265798,0,-0.34,0.58,12.41,0.0009025777999999999,0.008100497,-0.1107898,0.03757284,-0.1125848,0.5361590000000001,1.186257,-0.01,0,0,95.52
17913,105276122,0,-0.34,0.55,12.39,-0.003583941,0.0118818,-0.1060582,0.04321301,-0.1129703,0.5359852000000001,1.18711,-0.01,0,0,95.52
17958,105286699,0,-0.31,0.59,12.41,0.002697647,0.007649088,-0.1047295,0.04624561,-0.1133406,0.5358416,1.187736,-0.01,0,0,95.52
18003,105296802,0,-0.3,0.54,12.4,0.006020932,0.005073697,-0.1061181,0.04415364,-0.1136232,0.535652,1.188417,-0.01,0,0,95.52
18051,105307336,0,-0.32,0.58,12.41,-0.001797279,0.007719123,-0.1017901,0.04915418,-0.1136105,0.5356978999999999,1.187354,-0.01,0,0,95.52
18098,105317351,0,-0.31,0.55,12.4,-0.003312646,0.01042245,-0.1057643,0.04380116,-0.1139616,0.5355533,1.187965,-0.01,0,0,95.52
18143,105328034,0,-0.3,0.57,12.4,0.004516019,0.001245742,-0.09908941,0.04637249,-0.1142644,0.5354059,1.188388,-0.01,0,0,95.52
18188,105338045,0,-0.32,0.55,12.4,0.002872358,0.0009933315,-0.1060814,0.03460249,-0.1144975,0.5352238,1.188846,-0.01,0,0,95.52
18233,105348689,0,-0.33,0.5600000000000001,12.4,-0.003790518,0.004557258,-0.0974423,0.04033726,-0.1145048,0.5352734,1.187823,-0.01,0,0,95.52
18279,105358970,0,-0.32,0.58,12.4,-0.00125289,0.003979943,-0.1043254,0.02959906,-0.1148111,0.5351597,1.188289,-0.01,0,0,95.52
18323,105369504,0,-0.32,0.55,12.38,0.005860289,-0.0003944131,-0.0988315,0.03143287,-0.1150379,0.5350078,1.188808,-0.01,0,0,95.52
18368,105379496,0,-0.35,0.58,12.39,-0.0002231176,0.002641701,-0.103686,0.02247226,-0.1152396,0.5348472,1.18922,-0.01,0,0,95.52
18412,105389418,0,-0.34,0.54,12.37,-0.004658377,0.006673294,-0.09852205999999999,0.02372485,-0.1154946,0.5347288,1.189597,-0.01,0,0,95.52
18457,105399814,0,-0.34,0.59,12.39,0.002893322,0.005817593,-0.09880877,0.02039255,-0.1157332,0.5346366,1.189754,-0.01,0,0,95.52
18505,105410152,0,-0.32,0.53,12.37,0.007129023,0.003954444,-0.09938511,0.01779289,-0.1156779,0.5346689999999999,1.188788,-0.01,0,0,95.52
18551,105420730,0,-0.34,0.57,12.39,-0.001831085,0.008284118,-0.09723753,0.01632167,-0.1158653,0.5345529999999999,1.188896,-0.01,0,0,95.52
18596,105430741,0,-0.32,0.54,12.38,-0.002610925,0.01091263,-0.1008325,0.008727765,-0.1160938,0.5344691,1.189077,-0.01,0,0,95.52
18643,105444183,0,-0.32,0.55,12.38,0.005150422,0.0001046793,-0.09332343999999999,0.01118343,-0.1162578,0.5343834,1.188884,-0.01,0,0,95.52
18685,105455413,0,-0.37,0.58,12.4,-0.001036065,0.003026227,-0.09928877,0.004006542,-0.1166343,0.534207,1.189945,-0.01,0,0,95.52
18731,105465675,0,-0.36,0.55,12.38,-0.005096567,0.006190982,-0.09365411,0.0118591,-0.1170668,0.5340738,1.191025,-0.01,0,0,95.52
18777,105476259,0,-0.36,0.61,12.4,0.001885625,0.006864496,-0.09475768,0.015559,-0.1174781,0.5339634,1.191874,-0.01,0,0,95.52
18822,105486230,0,-0.35,0.54,12.39,0.005184288,0.007230996,-0.09718844,0.01466542,-0.1178017,0.5338117999999999,1.192791,-0.01,0,0,95.52
18866,105496725,0,-0.36,0.57,12.41,-0.001921313,0.0107026,-0.08959212,0.02607491,-0.1181491,0.5336864,1.193477,-0.01,0,0,95.52
18911,105507197,0,-0.32,0.55,12.39,-0.00257353,0.0115379,-0.09541458999999999,0.02482717,-0.1181993,0.533764,1.192574,-0.01,0,0,95.52
18962,105519760,0,-0.34,0.54,12.38,0.003651879,-0.003124957,-0.08535121,0.03781741,-0.1185283,0.5336544,1.19305,-0.01,0,0,95.52
19007,105529756,0,-0.37,0.5600000000000001,12.4,-0.002985951,-0.001168373,-0.09196673,0.03330372,-0.11882,0.533519,1.193692,-0.01,0,0,95.52
19052,105540112,0,-0.36,0.54,12.38,-0.008512855,0.003374205,-0.0864357,0.04053383,-0.1191677,0.5334185,1.194293,-0.01,0,0,95.52
19101,105553843,0,-0.31,0.57,12.38,0.003522105,0.008135585000000001,-0.08603732,0.04099745,-0.1195008,0.5333669,1.194424,-0.01,0,0,95.52
19146,105563867,0,-0.31,0.54,12.38,0.003547424,0.005172651,-0.09287107999999999,0.03305139,-0.1197378,0.5332528,1.19497,-0.01,0,0,95.52
19191,105573987,0,-0.31,0.5600000000000001,12.38,-0.004277879,0.006973091,-0.08314848,0.04125938,-0.1200185,0.5331559,1.195414,-0.01,0,0,95.52
19235,105583968,0,-0.3,0.57,12.38,-0.003060587,0.006096039,-0.09272125000000001,0.02931876,-0.1200767,0.533224,1.194535,-0.01,0,0,95.52
19280,105594719,0,-0.3,0.5600000000000001,12.38,0.00475155,0.001433422,-0.08140919000000001,0.0373794,-0.1203179,0.533139,1.194947,-0.01,0,0,95.52
19325,105604796,0,-0.33,0.55,12.38,0.0005257709,-0.0004522149,-0.08829766999999999,0.02653367,-0.1205165,0.5330452,1.195204,-0.01,0,0,95.52
19370,105615140,0,-0.32,0.5600000000000001,12.38,-0.005742694,0.003894893,-0.0815125,0.0291674,-0.120777,0.5329794,1.195505,-0.01,0,0,95.52
19418,105625152,0,-0.34,0.5600000000000001,12.39,0.001739939,0.003531363,-0.08565282,0.02095527,-0.1210225,0.5329353,1.195724,-0.01,0,0,95.52
19463,105635744,0,-0.33,0.5600000000000001,12.39,0.00612958,0.002174185,-0.08329449,0.0205118,-0.1209741,0.5329747,1.1949,-0.01,0,0,95.52
19514,105651453,0,-0.32,0.55,12.39,-0.003603812,0.006027353,-0.08051969,0.01827415,-0.1215295,0.5327204,1.196068,-0.01,0,0,95.52
19559,105664514,0,-0.35,0.54,12.38,0.002438945,0.005512612,-0.08310284,0.01581482,-0.1219082,0.5325846,1.196629,-0.01,0,0,95.52
19604,105674632,0,-0.34,0.55,12.39,0.003645869,0.005963282,-0.08367748999999999,0.01365907,-0.1221852,0.5324193,1.197317,-0.01,0,0,95.52
19649,105685094,0,-0.37,0.54,12.38,-0.00510807,0.008415241,-0.081106,0.01714174,-0.1224849,0.5322567,1.197958,-0.01,0,0,95.52
19694,105695503,0,-0.32,0.57,12.39,-0.006468702,0.009552323,-0.08247942,0.01851517,-0.122535,0.5323348,1.197159,-0.01,0,0,95.52
19739,105706087,0,-0.33,0.57,12.38,0.005345157,0.004863673,-0.07863243,0.02392742,-0.1228331,0.5321956,1.197664,-0.01,0,0,95.52
19783,105716520,0,-0.34,0.54,12.38,0.003875645,0.003359285,-0.08040224999999999,0.02387267,-0.1230674,0.53204,1.198193,-0.01,0,0,95.52
19832,105726529,0,-0.33,0.5600000000000001,12.37,-0.004662205,0.00680217,-0.07624647,0.02898712,-0.1233583,0.5319033,1.198635,-0.01,0,0,95.52
19877,105736777,0,-0.32,0.55,12.37,0.00123588,0.003615257,-0.07989606,0.02600937,-0.1236797,0.5318031,1.198946,-0.01,0,0,95.52
19923,105747742,0,-0.32,0.5600000000000001,12.38,0.007447463,0.001826375,-0.07486506,0.02967123,-0.123903,0.531675,1.199277,-0.01,0,0,95.52
19968,105758122,0,-0.35,0.52,12.37,-0.003658142,0.00487831,-0.07981953,0.02396628,-0.1241122,0.5315536,1.199374,-0.01,0,0,95.52
20015,105771066,0,-0.29,0.55,12.39,-0.006419606,0.005321126,-0.07779431000000001,0.02372949,-0.1244236,0.5314797,1.199515,-0.01,0,0,95.52
20060,105781105,0,-0.32,0.54,12.38,0.002490812,0.001890923,-0.07359876,0.02612154,-0.124637,0.5313663,1.199799,-0.01,0,0,95.52
20105,105791207,0,-0.32,0.53,12.39,-0.0001792739,0.000160173,-0.07754392,0.01994665,-0.1248121,0.5312452,1.200036,-0.01,0,0,95.52
20150,105801825,0,-0.34,0.55,12.39,-0.00723649,0.004214711,-0.07368113,0.0217759,-0.1250488,0.5311477999999999,1.200124,-0.01,0,0,95.52
20195,105812976,0,-0.34,0.53,12.38,0.002152365,0.002818352,-0.07596678,0.01728806,-0.1252908,0.5310649,1.200159,-0.01,0,0,95.52
20239,105823859,0,-0.34,0.57,12.4,0.005178438,0.003278266,-0.07504766,0.01629096,-0.1252696,0.5310875,1.199421,-0.01,0,0,95.52
20288,105833898,0,-0.37,0.53,12.38,-0.0008656654,0.004913768,-0.07499105,0.01327718,-0.1254383,0.5309836999999999,1.199491,-0.01,0,0,95.52
20332,105843873,0,-0.34,0.57,12.39,-0.005861552,0.007408888,-0.07377284000000001,0.01040858,-0.1256747,0.5309206,1.199466,-0.01,0,0,95.52
20379,105853995,0,-0.36,0.53,12.37,0.004434455,0.004908536,-0.072479,0.007743171,-0.1258425,0.5308467,1.199469,-0.01,0,0,95.52
20418,105865873,0,-0.35,0.55,12.38,-0.001909474,0.0007520905,-0.07055636999999999,0.007006185,-0.1260829,0.5307952,1.200259,-0.01,0,0,95.52
20467,105878518,0,-0.36,0.57,12.38,-0.009293403,0.004583639,-0.07055765,0.008564927,-0.1264002,0.5307685,1.200961,-0.01,0,0,95.52
20512,105888233,0,-0.34,0.55,12.37,-0.000588266,0.003452647,-0.06999476,0.009448438,-0.1266997,0.5307487,1.201745,-0.01,0,0,95.52
20557,105898774,0,-0.34,0.5600000000000001,12.38,0.003566438,0.00561426,-0.07393598,0.008422707999999999,-0.1268952,0.5307261,1.202362,-0.01,0,0,95.52
20602,105909069,0,-0.35,0.52,12.36,-0.004186091,0.007585549,-0.0729022,0.01357629,-0.1268926,0.5307697,1.20165,-0.01,0,0,95.52
20647,105919261,0,-0.33,0.5600000000000001,12.38,-0.006376932,0.008607933999999999,-0.07245333,0.01692885,-0.1271862,0.5307607,1.202283,-0.01,0,0,95.52
20694,105929313,0,-0.32,0.53,12.37,0.004799015,0.00536561,-0.0690598,0.02283561,-0.1274135,0.5307455,1.202855,-0.01,0,0,95.52
20740,105939233,0,-0.3,0.55,12.38,0.002642231,0.004940949,-0.07019452,0.02304456,-0.1275755,0.5307268000000001,1.203367,-0.01,0,0,95.52
20785,105949250,0,-0.33,0.52,12.36,-0.00717335,0.006046272,-0.06807709000000001,0.02598019,-0.1277873,0.5307118,1.203834,-0.01,0,0,95.52
20830,105959319,0,-0.32,0.5600000000000001,12.37,-0.005425165,0.004330265,-0.06643186,0.02921756,-0.1278628,0.5307682,1.203169,-0.01,0,0,95.52
20879,105969248,0,-0.34,0.53,12.37,0.004385084,0.00099825,-0.06398623000000001,0.0317962,-0.1280306,0.5307499,1.203591,-0.01,0,0,95.52
20923,105979263,0,-0.34,0.55,12.37,-0.001014861,0.00099649,-0.06589246999999999,0.02948308,-0.1281614,0.5307317,1.203974,-0.01,0,0,95.52
20971,105992029,0,-0.37,0.55,12.37,-0.008471993000000001,0.006727071,-0.06717462,0.0267799,-0.1283892,0.5307428,1.204095,-0.01,0,0,95.52
21015,106001760,0,-0.37,0.55,12.36,0.002760763,0.005117571,-0.06662493,0.02565196,-0.1285838,0.5307333,1.204358,-0.01,0,0,95.52
21060,106012754,0,-0.37,0.54,12.38,0.004803132,0.005769411,-0.06788714999999999,0.02263981,-0.1286808,0.5307198,1.204558,-0.01,0,0,95.52
21106,106022683,0,-0.38,0.52,12.35,-0.004896457,0.006643887,-0.06746505,0.02074095,-0.1288224,0.5307122,1.204702,-0.01,0,0,95.52
21154,106033164,0,-0.35,0.55,12.38,-0.007364511,0.004910812,-0.06439124,0.02143956,-0.1290423,0.5307297,1.204741,-0.01,0,0,95.52
21201,106046736,0,-0.38,0.53,12.35,0.002512969,0.004729479,-0.06256077,0.02108876,-0.1292118,0.5305818,1.205332,-0.01,0,0,95.52
21242,106057347,0,-0.38,0.55,12.36,-0.006473565,0.005671727,-0.06194392,0.02208853,-0.1293648,0.5304432,1.206103,-0.01,0,0,95.52
21286,106070104,0,-0.33,0.57,12.37,-0.007687418,0.006027451,-0.05850498,0.02849405,-0.1296231,0.5303387000000001,1.206979,-0.01,0,0,95.52
21329,106080021,0,-0.32,0.53,12.35,0.004243286,0.002012259,-0.05993336,0.02922083,-0.12979,0.5302035,1.207974,-0.01,0,0,95.52
21372,106090158,0,-0.33,0.5600000000000001,12.38,0.001514289,0.003551661,-0.05758463,0.03625286,-0.129763,0.5302383000000001,1.207378,-0.01,0,0,95.52
21415,106100186,0,-0.32,0.52,12.34,-0.007572863,0.002310253,-0.06217721,0.03528347,-0.1299388,0.5301144,1.208287,-0.01,0,0,95.52
21458,106110157,0,-0.32,0.57,12.38,-0.005243044,0.0009961162999999999,-0.05603947,0.04483016,-0.1301422,0.5300047,1.209113,-0.01,0,0,95.52
21503,106120693,0,-0.34,0.52,12.35,0.00288719,0.0007886357,-0.06167129,0.04311992,-0.1302467,0.5298766,1.209801,-0.01,0,0,95.52
21546,106130782,0,-0.34,0.55,12.38,-0.005968684,0.001739247,-0.05756691,0.04976428,-0.1303289,0.5297712,1.210473,-0.01,0,0,95.52
21592,106140764,0,-0.35,0.54,12.35,-0.01281775,0.004429611,-0.061756,0.04648906,-0.1304946,0.5296723,1.211094,-0.01,0,0,95.52
21636,106151202,0,-0.35,0.57,12.38,-0.004347125,0.0020134,-0.05382198,0.05604434,-0.1305634,0.5297108,1.210519,-0.01,0,0,95.52
21678,106161029,0,-0.37,0.5600000000000001,12.37,0.002728343,0.004138008,-0.05850419,0.05043943,-0.1306205,0.5296056,1.21112,-0.01,0,0,95.52
21722,106171009,0,-0.36,0.5600000000000001,12.37,-0.005481543,0.006165713,-0.05430999,0.05282734,-0.1306975,0.5295283,1.211676,-0.01,0,0,95.52
21767,106184563,0,-0.36,0.59,12.38,-0.003384254,0.005667014,-0.05236817,0.05263678,-0.1308642,0.5294797,1.212324,-0.01,0,0,95.52
