LineNo,TimeUS,DesRoll,Roll,DesPitch,Pitch,DesYaw,Yaw,ErrRP,ErrYaw,AEKF
185,3.3257e+07,0,1.93,0,-1.62,10.31,10.29,0,0.01,3
523,3.3335e+07,0,1.93,0,-1.63,10.4,10.38,0,0.01,3
981,3.3437e+07,0,1.94,0,-1.63,10.5,10.47,0,0.01,3
1299,3.3614e+07,0,1.94,0,-1.63,10.6,10.58,0,0.01,3
1484,3.3649e+07,0,1.94,0,-1.63,10.64,10.61,0,0.01,3
1573,3.3661e+07,0,1.94,0,-1.63,10.65,10.63,0,0.01,3
1619,3.3671e+07,0,1.94,0,-1.63,10.66,10.64,0,0.01,3
1663,3.3684e+07,0,1.94,0,-1.63,10.67,10.65,0,0.01,3
1703,3.3695e+07,0,1.94,0,-1.63,10.68,10.66,0,0.01,3
1744,3.3705e+07,0,1.94,0,-1.63,10.69,10.67,0,0.01,3
1784,3.3715e+07,0,1.94,0,-1.63,10.7,10.68,0,0.01,3
1831,3.3726e+07,0,1.94,0,-1.63,10.71,10.69,0,0,3
1871,3.3736e+07,0,1.94,0,-1.63,10.72,10.7,0,0,3
1912,3.3747e+07,0,1.94,0,-1.62,10.73,10.71,0,0,3
1953,3.3756e+07,0,1.94,0,-1.62,10.74,10.72,0,0,3
1991,3.3767e+07,0,1.94,0,-1.63,10.75,10.73,0,0,3
2032,3.3777e+07,0,1.94,0,-1.63,10.76,10.74,0,0,3
2072,3.3787e+07,0,1.94,0,-1.63,10.77,10.75,0,0,3
2113,3.3797e+07,0,1.94,0,-1.63,10.78,10.76,0,0,3
2154,3.3808e+07,0,1.94,0,-1.63,10.79,10.77,0,0,3
2195,3.3818e+07,0,1.94,0,-1.63,10.8,10.78,0,0,3
2239,3.3828e+07,0,1.94,0,-1.63,10.81,10.79,0,0,3
2280,3.3838e+07,0,1.94,0,-1.63,10.82,10.8,0,0,3
2325,3.3848e+07,0,1.94,0,-1.63,10.83,10.81,0,0,3
2368,3.3861e+07,0,1.94,0,-1.63,10.84,10.82,0,0,3
2409,3.3872e+07,0,1.94,0,-1.63,10.85,10.83,0,0,3
2450,3.3882e+07,0,1.94,0,-1.63,10.86,10.83,0,0,3
2490,3.3892e+07,0,1.94,0,-1.63,10.86,10.84,0,0,3
2533,3.3903e+07,0,1.94,0,-1.63,10.87,10.85,0,0,3
2573,3.3913e+07,0,1.94,0,-1.63,10.88,10.85,0,0,3
2614,3.3923e+07,0,1.94,0,-1.63,10.88,10.86,0,0,3
2660,3.3933e+07,0,1.94,0,-1.62,10.89,10.87,0,0.01,3
2700,3.3943e+07,0,1.94,0,-1.62,10.9,10.87,0,0.01,3
2741,3.3954e+07,0,1.94,0,-1.62,10.91,10.88,0,0.01,3
2782,3.3964e+07,0,1.94,0,-1.62,10.92,10.89,0,0.01,3
2823,3.3974e+07,0,1.94,0,-1.62,10.92,10.9,0,0.01,3
2863,3.3984e+07,0,1.94,0,-1.62,10.93,10.91,0,0.01,3
2904,3.3996e+07,0,1.94,0,-1.62,10.95,10.93,0,0.01,3
2946,3.4007e+07,0,1.94,0,-1.62,10.96,10.94,0,0.01,3
2987,3.4017e+07,0,1.94,0,-1.62,10.98,10.95,0,0.01,3
3028,3.4027e+07,0,1.94,0,-1.62,10.99,10.97,0,0.01,3
3072,3.4037e+07,0,1.94,0,-1.62,11,10.98,0,0.01,3
3113,3.4047e+07,0,1.94,0,-1.62,11.02,10.99,0,0.01,3
3153,3.4057e+07,0,1.94,0,-1.62,11.03,11,0,0.01,3
3199,3.407e+07,0,1.94,0,-1.62,11.05,11.02,0,0.01,3
3239,3.4081e+07,0,1.94,0,-1.62,11.06,11.04,0,0.01,3
3281,3.4091e+07,0,1.94,0,-1.62,11.07,11.05,0,0.01,3
3326,3.4101e+07,0,1.94,0,-1.62,11.09,11.07,0,0.01,3
3366,3.4111e+07,0,1.94,0,-1.62,11.1,11.08,0,0.01,3
3407,3.4122e+07,0,1.94,0,-1.62,11.12,11.1,0,0.01,3
3451,3.4132e+07,0,1.94,0,-1.62,11.13,11.11,0,0.01,3
3495,3.4142e+07,0,1.94,0,-1.62,11.15,11.13,0,0.01,3
3537,3.4152e+07,0,1.94,0,-1.62,11.16,11.14,0,0.01,3
3577,3.4162e+07,0,1.93,0,-1.62,11.17,11.15,0,0.01,3
3618,3.4172e+07,0,1.93,0,-1.62,11.19,11.16,0,0.01,3
3655,3.4182e+07,0,1.93,0,-1.62,11.2,11.18,0,0.01,3
3696,3.4193e+07,0,1.93,0,-1.62,11.21,11.19,0,0.01,3
3737,3.4203e+07,0,1.93,0,-1.62,11.22,11.2,0,0.01,3
3778,3.4213e+07,0,1.93,0,-1.62,11.24,11.21,0,0.01,3
3819,3.4223e+07,0,1.93,0,-1.62,11.25,11.22,0,0.01,3
3863,3.4234e+07,0,1.93,0,-1.62,11.26,11.24,0,0.01,3
3904,3.4244e+07,0,1.93,0,-1.62,11.27,11.25,0,0.01,3
3944,3.4255e+07,0,1.93,0,-1.62,11.28,11.26,0,0.01,3
3986,3.4265e+07,0,1.93,0,-1.62,11.3,11.27,0,0.01,3
4026,3.4278e+07,0,1.93,0,-1.62,11.31,11.29,0,0.01,3
4067,3.4288e+07,0,1.93,0,-1.62,11.32,11.29,0,0.01,3
4108,3.4298e+07,0,1.93,0,-1.62,11.33,11.3,0,0.01,3
4149,3.4308e+07,0,1.93,0,-1.62,11.34,11.31,0,0.01,3
4190,3.4319e+07,0,1.93,0,-1.62,11.34,11.32,0,0.01,3
4232,3.4329e+07,0,1.93,0,-1.62,11.35,11.33,0,0.01,3
4280,3.4339e+07,0,1.93,0,-1.62,11.36,11.34,0,0.01,3
4322,3.4349e+07,0,1.93,0,-1.62,11.37,11.34,0,0.01,3
4362,3.436e+07,0,1.93,0,-1.62,11.37,11.35,0,0.01,3
4403,3.437e+07,0,1.93,0,-1.62,11.38,11.36,0,0.01,3
4440,3.438e+07,0,1.93,0,-1.62,11.39,11.36,0,0.01,3
4478,3.4391e+07,0,1.93,0,-1.62,11.39,11.37,0,0.01,3
4519,3.4401e+07,0,1.93,0,-1.62,11.4,11.37,0,0.01,3
4561,3.4412e+07,0,1.94,0,-1.62,11.4,11.38,0,0.01,3
4602,3.4422e+07,0,1.94,0,-1.62,11.4,11.38,0,0.01,3
4642,3.4432e+07,0,1.94,0,-1.62,11.41,11.39,0,0.01,3
4687,3.4442e+07,0,1.94,0,-1.62,11.42,11.39,0,0.01,3
4727,3.4452e+07,0,1.94,0,-1.62,11.42,11.4,0,0.01,3
4768,3.4462e+07,0,1.94,0,-1.62,11.43,11.4,0,0.01,3
4808,3.4472e+07,0,1.94,0,-1.62,11.43,11.41,0,0.01,3
4849,3.4482e+07,0,1.94,0,-1.62,11.44,11.42,0,0.01,3
4890,3.4493e+07,0,1.94,0,-1.62,11.44,11.42,0,0.01,3
4931,3.4503e+07,0,1.93,0,-1.62,11.44,11.42,0,0.01,3
4971,3.4513e+07,0,1.93,0,-1.62,11.45,11.42,0,0.01,3
5013,3.4523e+07,0,1.93,0,-1.62,11.45,11.43,0,0.01,3
5056,3.4533e+07,0,1.93,0,-1.62,11.45,11.43,0,0.01,3
5101,3.4543e+07,0,1.93,0,-1.62,11.46,11.43,0,0.01,3
5141,3.4553e+07,0,1.93,0,-1.62,11.46,11.44,0,0.01,3
5184,3.4564e+07,0,1.93,0,-1.62,11.46,11.44,0,0.01,3
5226,3.4573e+07,0,1.93,0,-1.62,11.46,11.44,0,0.01,3
5266,3.4583e+07,0,1.93,0,-1.62,11.47,11.44,0,0.01,3
5303,3.4593e+07,0,1.93,0,-1.62,11.47,11.45,0,0.01,3
5344,3.4604e+07,0,1.93,0,-1.62,11.47,11.45,0,0.01,3
5384,3.4614e+07,0,1.93,0,-1.62,11.48,11.45,0,0.01,3
5425,3.4624e+07,0,1.93,0,-1.62,11.48,11.46,0,0.01,3
5466,3.4634e+07,0,1.93,0,-1.62,11.48,11.46,0,0.01,3
5511,3.4645e+07,0,1.93,0,-1.62,11.49,11.46,0,0.01,3
5552,3.4656e+07,0,1.93,0,-1.62,11.49,11.47,0,0.01,3
5593,3.4666e+07,0,1.93,0,-1.62,11.5,11.47,0,0.01,3
5634,3.4676e+07,0,1.93,0,-1.62,11.5,11.47,0,0.01,3
5674,3.4688e+07,0,1.93,0,-1.62,11.5,11.48,0,0.01,3
5715,3.4699e+07,0,1.93,0,-1.62,11.5,11.48,0,0.01,3
5756,3.4709e+07,0,1.93,0,-1.62,11.51,11.48,0,0.01,3
5797,3.4719e+07,0,1.93,0,-1.62,11.51,11.49,0,0.01,3
5840,3.4729e+07,0,1.93,0,-1.62,11.51,11.49,0,0.01,3
5881,3.474e+07,0,1.93,0,-1.62,11.52,11.49,0,0.01,3
5926,3.4751e+07,0,1.93,0,-1.62,11.52,11.5,0,0,3
5967,3.4761e+07,0,1.93,0,-1.62,11.53,11.51,0,0,3
6007,3.4772e+07,0,1.93,0,-1.62,11.54,11.51,0,0,3
6049,3.4782e+07,0,1.93,0,-1.62,11.54,11.52,0,0,3
6093,3.4795e+07,0,1.93,0,-1.62,11.55,11.52,0,0,3
6133,3.4805e+07,0,1.93,0,-1.62,11.55,11.53,0,0,3
6174,3.4816e+07,0,1.93,0,-1.62,11.56,11.53,0,0,3
6214,3.4827e+07,0,1.93,0,-1.62,11.56,11.54,0,0,3
6255,3.4837e+07,0,1.93,0,-1.62,11.56,11.54,0,0,3
6295,3.4846e+07,0,1.93,0,-1.62,11.57,11.54,0,0,3
6343,3.4857e+07,0,1.93,0,-1.62,11.57,11.55,0,0,3
6384,3.4867e+07,0,1.93,0,-1.62,11.58,11.55,0,0,3
6424,3.4877e+07,0,1.93,0,-1.62,11.58,11.56,0,0,3
6465,3.489e+07,0,1.93,0,-1.62,11.59,11.56,0,0,3
6502,3.49e+07,0,1.93,0,-1.62,11.59,11.57,0,0,3
6544,3.4911e+07,0,1.93,0,-1.62,11.6,11.57,0,0,3
6585,3.4921e+07,0,1.93,0,-1.62,11.6,11.58,0,0,3
6625,3.4931e+07,0,1.93,0,-1.62,11.6,11.58,0,0,3
6668,3.4941e+07,0,1.93,0,-1.62,11.61,11.59,0,0,3
6714,3.4952e+07,0,1.93,0,-1.62,11.62,11.59,0,0,3
6755,3.4962e+07,0,1.93,0,-1.62,11.62,11.6,0,0,3
6795,3.4972e+07,0,1.93,0,-1.62,11.63,11.6,0,0,3
6839,3.4985e+07,0,1.93,0,-1.62,11.63,11.61,0,0,3
6880,3.4995e+07,0,1.93,0,-1.62,11.64,11.61,0,0,3
6918,3.5005e+07,0,1.93,0,-1.62,11.64,11.62,0,0,3
6958,3.5015e+07,0,1.93,0,-1.62,11.65,11.62,0,0,3
6998,3.5026e+07,0,1.93,0,-1.62,11.65,11.63,0,0,3
7040,3.5036e+07,0,1.93,0,-1.62,11.66,11.63,0,0,3
7081,3.5047e+07,0,1.93,0,-1.62,11.67,11.64,0,0,3
7128,3.5057e+07,0,1.93,0,-1.62,11.67,11.65,0,0,3
7169,3.5068e+07,0,1.93,0,-1.62,11.68,11.66,0,0,3
7209,3.5078e+07,0,1.93,0,-1.62,11.69,11.66,0,0,3
7251,3.5088e+07,0,1.93,0,-1.62,11.7,11.67,0,0,3
7285,3.5098e+07,0,1.93,0,-1.62,11.7,11.68,0,0,3
7326,3.5109e+07,0,1.93,0,-1.62,11.71,11.69,0,0,3
7367,3.5119e+07,0,1.93,0,-1.62,11.72,11.69,0,0,3
7410,3.513e+07,0,1.93,0,-1.62,11.72,11.7,0,0,3
7451,3.514e+07,0,1.93,0,-1.62,11.73,11.71,0,0,3
7493,3.515e+07,0,1.93,0,-1.62,11.74,11.71,0,0,3
7541,3.5161e+07,0,1.93,0,-1.62,11.74,11.72,0,0,3
7581,3.5171e+07,0,1.93,0,-1.62,11.75,11.72,0,0,3
7622,3.5181e+07,0,1.93,0,-1.62,11.75,11.73,0,0,3
7664,3.5191e+07,0,1.93,0,-1.62,11.76,11.73,0,0,3
7698,3.5202e+07,0,1.93,0,-1.62,11.76,11.74,0,0,3
7739,3.5212e+07,0,1.93,0,-1.62,11.77,11.74,0,0,3
7779,3.5222e+07,0,1.93,0,-1.62,11.77,11.75,0,0,3
7820,3.5232e+07,0,1.93,0,-1.62,11.78,11.75,0,0,3
7860,3.5243e+07,0,1.93,0,-1.62,11.78,11.76,0,0,3
7902,3.5253e+07,0,1.93,0,-1.62,11.79,11.77,0,0,3
7947,3.5263e+07,0,1.93,0,-1.62,11.8,11.77,0,0.01,3
7988,3.5273e+07,0,1.93,0,-1.62,11.8,11.78,0,0.01,3
8029,3.5283e+07,0,1.93,0,-1.62,11.81,11.78,0,0.01,3
8073,3.5296e+07,0,1.93,0,-1.62,11.81,11.79,0,0.01,3
8114,3.5307e+07,0,1.93,0,-1.62,11.82,11.8,0,0.01,3
8157,3.5317e+07,0,1.93,0,-1.62,11.83,11.8,0,0.01,3
8194,3.5328e+07,0,1.93,0,-1.62,11.83,11.81,0,0.01,3
8237,3.5338e+07,0,1.93,0,-1.62,11.84,11.82,0,0.01,3
8279,3.5348e+07,0,1.93,0,-1.62,11.85,11.82,0,0.01,3
8319,3.5358e+07,0,1.93,0,-1.62,11.85,11.83,0,0.01,3
8366,3.5369e+07,0,1.93,0,-1.62,11.86,11.84,0,0.01,3
8406,3.5379e+07,0,1.93,0,-1.62,11.87,11.85,0,0.01,3
8448,3.5389e+07,0,1.93,0,-1.62,11.88,11.85,0,0.01,3
8488,3.5399e+07,0,1.93,0,-1.62,11.88,11.86,0,0.01,3
8532,3.5415e+07,0,1.93,0,-1.62,11.89,11.87,0,0.01,3
8574,3.5425e+07,0,1.93,0,-1.61,11.89,11.87,0,0.01,3
8614,3.5435e+07,0,1.93,0,-1.62,11.9,11.87,0,0.01,3
8655,3.5446e+07,0,1.93,0,-1.62,11.9,11.88,0,0.01,3
8695,3.5456e+07,0,1.93,0,-1.62,11.9,11.88,0,0.01,3
8741,3.5467e+07,0,1.93,0,-1.62,11.9,11.88,0,0.01,3
8781,3.5478e+07,0,1.93,0,-1.62,11.91,11.88,0,0.01,3
8822,3.5488e+07,0,1.93,0,-1.62,11.91,11.89,0,0.01,3
8864,3.5498e+07,0,1.93,0,-1.62,11.91,11.89,0,0.01,3
8904,3.5508e+07,0,1.93,0,-1.62,11.91,11.89,0,0.01,3
8948,3.552e+07,0,1.93,0,-1.62,11.91,11.89,0,0.01,3
8988,3.5531e+07,0,1.93,0,-1.62,11.91,11.89,0,0.01,3
9032,3.5541e+07,0,1.92,0,-1.62,11.91,11.89,0,0.01,3
9074,3.5551e+07,0,1.93,0,-1.62,11.91,11.89,0,0.01,3
9115,3.5561e+07,0,1.92,0,-1.62,11.92,11.89,0,0.01,3
9160,3.5571e+07,0,1.93,0,-1.62,11.92,11.89,0,0.01,3
9200,3.5581e+07,0,1.92,0,-1.62,11.92,11.9,0,0.01,3
9242,3.5591e+07,0,1.92,0,-1.62,11.92,11.9,0,0.01,3
9282,3.5602e+07,0,1.92,0,-1.62,11.92,11.9,0,0.01,3
9326,3.5617e+07,0,1.92,0,-1.62,11.93,11.9,0,0.01,3
9367,3.5627e+07,0,1.92,0,-1.62,11.93,11.9,0,0.01,3
9407,3.5637e+07,0,1.92,0,-1.62,11.93,11.9,0,0.01,3
9448,3.5647e+07,0,1.92,0,-1.62,11.93,11.9,0,0.01,3
9489,3.5658e+07,0,1.92,0,-1.62,11.93,11.9,0,0.01,3
9530,3.5668e+07,0,1.92,0,-1.62,11.93,11.9,0,0.01,3
9575,3.5678e+07,0,1.92,0,-1.62,11.93,11.9,0,0.01,3
9615,3.5688e+07,0,1.92,0,-1.62,11.93,11.9,0,0.01,3
9656,3.5699e+07,0,1.92,0,-1.62,11.93,11.9,0,0.01,3
9697,3.5709e+07,0,1.92,0,-1.62,11.93,11.9,0,0.01,3
9738,3.5719e+07,0,1.92,0,-1.62,11.93,11.91,0,0.01,3
9782,3.573e+07,0,1.92,0,-1.62,11.93,11.91,0,0.01,3
9819,3.5741e+07,0,1.92,0,-1.62,11.93,11.91,0,0.01,3
9860,3.5751e+07,0,1.92,0,-1.62,11.93,11.9,0,0.01,3
9900,3.5761e+07,0,1.92,0,-1.62,11.93,11.91,0,0.01,3
9941,3.5772e+07,0,1.92,0,-1.62,11.93,11.91,0,0.01,3
9985,3.5782e+07,0,1.92,0,-1.62,11.93,11.91,0,0.01,3
10026,3.5792e+07,0,1.92,0,-1.62,11.93,11.91,0,0.01,3
10067,3.5802e+07,0,1.92,0,-1.62,11.93,11.91,0,0.01,3
10108,3.5812e+07,0,1.92,0,-1.62,11.94,11.91,0,0.01,3
10148,3.5823e+07,0,1.92,0,-1.63,11.94,11.91,0,0.01,3
10188,3.5833e+07,0,1.92,0,-1.63,11.94,11.91,0,0.01,3
10228,3.5844e+07,0,1.92,0,-1.63,11.94,11.92,0,0.01,3
10269,3.5854e+07,0,1.92,0,-1.63,11.94,11.92,0,0.01,3
10310,3.5864e+07,0,1.93,0,-1.62,11.94,11.92,0,0.01,3
10351,3.5875e+07,0,1.93,0,-1.62,11.94,11.92,0,0.01,3
10395,3.5885e+07,0,1.93,0,-1.62,11.95,11.92,0,0,3
10436,3.5895e+07,0,1.93,0,-1.62,11.95,11.93,0,0,3
10476,3.5906e+07,0,1.92,0,-1.62,11.95,11.93,0,0,3
10517,3.5916e+07,0,1.92,0,-1.62,11.96,11.93,0,0,3
10556,3.5926e+07,0,1.92,0,-1.62,11.96,11.94,0,0,3
10598,3.5936e+07,0,1.92,0,-1.62,11.96,11.94,0,0,3
10638,3.5947e+07,0,1.92,0,-1.62,11.96,11.94,0,0,3
10665,3.5977e+07,0,1.92,0,-1.62,11.97,11.95,0,0,3
10709,3.5987e+07,0,1.92,0,-1.62,11.97,11.95,0,0.01,3
10750,3.5996e+07,0,1.92,0,-1.62,11.97,11.95,0,0.01,3
10790,3.6007e+07,0,1.92,0,-1.62,11.98,11.95,0,0.01,3
10834,3.6022e+07,0,1.92,0,-1.62,11.98,11.96,0,0.01,3
10875,3.6032e+07,0,1.92,0,-1.63,11.99,11.96,0,0.01,3
10918,3.6043e+07,0,1.92,0,-1.63,11.99,11.97,0,0.01,3
10959,3.6053e+07,0,1.92,0,-1.63,12,11.97,0,0.01,3
10999,3.6063e+07,0,1.92,0,-1.63,12,11.98,0,0.01,3
11042,3.6073e+07,0,1.92,0,-1.63,12.01,11.98,0,0.01,3
11086,3.6083e+07,0,1.92,0,-1.63,12.01,11.99,0,0.01,3
11127,3.6093e+07,0,1.92,0,-1.63,12.02,12,0,0.01,3
11167,3.6103e+07,0,1.92,0,-1.63,12.03,12,0,0.01,3
11208,3.6113e+07,0,1.92,0,-1.62,12.03,12.01,0,0.01,3
11253,3.6127e+07,0,1.92,0,-1.62,12.04,12.02,0,0.01,3
11295,3.6138e+07,0,1.92,0,-1.62,12.05,12.03,0,0.01,3
11336,3.6148e+07,0,1.92,0,-1.62,12.06,12.03,0,0.01,3
11377,3.6158e+07,0,1.92,0,-1.62,12.07,12.04,0,0.01,3
11418,3.6168e+07,0,1.92,0,-1.62,12.07,12.05,0,0.01,3
11462,3.6178e+07,0,1.92,0,-1.62,12.08,12.06,0,0.01,3
11506,3.6188e+07,0,1.92,0,-1.62,12.09,12.06,0,0.01,3
11547,3.6198e+07,0,1.92,0,-1.62,12.1,12.07,0,0.01,3
11587,3.6208e+07,0,1.92,0,-1.62,12.1,12.08,0,0.01,3
11628,3.6218e+07,0,1.92,0,-1.62,12.11,12.09,0,0.01,3
11665,3.6228e+07,0,1.92,0,-1.62,12.12,12.09,0,0.01,3
11706,3.6239e+07,0,1.92,0,-1.62,12.12,12.1,0,0.01,3
11747,3.625e+07,0,1.92,0,-1.62,12.13,12.1,0,0.01,3
11788,3.626e+07,0,1.92,0,-1.62,12.13,12.11,0,0.01,3
11829,3.627e+07,0,1.92,0,-1.62,12.13,12.11,0,0.01,3
11870,3.628e+07,0,1.92,0,-1.62,12.14,12.11,0,0.01,3
11916,3.6291e+07,0,1.92,0,-1.62,12.14,12.12,0,0.01,3
11956,3.6301e+07,0,1.92,0,-1.62,12.14,12.12,0,0.01,3
11997,3.6311e+07,0,1.92,0,-1.62,12.15,12.12,0,0.01,3
12038,3.6321e+07,0,1.92,0,-1.62,12.15,12.13,0,0.01,3
12078,3.6334e+07,0,1.92,0,-1.62,12.15,12.13,0,0.01,3
12118,3.6344e+07,0,1.92,0,-1.62,12.15,12.13,0,0.01,3
12159,3.6355e+07,0,1.92,0,-1.62,12.15,12.13,0,0.01,3
12200,3.6365e+07,0,1.92,0,-1.62,12.15,12.13,0,0.01,3
12241,3.6375e+07,0,1.92,0,-1.62,12.16,12.13,0,0.01,3
12282,3.6385e+07,0,1.92,0,-1.62,12.16,12.14,0,0.01,3
12329,3.6395e+07,0,1.92,0,-1.62,12.16,12.14,0,0.01,3
12369,3.6406e+07,0,1.92,0,-1.62,12.16,12.14,0,0.01,3
12410,3.6416e+07,0,1.92,0,-1.62,12.17,12.14,0,0.01,3
12451,3.6426e+07,0,1.92,0,-1.62,12.17,12.15,0,0.01,3
12492,3.6439e+07,0,1.92,0,-1.62,12.17,12.15,0,0.01,3
12532,3.6449e+07,0,1.92,0,-1.62,12.17,12.15,0,0.01,3
12572,3.646e+07,0,1.92,0,-1.62,12.17,12.15,0,0.01,3
12612,3.647e+07,0,1.92,0,-1.62,12.17,12.15,0,0.01,3
12653,3.648e+07,0,1.92,0,-1.62,12.17,12.15,0,0.01,3
12699,3.6491e+07,0,1.92,0,-1.62,12.17,12.15,0,0.01,3
12740,3.6501e+07,0,1.92,0,-1.62,12.18,12.15,0,0.01,3
12780,3.6511e+07,0,1.92,0,-1.62,12.18,12.16,0,0.01,3
12823,3.6522e+07,0,1.92,0,-1.62,12.18,12.16,0,0.01,3
12864,3.6533e+07,0,1.92,0,-1.62,12.18,12.16,0,0.01,3
12906,3.6543e+07,0,1.92,0,-1.62,12.18,12.16,0,0.01,3
12947,3.6554e+07,0,1.92,0,-1.62,12.19,12.16,0,0.01,3
12987,3.6563e+07,0,1.92,0,-1.62,12.19,12.16,0,0.01,3
13028,3.6573e+07,0,1.92,0,-1.62,12.19,12.16,0,0.01,3
13069,3.6584e+07,0,1.92,0,-1.62,12.19,12.16,0,0.01,3
13114,3.6594e+07,0,1.92,0,-1.62,12.19,12.16,0,0.01,3
13155,3.6604e+07,0,1.92,0,-1.62,12.19,12.17,0,0,3
13196,3.6614e+07,0,1.92,0,-1.62,12.19,12.17,0,0,3
13236,3.6625e+07,0,1.92,0,-1.62,12.19,12.17,0,0,3
13277,3.6637e+07,0,1.92,0,-1.62,12.2,12.17,0,0,3
13315,3.6648e+07,0,1.92,0,-1.62,12.2,12.17,0,0,3
13356,3.6658e+07,0,1.92,0,-1.62,12.2,12.17,0,0,3
13397,3.6668e+07,0,1.92,0,-1.62,12.2,12.17,0,0,3
13437,3.6679e+07,0,1.92,0,-1.62,12.2,12.17,0,0,3
13478,3.6689e+07,0,1.92,0,-1.62,12.2,12.18,0,0,3
13524,3.6699e+07,0,1.92,0,-1.62,12.2,12.18,0,0.01,3
13565,3.6709e+07,0,1.92,0,-1.62,12.2,12.18,0,0.01,3
13606,3.6719e+07,0,1.92,0,-1.62,12.2,12.18,0,0.01,3
13648,3.6729e+07,0,1.92,0,-1.62,12.2,12.18,0,0.01,3
13689,3.6743e+07,0,1.92,0,-1.62,12.2,12.18,0,0.01,3
13730,3.6753e+07,0,1.92,0,-1.62,12.2,12.18,0,0.01,3
13770,3.6764e+07,0,1.93,0,-1.62,12.2,12.18,0,0.01,3
13812,3.6774e+07,0,1.93,0,-1.62,12.2,12.18,0,0.01,3
13852,3.6785e+07,0,1.93,0,-1.62,12.2,12.17,0,0.01,3
13893,3.6795e+07,0,1.93,0,-1.62,12.2,12.17,0,0.01,3
13937,3.6805e+07,0,1.93,0,-1.62,12.2,12.17,0,0,3
13979,3.6815e+07,0,1.93,0,-1.62,12.2,12.17,0,0,3
14020,3.6826e+07,0,1.93,0,-1.62,12.2,12.17,0,0,3
14061,3.6836e+07,0,1.93,0,-1.62,12.2,12.17,0,0,3
14106,3.6852e+07,0,1.92,0,-1.62,12.2,12.18,0,0,3
14147,3.6862e+07,0,1.92,0,-1.62,12.2,12.18,0,0,3
14188,3.6872e+07,0,1.92,0,-1.62,12.2,12.17,0,0,3
14229,3.6882e+07,0,1.92,0,-1.62,12.2,12.17,0,0,3
14271,3.6892e+07,0,1.92,0,-1.62,12.19,12.17,0,0,3
14315,3.6903e+07,0,1.92,0,-1.62,12.19,12.17,0,0,3
14356,3.6913e+07,0,1.92,0,-1.62,12.19,12.17,0,0,3
14397,3.6923e+07,0,1.92,0,-1.62,12.2,12.17,0,0,3
14440,3.6934e+07,0,1.93,0,-1.62,12.2,12.17,0,0,3
14478,3.6944e+07,0,1.93,0,-1.62,12.2,12.17,0,0,3
14516,3.6954e+07,0,1.93,0,-1.62,12.2,12.18,0,0,3
14557,3.6964e+07,0,1.93,0,-1.62,12.2,12.17,0,0,3
14597,3.6975e+07,0,1.93,0,-1.62,12.2,12.17,0,0,3
14638,3.6985e+07,0,1.93,0,-1.62,12.2,12.18,0,0,3
14678,3.6995e+07,0,1.93,0,-1.62,12.2,12.18,0,0,3
14723,3.7006e+07,0,1.92,0,-1.62,12.2,12.18,0,0,3
14766,3.7016e+07,0,1.92,0,-1.62,12.2,12.18,0,0,3
14806,3.7026e+07,0,1.92,0,-1.62,12.2,12.18,0,0,3
14849,3.7036e+07,0,1.92,0,-1.62,12.2,12.18,0,0,3
14889,3.7046e+07,0,1.92,0,-1.62,12.2,12.18,0,0,3
14927,3.7056e+07,0,1.92,0,-1.62,12.2,12.18,0,0,3
14965,3.7066e+07,0,1.92,0,-1.62,12.2,12.18,0,0,3
15006,3.7076e+07,0,1.93,0,-1.62,12.2,12.17,0,0,3
15047,3.7086e+07,0,1.93,0,-1.62,12.2,12.17,0,0,3
15087,3.7097e+07,0,1.93,0,-1.62,12.19,12.17,0,0,3
15132,3.7107e+07,0,1.93,0,-1.62,12.2,12.17,0,0,3
15178,3.712e+07,0,1.93,0,-1.62,12.19,12.17,0,0,3
15220,3.713e+07,0,1.93,0,-1.62,12.2,12.17,0,0,3
15260,3.7141e+07,0,1.92,0,-1.62,12.2,12.17,0,0,3
15301,3.7151e+07,0,1.92,0,-1.62,12.2,12.18,0,0,3
15337,3.7162e+07,0,1.92,0,-1.62,12.2,12.18,0,0,3
15377,3.7172e+07,0,1.92,0,-1.62,12.2,12.18,0,0,3
15419,3.7182e+07,0,1.92,0,-1.62,12.2,12.18,0,0,3
15459,3.7192e+07,0,1.92,0,-1.62,12.2,12.17,0,0,3
15500,3.7202e+07,0,1.92,0,-1.62,12.2,12.17,0,0,3
15545,3.7212e+07,0,1.92,0,-1.62,12.2,12.18,0,0.01,3
15586,3.7222e+07,0,1.92,0,-1.62,12.2,12.18,0,0.01,3
15629,3.7232e+07,0,1.92,0,-1.62,12.2,12.18,0,0.01,3
15669,3.7242e+07,0,1.92,0,-1.62,12.2,12.18,0,0.01,3
15710,3.7252e+07,0,1.92,0,-1.62,12.21,12.18,0,0.01,3
15744,3.7263e+07,0,1.92,0,-1.63,12.2,12.18,0,0.01,3
15785,3.7272e+07,0,1.92,0,-1.63,12.2,12.18,0,0.01,3
15827,3.7283e+07,0,1.92,0,-1.63,12.21,12.18,0,0.01,3
15867,3.7293e+07,0,1.92,0,-1.63,12.21,12.18,0,0.01,3
15908,3.7303e+07,0,1.92,0,-1.62,12.21,12.18,0,0.01,3
15952,3.7313e+07,0,1.92,0,-1.62,12.21,12.18,0,0,3
15995,3.7323e+07,0,1.92,0,-1.62,12.21,12.18,0,0,3
16036,3.7333e+07,0,1.92,0,-1.62,12.21,12.18,0,0,3
16078,3.7343e+07,0,1.92,0,-1.62,12.21,12.18,0,0,3
16121,3.7355e+07,0,1.92,0,-1.62,12.21,12.19,0,0,3
16162,3.7366e+07,0,1.92,0,-1.62,12.21,12.18,0,0,3
16203,3.7376e+07,0,1.92,0,-1.62,12.2,12.18,0,0,3
16243,3.7386e+07,0,1.92,0,-1.62,12.2,12.18,0,0,3
16284,3.7396e+07,0,1.92,0,-1.62,12.2,12.18,0,0,3
16324,3.7406e+07,0,1.93,0,-1.62,12.2,12.18,0,0,3
16371,3.7416e+07,0,1.93,0,-1.62,12.2,12.18,0,0,3
16411,3.7427e+07,0,1.93,0,-1.62,12.2,12.18,0,0,3
16452,3.7437e+07,0,1.93,0,-1.62,12.21,12.18,0,0,3
16495,3.7447e+07,0,1.93,0,-1.62,12.21,12.19,0,0,3
16529,3.7457e+07,0,1.93,0,-1.62,12.21,12.19,0,0,3
16569,3.7468e+07,0,1.93,0,-1.62,12.21,12.19,0,0,3
16610,3.7478e+07,0,1.93,0,-1.62,12.21,12.19,0,0,3
16652,3.7488e+07,0,1.93,0,-1.62,12.21,12.19,0,0,3
16692,3.7498e+07,0,1.93,0,-1.62,12.21,12.19,0,0,3
16733,3.7509e+07,0,1.93,0,-1.62,12.21,12.19,0,0,3
16778,3.7519e+07,0,1.93,0,-1.62,12.21,12.19,0,0,3
16823,3.7529e+07,0,1.93,0,-1.63,12.21,12.19,0,0,3
16864,3.7539e+07,0,1.93,0,-1.62,12.21,12.19,0,0,3
16907,3.7552e+07,0,1.93,0,-1.62,12.21,12.19,0,0,3
16951,3.7564e+07,0,1.93,0,-1.62,12.21,12.19,0,0,3
16992,3.7574e+07,0,1.92,0,-1.62,12.21,12.18,0,0,3
17033,3.7585e+07,0,1.92,0,-1.62,12.2,12.18,0,0,3
17075,3.7595e+07,0,1.92,0,-1.62,12.2,12.18,0,0,3
17115,3.7604e+07,0,1.92,0,-1.62,12.2,12.18,0,0,3
17160,3.7615e+07,0,1.93,0,-1.62,12.2,12.18,0,0,3
17200,3.7625e+07,0,1.92,0,-1.62,12.21,12.18,0,0,3
17241,3.7636e+07,0,1.93,0,-1.62,12.21,12.18,0,0,3
17283,3.7646e+07,0,1.93,0,-1.62,12.21,12.18,0,0,3
17323,3.7656e+07,0,1.93,0,-1.62,12.21,12.19,0,0,3
17361,3.7666e+07,0,1.93,0,-1.62,12.21,12.19,0,0,3
17401,3.7677e+07,0,1.93,0,-1.62,12.21,12.18,0,0,3
17443,3.7688e+07,0,1.92,0,-1.62,12.2,12.18,0,0,3
17483,3.7698e+07,0,1.92,0,-1.62,12.2,12.18,0,0,3
17524,3.7708e+07,0,1.92,0,-1.62,12.2,12.18,0,0,3
17570,3.7719e+07,0,1.92,0,-1.62,12.2,12.18,0,0,3
17612,3.7729e+07,0,1.92,0,-1.62,12.2,12.17,0,0,3
17653,3.774e+07,0,1.92,0,-1.62,12.2,12.17,0,0,3
17693,3.775e+07,0,1.93,0,-1.62,12.2,12.17,0,0,3
17734,3.776e+07,0,1.93,0,-1.62,12.2,12.18,0,0,3
17771,3.7771e+07,0,1.93,0,-1.63,12.2,12.18,0,0,3
17813,3.7781e+07,0,1.93,0,-1.62,12.2,12.18,0,0,3
17856,3.7792e+07,0,1.93,0,-1.62,12.2,12.17,0,0,3
17896,3.7802e+07,0,1.93,0,-1.63,12.2,12.17,0,0,3
17937,3.7812e+07,0,1.93,0,-1.62,12.2,12.17,0,0,3
17982,3.7822e+07,0,1.93,0,-1.62,12.2,12.17,0,0,3
18023,3.7832e+07,0,1.93,0,-1.62,12.2,12.17,0,0.01,3
18064,3.7843e+07,0,1.93,0,-1.62,12.19,12.17,0,0.01,3
18104,3.7853e+07,0,1.93,0,-1.62,12.19,12.17,0,0.01,3
18145,3.7863e+07,0,1.92,0,-1.62,12.19,12.17,0,0.01,3
18186,3.7877e+07,0,1.92,0,-1.62,12.19,12.17,0,0.01,3
18228,3.7886e+07,0,1.92,0,-1.62,12.19,12.17,0,0.01,3
18269,3.7897e+07,0,1.93,0,-1.62,12.19,12.17,0,0.01,3
18310,3.7907e+07,0,1.93,0,-1.62,12.2,12.17,0,0.01,3
18351,3.7917e+07,0,1.93,0,-1.62,12.2,12.18,0,0.01,3
18395,3.7927e+07,0,1.93,0,-1.62,12.2,12.18,0,0.01,3
18438,3.7937e+07,0,1.93,0,-1.62,12.2,12.18,0,0.01,3
18479,3.7948e+07,0,1.93,0,-1.62,12.21,12.18,0,0.01,3
18520,3.7958e+07,0,1.93,0,-1.62,12.21,12.19,0,0.01,3
18558,3.7969e+07,0,1.93,0,-1.62,12.21,12.19,0,0.01,3
18598,3.7979e+07,0,1.93,0,-1.62,12.21,12.19,0,0.01,3
18639,3.7989e+07,0,1.93,0,-1.62,12.21,12.19,0,0.01,3
18680,3.8e+07,0,1.93,0,-1.62,12.22,12.19,0,0.01,3
18721,3.801e+07,0,1.92,0,-1.62,12.22,12.19,0,0.01,3
18764,3.802e+07,0,1.92,0,-1.62,12.22,12.19,0,0.01,3
18809,3.803e+07,0,1.92,0,-1.62,12.22,12.2,0,0.01,3
18850,3.804e+07,0,1.92,0,-1.62,12.22,12.2,0,0.01,3
18890,3.8051e+07,0,1.92,0,-1.62,12.22,12.2,0,0.01,3
18931,3.8061e+07,0,1.92,0,-1.62,12.22,12.2,0,0.01,3
18975,3.8074e+07,0,1.93,0,-1.62,12.23,12.2,0,0.01,3
19016,3.8085e+07,0,1.93,0,-1.62,12.23,12.21,0,0.01,3
19057,3.8095e+07,0,1.93,0,-1.62,12.23,12.2,0,0.01,3
19097,3.8106e+07,0,1.93,0,-1.62,12.23,12.21,0,0.01,3
19140,3.8116e+07,0,1.93,0,-1.62,12.23,12.21,0,0.01,3
19182,3.8126e+07,0,1.93,0,-1.62,12.23,12.21,0,0.01,3
19227,3.8136e+07,0,1.93,0,-1.62,12.23,12.21,0,0,3
19267,3.8146e+07,0,1.93,0,-1.62,12.23,12.21,0,0,3
19308,3.8156e+07,0,1.93,0,-1.62,12.23,12.21,0,0,3
19350,3.8166e+07,0,1.93,0,-1.62,12.23,12.21,0,0,3
19384,3.8177e+07,0,1.93,0,-1.62,12.23,12.21,0,0,3
19425,3.8187e+07,0,1.93,0,-1.62,12.23,12.21,0,0,3
19466,3.8197e+07,0,1.93,0,-1.62,12.23,12.2,0,0,3
19507,3.8208e+07,0,1.93,0,-1.62,12.23,12.2,0,0,3
19548,3.8218e+07,0,1.93,0,-1.62,12.23,12.2,0,0,3
19589,3.8228e+07,0,1.93,0,-1.62,12.23,12.2,0,0,3
19634,3.8238e+07,0,1.93,0,-1.62,12.23,12.2,0,0,3
19675,3.8248e+07,0,1.93,0,-1.62,12.23,12.21,0,0,3
19717,3.8258e+07,0,1.93,0,-1.62,12.23,12.21,0,0,3
19757,3.8269e+07,0,1.93,0,-1.62,12.23,12.21,0,0,3
19801,3.8282e+07,0,1.93,0,-1.62,12.23,12.21,0,0,3
19841,3.8293e+07,0,1.93,0,-1.62,12.23,12.21,0,0,3
19883,3.8303e+07,0,1.93,0,-1.62,12.23,12.21,0,0,3
19924,3.8313e+07,0,1.93,0,-1.62,12.23,12.21,0,0,3
19964,3.8323e+07,0,1.93,0,-1.62,12.23,12.21,0,0,3
20007,3.8333e+07,0,1.93,0,-1.62,12.23,12.21,0,0,3
20052,3.8344e+07,0,1.93,0,-1.62,12.23,12.21,0,0.01,3
20093,3.8353e+07,0,1.93,0,-1.62,12.23,12.21,0,0.01,3
20135,3.8364e+07,0,1.93,0,-1.62,12.23,12.21,0,0.01,3
20175,3.8374e+07,0,1.93,0,-1.62,12.24,12.21,0,0.01,3
20216,3.8384e+07,0,1.93,0,-1.62,12.24,12.21,0,0.01,3
20256,3.8394e+07,0,1.93,0,-1.62,12.23,12.21,0,0.01,3
20297,3.8404e+07,0,1.93,0,-1.62,12.23,12.21,0,0.01,3
20337,3.8415e+07,0,1.93,0,-1.62,12.23,12.21,0,0.01,3
20379,3.8425e+07,0,1.93,0,-1.62,12.23,12.21,0,0.01,3
20420,3.8435e+07,0,1.93,0,-1.62,12.23,12.21,0,0.01,3
20466,3.8446e+07,0,1.93,0,-1.62,12.23,12.21,0,0,3
20508,3.8456e+07,0,1.93,0,-1.62,12.23,12.21,0,0,3
20548,3.8466e+07,0,1.93,0,-1.62,12.23,12.21,0,0,3
20590,3.8476e+07,0,1.93,0,-1.62,12.23,12.21,0,0,3
20637,3.8492e+07,0,1.93,0,-1.62,12.23,12.21,0,0,3
20678,3.8503e+07,0,1.93,0,-1.62,12.23,12.2,0,0,3
20720,3.8513e+07,0,1.93,0,-1.62,12.23,12.2,0,0,3
20761,3.8523e+07,0,1.94,0,-1.62,12.22,12.2,0,0,3
20803,3.8534e+07,0,1.94,0,-1.62,12.22,12.2,0,0,3
20848,3.8544e+07,0,1.94,0,-1.62,12.22,12.2,0,0.01,3
20891,3.8553e+07,0,1.94,0,-1.62,12.22,12.2,0,0.01,3
20931,3.8564e+07,0,1.94,0,-1.62,12.22,12.2,0,0.01,3
20972,3.8574e+07,0,1.93,0,-1.62,12.22,12.2,0,0.01,3
21012,3.8587e+07,0,1.93,0,-1.62,12.22,12.2,0,0.01,3
21052,3.8597e+07,0,1.93,0,-1.62,12.22,12.19,0,0.01,3
21093,3.8607e+07,0,1.93,0,-1.62,12.21,12.19,0,0.01,3
21134,3.8617e+07,0,1.93,0,-1.62,12.21,12.19,0,0.01,3
21175,3.8627e+07,0,1.93,0,-1.62,12.2,12.18,0,0.01,3
21216,3.8637e+07,0,1.93,0,-1.62,12.2,12.18,0,0.01,3
21261,3.8647e+07,0,1.93,0,-1.62,12.2,12.17,0,0.01,3
21302,3.8658e+07,0,1.94,0,-1.62,12.19,12.17,0,0.01,3
21343,3.8668e+07,0,1.94,0,-1.62,12.19,12.17,0,0.01,3
21384,3.8678e+07,0,1.94,0,-1.62,12.19,12.16,0,0.01,3
21422,3.8688e+07,0,1.94,0,-1.62,12.19,12.16,0,0.01,3
21463,3.8701e+07,0,1.94,0,-1.62,12.18,12.16,0,0.01,3
21503,3.8711e+07,0,1.94,0,-1.63,12.18,12.16,0,0.01,3
21544,3.8722e+07,0,1.94,0,-1.63,12.18,12.16,0,0.01,3
21584,3.8732e+07,0,1.94,0,-1.63,12.18,12.16,0,0.01,3
21627,3.8742e+07,0,1.93,0,-1.63,12.18,12.16,0,0.01,3
21672,3.8753e+07,0,1.93,0,-1.63,12.18,12.16,0,0.01,3
21714,3.8763e+07,0,1.93,0,-1.63,12.18,12.16,0,0.01,3
21755,3.8773e+07,0,1.93,0,-1.63,12.18,12.16,0,0.01,3
21798,3.8786e+07,0,1.93,0,-1.63,12.18,12.16,0,0.01,3
21836,3.8796e+07,0,1.93,0,-1.62,12.18,12.16,0,0.01,3
21876,3.8806e+07,0,1.93,0,-1.62,12.18,12.16,0,0.01,3
21918,3.8817e+07,0,1.93,0,-1.62,12.18,12.16,0,0.01,3
21959,3.8827e+07,0,1.94,0,-1.63,12.18,12.16,0,0.01,3
21999,3.8837e+07,0,1.94,0,-1.63,12.18,12.16,0,0.01,3
22044,3.8848e+07,0,1.94,0,-1.63,12.18,12.16,0,0.01,3
22084,3.8858e+07,0,1.94,0,-1.63,12.18,12.16,0,0,3
22127,3.8868e+07,0,1.94,0,-1.63,12.18,12.16,0,0,3
22167,3.8879e+07,0,1.94,0,-1.63,12.19,12.16,0,0,3
22209,3.8889e+07,0,1.93,0,-1.62,12.19,12.16,0,0,3
22247,3.89e+07,0,1.93,0,-1.62,12.19,12.17,0,0,3
22287,3.891e+07,0,1.93,0,-1.62,12.19,12.16,0,0,3
22328,3.8921e+07,0,1.93,0,-1.62,12.19,12.16,0,0,3
22370,3.8931e+07,0,1.93,0,-1.62,12.19,12.16,0,0,3
22413,3.8942e+07,0,1.93,0,-1.63,12.19,12.17,0,0,3
22458,3.8952e+07,0,1.93,0,-1.63,12.19,12.16,0,0,3
22498,3.8962e+07,0,1.93,0,-1.63,12.19,12.16,0,0,3
22539,3.8972e+07,0,1.93,0,-1.63,12.19,12.16,0,0,3
22585,3.8985e+07,0,1.93,0,-1.63,12.19,12.16,0,0,3
22625,3.8996e+07,0,1.94,0,-1.63,12.19,12.16,0,0,3
22665,3.9007e+07,0,1.94,0,-1.63,12.18,12.16,0,0,3
22705,3.9017e+07,0,1.94,0,-1.63,12.18,12.16,0,0,3
22746,3.9027e+07,0,1.94,0,-1.62,12.18,12.15,0,0,3
22788,3.9037e+07,0,1.94,0,-1.62,12.17,12.15,0,0,3
22828,3.9047e+07,0,1.94,0,-1.62,12.17,12.15,0,0,3
22874,3.9057e+07,0,1.94,0,-1.62,12.17,12.15,0,0.01,3
22914,3.9067e+07,0,1.94,0,-1.62,12.17,12.15,0,0.01,3
22956,3.9076e+07,0,1.93,0,-1.62,12.17,12.15,0,0.01,3
22997,3.9087e+07,0,1.93,0,-1.62,12.17,12.15,0,0.01,3
23034,3.9097e+07,0,1.93,0,-1.62,12.17,12.15,0,0.01,3
23072,3.9108e+07,0,1.93,0,-1.62,12.17,12.15,0,0.01,3
23113,3.9119e+07,0,1.94,0,-1.62,12.17,12.14,0,0.01,3
23155,3.9129e+07,0,1.94,0,-1.62,12.17,12.14,0,0.01,3
23196,3.914e+07,0,1.94,0,-1.62,12.16,12.14,0,0.01,3
23236,3.915e+07,0,1.94,0,-1.62,12.16,12.14,0,0.01,3
23281,3.916e+07,0,1.94,0,-1.62,12.16,12.14,0,0.01,3
23324,3.9171e+07,0,1.94,0,-1.62,12.16,12.14,0,0.01,3
23365,3.9181e+07,0,1.94,0,-1.62,12.16,12.14,0,0.01,3
23406,3.9191e+07,0,1.94,0,-1.62,12.17,12.14,0,0.01,3
23443,3.9201e+07,0,1.94,0,-1.62,12.17,12.15,0,0.01,3
23484,3.9214e+07,0,1.94,0,-1.63,12.17,12.15,0,0.01,3
23525,3.9224e+07,0,1.94,0,-1.63,12.17,12.15,0,0.01,3
23566,3.9235e+07,0,1.94,0,-1.63,12.18,12.15,0,0.01,3
23607,3.9245e+07,0,1.94,0,-1.63,12.18,12.16,0,0.01,3
23647,3.9255e+07,0,1.94,0,-1.63,12.18,12.16,0,0.01,3
23692,3.9265e+07,0,1.94,0,-1.63,12.18,12.16,0,0.01,3
23733,3.9276e+07,0,1.94,0,-1.63,12.18,12.16,0,0.01,3
23775,3.9286e+07,0,1.94,0,-1.63,12.19,12.16,0,0.01,3
23816,3.9296e+07,0,1.94,0,-1.63,12.19,12.16,0,0.01,3
23854,3.9309e+07,0,1.94,0,-1.63,12.19,12.17,0,0.01,3
23895,3.9319e+07,0,1.94,0,-1.63,12.19,12.17,0,0.01,3
23935,3.9329e+07,0,1.94,0,-1.63,12.19,12.17,0,0.01,3
23978,3.9339e+07,0,1.94,0,-1.63,12.2,12.17,0,0.01,3
24019,3.9349e+07,0,1.94,0,-1.63,12.2,12.17,0,0.01,3
24060,3.936e+07,0,1.94,0,-1.63,12.2,12.18,0,0.01,3
24105,3.937e+07,0,1.94,0,-1.63,12.2,12.18,0,0.01,3
24145,3.938e+07,0,1.94,0,-1.63,12.21,12.18,0,0.01,3
24187,3.939e+07,0,1.94,0,-1.63,12.21,12.19,0,0.01,3
24230,3.9403e+07,0,1.94,0,-1.63,12.22,12.19,0,0.01,3
24268,3.9414e+07,0,1.94,0,-1.63,12.22,12.19,0,0.01,3
24310,3.9424e+07,0,1.94,0,-1.63,12.22,12.2,0,0.01,3
24350,3.9434e+07,0,1.94,0,-1.63,12.22,12.2,0,0.01,3
24391,3.9444e+07,0,1.94,0,-1.63,12.22,12.2,0,0.01,3
24432,3.9454e+07,0,1.94,0,-1.63,12.23,12.2,0,0.01,3
24482,3.9467e+07,0,1.94,0,-1.63,12.23,12.21,0,0.01,3
24523,3.9477e+07,0,1.94,0,-1.63,12.23,12.21,0,0.01,3
24563,3.9487e+07,0,1.94,0,-1.63,12.23,12.21,0,0.01,3
24606,3.9497e+07,0,1.94,0,-1.63,12.24,12.22,0,0.01,3
24646,3.9508e+07,0,1.94,0,-1.63,12.24,12.22,0,0.01,3
24688,3.9517e+07,0,1.94,0,-1.62,12.25,12.22,0,0.01,3
24729,3.9528e+07,0,1.94,0,-1.62,12.25,12.22,0,0.01,3
24769,3.9538e+07,0,1.94,0,-1.62,12.25,12.23,0,0.01,3
24810,3.9548e+07,0,1.94,0,-1.63,12.25,12.23,0,0.01,3
24850,3.9558e+07,0,1.94,0,-1.63,12.26,12.23,0,0.01,3
24895,3.9568e+07,0,1.94,0,-1.63,12.26,12.23,0,0.01,3
24936,3.9578e+07,0,1.93,0,-1.63,12.26,12.24,0,0.01,3
24977,3.9588e+07,0,1.93,0,-1.63,12.26,12.24,0,0.01,3
25018,3.9598e+07,0,1.93,0,-1.63,12.26,12.24,0,0.01,3
25055,3.9608e+07,0,1.93,0,-1.63,12.27,12.24,0,0.01,3
25097,3.9618e+07,0,1.93,0,-1.63,12.27,12.24,0,0.01,3
25138,3.9629e+07,0,1.94,0,-1.63,12.27,12.24,0,0.01,3
25179,3.9639e+07,0,1.94,0,-1.63,12.27,12.25,0,0.01,3
25220,3.9649e+07,0,1.94,0,-1.63,12.27,12.25,0,0.01,3
25260,3.9659e+07,0,1.94,0,-1.63,12.27,12.25,0,0.01,3
25305,3.9669e+07,0,1.94,0,-1.63,12.28,12.25,0,0.01,3
25346,3.968e+07,0,1.94,0,-1.63,12.28,12.26,0,0.01,3
25386,3.969e+07,0,1.94,0,-1.63,12.28,12.26,0,0.01,3
25427,3.97e+07,0,1.94,0,-1.63,12.29,12.26,0,0.01,3
25468,3.9711e+07,0,1.94,0,-1.63,12.29,12.26,0,0.01,3
25508,3.9721e+07,0,1.94,0,-1.63,12.29,12.27,0,0.01,3
25552,3.9732e+07,0,1.94,0,-1.63,12.29,12.26,0,0.01,3
25593,3.9742e+07,0,1.94,0,-1.63,12.29,12.26,0,0.01,3
25633,3.9752e+07,0,1.94,0,-1.63,12.29,12.26,0,0.01,3
25675,3.9762e+07,0,1.94,0,-1.63,12.29,12.26,0,0.01,3
25719,3.9772e+07,0,1.94,0,-1.63,12.28,12.26,0,0.01,3
25760,3.9782e+07,0,1.94,0,-1.63,12.28,12.26,0,0.01,3
25800,3.9793e+07,0,1.94,0,-1.63,12.28,12.26,0,0.01,3
25841,3.9803e+07,0,1.94,0,-1.63,12.28,12.26,0,0.01,3
25883,3.9814e+07,0,1.94,0,-1.63,12.28,12.26,0,0.01,3
25923,3.9825e+07,0,1.94,0,-1.63,12.28,12.26,0,0.01,3
25965,3.9835e+07,0,1.94,0,-1.63,12.28,12.26,0,0.01,3
26005,3.9845e+07,0,1.94,0,-1.63,12.28,12.26,0,0.01,3
26047,3.9856e+07,0,1.94,0,-1.63,12.28,12.26,0,0.01,3
26088,3.9866e+07,0,1.94,0,-1.63,12.28,12.26,0,0.01,3
26132,3.9876e+07,0,1.94,0,-1.63,12.28,12.26,0,0,3
26174,3.9886e+07,0,1.94,0,-1.63,12.29,12.26,0,0,3
26215,3.9896e+07,0,1.94,0,-1.63,12.29,12.26,0,0,3
26256,3.9907e+07,0,1.94,0,-1.63,12.29,12.26,0,0,3
26296,3.9917e+07,0,1.94,0,-1.63,12.29,12.26,0,0,3
26334,3.9928e+07,0,1.94,0,-1.63,12.29,12.26,0,0,3
26379,3.9939e+07,0,1.94,0,-1.63,12.29,12.26,0,0,3
26419,3.9949e+07,0,1.94,0,-1.63,12.29,12.26,0,0,3
26460,3.9959e+07,0,1.94,0,-1.63,12.29,12.26,0,0,3
26500,3.997e+07,0,1.94,0,-1.63,12.29,12.27,0,0,3
26546,3.998e+07,0,1.94,0,-1.63,12.29,12.27,0,0,3
26588,3.999e+07,0,1.94,0,-1.63,12.29,12.27,0,0,3
26629,4e+07,0,1.94,0,-1.62,12.29,12.27,0,0,3
26670,4.0013e+07,0,1.94,0,-1.62,12.3,12.27,0,0,3
26710,4.0024e+07,0,1.94,0,-1.63,12.3,12.27,0,0,3
26748,4.0035e+07,0,1.94,0,-1.63,12.3,12.27,0,0,3
26790,4.0045e+07,0,1.94,0,-1.63,12.3,12.27,0,0,3
26831,4.0055e+07,0,1.94,0,-1.63,12.3,12.28,0,0,3
26872,4.0065e+07,0,1.94,0,-1.63,12.3,12.28,0,0,3
26912,4.0075e+07,0,1.94,0,-1.62,12.3,12.28,0,0,3
26957,4.0086e+07,0,1.94,0,-1.62,12.3,12.28,0,0,3
26997,4.0096e+07,0,1.94,0,-1.62,12.3,12.28,0,0,3
27038,4.0106e+07,0,1.94,0,-1.62,12.3,12.28,0,0,3
27080,4.0116e+07,0,1.94,0,-1.62,12.31,12.28,0,0,3
27117,4.0129e+07,0,1.94,0,-1.62,12.31,12.28,0,0,3
27158,4.014e+07,0,1.94,0,-1.62,12.31,12.29,0,0,3
27201,4.015e+07,0,1.94,0,-1.62,12.31,12.29,0,0,3
27242,4.016e+07,0,1.94,0,-1.62,12.31,12.29,0,0,3
27286,4.0171e+07,0,1.94,0,-1.62,12.31,12.29,0,0,3
27327,4.0181e+07,0,1.94,0,-1.62,12.32,12.29,0,0,3
27372,4.0191e+07,0,1.94,0,-1.62,12.32,12.3,0,0,3
27412,4.0201e+07,0,1.94,0,-1.62,12.32,12.3,0,0,3
27454,4.0212e+07,0,1.94,0,-1.62,12.32,12.3,0,0,3
27491,4.0222e+07,0,1.94,0,-1.62,12.33,12.3,0,0,3
27532,4.0233e+07,0,1.94,0,-1.62,12.33,12.3,0,0,3
27572,4.0243e+07,0,1.94,0,-1.62,12.33,12.3,0,0,3
27613,4.0253e+07,0,1.94,0,-1.62,12.32,12.3,0,0,3
27654,4.0264e+07,0,1.94,0,-1.62,12.33,12.3,0,0,3
27696,4.0274e+07,0,1.94,0,-1.62,12.33,12.3,0,0,3
27737,4.0284e+07,0,1.94,0,-1.62,12.33,12.3,0,0,3
27781,4.0294e+07,0,1.94,0,-1.62,12.33,12.31,0,0,3
27822,4.0305e+07,0,1.94,0,-1.63,12.33,12.31,0,0,3
27865,4.0315e+07,0,1.94,0,-1.63,12.34,12.31,0,0,3
27905,4.0325e+07,0,1.94,0,-1.63,12.34,12.31,0,0,3
27954,4.0338e+07,0,1.94,0,-1.63,12.34,12.32,0,0,3
27995,4.0349e+07,0,1.94,0,-1.63,12.34,12.32,0,0,3
28036,4.0359e+07,0,1.94,0,-1.63,12.34,12.32,0,0,3
28076,4.0369e+07,0,1.93,0,-1.63,12.34,12.32,0,0,3
28117,4.0379e+07,0,1.93,0,-1.63,12.34,12.32,0,0,3
28162,4.0389e+07,0,1.93,0,-1.63,12.35,12.32,0,0,3
28203,4.04e+07,0,1.93,0,-1.63,12.35,12.32,0,0,3
28245,4.041e+07,0,1.93,0,-1.63,12.35,12.32,0,0,3
28285,4.042e+07,0,1.93,0,-1.63,12.35,12.32,0,0,3
28326,4.0434e+07,0,1.93,0,-1.63,12.35,12.33,0,0,3
28367,4.0444e+07,0,1.93,0,-1.63,12.35,12.33,0,0,3
28408,4.0455e+07,0,1.94,0,-1.63,12.35,12.33,0,0,3
28449,4.0465e+07,0,1.94,0,-1.63,12.36,12.33,0,0,3
28489,4.0476e+07,0,1.94,0,-1.63,12.36,12.34,0,0,3
28532,4.0486e+07,0,1.94,0,-1.63,12.36,12.34,0,0,3
28578,4.0497e+07,0,1.94,0,-1.63,12.36,12.34,0,0,3
28621,4.0507e+07,0,1.94,0,-1.63,12.37,12.34,0,0,3
28661,4.0517e+07,0,1.94,0,-1.63,12.37,12.35,0,0,3
28703,4.0527e+07,0,1.93,0,-1.63,12.37,12.35,0,0,3
28745,4.0538e+07,0,1.93,0,-1.63,12.37,12.35,0,0,3
28786,4.0548e+07,0,1.93,0,-1.63,12.37,12.35,0,0,3
28827,4.0559e+07,0,1.93,0,-1.63,12.37,12.35,0,0,3
28867,4.057e+07,0,1.93,0,-1.63,12.37,12.35,0,0,3
28909,4.058e+07,0,1.93,0,-1.63,12.37,12.35,0,0,3
28950,4.0591e+07,0,1.94,0,-1.63,12.37,12.35,0,0,3
28995,4.0601e+07,0,1.94,0,-1.63,12.38,12.35,0,0,3
29036,4.0611e+07,0,1.94,0,-1.63,12.38,12.35,0,0,3
29076,4.0621e+07,0,1.94,0,-1.63,12.38,12.35,0,0,3
29118,4.0632e+07,0,1.95,0,-1.63,12.38,12.36,0,0,3
29158,4.0642e+07,0,1.95,0,-1.63,12.38,12.36,0,0,3
29199,4.0654e+07,0,1.95,0,-1.63,12.38,12.36,0,0,3
29240,4.0665e+07,0,1.94,0,-1.63,12.38,12.36,0,0,3
29280,4.0675e+07,0,1.94,0,-1.63,12.39,12.36,0,0,3
29321,4.0685e+07,0,1.94,0,-1.63,12.38,12.36,0,0,3
29361,4.0696e+07,0,1.94,0,-1.63,12.38,12.36,0,0,3
29407,4.0706e+07,0,1.94,0,-1.63,12.38,12.36,0,0,3
29448,4.0716e+07,0,1.93,0,-1.63,12.38,12.36,0,0,3
29491,4.0726e+07,0,1.93,0,-1.63,12.38,12.36,0,0,3
29532,4.0736e+07,0,1.93,0,-1.63,12.38,12.36,0,0,3
29569,4.0747e+07,0,1.93,0,-1.63,12.38,12.36,0,0,3
29612,4.076e+07,0,1.94,0,-1.63,12.38,12.36,0,0,3
29654,4.077e+07,0,1.94,0,-1.63,12.38,12.36,0,0,3
29695,4.0781e+07,0,1.94,0,-1.63,12.38,12.36,0,0,3
29736,4.0791e+07,0,1.94,0,-1.63,12.39,12.36,0,0,3
29776,4.0802e+07,0,1.95,0,-1.63,12.39,12.37,0,0,3
29821,4.0812e+07,0,1.94,0,-1.63,12.39,12.37,0,0.01,3
29863,4.0822e+07,0,1.94,0,-1.63,12.39,12.37,0,0.01,3
29904,4.0832e+07,0,1.94,0,-1.63,12.39,12.37,0,0.01,3
29945,4.0844e+07,0,1.94,0,-1.63,12.39,12.37,0,0.01,3
29985,4.0855e+07,0,1.94,0,-1.63,12.4,12.37,0,0.01,3
30026,4.0866e+07,0,1.93,0,-1.63,12.39,12.37,0,0.01,3
30066,4.0876e+07,0,1.93,0,-1.63,12.39,12.37,0,0.01,3
30107,4.0886e+07,0,1.94,0,-1.63,12.39,12.37,0,0.01,3
30149,4.0896e+07,0,1.94,0,-1.63,12.39,12.37,0,0.01,3
30194,4.0907e+07,0,1.94,0,-1.63,12.39,12.36,0,0.01,3
30236,4.0917e+07,0,1.94,0,-1.63,12.39,12.36,0,0.01,3
30276,4.0927e+07,0,1.94,0,-1.63,12.39,12.36,0,0.01,3
30322,4.094e+07,0,1.94,0,-1.63,12.39,12.36,0,0.01,3
30363,4.095e+07,0,1.95,0,-1.63,12.39,12.37,0,0.01,3
30401,4.0961e+07,0,1.95,0,-1.63,12.39,12.37,0,0.01,3
30442,4.0971e+07,0,1.95,0,-1.63,12.39,12.37,0,0.01,3
30484,4.0981e+07,0,1.95,0,-1.63,12.39,12.37,0,0.01,3
30525,4.0991e+07,0,1.95,0,-1.63,12.39,12.37,0,0.01,3
30567,4.1002e+07,0,1.94,0,-1.63,12.39,12.37,0,0.01,3
30611,4.1012e+07,0,1.94,0,-1.63,12.39,12.37,0,0.01,3
30653,4.1022e+07,0,1.94,0,-1.63,12.39,12.37,0,0.01,3
30693,4.1032e+07,0,1.94,0,-1.63,12.4,12.37,0,0.01,3
30734,4.1043e+07,0,1.94,0,-1.63,12.4,12.37,0,0.01,3
30772,4.1056e+07,0,1.94,0,-1.63,12.4,12.37,0,0.01,3
30812,4.1067e+07,0,1.94,0,-1.63,12.4,12.37,0,0.01,3
30854,4.1077e+07,0,1.94,0,-1.63,12.4,12.37,0,0.01,3
30894,4.1088e+07,0,1.95,0,-1.63,12.4,12.37,0,0.01,3
30935,4.1098e+07,0,1.95,0,-1.63,12.4,12.37,0,0.01,3
30975,4.1108e+07,0,1.95,0,-1.63,12.4,12.38,0,0.01,3
31021,4.1118e+07,0,1.95,0,-1.63,12.4,12.38,0,0.01,3
31063,4.1128e+07,0,1.95,0,-1.63,12.4,12.38,0,0.01,3
31105,4.1138e+07,0,1.95,0,-1.63,12.4,12.38,0,0.01,3
31146,4.1149e+07,0,1.95,0,-1.63,12.41,12.38,0,0.01,3
31186,4.116e+07,0,1.95,0,-1.63,12.41,12.38,0,0.01,3
31228,4.1171e+07,0,1.94,0,-1.63,12.41,12.38,0,0.01,3
31268,4.1181e+07,0,1.94,0,-1.63,12.4,12.38,0,0.01,3
31310,4.1191e+07,0,1.94,0,-1.63,12.4,12.38,0,0.01,3
31350,4.1201e+07,0,1.94,0,-1.63,12.4,12.38,0,0.01,3
31391,4.1212e+07,0,1.94,0,-1.63,12.4,12.38,0,0.01,3
31436,4.1222e+07,0,1.94,0,-1.63,12.4,12.38,0,0.01,3
31476,4.1232e+07,0,1.94,0,-1.63,12.4,12.38,0,0.01,3
31519,4.1242e+07,0,1.94,0,-1.63,12.4,12.38,0,0.01,3
31559,4.1252e+07,0,1.95,0,-1.63,12.4,12.38,0,0.01,3
31597,4.1263e+07,0,1.95,0,-1.63,12.4,12.38,0,0.01,3
31638,4.1273e+07,0,1.95,0,-1.63,12.4,12.37,0,0.01,3
31678,4.1284e+07,0,1.95,0,-1.63,12.4,12.37,0,0.01,3
31719,4.1295e+07,0,1.95,0,-1.63,12.39,12.37,0,0.01,3
31759,4.1305e+07,0,1.95,0,-1.63,12.39,12.37,0,0.01,3
31801,4.1315e+07,0,1.95,0,-1.63,12.39,12.37,0,0.01,3
31845,4.1325e+07,0,1.95,0,-1.63,12.39,12.36,0,0.01,3
31888,4.1335e+07,0,1.94,0,-1.63,12.39,12.36,0,0.01,3
31928,4.1345e+07,0,1.94,0,-1.63,12.38,12.36,0,0.01,3
31970,4.1358e+07,0,1.94,0,-1.63,12.38,12.36,0,0.01,3
32011,4.1369e+07,0,1.94,0,-1.63,12.38,12.36,0,0.01,3
32050,4.138e+07,0,1.94,0,-1.63,12.38,12.36,0,0.01,3
32091,4.139e+07,0,1.94,0,-1.63,12.38,12.35,0,0.01,3
32132,4.14e+07,0,1.94,0,-1.63,12.38,12.35,0,0.01,3
32172,4.141e+07,0,1.94,0,-1.63,12.37,12.35,0,0.01,3
32213,4.142e+07,0,1.94,0,-1.63,12.37,12.35,0,0.01,3
32257,4.1431e+07,0,1.94,0,-1.63,12.38,12.35,0,0.01,3
32299,4.1441e+07,0,1.95,0,-1.63,12.38,12.35,0,0.01,3
32339,4.1451e+07,0,1.95,0,-1.63,12.38,12.35,0,0.01,3
32381,4.1461e+07,0,1.94,0,-1.63,12.38,12.35,0,0.01,3
32422,4.1474e+07,0,1.94,0,-1.63,12.38,12.36,0,0.01,3
32464,4.1485e+07,0,1.94,0,-1.63,12.38,12.35,0,0.01,3
32505,4.1495e+07,0,1.94,0,-1.63,12.38,12.35,0,0.01,3
32546,4.1505e+07,0,1.94,0,-1.63,12.38,12.35,0,0.01,3
32587,4.1516e+07,0,1.94,0,-1.63,12.38,12.35,0,0.01,3
32634,4.1526e+07,0,1.94,0,-1.63,12.38,12.35,0,0.01,3
32676,4.1537e+07,0,1.94,0,-1.63,12.38,12.35,0,0.01,3
32718,4.1547e+07,0,1.94,0,-1.63,12.38,12.36,0,0.01,3
32759,4.1558e+07,0,1.94,0,-1.63,12.38,12.36,0,0.01,3
32800,4.1567e+07,0,1.94,0,-1.63,12.38,12.36,0,0.01,3
32840,4.1577e+07,0,1.94,0,-1.63,12.38,12.36,0,0.01,3
32881,4.1588e+07,0,1.94,0,-1.63,12.38,12.36,0,0.01,3
32921,4.1597e+07,0,1.94,0,-1.63,12.38,12.36,0,0.01,3
32962,4.1608e+07,0,1.94,0,-1.63,12.38,12.36,0,0.01,3
33003,4.1618e+07,0,1.94,0,-1.63,12.38,12.36,0,0.01,3
33048,4.1629e+07,0,1.94,0,-1.63,12.38,12.35,0,0.01,3
33089,4.1639e+07,0,1.94,0,-1.63,12.38,12.35,0,0.01,3
33129,4.1649e+07,0,1.94,0,-1.63,12.37,12.35,0,0.01,3
33170,4.166e+07,0,1.94,0,-1.63,12.37,12.35,0,0.01,3
33216,4.1675e+07,0,1.94,0,-1.63,12.37,12.35,0,0.01,3
33256,4.1686e+07,0,1.94,0,-1.63,12.37,12.35,0,0.01,3
33297,4.1696e+07,0,1.94,0,-1.63,12.37,12.35,0,0.01,3
33337,4.1707e+07,0,1.94,0,-1.63,12.37,12.34,0,0.01,3
33379,4.1717e+07,0,1.94,0,-1.63,12.37,12.34,0,0.01,3
33422,4.1728e+07,0,1.94,0,-1.63,12.37,12.34,0,0.01,3
33466,4.1738e+07,0,1.94,0,-1.63,12.37,12.34,0,0.01,3
33507,4.1748e+07,0,1.94,0,-1.63,12.36,12.34,0,0.01,3
33547,4.1758e+07,0,1.94,0,-1.63,12.37,12.34,0,0.01,3
33588,4.1768e+07,0,1.94,0,-1.63,12.36,12.34,0,0.01,3
33629,4.1778e+07,0,1.94,0,-1.63,12.37,12.34,0,0.01,3
33671,4.1789e+07,0,1.94,0,-1.63,12.36,12.34,0,0.01,3
33712,4.1799e+07,0,1.94,0,-1.63,12.36,12.34,0,0.01,3
33752,4.1809e+07,0,1.94,0,-1.63,12.36,12.34,0,0.01,3
33793,4.1819e+07,0,1.94,0,-1.63,12.36,12.34,0,0.01,3
33833,4.1829e+07,0,1.94,0,-1.63,12.36,12.34,0,0.01,3
33878,4.184e+07,0,1.94,0,-1.63,12.36,12.33,0,0.01,3
33919,4.185e+07,0,1.94,0,-1.63,12.36,12.33,0,0.01,3
33960,4.186e+07,0,1.93,0,-1.63,12.36,12.33,0,0.01,3
34002,4.187e+07,0,1.93,0,-1.63,12.36,12.33,0,0.01,3
34039,4.1884e+07,0,1.93,0,-1.63,12.36,12.33,0,0.01,3
34081,4.1894e+07,0,1.93,0,-1.63,12.36,12.33,0,0.01,3
34121,4.1904e+07,0,1.94,0,-1.63,12.35,12.33,0,0.01,3
34163,4.1915e+07,0,1.94,0,-1.63,12.35,12.33,0,0.01,3
34206,4.1926e+07,0,1.94,0,-1.63,12.35,12.33,0,0.01,3
34247,4.1936e+07,0,1.94,0,-1.63,12.36,12.33,0,0.01,3
34292,4.1946e+07,0,1.94,0,-1.63,12.36,12.33,0,0.01,3
34332,4.1956e+07,0,1.94,0,-1.63,12.36,12.33,0,0.01,3
34373,4.1967e+07,0,1.94,0,-1.63,12.36,12.33,0,0.01,3
34415,4.198e+07,0,1.94,0,-1.63,12.36,12.33,0,0.01,3
34457,4.199e+07,0,1.94,0,-1.63,12.36,12.34,0,0.01,3
34498,4.2e+07,0,1.94,0,-1.63,12.36,12.34,0,0.01,3
34535,4.2011e+07,0,1.94,0,-1.63,12.36,12.34,0,0.01,3
34575,4.2021e+07,0,1.94,0,-1.64,12.36,12.34,0,0.01,3
34616,4.2031e+07,0,1.94,0,-1.64,12.37,12.34,0,0.01,3
34661,4.2041e+07,0,1.94,0,-1.64,12.37,12.34,0,0.01,3
34702,4.2052e+07,0,1.94,0,-1.64,12.37,12.35,0,0.01,3
34743,4.2062e+07,0,1.94,0,-1.64,12.37,12.35,0,0.01,3
34784,4.2072e+07,0,1.94,0,-1.64,12.38,12.35,0,0.01,3
34824,4.2082e+07,0,1.94,0,-1.64,12.38,12.36,0,0.01,3
34867,4.2092e+07,0,1.94,0,-1.64,12.38,12.36,0,0.01,3
34907,4.2103e+07,0,1.94,0,-1.64,12.38,12.36,0,0.01,3
34948,4.2113e+07,0,1.95,0,-1.64,12.39,12.36,0,0.01,3
34989,4.2123e+07,0,1.95,0,-1.64,12.39,12.36,0,0.01,3
35031,4.2134e+07,0,1.94,0,-1.64,12.39,12.37,0,0.01,3
35076,4.2144e+07,0,1.94,0,-1.63,12.39,12.37,0,0.01,3
35117,4.2154e+07,0,1.94,0,-1.64,12.4,12.37,0,0.01,3
35158,4.2164e+07,0,1.94,0,-1.64,12.4,12.37,0,0.01,3
35200,4.2177e+07,0,1.94,0,-1.64,12.4,12.38,0,0.01,3
35240,4.2187e+07,0,1.94,0,-1.64,12.4,12.38,0,0.01,3
35281,4.2198e+07,0,1.94,0,-1.64,12.4,12.38,0,0.01,3
35318,4.2209e+07,0,1.94,0,-1.64,12.4,12.38,0,0.01,3
35359,4.2219e+07,0,1.94,0,-1.64,12.4,12.38,0,0.01,3
35400,4.2229e+07,0,1.94,0,-1.64,12.4,12.38,0,0.01,3
35442,4.2239e+07,0,1.94,0,-1.64,12.4,12.38,0,0.01,3
35487,4.2248e+07,0,1.94,0,-1.64,12.4,12.38,0,0.01,3
35527,4.2259e+07,0,1.94,0,-1.64,12.4,12.38,0,0.01,3
35568,4.227e+07,0,1.94,0,-1.64,12.4,12.38,0,0.01,3
35609,4.228e+07,0,1.94,0,-1.64,12.4,12.38,0,0.01,3
35650,4.229e+07,0,1.94,0,-1.64,12.4,12.38,0,0.01,3
35690,4.23e+07,0,1.94,0,-1.64,12.4,12.38,0,0.01,3
35731,4.231e+07,0,1.94,0,-1.64,12.4,12.37,0,0.01,3
35772,4.2321e+07,0,1.94,0,-1.64,12.4,12.37,0,0.01,3
35813,4.2331e+07,0,1.94,0,-1.64,12.39,12.37,0,0.01,3
35856,4.2341e+07,0,1.94,0,-1.64,12.39,12.37,0,0.01,3
35902,4.2351e+07,0,1.94,0,-1.64,12.39,12.37,0,0.01,3
35942,4.2361e+07,0,1.94,0,-1.64,12.39,12.36,0,0.01,3
35983,4.2371e+07,0,1.94,0,-1.64,12.39,12.36,0,0.01,3
36026,4.2384e+07,0,1.94,0,-1.64,12.39,12.36,0,0.01,3
36070,4.2399e+07,0,1.94,0,-1.64,12.39,12.36,0,0.01,3
36110,4.241e+07,0,1.94,0,-1.64,12.39,12.36,0,0.01,3
36152,4.242e+07,0,1.94,0,-1.64,12.39,12.36,0,0.01,3
36195,4.243e+07,0,1.94,0,-1.64,12.39,12.36,0,0.01,3
36235,4.2441e+07,0,1.94,0,-1.64,12.39,12.36,0,0.01,3
36283,4.2453e+07,0,1.94,0,-1.64,12.39,12.37,0,0.01,3
36324,4.2464e+07,0,1.94,0,-1.64,12.39,12.37,0,0.01,3
36367,4.2474e+07,0,1.94,0,-1.64,12.39,12.37,0,0.01,3
36408,4.2484e+07,0,1.94,0,-1.64,12.39,12.37,0,0.01,3
36448,4.2494e+07,0,1.94,0,-1.64,12.39,12.37,0,0.01,3
36486,4.2505e+07,0,1.94,0,-1.64,12.4,12.37,0,0.01,3
36526,4.2515e+07,0,1.94,0,-1.64,12.39,12.37,0,0.01,3
36574,4.2528e+07,0,1.94,0,-1.64,12.39,12.37,0,0.01,3
36615,4.2538e+07,0,1.94,0,-1.64,12.39,12.37,0,0.01,3
36655,4.2548e+07,0,1.94,0,-1.64,12.39,12.37,0,0.01,3
36702,4.2558e+07,0,1.94,0,-1.64,12.39,12.37,0,0.01,3
36742,4.2569e+07,0,1.94,0,-1.64,12.4,12.37,0,0.01,3
36783,4.2579e+07,0,1.94,0,-1.64,12.4,12.37,0,0.01,3
36824,4.2589e+07,0,1.94,0,-1.64,12.4,12.37,0,0.01,3
36859,4.2599e+07,0,1.94,0,-1.64,12.4,12.37,0,0.01,3
36899,4.2609e+07,0,1.94,0,-1.63,12.4,12.37,0,0.01,3
36941,4.2619e+07,0,1.94,0,-1.63,12.39,12.37,0,0.01,3
36981,4.263e+07,0,1.94,0,-1.63,12.39,12.37,0,0.01,3
37023,4.264e+07,0,1.94,0,-1.63,12.39,12.37,0,0.01,3
37063,4.2651e+07,0,1.94,0,-1.63,12.39,12.36,0,0.01,3
37107,4.2661e+07,0,1.94,0,-1.63,12.39,12.36,0,0.01,3
37149,4.2671e+07,0,1.94,0,-1.64,12.39,12.36,0,0.01,3
37189,4.2682e+07,0,1.94,0,-1.63,12.38,12.36,0,0.01,3
37230,4.2692e+07,0,1.94,0,-1.63,12.38,12.36,0,0.01,3
37270,4.2707e+07,0,1.94,0,-1.63,12.38,12.36,0,0.01,3
37311,4.2718e+07,0,1.94,0,-1.63,12.38,12.36,0,0.01,3
37352,4.2728e+07,0,1.94,0,-1.63,12.38,12.35,0,0.01,3
37395,4.2739e+07,0,1.94,0,-1.63,12.38,12.35,0,0.01,3
37436,4.275e+07,0,1.94,0,-1.63,12.37,12.35,0,0.01,3
37481,4.276e+07,0,1.94,0,-1.63,12.37,12.35,0,0.01,3
37523,4.2771e+07,0,1.94,0,-1.63,12.37,12.35,0,0.01,3
37563,4.2781e+07,0,1.94,0,-1.63,12.37,12.35,0,0.01,3
37604,4.2791e+07,0,1.94,0,-1.64,12.37,12.34,0,0.01,3
37641,4.2802e+07,0,1.94,0,-1.64,12.37,12.34,0,0.01,3
37678,4.2812e+07,0,1.94,0,-1.64,12.36,12.34,0,0.01,3
37719,4.2822e+07,0,1.94,0,-1.64,12.36,12.33,0,0.01,3
37759,4.2833e+07,0,1.94,0,-1.64,12.35,12.33,0,0.01,3
37800,4.2843e+07,0,1.94,0,-1.64,12.35,12.33,0,0.01,3
37840,4.2852e+07,0,1.94,0,-1.64,12.35,12.32,0,0.01,3
37888,4.2863e+07,0,1.94,0,-1.64,12.35,12.32,0,0.01,3
37928,4.2874e+07,0,1.94,0,-1.64,12.35,12.32,0,0.01,3
37969,4.2884e+07,0,1.94,0,-1.64,12.34,12.32,0,0.01,3
38011,4.2895e+07,0,1.94,0,-1.64,12.34,12.32,0,0.01,3
38051,4.2905e+07,0,1.94,0,-1.64,12.34,12.32,0,0.01,3
38093,4.2919e+07,0,1.94,0,-1.64,12.34,12.32,0,0.01,3
38133,4.2929e+07,0,1.94,0,-1.64,12.34,12.32,0,0.01,3
38176,4.2939e+07,0,1.94,0,-1.63,12.34,12.31,0,0.01,3
38216,4.2949e+07,0,1.94,0,-1.63,12.34,12.31,0,0.01,3
38257,4.2959e+07,0,1.94,0,-1.63,12.34,12.31,0,0.01,3
38305,4.297e+07,0,1.94,0,-1.63,12.33,12.31,0,0.01,3
38345,4.298e+07,0,1.94,0,-1.63,12.33,12.31,0,0.01,3
38386,4.2991e+07,0,1.94,0,-1.63,12.33,12.31,0,0.01,3
38426,4.3001e+07,0,1.94,0,-1.63,12.33,12.31,0,0.01,3
38467,4.3011e+07,0,1.94,0,-1.64,12.33,12.31,0,0.01,3
38507,4.3021e+07,0,1.94,0,-1.64,12.33,12.31,0,0.01,3
38548,4.3032e+07,0,1.94,0,-1.64,12.33,12.31,0,0.01,3
38589,4.3042e+07,0,1.94,0,-1.64,12.33,12.31,0,0.01,3
38629,4.3052e+07,0,1.94,0,-1.64,12.33,12.31,0,0.01,3
38670,4.3062e+07,0,1.94,0,-1.64,12.33,12.3,0,0.01,3
38714,4.3072e+07,0,1.94,0,-1.64,12.33,12.3,0,0,3
38755,4.3082e+07,0,1.94,0,-1.64,12.33,12.3,0,0,3
38795,4.3093e+07,0,1.94,0,-1.63,12.32,12.3,0,0,3
38836,4.3103e+07,0,1.94,0,-1.63,12.32,12.3,0,0,3
38877,4.3115e+07,0,1.94,0,-1.63,12.32,12.3,0,0,3
38919,4.3128e+07,0,1.94,0,-1.63,12.32,12.3,0,0,3
38961,4.3139e+07,0,1.93,0,-1.63,12.32,12.3,0,0,3
39002,4.3149e+07,0,1.94,0,-1.63,12.32,12.29,0,0,3
39042,4.3159e+07,0,1.94,0,-1.64,12.32,12.29,0,0,3
39083,4.317e+07,0,1.94,0,-1.64,12.32,12.29,0,0,3
39128,4.318e+07,0,1.94,0,-1.64,12.31,12.29,0,0.01,3
39171,4.319e+07,0,1.94,0,-1.64,12.31,12.29,0,0.01,3
39211,4.32e+07,0,1.95,0,-1.64,12.31,12.29,0,0.01,3
39252,4.3213e+07,0,1.95,0,-1.64,12.31,12.29,0,0.01,3
39293,4.3223e+07,0,1.95,0,-1.64,12.31,12.29,0,0.01,3
39334,4.3234e+07,0,1.95,0,-1.64,12.31,12.29,0,0.01,3
39372,4.3244e+07,0,1.95,0,-1.63,12.31,12.29,0,0.01,3
39413,4.3254e+07,0,1.94,0,-1.63,12.31,12.29,0,0.01,3
39453,4.3264e+07,0,1.94,0,-1.63,12.31,12.29,0,0.01,3
39498,4.3275e+07,0,1.94,0,-1.63,12.31,12.29,0,0.01,3
39538,4.3285e+07,0,1.94,0,-1.64,12.31,12.29,0,0,3
39579,4.3295e+07,0,1.93,0,-1.64,12.31,12.29,0,0,3
39624,4.3308e+07,0,1.93,0,-1.64,12.31,12.29,0,0,3
39668,4.332e+07,0,1.93,0,-1.64,12.31,12.29,0,0,3
39711,4.3331e+07,0,1.93,0,-1.64,12.31,12.29,0,0,3
39752,4.3341e+07,0,1.94,0,-1.64,12.31,12.29,0,0,3
39793,4.3351e+07,0,1.94,0,-1.64,12.31,12.29,0,0,3
39834,4.3361e+07,0,1.94,0,-1.64,12.31,12.29,0,0,3
39874,4.3371e+07,0,1.94,0,-1.64,12.32,12.29,0,0,3
39919,4.3382e+07,0,1.94,0,-1.64,12.32,12.29,0,0,3
39959,4.3392e+07,0,1.94,0,-1.64,12.32,12.29,0,0,3
40000,4.3402e+07,0,1.94,0,-1.64,12.32,12.29,0,0,3
40040,4.3412e+07,0,1.94,0,-1.64,12.32,12.29,0,0,3
40080,4.3422e+07,0,1.94,0,-1.64,12.32,12.3,0,0,3
40118,4.3432e+07,0,1.94,0,-1.64,12.32,12.29,0,0,3
40158,4.3443e+07,0,1.94,0,-1.64,12.32,12.3,0,0,3
40199,4.3453e+07,0,1.93,0,-1.64,12.32,12.3,0,0,3
40241,4.3463e+07,0,1.93,0,-1.64,12.32,12.29,0,0,3
40284,4.3474e+07,0,1.93,0,-1.64,12.32,12.29,0,0,3
40329,4.3484e+07,0,1.93,0,-1.63,12.32,12.3,0,0,3
40369,4.3494e+07,0,1.93,0,-1.63,12.32,12.3,0,0,3
40410,4.3504e+07,0,1.94,0,-1.63,12.32,12.3,0,0,3
40451,4.3517e+07,0,1.94,0,-1.63,12.32,12.3,0,0,3
40492,4.3528e+07,0,1.94,0,-1.64,12.32,12.3,0,0,3
40537,4.354e+07,0,1.94,0,-1.63,12.32,12.3,0,0,3
40577,4.3551e+07,0,1.94,0,-1.64,12.32,12.3,0,0,3
40618,4.3561e+07,0,1.94,0,-1.64,12.32,12.3,0,0,3
40658,4.3571e+07,0,1.94,0,-1.64,12.32,12.3,0,0,3
40708,4.3584e+07,0,1.94,0,-1.64,12.32,12.3,0,0,3
40749,4.3594e+07,0,1.94,0,-1.64,12.32,12.3,0,0,3
40790,4.3604e+07,0,1.94,0,-1.64,12.32,12.3,0,0,3
40831,4.3615e+07,0,1.94,0,-1.64,12.32,12.3,0,0,3
40872,4.3625e+07,0,1.94,0,-1.64,12.32,12.3,0,0,3
40910,4.3635e+07,0,1.94,0,-1.64,12.32,12.3,0,0,3
40951,4.3645e+07,0,1.93,0,-1.64,12.32,12.3,0,0,3
40992,4.3656e+07,0,1.93,0,-1.64,12.32,12.3,0,0,3
41033,4.3666e+07,0,1.93,0,-1.64,12.32,12.29,0,0,3
41074,4.3676e+07,0,1.93,0,-1.64,12.32,12.29,0,0,3
41119,4.3686e+07,0,1.94,0,-1.64,12.32,12.3,0,0,3
41159,4.3697e+07,0,1.94,0,-1.64,12.32,12.3,0,0,3
41200,4.3707e+07,0,1.94,0,-1.64,12.32,12.3,0,0,3
41241,4.3717e+07,0,1.94,0,-1.64,12.32,12.3,0,0,3
41284,4.3729e+07,0,1.94,0,-1.64,12.32,12.3,0,0,3
41326,4.374e+07,0,1.94,0,-1.64,12.32,12.3,0,0,3
41363,4.375e+07,0,1.94,0,-1.64,12.32,12.3,0,0,3
41404,4.376e+07,0,1.94,0,-1.64,12.33,12.3,0,0,3
41445,4.377e+07,0,1.94,0,-1.64,12.33,12.3,0,0,3
41485,4.378e+07,0,1.94,0,-1.64,12.32,12.3,0,0,3
41531,4.3791e+07,0,1.94,0,-1.64,12.32,12.3,0,0,3
41571,4.3801e+07,0,1.94,0,-1.64,12.32,12.3,0,0,3
41613,4.3811e+07,0,1.93,0,-1.64,12.32,12.3,0,0,3
41653,4.3822e+07,0,1.94,0,-1.64,12.33,12.3,0,0,3
41692,4.3831e+07,0,1.94,0,-1.64,12.33,12.3,0,0,3
41732,4.3842e+07,0,1.94,0,-1.64,12.33,12.3,0,0,3
41770,4.3852e+07,0,1.94,0,-1.64,12.33,12.3,0,0,3
41812,4.3862e+07,0,1.94,0,-1.64,12.33,12.31,0,0,3
41852,4.3872e+07,0,1.94,0,-1.64,12.33,12.31,0,0,3
41893,4.3883e+07,0,1.94,0,-1.64,12.33,12.31,0,0,3
41937,4.3893e+07,0,1.94,0,-1.64,12.33,12.31,0,0.01,3
41978,4.3903e+07,0,1.94,0,-1.64,12.34,12.31,0,0.01,3
42020,4.3913e+07,0,1.94,0,-1.64,12.34,12.31,0,0.01,3
42060,4.3923e+07,0,1.94,0,-1.64,12.34,12.31,0,0.01,3
42102,4.3936e+07,0,1.94,0,-1.64,12.34,12.31,0,0.01,3
42142,4.3946e+07,0,1.94,0,-1.64,12.34,12.31,0,0.01,3
42185,4.3956e+07,0,1.94,0,-1.64,12.33,12.31,0,0.01,3
42225,4.3967e+07,0,1.94,0,-1.63,12.33,12.31,0,0.01,3
42266,4.3977e+07,0,1.94,0,-1.63,12.33,12.31,0,0.01,3
42307,4.3988e+07,0,1.94,0,-1.63,12.33,12.31,0,0.01,3
42352,4.3998e+07,0,1.94,0,-1.64,12.33,12.3,0,0,3
42393,4.4008e+07,0,1.94,0,-1.64,12.33,12.3,0,0,3
42433,4.4018e+07,0,1.94,0,-1.64,12.33,12.3,0,0,3
42472,4.4029e+07,0,1.94,0,-1.64,12.33,12.31,0,0,3
42516,4.4041e+07,0,1.94,0,-1.64,12.33,12.31,0,0,3
42556,4.4052e+07,0,1.95,0,-1.64,12.33,12.3,0,0,3
42598,4.4062e+07,0,1.95,0,-1.64,12.33,12.3,0,0,3
42638,4.4072e+07,0,1.95,0,-1.64,12.32,12.3,0,0,3
42679,4.4082e+07,0,1.94,0,-1.64,12.32,12.3,0,0,3
42726,4.4094e+07,0,1.94,0,-1.63,12.32,12.29,0,0,3
42768,4.4105e+07,0,1.94,0,-1.64,12.32,12.29,0,0,3
42809,4.4115e+07,0,1.94,0,-1.64,12.31,12.29,0,0,3
42849,4.4125e+07,0,1.94,0,-1.64,12.31,12.29,0,0,3
42893,4.4138e+07,0,1.94,0,-1.64,12.31,12.29,0,0,3
42933,4.4149e+07,0,1.93,0,-1.64,12.31,12.29,0,0,3
42974,4.416e+07,0,1.93,0,-1.64,12.31,12.28,0,0,3
43014,4.417e+07,0,1.93,0,-1.64,12.31,12.28,0,0,3
43056,4.418e+07,0,1.93,0,-1.64,12.3,12.28,0,0,3
43097,4.419e+07,0,1.94,0,-1.63,12.3,12.28,0,0,3
43141,4.42e+07,0,1.94,0,-1.63,12.3,12.28,0,0,3
43182,4.4211e+07,0,1.94,0,-1.63,12.3,12.28,0,0,3
43224,4.4221e+07,0,1.94,0,-1.63,12.3,12.28,0,0,3
43266,4.4231e+07,0,1.94,0,-1.63,12.3,12.28,0,0,3
43304,4.4241e+07,0,1.94,0,-1.63,12.3,12.27,0,0,3
43344,4.4251e+07,0,1.94,0,-1.63,12.29,12.27,0,0,3
43385,4.4262e+07,0,1.94,0,-1.63,12.29,12.27,0,0,3
43426,4.4272e+07,0,1.94,0,-1.63,12.29,12.26,0,0,3
43467,4.4282e+07,0,1.94,0,-1.63,12.29,12.26,0,0,3
43508,4.4292e+07,0,1.93,0,-1.63,12.28,12.26,0,0,3
43552,4.4302e+07,0,1.93,0,-1.63,12.28,12.26,0,0,3
43593,4.4312e+07,0,1.93,0,-1.63,12.28,12.26,0,0,3
43634,4.4322e+07,0,1.93,0,-1.63,12.28,12.26,0,0,3
43675,4.4332e+07,0,1.93,0,-1.63,12.28,12.26,0,0,3
43718,4.4345e+07,0,1.93,0,-1.63,12.28,12.26,0,0,3
43759,4.4356e+07,0,1.94,0,-1.64,12.28,12.26,0,0,3
43800,4.4366e+07,0,1.94,0,-1.64,12.28,12.26,0,0,3
43841,4.4376e+07,0,1.94,0,-1.64,12.28,12.25,0,0,3
43882,4.4386e+07,0,1.94,0,-1.64,12.28,12.25,0,0,3
43923,4.4396e+07,0,1.94,0,-1.64,12.27,12.25,0,0,3
43968,4.4406e+07,0,1.94,0,-1.63,12.27,12.25,0,0,3
44008,4.4416e+07,0,1.94,0,-1.63,12.27,12.25,0,0,3
44049,4.4426e+07,0,1.94,0,-1.63,12.27,12.24,0,0,3
44093,4.4439e+07,0,1.94,0,-1.63,12.27,12.24,0,0,3
44137,4.4452e+07,0,1.94,0,-1.63,12.27,12.24,0,0,3
44179,4.4462e+07,0,1.94,0,-1.63,12.26,12.24,0,0,3
44221,4.4473e+07,0,1.94,0,-1.63,12.27,12.24,0,0,3
44261,4.4482e+07,0,1.94,0,-1.63,12.27,12.24,0,0,3
44302,4.4493e+07,0,1.94,0,-1.64,12.27,12.24,0,0,3
44346,4.4503e+07,0,1.94,0,-1.64,12.27,12.24,0,0,3
44389,4.4513e+07,0,1.94,0,-1.63,12.27,12.24,0,0,3
44429,4.4523e+07,0,1.94,0,-1.63,12.27,12.24,0,0,3
44472,4.4538e+07,0,1.94,0,-1.63,12.27,12.24,0,0,3
44513,4.4548e+07,0,1.94,0,-1.63,12.27,12.24,0,0,3
44553,4.4559e+07,0,1.95,0,-1.63,12.26,12.24,0,0,3
44595,4.4569e+07,0,1.94,0,-1.63,12.26,12.24,0,0,3
44636,4.4579e+07,0,1.94,0,-1.63,12.26,12.24,0,0,3
44677,4.4589e+07,0,1.94,0,-1.63,12.26,12.24,0,0,3
44718,4.46e+07,0,1.94,0,-1.64,12.26,12.23,0,0,3
44765,4.461e+07,0,1.94,0,-1.64,12.26,12.23,0,0,3
44809,4.4623e+07,0,1.94,0,-1.64,12.26,12.24,0,0,3
44850,4.4633e+07,0,1.93,0,-1.64,12.26,12.24,0,0,3
44891,4.4643e+07,0,1.93,0,-1.63,12.26,12.24,0,0,3
44929,4.4653e+07,0,1.93,0,-1.63,12.26,12.24,0,0,3
44969,4.4664e+07,0,1.93,0,-1.63,12.26,12.24,0,0,3
45010,4.4674e+07,0,1.94,0,-1.63,12.26,12.24,0,0,3
45052,4.4684e+07,0,1.94,0,-1.63,12.26,12.24,0,0,3
45093,4.4694e+07,0,1.94,0,-1.63,12.26,12.23,0,0,3
45138,4.4705e+07,0,1.94,0,-1.63,12.26,12.23,0,0,3
45178,4.4714e+07,0,1.94,0,-1.63,12.26,12.23,0,0,3
45219,4.4725e+07,0,1.94,0,-1.63,12.26,12.23,0,0,3
45261,4.4735e+07,0,1.94,0,-1.63,12.25,12.23,0,0,3
45302,4.4745e+07,0,1.94,0,-1.63,12.26,12.23,0,0,3
45342,4.4755e+07,0,1.94,0,-1.63,12.25,12.23,0,0,3
45380,4.4766e+07,0,1.94,0,-1.63,12.25,12.23,0,0,3
45420,4.4776e+07,0,1.94,0,-1.63,12.25,12.23,0,0,3
45462,4.4786e+07,0,1.94,0,-1.63,12.25,12.23,0,0,3
45503,4.4797e+07,0,1.94,0,-1.63,12.25,12.23,0,0,3
45547,4.4807e+07,0,1.93,0,-1.63,12.25,12.23,0,0,3
45588,4.4816e+07,0,1.93,0,-1.63,12.25,12.23,0,0,3
45629,4.4827e+07,0,1.94,0,-1.63,12.25,12.22,0,0,3
45670,4.4837e+07,0,1.94,0,-1.63,12.25,12.23,0,0,3
45708,4.4847e+07,0,1.94,0,-1.63,12.25,12.23,0,0,3
45748,4.4858e+07,0,1.94,0,-1.63,12.25,12.22,0,0,3
45789,4.4869e+07,0,1.94,0,-1.63,12.25,12.22,0,0,3
45830,4.4879e+07,0,1.94,0,-1.63,12.24,12.22,0,0,3
45871,4.4889e+07,0,1.94,0,-1.63,12.24,12.22,0,0,3
45912,4.4899e+07,0,1.94,0,-1.63,12.24,12.22,0,0,3
45957,4.491e+07,0,1.94,0,-1.63,12.24,12.22,0,0,3
46000,4.4921e+07,0,1.94,0,-1.63,12.24,12.22,0,0,3
46040,4.4931e+07,0,1.94,0,-1.63,12.24,12.22,0,0,3
46085,4.4941e+07,0,1.94,0,-1.63,12.24,12.21,0,0,3
46126,4.4952e+07,0,1.94,0,-1.63,12.24,12.21,0,0,3
46167,4.4962e+07,0,1.94,0,-1.63,12.24,12.21,0,0,3
46211,4.4974e+07,0,1.94,0,-1.63,12.24,12.21,0,0,3
46251,4.4985e+07,0,1.94,0,-1.63,12.23,12.21,0,0,3
46293,4.4995e+07,0,1.94,0,-1.63,12.23,12.21,0,0,3
46334,4.5006e+07,0,1.94,0,-1.63,12.23,12.21,0,0,3
46379,4.5017e+07,0,1.94,0,-1.63,12.23,12.21,0,0.01,3
46420,4.5027e+07,0,1.94,0,-1.63,12.23,12.21,0,0.01,3
46460,4.5036e+07,0,1.94,0,-1.63,12.23,12.21,0,0.01,3
46501,4.5046e+07,0,1.94,0,-1.63,12.23,12.21,0,0.01,3
46538,4.5057e+07,0,1.94,0,-1.63,12.23,12.21,0,0.01,3
46577,4.5067e+07,0,1.94,0,-1.63,12.23,12.21,0,0.01,3
46617,4.5078e+07,0,1.94,0,-1.63,12.23,12.21,0,0.01,3
46658,4.5087e+07,0,1.94,0,-1.63,12.23,12.21,0,0.01,3
46701,4.5097e+07,0,1.94,0,-1.63,12.23,12.21,0,0.01,3
46741,4.5107e+07,0,1.94,0,-1.63,12.23,12.21,0,0.01,3
46786,4.5118e+07,0,1.94,0,-1.63,12.24,12.21,0,0,3
46828,4.5128e+07,0,1.94,0,-1.63,12.24,12.21,0,0,3
46869,4.5139e+07,0,1.94,0,-1.63,12.24,12.22,0,0,3
46910,4.5149e+07,0,1.94,0,-1.63,12.24,12.22,0,0,3
46951,4.5162e+07,0,1.94,0,-1.63,12.24,12.22,0,0,3
46993,4.5172e+07,0,1.94,0,-1.63,12.24,12.22,0,0,3
47035,4.5182e+07,0,1.94,0,-1.63,12.25,12.22,0,0,3
47076,4.5192e+07,0,1.94,0,-1.63,12.25,12.22,0,0,3
47116,4.5202e+07,0,1.94,0,-1.63,12.25,12.22,0,0,3
47159,4.5212e+07,0,1.94,0,-1.63,12.25,12.22,0,0,3
47204,4.5222e+07,0,1.94,0,-1.62,12.25,12.22,0,0,3
47244,4.5233e+07,0,1.94,0,-1.63,12.25,12.22,0,0,3
47285,4.5243e+07,0,1.94,0,-1.63,12.25,12.22,0,0,3
47325,4.5256e+07,0,1.94,0,-1.63,12.25,12.22,0,0,3
47367,4.5266e+07,0,1.94,0,-1.63,12.25,12.23,0,0,3
47405,4.5277e+07,0,1.94,0,-1.63,12.25,12.23,0,0,3
47445,4.5287e+07,0,1.94,0,-1.63,12.25,12.23,0,0,3
47486,4.5297e+07,0,1.94,0,-1.63,12.25,12.23,0,0,3
47526,4.5307e+07,0,1.94,0,-1.63,12.25,12.23,0,0,3
47569,4.5318e+07,0,1.94,0,-1.63,12.25,12.23,0,0,3
47614,4.5328e+07,0,1.94,0,-1.62,12.25,12.23,0,0.01,3
47658,4.5338e+07,0,1.94,0,-1.63,12.25,12.23,0,0.01,3
47699,4.5349e+07,0,1.94,0,-1.63,12.25,12.23,0,0.01,3
47739,4.5359e+07,0,1.94,0,-1.63,12.25,12.23,0,0.01,3
47777,4.5371e+07,0,1.94,0,-1.63,12.25,12.23,0,0.01,3
47818,4.5382e+07,0,1.94,0,-1.63,12.25,12.23,0,0.01,3
47859,4.5392e+07,0,1.94,0,-1.62,12.25,12.23,0,0.01,3
47900,4.5402e+07,0,1.94,0,-1.62,12.25,12.22,0,0.01,3
47940,4.5412e+07,0,1.94,0,-1.62,12.25,12.22,0,0.01,3
47985,4.5423e+07,0,1.94,0,-1.62,12.25,12.22,0,0.01,3
48029,4.5433e+07,0,1.94,0,-1.62,12.24,12.22,0,0,3
48070,4.5443e+07,0,1.94,0,-1.62,12.24,12.22,0,0,3
48111,4.5453e+07,0,1.94,0,-1.62,12.24,12.22,0,0,3
48151,4.5463e+07,0,1.94,0,-1.62,12.24,12.22,0,0,3
48191,4.5473e+07,0,1.94,0,-1.62,12.24,12.22,0,0,3
48232,4.5484e+07,0,1.94,0,-1.62,12.24,12.22,0,0,3
48269,4.5494e+07,0,1.94,0,-1.62,12.24,12.21,0,0,3
48310,4.5504e+07,0,1.94,0,-1.62,12.23,12.21,0,0,3
48350,4.5514e+07,0,1.94,0,-1.62,12.23,12.21,0,0,3
48397,4.5527e+07,0,1.94,0,-1.62,12.23,12.21,0,0,3
48440,4.5537e+07,0,1.94,0,-1.62,12.23,12.21,0,0,3
48481,4.5548e+07,0,1.94,0,-1.62,12.23,12.21,0,0,3
48522,4.5558e+07,0,1.94,0,-1.62,12.23,12.21,0,0,3
48560,4.5568e+07,0,1.94,0,-1.62,12.23,12.21,0,0,3
48598,4.5578e+07,0,1.94,0,-1.62,12.23,12.2,0,0,3
48638,4.5588e+07,0,1.94,0,-1.62,12.23,12.2,0,0,3
48680,4.5599e+07,0,1.94,0,-1.62,12.23,12.2,0,0,3
48720,4.5609e+07,0,1.94,0,-1.62,12.22,12.2,0,0,3
48764,4.5622e+07,0,1.94,0,-1.62,12.22,12.2,0,0,3
48811,4.5632e+07,0,1.94,0,-1.62,12.23,12.2,0,0,3
48852,4.5642e+07,0,1.94,0,-1.62,12.22,12.2,0,0,3
48894,4.5652e+07,0,1.94,0,-1.62,12.22,12.2,0,0,3
48934,4.5665e+07,0,1.94,0,-1.62,12.22,12.2,0,0,3
48972,4.5675e+07,0,1.94,0,-1.62,12.22,12.2,0,0,3
49013,4.5686e+07,0,1.94,0,-1.62,12.22,12.2,0,0,3
49053,4.5696e+07,0,1.94,0,-1.62,12.22,12.2,0,0,3
49094,4.5707e+07,0,1.94,0,-1.62,12.22,12.2,0,0,3
49135,4.5717e+07,0,1.94,0,-1.62,12.22,12.2,0,0,3
49178,4.5727e+07,0,1.94,0,-1.63,12.22,12.2,0,0,3
49223,4.5736e+07,0,1.94,0,-1.62,12.23,12.2,0,0.01,3
49264,4.5747e+07,0,1.94,0,-1.63,12.23,12.2,0,0.01,3
49305,4.5757e+07,0,1.94,0,-1.63,12.23,12.2,0,0.01,3
49345,4.5767e+07,0,1.93,0,-1.63,12.23,12.2,0,0.01,3
49384,4.5777e+07,0,1.94,0,-1.63,12.23,12.2,0,0.01,3
49424,4.5789e+07,0,1.94,0,-1.63,12.23,12.2,0,0.01,3
49465,4.5799e+07,0,1.94,0,-1.63,12.23,12.2,0,0.01,3
49506,4.581e+07,0,1.94,0,-1.62,12.23,12.2,0,0.01,3
49546,4.582e+07,0,1.94,0,-1.62,12.23,12.21,0,0.01,3
49591,4.583e+07,0,1.94,0,-1.62,12.23,12.21,0,0.01,3
49632,4.5841e+07,0,1.94,0,-1.62,12.23,12.21,0,0,3
49674,4.5851e+07,0,1.94,0,-1.62,12.24,12.21,0,0,3
49714,4.5861e+07,0,1.94,0,-1.62,12.24,12.21,0,0,3
49756,4.5872e+07,0,1.94,0,-1.62,12.24,12.21,0,0,3
49794,4.5882e+07,0,1.93,0,-1.62,12.24,12.22,0,0,3
49834,4.5892e+07,0,1.93,0,-1.62,12.24,12.22,0,0,3
