LineNo,TimeUS,DesRoll,Roll,DesPitch,Pitch,DesYaw,Yaw,ErrRP,ErrYaw,AEKF
185,33256614,0,1.93,0,-1.62,10.31,10.29,0,0.01,3
523,33335088,0,1.93,0,-1.63,10.4,10.38,0,0.01,3
981,33436690,0,1.94,0,-1.63,10.5,10.47,0,0.01,3
1299,33614366,0,1.94,0,-1.63,10.6,10.58,0,0.01,3
1484,33648592,0,1.94,0,-1.63,10.64,10.61,0,0.01,3
1573,33660868,0,1.94,0,-1.63,10.65,10.63,0,0.01,3
1619,33670874,0,1.94,0,-1.63,10.66,10.64,0,0.01,3
1663,33684309,0,1.94,0,-1.63,10.67,10.65,0,0.01,3
1703,33694898,0,1.94,0,-1.63,10.68,10.66,0,0.01,3
1744,33705088,0,1.94,0,-1.63,10.69,10.67,0,0.01,3
1784,33715139,0,1.94,0,-1.63,10.7,10.68,0,0.01,3
1831,33725910,0,1.94,0,-1.63,10.71,10.69,0,0,3
1871,33736313,0,1.94,0,-1.63,10.72,10.7,0,0,3
1912,33746617,0,1.94,0,-1.62,10.73,10.71,0,0,3
1953,33756310,0,1.94,0,-1.62,10.74,10.72,0,0,3
1991,33767076,0,1.94,0,-1.63,10.75,10.73,0,0,3
2032,33777144,0,1.94,0,-1.63,10.76,10.74,0,0,3
2072,33786838,0,1.94,0,-1.63,10.77,10.75,0,0,3
2113,33797329,0,1.94,0,-1.63,10.78,10.76,0,0,3
2154,33807692,0,1.94,0,-1.63,10.79,10.77,0,0,3
2195,33817914,0,1.94,0,-1.63,10.8,10.78,0,0,3
2239,33827797,0,1.94,0,-1.63,10.81,10.79,0,0,3
2280,33837768,0,1.94,0,-1.63,10.82,10.8,0,0,3
2325,33847629,0,1.94,0,-1.63,10.83,10.81,0,0,3
2368,33861087,0,1.94,0,-1.63,10.84,10.82,0,0,3
2409,33872280,0,1.94,0,-1.63,10.85,10.83,0,0,3
2450,33882381,0,1.94,0,-1.63,10.86,10.83,0,0,3
2490,33892130,0,1.94,0,-1.63,10.86,10.84,0,0,3
2533,33902804,0,1.94,0,-1.63,10.87,10.85,0,0,3
2573,33912622,0,1.94,0,-1.63,10.88,10.85,0,0,3
2614,33922814,0,1.94,0,-1.63,10.88,10.86,0,0,3
2660,33932680,0,1.94,0,-1.62,10.89,10.87,0,0.01,3
2700,33943315,0,1.94,0,-1.62,10.9,10.87,0,0.01,3
2741,33953620,0,1.94,0,-1.62,10.91,10.88,0,0.01,3
2782,33963655,0,1.94,0,-1.62,10.92,10.89,0,0.01,3
2823,33973566,0,1.94,0,-1.62,10.92,10.9,0,0.01,3
2863,33983651,0,1.94,0,-1.62,10.93,10.91,0,0.01,3
2904,33996393,0,1.94,0,-1.62,10.95,10.93,0,0.01,3
2946,34006816,0,1.94,0,-1.62,10.96,10.94,0,0.01,3
2987,34017116,0,1.94,0,-1.62,10.98,10.95,0,0.01,3
3028,34027378,0,1.94,0,-1.62,10.99,10.97,0,0.01,3
3072,34037499,0,1.94,0,-1.62,11,10.98,0,0.01,3
3113,34046880,0,1.94,0,-1.62,11.02,10.99,0,0.01,3
3153,34057172,0,1.94,0,-1.62,11.03,11,0,0.01,3
3199,34070316,0,1.94,0,-1.62,11.05,11.02,0,0.01,3
3239,34080622,0,1.94,0,-1.62,11.06,11.04,0,0.01,3
3281,34090786,0,1.94,0,-1.62,11.07,11.05,0,0.01,3
3326,34101048,0,1.94,0,-1.62,11.09,11.07,0,0.01,3
3366,34111431,0,1.94,0,-1.62,11.1,11.08,0,0.01,3
3407,34121543,0,1.94,0,-1.62,11.12,11.1,0,0.01,3
3451,34131884,0,1.94,0,-1.62,11.13,11.11,0,0.01,3
3495,34141814,0,1.94,0,-1.62,11.15,11.13,0,0.01,3
3537,34152065,0,1.94,0,-1.62,11.16,11.14,0,0.01,3
3577,34162135,0,1.93,0,-1.62,11.17,11.15,0,0.01,3
3618,34172064,0,1.93,0,-1.62,11.19,11.16,0,0.01,3
3655,34182494,0,1.93,0,-1.62,11.2,11.18,0,0.01,3
3696,34192887,0,1.93,0,-1.62,11.21,11.19,0,0.01,3
3737,34203063,0,1.93,0,-1.62,11.22,11.2,0,0.01,3
3778,34213048,0,1.93,0,-1.62,11.24,11.21,0,0.01,3
3819,34223307,0,1.93,0,-1.62,11.25,11.22,0,0.01,3
3863,34233617,0,1.93,0,-1.62,11.26,11.24,0,0.01,3
3904,34244079,0,1.93,0,-1.62,11.27,11.25,0,0.01,3
3944,34254589,0,1.93,0,-1.62,11.28,11.26,0,0.01,3
3986,34264782,0,1.93,0,-1.62,11.3,11.27,0,0.01,3
4026,34277666,0,1.93,0,-1.62,11.31,11.29,0,0.01,3
4067,34287911,0,1.93,0,-1.62,11.32,11.29,0,0.01,3
4108,34298085,0,1.93,0,-1.62,11.33,11.3,0,0.01,3
4149,34308338,0,1.93,0,-1.62,11.34,11.31,0,0.01,3
4190,34318555,0,1.93,0,-1.62,11.34,11.32,0,0.01,3
4232,34328819,0,1.93,0,-1.62,11.35,11.33,0,0.01,3
4280,34339194,0,1.93,0,-1.62,11.36,11.34,0,0.01,3
4322,34349330,0,1.93,0,-1.62,11.37,11.34,0,0.01,3
4362,34359686,0,1.93,0,-1.62,11.37,11.35,0,0.01,3
4403,34369702,0,1.93,0,-1.62,11.38,11.36,0,0.01,3
4440,34380112,0,1.93,0,-1.62,11.39,11.36,0,0.01,3
4478,34390665,0,1.93,0,-1.62,11.39,11.37,0,0.01,3
4519,34401100,0,1.93,0,-1.62,11.4,11.37,0,0.01,3
4561,34411562,0,1.94,0,-1.62,11.4,11.38,0,0.01,3
4602,34421640,0,1.94,0,-1.62,11.4,11.38,0,0.01,3
4642,34431620,0,1.94,0,-1.62,11.41,11.39,0,0.01,3
4687,34441580,0,1.94,0,-1.62,11.42,11.39,0,0.01,3
4727,34452094,0,1.94,0,-1.62,11.42,11.4,0,0.01,3
4768,34462287,0,1.94,0,-1.62,11.43,11.4,0,0.01,3
4808,34472082,0,1.94,0,-1.62,11.43,11.41,0,0.01,3
4849,34482337,0,1.94,0,-1.62,11.44,11.42,0,0.01,3
4890,34492510,0,1.94,0,-1.62,11.44,11.42,0,0.01,3
4931,34502636,0,1.93,0,-1.62,11.44,11.42,0,0.01,3
4971,34512638,0,1.93,0,-1.62,11.45,11.42,0,0.01,3
5013,34522847,0,1.93,0,-1.62,11.45,11.43,0,0.01,3
5056,34533299,0,1.93,0,-1.62,11.45,11.43,0,0.01,3
5101,34543407,0,1.93,0,-1.62,11.46,11.43,0,0.01,3
5141,34553309,0,1.93,0,-1.62,11.46,11.44,0,0.01,3
5184,34563526,0,1.93,0,-1.62,11.46,11.44,0,0.01,3
5226,34573146,0,1.93,0,-1.62,11.46,11.44,0,0.01,3
5266,34583489,0,1.93,0,-1.62,11.47,11.44,0,0.01,3
5303,34593363,0,1.93,0,-1.62,11.47,11.45,0,0.01,3
5344,34603908,0,1.93,0,-1.62,11.47,11.45,0,0.01,3
5384,34613859,0,1.93,0,-1.62,11.48,11.45,0,0.01,3
5425,34624029,0,1.93,0,-1.62,11.48,11.46,0,0.01,3
5466,34634336,0,1.93,0,-1.62,11.48,11.46,0,0.01,3
5511,34644912,0,1.93,0,-1.62,11.49,11.46,0,0.01,3
5552,34655556,0,1.93,0,-1.62,11.49,11.47,0,0.01,3
5593,34665625,0,1.93,0,-1.62,11.5,11.47,0,0.01,3
5634,34675844,0,1.93,0,-1.62,11.5,11.47,0,0.01,3
5674,34688415,0,1.93,0,-1.62,11.5,11.48,0,0.01,3
5715,34698580,0,1.93,0,-1.62,11.5,11.48,0,0.01,3
5756,34708700,0,1.93,0,-1.62,11.51,11.48,0,0.01,3
5797,34718780,0,1.93,0,-1.62,11.51,11.49,0,0.01,3
5840,34729332,0,1.93,0,-1.62,11.51,11.49,0,0.01,3
5881,34740197,0,1.93,0,-1.62,11.52,11.49,0,0.01,3
5926,34750856,0,1.93,0,-1.62,11.52,11.5,0,0,3
5967,34761337,0,1.93,0,-1.62,11.53,11.51,0,0,3
6007,34771551,0,1.93,0,-1.62,11.54,11.51,0,0,3
6049,34781878,0,1.93,0,-1.62,11.54,11.52,0,0,3
6093,34794566,0,1.93,0,-1.62,11.55,11.52,0,0,3
6133,34805369,0,1.93,0,-1.62,11.55,11.53,0,0,3
6174,34815881,0,1.93,0,-1.62,11.56,11.53,0,0,3
6214,34826575,0,1.93,0,-1.62,11.56,11.54,0,0,3
6255,34836647,0,1.93,0,-1.62,11.56,11.54,0,0,3
6295,34846293,0,1.93,0,-1.62,11.57,11.54,0,0,3
6343,34857064,0,1.93,0,-1.62,11.57,11.55,0,0,3
6384,34867078,0,1.93,0,-1.62,11.58,11.55,0,0,3
6424,34877125,0,1.93,0,-1.62,11.58,11.56,0,0,3
6465,34889598,0,1.93,0,-1.62,11.59,11.56,0,0,3
6502,34900123,0,1.93,0,-1.62,11.59,11.57,0,0,3
6544,34910604,0,1.93,0,-1.62,11.6,11.57,0,0,3
6585,34920915,0,1.93,0,-1.62,11.6,11.58,0,0,3
6625,34930880,0,1.93,0,-1.62,11.6,11.58,0,0,3
6668,34940835,0,1.93,0,-1.62,11.61,11.59,0,0,3
6714,34951513,0,1.93,0,-1.62,11.62,11.59,0,0,3
6755,34961605,0,1.93,0,-1.62,11.62,11.6,0,0,3
6795,34971993,0,1.93,0,-1.62,11.63,11.6,0,0,3
6839,34984571,0,1.93,0,-1.62,11.63,11.61,0,0,3
6880,34994927,0,1.93,0,-1.62,11.64,11.61,0,0,3
6918,35005478,0,1.93,0,-1.62,11.64,11.62,0,0,3
6958,35015418,0,1.93,0,-1.62,11.65,11.62,0,0,3
6998,35025593,0,1.93,0,-1.62,11.65,11.63,0,0,3
7040,35035910,0,1.93,0,-1.62,11.66,11.63,0,0,3
7081,35046573,0,1.93,0,-1.62,11.67,11.64,0,0,3
7128,35057144,0,1.93,0,-1.62,11.67,11.65,0,0,3
7169,35067569,0,1.93,0,-1.62,11.68,11.66,0,0,3
7209,35077876,0,1.93,0,-1.62,11.69,11.66,0,0,3
7251,35088133,0,1.93,0,-1.62,11.7,11.67,0,0,3
7285,35098264,0,1.93,0,-1.62,11.7,11.68,0,0,3
7326,35108643,0,1.93,0,-1.62,11.71,11.69,0,0,3
7367,35119291,0,1.93,0,-1.62,11.72,11.69,0,0,3
7410,35129977,0,1.93,0,-1.62,11.72,11.7,0,0,3
7451,35140180,0,1.93,0,-1.62,11.73,11.71,0,0,3
7493,35149920,0,1.93,0,-1.62,11.74,11.71,0,0,3
7541,35160558,0,1.93,0,-1.62,11.74,11.72,0,0,3
7581,35170848,0,1.93,0,-1.62,11.75,11.72,0,0,3
7622,35181040,0,1.93,0,-1.62,11.75,11.73,0,0,3
7664,35191002,0,1.93,0,-1.62,11.76,11.73,0,0,3
7698,35201541,0,1.93,0,-1.62,11.76,11.74,0,0,3
7739,35211633,0,1.93,0,-1.62,11.77,11.74,0,0,3
7779,35221898,0,1.93,0,-1.62,11.77,11.75,0,0,3
7820,35232331,0,1.93,0,-1.62,11.78,11.75,0,0,3
7860,35242770,0,1.93,0,-1.62,11.78,11.76,0,0,3
7902,35252624,0,1.93,0,-1.62,11.79,11.77,0,0,3
7947,35263163,0,1.93,0,-1.62,11.8,11.77,0,0.01,3
7988,35273091,0,1.93,0,-1.62,11.8,11.78,0,0.01,3
8029,35283334,0,1.93,0,-1.62,11.81,11.78,0,0.01,3
8073,35295673,0,1.93,0,-1.62,11.81,11.79,0,0.01,3
8114,35306564,0,1.93,0,-1.62,11.82,11.8,0,0.01,3
8157,35316879,0,1.93,0,-1.62,11.83,11.8,0,0.01,3
8194,35327570,0,1.93,0,-1.62,11.83,11.81,0,0.01,3
8237,35337552,0,1.93,0,-1.62,11.84,11.82,0,0.01,3
8279,35347553,0,1.93,0,-1.62,11.85,11.82,0,0.01,3
8319,35358147,0,1.93,0,-1.62,11.85,11.83,0,0.01,3
8366,35368620,0,1.93,0,-1.62,11.86,11.84,0,0.01,3
8406,35378840,0,1.93,0,-1.62,11.87,11.85,0,0.01,3
8448,35388838,0,1.93,0,-1.62,11.88,11.85,0,0.01,3
8488,35399083,0,1.93,0,-1.62,11.88,11.86,0,0.01,3
8532,35414670,0,1.93,0,-1.62,11.89,11.87,0,0.01,3
8574,35424601,0,1.93,0,-1.61,11.89,11.87,0,0.01,3
8614,35435087,0,1.93,0,-1.62,11.9,11.87,0,0.01,3
8655,35445564,0,1.93,0,-1.62,11.9,11.88,0,0.01,3
8695,35456132,0,1.93,0,-1.62,11.9,11.88,0,0.01,3
8741,35467111,0,1.93,0,-1.62,11.9,11.88,0,0.01,3
8781,35477621,0,1.93,0,-1.62,11.91,11.88,0,0.01,3
8822,35487699,0,1.93,0,-1.62,11.91,11.89,0,0.01,3
8864,35497677,0,1.93,0,-1.62,11.91,11.89,0,0.01,3
8904,35507591,0,1.93,0,-1.62,11.91,11.89,0,0.01,3
8948,35520319,0,1.93,0,-1.62,11.91,11.89,0,0.01,3
8988,35530919,0,1.93,0,-1.62,11.91,11.89,0,0.01,3
9032,35540867,0,1.92,0,-1.62,11.91,11.89,0,0.01,3
9074,35551355,0,1.93,0,-1.62,11.91,11.89,0,0.01,3
9115,35561383,0,1.92,0,-1.62,11.92,11.89,0,0.01,3
9160,35571458,0,1.93,0,-1.62,11.92,11.89,0,0.01,3
9200,35581319,0,1.92,0,-1.62,11.92,11.9,0,0.01,3
9242,35591340,0,1.92,0,-1.62,11.92,11.9,0,0.01,3
9282,35601690,0,1.92,0,-1.62,11.92,11.9,0,0.01,3
9326,35617307,0,1.92,0,-1.62,11.93,11.9,0,0.01,3
9367,35627240,0,1.92,0,-1.62,11.93,11.9,0,0.01,3
9407,35637225,0,1.92,0,-1.62,11.93,11.9,0,0.01,3
9448,35647166,0,1.92,0,-1.62,11.93,11.9,0,0.01,3
9489,35657537,0,1.92,0,-1.62,11.93,11.9,0,0.01,3
9530,35667559,0,1.92,0,-1.62,11.93,11.9,0,0.01,3
9575,35678058,0,1.92,0,-1.62,11.93,11.9,0,0.01,3
9615,35688291,0,1.92,0,-1.62,11.93,11.9,0,0.01,3
9656,35698528,0,1.92,0,-1.62,11.93,11.9,0,0.01,3
9697,35708695,0,1.92,0,-1.62,11.93,11.9,0,0.01,3
9738,35719303,0,1.92,0,-1.62,11.93,11.91,0,0.01,3
9782,35729865,0,1.92,0,-1.62,11.93,11.91,0,0.01,3
9819,35740637,0,1.92,0,-1.62,11.93,11.91,0,0.01,3
9860,35750888,0,1.92,0,-1.62,11.93,11.9,0,0.01,3
9900,35761310,0,1.92,0,-1.62,11.93,11.91,0,0.01,3
9941,35771520,0,1.92,0,-1.62,11.93,11.91,0,0.01,3
9985,35781780,0,1.92,0,-1.62,11.93,11.91,0,0.01,3
10026,35792095,0,1.92,0,-1.62,11.93,11.91,0,0.01,3
10067,35802011,0,1.92,0,-1.62,11.93,11.91,0,0.01,3
10108,35812168,0,1.92,0,-1.62,11.94,11.91,0,0.01,3
10148,35822799,0,1.92,0,-1.63,11.94,11.91,0,0.01,3
10188,35833117,0,1.92,0,-1.63,11.94,11.91,0,0.01,3
10228,35843824,0,1.92,0,-1.63,11.94,11.92,0,0.01,3
10269,35853527,0,1.92,0,-1.63,11.94,11.92,0,0.01,3
10310,35864063,0,1.93,0,-1.62,11.94,11.92,0,0.01,3
10351,35874581,0,1.93,0,-1.62,11.94,11.92,0,0.01,3
10395,35884809,0,1.93,0,-1.62,11.95,11.92,0,0,3
10436,35895076,0,1.93,0,-1.62,11.95,11.93,0,0,3
10476,35905537,0,1.92,0,-1.62,11.95,11.93,0,0,3
10517,35915771,0,1.92,0,-1.62,11.96,11.93,0,0,3
10556,35926302,0,1.92,0,-1.62,11.96,11.94,0,0,3
10598,35936307,0,1.92,0,-1.62,11.96,11.94,0,0,3
10638,35946513,0,1.92,0,-1.62,11.96,11.94,0,0,3
10665,35976827,0,1.92,0,-1.62,11.97,11.95,0,0,3
10709,35986603,0,1.92,0,-1.62,11.97,11.95,0,0.01,3
10750,35996365,0,1.92,0,-1.62,11.97,11.95,0,0.01,3
10790,36006922,0,1.92,0,-1.62,11.98,11.95,0,0.01,3
10834,36022295,0,1.92,0,-1.62,11.98,11.96,0,0.01,3
10875,36032243,0,1.92,0,-1.63,11.99,11.96,0,0.01,3
10918,36042613,0,1.92,0,-1.63,11.99,11.97,0,0.01,3
10959,36052590,0,1.92,0,-1.63,12,11.97,0,0.01,3
10999,36062823,0,1.92,0,-1.63,12,11.98,0,0.01,3
11042,36072654,0,1.92,0,-1.63,12.01,11.98,0,0.01,3
11086,36082539,0,1.92,0,-1.63,12.01,11.99,0,0.01,3
11127,36093081,0,1.92,0,-1.63,12.02,12,0,0.01,3
11167,36103395,0,1.92,0,-1.63,12.03,12,0,0.01,3
11208,36113275,0,1.92,0,-1.62,12.03,12.01,0,0.01,3
11253,36126912,0,1.92,0,-1.62,12.04,12.02,0,0.01,3
11295,36137599,0,1.92,0,-1.62,12.05,12.03,0,0.01,3
11336,36147649,0,1.92,0,-1.62,12.06,12.03,0,0.01,3
11377,36157625,0,1.92,0,-1.62,12.07,12.04,0,0.01,3
11418,36167658,0,1.92,0,-1.62,12.07,12.05,0,0.01,3
11462,36177776,0,1.92,0,-1.62,12.08,12.06,0,0.01,3
11506,36187995,0,1.92,0,-1.62,12.09,12.06,0,0.01,3
11547,36197905,0,1.92,0,-1.62,12.1,12.07,0,0.01,3
11587,36207922,0,1.92,0,-1.62,12.1,12.08,0,0.01,3
11628,36217905,0,1.92,0,-1.62,12.11,12.09,0,0.01,3
11665,36228497,0,1.92,0,-1.62,12.12,12.09,0,0.01,3
11706,36239105,0,1.92,0,-1.62,12.12,12.1,0,0.01,3
11747,36249632,0,1.92,0,-1.62,12.13,12.1,0,0.01,3
11788,36259869,0,1.92,0,-1.62,12.13,12.11,0,0.01,3
11829,36269860,0,1.92,0,-1.62,12.13,12.11,0,0.01,3
11870,36279789,0,1.92,0,-1.62,12.14,12.11,0,0.01,3
11916,36290552,0,1.92,0,-1.62,12.14,12.12,0,0.01,3
11956,36300770,0,1.92,0,-1.62,12.14,12.12,0,0.01,3
11997,36310850,0,1.92,0,-1.62,12.15,12.12,0,0.01,3
12038,36320786,0,1.92,0,-1.62,12.15,12.13,0,0.01,3
12078,36333529,0,1.92,0,-1.62,12.15,12.13,0,0.01,3
12118,36344264,0,1.92,0,-1.62,12.15,12.13,0,0.01,3
12159,36354502,0,1.92,0,-1.62,12.15,12.13,0,0.01,3
12200,36364657,0,1.92,0,-1.62,12.15,12.13,0,0.01,3
12241,36374906,0,1.92,0,-1.62,12.16,12.13,0,0.01,3
12282,36384790,0,1.92,0,-1.62,12.16,12.14,0,0.01,3
12329,36394882,0,1.92,0,-1.62,12.16,12.14,0,0.01,3
12369,36405597,0,1.92,0,-1.62,12.16,12.14,0,0.01,3
12410,36415617,0,1.92,0,-1.62,12.17,12.14,0,0.01,3
12451,36425769,0,1.92,0,-1.62,12.17,12.15,0,0.01,3
12492,36438775,0,1.92,0,-1.62,12.17,12.15,0,0.01,3
12532,36449497,0,1.92,0,-1.62,12.17,12.15,0,0.01,3
12572,36459863,0,1.92,0,-1.62,12.17,12.15,0,0.01,3
12612,36470096,0,1.92,0,-1.62,12.17,12.15,0,0.01,3
12653,36480326,0,1.92,0,-1.62,12.17,12.15,0,0.01,3
12699,36490796,0,1.92,0,-1.62,12.17,12.15,0,0.01,3
12740,36501328,0,1.92,0,-1.62,12.18,12.15,0,0.01,3
12780,36511332,0,1.92,0,-1.62,12.18,12.16,0,0.01,3
12823,36521917,0,1.92,0,-1.62,12.18,12.16,0,0.01,3
12864,36532599,0,1.92,0,-1.62,12.18,12.16,0,0.01,3
12906,36542593,0,1.92,0,-1.62,12.18,12.16,0,0.01,3
12947,36553510,0,1.92,0,-1.62,12.19,12.16,0,0.01,3
12987,36563082,0,1.92,0,-1.62,12.19,12.16,0,0.01,3
13028,36572992,0,1.92,0,-1.62,12.19,12.16,0,0.01,3
13069,36583564,0,1.92,0,-1.62,12.19,12.16,0,0.01,3
13114,36593836,0,1.92,0,-1.62,12.19,12.16,0,0.01,3
13155,36604314,0,1.92,0,-1.62,12.19,12.17,0,0,3
13196,36614285,0,1.92,0,-1.62,12.19,12.17,0,0,3
13236,36624643,0,1.92,0,-1.62,12.19,12.17,0,0,3
13277,36637136,0,1.92,0,-1.62,12.2,12.17,0,0,3
13315,36647810,0,1.92,0,-1.62,12.2,12.17,0,0,3
13356,36657894,0,1.92,0,-1.62,12.2,12.17,0,0,3
13397,36668192,0,1.92,0,-1.62,12.2,12.17,0,0,3
13437,36678582,0,1.92,0,-1.62,12.2,12.17,0,0,3
13478,36688794,0,1.92,0,-1.62,12.2,12.18,0,0,3
13524,36698701,0,1.92,0,-1.62,12.2,12.18,0,0.01,3
13565,36708639,0,1.92,0,-1.62,12.2,12.18,0,0.01,3
13606,36718834,0,1.92,0,-1.62,12.2,12.18,0,0.01,3
13648,36729095,0,1.92,0,-1.62,12.2,12.18,0,0.01,3
13689,36743174,0,1.92,0,-1.62,12.2,12.18,0,0.01,3
13730,36753194,0,1.92,0,-1.62,12.2,12.18,0,0.01,3
13770,36763794,0,1.93,0,-1.62,12.2,12.18,0,0.01,3
13812,36774182,0,1.93,0,-1.62,12.2,12.18,0,0.01,3
13852,36784700,0,1.93,0,-1.62,12.2,12.17,0,0.01,3
13893,36794805,0,1.93,0,-1.62,12.2,12.17,0,0.01,3
13937,36804774,0,1.93,0,-1.62,12.2,12.17,0,0,3
13979,36815139,0,1.93,0,-1.62,12.2,12.17,0,0,3
14020,36825596,0,1.93,0,-1.62,12.2,12.17,0,0,3
14061,36836067,0,1.93,0,-1.62,12.2,12.17,0,0,3
14106,36851671,0,1.92,0,-1.62,12.2,12.18,0,0,3
14147,36862053,0,1.92,0,-1.62,12.2,12.18,0,0,3
14188,36871906,0,1.92,0,-1.62,12.2,12.17,0,0,3
14229,36882136,0,1.92,0,-1.62,12.2,12.17,0,0,3
14271,36892295,0,1.92,0,-1.62,12.19,12.17,0,0,3
14315,36902814,0,1.92,0,-1.62,12.19,12.17,0,0,3
14356,36913294,0,1.92,0,-1.62,12.19,12.17,0,0,3
14397,36923213,0,1.92,0,-1.62,12.2,12.17,0,0,3
14440,36933593,0,1.93,0,-1.62,12.2,12.17,0,0,3
14478,36943626,0,1.93,0,-1.62,12.2,12.17,0,0,3
14516,36954053,0,1.93,0,-1.62,12.2,12.18,0,0,3
14557,36964334,0,1.93,0,-1.62,12.2,12.17,0,0,3
14597,36975079,0,1.93,0,-1.62,12.2,12.17,0,0,3
14638,36985108,0,1.93,0,-1.62,12.2,12.18,0,0,3
14678,36995087,0,1.93,0,-1.62,12.2,12.18,0,0,3
14723,37005585,0,1.92,0,-1.62,12.2,12.18,0,0,3
14766,37015657,0,1.92,0,-1.62,12.2,12.18,0,0,3
14806,37026044,0,1.92,0,-1.62,12.2,12.18,0,0,3
14849,37035670,0,1.92,0,-1.62,12.2,12.18,0,0,3
14889,37046041,0,1.92,0,-1.62,12.2,12.18,0,0,3
14927,37055789,0,1.92,0,-1.62,12.2,12.18,0,0,3
14965,37066128,0,1.92,0,-1.62,12.2,12.18,0,0,3
15006,37076361,0,1.93,0,-1.62,12.2,12.17,0,0,3
15047,37086496,0,1.93,0,-1.62,12.2,12.17,0,0,3
15087,37096877,0,1.93,0,-1.62,12.19,12.17,0,0,3
15132,37107299,0,1.93,0,-1.62,12.2,12.17,0,0,3
15178,37120094,0,1.93,0,-1.62,12.19,12.17,0,0,3
15220,37130271,0,1.93,0,-1.62,12.2,12.17,0,0,3
15260,37140792,0,1.92,0,-1.62,12.2,12.17,0,0,3
15301,37150877,0,1.92,0,-1.62,12.2,12.18,0,0,3
15337,37161776,0,1.92,0,-1.62,12.2,12.18,0,0,3
15377,37172061,0,1.92,0,-1.62,12.2,12.18,0,0,3
15419,37181791,0,1.92,0,-1.62,12.2,12.18,0,0,3
15459,37191860,0,1.92,0,-1.62,12.2,12.17,0,0,3
15500,37202136,0,1.92,0,-1.62,12.2,12.17,0,0,3
15545,37211869,0,1.92,0,-1.62,12.2,12.18,0,0.01,3
15586,37222134,0,1.92,0,-1.62,12.2,12.18,0,0.01,3
15629,37231869,0,1.92,0,-1.62,12.2,12.18,0,0.01,3
15669,37242266,0,1.92,0,-1.62,12.2,12.18,0,0.01,3
15710,37251876,0,1.92,0,-1.62,12.21,12.18,0,0.01,3
15744,37262509,0,1.92,0,-1.63,12.2,12.18,0,0.01,3
15785,37272187,0,1.92,0,-1.63,12.2,12.18,0,0.01,3
15827,37282922,0,1.92,0,-1.63,12.21,12.18,0,0.01,3
15867,37292523,0,1.92,0,-1.63,12.21,12.18,0,0.01,3
15908,37302832,0,1.92,0,-1.62,12.21,12.18,0,0.01,3
15952,37312547,0,1.92,0,-1.62,12.21,12.18,0,0,3
15995,37322705,0,1.92,0,-1.62,12.21,12.18,0,0,3
16036,37333033,0,1.92,0,-1.62,12.21,12.18,0,0,3
16078,37342655,0,1.92,0,-1.62,12.21,12.18,0,0,3
16121,37355303,0,1.92,0,-1.62,12.21,12.19,0,0,3
16162,37365634,0,1.92,0,-1.62,12.21,12.18,0,0,3
16203,37375686,0,1.92,0,-1.62,12.2,12.18,0,0,3
16243,37385591,0,1.92,0,-1.62,12.2,12.18,0,0,3
16284,37395885,0,1.92,0,-1.62,12.2,12.18,0,0,3
16324,37406127,0,1.93,0,-1.62,12.2,12.18,0,0,3
16371,37416024,0,1.93,0,-1.62,12.2,12.18,0,0,3
16411,37426521,0,1.93,0,-1.62,12.2,12.18,0,0,3
16452,37436783,0,1.93,0,-1.62,12.21,12.18,0,0,3
16495,37446837,0,1.93,0,-1.62,12.21,12.19,0,0,3
16529,37457326,0,1.93,0,-1.62,12.21,12.19,0,0,3
16569,37467844,0,1.93,0,-1.62,12.21,12.19,0,0,3
16610,37478101,0,1.93,0,-1.62,12.21,12.19,0,0,3
16652,37488130,0,1.93,0,-1.62,12.21,12.19,0,0,3
16692,37498402,0,1.93,0,-1.62,12.21,12.19,0,0,3
16733,37508533,0,1.93,0,-1.62,12.21,12.19,0,0,3
16778,37518566,0,1.93,0,-1.62,12.21,12.19,0,0,3
16823,37528633,0,1.93,0,-1.63,12.21,12.19,0,0,3
16864,37538802,0,1.93,0,-1.62,12.21,12.19,0,0,3
16907,37551654,0,1.93,0,-1.62,12.21,12.19,0,0,3
16951,37564188,0,1.93,0,-1.62,12.21,12.19,0,0,3
16992,37574276,0,1.92,0,-1.62,12.21,12.18,0,0,3
17033,37584564,0,1.92,0,-1.62,12.2,12.18,0,0,3
17075,37594513,0,1.92,0,-1.62,12.2,12.18,0,0,3
17115,37604285,0,1.92,0,-1.62,12.2,12.18,0,0,3
17160,37614798,0,1.93,0,-1.62,12.2,12.18,0,0,3
17200,37625128,0,1.92,0,-1.62,12.21,12.18,0,0,3
17241,37635776,0,1.93,0,-1.62,12.21,12.18,0,0,3
17283,37646090,0,1.93,0,-1.62,12.21,12.18,0,0,3
17323,37656043,0,1.93,0,-1.62,12.21,12.19,0,0,3
17361,37666307,0,1.93,0,-1.62,12.21,12.19,0,0,3
17401,37676802,0,1.93,0,-1.62,12.21,12.18,0,0,3
17443,37687552,0,1.92,0,-1.62,12.2,12.18,0,0,3
17483,37697691,0,1.92,0,-1.62,12.2,12.18,0,0,3
17524,37708241,0,1.92,0,-1.62,12.2,12.18,0,0,3
17570,37718524,0,1.92,0,-1.62,12.2,12.18,0,0,3
17612,37728818,0,1.92,0,-1.62,12.2,12.17,0,0,3
17653,37739525,0,1.92,0,-1.62,12.2,12.17,0,0,3
17693,37749811,0,1.93,0,-1.62,12.2,12.17,0,0,3
17734,37760079,0,1.93,0,-1.62,12.2,12.18,0,0,3
17771,37770795,0,1.93,0,-1.63,12.2,12.18,0,0,3
17813,37781278,0,1.93,0,-1.62,12.2,12.18,0,0,3
17856,37791568,0,1.93,0,-1.62,12.2,12.17,0,0,3
17896,37801664,0,1.93,0,-1.63,12.2,12.17,0,0,3
17937,37811631,0,1.93,0,-1.62,12.2,12.17,0,0,3
17982,37822367,0,1.93,0,-1.62,12.2,12.17,0,0,3
18023,37832353,0,1.93,0,-1.62,12.2,12.17,0,0.01,3
18064,37842811,0,1.93,0,-1.62,12.19,12.17,0,0.01,3
18104,37853198,0,1.93,0,-1.62,12.19,12.17,0,0.01,3
18145,37863227,0,1.92,0,-1.62,12.19,12.17,0,0.01,3
18186,37876610,0,1.92,0,-1.62,12.19,12.17,0,0.01,3
18228,37886287,0,1.92,0,-1.62,12.19,12.17,0,0.01,3
18269,37897052,0,1.93,0,-1.62,12.19,12.17,0,0.01,3
18310,37907496,0,1.93,0,-1.62,12.2,12.17,0,0.01,3
18351,37917123,0,1.93,0,-1.62,12.2,12.18,0,0.01,3
18395,37927300,0,1.93,0,-1.62,12.2,12.18,0,0.01,3
18438,37937256,0,1.93,0,-1.62,12.2,12.18,0,0.01,3
18479,37947634,0,1.93,0,-1.62,12.21,12.18,0,0.01,3
18520,37957764,0,1.93,0,-1.62,12.21,12.19,0,0.01,3
18558,37968613,0,1.93,0,-1.62,12.21,12.19,0,0.01,3
18598,37978841,0,1.93,0,-1.62,12.21,12.19,0,0.01,3
18639,37989347,0,1.93,0,-1.62,12.21,12.19,0,0.01,3
18680,37999669,0,1.93,0,-1.62,12.22,12.19,0,0.01,3
18721,38009809,0,1.92,0,-1.62,12.22,12.19,0,0.01,3
18764,38020071,0,1.92,0,-1.62,12.22,12.19,0,0.01,3
18809,38030037,0,1.92,0,-1.62,12.22,12.2,0,0.01,3
18850,38040146,0,1.92,0,-1.62,12.22,12.2,0,0.01,3
18890,38050608,0,1.92,0,-1.62,12.22,12.2,0,0.01,3
18931,38060849,0,1.92,0,-1.62,12.22,12.2,0,0.01,3
18975,38073884,0,1.93,0,-1.62,12.23,12.2,0,0.01,3
19016,38084667,0,1.93,0,-1.62,12.23,12.21,0,0.01,3
19057,38094901,0,1.93,0,-1.62,12.23,12.2,0,0.01,3
19097,38105594,0,1.93,0,-1.62,12.23,12.21,0,0.01,3
19140,38115534,0,1.93,0,-1.62,12.23,12.21,0,0.01,3
19182,38125695,0,1.93,0,-1.62,12.23,12.21,0,0.01,3
19227,38135683,0,1.93,0,-1.62,12.23,12.21,0,0,3
19267,38145868,0,1.93,0,-1.62,12.23,12.21,0,0,3
19308,38156083,0,1.93,0,-1.62,12.23,12.21,0,0,3
19350,38165832,0,1.93,0,-1.62,12.23,12.21,0,0,3
19384,38176615,0,1.93,0,-1.62,12.23,12.21,0,0,3
19425,38186855,0,1.93,0,-1.62,12.23,12.21,0,0,3
19466,38197493,0,1.93,0,-1.62,12.23,12.2,0,0,3
19507,38207700,0,1.93,0,-1.62,12.23,12.2,0,0,3
19548,38218112,0,1.93,0,-1.62,12.23,12.2,0,0,3
19589,38227903,0,1.93,0,-1.62,12.23,12.2,0,0,3
19634,38237806,0,1.93,0,-1.62,12.23,12.2,0,0,3
19675,38248122,0,1.93,0,-1.62,12.23,12.21,0,0,3
19717,38258496,0,1.93,0,-1.62,12.23,12.21,0,0,3
19757,38268668,0,1.93,0,-1.62,12.23,12.21,0,0,3
19801,38281692,0,1.93,0,-1.62,12.23,12.21,0,0,3
19841,38292514,0,1.93,0,-1.62,12.23,12.21,0,0,3
19883,38302792,0,1.93,0,-1.62,12.23,12.21,0,0,3
19924,38312616,0,1.93,0,-1.62,12.23,12.21,0,0,3
19964,38323122,0,1.93,0,-1.62,12.23,12.21,0,0,3
20007,38333418,0,1.93,0,-1.62,12.23,12.21,0,0,3
20052,38343655,0,1.93,0,-1.62,12.23,12.21,0,0.01,3
20093,38353443,0,1.93,0,-1.62,12.23,12.21,0,0.01,3
20135,38363852,0,1.93,0,-1.62,12.23,12.21,0,0.01,3
20175,38373913,0,1.93,0,-1.62,12.24,12.21,0,0.01,3
20216,38383811,0,1.93,0,-1.62,12.24,12.21,0,0.01,3
20256,38394255,0,1.93,0,-1.62,12.23,12.21,0,0.01,3
20297,38404344,0,1.93,0,-1.62,12.23,12.21,0,0.01,3
20337,38414608,0,1.93,0,-1.62,12.23,12.21,0,0.01,3
20379,38424799,0,1.93,0,-1.62,12.23,12.21,0,0.01,3
20420,38435137,0,1.93,0,-1.62,12.23,12.21,0,0.01,3
20466,38445574,0,1.93,0,-1.62,12.23,12.21,0,0,3
20508,38455565,0,1.93,0,-1.62,12.23,12.21,0,0,3
20548,38465659,0,1.93,0,-1.62,12.23,12.21,0,0,3
20590,38476160,0,1.93,0,-1.62,12.23,12.21,0,0,3
20637,38491869,0,1.93,0,-1.62,12.23,12.21,0,0,3
20678,38502597,0,1.93,0,-1.62,12.23,12.2,0,0,3
20720,38512917,0,1.93,0,-1.62,12.23,12.2,0,0,3
20761,38523411,0,1.94,0,-1.62,12.22,12.2,0,0,3
20803,38533509,0,1.94,0,-1.62,12.22,12.2,0,0,3
20848,38543513,0,1.94,0,-1.62,12.22,12.2,0,0.01,3
20891,38553489,0,1.94,0,-1.62,12.22,12.2,0,0.01,3
20931,38563694,0,1.94,0,-1.62,12.22,12.2,0,0.01,3
20972,38574081,0,1.93,0,-1.62,12.22,12.2,0,0.01,3
21012,38586701,0,1.93,0,-1.62,12.22,12.2,0,0.01,3
21052,38597087,0,1.93,0,-1.62,12.22,12.19,0,0.01,3
21093,38607321,0,1.93,0,-1.62,12.21,12.19,0,0.01,3
21134,38617181,0,1.93,0,-1.62,12.21,12.19,0,0.01,3
21175,38627392,0,1.93,0,-1.62,12.2,12.18,0,0.01,3
21216,38637124,0,1.93,0,-1.62,12.2,12.18,0,0.01,3
21261,38647157,0,1.93,0,-1.62,12.2,12.17,0,0.01,3
21302,38657790,0,1.94,0,-1.62,12.19,12.17,0,0.01,3
21343,38667811,0,1.94,0,-1.62,12.19,12.17,0,0.01,3
21384,38677794,0,1.94,0,-1.62,12.19,12.16,0,0.01,3
21422,38688128,0,1.94,0,-1.62,12.19,12.16,0,0.01,3
21463,38701048,0,1.94,0,-1.62,12.18,12.16,0,0.01,3
21503,38711360,0,1.94,0,-1.63,12.18,12.16,0,0.01,3
21544,38721878,0,1.94,0,-1.63,12.18,12.16,0,0.01,3
21584,38732491,0,1.94,0,-1.63,12.18,12.16,0,0.01,3
21627,38742340,0,1.93,0,-1.63,12.18,12.16,0,0.01,3
21672,38752606,0,1.93,0,-1.63,12.18,12.16,0,0.01,3
21714,38762869,0,1.93,0,-1.63,12.18,12.16,0,0.01,3
21755,38772864,0,1.93,0,-1.63,12.18,12.16,0,0.01,3
21798,38785577,0,1.93,0,-1.63,12.18,12.16,0,0.01,3
21836,38796326,0,1.93,0,-1.62,12.18,12.16,0,0.01,3
21876,38806323,0,1.93,0,-1.62,12.18,12.16,0,0.01,3
21918,38816569,0,1.93,0,-1.62,12.18,12.16,0,0.01,3
21959,38826763,0,1.94,0,-1.63,12.18,12.16,0,0.01,3
21999,38837164,0,1.94,0,-1.63,12.18,12.16,0,0.01,3
22044,38847808,0,1.94,0,-1.63,12.18,12.16,0,0.01,3
22084,38857865,0,1.94,0,-1.63,12.18,12.16,0,0,3
22127,38868202,0,1.94,0,-1.63,12.18,12.16,0,0,3
22167,38878503,0,1.94,0,-1.63,12.19,12.16,0,0,3
22209,38888889,0,1.93,0,-1.62,12.19,12.16,0,0,3
22247,38899670,0,1.93,0,-1.62,12.19,12.17,0,0,3
22287,38910226,0,1.93,0,-1.62,12.19,12.16,0,0,3
22328,38920863,0,1.93,0,-1.62,12.19,12.16,0,0,3
22370,38931291,0,1.93,0,-1.62,12.19,12.16,0,0,3
22413,38941641,0,1.93,0,-1.63,12.19,12.17,0,0,3
22458,38952056,0,1.93,0,-1.63,12.19,12.16,0,0,3
22498,38962095,0,1.93,0,-1.63,12.19,12.16,0,0,3
22539,38972324,0,1.93,0,-1.63,12.19,12.16,0,0,3
22585,38985121,0,1.93,0,-1.63,12.19,12.16,0,0,3
22625,38995794,0,1.94,0,-1.63,12.19,12.16,0,0,3
22665,39006679,0,1.94,0,-1.63,12.18,12.16,0,0,3
22705,39016898,0,1.94,0,-1.63,12.18,12.16,0,0,3
22746,39026810,0,1.94,0,-1.62,12.18,12.15,0,0,3
22788,39036779,0,1.94,0,-1.62,12.17,12.15,0,0,3
22828,39046614,0,1.94,0,-1.62,12.17,12.15,0,0,3
22874,39057037,0,1.94,0,-1.62,12.17,12.15,0,0.01,3
22914,39066877,0,1.94,0,-1.62,12.17,12.15,0,0.01,3
22956,39076366,0,1.93,0,-1.62,12.17,12.15,0,0.01,3
22997,39086626,0,1.93,0,-1.62,12.17,12.15,0,0.01,3
23034,39097250,0,1.93,0,-1.62,12.17,12.15,0,0.01,3
23072,39107785,0,1.93,0,-1.62,12.17,12.15,0,0.01,3
23113,39118528,0,1.94,0,-1.62,12.17,12.14,0,0.01,3
23155,39129089,0,1.94,0,-1.62,12.17,12.14,0,0.01,3
23196,39139700,0,1.94,0,-1.62,12.16,12.14,0,0.01,3
23236,39150106,0,1.94,0,-1.62,12.16,12.14,0,0.01,3
23281,39160144,0,1.94,0,-1.62,12.16,12.14,0,0.01,3
23324,39170597,0,1.94,0,-1.62,12.16,12.14,0,0.01,3
23365,39181070,0,1.94,0,-1.62,12.16,12.14,0,0.01,3
23406,39191036,0,1.94,0,-1.62,12.17,12.14,0,0.01,3
23443,39200876,0,1.94,0,-1.62,12.17,12.15,0,0.01,3
23484,39213784,0,1.94,0,-1.63,12.17,12.15,0,0.01,3
23525,39224170,0,1.94,0,-1.63,12.17,12.15,0,0.01,3
23566,39234627,0,1.94,0,-1.63,12.18,12.15,0,0.01,3
23607,39244508,0,1.94,0,-1.63,12.18,12.16,0,0.01,3
23647,39254687,0,1.94,0,-1.63,12.18,12.16,0,0.01,3
23692,39265084,0,1.94,0,-1.63,12.18,12.16,0,0.01,3
23733,39275556,0,1.94,0,-1.63,12.18,12.16,0,0.01,3
23775,39285632,0,1.94,0,-1.63,12.19,12.16,0,0.01,3
23816,39295771,0,1.94,0,-1.63,12.19,12.16,0,0.01,3
23854,39308656,0,1.94,0,-1.63,12.19,12.17,0,0.01,3
23895,39318846,0,1.94,0,-1.63,12.19,12.17,0,0.01,3
23935,39329033,0,1.94,0,-1.63,12.19,12.17,0,0.01,3
23978,39338916,0,1.94,0,-1.63,12.2,12.17,0,0.01,3
24019,39349318,0,1.94,0,-1.63,12.2,12.17,0,0.01,3
24060,39359608,0,1.94,0,-1.63,12.2,12.18,0,0.01,3
24105,39370045,0,1.94,0,-1.63,12.2,12.18,0,0.01,3
24145,39380477,0,1.94,0,-1.63,12.21,12.18,0,0.01,3
24187,39390499,0,1.94,0,-1.63,12.21,12.19,0,0.01,3
24230,39402635,0,1.94,0,-1.63,12.22,12.19,0,0.01,3
24268,39413695,0,1.94,0,-1.63,12.22,12.19,0,0.01,3
24310,39423820,0,1.94,0,-1.63,12.22,12.2,0,0.01,3
24350,39434273,0,1.94,0,-1.63,12.22,12.2,0,0.01,3
24391,39444263,0,1.94,0,-1.63,12.22,12.2,0,0.01,3
24432,39454156,0,1.94,0,-1.63,12.23,12.2,0,0.01,3
24482,39466870,0,1.94,0,-1.63,12.23,12.21,0,0.01,3
24523,39477135,0,1.94,0,-1.63,12.23,12.21,0,0.01,3
24563,39487093,0,1.94,0,-1.63,12.23,12.21,0,0.01,3
24606,39497117,0,1.94,0,-1.63,12.24,12.22,0,0.01,3
24646,39507582,0,1.94,0,-1.63,12.24,12.22,0,0.01,3
24688,39516815,0,1.94,0,-1.62,12.25,12.22,0,0.01,3
24729,39527800,0,1.94,0,-1.62,12.25,12.22,0,0.01,3
24769,39537924,0,1.94,0,-1.62,12.25,12.23,0,0.01,3
24810,39548262,0,1.94,0,-1.63,12.25,12.23,0,0.01,3
24850,39558143,0,1.94,0,-1.63,12.26,12.23,0,0.01,3
24895,39568249,0,1.94,0,-1.63,12.26,12.23,0,0.01,3
24936,39578164,0,1.93,0,-1.63,12.26,12.24,0,0.01,3
24977,39588152,0,1.93,0,-1.63,12.26,12.24,0,0.01,3
25018,39598332,0,1.93,0,-1.63,12.26,12.24,0,0.01,3
25055,39608151,0,1.93,0,-1.63,12.27,12.24,0,0.01,3
25097,39618318,0,1.93,0,-1.63,12.27,12.24,0,0.01,3
25138,39628602,0,1.94,0,-1.63,12.27,12.24,0,0.01,3
25179,39638696,0,1.94,0,-1.63,12.27,12.25,0,0.01,3
25220,39648599,0,1.94,0,-1.63,12.27,12.25,0,0.01,3
25260,39658704,0,1.94,0,-1.63,12.27,12.25,0,0.01,3
25305,39669183,0,1.94,0,-1.63,12.28,12.25,0,0.01,3
25346,39679788,0,1.94,0,-1.63,12.28,12.26,0,0.01,3
25386,39689872,0,1.94,0,-1.63,12.28,12.26,0,0.01,3
25427,39699995,0,1.94,0,-1.63,12.29,12.26,0,0.01,3
25468,39710804,0,1.94,0,-1.63,12.29,12.26,0,0.01,3
25508,39720922,0,1.94,0,-1.63,12.29,12.27,0,0.01,3
25552,39731566,0,1.94,0,-1.63,12.29,12.26,0,0.01,3
25593,39741878,0,1.94,0,-1.63,12.29,12.26,0,0.01,3
25633,39752042,0,1.94,0,-1.63,12.29,12.26,0,0.01,3
25675,39762262,0,1.94,0,-1.63,12.29,12.26,0,0.01,3
25719,39772426,0,1.94,0,-1.63,12.28,12.26,0,0.01,3
25760,39782345,0,1.94,0,-1.63,12.28,12.26,0,0.01,3
25800,39792699,0,1.94,0,-1.63,12.28,12.26,0,0.01,3
25841,39803485,0,1.94,0,-1.63,12.28,12.26,0,0.01,3
25883,39813617,0,1.94,0,-1.63,12.28,12.26,0,0.01,3
25923,39824768,0,1.94,0,-1.63,12.28,12.26,0,0.01,3
25965,39834844,0,1.94,0,-1.63,12.28,12.26,0,0.01,3
26005,39845137,0,1.94,0,-1.63,12.28,12.26,0,0.01,3
26047,39855851,0,1.94,0,-1.63,12.28,12.26,0,0.01,3
26088,39865834,0,1.94,0,-1.63,12.28,12.26,0,0.01,3
26132,39876155,0,1.94,0,-1.63,12.28,12.26,0,0,3
26174,39886314,0,1.94,0,-1.63,12.29,12.26,0,0,3
26215,39896380,0,1.94,0,-1.63,12.29,12.26,0,0,3
26256,39906559,0,1.94,0,-1.63,12.29,12.26,0,0,3
26296,39916661,0,1.94,0,-1.63,12.29,12.26,0,0,3
26334,39928082,0,1.94,0,-1.63,12.29,12.26,0,0,3
26379,39938685,0,1.94,0,-1.63,12.29,12.26,0,0,3
26419,39949304,0,1.94,0,-1.63,12.29,12.26,0,0,3
26460,39959457,0,1.94,0,-1.63,12.29,12.26,0,0,3
26500,39969785,0,1.94,0,-1.63,12.29,12.27,0,0,3
26546,39979910,0,1.94,0,-1.63,12.29,12.27,0,0,3
26588,39990055,0,1.94,0,-1.63,12.29,12.27,0,0,3
26629,40000298,0,1.94,0,-1.62,12.29,12.27,0,0,3
26670,40013218,0,1.94,0,-1.62,12.3,12.27,0,0,3
26710,40023777,0,1.94,0,-1.63,12.3,12.27,0,0,3
26748,40034650,0,1.94,0,-1.63,12.3,12.27,0,0,3
26790,40044598,0,1.94,0,-1.63,12.3,12.27,0,0,3
26831,40054896,0,1.94,0,-1.63,12.3,12.28,0,0,3
26872,40064799,0,1.94,0,-1.63,12.3,12.28,0,0,3
26912,40075025,0,1.94,0,-1.62,12.3,12.28,0,0,3
26957,40085610,0,1.94,0,-1.62,12.3,12.28,0,0,3
26997,40095668,0,1.94,0,-1.62,12.3,12.28,0,0,3
27038,40105687,0,1.94,0,-1.62,12.3,12.28,0,0,3
27080,40115928,0,1.94,0,-1.62,12.31,12.28,0,0,3
27117,40129214,0,1.94,0,-1.62,12.31,12.28,0,0,3
27158,40139664,0,1.94,0,-1.62,12.31,12.29,0,0,3
27201,40149812,0,1.94,0,-1.62,12.31,12.29,0,0,3
27242,40160193,0,1.94,0,-1.62,12.31,12.29,0,0,3
27286,40170635,0,1.94,0,-1.62,12.31,12.29,0,0,3
27327,40180843,0,1.94,0,-1.62,12.32,12.29,0,0,3
27372,40191054,0,1.94,0,-1.62,12.32,12.3,0,0,3
27412,40200847,0,1.94,0,-1.62,12.32,12.3,0,0,3
27454,40211525,0,1.94,0,-1.62,12.32,12.3,0,0,3
27491,40222109,0,1.94,0,-1.62,12.33,12.3,0,0,3
27532,40232520,0,1.94,0,-1.62,12.33,12.3,0,0,3
27572,40243326,0,1.94,0,-1.62,12.33,12.3,0,0,3
27613,40253208,0,1.94,0,-1.62,12.32,12.3,0,0,3
27654,40263558,0,1.94,0,-1.62,12.33,12.3,0,0,3
27696,40273816,0,1.94,0,-1.62,12.33,12.3,0,0,3
27737,40283923,0,1.94,0,-1.62,12.33,12.3,0,0,3
27781,40294187,0,1.94,0,-1.62,12.33,12.31,0,0,3
27822,40304659,0,1.94,0,-1.63,12.33,12.31,0,0,3
27865,40314654,0,1.94,0,-1.63,12.34,12.31,0,0,3
27905,40324638,0,1.94,0,-1.63,12.34,12.31,0,0,3
27954,40338046,0,1.94,0,-1.63,12.34,12.32,0,0,3
27995,40348503,0,1.94,0,-1.63,12.34,12.32,0,0,3
28036,40358554,0,1.94,0,-1.63,12.34,12.32,0,0,3
28076,40368855,0,1.93,0,-1.63,12.34,12.32,0,0,3
28117,40379039,0,1.93,0,-1.63,12.34,12.32,0,0,3
28162,40389271,0,1.93,0,-1.63,12.35,12.32,0,0,3
28203,40399566,0,1.93,0,-1.63,12.35,12.32,0,0,3
28245,40409604,0,1.93,0,-1.63,12.35,12.32,0,0,3
28285,40420491,0,1.93,0,-1.63,12.35,12.32,0,0,3
28326,40433644,0,1.93,0,-1.63,12.35,12.33,0,0,3
28367,40443854,0,1.93,0,-1.63,12.35,12.33,0,0,3
28408,40454801,0,1.94,0,-1.63,12.35,12.33,0,0,3
28449,40465103,0,1.94,0,-1.63,12.36,12.33,0,0,3
28489,40475593,0,1.94,0,-1.63,12.36,12.34,0,0,3
28532,40486124,0,1.94,0,-1.63,12.36,12.34,0,0,3
28578,40496677,0,1.94,0,-1.63,12.36,12.34,0,0,3
28621,40506852,0,1.94,0,-1.63,12.37,12.34,0,0,3
28661,40516808,0,1.94,0,-1.63,12.37,12.35,0,0,3
28703,40527041,0,1.93,0,-1.63,12.37,12.35,0,0,3
28745,40538113,0,1.93,0,-1.63,12.37,12.35,0,0,3
28786,40548248,0,1.93,0,-1.63,12.37,12.35,0,0,3
28827,40558862,0,1.93,0,-1.63,12.37,12.35,0,0,3
28867,40569614,0,1.93,0,-1.63,12.37,12.35,0,0,3
28909,40580328,0,1.93,0,-1.63,12.37,12.35,0,0,3
28950,40590647,0,1.94,0,-1.63,12.37,12.35,0,0,3
28995,40600850,0,1.94,0,-1.63,12.38,12.35,0,0,3
29036,40610821,0,1.94,0,-1.63,12.38,12.35,0,0,3
29076,40621162,0,1.94,0,-1.63,12.38,12.35,0,0,3
29118,40631573,0,1.95,0,-1.63,12.38,12.36,0,0,3
29158,40641623,0,1.95,0,-1.63,12.38,12.36,0,0,3
29199,40654270,0,1.95,0,-1.63,12.38,12.36,0,0,3
29240,40665160,0,1.94,0,-1.63,12.38,12.36,0,0,3
29280,40675171,0,1.94,0,-1.63,12.39,12.36,0,0,3
29321,40685203,0,1.94,0,-1.63,12.38,12.36,0,0,3
29361,40695567,0,1.94,0,-1.63,12.38,12.36,0,0,3
29407,40705792,0,1.94,0,-1.63,12.38,12.36,0,0,3
29448,40715765,0,1.93,0,-1.63,12.38,12.36,0,0,3
29491,40726052,0,1.93,0,-1.63,12.38,12.36,0,0,3
29532,40736039,0,1.93,0,-1.63,12.38,12.36,0,0,3
29569,40746573,0,1.93,0,-1.63,12.38,12.36,0,0,3
29612,40759631,0,1.94,0,-1.63,12.38,12.36,0,0,3
29654,40770259,0,1.94,0,-1.63,12.38,12.36,0,0,3
29695,40781141,0,1.94,0,-1.63,12.38,12.36,0,0,3
29736,40791448,0,1.94,0,-1.63,12.39,12.36,0,0,3
29776,40801653,0,1.95,0,-1.63,12.39,12.37,0,0,3
29821,40811649,0,1.94,0,-1.63,12.39,12.37,0,0.01,3
29863,40821692,0,1.94,0,-1.63,12.39,12.37,0,0.01,3
29904,40831572,0,1.94,0,-1.63,12.39,12.37,0,0.01,3
29945,40844208,0,1.94,0,-1.63,12.39,12.37,0,0.01,3
29985,40855083,0,1.94,0,-1.63,12.4,12.37,0,0.01,3
30026,40865588,0,1.93,0,-1.63,12.39,12.37,0,0.01,3
30066,40875623,0,1.93,0,-1.63,12.39,12.37,0,0.01,3
30107,40886042,0,1.94,0,-1.63,12.39,12.37,0,0.01,3
30149,40896095,0,1.94,0,-1.63,12.39,12.37,0,0.01,3
30194,40906546,0,1.94,0,-1.63,12.39,12.36,0,0.01,3
30236,40916683,0,1.94,0,-1.63,12.39,12.36,0,0.01,3
30276,40926835,0,1.94,0,-1.63,12.39,12.36,0,0.01,3
30322,40939572,0,1.94,0,-1.63,12.39,12.36,0,0.01,3
30363,40950494,0,1.95,0,-1.63,12.39,12.37,0,0.01,3
30401,40961096,0,1.95,0,-1.63,12.39,12.37,0,0.01,3
30442,40971078,0,1.95,0,-1.63,12.39,12.37,0,0.01,3
30484,40980862,0,1.95,0,-1.63,12.39,12.37,0,0.01,3
30525,40991241,0,1.95,0,-1.63,12.39,12.37,0,0.01,3
30567,41001631,0,1.94,0,-1.63,12.39,12.37,0,0.01,3
30611,41011783,0,1.94,0,-1.63,12.39,12.37,0,0.01,3
30653,41022055,0,1.94,0,-1.63,12.39,12.37,0,0.01,3
30693,41031916,0,1.94,0,-1.63,12.4,12.37,0,0.01,3
30734,41042572,0,1.94,0,-1.63,12.4,12.37,0,0.01,3
30772,41055825,0,1.94,0,-1.63,12.4,12.37,0,0.01,3
30812,41066584,0,1.94,0,-1.63,12.4,12.37,0,0.01,3
30854,41077148,0,1.94,0,-1.63,12.4,12.37,0,0.01,3
30894,41087657,0,1.95,0,-1.63,12.4,12.37,0,0.01,3
30935,41097626,0,1.95,0,-1.63,12.4,12.37,0,0.01,3
30975,41107895,0,1.95,0,-1.63,12.4,12.38,0,0.01,3
31021,41117886,0,1.95,0,-1.63,12.4,12.38,0,0.01,3
31063,41128111,0,1.95,0,-1.63,12.4,12.38,0,0.01,3
31105,41138141,0,1.95,0,-1.63,12.4,12.38,0,0.01,3
31146,41148922,0,1.95,0,-1.63,12.41,12.38,0,0.01,3
31186,41159857,0,1.95,0,-1.63,12.41,12.38,0,0.01,3
31228,41170559,0,1.94,0,-1.63,12.41,12.38,0,0.01,3
31268,41180820,0,1.94,0,-1.63,12.4,12.38,0,0.01,3
31310,41191041,0,1.94,0,-1.63,12.4,12.38,0,0.01,3
31350,41201195,0,1.94,0,-1.63,12.4,12.38,0,0.01,3
31391,41211763,0,1.94,0,-1.63,12.4,12.38,0,0.01,3
31436,41222165,0,1.94,0,-1.63,12.4,12.38,0,0.01,3
31476,41232323,0,1.94,0,-1.63,12.4,12.38,0,0.01,3
31519,41242350,0,1.94,0,-1.63,12.4,12.38,0,0.01,3
31559,41252105,0,1.95,0,-1.63,12.4,12.38,0,0.01,3
31597,41262632,0,1.95,0,-1.63,12.4,12.38,0,0.01,3
31638,41273481,0,1.95,0,-1.63,12.4,12.37,0,0.01,3
31678,41284098,0,1.95,0,-1.63,12.4,12.37,0,0.01,3
31719,41294595,0,1.95,0,-1.63,12.39,12.37,0,0.01,3
31759,41304696,0,1.95,0,-1.63,12.39,12.37,0,0.01,3
31801,41314561,0,1.95,0,-1.63,12.39,12.37,0,0.01,3
31845,41324603,0,1.95,0,-1.63,12.39,12.36,0,0.01,3
31888,41334910,0,1.94,0,-1.63,12.39,12.36,0,0.01,3
31928,41344909,0,1.94,0,-1.63,12.38,12.36,0,0.01,3
31970,41358037,0,1.94,0,-1.63,12.38,12.36,0,0.01,3
32011,41368794,0,1.94,0,-1.63,12.38,12.36,0,0.01,3
32050,41379696,0,1.94,0,-1.63,12.38,12.36,0,0.01,3
32091,41389884,0,1.94,0,-1.63,12.38,12.35,0,0.01,3
32132,41400038,0,1.94,0,-1.63,12.38,12.35,0,0.01,3
32172,41409699,0,1.94,0,-1.63,12.37,12.35,0,0.01,3
32213,41420325,0,1.94,0,-1.63,12.37,12.35,0,0.01,3
32257,41430798,0,1.94,0,-1.63,12.38,12.35,0,0.01,3
32299,41441048,0,1.95,0,-1.63,12.38,12.35,0,0.01,3
32339,41450846,0,1.95,0,-1.63,12.38,12.35,0,0.01,3
32381,41461131,0,1.94,0,-1.63,12.38,12.35,0,0.01,3
32422,41474007,0,1.94,0,-1.63,12.38,12.36,0,0.01,3
32464,41485078,0,1.94,0,-1.63,12.38,12.35,0,0.01,3
32505,41495264,0,1.94,0,-1.63,12.38,12.35,0,0.01,3
32546,41505340,0,1.94,0,-1.63,12.38,12.35,0,0.01,3
32587,41515617,0,1.94,0,-1.63,12.38,12.35,0,0.01,3
32634,41526266,0,1.94,0,-1.63,12.38,12.35,0,0.01,3
32676,41536824,0,1.94,0,-1.63,12.38,12.35,0,0.01,3
32718,41547084,0,1.94,0,-1.63,12.38,12.36,0,0.01,3
32759,41557504,0,1.94,0,-1.63,12.38,12.36,0,0.01,3
32800,41567169,0,1.94,0,-1.63,12.38,12.36,0,0.01,3
32840,41577287,0,1.94,0,-1.63,12.38,12.36,0,0.01,3
32881,41587540,0,1.94,0,-1.63,12.38,12.36,0,0.01,3
32921,41597214,0,1.94,0,-1.63,12.38,12.36,0,0.01,3
32962,41607834,0,1.94,0,-1.63,12.38,12.36,0,0.01,3
33003,41618229,0,1.94,0,-1.63,12.38,12.36,0,0.01,3
33048,41628726,0,1.94,0,-1.63,12.38,12.35,0,0.01,3
33089,41639005,0,1.94,0,-1.63,12.38,12.35,0,0.01,3
33129,41649058,0,1.94,0,-1.63,12.37,12.35,0,0.01,3
33170,41659632,0,1.94,0,-1.63,12.37,12.35,0,0.01,3
33216,41675234,0,1.94,0,-1.63,12.37,12.35,0,0.01,3
33256,41685836,0,1.94,0,-1.63,12.37,12.35,0,0.01,3
33297,41696324,0,1.94,0,-1.63,12.37,12.35,0,0.01,3
33337,41706503,0,1.94,0,-1.63,12.37,12.34,0,0.01,3
33379,41717037,0,1.94,0,-1.63,12.37,12.34,0,0.01,3
33422,41727613,0,1.94,0,-1.63,12.37,12.34,0,0.01,3
33466,41737891,0,1.94,0,-1.63,12.37,12.34,0,0.01,3
33507,41747805,0,1.94,0,-1.63,12.36,12.34,0,0.01,3
33547,41757605,0,1.94,0,-1.63,12.37,12.34,0,0.01,3
33588,41767607,0,1.94,0,-1.63,12.36,12.34,0,0.01,3
33629,41778290,0,1.94,0,-1.63,12.37,12.34,0,0.01,3
33671,41788819,0,1.94,0,-1.63,12.36,12.34,0,0.01,3
33712,41799272,0,1.94,0,-1.63,12.36,12.34,0,0.01,3
33752,41809186,0,1.94,0,-1.63,12.36,12.34,0,0.01,3
33793,41819318,0,1.94,0,-1.63,12.36,12.34,0,0.01,3
33833,41829419,0,1.94,0,-1.63,12.36,12.34,0,0.01,3
33878,41839998,0,1.94,0,-1.63,12.36,12.33,0,0.01,3
33919,41850324,0,1.94,0,-1.63,12.36,12.33,0,0.01,3
33960,41860345,0,1.93,0,-1.63,12.36,12.33,0,0.01,3
34002,41870380,0,1.93,0,-1.63,12.36,12.33,0,0.01,3
34039,41883643,0,1.93,0,-1.63,12.36,12.33,0,0.01,3
34081,41893892,0,1.93,0,-1.63,12.36,12.33,0,0.01,3
34121,41904071,0,1.94,0,-1.63,12.35,12.33,0,0.01,3
34163,41914683,0,1.94,0,-1.63,12.35,12.33,0,0.01,3
34206,41925587,0,1.94,0,-1.63,12.35,12.33,0,0.01,3
34247,41935654,0,1.94,0,-1.63,12.36,12.33,0,0.01,3
34292,41945909,0,1.94,0,-1.63,12.36,12.33,0,0.01,3
34332,41956119,0,1.94,0,-1.63,12.36,12.33,0,0.01,3
34373,41966780,0,1.94,0,-1.63,12.36,12.33,0,0.01,3
34415,41979796,0,1.94,0,-1.63,12.36,12.33,0,0.01,3
34457,41990300,0,1.94,0,-1.63,12.36,12.34,0,0.01,3
34498,42000345,0,1.94,0,-1.63,12.36,12.34,0,0.01,3
34535,42010841,0,1.94,0,-1.63,12.36,12.34,0,0.01,3
34575,42020652,0,1.94,0,-1.64,12.36,12.34,0,0.01,3
34616,42030879,0,1.94,0,-1.64,12.37,12.34,0,0.01,3
34661,42041325,0,1.94,0,-1.64,12.37,12.34,0,0.01,3
34702,42051649,0,1.94,0,-1.64,12.37,12.35,0,0.01,3
34743,42061659,0,1.94,0,-1.64,12.37,12.35,0,0.01,3
34784,42072032,0,1.94,0,-1.64,12.38,12.35,0,0.01,3
34824,42081659,0,1.94,0,-1.64,12.38,12.36,0,0.01,3
34867,42092298,0,1.94,0,-1.64,12.38,12.36,0,0.01,3
34907,42102631,0,1.94,0,-1.64,12.38,12.36,0,0.01,3
34948,42113323,0,1.95,0,-1.64,12.39,12.36,0,0.01,3
34989,42122880,0,1.95,0,-1.64,12.39,12.36,0,0.01,3
35031,42133517,0,1.94,0,-1.64,12.39,12.37,0,0.01,3
35076,42144031,0,1.94,0,-1.63,12.39,12.37,0,0.01,3
35117,42154094,0,1.94,0,-1.64,12.4,12.37,0,0.01,3
35158,42164139,0,1.94,0,-1.64,12.4,12.37,0,0.01,3
35200,42176793,0,1.94,0,-1.64,12.4,12.38,0,0.01,3
35240,42187140,0,1.94,0,-1.64,12.4,12.38,0,0.01,3
35281,42197634,0,1.94,0,-1.64,12.4,12.38,0,0.01,3
35318,42208555,0,1.94,0,-1.64,12.4,12.38,0,0.01,3
35359,42218701,0,1.94,0,-1.64,12.4,12.38,0,0.01,3
35400,42228611,0,1.94,0,-1.64,12.4,12.38,0,0.01,3
35442,42238650,0,1.94,0,-1.64,12.4,12.38,0,0.01,3
35487,42248376,0,1.94,0,-1.64,12.4,12.38,0,0.01,3
35527,42259148,0,1.94,0,-1.64,12.4,12.38,0,0.01,3
35568,42269569,0,1.94,0,-1.64,12.4,12.38,0,0.01,3
35609,42280017,0,1.94,0,-1.64,12.4,12.38,0,0.01,3
35650,42289913,0,1.94,0,-1.64,12.4,12.38,0,0.01,3
35690,42299920,0,1.94,0,-1.64,12.4,12.38,0,0.01,3
35731,42310256,0,1.94,0,-1.64,12.4,12.37,0,0.01,3
35772,42320504,0,1.94,0,-1.64,12.4,12.37,0,0.01,3
35813,42330504,0,1.94,0,-1.64,12.39,12.37,0,0.01,3
35856,42340583,0,1.94,0,-1.64,12.39,12.37,0,0.01,3
35902,42350582,0,1.94,0,-1.64,12.39,12.37,0,0.01,3
35942,42360550,0,1.94,0,-1.64,12.39,12.36,0,0.01,3
35983,42370916,0,1.94,0,-1.64,12.39,12.36,0,0.01,3
36026,42383765,0,1.94,0,-1.64,12.39,12.36,0,0.01,3
36070,42399151,0,1.94,0,-1.64,12.39,12.36,0,0.01,3
36110,42409642,0,1.94,0,-1.64,12.39,12.36,0,0.01,3
36152,42419823,0,1.94,0,-1.64,12.39,12.36,0,0.01,3
36195,42430350,0,1.94,0,-1.64,12.39,12.36,0,0.01,3
36235,42440894,0,1.94,0,-1.64,12.39,12.36,0,0.01,3
36283,42453323,0,1.94,0,-1.64,12.39,12.37,0,0.01,3
36324,42463821,0,1.94,0,-1.64,12.39,12.37,0,0.01,3
36367,42474338,0,1.94,0,-1.64,12.39,12.37,0,0.01,3
36408,42484302,0,1.94,0,-1.64,12.39,12.37,0,0.01,3
36448,42494185,0,1.94,0,-1.64,12.39,12.37,0,0.01,3
36486,42504670,0,1.94,0,-1.64,12.4,12.37,0,0.01,3
36526,42515061,0,1.94,0,-1.64,12.39,12.37,0,0.01,3
36574,42527518,0,1.94,0,-1.64,12.39,12.37,0,0.01,3
36615,42537562,0,1.94,0,-1.64,12.39,12.37,0,0.01,3
36655,42548037,0,1.94,0,-1.64,12.39,12.37,0,0.01,3
36702,42558367,0,1.94,0,-1.64,12.39,12.37,0,0.01,3
36742,42568637,0,1.94,0,-1.64,12.4,12.37,0,0.01,3
36783,42578548,0,1.94,0,-1.64,12.4,12.37,0,0.01,3
36824,42588620,0,1.94,0,-1.64,12.4,12.37,0,0.01,3
36859,42598796,0,1.94,0,-1.64,12.4,12.37,0,0.01,3
36899,42608841,0,1.94,0,-1.63,12.4,12.37,0,0.01,3
36941,42619253,0,1.94,0,-1.63,12.39,12.37,0,0.01,3
36981,42629694,0,1.94,0,-1.63,12.39,12.37,0,0.01,3
37023,42640281,0,1.94,0,-1.63,12.39,12.37,0,0.01,3
37063,42650541,0,1.94,0,-1.63,12.39,12.36,0,0.01,3
37107,42660905,0,1.94,0,-1.63,12.39,12.36,0,0.01,3
37149,42671189,0,1.94,0,-1.64,12.39,12.36,0,0.01,3
37189,42681531,0,1.94,0,-1.63,12.38,12.36,0,0.01,3
37230,42691533,0,1.94,0,-1.63,12.38,12.36,0,0.01,3
37270,42706918,0,1.94,0,-1.63,12.38,12.36,0,0.01,3
37311,42717805,0,1.94,0,-1.63,12.38,12.36,0,0.01,3
37352,42728200,0,1.94,0,-1.63,12.38,12.35,0,0.01,3
37395,42738776,0,1.94,0,-1.63,12.38,12.35,0,0.01,3
37436,42749624,0,1.94,0,-1.63,12.37,12.35,0,0.01,3
37481,42760303,0,1.94,0,-1.63,12.37,12.35,0,0.01,3
37523,42770600,0,1.94,0,-1.63,12.37,12.35,0,0.01,3
37563,42780798,0,1.94,0,-1.63,12.37,12.35,0,0.01,3
37604,42791122,0,1.94,0,-1.64,12.37,12.34,0,0.01,3
37641,42801831,0,1.94,0,-1.64,12.37,12.34,0,0.01,3
37678,42812316,0,1.94,0,-1.64,12.36,12.34,0,0.01,3
37719,42822168,0,1.94,0,-1.64,12.36,12.33,0,0.01,3
37759,42832595,0,1.94,0,-1.64,12.35,12.33,0,0.01,3
37800,42842580,0,1.94,0,-1.64,12.35,12.33,0,0.01,3
37840,42852489,0,1.94,0,-1.64,12.35,12.32,0,0.01,3
37888,42863201,0,1.94,0,-1.64,12.35,12.32,0,0.01,3
37928,42873652,0,1.94,0,-1.64,12.35,12.32,0,0.01,3
37969,42884139,0,1.94,0,-1.64,12.34,12.32,0,0.01,3
38011,42894609,0,1.94,0,-1.64,12.34,12.32,0,0.01,3
38051,42905065,0,1.94,0,-1.64,12.34,12.32,0,0.01,3
38093,42918579,0,1.94,0,-1.64,12.34,12.32,0,0.01,3
38133,42928609,0,1.94,0,-1.64,12.34,12.32,0,0.01,3
38176,42938916,0,1.94,0,-1.63,12.34,12.31,0,0.01,3
38216,42948924,0,1.94,0,-1.63,12.34,12.31,0,0.01,3
38257,42959386,0,1.94,0,-1.63,12.34,12.31,0,0.01,3
38305,42969879,0,1.94,0,-1.63,12.33,12.31,0,0.01,3
38345,42980056,0,1.94,0,-1.63,12.33,12.31,0,0.01,3
38386,42990635,0,1.94,0,-1.63,12.33,12.31,0,0.01,3
38426,43000833,0,1.94,0,-1.63,12.33,12.31,0,0.01,3
38467,43011483,0,1.94,0,-1.64,12.33,12.31,0,0.01,3
38507,43021184,0,1.94,0,-1.64,12.33,12.31,0,0.01,3
38548,43031679,0,1.94,0,-1.64,12.33,12.31,0,0.01,3
38589,43041773,0,1.94,0,-1.64,12.33,12.31,0,0.01,3
38629,43051900,0,1.94,0,-1.64,12.33,12.31,0,0.01,3
38670,43061797,0,1.94,0,-1.64,12.33,12.3,0,0.01,3
38714,43071685,0,1.94,0,-1.64,12.33,12.3,0,0,3
38755,43082134,0,1.94,0,-1.64,12.33,12.3,0,0,3
38795,43092560,0,1.94,0,-1.63,12.32,12.3,0,0,3
38836,43102593,0,1.94,0,-1.63,12.32,12.3,0,0,3
38877,43115324,0,1.94,0,-1.63,12.32,12.3,0,0,3
38919,43128169,0,1.94,0,-1.63,12.32,12.3,0,0,3
38961,43138623,0,1.93,0,-1.63,12.32,12.3,0,0,3
39002,43148685,0,1.94,0,-1.63,12.32,12.29,0,0,3
39042,43159164,0,1.94,0,-1.64,12.32,12.29,0,0,3
39083,43169662,0,1.94,0,-1.64,12.32,12.29,0,0,3
39128,43180043,0,1.94,0,-1.64,12.31,12.29,0,0.01,3
39171,43190295,0,1.94,0,-1.64,12.31,12.29,0,0.01,3
39211,43200122,0,1.95,0,-1.64,12.31,12.29,0,0.01,3
39252,43212607,0,1.95,0,-1.64,12.31,12.29,0,0.01,3
39293,43223202,0,1.95,0,-1.64,12.31,12.29,0,0.01,3
39334,43233554,0,1.95,0,-1.64,12.31,12.29,0,0.01,3
39372,43244341,0,1.95,0,-1.63,12.31,12.29,0,0.01,3
39413,43254294,0,1.94,0,-1.63,12.31,12.29,0,0.01,3
39453,43264419,0,1.94,0,-1.63,12.31,12.29,0,0.01,3
39498,43274921,0,1.94,0,-1.63,12.31,12.29,0,0.01,3
39538,43285118,0,1.94,0,-1.64,12.31,12.29,0,0,3
39579,43294875,0,1.93,0,-1.64,12.31,12.29,0,0,3
39624,43307628,0,1.93,0,-1.64,12.31,12.29,0,0,3
39668,43320302,0,1.93,0,-1.64,12.31,12.29,0,0,3
39711,43330661,0,1.93,0,-1.64,12.31,12.29,0,0,3
39752,43341257,0,1.94,0,-1.64,12.31,12.29,0,0,3
39793,43351372,0,1.94,0,-1.64,12.31,12.29,0,0,3
39834,43361379,0,1.94,0,-1.64,12.31,12.29,0,0,3
39874,43371401,0,1.94,0,-1.64,12.32,12.29,0,0,3
39919,43381646,0,1.94,0,-1.64,12.32,12.29,0,0,3
39959,43391907,0,1.94,0,-1.64,12.32,12.29,0,0,3
40000,43401905,0,1.94,0,-1.64,12.32,12.29,0,0,3
40040,43411727,0,1.94,0,-1.64,12.32,12.29,0,0,3
40080,43422323,0,1.94,0,-1.64,12.32,12.3,0,0,3
40118,43432190,0,1.94,0,-1.64,12.32,12.29,0,0,3
40158,43442558,0,1.94,0,-1.64,12.32,12.3,0,0,3
40199,43452666,0,1.93,0,-1.64,12.32,12.3,0,0,3
40241,43463075,0,1.93,0,-1.64,12.32,12.29,0,0,3
40284,43473588,0,1.93,0,-1.64,12.32,12.29,0,0,3
40329,43483605,0,1.93,0,-1.63,12.32,12.3,0,0,3
40369,43493783,0,1.93,0,-1.63,12.32,12.3,0,0,3
40410,43504040,0,1.94,0,-1.63,12.32,12.3,0,0,3
40451,43516888,0,1.94,0,-1.63,12.32,12.3,0,0,3
40492,43527616,0,1.94,0,-1.64,12.32,12.3,0,0,3
40537,43539926,0,1.94,0,-1.63,12.32,12.3,0,0,3
40577,43550608,0,1.94,0,-1.64,12.32,12.3,0,0,3
40618,43560779,0,1.94,0,-1.64,12.32,12.3,0,0,3
40658,43571103,0,1.94,0,-1.64,12.32,12.3,0,0,3
40708,43583648,0,1.94,0,-1.64,12.32,12.3,0,0,3
40749,43593854,0,1.94,0,-1.64,12.32,12.3,0,0,3
40790,43604346,0,1.94,0,-1.64,12.32,12.3,0,0,3
40831,43614817,0,1.94,0,-1.64,12.32,12.3,0,0,3
40872,43624895,0,1.94,0,-1.64,12.32,12.3,0,0,3
40910,43635219,0,1.94,0,-1.64,12.32,12.3,0,0,3
40951,43645405,0,1.93,0,-1.64,12.32,12.3,0,0,3
40992,43655678,0,1.93,0,-1.64,12.32,12.3,0,0,3
41033,43666257,0,1.93,0,-1.64,12.32,12.29,0,0,3
41074,43676184,0,1.93,0,-1.64,12.32,12.29,0,0,3
41119,43686134,0,1.94,0,-1.64,12.32,12.3,0,0,3
41159,43696683,0,1.94,0,-1.64,12.32,12.3,0,0,3
41200,43706666,0,1.94,0,-1.64,12.32,12.3,0,0,3
41241,43716824,0,1.94,0,-1.64,12.32,12.3,0,0,3
41284,43729189,0,1.94,0,-1.64,12.32,12.3,0,0,3
41326,43739703,0,1.94,0,-1.64,12.32,12.3,0,0,3
41363,43749877,0,1.94,0,-1.64,12.32,12.3,0,0,3
41404,43760268,0,1.94,0,-1.64,12.33,12.3,0,0,3
41445,43770369,0,1.94,0,-1.64,12.33,12.3,0,0,3
41485,43780395,0,1.94,0,-1.64,12.32,12.3,0,0,3
41531,43790651,0,1.94,0,-1.64,12.32,12.3,0,0,3
41571,43800821,0,1.94,0,-1.64,12.32,12.3,0,0,3
41613,43811075,0,1.93,0,-1.64,12.32,12.3,0,0,3
41653,43821531,0,1.94,0,-1.64,12.33,12.3,0,0,3
41692,43831345,0,1.94,0,-1.64,12.33,12.3,0,0,3
41732,43841572,0,1.94,0,-1.64,12.33,12.3,0,0,3
41770,43852067,0,1.94,0,-1.64,12.33,12.3,0,0,3
41812,43862197,0,1.94,0,-1.64,12.33,12.31,0,0,3
41852,43872487,0,1.94,0,-1.64,12.33,12.31,0,0,3
41893,43882873,0,1.94,0,-1.64,12.33,12.31,0,0,3
41937,43892824,0,1.94,0,-1.64,12.33,12.31,0,0.01,3
41978,43902792,0,1.94,0,-1.64,12.34,12.31,0,0.01,3
42020,43913112,0,1.94,0,-1.64,12.34,12.31,0,0.01,3
42060,43922885,0,1.94,0,-1.64,12.34,12.31,0,0.01,3
42102,43935616,0,1.94,0,-1.64,12.34,12.31,0,0.01,3
42142,43945834,0,1.94,0,-1.64,12.34,12.31,0,0.01,3
42185,43956181,0,1.94,0,-1.64,12.33,12.31,0,0.01,3
42225,43966698,0,1.94,0,-1.63,12.33,12.31,0,0.01,3
42266,43977130,0,1.94,0,-1.63,12.33,12.31,0,0.01,3
42307,43987672,0,1.94,0,-1.63,12.33,12.31,0,0.01,3
42352,43997892,0,1.94,0,-1.64,12.33,12.3,0,0,3
42393,44008099,0,1.94,0,-1.64,12.33,12.3,0,0,3
42433,44018429,0,1.94,0,-1.64,12.33,12.3,0,0,3
42472,44028589,0,1.94,0,-1.64,12.33,12.31,0,0,3
42516,44041165,0,1.94,0,-1.64,12.33,12.31,0,0,3
42556,44051572,0,1.95,0,-1.64,12.33,12.3,0,0,3
42598,44061599,0,1.95,0,-1.64,12.33,12.3,0,0,3
42638,44071583,0,1.95,0,-1.64,12.32,12.3,0,0,3
42679,44081616,0,1.94,0,-1.64,12.32,12.3,0,0,3
42726,44093902,0,1.94,0,-1.63,12.32,12.29,0,0,3
42768,44104610,0,1.94,0,-1.64,12.32,12.29,0,0,3
42809,44114602,0,1.94,0,-1.64,12.31,12.29,0,0,3
42849,44125153,0,1.94,0,-1.64,12.31,12.29,0,0,3
42893,44138313,0,1.94,0,-1.64,12.31,12.29,0,0,3
42933,44149291,0,1.93,0,-1.64,12.31,12.29,0,0,3
42974,44159590,0,1.93,0,-1.64,12.31,12.28,0,0,3
43014,44169798,0,1.93,0,-1.64,12.31,12.28,0,0,3
43056,44179675,0,1.93,0,-1.64,12.3,12.28,0,0,3
43097,44189825,0,1.94,0,-1.63,12.3,12.28,0,0,3
43141,44200076,0,1.94,0,-1.63,12.3,12.28,0,0,3
43182,44210770,0,1.94,0,-1.63,12.3,12.28,0,0,3
43224,44220891,0,1.94,0,-1.63,12.3,12.28,0,0,3
43266,44230858,0,1.94,0,-1.63,12.3,12.28,0,0,3
43304,44241052,0,1.94,0,-1.63,12.3,12.27,0,0,3
43344,44251189,0,1.94,0,-1.63,12.29,12.27,0,0,3
43385,44261510,0,1.94,0,-1.63,12.29,12.27,0,0,3
43426,44271622,0,1.94,0,-1.63,12.29,12.26,0,0,3
43467,44281783,0,1.94,0,-1.63,12.29,12.26,0,0,3
43508,44291608,0,1.93,0,-1.63,12.28,12.26,0,0,3
43552,44301726,0,1.93,0,-1.63,12.28,12.26,0,0,3
43593,44312093,0,1.93,0,-1.63,12.28,12.26,0,0,3
43634,44322475,0,1.93,0,-1.63,12.28,12.26,0,0,3
43675,44331997,0,1.93,0,-1.63,12.28,12.26,0,0,3
43718,44344694,0,1.93,0,-1.63,12.28,12.26,0,0,3
43759,44355529,0,1.94,0,-1.64,12.28,12.26,0,0,3
43800,44365783,0,1.94,0,-1.64,12.28,12.26,0,0,3
43841,44375617,0,1.94,0,-1.64,12.28,12.25,0,0,3
43882,44386040,0,1.94,0,-1.64,12.28,12.25,0,0,3
43923,44395705,0,1.94,0,-1.64,12.27,12.25,0,0,3
43968,44405892,0,1.94,0,-1.63,12.27,12.25,0,0,3
44008,44415841,0,1.94,0,-1.63,12.27,12.25,0,0,3
44049,44426122,0,1.94,0,-1.63,12.27,12.24,0,0,3
44093,44439166,0,1.94,0,-1.63,12.27,12.24,0,0,3
44137,44451998,0,1.94,0,-1.63,12.27,12.24,0,0,3
44179,44462184,0,1.94,0,-1.63,12.26,12.24,0,0,3
44221,44472594,0,1.94,0,-1.63,12.27,12.24,0,0,3
44261,44482292,0,1.94,0,-1.63,12.27,12.24,0,0,3
44302,44492575,0,1.94,0,-1.64,12.27,12.24,0,0,3
44346,44502623,0,1.94,0,-1.64,12.27,12.24,0,0,3
44389,44512885,0,1.94,0,-1.63,12.27,12.24,0,0,3
44429,44522806,0,1.94,0,-1.63,12.27,12.24,0,0,3
44472,44537841,0,1.94,0,-1.63,12.27,12.24,0,0,3
44513,44548204,0,1.94,0,-1.63,12.27,12.24,0,0,3
44553,44558772,0,1.95,0,-1.63,12.26,12.24,0,0,3
44595,44569011,0,1.94,0,-1.63,12.26,12.24,0,0,3
44636,44578898,0,1.94,0,-1.63,12.26,12.24,0,0,3
44677,44589115,0,1.94,0,-1.63,12.26,12.24,0,0,3
44718,44599726,0,1.94,0,-1.64,12.26,12.23,0,0,3
44765,44610184,0,1.94,0,-1.64,12.26,12.23,0,0,3
44809,44622615,0,1.94,0,-1.64,12.26,12.24,0,0,3
44850,44633029,0,1.93,0,-1.64,12.26,12.24,0,0,3
44891,44642771,0,1.93,0,-1.63,12.26,12.24,0,0,3
44929,44653415,0,1.93,0,-1.63,12.26,12.24,0,0,3
44969,44663687,0,1.93,0,-1.63,12.26,12.24,0,0,3
45010,44673666,0,1.94,0,-1.63,12.26,12.24,0,0,3
45052,44683607,0,1.94,0,-1.63,12.26,12.24,0,0,3
45093,44693851,0,1.94,0,-1.63,12.26,12.23,0,0,3
45138,44704615,0,1.94,0,-1.63,12.26,12.23,0,0,3
45178,44714475,0,1.94,0,-1.63,12.26,12.23,0,0,3
45219,44724697,0,1.94,0,-1.63,12.26,12.23,0,0,3
45261,44734703,0,1.94,0,-1.63,12.25,12.23,0,0,3
45302,44745077,0,1.94,0,-1.63,12.26,12.23,0,0,3
45342,44755361,0,1.94,0,-1.63,12.25,12.23,0,0,3
45380,44765858,0,1.94,0,-1.63,12.25,12.23,0,0,3
45420,44776140,0,1.94,0,-1.63,12.25,12.23,0,0,3
45462,44786200,0,1.94,0,-1.63,12.25,12.23,0,0,3
45503,44796556,0,1.94,0,-1.63,12.25,12.23,0,0,3
45547,44806814,0,1.93,0,-1.63,12.25,12.23,0,0,3
45588,44816463,0,1.93,0,-1.63,12.25,12.23,0,0,3
45629,44826872,0,1.94,0,-1.63,12.25,12.22,0,0,3
45670,44837133,0,1.94,0,-1.63,12.25,12.23,0,0,3
45708,44847120,0,1.94,0,-1.63,12.25,12.23,0,0,3
45748,44857819,0,1.94,0,-1.63,12.25,12.22,0,0,3
45789,44868533,0,1.94,0,-1.63,12.25,12.22,0,0,3
45830,44879060,0,1.94,0,-1.63,12.24,12.22,0,0,3
45871,44889088,0,1.94,0,-1.63,12.24,12.22,0,0,3
45912,44899155,0,1.94,0,-1.63,12.24,12.22,0,0,3
45957,44910127,0,1.94,0,-1.63,12.24,12.22,0,0,3
46000,44920873,0,1.94,0,-1.63,12.24,12.22,0,0,3
46040,44931276,0,1.94,0,-1.63,12.24,12.22,0,0,3
46085,44941441,0,1.94,0,-1.63,12.24,12.21,0,0,3
46126,44951637,0,1.94,0,-1.63,12.24,12.21,0,0,3
46167,44962100,0,1.94,0,-1.63,12.24,12.21,0,0,3
46211,44974468,0,1.94,0,-1.63,12.24,12.21,0,0,3
46251,44985455,0,1.94,0,-1.63,12.23,12.21,0,0,3
46293,44995354,0,1.94,0,-1.63,12.23,12.21,0,0,3
46334,45006116,0,1.94,0,-1.63,12.23,12.21,0,0,3
46379,45016631,0,1.94,0,-1.63,12.23,12.21,0,0.01,3
46420,45026904,0,1.94,0,-1.63,12.23,12.21,0,0.01,3
46460,45036331,0,1.94,0,-1.63,12.23,12.21,0,0.01,3
46501,45046431,0,1.94,0,-1.63,12.23,12.21,0,0.01,3
46538,45056839,0,1.94,0,-1.63,12.23,12.21,0,0.01,3
46577,45067160,0,1.94,0,-1.63,12.23,12.21,0,0.01,3
46617,45077501,0,1.94,0,-1.63,12.23,12.21,0,0.01,3
46658,45087172,0,1.94,0,-1.63,12.23,12.21,0,0.01,3
46701,45097330,0,1.94,0,-1.63,12.23,12.21,0,0.01,3
46741,45107155,0,1.94,0,-1.63,12.23,12.21,0,0.01,3
46786,45117813,0,1.94,0,-1.63,12.24,12.21,0,0,3
46828,45128195,0,1.94,0,-1.63,12.24,12.21,0,0,3
46869,45138660,0,1.94,0,-1.63,12.24,12.22,0,0,3
46910,45148727,0,1.94,0,-1.63,12.24,12.22,0,0,3
46951,45161603,0,1.94,0,-1.63,12.24,12.22,0,0,3
46993,45172150,0,1.94,0,-1.63,12.24,12.22,0,0,3
47035,45182369,0,1.94,0,-1.63,12.25,12.22,0,0,3
47076,45192191,0,1.94,0,-1.63,12.25,12.22,0,0,3
47116,45202126,0,1.94,0,-1.63,12.25,12.22,0,0,3
47159,45212366,0,1.94,0,-1.63,12.25,12.22,0,0,3
47204,45222406,0,1.94,0,-1.62,12.25,12.22,0,0,3
47244,45232577,0,1.94,0,-1.63,12.25,12.22,0,0,3
47285,45242921,0,1.94,0,-1.63,12.25,12.22,0,0,3
47325,45255545,0,1.94,0,-1.63,12.25,12.22,0,0,3
47367,45266267,0,1.94,0,-1.63,12.25,12.23,0,0,3
47405,45277079,0,1.94,0,-1.63,12.25,12.23,0,0,3
47445,45287365,0,1.94,0,-1.63,12.25,12.23,0,0,3
47486,45297219,0,1.94,0,-1.63,12.25,12.23,0,0,3
47526,45306874,0,1.94,0,-1.63,12.25,12.23,0,0,3
47569,45317576,0,1.94,0,-1.63,12.25,12.23,0,0,3
47614,45327539,0,1.94,0,-1.62,12.25,12.23,0,0.01,3
47658,45338044,0,1.94,0,-1.63,12.25,12.23,0,0.01,3
47699,45348553,0,1.94,0,-1.63,12.25,12.23,0,0.01,3
47739,45358515,0,1.94,0,-1.63,12.25,12.23,0,0.01,3
47777,45371295,0,1.94,0,-1.63,12.25,12.23,0,0.01,3
47818,45381525,0,1.94,0,-1.63,12.25,12.23,0,0.01,3
47859,45391571,0,1.94,0,-1.62,12.25,12.23,0,0.01,3
47900,45401540,0,1.94,0,-1.62,12.25,12.22,0,0.01,3
47940,45412038,0,1.94,0,-1.62,12.25,12.22,0,0.01,3
47985,45422649,0,1.94,0,-1.62,12.25,12.22,0,0.01,3
48029,45432671,0,1.94,0,-1.62,12.24,12.22,0,0,3
48070,45442674,0,1.94,0,-1.62,12.24,12.22,0,0,3
48111,45452832,0,1.94,0,-1.62,12.24,12.22,0,0,3
48151,45462654,0,1.94,0,-1.62,12.24,12.22,0,0,3
48191,45473155,0,1.94,0,-1.62,12.24,12.22,0,0,3
48232,45483550,0,1.94,0,-1.62,12.24,12.22,0,0,3
48269,45493665,0,1.94,0,-1.62,12.24,12.21,0,0,3
48310,45503812,0,1.94,0,-1.62,12.23,12.21,0,0,3
48350,45513786,0,1.94,0,-1.62,12.23,12.21,0,0,3
48397,45526579,0,1.94,0,-1.62,12.23,12.21,0,0,3
48440,45536912,0,1.94,0,-1.62,12.23,12.21,0,0,3
48481,45547516,0,1.94,0,-1.62,12.23,12.21,0,0,3
48522,45557698,0,1.94,0,-1.62,12.23,12.21,0,0,3
48560,45567846,0,1.94,0,-1.62,12.23,12.21,0,0,3
48598,45578156,0,1.94,0,-1.62,12.23,12.2,0,0,3
48638,45588306,0,1.94,0,-1.62,12.23,12.2,0,0,3
48680,45598529,0,1.94,0,-1.62,12.23,12.2,0,0,3
48720,45608840,0,1.94,0,-1.62,12.22,12.2,0,0,3
48764,45621594,0,1.94,0,-1.62,12.22,12.2,0,0,3
48811,45631881,0,1.94,0,-1.62,12.23,12.2,0,0,3
48852,45642310,0,1.94,0,-1.62,12.22,12.2,0,0,3
48894,45652198,0,1.94,0,-1.62,12.22,12.2,0,0,3
48934,45665253,0,1.94,0,-1.62,12.22,12.2,0,0,3
48972,45675320,0,1.94,0,-1.62,12.22,12.2,0,0,3
49013,45685611,0,1.94,0,-1.62,12.22,12.2,0,0,3
49053,45695893,0,1.94,0,-1.62,12.22,12.2,0,0,3
49094,45706625,0,1.94,0,-1.62,12.22,12.2,0,0,3
49135,45716876,0,1.94,0,-1.62,12.22,12.2,0,0,3
49178,45726621,0,1.94,0,-1.63,12.22,12.2,0,0,3
49223,45736375,0,1.94,0,-1.62,12.23,12.2,0,0.01,3
49264,45747047,0,1.94,0,-1.63,12.23,12.2,0,0.01,3
49305,45756906,0,1.94,0,-1.63,12.23,12.2,0,0.01,3
49345,45766703,0,1.93,0,-1.63,12.23,12.2,0,0.01,3
49384,45776781,0,1.94,0,-1.63,12.23,12.2,0,0.01,3
49424,45789201,0,1.94,0,-1.63,12.23,12.2,0,0.01,3
49465,45799254,0,1.94,0,-1.63,12.23,12.2,0,0.01,3
49506,45809576,0,1.94,0,-1.62,12.23,12.2,0,0.01,3
49546,45819852,0,1.94,0,-1.62,12.23,12.21,0,0.01,3
49591,45830320,0,1.94,0,-1.62,12.23,12.21,0,0.01,3
49632,45840863,0,1.94,0,-1.62,12.23,12.21,0,0,3
49674,45851290,0,1.94,0,-1.62,12.24,12.21,0,0,3
49714,45861347,0,1.94,0,-1.62,12.24,12.21,0,0,3
49756,45871693,0,1.94,0,-1.62,12.24,12.21,0,0,3
49794,45881808,0,1.93,0,-1.62,12.24,12.22,0,0,3
49834,45892071,0,1.93,0,-1.62,12.24,12.22,0,0,3
49875,45902178,0,1.93,0,-1.62,12.24,12.22,0,0,3
49916,45912048,0,1.93,0,-1.62,12.24,12.22,0,0,3
49959,45921894,0,1.93,0,-1.62,12.24,12.22,0,0,3
50006,45932508,0,1.93,0,-1.62,12.24,12.22,0,0,3
50046,45942872,0,1.93,0,-1.62,12.25,12.22,0,0.01,3
50088,45953148,0,1.93,0,-1.63,12.25,12.22,0,0.01,3
50130,45962814,0,1.93,0,-1.62,12.25,12.22,0,0.01,3
50171,45973328,0,1.93,0,-1.62,12.25,12.22,0,0.01,3
50208,45983551,0,1.93,0,-1.62,12.25,12.22,0,0.01,3
50249,45994031,0,1.93,0,-1.62,12.25,12.22,0,0.01,3
50290,46004673,0,1.93,0,-1.62,12.25,12.22,0,0.01,3
50331,46014620,0,1.93,0,-1.63,12.25,12.23,0,0.01,3
50372,46024726,0,1.93,0,-1.63,12.25,12.23,0,0.01,3
50416,46035181,0,1.93,0,-1.63,12.25,12.23,0,0.01,3
50457,46045725,0,1.93,0,-1.62,12.25,12.23,0,0.01,3
50498,46055650,0,1.93,0,-1.63,12.25,12.23,0,0.01,3
50540,46066100,0,1.93,0,-1.62,12.26,12.23,0,0.01,3
50578,46079131,0,1.93,0,-1.62,12.26,12.23,0,0.01,3
50618,46089605,0,1.93,0,-1.62,12.25,12.23,0,0.01,3
50659,46099869,0,1.93,0,-1.62,12.25,12.23,0,0.01,3
50699,46110542,0,1.93,0,-1.62,12.25,12.23,0,0.01,3
50740,46120687,0,1.93,0,-1.62,12.25,12.22,0,0.01,3
50780,46130767,0,1.93,0,-1.62,12.25,12.22,0,0.01,3
50828,46140614,0,1.93,0,-1.62,12.24,12.22,0,0.01,3
50869,46151058,0,1.93,0,-1.62,12.24,12.22,0,0.01,3
50909,46161566,0,1.93,0,-1.62,12.24,12.22,0,0.01,3
50950,46171543,0,1.93,0,-1.62,12.24,12.22,0,0.01,3
50992,46182122,0,1.93,0,-1.62,12.24,12.22,0,0.01,3
51033,46192318,0,1.93,0,-1.62,12.24,12.21,0,0.01,3
51074,46202171,0,1.93,0,-1.62,12.24,12.21,0,0.01,3
51115,46212229,0,1.93,0,-1.62,12.23,12.21,0,0.01,3
51156,46222182,0,1.93,0,-1.62,12.23,12.21,0,0.01,3
51196,46232770,0,1.93,0,-1.62,12.23,12.21,0,0.01,3
51241,46243056,0,1.93,0,-1.62,12.23,12.2,0,0.01,3
51282,46252690,0,1.93,0,-1.62,12.23,12.2,0,0.01,3
51324,46262700,0,1.93,0,-1.62,12.23,12.2,0,0.01,3
51364,46272889,0,1.93,0,-1.62,12.23,12.2,0,0.01,3
51411,46288649,0,1.93,0,-1.62,12.22,12.2,0,0.01,3
51453,46299099,0,1.93,0,-1.62,12.22,12.2,0,0.01,3
51493,46309574,0,1.93,0,-1.62,12.22,12.19,0,0.01,3
51534,46320272,0,1.93,0,-1.62,12.22,12.19,0,0.01,3
51576,46330784,0,1.93,0,-1.62,12.21,12.19,0,0.01,3
51618,46341149,0,1.93,0,-1.62,12.21,12.19,0,0.01,3
51663,46351095,0,1.93,0,-1.62,12.21,12.19,0,0.01,3
