LineNo,TimeUS,ThI,ABst,ThO,ThH,DAlt,Alt,BAlt,DSAlt,SAlt,TAlt,DCRt,CRt
1295,33614156,0,0,0,0.2585996,-0.6479868,-0.6479868,-0.62,NaN,0,-88.94844999999999,50,50
1822,33722789,0,0,0,0.2585996,-0.587429,-0.587429,-0.41,NaN,0,-88.73934,50,50
2232,33825330,0,0,0,0.2585996,-0.5238286,-0.5238286,-0.36,NaN,0,-88.68866,51,51
2648,33928491,0,0,0,0.2585996,-0.4551977,-0.4551977,-0.43,NaN,0,-88.76212,52,52
3059,34029899,0,0,0,0.2585996,-0.3887068,-0.3887068,-0.58,NaN,0,-88.90826,53,53
3447,34131662,0,0,0,0.2585996,-0.3315021,-0.3315021,-0.5,NaN,0,-88.82913000000001,53,53
3859,34233345,0,0,0,0.2585996,-0.2794454,-0.2794454,-0.63,NaN,0,-88.95992,53,53
4270,34336604,0,0,0,0.2585996,-0.2352767,-0.2352767,-0.48,NaN,0,-88.81119,53,53
4680,34439643,0,0,0,0.2585996,-0.1986665,-0.1986665,-0.79,NaN,0,-89.11636,52,52
5093,34540864,0,0,0,0.2585996,-0.1731159,-0.1731159,-0.65,NaN,0,-88.97911999999999,51,51
5504,34642562,0,0,0,0.2585996,-0.1536767,-0.1536767,-0.75,NaN,0,-89.0752,50,50
5916,34745595,0,0,0,0.2585996,-0.1435505,-0.1435505,-0.77,NaN,0,-89.09798000000001,48,48
6326,34848898,0,0,0,0.2585996,-0.1395323,-0.1395323,-0.6,NaN,0,-88.92843999999999,47,47
6710,34951266,0,0,0,0.2585996,-0.14203,-0.14203,-0.66,NaN,0,-88.98477,45,45
7121,35054421,0,0,0,0.2585996,-0.1405897,-0.1405897,-0.61,NaN,0,-88.93391,43,43
7533,35157588,0,0,0,0.2585996,-0.1438914,-0.1438914,-0.4,NaN,0,-88.73206999999999,41,41
7940,35260601,0,0,0,0.2585996,-0.1386435,-0.1386435,-0.5600000000000001,NaN,0,-88.89031,40,40
8353,35363159,0,0,0,0.2585996,-0.1336991,-0.1336991,-0.48,NaN,0,-88.80537,38,38
8737,35466767,0,0,0,0.2585996,-0.1317043,-0.1317043,-0.57,NaN,0,-88.90145,37,37
9153,35568838,0,0,0,0.2585996,-0.1281846,-0.1281846,-0.57,NaN,0,-88.89579999999999,35,35
9562,35669915,0,0,0,0.2585996,-0.126675,-0.126675,-0.61,NaN,0,-88.94101000000001,34,34
9972,35774268,0,0,0,0.2585996,-0.132389,-0.132389,-0.37,NaN,0,-88.69880999999999,32,32
10382,35877040,0,0,0,0.2585996,-0.1318133,-0.1318133,-0.72,NaN,0,-89.04919,31,31
10696,35979621,0,0,0,0.2585996,-0.1392177,-0.1392177,-0.51,NaN,0,-88.84081999999999,29,29
11079,36080789,0,0,0,0.2585996,-0.1453612,-0.1453612,-0.6899999999999999,NaN,0,-89.02167,27,27
11496,36182823,0,0,0,0.2585996,-0.1553468,-0.1553468,-0.61,NaN,0,-88.94668,26,26
11905,36284676,0,0,0,0.2585996,-0.1666487,-0.1666487,-0.5,NaN,0,-88.83365000000001,24,24
12313,36387583,0,0,0,0.2585996,-0.1774665,-0.1774665,-0.7,NaN,0,-89.03307,22,22
12695,36490577,0,0,0,0.2585996,-0.1954364,-0.1954364,-0.63,NaN,0,-88.9709,21,21
13110,36593610,0,0,0,0.2585996,-0.2116474,-0.2116474,-0.7,NaN,0,-89.03487,19,19
13516,36696194,0,0,0,0.2585996,-0.22915,-0.22915,-0.66,NaN,0,-88.99531,17,17
13927,36800126,0,0,0,0.2585996,-0.252551,-0.252551,-0.63,NaN,0,-88.97351,15,15
14311,36902594,0,0,0,0.2585996,-0.2720301,-0.2720301,-0.51,NaN,0,-88.84918,14,14
14719,37005283,0,0,0,0.2585996,-0.2889709,-0.2889709,-0.53,NaN,0,-88.86857000000001,12,12
15128,37107076,0,0,0,0.2585996,-0.3028833,-0.3028833,-0.58,NaN,0,-88.92509,11,11
15537,37209899,0,0,0,0.2585996,-0.316685,-0.316685,-0.55,NaN,0,-88.89117,10,10
15945,37310087,0,0,0,0.2585996,-0.330249,-0.330249,-0.68,NaN,0,-89.02681,8,8
16358,37411099,0,0,0,0.2585996,-0.345745,-0.345745,-0.68,NaN,0,-89.02294000000001,7,7
16767,37514071,0,0,0,0.2585996,-0.3662612,-0.3662612,-0.47,NaN,0,-88.81384,6,6
17156,37614581,0,0,0,0.2585996,-0.3811861,-0.3811861,-0.57,NaN,0,-88.91718,4,4
17566,37718100,0,0,0,0.2585996,-0.3943121,-0.3943121,-0.5,NaN,0,-88.84371,3,3
17978,37822056,0,0,0,0.2585996,-0.4063882,-0.4063882,-0.47,NaN,0,-88.81546,2,2
18388,37924852,0,0,0,0.2585996,-0.4162793,-0.4162793,-0.68,NaN,0,-89.02455999999999,1,1
18802,38027868,0,0,0,0.2585996,-0.4296596,-0.4296596,-0.75,NaN,0,-89.09238000000001,1,1
19217,38131125,0,0,0,0.2585996,-0.4462113,-0.4462113,-0.65,NaN,0,-88.99630000000001,0,0
19624,38232844,0,0,0,0.2585996,-0.4622614,-0.4622614,-0.8100000000000001,NaN,0,-89.15454,-1,-1
20038,38336507,0,0,0,0.2585996,-0.4855695,-0.4855695,-0.72,NaN,0,-89.06977000000001,-2,-2
20451,38437674,0,0,0,0.2585996,-0.5080834,-0.5080834,-0.87,NaN,0,-89.21671000000001,-3,-3
20840,38540916,0,0,0,0.2585996,-0.5328948,-0.5328948,-0.79,NaN,0,-89.13921000000001,-4,-4
21250,38642273,0,0,0,0.2585996,-0.5591829,-0.5591829,-0.9,NaN,0,-89.25224,-5,-5
21658,38745519,0,0,0,0.2585996,-0.5901555000000001,-0.5901555000000001,-0.67,NaN,0,-89.01514,-7,-7
22040,38847593,0,0,0,0.2585996,-0.6162066,-0.6162066,-0.63,NaN,0,-88.98121999999999,-8,-8
22454,38951788,0,0,0,0.2585996,-0.638394,-0.638394,-0.73,NaN,0,-89.07568000000001,-9,-9
22866,39054626,0,0,0,0.2585996,-0.6589229,-0.6589229,-0.8100000000000001,NaN,0,-89.16045,-10,-10
23274,39158095,0,0,0,0.2585996,-0.6811155,-0.6811155,-0.8,NaN,0,-89.1435,-11,-11
23682,39260053,0,0,0,0.2585996,-0.701785,-0.701785,-0.91,NaN,0,-89.25653,-11,-11
24091,39362632,0,0,0,0.2585996,-0.7271886,-0.7271886,-0.77,NaN,0,-89.11524,-12,-12
24473,39464809,0,0,0,0.2585996,-0.7505636,-0.7505636,-0.74,NaN,0,-89.08134,-13,-13
24888,39566092,0,0,0,0.2585996,-0.7717409,-0.7717409,-0.95,NaN,0,-89.29528000000001,-14,-14
25297,39666691,0,0,0,0.2585996,-0.7948691,-0.7948691,-0.68,NaN,0,-89.02401,-15,-15
25712,39770058,0,0,0,0.2585996,-0.8157459,-0.8157459,-0.8,NaN,0,-89.14188,-16,-16
26125,39873856,0,0,0,0.2585996,-0.8353637,-0.8353637,-0.65,NaN,0,-88.99494,-16,-16
26539,39977623,0,0,0,0.2585996,-0.8515678,-0.8515678,-0.9399999999999999,NaN,0,-89.28316,-17,-17
26946,40080326,0,0,0,0.2585996,-0.869629,-0.869629,-0.67,NaN,0,-89.0119,-18,-18
27358,40183239,0,0,0,0.2585996,-0.8859938000000001,-0.8859938000000001,-0.77,NaN,0,-89.11118999999999,-18,-18
27768,40286836,0,0,0,0.2585996,-0.9002336,-0.9002336,-0.84,NaN,0,-89.18465999999999,-19,-19
28158,40388868,0,0,0,0.2585996,-0.9157788,-0.9157788,-0.72,NaN,0,-0.01577884,-19,-19
28569,40493817,0,0,0,0.2585996,-0.9299838,-0.9299838,-0.93,NaN,0,-0.02998381,-20,-20
28988,40598063,0,0,0,0.2585996,-0.9467791,-0.9467791,-0.83,NaN,0,-0.04677921,-20,-20
29396,40701128,0,0,0,0.2585996,-0.9636869,-0.9636869,-0.85,NaN,0,-0.06368703000000001,-21,-21
29807,40804620,0,0,0,0.2585996,-0.9801691,-0.9801691,-0.7,NaN,0,-0.08016914,-21,-21
30190,40906248,0,0,0,0.2585996,-0.9941680000000001,-0.9941680000000001,-0.79,NaN,0,-0.09416801,-22,-22
30604,41009182,0,0,0,0.2585996,-1.007214,-1.007214,-0.63,NaN,0,-0.1074734,-22,-22
31010,41113167,0,0,0,0.2585996,-1.016156,-1.016156,-0.63,NaN,0,-0.1164157,-22,-22
31426,41216831,0,0,0,0.2585996,-1.02333,-1.02333,-0.68,NaN,0,-0.1235893,-23,-23
31835,41320183,0,0,0,0.2585996,-1.02743,-1.02743,-0.59,NaN,0,-0.1276896,-23,-23
32244,41422810,0,0,0,0.2585996,-1.031679,-1.031679,-0.66,NaN,0,-0.1343722,-23,-23
32628,41525789,0,0,0,0.2585996,-1.035009,-1.035009,-0.57,NaN,0,-0.1377025,-23,-23
33044,41628321,0,0,0,0.2585996,-1.036747,-1.036747,-0.54,NaN,0,-0.1394402,-23,-23
33456,41732881,0,0,0,0.2585996,-1.033468,-1.033468,-0.59,NaN,0,-0.1363295,-23,-23
33868,41834619,0,0,0,0.2585996,-1.031726,-1.031726,-0.64,NaN,0,-0.134587,-23,-23
34278,41938630,0,0,0,0.2585996,-1.031668,-1.031668,-0.44,NaN,0,-0.1361542,-23,-23
34657,42041146,0,0,0,0.2585996,-1.025577,-1.025577,-0.41,NaN,0,-0.1300628,-23,-23
35072,42143764,0,0,0,0.2585996,-1.019167,-1.019167,-0.59,NaN,0,-0.124454,-22,-22
35480,42246423,0,0,0,0.2585996,-1.01055,-1.01055,-0.41,NaN,0,-0.1158377,-22,-22
35895,42348071,0,0,0,0.2585996,-1.004172,-1.004172,-0.75,NaN,0,-0.1096267,-22,-22
36276,42451263,0,0,0,0.2585996,-0.998583,-0.998583,-0.4,NaN,0,-0.1040381,-22,-22
36690,42553298,0,0,0,0.2585996,-0.9949266,-0.9949266,-0.62,NaN,0,-0.1011903,-22,-22
37097,42655509,0,0,0,0.2585996,-0.9925494,-0.9925494,-0.35,NaN,0,-0.09881318,-22,-22
37477,42759870,0,0,0,0.2585996,-0.9880172,-0.9880172,-0.58,NaN,0,-0.09590601999999999,-21,-21
37884,42862900,0,0,0,0.2585996,-0.979876,-0.979876,-0.37,NaN,0,-0.08776486,-21,-21
38298,42967537,0,0,0,0.2585996,-0.9715091,-0.9715091,-0.35,NaN,0,-0.08037448,-21,-21
38707,43069558,0,0,0,0.2585996,-0.9632488,-0.9632488,-0.4,NaN,0,-0.07211423,-21,-21
39114,43172216,0,0,0,0.2585996,-0.9517087,-0.9517087,-0.45,NaN,0,-0.06317573999999999,-20,-20
39494,43274792,0,0,0,0.2585996,-0.9434407,-0.9434407,-0.5600000000000001,NaN,0,-0.05490768,-20,-20
39908,43376564,0,0,0,0.2585996,-0.9372869,-0.9372869,-0.39,NaN,0,-0.05037897,-20,-20
40318,43478654,0,0,0,0.2585996,-0.9286037,-0.9286037,-0.71,NaN,0,-0.04169583,-20,-20
40699,43581520,0,0,0,0.2585996,-0.9240731,-0.9240731,-0.67,NaN,0,-0.03895807,-20,-20
41112,43683765,0,0,0,0.2585996,-0.9257244,-0.9257244,-0.47,NaN,0,-0.04060942,-20,-20
41519,43785614,0,0,0,0.2585996,-0.9270465,-0.9270465,-0.61,NaN,0,-0.04209929,-20,-20
41927,43888608,0,0,0,0.2585996,-0.9262285,-0.9262285,-0.54,NaN,0,-0.04128134,-19,-19
42338,43990628,0,0,0,0.2585996,-0.926956,-0.926956,-0.5600000000000001,NaN,0,-0.04380178,-19,-19
42719,44092438,0,0,0,0.2585996,-0.9272939,-0.9272939,-0.66,NaN,0,-0.04413962,-19,-19
43131,44194778,0,0,0,0.2585996,-0.9300609,-0.9300609,-0.59,NaN,0,-0.04771542,-19,-19
43542,44297039,0,0,0,0.2585996,-0.9309494,-0.9309494,-0.38,NaN,0,-0.04860395,-19,-19
43954,44398673,0,0,0,0.2585996,-0.9306382,-0.9306382,-0.42,NaN,0,-0.04829263,-19,-19
44339,44500699,0,0,0,0.2585996,-0.9279307,-0.9279307,-0.59,NaN,0,-0.04576069,-19,-19
44749,44602504,0,0,0,0.2585996,-0.9261222,-0.9261222,-0.35,NaN,0,-0.04556954,-19,-19
45134,44704184,0,0,0,0.2585996,-0.9207762,-0.9207762,-0.64,NaN,0,-0.04022359,-19,-19
45543,44806610,0,0,0,0.2585996,-0.92131,-0.92131,-0.54,NaN,0,-0.04093289,-18,-18
45953,44909798,0,0,0,0.2585996,-0.9181078,-0.9181078,-0.46,NaN,0,-0.03773063,-18,-18
46372,45013655,0,0,0,0.2585996,-0.9167329,-0.9167329,-0.34,NaN,0,-0.03904128,-18,-18
46779,45115031,0,0,0,0.2585996,-0.9133807,-0.9133807,-0.41,NaN,0,-0.03568911,-18,-18
47194,45217782,0,0,0,0.2585996,-0.9057716,-0.9057716,-0.35,NaN,0,-0.0288887,-18,-18
47600,45320124,0,0,0,0.2585996,-0.8995909,-0.8995909,-0.25,NaN,0,-0.022708,-18,-18
47981,45422478,0,0,0,0.2585996,-0.8887414,-0.8887414,-0.53,NaN,0,-0.01195013,-17,-17
48390,45524302,0,0,0,0.2585996,-0.8821712,-0.8821712,-0.46,NaN,0,-0.005379912,-17,-17
48799,45626831,0,0,0,0.2585996,-0.8769096,-0.8769096,-0.53,NaN,0,-0.002887782,-17,-17
49209,45729539,0,0,0,0.2585996,-0.8739564,-0.8739564,-0.48,NaN,0,-0.001178142,-17,-17
49587,45830165,0,0,0,0.2585996,-0.8686758999999999,-0.8686758999999999,-0.66,NaN,0,0.004102353,-17,-17
50002,45932261,0,0,0,0.2585996,-0.8689047,-0.8689047,-0.47,NaN,0,-0.0003378354,-17,-17
50412,46035036,0,0,0,0.2585996,-0.8694682,-0.8694682,-0.49,NaN,0,-0.0009012781,-17,-17
50821,46138807,0,0,0,0.2585996,-0.8678202,-0.8678202,-0.45,NaN,0,-0.0004129969,-17,-17
51234,46240378,0,0,0,0.2585996,-0.8670206,-0.8670206,-0.62,NaN,0,0.0003865398,-17,-17
51649,46344109,0,0,0,0.2585996,-0.8666519,-0.8666519,-0.53,NaN,0,-0.00184631,-16,-16
52060,46445840,0,0,0,0.2585996,-0.8681604000000001,-0.8681604000000001,-0.66,NaN,0,-0.003354784,-16,-16
52470,46548685,0,0,0,0.2585996,-0.871779,-0.871779,-0.5,NaN,0,-0.008125479999999999,-17,-17
52850,46651919,0,0,0,0.2585996,-0.8734031,-0.8734031,-0.64,NaN,0,-0.009749588,-17,-17
53265,46755595,0,0,0,0.2585996,-0.8773368,-0.8773368,-0.39,NaN,0,-0.01573556,-17,-17
53675,46857693,0,0,0,0.2585996,-0.8795633,-0.8795633,-0.41,NaN,0,-0.01796209,-17,-17
54093,46960334,0,0,0,0.2585996,-0.8790987,-0.8790987,-0.42,NaN,0,-0.01792478,-16,-16
54497,47062588,0,0,0,0.2585996,-0.8746865,-0.8746865,-0.5,NaN,0,-0.01351249,-16,-16
54908,47165333,0,0,0,0.2585996,-0.8729746,-0.8729746,-0.32,NaN,0,-0.01302898,-16,-16
55319,47266884,0,0,0,0.2585996,-0.8699532,-0.8699532,-0.43,NaN,0,-0.0100075,-16,-16
55702,47369576,0,0,0,0.2585996,-0.8653664,-0.8653664,-0.5,NaN,0,-0.008197899999999999,-16,-16
55980,47471507,0,0,0,0.2585996,-0.8614371,-0.8614371,-0.49,NaN,0,-0.004268523,-16,-16
56392,47573232,0,0,0,0.2585996,-0.8598994,-0.8598994,-0.33,NaN,0,-0.003081854,-16,-16
56798,47677196,0,0,0,0.2585996,-0.8523705,-0.8523705,-0.37,NaN,0,0.004447047,-15,-15
57012,97810050,0,0,0,0.2585996,-0.6459406,-0.6459406,-0.71,NaN,0,0.004059384,-1,-1
57430,97910319,0,0,0,0.2585996,-0.6515514,-0.6515514,-0.53,NaN,0,-0.00155144,-1,-1
57841,98012397,0,0,0,0.2585996,-0.6548961,-0.6548961,-0.57,NaN,0,-0.004896155,-1,-1
58290,98115306,0,0,0,0.2585996,-0.6569858,-0.6569858,-0.67,NaN,0,-0.006184747,-1,-1
58737,98216909,0,0,0,0.2585996,-0.6590483,-0.6590483,-0.6899999999999999,NaN,0,-0.008247246999999999,-1,-1
59190,98320582,0,0,0,0.2585996,-0.6611114,-0.6611114,-0.97,NaN,0,-0.01031034,-1,-1
59606,98421925,0,0,0,0.2585996,-0.6632039,-0.6632039,-0.5,NaN,0,-0.01240282,-1,-1
60060,98526108,0,0,0,0.2585996,-0.6648196,-0.6648196,-0.74,NaN,0,-0.01401859,-1,-1
60507,98630488,0,0,0,0.2585996,-0.669343,-0.669343,-1.09,NaN,0,-0.01854198,-1,-1
60927,98730214,0,0,0,0.2585996,-0.6737281000000001,-0.6737281000000001,-0.78,NaN,0,-0.02292704,-1,-1
61380,98832588,0,0,0,0.2585996,-0.6777779,-0.6777779,-0.67,NaN,0,-0.02697687,0,0
61828,98935513,0,0,0,0.2585996,-0.681257,-0.681257,-0.92,NaN,0,-0.03070771,0,0
62244,99037800,0,0,0,0.2585996,-0.6843752,-0.6843752,-0.38,NaN,0,-0.03382593,0,0
62693,99141478,0,0,0,0.2585996,-0.6858878,-0.6858878,-0.85,NaN,0,-0.03550636,0,0
63125,99242020,0,0,0,0.2585996,-0.6854582,-0.6854582,-0.85,NaN,0,-0.03507679,0,0
63551,99345640,0,0,0,0.2585996,-0.6859102,-0.6859102,-0.85,NaN,0,-0.03570419,0,0
64005,99448131,0,0,0,0.2585996,-0.6883574,-0.6883574,-0.82,NaN,0,-0.03831922,0,0
64455,99551537,0,0,0,0.2585996,-0.6907069,-0.6907069,-0.89,NaN,0,-0.04147755,0,0
64908,99654849,0,0,0,0.2585996,-0.6940814,-0.6940814,-0.9399999999999999,NaN,0,-0.0440433,0,0
65356,99757863,0,0,0,0.2585996,-0.6974994,-0.6974994,-0.87,NaN,0,-0.04746126,0,0
65779,99861101,0,0,0,0.2585996,-0.7012929,-0.7012929,-0.89,NaN,0,-0.05125474,0,0
66229,99964318,0,0,0,0.2585996,-0.7051243,-0.7051243,-0.85,NaN,0,-0.05508613,0,0
66681,100069174,0,0,0,0.2585996,-0.7098321,-0.7098321,-0.74,NaN,0,-0.05979406,0,0
67131,100174792,0,0,0,0.2585996,-0.7132729,-0.7132729,-0.58,NaN,0,-0.06323479999999999,0,0
67586,100277685,0,0,0,0.2585996,-0.71597,-0.71597,-0.9399999999999999,NaN,0,-0.06593185,0,0
68037,100381166,0,0,0,0.2585996,-0.7199219,-0.7199219,-0.67,NaN,0,-0.06988382,0,0
68491,100483338,0,0,0,0.2585996,-0.7233866,-0.7233866,-0.63,NaN,0,-0.07334851000000001,-1,-1
68928,100587470,0,0,0,0.2585996,-0.7285642,-0.7285642,-0.31,NaN,0,-0.07852607,0,0
69361,100689677,0,0,0,0.2585996,-0.7326748,-0.7326748,-0.44,NaN,0,-0.08263677,-1,-1
69766,100792199,0,0,0,0.2585996,-0.7353206,-0.7353206,-0.51,NaN,0,-0.08528255999999999,0,0
70427,100997801,0,0,0,0.2585996,-0.7373484,-0.7373484,-0.77,NaN,0,-0.08731031,-1,-1
70881,101100092,0,0,0,0.2585996,-0.737474,-0.737474,-0.83,NaN,0,-0.08743589,-1,-1
71329,101203897,0,0,0,0.2585996,-0.7396249,-0.7396249,-0.82,NaN,0,-0.08975463,-1,-1
71782,101306119,0,0,0,0.2585996,-0.7424172,-0.7424172,-0.83,NaN,0,-0.09254687,-1,-1
72230,101412916,0,0,0,0.2585996,-0.7467486,-0.7467486,-0.8100000000000001,NaN,0,-0.09687833999999999,-1,-1
72683,101515111,0,0,0,0.2585996,-0.7503794,-0.7503794,-0.83,NaN,0,-0.09889173,-1,-1
73132,101619203,0,0,0,0.2585996,-0.7551466,-0.7551466,-0.7,NaN,0,-0.1055357,-1,-1
73552,101721145,0,0,0,0.2585996,-0.7592155,-0.7592155,-0.8,NaN,0,-0.1096046,-1,-1
73985,101825567,0,0,0,0.2585996,-0.7627016,-0.7627016,-0.87,NaN,0,-0.1130907,-1,-1
74421,101928057,0,0,0,0.2585996,-0.7657138999999999,-0.7657138999999999,-0.84,NaN,0,-0.116103,0,0
74868,102032625,0,0,0,0.2585996,-0.7674971,-0.7674971,-0.88,NaN,0,-0.1178862,-1,-1
75316,102137784,0.01874985,1.884066e-05,0.00351882,0.2585996,-0.7689888,-0.7689888,-0.78,NaN,0,-0.1177529,0,0
75769,102241533,0.06874938,6.328523e-05,0.03523342,0.2585996,-0.7690953,-0.7690953,-0.62,NaN,0,-0.1178594,0,0
76184,102346347,0.1174989,0.0001046583,0.07988099999999999,0.2585996,-0.7685665,-0.7685665,-0.4,NaN,0,-0.1174222,0,0
76634,102452079,0.1674988,0.000150457,0.1275438,0.2585996,-0.7642093,-0.7642093,-0.64,NaN,0,-0.1130649,0,0
77082,102557523,0.2174988,0.0001962036,0.1768965,0.2585996,-0.7599145,-0.7599145,-0.6,NaN,0,-0.1087701,0,0
77534,102660894,0.2674987,0.0002602339,0.2267451,0.2585996,-0.7551607,-0.7551607,-0.53,NaN,0,-0.1040164,1,1
77976,102767121,0.3162487,0.0003402829,0.2763963,0.2585996,-0.746438,-0.746438,-0.34,NaN,0,-0.09529363,7,7
78428,102871050,0.2365375,0.0002064556,0.2768301,0.2585996,-0.7331533,-0.7236652,0.05,NaN,0,-0.07252084,17,27
78874,102978301,0.2302072,9.399651999999999e-05,0.2356976,0.2585996,-0.7123695,-0.6771122000000001,0.43,NaN,0,-0.0275852,20,43
79303,103081599,0.2130175,1.528859e-05,0.2233121,0.2585996,-0.6859483,-0.6211495,-0.14,NaN,0,0.02872081,22,50
79742,103187815,0.2296686,2.086163e-06,0.2212087,0.2585996,-0.6569614,-0.557088,-0.37,NaN,0,0.09214145999999999,22,50
80191,103292787,0.2426849,3.136694e-05,0.2379595,0.2585996,-0.6220781,-0.497712,-0.5,NaN,0,0.1510444,24,47
80608,103398872,0.218242,6.595254000000001e-05,0.2310798,0.2585996,-0.584534,-0.4389435,-0.39,NaN,0,0.2102478,26,47
81060,103503314,0.2379753,0.0001023859,0.2276116,0.2585996,-0.5411401,-0.3832688,-0.49,NaN,0,0.2647246,29,46
81507,103609527,0.2416446,0.0002322048,0.2318508,0.2585996,-0.4967951,-0.327254,0.04,NaN,0,0.3205258,31,45
81958,103713580,0.2624778,0.0003915727,0.2452817,0.2585996,-0.4458716,-0.2727397,-0.02,NaN,0,0.3755513,36,45
82405,103821802,0.2867344,0.0005428493,0.2675412,0.2585996,-0.3872717,-0.2148011,-0.04,NaN,0,0.4320402,46,47
82859,103926798,0.2729716,0.0004666448,0.279564,0.2585996,-0.3171512,-0.1517231,0.37,NaN,0,0.4946453,59,55
83311,104033883,0.2879882,0.0003659725,0.280623,0.2585996,-0.2379391,-0.07696255,-0.08,NaN,0,0.5680478,71,66
83730,104142832,0.292565,0.0003251135,0.2901766,0.2585996,-0.1461026,0.009057759,-0.14,NaN,0,0.654152,85,79
84182,104247098,0.2775835,0.0003371537,0.2828536,0.2585996,-0.03816409,0.09771436999999999,0.07000000000000001,NaN,0,0.7421678,100,93
84631,104352165,0.283182,0.0004410446,0.2825433,0.2585996,0.07517102000000001,0.2027225,0.05,NaN,0,0.846535,111,105
85053,104458695,0.284513,0.0005098283,0.2846088,0.2585996,0.2037692,0.3187466,0.05,NaN,0,0.9609341,121,115
85496,104564650,0.2794586,0.0005174875,0.2832703,0.2585996,0.3331448,0.4439021,0.58,NaN,0,1.08609,128,124
85926,104670301,0.2715214,0.0006067455,0.2769707,0.2585996,0.4755769,0.5835709,0.46,NaN,0,1.225217,134,132
86360,104774443,0.2786928,0.000764221,0.274543,0.2585996,0.6231915,0.729254,0.57,NaN,0,1.369267,139,139
86811,104881121,0.2730173,0.000780642,0.2746533,0.2585996,0.7750406,0.8805199,0.65,NaN,0,1.520281,143,143
87224,104987658,0.2764741,0.0007200837,0.2759518,0.2585996,0.9303486,1.033581,0.79,NaN,0,1.673166,146,146
87680,105093103,0.2726617,0.0005461276,0.27519,0.2585996,1.088497,1.184802,0.9,NaN,0,1.824128,149,148
88128,105199725,0.2696658,0.0003539324,0.2729193,0.2585996,1.249011,1.339537,1.07,NaN,0,1.980069,152,152
88582,105304206,0.2660554,0.0002458692,0.2688434,0.2585996,1.411445,1.494673,1.44,NaN,0,2.135022,154,155
89031,105409869,0.2661265,0.0002574325,0.2684292,0.2585996,1.571323,1.659986,1.69,NaN,0,2.300175,155,157
89484,105513136,0.2650643,0.000384599,0.2662112,0.2585996,1.736577,1.826078,1.87,NaN,0,2.466092,156,159
89932,105619874,0.2642237,0.0005138516000000001,0.2641551,0.2585996,1.902896,2.012876,1.93,NaN,0,2.651005,155,160
90387,105726175,0.2653402,0.0006325245,0.2654634,0.2585996,2.070069,2.196662,2.46,NaN,0,2.834791,154,159
90797,105835116,0.2751364,0.0008338094000000001,0.2689002,0.2585996,2.229511,2.392446,2.34,NaN,0,3.030315,151,157
91244,105940672,0.2836258,0.0009162128,0.2772231,0.2585996,2.389516,2.571477,1.93,NaN,0,3.209179,150,154
91656,106047880,0.2711791,0.0006113052,0.2778375,0.2585996,2.550095,2.737234,2.66,NaN,0,3.376309,150,153
92099,106154267,0.2865018,0.0003258884,0.279752,0.2585996,2.713216,2.897992,2.43,NaN,0,3.5377,156,156
92545,106260893,0.3158119,8.571148e-05,0.2964481,0.2585996,2.88304,3.05393,2.96,NaN,0,3.696072,166,161
92986,106369780,0.2962774,7.417798000000001e-05,0.3050382,0.2585996,3.063204,3.225298,3.42,NaN,0,3.869866,178,171
93400,106475311,0.2908121,0.0001982749,0.296958,0.2585996,3.253308,3.406669,3.5,NaN,0,4.052061,189,183
93842,106584665,0.282821,0.0002624393,0.2908552,0.2585996,3.451632,3.613151,3.57,NaN,0,4.260809,196,194
94286,106692090,0.2759001,0.000267446,0.2824246,0.2585996,3.656723,3.82912,3.67,NaN,0,4.479205,201,203
94729,106801885,0.2530568,0.0001669824,0.2699051,0.2585996,3.86669,4.055042,3.76,NaN,0,4.705843,203,210
95177,106909311,0.2341748,0.0001231432,0.2509996,0.2585996,4.079132,4.280807,4.14,NaN,0,4.93405,203,214
95622,107017626,0.2199043,0.0002186,0.2321312,0.2585996,4.290785,4.51406,4.07,NaN,0,5.168669,198,214
96068,107124085,0.2112713,0.0003474057,0.2199621,0.2585996,4.4974,4.734237,4.72,NaN,0,5.391286,189,206
96465,107230254,0.1820718,0.0003495961,0.2012937,0.2585996,4.694691,4.953228,4.91,NaN,0,5.610109,175,195
96891,107337702,0.1658591,0.0002475828,0.179976,0.2585996,4.878369,5.158227,5.32,NaN,0,5.815742,156,179
97336,107445354,0.1665421,0.0002307147,0.1675491,0.2585996,5.044169,5.348804,5.36,NaN,0,6.006152,133,158
97777,107555191,0.1853337,0.0002498925,0.1776369,0.2585996,5.190356,5.516995,5.43,NaN,0,6.173358,111,129
98223,107662282,0.1973074,0.0003247559,0.1884372,0.2585996,5.319829,5.655394,5.76,NaN,0,6.310132,95,108
98663,107771727,0.1997432,0.0003781468,0.1978794,0.2585996,5.435509,5.777287,5.94,NaN,0,6.431209,81,89
99078,107878314,0.204658,0.0004858673,0.2043576,0.2585996,5.539776,5.876125,6.04,NaN,0,6.528597,70,73
99521,107986175,0.229518,0.0007183254,0.2158185,0.2585996,5.63459,5.96167,6.38,NaN,0,6.613669,62,61
99936,108092032,0.2229801,0.0006432384,0.224017,0.2585996,5.721599,6.036604,6.22,NaN,0,6.687405,56,51
100379,108199569,0.2226791,0.0005505532,0.2237312,0.2585996,5.798079,6.102431,6.24,NaN,0,6.755117,51,45
100796,108307833,0.229607,0.0004440695,0.2259752,0.2585996,5.873684,6.159841,6.38,NaN,0,6.815136,48,41
101240,108416026,0.2278164,0.0003568232,0.2280475,0.2585996,5.944946,6.209466,6.34,NaN,0,6.865021,46,38
101685,108522870,0.2425834,0.0003358573,0.2313721,0.2585996,6.012627,6.255415,6.46,NaN,0,6.911953,45,35
102127,108631125,0.2328417,0.0003035516,0.2346839,0.2585996,6.077304,6.299941,6.29,NaN,0,6.959082,44,35
102573,108737631,0.234604,0.0004167408,0.2353281,0.2585996,6.139459,6.342203,6.42,NaN,0,7.00216,44,35
102985,108847032,0.240527,0.0009823442000000001,0.2417421,0.2585996,6.199565,6.380117,6.65,NaN,0,7.041691,44,35
103427,108954117,0.2393952,0.00106661,0.2401104,0.2585996,6.257912,6.419991,6.63,NaN,0,7.082381,44,35
103843,109058852,0.2321714,0.0006931125999999999,0.2363071,0.2585996,6.314781,6.460916,6.46,NaN,0,7.124755,44,37
104285,109166885,0.237077,0.000489071,0.2365896,0.2585996,6.370444,6.5035,6.56,NaN,0,7.169599,44,38
104733,109275913,0.2452653,0.0009786487,0.2392183,0.2585996,6.425046,6.544497,6.75,NaN,0,7.211961,45,39
105179,109384879,0.245762,0.002530888,0.2447802,0.2585996,6.47892,6.589456,6.62,NaN,0,7.258202,45,39
105623,109492831,0.2447114,0.003990188,0.2463196,0.2585996,6.532131,6.635446,6.6,NaN,0,7.304321,45,39
106066,109602923,0.2377333,0.004809365,0.2441599,0.2585996,6.584768,6.679601,6.45,NaN,0,7.349071,45,41
106513,109710866,0.2468232,0.004849255,0.2461622,0.2585996,6.636953,6.720974,6.67,NaN,0,7.389163,46,41
106955,109819085,0.2321811,0.003875017,0.243864,0.2585996,6.688736,6.760485,6.52,NaN,0,7.425599,47,44
107372,109924586,0.2409845,0.003221452,0.2398269,0.2585996,6.740183,6.799677,6.33,NaN,0,7.460649,48,45
107810,110031351,0.2377432,0.002859458,0.2419665,0.2585996,6.791337,6.835881,6.54,NaN,0,7.491809,49,46
108258,110137648,0.2409905,0.00330691,0.2443776,0.2585996,6.842061,6.872306,6.45,NaN,0,7.521406,49,45
108699,110245070,0.2454351,0.003750518,0.246044,0.2585996,6.891843,6.90951,6.7,NaN,0,7.550958,49,45
109148,110355640,0.2427241,0.00392434,0.246415,0.2585996,6.941494,6.948162,6.41,NaN,0,7.57934,49,44
109568,110461077,0.241716,0.003312722,0.2486038,0.2585996,6.988103,6.980719,6.69,NaN,0,7.601468,48,44
110006,110568791,0.2451087,0.002751306,0.247676,0.2585996,7.032718,7.01245,7.03,NaN,0,7.620954,47,43
110454,110676052,0.2334,0.002084866,0.2428435,0.2585996,7.075138,7.048953,6.74,NaN,0,7.644403,46,43
110860,110784183,0.2368427,0.001583785,0.237759,0.2585996,7.115154,7.086248,7.11,NaN,0,7.666936,43,42
111289,110891930,0.248349,0.001334816,0.2437404,0.2585996,7.152572,7.121982,6.82,NaN,0,7.688792,41,38
111720,111000626,0.2331374,0.001219049,0.2436642,0.2585996,7.187269,7.150903,7.32,NaN,0,7.702842,38,36
112132,111104265,0.2303172,0.001162127,0.2358233,0.2585996,7.219222,7.179106,7.69,NaN,0,7.71536,36,35
112575,111212795,0.2258956,0.001359582,0.2300872,0.2585996,7.248438,7.209965,7.48,NaN,0,7.730525,33,34
113024,111320327,0.2260979,0.001927897,0.2272292,0.2585996,7.274889,7.242103,7.72,NaN,0,7.748418,29,32
113470,111428835,0.2222935,0.002699658,0.2277711,0.2585996,7.298532,7.274585,6.99,NaN,0,7.76639,25,28
113916,111536060,0.2128021,0.003128603,0.2236637,0.2585996,7.319326,7.302918,7.3,NaN,0,7.779563,22,26
114362,111643127,0.222485,0.003180683,0.2211905,0.2585996,7.337296,7.32648,7.07,NaN,0,7.790965,18,22
114773,111752159,0.2238256,0.003137782,0.2225306,0.2585996,7.352545,7.345156,7.54,NaN,0,7.797036,15,18
115219,111859553,0.2086325,0.002576724,0.2186878,0.2585996,7.365226,7.363171,7.7,NaN,0,7.803523,12,16
115662,111967767,0.2235312,0.002631173,0.2186735,0.2585996,7.375494,7.379564,7.44,NaN,0,7.808937,9,12
116107,112073562,0.2212543,0.002438396,0.2192477,0.2585996,7.3835,7.392044,6.81,NaN,0,7.811979,6,8
116549,112182581,0.2295711,0.002382681,0.2291229,0.2585996,7.389434,7.394758,8.19,NaN,0,7.804981,4,4
116994,112287897,0.2291428,0.002083138,0.2318255,0.2585996,7.393599,7.395831,7.4,NaN,0,7.797334,3,1
117410,112394197,0.2189193,0.001740366,0.2271164,0.2585996,7.396177,7.398364,7.03,NaN,0,7.790879,1,0
117854,112501262,0.2150145,0.001279071,0.2209946,0.2585996,7.397664,7.396747,6.87,NaN,0,7.781176,1,1
118298,112608114,0.2139561,0.001132041,0.2181153,0.2585996,7.398126,7.388437,6.8,NaN,0,7.764618,1,0
118711,112714261,0.2234372,0.001171067,0.2216868,0.2585996,7.397922,7.373054,6.67,NaN,0,7.741697,2,0
119154,112821825,0.2121328,0.001098514,0.2241537,0.2585996,7.397375,7.355103,6.65,NaN,0,7.716301,3,0
119601,112927265,0.221161,0.001038417,0.2271864,0.2585996,7.396844,7.337571,6.48,NaN,0,7.691956,5,1
120011,113035151,0.2191884,0.0008751154,0.2281863,0.2585996,7.396629,7.314907,6.92,NaN,0,7.661929,8,3
120454,113146531,0.2236546,0.0003559142,0.227112,0.2585996,7.397031,7.299882,6.69,NaN,0,7.639283,10,6
120904,113254061,0.2075726,1.15782e-05,0.2194033,0.2585996,7.39818,7.291675,7.1,NaN,0,7.622797,12,11
121317,113361871,0.2127301,0.0007005334,0.2173359,0.2585996,7.400078,7.287836,7.11,NaN,0,7.611931,13,14
121762,113467697,0.2194736,0.001330659,0.2176106,0.2585996,7.402656,7.287585,6.04,NaN,0,7.604921,14,14
122205,113578093,0.2229017,0.00151664,0.2220566,0.2585996,7.405721,7.280309,6.64,NaN,0,7.592297,16,15
122650,113684151,0.2126611,0.001156524,0.2203025,0.2585996,7.409447,7.272281,6.36,NaN,0,7.578463,17,17
123060,113792053,0.204601,0.0007868558,0.215829,0.2585996,7.413786,7.267142,6.34,NaN,0,7.56722,19,20
123509,113900610,0.2349056,0.0006061196,0.2207135,0.2585996,7.418746,7.25986,6.27,NaN,0,7.554995,21,18
123918,114007850,0.2638836,0.0005342065999999999,0.2408756,0.2585996,7.424337,7.247633,6.37,NaN,0,7.536809,23,15
124362,114113890,0.2560793,0.000515908,0.2494695,0.2585996,7.430635,7.234095,7.18,NaN,0,7.518472,26,16
124804,114221678,0.2618163,0.0004742146,0.2549288,0.2585996,7.437765,7.22388,7.22,NaN,0,7.502717,29,17
125255,114328683,0.25449,0.000490427,0.2523189,0.2585996,7.445705,7.230018,7.47,NaN,0,7.502951,30,21
125698,114438061,0.2561383,0.000276655,0.2545315,0.2585996,7.454021,7.23974,7.55,NaN,0,7.506927,30,22
126139,114546836,0.2518868,0.0002083182,0.2507348,0.2585996,7.462869,7.261377,7.14,NaN,0,7.520355,29,25
126583,114652093,0.2538693,0.001218468,0.2538206,0.2585996,7.471644,7.282094,7.15,NaN,0,7.532879,28,24
127026,114760150,0.2668419,0.002153188,0.2608586,0.2585996,7.480012,7.301985,7.39,NaN,0,7.544652,26,21
127475,114865543,0.28313,0.003697783,0.2743759,0.2585996,7.487727,7.318676,7.59,NaN,0,7.552965,24,17
127916,114974288,0.2736373,0.005671233,0.2801899,0.2585996,7.494621,7.33497,7.39,NaN,0,7.561874,22,15
128363,115079864,0.26468,0.006530553,0.2782271,0.2585996,7.500574,7.349571,7.22,NaN,0,7.57202,20,15
128804,115187651,0.2480558,0.005774125,0.2648379,0.2585996,7.505384,7.364438,7.4,NaN,0,7.582431,18,17
129255,115294882,0.2540191,0.005379438,0.2601606,0.2585996,7.509239,7.37982,7.31,NaN,0,7.596822,16,16
129669,115402560,0.2564885,0.005199432,0.2578072,0.2585996,7.511934,7.394065,7.47,NaN,0,7.611066,13,15
130115,115508536,0.2724501,0.005527556,0.2674313,0.2585996,7.513439,7.405606,7.84,NaN,0,7.625072,11,11
130557,115617114,0.2752041,0.005996764,0.2752813,0.2585996,7.513775,7.416813,7.49,NaN,0,7.639911,9,7
131003,115724273,0.2750605,0.005605876,0.2792163,0.2585996,7.512982,7.425779,7.3,NaN,0,7.65379,7,4
131418,115832060,0.2816484,0.005149573,0.2857039,0.2585996,7.511094,7.426892,7.6,NaN,0,7.661822,5,0
131864,115945315,0.2858893,0.004259586,0.2888324,0.2585996,7.508096,7.425623,7.65,NaN,0,7.668931,4,0
132310,116052780,0.2813143,0.00393647,0.2881384,0.2585996,7.504481,7.422756,7.47,NaN,0,7.675821,4,-1
132758,116164831,0.2799464,0.003544003,0.2849685,0.2585996,7.500176,7.420969,7.92,NaN,0,7.685517,3,-1
133205,116271609,0.2658331,0.003396839,0.2790874,0.2585996,7.495535,7.419497,7.83,NaN,0,7.695878,2,0
133655,116380578,0.2670896,0.00366208,0.2729262,0.2585996,7.490412,7.423341,7.77,NaN,0,7.713112,1,1
134101,116486609,0.2609601,0.003727555,0.2709501,0.2585996,7.484927,7.429839,7.4,NaN,0,7.733724,0,2
134512,116595351,0.2512358,0.003625244,0.264541,0.2585996,7.479188,7.435598,7.93,NaN,0,7.754414,-1,2
134959,116702727,0.2450011,0.003642827,0.2572895,0.2585996,7.473029,7.444189,7.84,NaN,0,7.779766,-3,2
135400,116811058,0.233148,0.003725812,0.2469833,0.2585996,7.466391,7.453005,7.93,NaN,0,7.807786,-5,4
135818,116919614,0.2368352,0.00356856,0.2417788,0.2585996,7.459201,7.464866,7.75,NaN,0,7.839856,-8,2
136260,117026644,0.236604,0.002978861,0.2437176,0.2585996,7.451382,7.470146,8.08,NaN,0,7.867147,-10,0
136707,117134153,0.2315792,0.002047673,0.2369799,0.2585996,7.442938,7.478097,7.5,NaN,0,7.899093,-12,-2
137115,117241898,0.2146868,0.00144051,0.2256942,0.2585996,7.433867,7.481151,7.96,NaN,0,7.926142,-14,-2
137558,117350612,0.2124494,0.0009855628,0.2153176,0.2585996,7.424203,7.484872,8.69,NaN,0,7.954757,-16,-2
138004,117457776,0.2133385,0.0005679727000000001,0.2132091,0.2585996,7.413991,7.491264,8.279999999999999,NaN,0,7.986861,-18,-5
138446,117565798,0.225625,0.0006514639,0.22011,0.2585996,7.403219,7.500249,7.84,NaN,0,8.02319,-21,-11
138892,117674164,0.2315479,0.0008845031,0.2277174,0.2585996,7.391862,7.500598,8.289999999999999,NaN,0,8.049158,-23,-16
139336,117783347,0.235343,0.001131147,0.2324077,0.2585996,7.380003,7.498008,7.98,NaN,0,8.073255,-24,-19
139785,117888795,0.2449055,0.001533821,0.2416391,0.2585996,7.367779,7.489257,7.71,NaN,0,8.089285,-25,-24
140230,117996697,0.2501051,0.001788557,0.2480647,0.2585996,7.355393,7.47362,7.97,NaN,0,8.100327,-24,-27
140642,118102849,0.245706,0.001830295,0.2524372,0.2585996,7.343118,7.454649,8.19,NaN,0,8.107289,-23,-27
141084,118210635,0.2304565,0.001550943,0.2419574,0.2585996,7.331552,7.439726,8.07,NaN,0,8.119199,-23,-24
141533,118319524,0.2372662,0.001407087,0.2389433,0.2585996,7.320254,7.431954,7.58,NaN,0,8.140059000000001,-22,-22
141976,118426687,0.2410518,0.001606867,0.2393985,0.2585996,7.309589,7.418702,7.9,NaN,0,8.153625,-21,-21
142392,118531885,0.2456404,0.001639858,0.2479708,0.2585996,7.299644,7.405168,7.58,NaN,0,8.16854,-20,-22
142835,118642158,0.2444336,0.001457661,0.2457886,0.2585996,7.290518,7.390884,8.1,NaN,0,8.183691,-19,-19
143277,118750375,0.2421476,0.001381278,0.242585,0.2585996,7.282292,7.382303,7.57,NaN,0,8.203628999999999,-18,-19
143693,118858903,0.2402762,0.001377732,0.2400569,0.2585996,7.274967,7.372141,7.93,NaN,0,8.222718,-16,-16
144136,118968115,0.2387197,0.00149639,0.2396448,0.2585996,7.268544,7.363522,7.71,NaN,0,8.243335,-15,-16
144581,119074549,0.2325702,0.001368895,0.2391613,0.2585996,7.263012,7.356105,7.63,NaN,0,8.265962999999999,-14,-14
145024,119182232,0.2342775,0.001333594,0.2412753,0.2585996,7.258349,7.347441,7.64,NaN,0,8.28645,-13,-13
145439,119288630,0.2403668,0.001073688,0.2388762,0.2585996,7.254535,7.339518,7.44,NaN,0,8.307581000000001,-12,-12
145882,119397920,0.243407,0.0005304217,0.2429615,0.2585996,7.251564,7.329048,7.5,NaN,0,8.327878999999999,-10,-11
146330,119505514,0.2397033,0.0001781285,0.2385246,0.2585996,7.249443,7.318865,7.58,NaN,0,8.345094,-8,-8
146773,119613910,0.2385286,0.0001453906,0.2376996,0.2585996,7.248223,7.310527,7.96,NaN,0,8.364985000000001,-7,-7
147221,119721910,0.2427204,0.0001902431,0.2422256,0.2585996,7.24783,7.306921,8.449999999999999,NaN,0,8.388692000000001,-5,-7
147632,119831598,0.24057,0.0002887845,0.2448232,0.2585996,7.248204,7.313808,8.65,NaN,0,8.420510999999999,-5,-6
148076,119942575,0.2195988,0.0003036112,0.2326543,0.2585996,7.249131,7.332263,8.859999999999999,NaN,0,8.462671,-7,-2
148524,120050277,0.2158407,0.0002676249,0.2179173,0.2585996,7.250165,7.358135,8.33,NaN,0,8.509874,-9,-1
148969,120160087,0.2221759,0.0001568943,0.2209176,0.2585996,7.250873,7.387689,8.050000000000001,NaN,0,8.559858999999999,-13,-3
149415,120267120,0.2212398,7.843970999999999e-05,0.2240138,0.2585996,7.250848,7.408687,7.66,NaN,0,8.600306,-16,-7
149836,120375260,0.2203903,6.844103000000001e-05,0.2172945,0.2585996,7.249884,7.419641,7.48,NaN,0,8.62989,-18,-10
150282,120483044,0.2157526,5.421042e-05,0.2226157,0.2585996,7.247973,7.415597,7.43,NaN,0,8.643744999999999,-19,-14
150724,120588900,0.2316756,2.621114e-05,0.2286822,0.2585996,7.245315,7.403947,7.37,NaN,0,8.649077999999999,-18,-17
151171,120695604,0.233702,7.554889e-06,0.233106,0.2585996,7.242238,7.384511,7.13,NaN,0,8.646701999999999,-17,-19
151585,120801805,0.241356,5.13047e-05,0.2350209,0.2585996,7.23913,7.361282,7.11,NaN,0,8.638754,-15,-19
152030,120907541,0.2469669,2.142787e-05,0.2373911,0.2585996,7.236376,7.337263,6.9,NaN,0,8.629269000000001,-12,-18
152475,121016677,0.2662499,1.010299e-05,0.2466632,0.2585996,7.234363,7.307936,6.81,NaN,0,8.615361999999999,-9,-18
152921,121125168,0.2453795,5.438924e-06,0.2520867,0.2585996,7.233345,7.278482,6.92,NaN,0,8.600273,-4,-15
153333,121231908,0.2422449,3.303587e-05,0.2492039,0.2585996,7.233683,7.254557,7.07,NaN,0,8.589249000000001,0,-10
153786,121341599,0.2424661,9.682775e-05,0.2466837,0.2585996,7.235608,7.235362,6.72,NaN,0,8.583757,2,-4
154229,121449057,0.2441609,0.0002560467,0.2469068,0.2585996,7.239075,7.217431,6.81,NaN,0,8.577988,6,0
154673,121559630,0.2412286,0.00032188,0.2484639,0.2585996,7.24413,7.203511,6.64,NaN,0,8.576136999999999,10,4
155070,121663548,0.2383974,0.000280723,0.2477404,0.2585996,7.250723,7.193769,6.52,NaN,0,8.576832,13,7
155514,121772814,0.2512065,0.0004385114,0.2433683,0.2585996,7.25875,7.184118,6.54,NaN,0,8.57835,16,12
155929,121877828,0.2418626,0.0006000847,0.2428673,0.2585996,7.26811,7.178601,6.7,NaN,0,8.581638,19,16
156370,121987186,0.2421892,0.0007461458,0.2421031,0.2585996,7.278675,7.1751,6.56,NaN,0,8.586781,22,19
156817,122093302,0.2391396,0.0008638054,0.2406829,0.2585996,7.290292,7.174847,6.86,NaN,0,8.595013,24,22
157259,122202869,0.2376249,0.0008484572,0.2377968,0.2585996,7.302435,7.181471,6.29,NaN,0,8.608639999999999,25,25
157710,122310766,0.2323248,0.0007661581,0.2351231,0.2585996,7.315512,7.18797,6.74,NaN,0,8.621173000000001,26,27
158121,122416823,0.2262976,0.0005686432,0.2324822,0.2585996,7.328259,7.198657,6.89,NaN,0,8.637071000000001,27,28
158567,122522660,0.2221854,0.0003526658,0.2295772,0.2585996,7.341867,7.211739,6.76,NaN,0,8.653586000000001,27,30
159009,122631878,0.2224375,0.0002434701,0.2244252,0.2585996,7.355378,7.227457,6.48,NaN,0,8.674522,26,30
159456,122737531,0.2185659,0.0003295243,0.2228487,0.2585996,7.368557,7.245171,6.79,NaN,0,8.695655,25,30
159899,122846640,0.2348301,0.0004680008,0.2245253,0.2585996,7.381201,7.258383,6.75,NaN,0,8.711705,25,28
160310,122954901,0.2162686,0.0004452169,0.2228795,0.2585996,7.393158,7.272206,6.55,NaN,0,8.728878,24,27
160754,123060898,0.2205613,0.0002093166,0.2207646,0.2585996,7.404326,7.283736,6.66,NaN,0,8.743254,23,26
161196,123169306,0.2272387,0.000399068,0.2201277,0.2585996,7.414651,7.291741,6.79,NaN,0,8.753365000000001,22,24
161611,123275808,0.2302751,0.001020715,0.2265291,0.2585996,7.424129,7.301214,6.71,NaN,0,8.764447000000001,21,22
162060,123384191,0.2379892,0.001558959,0.2305232,0.2585996,7.432771,7.305375,6.82,NaN,0,8.770447000000001,21,20
162505,123491234,0.2373033,0.001683488,0.2373337,0.2585996,7.440652,7.307703,6.75,NaN,0,8.775674,21,18
162916,123601215,0.2339325,0.001668841,0.2389608,0.2585996,7.447863,7.31061,7.2,NaN,0,8.780236,20,18
163363,123708151,0.2213429,0.001578629,0.2308489,0.2585996,7.454464,7.319021,7.07,NaN,0,8.790462,20,19
163807,123817585,0.2436267,0.001616359,0.2341986,0.2585996,7.460423,7.329679,7.23,NaN,0,8.803248999999999,18,18
164224,123923503,0.2368194,0.001340106,0.2409327,0.2585996,7.465679,7.339816,7.16,NaN,0,8.814050999999999,17,15
164666,124032307,0.2349224,0.001500189,0.2395381,0.2585996,7.470081,7.351158,7.32,NaN,0,8.824737000000001,16,15
165075,124140679,0.2372349,0.001718223,0.23575,0.2585996,7.473799,7.364049,7.39,NaN,0,8.838107000000001,14,15
165521,124247043,0.2435468,0.002139017,0.241725,0.2585996,7.47664,7.374873,7.24,NaN,0,8.848901,12,12
165966,124355354,0.2351131,0.002256334,0.2401285,0.2585996,7.478586,7.38386,7.2,NaN,0,8.856636,11,11
166414,124461780,0.2275417,0.002093673,0.2358569,0.2585996,7.479641,7.390037,7.34,NaN,0,8.863585,9,11
166859,124571166,0.2398486,0.001878902,0.2350011,0.2585996,7.479852,7.396803,7.6,NaN,0,8.869901,8,9
167307,124679317,0.2412626,0.001831338,0.2409713,0.2585996,7.47923,7.403008,7.42,NaN,0,8.876547,6,6
167719,124788766,0.2457609,0.001529127,0.2424927,0.2585996,7.477847,7.409721,7.42,NaN,0,8.883528,4,5
168168,124895788,0.240743,0.001158461,0.2417924,0.2585996,7.475722,7.415515,7.67,NaN,0,8.889673,3,3
168580,125003922,0.2456633,0.00102748,0.2416764,0.2585996,7.472884,7.422075,7.53,NaN,0,8.89756,1,2
169026,125109837,0.2486453,0.001024559,0.2451608,0.2585996,7.469352,7.427123,7.41,NaN,0,8.902623999999999,0,0
169467,125216113,0.2400986,0.001134008,0.2432916,0.2585996,7.465161,7.431884,7.68,NaN,0,8.908391999999999,-1,0
169887,125322082,0.2392463,0.001221523,0.2405724,0.2585996,7.460347,7.437219,7.64,NaN,0,8.914153000000001,-3,0
170330,125432391,0.2444287,0.001312062,0.2423784,0.2585996,7.454943,7.437582,7.8,NaN,0,8.915272,-4,-3
170778,125545657,0.2487282,0.001428187,0.2442513,0.2585996,7.448709,7.438152,7.47,NaN,0,8.916276999999999,-5,-4
171225,125651183,0.2453628,0.001589626,0.2461231,0.2585996,7.442355,7.435449,7.49,NaN,0,8.916283,-6,-6
171676,125762134,0.2448756,0.001700372,0.2469768,0.2585996,7.435519,7.430419,7.81,NaN,0,8.913876999999999,-6,-6
172123,125870806,0.2453383,0.001767576,0.2445681,0.2585996,7.428688,7.425488,7.8,NaN,0,8.911325,-6,-6
172537,125980649,0.24533,0.001866654,0.2468688,0.2585996,7.421793,7.424623,7.62,NaN,0,8.914787,-7,-6
172982,126086602,0.2393582,0.001874298,0.2468179,0.2585996,7.414866,7.423482,7.48,NaN,0,8.916363,-8,-7
173424,126195026,0.2356405,0.00182119,0.2417794,0.2585996,7.407931,7.421692,7.39,NaN,0,8.919318000000001,-8,-6
173871,126302557,0.2342057,0.001489058,0.240651,0.2585996,7.401015,7.418177,7.45,NaN,0,8.921014,-8,-6
174285,126411095,0.2349285,0.0009462237,0.2372606,0.2585996,7.394176,7.413956,7.27,NaN,0,8.922034,-9,-6
174730,126516096,0.2290076,0.0003564209,0.232275,0.2585996,7.387469,7.408943,7.5,NaN,0,8.922812,-9,-5
175175,126623200,0.2355018,8.790195e-05,0.2327312,0.2585996,7.380955,7.404573,7.6,NaN,0,8.923026999999999,-9,-6
175588,126729667,0.2412581,0.0001056641,0.2373753,0.2585996,7.374673,7.401058,7.21,NaN,0,8.924746000000001,-9,-8
176034,126838103,0.2506229,0.0006741881,0.2444683,0.2585996,7.368651,7.392553,7.74,NaN,0,8.921658000000001,-8,-10
176480,126951622,0.2478212,0.001614556,0.2486882,0.2585996,7.362685,7.383413,7.42,NaN,0,8.918087,-7,-10
176930,127058603,0.2594423,0.004053265,0.255582,0.2585996,7.357462,7.373839,7.27,NaN,0,8.913847000000001,-6,-11
177373,127167644,0.2540251,0.007405847,0.2605156,0.2585996,7.352756,7.362092,7.48,NaN,0,8.905768999999999,-5,-10
177822,127274675,0.2555035,0.01045224,0.2648254,0.2585996,7.348666,7.351146,7.57,NaN,0,8.900003,-4,-9
178267,127384141,0.2442307,0.0111897,0.2602519,0.2585996,7.345261,7.344847,7.26,NaN,0,8.898334999999999,-3,-6
178679,127490615,0.2391794,0.01006891,0.2529846,0.2585996,7.342525,7.341575,7.27,NaN,0,8.898016,-2,-3
179122,127598328,0.2409996,0.009184703000000001,0.2507006,0.2585996,7.340403,7.339063,7.05,NaN,0,8.899502,-1,-2
179569,127703686,0.2514744,0.008918463999999999,0.2560277,0.2585996,7.338831,7.334379,6.97,NaN,0,8.897380999999999,0,-3
180014,127812828,0.2464905,0.008314177000000001,0.2572653,0.2585996,7.337792,7.326813,7.09,NaN,0,8.892614999999999,0,-2
180428,127920726,0.2474665,0.008227646,0.254671,0.2585996,7.337309,7.319889,7,NaN,0,8.888735,1,0
180870,128029780,0.2427874,0.008356035,0.2509657,0.2585996,7.33741,7.314051,7.09,NaN,0,8.885368,2,1
181279,128137613,0.2527366,0.008987993,0.2560285,0.2585996,7.338081,7.309819,6.99,NaN,0,8.883137,3,1
181729,128246052,0.2400849,0.008444369,0.2545888,0.2585996,7.339298,7.305157,7.35,NaN,0,8.880549,4,2
182139,128353517,0.2435796,0.007476434,0.2502468,0.2585996,7.341035,7.3048,7.19,NaN,0,8.882671,5,4
182585,128459811,0.230204,0.003247067,0.2421729,0.2585996,7.343213,7.307112,6.98,NaN,0,8.886099,6,8
183027,128568144,0.2251209,0.0004259199,0.2317263,0.2585996,7.345717,7.311012,7.1,NaN,0,8.892706,6,9
183441,128675284,0.2213657,2.361834e-05,0.2246736,0.2585996,7.348424,7.316204,6.94,NaN,0,8.900620999999999,6,10
183887,128783348,0.2292683,1.445413e-05,0.2257856,0.2585996,7.351217,7.320603,7.06,NaN,0,8.908530000000001,6,10
184334,128889581,0.232032,3.711879e-05,0.231764,0.2585996,7.354012,7.322127,7.14,NaN,0,8.914198000000001,6,8
184744,128997591,0.2313268,0.0002721846,0.2320696,0.2585996,7.356774,7.325262,6.69,NaN,0,8.919408000000001,6,8
185191,129102167,0.2308349,0.0005532354,0.2336152,0.2585996,7.359468,7.326007,6.76,NaN,0,8.924295000000001,6,6
185631,129209068,0.2431577,0.0009518415,0.2364787,0.2585996,7.362028,7.322828,7.09,NaN,0,8.924702,6,6
186080,129313809,0.2376453,0.001060545,0.2398425,0.2585996,7.364654,7.318894,6.25,NaN,0,8.923325,7,5
186523,129421554,0.2395546,0.001119584,0.2408878,0.2585996,7.367344,7.309952,6.96,NaN,0,8.916769,8,6
186970,129527313,0.2442628,0.0009721518,0.2437526,0.2585996,7.370214,7.30162,7.24,NaN,0,8.910833,10,5
187409,129634134,0.2479767,0.0007817745,0.2491528,0.2585996,7.373298,7.295592,7.25,NaN,0,8.905607,11,6
187854,129746286,0.2493451,0.0005761385,0.2498646,0.2585996,7.376895,7.295205,7.15,NaN,0,8.90522,12,7
188304,129853596,0.2470278,0.0004582107,0.2481516,0.2585996,7.380689,7.299678,6.97,NaN,0,8.909533,12,8
188720,129960329,0.2377376,0.0004315972,0.2448609,0.2585996,7.384657,7.304113,7.02,NaN,0,8.913807,12,11
189159,130068165,0.2499419,0.000463739,0.2468519,0.2585996,7.388804,7.307773,7.12,NaN,0,8.917223,12,11
189603,130176404,0.2388051,0.0004562885,0.2449246,0.2585996,7.392834,7.3128,7.04,NaN,0,8.922098,12,11
190051,130284783,0.237598,0.0004243255,0.2390634,0.2585996,7.39678,7.317695,6.72,NaN,0,8.926199,11,12
190500,130395041,0.2390788,0.0004922897000000001,0.2395001,0.2585996,7.40067,7.321243,6.99,NaN,0,8.928068,11,12
190945,130501806,0.2288263,0.0005672723,0.2365188,0.2585996,7.404271,7.323768,6.91,NaN,0,8.927801000000001,11,13
191355,130610336,0.2364227,0.001173407,0.2367549,0.2585996,7.407682,7.327644,7.04,NaN,0,8.928328,11,12
191801,130717342,0.2366263,0.00172627,0.2372604,0.2585996,7.410871,7.331558,7.51,NaN,0,8.928891999999999,11,12
192248,130825098,0.2168393,0.001658723,0.2311965,0.2585996,7.413797,7.340847,7.04,NaN,0,8.932911000000001,10,13
192693,130933815,0.2265698,0.00148885,0.224538,0.2585996,7.416427,7.351391,7.13,NaN,0,8.935961000000001,8,14
193137,131039767,0.2323114,0.001270726,0.230356,0.2585996,7.418514,7.360642,7.49,NaN,0,8.936674999999999,7,12
193581,131150344,0.2279267,0.0008371323,0.2302365,0.2585996,7.420098,7.369431,6.97,NaN,0,8.936286000000001,6,9
194030,131258060,0.22214,0.0006150752,0.2259999,0.2585996,7.421047,7.377647,6.9,NaN,0,8.935172,5,8
194474,131367781,0.2303191,0.0006234795,0.2307687,0.2585996,7.421383,7.380373,6.85,NaN,0,8.927849,4,6
194891,131474313,0.2372928,0.0005892217,0.2327097,0.2585996,7.421159,7.380518,6.88,NaN,0,8.91713,3,4
195333,131582134,0.2466082,0.00037615,0.2405423,0.2585996,7.42047,7.377708,7.21,NaN,0,8.902670000000001,3,1
195778,131689313,0.2435213,0.0001930147,0.2457505,0.2585996,7.419449,7.371855,7.07,NaN,0,8.885166,3,0
196191,131797336,0.2527786,8.34167e-05,0.2461146,0.2585996,7.418277,7.364915,7.09,NaN,0,8.865135,4,0
196636,131904808,0.2483034,2.622604e-05,0.2459379,0.2585996,7.417033,7.358491,7.02,NaN,0,8.84642,4,0
197077,132011843,0.2391989,6.897747999999999e-05,0.242929,0.2585996,7.415863,7.353581,6.83,NaN,0,8.828578,5,1
197525,132118525,0.2389027,8.748472e-05,0.2434572,0.2585996,7.414836,7.350151,7.21,NaN,0,8.812391999999999,5,4
197968,132226219,0.2388364,0.0001192093,0.2382156,0.2585996,7.413994,7.351267,7.19,NaN,0,8.800095000000001,5,4
198413,132337820,0.2256051,0.0002185404,0.2326328,0.2585996,7.413232,7.355016,6.92,NaN,0,8.789804999999999,5,7
198859,132445692,0.227247,0.0005305558,0.2276151,0.2585996,7.412542,7.357002,6.67,NaN,0,8.776953000000001,4,8
199268,132550455,0.2308089,0.0009843558,0.2313014,0.2585996,7.411853,7.359768,7.14,NaN,0,8.765359999999999,4,7
199714,132657518,0.2397851,0.001239404,0.2332413,0.2585996,7.411121,7.361619,7.4,NaN,0,8.752219,4,5
200126,132764650,0.2276028,0.001214772,0.235463,0.2585996,7.410324,7.36425,7.24,NaN,0,8.740644,3,5
200573,132871026,0.233014,0.001114845,0.2371814,0.2585996,7.40943,7.367989,7.32,NaN,0,8.727157,3,4
201014,132979371,0.240739,0.001057729,0.2390821,0.2585996,7.408391,7.372251,7.22,NaN,0,8.714664000000001,2,2
201432,133086970,0.2375638,0.0009816438,0.2380317,0.2585996,7.407168,7.375644,7.11,NaN,0,8.698915,1,2
201874,133195551,0.2403888,0.0009669363,0.239243,0.2585996,7.405737,7.375581,7.44,NaN,0,8.678901,1,1
202292,133301335,0.2446014,0.0009039491,0.240474,0.2585996,7.404132,7.374586,7.23,NaN,0,8.658756,1,0
202735,133409194,0.2408554,0.0008479059,0.2429089,0.2585996,7.402445,7.374632,7.23,NaN,0,8.637257999999999,0,0
203181,133514667,0.2424968,0.000784263,0.2441386,0.2585996,7.400611,7.373378,7.63,NaN,0,8.615259,0,0
203623,133622905,0.2423047,0.0006750971,0.2434538,0.2585996,7.398756,7.375118,7.46,NaN,0,8.594652,0,0
204072,133728827,0.2350707,0.0006177573999999999,0.2429551,0.2585996,7.396764,7.379236,7.47,NaN,0,8.574837,0,0
204480,133835908,0.2341529,0.0006647557,0.2425726,0.2585996,7.394638,7.383254,7.23,NaN,0,8.554921,-1,-1
204923,133943175,0.237414,0.0006036311,0.2413474,0.2585996,7.392333,7.385078,7.39,NaN,0,8.53298,-1,-1
205367,134050880,0.2447396,0.0006336868,0.2414814,0.2585996,7.389854,7.383882,7.47,NaN,0,8.505445999999999,-2,-1
205810,134158490,0.2411099,0.0005272776,0.2412535,0.2585996,7.387247,7.383346,7.42,NaN,0,8.479383,-2,-1
206260,134265792,0.2376075,0.000443086,0.2371539,0.2585996,7.384539,7.383965,7.29,NaN,0,8.453512999999999,-2,0
206674,134374186,0.2357896,0.0004606694,0.2369533,0.2585996,7.381741,7.3836,7.58,NaN,0,8.426017999999999,-3,-1
207122,134480908,0.2370562,0.0005589426,0.2374028,0.2585996,7.378875,7.383091,7.31,NaN,0,8.398997,-3,-2
207531,134590176,0.2364185,0.0006785095000000001,0.2389403,0.2585996,7.375962,7.381381,7.37,NaN,0,8.368402,-3,-2
207981,134697313,0.2318256,0.000633806,0.2361975,0.2585996,7.37304,7.379026,7.12,NaN,0,8.337954999999999,-3,-1
208421,134804800,0.2313468,0.0005538016999999999,0.2330286,0.2585996,7.370145,7.37606,7.3,NaN,0,8.306265,-3,-1
208867,134911613,0.2262336,0.0004469603,0.2286374,0.2585996,7.367325,7.372788,7.37,NaN,0,8.273299,-3,0
209278,135018655,0.2363475,0.0005384237,0.2303483,0.2585996,7.364688,7.369523,7.41,NaN,0,8.240341000000001,-3,-1
209724,135123373,0.237907,0.000598073,0.2355288,0.2585996,7.362126,7.366117,7.68,NaN,0,8.207241,-3,-2
210169,135232308,0.2406316,0.0007639825,0.2400314,0.2585996,7.35974,7.365005,7.35,NaN,0,8.174841000000001,-2,-3
210618,135340904,0.2451658,0.001191288,0.2411665,0.2585996,7.357521,7.364256,7.45,NaN,0,8.142087,-2,-3
211062,135448071,0.2400808,0.001597419,0.2427846,0.2585996,7.355451,7.363603,7.32,NaN,0,8.110847,-2,-4
211472,135556913,0.2341265,0.001723751,0.2393841,0.2585996,7.353516,7.362151,7.55,NaN,0,8.076328999999999,-2,-2
211918,135664575,0.2384129,0.001827046,0.2385,0.2585996,7.351716,7.36091,7.73,NaN,0,8.041313000000001,-2,-2
212330,135772501,0.2370196,0.001727596,0.2403078,0.2585996,7.350088,7.361991,7.53,NaN,0,8.008533999999999,-2,-2
212777,135878121,0.2420258,0.00167565,0.2406832,0.2585996,7.348505,7.363971,7.79,NaN,0,7.973992,-3,-3
213219,135986309,0.2285042,0.001558036,0.239911,0.2585996,7.347003,7.368321,7.74,NaN,0,7.942523,-3,-2
213635,136090853,0.2371589,0.000587374,0.2330802,0.2585996,7.345425,7.374369,7.71,NaN,0,7.914604,-4,-1
214077,136199007,0.2340791,0.0004283935,0.2349443,0.2585996,7.343765,7.379587,7.49,NaN,0,7.883202,-5,-3
214524,136305346,0.2471035,0.003739402,0.241739,0.2585996,7.341874,7.381472,7.52,NaN,0,7.849267,-6,-5
214966,136413611,0.2376703,0.007265925,0.2475939,0.2585996,7.339856,7.378153,7.95,NaN,0,7.813478,-6,-7
215410,136519618,0.2514427,0.008350104000000001,0.2526151,0.2585996,7.337678,7.376339,7.74,NaN,0,7.781771,-6,-8
215851,136625804,0.2432411,0.006604582,0.2536451,0.2585996,7.335566,7.3747,7.33,NaN,0,7.75352,-6,-8
216299,136730553,0.2393474,0.005069584,0.2488143,0.2585996,7.333323,7.370781,7.32,NaN,0,7.724586,-6,-7
216708,136837271,0.2419683,0.004464924,0.2473119,0.2585996,7.331184,7.366168,7.46,NaN,0,7.698243,-5,-8
217151,136948049,0.2468739,0.004547745,0.2488306,0.2585996,7.329102,7.360635,7.4,NaN,0,7.671767,-5,-6
217597,137055783,0.2422408,0.004362792,0.2475946,0.2585996,7.327204,7.355143,6.96,NaN,0,7.648712,-4,-6
218038,137163571,0.2505362,0.004581004,0.2488422,0.2585996,7.325554,7.345623,7.45,NaN,0,7.623225,-3,-5
218482,137269899,0.251585,0.00454542,0.2509406,0.2585996,7.324264,7.334064,7.12,NaN,0,7.598009,-2,-5
218895,137377377,0.2507884,0.00437516,0.2503662,0.2585996,7.323472,7.324387,7.14,NaN,0,7.576354,0,-3
219342,137483887,0.2503491,0.004362941,0.2516664,0.2585996,7.323212,7.317517,7.17,NaN,0,7.560878,0,-1
219782,137593189,0.2516061,0.004568994,0.250293,0.2585996,7.323514,7.312158,7.05,NaN,0,7.547531,1,-1
220228,137698105,0.2473945,0.004299685,0.2521633,0.2585996,7.324385,7.308156,7.28,NaN,0,7.538304,2,0
220669,137807048,0.2412866,0.004132673,0.2497983,0.2585996,7.325757,7.30254,7.28,NaN,0,7.528087,4,2
221114,137913777,0.2496293,0.004322737,0.2508935,0.2585996,7.327696,7.298779,7.28,NaN,0,7.522289,5,3
221525,138021540,0.2438523,0.004179895,0.2508332,0.2585996,7.330141,7.296479,7.62,NaN,0,7.520621,6,4
221970,138127307,0.2416069,0.004209012,0.2481903,0.2585996,7.333028,7.300784,7.13,NaN,0,7.526888,6,5
222413,138234850,0.2437575,0.004131898,0.248449,0.2585996,7.336229,7.304316,7.6,NaN,0,7.53335,6,7
222856,138341845,0.2385327,0.002871484,0.2465096,0.2585996,7.339625,7.310782,7.45,NaN,0,7.543546,6,7
223303,138450062,0.2362142,0.001120299,0.2415159,0.2585996,7.343077,7.319184,7.45,NaN,0,7.557273,6,7
223745,138556343,0.2409576,0.0004322678,0.2395729,0.2585996,7.346437,7.32951,7.43,NaN,0,7.572047,5,7
224191,138662886,0.2413471,0.0003872216,0.239987,0.2585996,7.349548,7.340832,7.34,NaN,0,7.588694,3,5
224427,138769312,0.2381723,0.0003890544,0.2402834,0.2585996,7.35221,7.349457,7.27,NaN,0,7.603453,2,4
224834,138876661,0.2404776,0.0004206896,0.240522,0.2585996,7.35449,7.354722,7.51,NaN,0,7.612258,2,3
225244,138986655,0.2452923,0.0005056113,0.2442775,0.2585996,7.356256,7.358477,7.23,NaN,0,7.621255,1,1
225688,139092767,0.2351308,0.0007172525,0.2416007,0.2585996,7.357627,7.359707,7.42,NaN,0,7.625781,1,1
226129,139200575,0.2456253,0.00154981,0.2443936,0.2585996,7.358558,7.359687,7.4,NaN,0,7.629926,0,0
226573,139304916,0.2415732,0.003069639,0.2460092,0.2585996,7.359221,7.358911,7.39,NaN,0,7.633132,0,0
227014,139412080,0.2508737,0.004874974,0.2469164,0.2585996,7.359613,7.358757,7.15,NaN,0,7.636611,0,0
227462,139518144,0.245675,0.006132081,0.2496296,0.2585996,7.359807,7.357143,6.97,NaN,0,7.63817,0,-1
227904,139623802,0.2540275,0.007108837,0.257717,0.2585996,7.359855,7.35128,7.23,NaN,0,7.635412,0,-1
228351,139730654,0.254909,0.006927252,0.2611533,0.2585996,7.359879,7.342375,6.9,NaN,0,7.628972,1,-3
228789,139838336,0.2586663,0.00721702,0.2642989,0.2585996,7.360034,7.329052,6.91,NaN,0,7.619257,3,-2
229203,139943515,0.2554133,0.007085115,0.2631046,0.2585996,7.3605,7.317044,6.87,NaN,0,7.610599,5,0
229648,140051552,0.25042,0.007035404,0.2614731,0.2585996,7.361434,7.305316,7.36,NaN,0,7.601068,6,1
230058,140160919,0.2569446,0.007580072,0.2623162,0.2585996,7.362901,7.296211,7.49,NaN,0,7.594138,8,3
230503,140267671,0.2497783,0.007479683,0.2622743,0.2585996,7.365008,7.296523,8.35,NaN,0,7.596738,9,7
230949,140375771,0.2440008,0.00726971,0.2550401,0.2585996,7.36762,7.308187,8.31,NaN,0,7.609074,8,8
231396,140482602,0.2507224,0.007918863999999999,0.2495709,0.2585996,7.370456,7.331747,8.130000000000001,NaN,0,7.633846,6,9
231838,140591814,0.2359292,0.007526353,0.2472422,0.2585996,7.373097,7.361765,7.7,NaN,0,7.666237,3,9
232285,140698071,0.2214209,0.006750792,0.2377402,0.2585996,7.375107,7.387488,7.6,NaN,0,7.692281,0,9
232698,140804379,0.2203102,0.006473944,0.2329151,0.2585996,7.376155,7.410072,8.02,NaN,0,7.715826,-2,7
233143,140911597,0.2173432,0.006194398,0.2311382,0.2585996,7.376034,7.43059,7.83,NaN,0,7.737741,-6,3
233553,141018783,0.2192285,0.006393775,0.2303004,0.2585996,7.374615,7.446697,7,NaN,0,7.754732,-9,-1
233997,141125583,0.235574,0.007327542,0.2358846,0.2585996,7.371873,7.449664,7.62,NaN,0,7.757073,-11,-5
234439,141235549,0.2301417,0.007503539,0.2401457,0.2585996,7.36797,7.446203,7.38,NaN,0,7.754598,-12,-11
234854,141344055,0.2319838,0.007528812,0.2421626,0.2585996,7.363168,7.437374,7.85,NaN,0,7.746401,-12,-11
235293,141452675,0.2356313,0.007582098,0.2421376,0.2585996,7.357762,7.427517,8.44,NaN,0,7.735225,-12,-12
235738,141560194,0.2350525,0.007536963,0.2414771,0.2585996,7.352016,7.424298,8.119999999999999,NaN,0,7.732127,-13,-12
236187,141666622,0.2358418,0.007549793,0.2393787,0.2585996,7.34605,7.424952,6.79,NaN,0,7.730317,-14,-12
236629,141776087,0.2241584,0.007248864,0.2355174,0.2585996,7.33989,7.421575,5.9,NaN,0,7.725482,-14,-12
237043,141884013,0.2561494,0.008898944000000001,0.2469707,0.2585996,7.333653,7.397748,5.52,NaN,0,7.699298,-12,-16
237484,141992059,0.2766112,0.01046538,0.2750096,0.2585996,7.327742,7.356731,5.56,NaN,0,7.656221,-8,-21
237929,142098491,0.2346177,0.008370280000000001,0.2682287,0.2585996,7.322766,7.305479,5.18,NaN,0,7.601658,-2,-13
238372,142207575,0.2331704,0.006394684,0.245351,0.2585996,7.319453,7.248739,4.71,NaN,0,7.542698,4,-4
238816,142313249,0.2523099,0.004335761,0.2475913,0.2585996,7.318235,7.196618,5.74,NaN,0,7.48693,12,1
239257,142421897,0.2410393,0.001811802,0.251834,0.2585996,7.319727,7.147524,5.38,NaN,0,7.434746,20,8
239704,142527915,0.2110849,0.0004558861,0.2336993,0.2585996,7.324275,7.112591,5.62,NaN,0,7.396266,27,21
240116,142635188,0.2853959,0.0003320575,0.2474114,0.2585996,7.331951,7.087422,5.01,NaN,0,7.366848,34,24
240563,142741137,0.2762579,0.0004201233,0.2695565,0.2585996,7.342645,7.061575,5.49,NaN,0,7.337651,40,25
241005,142847786,0.2541563,0.000498265,0.2657919,0.2585996,7.355846,7.042424,5.78,NaN,0,7.314975,47,35
241448,142958856,0.2483161,0.0004371256,0.2528766,0.2585996,7.372509,7.040322,5.69,NaN,0,7.308898,51,45
241894,143065137,0.2627324,0.0007174015,0.2570447,0.2585996,7.39105,7.041613,5.35,NaN,0,7.306389,55,47
242305,143174078,0.2533486,0.0008732378,0.2606502,0.2585996,7.410874,7.043951,5.47,NaN,0,7.305401,58,51
242750,143279650,0.2466089,0.0007621199,0.2548286,0.2585996,7.432668,7.054747,6.04,NaN,0,7.313406,61,56
243158,143387359,0.2419622,0.0007677376,0.2473952,0.2585996,7.455506,7.07117,6.07,NaN,0,7.325494,62,61
243606,143494368,0.2437101,0.0005475581,0.250894,0.2585996,7.47893,7.093305,6.73,NaN,0,7.34502,63,61
244047,143603319,0.2328752,0.0003627837,0.2454404,0.2585996,7.502478,7.127862,6.93,NaN,0,7.375694,62,64
244492,143709158,0.2158967,0.004346862,0.2329686,0.2585996,7.525561,7.175426,7.36,NaN,0,7.420092,58,67
244934,143818523,0.2093503,0.008695975,0.2166922,0.2585996,7.547506,7.23222,7.4,NaN,0,7.473514,53,68
245380,143923860,0.2173155,0.01075755,0.2221176,0.2585996,7.567586,7.291869,7.76,NaN,0,7.530675,47,63
245789,144030851,0.2329832,0.01045488,0.2308782,0.2585996,7.584695,7.35572,8.1,NaN,0,7.591116,39,53
246236,144137566,0.2149617,0.008505151000000001,0.2334754,0.2585996,7.599157,7.416238,8.140000000000001,NaN,0,7.650657,31,45
246677,144243769,0.2160687,0.008218794999999999,0.2237307,0.2585996,7.609992,7.479772,8.09,NaN,0,7.71326,22,38
247085,144350597,0.2254753,0.007918641000000001,0.228344,0.2585996,7.616815,7.533306,8.039999999999999,NaN,0,7.765596,13,26
247528,144455929,0.2201169,0.002555951,0.2236969,0.2585996,7.619418,7.582815,8.609999999999999,NaN,0,7.813786,4,16
247971,144564074,0.2179692,4.217029e-05,0.2255353,0.2585996,7.617744,7.619717,8.51,NaN,0,7.849802,-4,6
248414,144670637,0.2179813,0.0006715655,0.2201962,0.2585996,7.611945,7.643657,8.81,NaN,0,7.872858,-11,-1
248824,144780813,0.2186765,0.0009999722000000001,0.2188803,0.2585996,7.602339,7.656964,8.58,NaN,0,7.884555,-17,-10
249272,144887358,0.2231131,0.0007989854,0.2224658,0.2585996,7.589372,7.656738,8.640000000000001,NaN,0,7.884268,-21,-16
249712,144996039,0.2442268,0.0005883425,0.2314241,0.2585996,7.574063,7.64857,9.140000000000001,NaN,0,7.874963,-25,-23
250159,145101567,0.2629987,0.0003873706,0.2485307,0.2585996,7.556196,7.631765,8.93,NaN,0,7.857274,-27,-31
250598,145210813,0.270324,8.33869e-05,0.2613224,0.2585996,7.5368,7.607085,9.380000000000001,NaN,0,7.832532,-28,-36
251048,145318095,0.2604589,8.407235e-05,0.2620598,0.2585996,7.51653,7.580511,9.279999999999999,NaN,0,7.804806,-27,-37
251490,145427638,0.2738186,0.0007196963,0.267784,0.2585996,7.495982,7.550699,9.31,NaN,0,7.774117,-27,-37
251935,145534054,0.2696037,0.002133459,0.269803,0.2585996,7.475686,7.523538,8.83,NaN,0,7.746422,-25,-35
252346,145643631,0.2638259,0.004952639,0.272232,0.2585996,7.456054,7.496637,8.93,NaN,0,7.718911,-24,-32
252792,145756040,0.252942,0.008509696000000001,0.2678817,0.2585996,7.436454,7.474387,8.890000000000001,NaN,0,7.698934,-22,-27
253238,145862634,0.2368764,0.01145543,0.2603641,0.2585996,7.419034,7.460914,8.68,NaN,0,7.691366,-21,-21
253681,145971056,0.2307723,0.01191585,0.2479095,0.2585996,7.402808,7.451119,8.890000000000001,NaN,0,7.689902,-21,-16
254126,146078518,0.2523737,0.01042449,0.2521408,0.2585996,7.387733,7.439569,8.92,NaN,0,7.687758,-20,-16
254569,146185667,0.2435949,0.007835716,0.2536206,0.2585996,7.374146,7.437086,8.94,NaN,0,7.697933,-20,-15
255013,146291919,0.240949,0.006002665,0.2474986,0.2585996,7.361164,7.449909,8.76,NaN,0,7.724398,-22,-15
255452,146400786,0.2534963,0.005396247,0.2540597,0.2585996,7.348799,7.463417,8.390000000000001,NaN,0,7.753707,-24,-18
255898,146506867,0.2301937,0.005186811,0.2509789,0.2585996,7.336706,7.481048,8.58,NaN,0,7.788031,-27,-19
256310,146614699,0.2284978,0.006468683,0.2410083,0.2585996,7.324568,7.50007,8.279999999999999,NaN,0,7.825263,-30,-20
256753,146720703,0.2327454,0.007727131,0.2377083,0.2585996,7.312088,7.513976,8.460000000000001,NaN,0,7.859258,-33,-23
257195,146829294,0.213917,0.00756155,0.2289029,0.2585996,7.299098,7.521115,8.49,NaN,0,7.887271,-36,-23
257645,146938874,0.2159028,0.006253704,0.2250279,0.2585996,7.285189,7.526417,8.23,NaN,0,7.915584,-38,-26
258087,147047636,0.2165366,0.005580783,0.2248882,0.2585996,7.271105,7.520879,8.529999999999999,NaN,0,7.932651,-40,-29
258497,147156313,0.2304475,0.005481362,0.2288469,0.2585996,7.257039,7.515324,8.31,NaN,0,7.949313,-41,-33
258943,147262904,0.2202213,0.004972234,0.2322791,0.2585996,7.242392,7.504077,8.5,NaN,0,7.960695,-41,-36
259383,147370631,0.2165163,0.003991276,0.2263586,0.2585996,7.227757,7.493546,8.25,NaN,0,7.971663,-41,-36
