LineNo,TimeUS,Instance,RPM,RawRPM,Volt,Curr,Temp,CTot,MotTemp,Err
1815,3.3718e+07,0,0,0,16.67,0.04,28,0,0,0
2270,3.3831e+07,0,0,0,16.67,0.04,28,0,0,0
3103,3.4041e+07,0,0,0,16.67,0.04,28,0,0,0
3527,3.4145e+07,0,0,0,16.66,0.04,28,0,0,0
3979,3.426e+07,0,0,0,16.67,0.04,28,0,0,0
4393,3.4362e+07,0,0,0,16.67,0.04,28,0,0,0
4845,3.448e+07,0,0,0,16.66,0.04,28,0,0,0
5221,3.4571e+07,0,0,0,16.67,0.04,28,0,0,0
5702,3.469e+07,0,0,0,16.67,0.04,28,0,0,0
6083,3.4788e+07,0,0,0,16.67,0.04,28,0,0,0
6533,3.4903e+07,0,0,0,16.67,0.04,28,0,0,0
7357,3.5111e+07,0,0,0,16.67,0.04,28,0,0,0
7810,3.5224e+07,0,0,0,16.67,0.04,28,0,0,0
8230,3.5333e+07,0,0,0,16.67,0.04,28,0,0,0
8642,3.5436e+07,0,0,0,16.67,0.04,28,0,0,0
9105,3.5554e+07,0,0,0,16.66,0.04,28,0,0,0
9476,3.5648e+07,0,0,0,16.67,0.04,28,0,0,0
9931,3.5764e+07,0,0,0,16.67,0.04,28,0,0,0
10344,3.587e+07,0,0,0,16.67,0.04,28,0,0,0
10657,3.5972e+07,0,0,0,16.67,0.04,28,0,0,0
11117,3.6085e+07,0,0,0,16.67,0.04,28,0,0,0
11537,3.6191e+07,0,0,0,16.67,0.04,28,0,0,0
11987,3.6304e+07,0,0,0,16.67,0.04,28,0,0,0
12400,3.6408e+07,0,0,0,16.67,0.04,28,0,0,0
12811,3.6515e+07,0,0,0,16.67,0.04,28,0,0,0
13267,3.6627e+07,0,0,0,16.66,0.04,28,0,0,0
13682,3.6734e+07,0,0,0,16.67,0.05,28,0,0,0
14092,3.684e+07,0,0,0,16.67,0.05,28,0,0,0
14512,3.6952e+07,0,0,0,16.67,0.04,28,0,0,0
14923,3.7053e+07,0,0,0,16.67,0.04,28,0,0,0
15333,3.7159e+07,0,0,0,16.67,0.04,28,0,0,0
15781,3.7271e+07,0,0,0,16.67,0.04,28,0,0,0
16196,3.7371e+07,0,0,0,16.67,0.04,28,0,0,0
16641,3.7481e+07,0,0,0,16.67,0.04,28,0,0,0
17064,3.7587e+07,0,0,0,16.67,0.04,28,0,0,0
17514,3.7701e+07,0,0,0,16.67,0.04,28,0,0,0
17930,3.7807e+07,0,0,0,16.67,0.04,28,0,0,0
18341,3.791e+07,0,0,0,16.67,0.04,28,0,0,0
18795,3.8023e+07,0,0,0,16.67,0.04,28,0,0,0
19213,3.8128e+07,0,0,0,16.66,0.04,28,0,0,0
19620,3.8231e+07,0,0,0,16.67,0.04,28,0,0,0
20083,3.8347e+07,0,0,0,16.67,0.04,28,0,0,0
20497,3.8449e+07,0,0,0,16.67,0.04,28,0,0,0
20885,3.8552e+07,0,0,0,16.66,0.04,28,0,0,0
21336,3.8663e+07,0,0,0,16.67,0.04,28,0,0,0
21748,3.8769e+07,0,0,0,16.67,0.04,28,0,0,0
22202,3.8884e+07,0,0,0,16.67,0.04,28,0,0,0
22578,3.898e+07,0,0,0,16.67,0.04,28,0,0,0
23062,3.9098e+07,0,0,0,16.67,0.04,28,0,0,0
23474,3.9204e+07,0,0,0,16.67,0.04,28,0,0,0
23882,3.931e+07,0,0,0,16.66,0.04,28,0,0,0
24299,3.9416e+07,0,0,0,16.67,0.04,28,0,0,0
24721,3.9523e+07,0,0,0,16.67,0.04,28,0,0,0
25134,3.9626e+07,0,0,0,16.67,0.04,28,0,0,0
25583,3.9734e+07,0,0,0,16.67,0.04,28,0,0,0
26039,3.9851e+07,0,0,0,16.67,0.04,28,0,0,0
26453,3.9955e+07,0,0,0,16.67,0.04,28,0,0,0
26865,4.006e+07,0,0,0,16.67,0.04,28,0,0,0
27320,4.0176e+07,0,0,0,16.67,0.04,28,0,0,0
27730,4.0279e+07,0,0,0,16.66,0.04,28,0,0,0
28193,4.0392e+07,0,0,0,16.67,0.04,28,0,0,0
28609,4.05e+07,0,0,0,16.67,0.04,28,0,0,0
29026,4.0604e+07,0,0,0,16.67,0.03,28,0,0,0
29438,4.0709e+07,0,0,0,16.67,0.04,28,0,0,0
29894,4.0824e+07,0,0,0,16.67,0.04,28,0,0,0
30307,4.093e+07,0,0,0,16.67,0.03,28,0,0,0
30727,4.1037e+07,0,0,0,16.67,0.04,28,0,0,0
31136,4.1141e+07,0,0,0,16.67,0.04,28,0,0,0
31590,4.1255e+07,0,0,0,16.66,0.04,28,0,0,0
32001,4.1361e+07,0,0,0,16.67,0.04,28,0,0,0
32415,4.1469e+07,0,0,0,16.67,0.04,28,0,0,0
32874,4.1583e+07,0,0,0,16.67,0.04,28,0,0,0
33287,4.1688e+07,0,0,0,16.67,0.04,28,0,0,0
33702,4.1791e+07,0,0,0,16.67,0.04,28,0,0,0
34153,4.1907e+07,0,0,0,16.67,0.04,28,0,0,0
34982,4.2118e+07,0,0,0,16.67,0.04,28,0,0,0
35393,4.2224e+07,0,0,0,16.67,0.04,28,0,0,0
35849,4.2336e+07,0,0,0,16.67,0.04,28,0,0,0
36266,4.2443e+07,0,0,0,16.67,0.04,28,0,0,0
36686,4.2551e+07,0,0,0,16.67,0.04,28,0,0,0
37512,4.2763e+07,0,0,0,16.67,0.04,28,0,0,0
37962,4.2879e+07,0,0,0,16.67,0.04,28,0,0,0
38376,4.2983e+07,0,0,0,16.67,0.04,28,0,0,0
38826,4.3095e+07,0,0,0,16.67,0.04,28,0,0,0
39242,4.3203e+07,0,0,0,16.66,0.04,28,0,0,0
39655,4.3311e+07,0,0,0,16.67,0.04,28,0,0,0
40071,4.3418e+07,0,0,0,16.67,0.04,28,0,0,0
40903,4.3631e+07,0,0,0,16.67,0.04,28,0,0,0
41315,4.3732e+07,0,0,0,16.67,0.04,28,0,0,0
41766,4.3849e+07,0,0,0,16.67,0.04,28,0,0,0
42178,4.3951e+07,0,0,0,16.67,0.04,28,0,0,0
42587,4.4054e+07,0,0,0,16.67,0.04,28,0,0,0
43460,4.4277e+07,0,0,0,16.66,0.04,28,0,0,0
43872,4.4379e+07,0,0,0,16.67,0.04,28,0,0,0
44292,4.4486e+07,0,0,0,16.67,0.04,28,0,0,0
44708,4.4592e+07,0,0,0,16.66,0.04,28,0,0,0
45124,4.4697e+07,0,0,0,16.67,0.04,28,0,0,0
45578,4.481e+07,0,0,0,16.67,0.04,28,0,0,0
45988,4.4913e+07,0,0,0,16.66,0.04,29,0,0,0
46410,4.5019e+07,0,0,0,16.67,0.04,29,0,0,0
46859,4.5131e+07,0,0,0,16.66,0.04,29,0,0,0
47275,4.5236e+07,0,0,0,16.66,0.04,28,0,0,0
47692,4.5344e+07,0,0,0,16.66,0.04,29,0,0,0
48101,4.5445e+07,0,0,0,16.66,0.04,28,0,0,0
48515,4.5553e+07,0,0,0,16.66,0.04,28,0,0,0
48965,4.5671e+07,0,0,0,16.67,0.04,29,0,0,0
49376,4.5772e+07,0,0,0,16.67,0.04,28,0,0,0
49787,4.5874e+07,0,0,0,16.67,0.04,28,0,0,0
50242,4.5989e+07,0,0,0,16.67,0.04,28,0,0,0
50649,4.6092e+07,0,0,0,16.66,0.04,29,0,0,0
51105,4.6205e+07,0,0,0,16.66,0.04,28,0,0,0
51524,4.6312e+07,0,0,0,16.67,0.04,28,0,0,0
51941,4.6418e+07,0,0,0,16.67,0.04,28,0,0,0
52353,4.6523e+07,0,0,0,16.66,0.04,28,0,0,0
52801,4.6637e+07,0,0,0,16.66,0.04,29,0,0,0
53218,4.6741e+07,0,0,0,16.66,0.04,28,0,0,0
53668,4.6853e+07,0,0,0,16.67,0.04,28,0,0,0
54089,4.6958e+07,0,0,0,16.67,0.04,29,0,0,0
54501,4.7063e+07,0,0,0,16.67,0.04,28,0,0,0
54953,4.7175e+07,0,0,0,16.67,0.04,28,0,0,0
55363,4.7278e+07,0,0,0,16.67,0.04,28,0,0,0
56062,4.7489e+07,0,0,0,16.66,0.04,28,0,0,0
56517,4.7604e+07,0,0,0,16.66,0.04,29,0,0,0
56924,4.7705e+07,0,0,0,16.67,0.04,28,0,0,0
57016,9.781e+07,0,0,0,16.66,0.04,30,0,0,0
57389,9.79e+07,0,0,0,16.65,0.04,30,0,0,0
57796,9.8003e+07,0,0,0,16.66,0.04,30,0,0,0
58294,9.8116e+07,0,0,0,16.65,0.04,30,0,0,0
58744,9.8219e+07,0,0,0,16.65,0.04,30,0,0,0
59199,9.8323e+07,0,0,0,16.65,0.04,30,0,0,0
59692,9.8438e+07,0,0,0,16.66,0.04,30,0,0,0
60145,9.8545e+07,0,0,0,16.66,0.04,30,0,0,0
60600,9.865e+07,0,0,0,16.65,0.04,30,0,0,0
61056,9.8756e+07,0,0,0,16.66,0.04,30,0,0,0
61556,9.887e+07,0,0,0,16.66,0.04,30,0,0,0
62003,9.8975e+07,0,0,0,16.65,0.04,30,0,0,0
62462,9.9082e+07,0,0,0,16.66,0.04,30,0,0,0
62903,9.9187e+07,0,0,0,16.65,0.04,30,0,0,0
63336,9.9289e+07,0,0,0,16.66,0.04,30,0,0,0
63818,9.9404e+07,0,0,0,16.65,0.04,30,0,0,0
64272,9.9505e+07,0,0,0,16.65,0.04,30,0,0,0
64768,9.9622e+07,0,0,0,16.65,0.04,30,0,0,0
65226,9.9733e+07,0,0,0,16.66,0.04,30,0,0,0
65681,9.9835e+07,0,0,0,16.65,0.04,30,0,0,0
66171,9.9947e+07,0,0,0,16.65,0.05,30,0,0,0
66627,1.0005e+08,0,30,500,16.63,0.12,30,0,0,0
67083,1.0016e+08,0,532,1014,16.61,0.17,30,0,0,0
67537,1.0026e+08,0,1023,1242,16.63,0.13,30,0,0,0
67992,1.0037e+08,0,1244,1300,16.63,0.12,30,0,0,0
68495,1.0048e+08,0,1301,1328,16.63,0.11,30,0,0,0
68938,1.0059e+08,0,1329,1342,16.63,0.11,30,0,0,0
69371,1.0069e+08,0,1342,1342,16.64,0.11,30,0,0,0
69846,1.008e+08,0,1342,1357,16.63,0.11,30,0,0,0
70558,1.0102e+08,0,1355,1342,16.64,0.11,30,0,0,0
71012,1.0113e+08,0,1342,1357,16.64,0.11,30,0,0,0
71463,1.0123e+08,0,1357,1357,16.64,0.11,30,0,0,0
71957,1.0135e+08,0,1355,1342,16.63,0.11,30,0,0,0
72868,1.0156e+08,0,1342,1342,16.63,0.11,30,0,0,0
73320,1.0167e+08,0,1342,1357,16.64,0.11,30,0,0,0
73802,1.0178e+08,0,1357,1357,16.64,0.11,30,0,0,0
74240,1.0188e+08,0,1356,1342,16.63,0.11,30,0,0,0
74687,1.0199e+08,0,1343,1357,16.61,0.14,30,0,0,0
75140,1.0209e+08,0,1362,1671,16.57,0.28,30,0,0,0
75626,1.0221e+08,0,1713,2557,16.43,1.37,30,0,0,0
76082,1.0231e+08,0,2581,3171,16.42,1.42,30,0,0,0
76535,1.0242e+08,0,3206,3714,16.3,1.74,30,0,0,0
77441,1.0264e+08,0,3756,4942,16.06,3.1,30,1,0,0
77887,1.0275e+08,0,4948,5585,15.9,3.56,30,1,0,0
78383,1.0286e+08,0,5635,6128,16.04,4.07,30,1,0,0
78831,1.0297e+08,0,6116,5957,16.1,3.07,30,1,0,0
80237,1.033e+08,0,5956,5942,16.09,3.65,30,1,0,0
80653,1.0341e+08,0,5945,6028,16.14,3.54,30,1,0,0
81105,1.0351e+08,0,6030,6100,16.13,3.65,30,1,0,0
81556,1.0362e+08,0,6100,6114,16.1,3.59,30,2,0,0
82500,1.0384e+08,0,6132,6514,15.94,4.55,30,2,0,0
82953,1.0395e+08,0,6515,6557,15.92,5.15,30,2,0,0
83404,1.0406e+08,0,6580,6885,15.89,5.16,30,2,0,0
83858,1.0417e+08,0,6879,6828,15.88,5.37,30,2,0,0
84313,1.0427e+08,0,6828,6828,15.91,5.11,30,2,0,0
84768,1.0439e+08,0,6823,6785,15.86,5.09,30,3,0,0
85184,1.0449e+08,0,6788,6857,15.88,5.16,30,3,0,0
86059,1.047e+08,0,6855,6671,15.89,4.98,30,3,0,0
86994,1.0493e+08,0,6670,6657,15.89,4.58,30,3,0,0
87447,1.0504e+08,0,6658,6671,15.85,4.57,30,3,0,0
87902,1.0515e+08,0,6662,6585,15.86,4.8,30,4,0,0
88351,1.0525e+08,0,6590,6714,15.86,4.68,30,4,0,0
88805,1.0536e+08,0,6705,6500,15.93,4.35,30,4,0,0
89302,1.0547e+08,0,6507,6585,15.96,4.28,30,4,0,0
89748,1.0558e+08,0,6576,6457,15.89,4.26,30,4,0,0
90164,1.0568e+08,0,6455,6328,15.89,4.24,30,4,0,0
90613,1.0579e+08,0,6330,6357,15.92,4.17,30,4,0,0
91107,1.0591e+08,0,6349,6271,15.85,4.21,30,5,0,0
91514,1.0601e+08,0,6275,6542,15.86,4.63,30,5,0,0
91963,1.0612e+08,0,6550,6757,15.83,5.17,30,5,0,0
92410,1.0623e+08,0,6761,6828,15.82,5.32,30,5,0,0
92814,1.0633e+08,0,6827,6814,15.78,5.5,30,5,0,0
93304,1.0645e+08,0,6820,6885,15.75,5.4,30,5,0,0
94183,1.0666e+08,0,6878,6714,15.82,5,30,6,0,0
94591,1.0677e+08,0,6725,7014,15.85,5.09,30,6,0,0
95040,1.0687e+08,0,7001,6700,15.89,4.62,30,6,0,0
95488,1.0699e+08,0,6680,6414,15.96,3.96,30,6,0,0
96332,1.072e+08,0,6412,6242,16.02,3.58,30,6,0,0
96803,1.0731e+08,0,6216,5957,16.07,3.14,30,6,0,0
97204,1.0742e+08,0,5953,5728,16.14,2.75,30,6,0,0
97691,1.0753e+08,0,5723,5671,16.07,3.06,30,7,0,0
98137,1.0764e+08,0,5679,5757,16.02,3.24,30,7,0,0
99027,1.0786e+08,0,5765,5957,16.07,3.65,30,7,0,0
99431,1.0796e+08,0,5961,6057,15.93,3.72,30,7,0,0
99884,1.0808e+08,0,6077,6300,16.03,4.12,30,7,0,0
1.0029e+05,1.0818e+08,0,6298,6171,15.97,4.09,30,7,0,0
1.0074e+05,1.0829e+08,0,6170,6157,15.95,3.77,30,7,0,0
1.0123e+05,1.0841e+08,0,6160,6200,15.98,3.87,30,7,0,0
1.0168e+05,1.0852e+08,0,6197,6171,16,3.92,30,8,0,0
1.0212e+05,1.0862e+08,0,6176,6257,15.97,4.24,30,8,0,0
1.0256e+05,1.0873e+08,0,6251,6185,15.97,4.01,30,8,0,0
1.0298e+05,1.0884e+08,0,6185,6185,15.96,3.74,30,8,0,0
1.0343e+05,1.0895e+08,0,6181,6142,15.97,4.06,31,8,0,0
1.0383e+05,1.0905e+08,0,6148,6228,15.94,4.01,31,8,0,0
1.0428e+05,1.0916e+08,0,6232,6285,15.95,4.53,31,8,0,0
1.0473e+05,1.0927e+08,0,6290,6428,15.92,4.07,31,8,0,0
1.0563e+05,1.0949e+08,0,6427,6414,15.94,4.39,31,9,0,0
1.0606e+05,1.096e+08,0,6409,6314,15.92,4.21,31,9,0,0
1.0651e+05,1.0971e+08,0,6324,6457,15.91,4.38,31,9,0,0
1.0691e+05,1.0981e+08,0,6456,6414,15.91,4.11,31,9,0,0
1.0741e+05,1.0993e+08,0,6403,6257,15.97,4.31,31,9,0,0
1.0786e+05,1.1004e+08,0,6273,6428,15.89,4.38,31,9,0,0
1.0834e+05,1.1015e+08,0,6422,6371,15.92,4.28,31,9,0,0
1.0874e+05,1.1025e+08,0,6374,6442,15.91,4.65,31,10,0,0
1.0919e+05,1.1036e+08,0,6441,6414,15.91,4.15,31,10,0,0
1.0965e+05,1.1047e+08,0,6416,6457,15.89,4.51,31,10,0,0
1.1009e+05,1.1058e+08,0,6458,6471,15.85,4.44,31,10,0,0
1.105e+05,1.1068e+08,0,6471,6485,15.85,4.42,31,10,0,0
1.1094e+05,1.108e+08,0,6483,6457,15.91,4.4,31,10,0,0
1.1137e+05,1.1091e+08,0,6449,6371,15.86,4.4,31,10,0,0
1.1177e+05,1.1101e+08,0,6377,6528,15.85,4.56,31,11,0,0
1.1222e+05,1.1112e+08,0,6524,6457,15.91,4.14,31,11,0,0
1.1266e+05,1.1123e+08,0,6456,6442,15.96,4.41,31,11,0,0
1.1311e+05,1.1134e+08,0,6441,6400,15.98,4.05,31,11,0,0
1.1356e+05,1.1145e+08,0,6397,6371,15.96,3.97,31,11,0,0
1.1401e+05,1.1156e+08,0,6368,6328,15.95,4.12,31,11,0,0
1.1446e+05,1.1166e+08,0,6328,6342,15.95,4.1,31,11,0,0
1.149e+05,1.1178e+08,0,6339,6285,15.99,3.88,31,11,0,0
1.1535e+05,1.1188e+08,0,6285,6300,15.88,4.3,31,12,0,0
1.1624e+05,1.121e+08,0,6300,6300,15.88,4.1,31,12,0,0
1.1669e+05,1.1222e+08,0,6289,6185,15.89,4.46,31,12,0,0
1.1714e+05,1.1232e+08,0,6199,6400,15.86,4.53,31,12,0,0
1.1758e+05,1.1243e+08,0,6410,6514,15.95,4.28,31,12,0,0
1.1803e+05,1.1254e+08,0,6514,6514,15.86,4.38,31,12,0,0
1.1888e+05,1.1275e+08,0,6513,6428,15.94,4.23,31,13,0,0
1.1934e+05,1.1286e+08,0,6429,6500,15.89,4.35,31,13,0,0
1.1978e+05,1.1297e+08,0,6494,6357,15.94,4.12,31,13,0,0
1.2023e+05,1.1308e+08,0,6359,6514,15.97,4.54,31,13,0,0
1.2067e+05,1.1319e+08,0,6501,6300,15.96,3.67,31,13,0,0
1.2112e+05,1.133e+08,0,6312,6428,15.96,4.9,31,13,0,0
1.2202e+05,1.1352e+08,0,6430,6471,15.92,4.31,31,13,0,0
1.2242e+05,1.1363e+08,0,6476,6514,15.95,4.41,31,14,0,0
1.2329e+05,1.1385e+08,0,6516,6571,15.97,4.18,31,14,0,0
1.2373e+05,1.1396e+08,0,6530,6214,15.85,4.38,31,14,0,0
1.2461e+05,1.1417e+08,0,6226,6485,15.82,4.5,32,14,0,0
1.2502e+05,1.1427e+08,0,6485,6542,15.78,4.73,31,14,0,0
1.2551e+05,1.1439e+08,0,6582,6857,15.79,5.6,32,15,0,0
1.2592e+05,1.1449e+08,0,6853,6628,15.82,5.05,32,15,0,0
1.2636e+05,1.146e+08,0,6625,6442,15.79,4.15,32,15,0,0
1.2681e+05,1.1471e+08,0,6442,6457,15.74,4.59,32,15,0,0
1.2729e+05,1.1482e+08,0,6457,6471,15.74,4.43,32,15,0,0
1.2774e+05,1.1493e+08,0,6460,6371,15.71,4.68,32,15,0,0
1.2814e+05,1.1503e+08,0,6375,6628,15.72,4.85,32,15,0,0
1.2859e+05,1.1514e+08,0,6627,6614,15.73,5.11,32,16,0,0
1.2903e+05,1.1525e+08,0,6613,6585,15.74,4.59,32,16,0,0
1.2952e+05,1.1537e+08,0,6573,6457,15.76,4.28,32,16,0,0
1.2998e+05,1.1547e+08,0,6463,6528,15.76,4.27,32,16,0,0
1.3038e+05,1.1557e+08,0,6525,6428,15.75,4.1,32,16,0,0
1.3083e+05,1.1568e+08,0,6422,6342,15.67,4.06,32,16,0,0
1.3127e+05,1.1579e+08,0,6338,6271,15.74,3.49,32,16,0,0
1.3213e+05,1.1601e+08,0,6268,5942,15.65,3.56,32,17,0,0
1.3257e+05,1.1611e+08,0,5944,6100,15.68,3.89,32,17,0,0
1.3306e+05,1.1624e+08,0,6103,6128,15.67,3.98,32,17,0,0
1.3347e+05,1.1634e+08,0,6124,6085,15.8,3.73,32,17,0,0
1.3392e+05,1.1644e+08,0,6087,6114,15.74,3.82,32,17,0,0
1.3437e+05,1.1656e+08,0,6115,6128,15.77,3.75,32,17,0,0
1.3477e+05,1.1666e+08,0,6140,6371,15.71,4.09,32,17,0,0
1.3522e+05,1.1677e+08,0,6373,6471,15.84,4.42,32,17,0,0
1.3568e+05,1.1688e+08,0,6452,6214,15.83,3.92,32,18,0,0
1.3612e+05,1.1699e+08,0,6205,6071,15.82,3.83,32,18,0,0
1.3657e+05,1.171e+08,0,6075,6171,15.8,3.81,32,18,0,0
1.3702e+05,1.1721e+08,0,6172,6185,15.81,4.03,32,18,0,0
1.3746e+05,1.1732e+08,0,6170,6042,15.95,3.48,32,18,0,0
1.3786e+05,1.1742e+08,0,6027,5728,15.91,2.73,32,18,0,0
1.3836e+05,1.1755e+08,0,5688,5457,15.89,2.48,32,18,0,0
1.3875e+05,1.1764e+08,0,5454,5357,15.82,2.91,32,18,0,0
1.3924e+05,1.1776e+08,0,5379,5614,15.87,3.42,32,18,0,0
1.3965e+05,1.1786e+08,0,5616,5714,15.77,3.6,32,18,0,0
1.401e+05,1.1797e+08,0,5733,5928,15.76,3.76,32,19,0,0
1.4099e+05,1.1819e+08,0,5928,5928,15.78,3.58,32,19,0,0
1.4144e+05,1.183e+08,0,5911,5742,15.86,2.93,32,19,0,0
1.4185e+05,1.184e+08,0,5745,5828,15.83,3.26,32,19,0,0
1.4233e+05,1.1851e+08,0,5823,5728,15.79,3.29,32,19,0,0
1.4275e+05,1.1862e+08,0,5731,5785,15.74,3.4,32,19,0,0
1.4323e+05,1.1874e+08,0,5780,5757,15.88,3.31,32,19,0,0
1.4364e+05,1.1884e+08,0,5762,5814,15.86,3.36,32,19,0,0
1.4409e+05,1.1896e+08,0,5807,5742,15.83,3.22,32,20,0,0
1.4449e+05,1.1905e+08,0,5749,5842,15.77,3.39,32,20,0,0
1.4494e+05,1.1917e+08,0,5840,5828,15.82,3.39,32,20,0,0
1.4534e+05,1.1926e+08,0,5828,5857,15.81,3.55,32,20,0,0
1.4582e+05,1.1938e+08,0,5863,6014,15.77,3.78,32,20,0,0
1.4628e+05,1.1949e+08,0,6021,6100,15.85,3.55,32,20,0,0
1.4672e+05,1.196e+08,0,6096,6042,15.82,3.66,32,20,0,0
1.4717e+05,1.1971e+08,0,6045,6085,15.79,3.7,32,20,0,0
1.4758e+05,1.1982e+08,0,6077,6000,15.78,3.55,32,20,0,0
1.4802e+05,1.1992e+08,0,5997,5942,15.85,3.7,32,20,0,0
1.4847e+05,1.2004e+08,0,5950,6042,15.86,3.58,32,21,0,0
1.4893e+05,1.2015e+08,0,6036,5985,15.84,3.63,32,21,0,0
1.4933e+05,1.2025e+08,0,5991,6085,15.85,3.63,32,21,0,0
1.4978e+05,1.2036e+08,0,6084,6071,15.85,3.76,32,21,0,0
1.5024e+05,1.2047e+08,0,6066,6014,15.83,4.08,32,21,0,0
1.5071e+05,1.2058e+08,0,6026,6200,15.79,4.23,32,21,0,0
1.5116e+05,1.2069e+08,0,6205,6328,15.84,4.07,32,21,0,0
1.5158e+05,1.2079e+08,0,6320,6157,15.87,4,32,21,0,0
1.5207e+05,1.2091e+08,0,6180,6414,15.77,4.63,32,21,0,0
1.5247e+05,1.2101e+08,0,6406,6271,15.78,4.54,32,22,0,0
1.5292e+05,1.2113e+08,0,6280,6371,15.74,4.54,32,22,0,0
1.5333e+05,1.2123e+08,0,6367,6185,15.78,4.15,32,22,0,0
1.5383e+05,1.2135e+08,0,6175,6100,15.77,3.91,32,22,0,0
1.5423e+05,1.2145e+08,0,6097,6057,15.77,3.74,32,22,0,0
1.5463e+05,1.2155e+08,0,6059,6228,15.75,4.15,32,22,0,0
1.5511e+05,1.2167e+08,0,6220,6128,15.81,4.03,32,22,0,0
1.5552e+05,1.2177e+08,0,6123,6071,15.85,3.7,32,23,0,0
1.5597e+05,1.2188e+08,0,6076,6157,15.83,3.95,32,23,0,0
1.5641e+05,1.2199e+08,0,6160,6200,15.77,3.94,32,23,0,0
1.5686e+05,1.221e+08,0,6200,6214,15.79,3.9,32,23,0,0
1.573e+05,1.2221e+08,0,6204,6071,15.78,4.22,32,23,0,0
1.5776e+05,1.2232e+08,0,6065,5942,15.83,3.93,32,23,0,0
1.582e+05,1.2243e+08,0,5958,6300,15.85,3.97,32,23,0,0
1.5866e+05,1.2254e+08,0,6293,6128,15.83,4.39,32,23,0,0
1.5954e+05,1.2276e+08,0,6125,6071,15.88,3.85,33,24,0,0
1.6e+05,1.2287e+08,0,6068,6042,15.84,3.77,32,24,0,0
1.6044e+05,1.2298e+08,0,6047,6114,15.79,3.49,32,24,0,0
1.6085e+05,1.2308e+08,0,6114,6114,15.89,3.93,32,24,0,0
1.6129e+05,1.2319e+08,0,6115,6200,15.83,4.02,32,24,0,0
1.6178e+05,1.2331e+08,0,6189,6042,15.83,3.99,32,24,0,0
1.622e+05,1.2341e+08,0,6053,6271,15.8,4.02,32,24,0,0
1.6264e+05,1.2352e+08,0,6264,6171,15.82,3.82,32,24,0,0
1.6304e+05,1.2362e+08,0,6173,6271,15.8,4.08,33,24,0,0
1.635e+05,1.2373e+08,0,6259,6057,15.8,3.84,33,25,0,0
1.6395e+05,1.2385e+08,0,6052,5985,15.75,3.69,33,25,0,0
1.644e+05,1.2396e+08,0,5995,6085,15.79,4.27,32,25,0,0
1.6484e+05,1.2408e+08,0,6086,6100,15.8,3.95,33,25,0,0
1.6525e+05,1.2418e+08,0,6105,6200,15.8,4.3,33,25,0,0
1.6574e+05,1.2429e+08,0,6203,6242,15.74,4.49,33,25,0,0
1.6615e+05,1.244e+08,0,6244,6271,15.76,4.41,33,25,0,0
1.666e+05,1.2451e+08,0,6265,6214,15.83,3.99,33,26,0,0
1.6704e+05,1.2461e+08,0,6212,6128,15.74,4.39,33,26,0,0
1.6749e+05,1.2472e+08,0,6134,6200,15.75,4.29,33,26,0,0
1.679e+05,1.2483e+08,0,6198,6171,15.76,4.13,33,26,0,0
1.6835e+05,1.2494e+08,0,6178,6242,15.73,4.2,33,26,0,0
1.6876e+05,1.2504e+08,0,6237,6128,15.73,4.22,33,26,0,0
1.692e+05,1.2515e+08,0,6127,6114,15.75,4.04,33,26,0,0
1.6965e+05,1.2526e+08,0,6107,6042,15.78,3.91,33,26,0,0
1.701e+05,1.2538e+08,0,6034,5971,15.8,3.77,33,27,0,0
1.7099e+05,1.2559e+08,0,5971,5971,15.71,3.72,33,27,0,0
1.7144e+05,1.257e+08,0,5962,5900,15.77,3.57,33,27,0,0
1.7186e+05,1.258e+08,0,5900,5914,15.79,3.38,33,27,0,0
1.723e+05,1.2591e+08,0,5905,5814,15.71,3.32,33,27,0,0
1.7275e+05,1.2603e+08,0,5811,5785,15.74,3.22,33,27,0,0
1.7365e+05,1.2625e+08,0,5777,5642,15.79,3.05,33,27,0,0
1.7409e+05,1.2636e+08,0,5646,5685,15.81,2.79,33,28,0,0
1.7454e+05,1.2647e+08,0,5677,5571,15.84,2.39,33,28,0,0
1.7495e+05,1.2657e+08,0,5561,5485,15.82,2.72,33,28,0,0
1.754e+05,1.2668e+08,0,5486,5528,15.76,2.74,33,28,0,0
1.7581e+05,1.2678e+08,0,5502,5285,15.73,2.4,33,28,0,0
1.7625e+05,1.2689e+08,0,5329,5671,15.73,3.48,33,28,0,0
1.7666e+05,1.2699e+08,0,5672,5714,15.75,2.96,33,28,0,0
1.7711e+05,1.271e+08,0,5708,5642,15.66,3.03,33,28,0,0
1.7752e+05,1.272e+08,0,5642,5671,15.76,2.94,33,28,0,0
1.7801e+05,1.2732e+08,0,5683,5800,15.73,3.46,33,28,0,0
1.7841e+05,1.2742e+08,0,5799,5742,15.73,3.51,33,28,0,0
1.789e+05,1.2754e+08,0,5752,5885,15.75,3.44,33,29,0,0
1.7934e+05,1.2765e+08,0,5891,6000,15.71,3.85,33,29,0,0
1.7979e+05,1.2776e+08,0,6001,6014,15.72,4.03,33,29,0,0
1.8024e+05,1.2787e+08,0,6019,6071,15.7,4.02,33,29,0,0
1.8109e+05,1.2808e+08,0,6071,6071,15.7,4.02,33,29,0,0
1.8154e+05,1.282e+08,0,6071,6071,15.64,4.18,33,29,0,0
1.8195e+05,1.283e+08,0,6073,6185,15.73,4.31,33,29,0,0
1.8284e+05,1.2852e+08,0,6191,6357,15.75,4.98,33,29,0,0
1.8329e+05,1.2863e+08,0,6384,6557,15.79,4.61,33,30,0,0
1.837e+05,1.2873e+08,0,6553,6328,15.77,4.19,33,30,0,0
1.8415e+05,1.2885e+08,0,6331,6371,15.77,3.98,33,30,0,0
1.846e+05,1.2896e+08,0,6364,6228,15.76,4.04,33,30,0,0
1.8504e+05,1.2906e+08,0,6228,6242,15.78,4.31,33,30,0,0
1.8549e+05,1.2917e+08,0,6251,6357,15.76,4.01,33,30,0,0
1.8594e+05,1.2928e+08,0,6358,6371,15.73,4.5,33,30,0,0
1.8635e+05,1.2938e+08,0,6371,6385,15.69,4.49,33,31,0,0
1.8687e+05,1.295e+08,0,6373,6257,15.75,4.15,33,31,0,0
1.8727e+05,1.296e+08,0,6256,6242,15.68,4.25,33,31,0,0
1.8776e+05,1.2972e+08,0,6261,6542,15.66,4.4,33,31,0,0
1.8817e+05,1.2982e+08,0,6524,6300,15.76,4.12,33,31,0,0
1.8862e+05,1.2993e+08,0,6307,6414,15.72,4.24,33,31,0,0
1.8902e+05,1.3003e+08,0,6410,6228,15.75,4.24,33,31,0,0
1.8947e+05,1.3014e+08,0,6230,6385,15.73,4.16,33,32,0,0
1.8991e+05,1.3025e+08,0,6382,6228,15.7,4.08,33,32,0,0
1.9041e+05,1.3037e+08,0,6233,6300,15.8,3.86,33,32,0,0
1.9081e+05,1.3047e+08,0,6300,6300,15.74,4.35,33,32,0,0
1.9126e+05,1.3059e+08,0,6315,6471,15.76,4.16,33,32,0,0
1.9167e+05,1.3069e+08,0,6468,6414,15.72,4.29,33,32,0,0
1.9212e+05,1.308e+08,0,6415,6428,15.79,4.31,33,32,0,0
1.9257e+05,1.309e+08,0,6425,6271,15.82,3.88,33,32,0,0
1.9301e+05,1.3101e+08,0,6270,6257,15.73,4.27,33,33,0,0
1.9349e+05,1.3112e+08,0,6254,6228,15.75,4.09,33,33,0,0
1.9394e+05,1.3123e+08,0,6228,6228,15.76,4.02,33,33,0,0
1.9435e+05,1.3134e+08,0,6229,6257,15.81,3.94,33,33,0,0
1.9479e+05,1.3145e+08,0,6256,6242,15.8,3.94,33,33,0,0
1.9569e+05,1.3167e+08,0,6242,6257,15.73,4.2,33,33,0,0
1.9613e+05,1.3178e+08,0,6254,6228,15.76,4.06,33,33,0,0
1.9658e+05,1.3189e+08,0,6235,6314,15.7,4.44,33,33,0,0
1.9699e+05,1.3199e+08,0,6320,6485,15.71,4.47,33,34,0,0
1.9747e+05,1.321e+08,0,6475,6357,15.73,4.22,33,34,0,0
1.9792e+05,1.3221e+08,0,6360,6400,15.77,4.4,33,34,0,0
1.9837e+05,1.3232e+08,0,6391,6314,15.73,4.15,33,34,0,0
1.9877e+05,1.3243e+08,0,6319,6457,15.8,4.05,33,34,0,0
1.9926e+05,1.3254e+08,0,6434,6085,15.79,3.72,33,34,0,0
1.9971e+05,1.3265e+08,0,6102,6271,15.79,4.07,33,34,0,0
2.0012e+05,1.3276e+08,0,6274,6328,15.78,4.25,33,35,0,0
2.0057e+05,1.3287e+08,0,6324,6285,15.73,4.28,34,35,0,0
2.0102e+05,1.3298e+08,0,6283,6271,15.77,4.12,33,35,0,0
2.0142e+05,1.3308e+08,0,6268,6214,15.7,4.2,33,35,0,0
2.0188e+05,1.332e+08,0,6214,6228,15.74,4.05,33,35,0,0
2.0233e+05,1.333e+08,0,6232,6271,15.73,4.23,33,35,0,0
2.0278e+05,1.3342e+08,0,6272,6285,15.66,4.1,34,35,0,0
2.0322e+05,1.3352e+08,0,6284,6271,15.77,4.14,34,35,0,0
2.0363e+05,1.3362e+08,0,6270,6257,15.77,4.14,33,36,0,0
2.0412e+05,1.3374e+08,0,6254,6228,15.75,4.15,34,36,0,0
2.0452e+05,1.3384e+08,0,6228,6242,15.75,4.3,34,36,0,0
2.0496e+05,1.3395e+08,0,6235,6100,15.75,3.99,34,36,0,0
2.0541e+05,1.3406e+08,0,6101,6185,15.71,4.11,33,36,0,0
2.0586e+05,1.3417e+08,0,6188,6285,15.7,4.32,34,36,0,0
2.0631e+05,1.3428e+08,0,6290,6371,15.72,4.2,34,36,0,0
2.0676e+05,1.3439e+08,0,6374,6414,15.73,4.06,34,36,0,0
2.0721e+05,1.345e+08,0,6400,6228,15.79,4.04,34,36,0,0
2.0762e+05,1.346e+08,0,6233,6300,15.79,4.16,34,37,0,0
2.0807e+05,1.3472e+08,0,6300,6300,15.72,4.18,34,37,0,0
2.0851e+05,1.3483e+08,0,6291,6200,15.81,3.95,34,37,0,0
2.0896e+05,1.3493e+08,0,6200,6200,15.75,3.89,34,37,0,0
2.0941e+05,1.3504e+08,0,6196,6157,15.73,3.88,34,37,0,0
2.0985e+05,1.3515e+08,0,6155,6142,15.7,4.11,34,37,0,0
2.1026e+05,1.3525e+08,0,6147,6257,15.72,4.23,34,37,0,0
2.1071e+05,1.3536e+08,0,6244,6128,15.68,4.22,34,37,0,0
2.1116e+05,1.3547e+08,0,6144,6314,15.68,4.31,34,38,0,0
2.1156e+05,1.3557e+08,0,6312,6285,15.74,4.36,34,38,0,0
2.1201e+05,1.3569e+08,0,6282,6242,15.72,4.14,34,38,0,0
2.1242e+05,1.3579e+08,0,6250,6414,15.72,4.17,34,38,0,0
2.1287e+05,1.359e+08,0,6411,6228,15.68,4.3,34,38,0,0
2.1331e+05,1.36e+08,0,6228,6228,15.73,4,34,38,0,0
2.1421e+05,1.3623e+08,0,6229,6257,15.72,4.12,34,39,0,0
2.1466e+05,1.3634e+08,0,6255,6157,15.64,4.37,34,39,0,0
2.1559e+05,1.3656e+08,0,6161,6242,15.62,4.54,34,39,0,0
2.1604e+05,1.3667e+08,0,6249,6342,15.7,4.39,34,39,0,0
2.1648e+05,1.3678e+08,0,6349,6414,15.65,4.24,34,39,0,0
2.1692e+05,1.3689e+08,0,6404,6285,15.71,4.03,34,39,0,0
2.1737e+05,1.3699e+08,0,6280,6228,15.7,3.97,34,39,0,0
2.1781e+05,1.3711e+08,0,6241,6328,15.71,4.13,34,40,0,0
2.1822e+05,1.3721e+08,0,6319,6214,15.68,4.09,34,40,0,0
2.1867e+05,1.3731e+08,0,6214,6257,15.66,4.29,34,40,0,0
2.1956e+05,1.3753e+08,0,6257,6257,15.66,4.27,34,40,0,0
2.2045e+05,1.3776e+08,0,6262,6357,15.64,4.44,34,40,0,0
2.2093e+05,1.3787e+08,0,6341,6214,15.7,4.16,34,40,0,0
2.2133e+05,1.3797e+08,0,6214,6228,15.65,4.14,34,41,0,0
2.2179e+05,1.3808e+08,0,6224,6185,15.67,4.01,34,41,0,0
2.2223e+05,1.3819e+08,0,6185,6185,15.75,4.05,34,41,0,0
2.2268e+05,1.383e+08,0,6183,6057,15.67,3.62,34,41,0,0
2.2308e+05,1.384e+08,0,6058,6128,15.75,3.65,34,41,0,0
2.2357e+05,1.3851e+08,0,6124,6057,15.74,3.68,34,41,0,0
2.2401e+05,1.3862e+08,0,6056,6042,15.76,3.58,34,41,0,0
2.2429e+05,1.3873e+08,0,6041,6028,15.7,3.53,34,41,0,0
2.247e+05,1.3884e+08,0,6032,6071,15.68,3.65,34,41,0,0
2.2515e+05,1.3896e+08,0,6073,6100,15.73,3.6,34,42,0,0
2.2551e+05,1.3905e+08,0,6099,6042,15.72,3.76,34,42,0,0
2.2595e+05,1.3916e+08,0,6040,6014,15.68,3.85,34,42,0,0
2.2688e+05,1.3938e+08,0,6017,6071,15.63,4.02,34,42,0,0
2.2736e+05,1.3949e+08,0,6071,6085,15.64,3.91,34,42,0,0
2.2777e+05,1.3959e+08,0,6085,6100,15.63,4.19,34,42,0,0
2.2822e+05,1.397e+08,0,6102,6285,15.64,4.38,34,42,0,0
2.287e+05,1.3982e+08,0,6287,6314,15.62,4.04,34,43,0,0
2.2914e+05,1.3992e+08,0,6313,6300,15.68,4.16,34,43,0,0
2.2955e+05,1.4003e+08,0,6300,6300,15.69,3.94,34,43,0,0
2.3e+05,1.4014e+08,0,6302,6357,15.66,4.06,34,43,0,0
2.3045e+05,1.4025e+08,0,6357,6357,15.58,4.58,34,43,0,0
2.309e+05,1.4036e+08,0,6362,6414,15.65,4.33,34,43,0,0
2.313e+05,1.4046e+08,0,6414,6442,15.73,4.06,34,43,0,0
2.3175e+05,1.4057e+08,0,6444,6471,15.67,4.42,34,43,0,0
2.322e+05,1.4068e+08,0,6475,6571,15.75,4.37,34,44,0,0
2.326e+05,1.4078e+08,0,6569,6442,15.72,4.06,34,44,0,0
2.3309e+05,1.409e+08,0,6443,6471,15.73,3.97,34,44,0,0
2.3349e+05,1.41e+08,0,6465,6371,15.7,3.74,34,44,0,0
2.3395e+05,1.4111e+08,0,6370,6357,15.67,3.76,34,44,0,0
2.3439e+05,1.4122e+08,0,6354,6314,15.69,3.71,34,44,0,0
2.3484e+05,1.4134e+08,0,6308,6257,15.68,3.79,34,44,0,0
2.3524e+05,1.4144e+08,0,6261,6314,15.63,3.83,34,44,0,0
2.3569e+05,1.4155e+08,0,6311,6257,15.68,3.97,34,45,0,0
2.3614e+05,1.4166e+08,0,6282,6514,15.62,4.22,34,45,0,0
2.3659e+05,1.4177e+08,0,6509,6457,15.73,3.91,34,45,0,0
2.3703e+05,1.4188e+08,0,6457,6457,15.67,3.83,34,45,0,0
2.3744e+05,1.4197e+08,0,6456,6442,15.55,4.53,34,45,0,0
2.3792e+05,1.421e+08,0,6464,6714,15.57,5.03,34,45,0,0
2.3833e+05,1.422e+08,0,6698,6500,15.73,4.13,34,45,0,0
2.3878e+05,1.4231e+08,0,6502,6571,15.67,4.03,34,45,0,0
2.3926e+05,1.4242e+08,0,6560,6457,15.68,4.49,34,46,0,0
2.3971e+05,1.4253e+08,0,6485,6757,15.68,4.58,34,46,0,0
2.401e+05,1.4263e+08,0,6750,6514,15.73,3.77,34,46,0,0
2.406e+05,1.4274e+08,0,6515,6542,15.54,4.92,34,46,0,0
2.41e+05,1.4284e+08,0,6550,6857,15.57,4.86,34,46,0,0
2.4145e+05,1.4296e+08,0,6836,6671,15.64,4.7,34,46,0,0
2.419e+05,1.4307e+08,0,6662,6585,15.63,4.35,34,46,0,0
2.423e+05,1.4317e+08,0,6584,6557,15.66,4.66,34,47,0,0
2.4274e+05,1.4327e+08,0,6561,6728,15.69,4.48,34,47,0,0
2.432e+05,1.4339e+08,0,6709,6457,15.61,4.24,34,47,0,0
2.436e+05,1.4349e+08,0,6451,6185,15.7,2.96,34,47,0,0
2.4404e+05,1.436e+08,0,6186,6257,15.62,4.63,34,47,0,0
2.4542e+05,1.4393e+08,0,6258,6342,15.69,3.93,35,47,0,0
2.4587e+05,1.4404e+08,0,6329,6157,15.62,3.67,34,48,0,0
2.4632e+05,1.4416e+08,0,6152,6100,15.75,3.81,34,48,0,0
2.4717e+05,1.4436e+08,0,6113,6485,15.61,5.84,34,48,0,0
2.4766e+05,1.4448e+08,0,6463,6214,15.69,3.09,34,48,0,0
2.4806e+05,1.4458e+08,0,6194,5828,15.7,3.22,35,48,0,0
2.485e+05,1.4469e+08,0,5821,5671,15.69,3.32,34,48,0,0
2.4895e+05,1.448e+08,0,5677,5742,15.76,3.56,34,48,0,0
2.494e+05,1.4491e+08,0,5748,5814,15.78,3.34,34,48,0,0
2.4984e+05,1.4502e+08,0,5817,5871,15.71,3.49,35,49,0,0
2.5029e+05,1.4513e+08,0,5869,5842,15.67,3.41,34,49,0,0
2.5069e+05,1.4523e+08,0,5840,5728,15.63,3.39,34,49,0,0
2.5118e+05,1.4535e+08,0,5728,5728,15.6,3.14,34,49,0,0
2.5211e+05,1.4558e+08,0,5718,5557,15.64,2.85,34,49,0,0
2.5252e+05,1.4568e+08,0,5569,5742,15.61,3.74,34,49,0,0
2.5296e+05,1.4579e+08,0,5762,5971,15.64,3.94,35,49,0,0
2.5341e+05,1.459e+08,0,5968,5942,15.62,3.24,34,49,0,0
2.5382e+05,1.46e+08,0,5900,5500,15.67,2.34,35,49,0,0
2.5426e+05,1.4611e+08,0,5475,5228,15.68,1.98,34,50,0,0
2.547e+05,1.4621e+08,0,5221,5085,15.67,1.98,35,50,0,0
2.5519e+05,1.4633e+08,0,5062,4828,15.7,1.69,34,50,0,0
2.5563e+05,1.4644e+08,0,4829,4842,15.67,1.88,34,50,0,0
2.5603e+05,1.4654e+08,0,4849,5157,15.73,2.53,35,50,0,0
2.5648e+05,1.4665e+08,0,5161,5285,15.73,2.53,34,50,0,0
2.5692e+05,1.4676e+08,0,5287,5314,15.73,2.76,35,50,0,0
2.5737e+05,1.4687e+08,0,5316,5357,15.72,2.27,35,50,0,0
2.5782e+05,1.4698e+08,0,5374,5557,15.74,3,34,50,0,0
2.5823e+05,1.4708e+08,0,5568,5714,15.66,3.05,35,50,0,0
2.5867e+05,1.4719e+08,0,5722,5842,15.67,3.49,35,50,0,0
2.5912e+05,1.473e+08,0,5854,5971,15.72,3.18,34,50,0,0
2.5952e+05,1.474e+08,0,5973,6042,15.72,3.28,34,50,0,0
2.5997e+05,1.4751e+08,0,6043,6128,15.72,3.08,34,51,0,0
2.6042e+05,1.4762e+08,0,6101,5757,15.63,3.29,34,51,0,0
2.609e+05,1.4774e+08,0,5751,5700,15.68,2.69,34,51,0,0
2.613e+05,1.4784e+08,0,5701,5800,15.61,2.98,34,51,0,0
2.6175e+05,1.4795e+08,0,5784,5571,15.61,2.79,34,51,0,0
2.6219e+05,1.4805e+08,0,5576,5714,15.63,2.9,34,51,0,0
2.6264e+05,1.4817e+08,0,5714,5714,15.55,3.59,35,51,0,0
2.6402e+05,1.485e+08,0,5723,6014,15.6,4.04,34,51,0,0
2.6446e+05,1.4861e+08,0,6028,6185,15.58,4.22,34,52,0,0
2.649e+05,1.4872e+08,0,6193,6385,15.52,4.78,34,52,0,0
2.6535e+05,1.4883e+08,0,6408,6571,15.57,4.93,34,52,0,0
2.658e+05,1.4894e+08,0,6563,6485,15.57,4.63,34,52,0,0
2.662e+05,1.4904e+08,0,6487,6628,15.59,4.69,34,52,0,0
2.6665e+05,1.4915e+08,0,6626,6514,15.55,4.42,34,52,0,0
2.6714e+05,1.4927e+08,0,6510,6471,15.6,4.17,34,52,0,0
2.6755e+05,1.4938e+08,0,6462,6342,15.57,4.38,34,53,0,0
2.6799e+05,1.4948e+08,0,6338,6214,15.59,3.93,34,53,0,0
2.6844e+05,1.4959e+08,0,6214,6214,15.53,4.07,34,53,0,0
2.6888e+05,1.497e+08,0,6206,6057,15.53,3.74,35,53,0,0
2.6933e+05,1.4981e+08,0,6067,6214,15.5,4.51,34,53,0,0
2.6978e+05,1.4992e+08,0,6214,6242,15.62,4.22,34,53,0,0
2.7022e+05,1.5003e+08,0,6242,6257,15.6,4.08,34,53,0,0
2.7067e+05,1.5014e+08,0,6252,6142,15.59,4.19,35,53,0,0
2.7116e+05,1.5026e+08,0,6132,6028,15.66,3.85,34,53,0,0
2.7156e+05,1.5036e+08,0,6035,6142,15.67,3.59,34,54,0,0
2.7202e+05,1.5047e+08,0,6126,5900,15.67,3.38,34,54,0,0
2.7246e+05,1.5058e+08,0,5902,5942,15.7,3.11,34,54,0,0
2.729e+05,1.5069e+08,0,5928,5728,15.7,3.23,34,54,0,0
2.7335e+05,1.5079e+08,0,5718,5528,15.7,2.71,34,54,0,0
2.738e+05,1.509e+08,0,5518,5400,15.79,2.53,34,54,0,0
2.7424e+05,1.5101e+08,0,5403,5442,15.76,2.86,34,54,0,0
2.7469e+05,1.5112e+08,0,5449,5557,15.72,2.84,34,54,0,0
2.7514e+05,1.5123e+08,0,5561,5628,15.78,2.75,35,54,0,0
2.7559e+05,1.5134e+08,0,5621,5542,15.77,2.76,34,54,0,0
2.7604e+05,1.5145e+08,0,5553,5657,15.75,3.09,34,55,0,0
2.7644e+05,1.5156e+08,0,5655,5585,15.66,3.1,34,55,0,0
2.7693e+05,1.5167e+08,0,5581,5542,15.66,3.31,34,55,0,0
2.7782e+05,1.5189e+08,0,5554,5942,15.69,3.56,34,55,0,0
2.7822e+05,1.5199e+08,0,5940,5914,15.67,3.39,34,55,0,0
2.7868e+05,1.521e+08,0,5920,6014,15.6,3.87,34,55,0,0
2.7908e+05,1.5221e+08,0,6003,5857,15.63,3.61,35,55,0,0
2.7953e+05,1.5232e+08,0,5857,5900,15.58,3.64,34,55,0,0
2.7997e+05,1.5243e+08,0,5896,5814,15.72,3.33,34,55,0,0
2.8043e+05,1.5254e+08,0,5802,5642,15.64,3.5,34,56,0,0
2.8176e+05,1.5286e+08,0,5642,5685,15.63,3.42,34,56,0,0
2.822e+05,1.5297e+08,0,5695,5800,15.69,3.91,35,56,0,0
2.8266e+05,1.5308e+08,0,5805,5957,15.57,3.99,34,56,0,0
2.8311e+05,1.532e+08,0,5977,6157,15.54,4.26,34,56,0,0
2.8351e+05,1.5329e+08,0,6159,6342,15.58,4.14,35,56,0,0
2.8396e+05,1.5341e+08,0,6312,6114,15.57,4.3,35,57,0,0
2.8441e+05,1.5352e+08,0,6133,6371,15.64,4.4,34,57,0,0
2.8486e+05,1.5363e+08,0,6367,6328,15.64,4.32,34,57,0,0
2.853e+05,1.5374e+08,0,6340,6428,15.62,4.45,34,57,0,0
2.8623e+05,1.5396e+08,0,6413,6214,15.66,4.47,35,57,0,0
2.8663e+05,1.5406e+08,0,6222,6371,15.61,4.39,34,57,0,0
2.8708e+05,1.5417e+08,0,6375,6414,15.67,4.48,35,57,0,0
2.8752e+05,1.5428e+08,0,6400,6285,15.61,4.45,34,58,0,0
2.8796e+05,1.5438e+08,0,6286,6300,15.62,4.29,34,58,0,0
2.8837e+05,1.5448e+08,0,6308,6442,15.6,4.25,34,58,0,0
2.8886e+05,1.546e+08,0,6444,6471,15.7,4.49,34,58,0,0
2.8975e+05,1.5482e+08,0,6463,6271,15.67,4.2,35,58,0,0
2.902e+05,1.5493e+08,0,6267,6228,15.67,3.99,35,58,0,0
2.9065e+05,1.5504e+08,0,6235,6314,15.64,4.03,35,58,0,0
2.9109e+05,1.5515e+08,0,6310,6228,15.66,4.11,35,59,0,0
2.9154e+05,1.5526e+08,0,6236,6357,15.72,3.92,35,59,0,0
2.9199e+05,1.5537e+08,0,6343,6157,15.72,3.91,35,59,0,0
2.9288e+05,1.5559e+08,0,6154,6100,15.66,3.92,35,59,0,0
2.9333e+05,1.5569e+08,0,6101,6128,15.63,3.94,35,59,0,0
2.9422e+05,1.5592e+08,0,6137,6342,15.64,4.16,35,59,0,0
2.9467e+05,1.5602e+08,0,6333,6228,15.68,4.15,35,60,0,0
2.9512e+05,1.5613e+08,0,6243,6414,15.66,4.25,35,60,0,0
2.9556e+05,1.5624e+08,0,6404,6314,15.6,4.1,35,60,0,0
2.9602e+05,1.5635e+08,0,6327,6514,15.62,4.3,35,60,0,0
2.9647e+05,1.5647e+08,0,6515,6528,15.58,4.97,35,60,0,0
2.9688e+05,1.5657e+08,0,6518,6385,15.61,4.58,35,60,0,0
2.9734e+05,1.5668e+08,0,6393,6514,15.47,5.33,35,60,0,0
2.9774e+05,1.5679e+08,0,6522,6714,15.6,5.05,35,61,0,0
2.9822e+05,1.569e+08,0,6696,6457,15.6,4.54,35,61,0,0
2.9866e+05,1.5701e+08,0,6469,6628,15.56,4.47,35,61,0,0
2.9911e+05,1.5712e+08,0,6623,6585,15.64,4.3,35,61,0,0
2.9956e+05,1.5723e+08,0,6579,6500,15.65,4.23,35,61,0,0
2.9997e+05,1.5733e+08,0,6496,6342,15.61,4.18,35,61,0,0
3.0041e+05,1.5744e+08,0,6339,6185,15.65,3.59,35,61,0,0
3.009e+05,1.5756e+08,0,6177,6100,15.63,3.63,35,61,0,0
3.0135e+05,1.5767e+08,0,6105,6157,15.67,3.6,35,62,0,0
3.0178e+05,1.5777e+08,0,6133,5828,15.71,3.25,35,62,0,0
3.0223e+05,1.5788e+08,0,5829,5857,15.59,3.25,35,62,0,0
3.0267e+05,1.5799e+08,0,5862,5942,15.56,3.82,35,62,0,0
3.0312e+05,1.581e+08,0,5942,5942,15.57,3.78,35,62,0,0
3.0357e+05,1.5821e+08,0,5948,6014,15.62,3.86,35,62,0,0
3.0397e+05,1.5831e+08,0,6012,5928,15.63,3.77,35,62,0,0
3.0446e+05,1.5842e+08,0,5939,6100,15.52,4,35,62,0,0
3.049e+05,1.5853e+08,0,6105,6228,15.6,4.1,35,62,0,0
3.0535e+05,1.5864e+08,0,6221,6042,15.67,3.97,35,63,0,0
3.058e+05,1.5875e+08,0,6050,6171,15.64,4.05,35,63,0,0
3.0624e+05,1.5886e+08,0,6171,6171,15.67,3.86,35,63,0,0
3.0669e+05,1.5897e+08,0,6171,6185,15.63,4.19,35,63,0,0
3.0714e+05,1.5907e+08,0,6192,6285,15.65,4.1,35,63,0,0
3.0758e+05,1.5918e+08,0,6275,6142,15.67,4.24,35,63,0,0
3.0802e+05,1.593e+08,0,6150,6257,15.62,4.44,35,63,0,0
3.0843e+05,1.594e+08,0,6259,6414,15.66,4.31,35,63,0,0
3.0891e+05,1.5952e+08,0,6389,6185,15.63,4.36,35,64,0,0
3.0932e+05,1.5962e+08,0,6185,6200,15.64,4.44,35,64,0,0
3.0977e+05,1.5972e+08,0,6203,6442,15.64,4.38,35,64,0,0
3.1025e+05,1.5984e+08,0,6433,6342,15.66,4.37,35,64,0,0
3.107e+05,1.5995e+08,0,6337,6300,15.61,4.1,35,64,0,0
3.1155e+05,1.6016e+08,0,6299,6200,15.61,4.25,35,64,0,0
3.1243e+05,1.6038e+08,0,6204,6328,15.66,3.98,35,65,0,0
3.1289e+05,1.6049e+08,0,6326,6314,15.57,4.25,35,65,0,0
3.1329e+05,1.6059e+08,0,6314,6328,15.61,4.28,35,65,0,0
3.1377e+05,1.6071e+08,0,6321,6185,15.64,4,35,65,0,0
3.1426e+05,1.6082e+08,0,6182,6157,15.65,4.25,35,65,0,0
3.1511e+05,1.6103e+08,0,6158,6285,15.55,4.32,35,65,0,0
3.1604e+05,1.6126e+08,0,6282,6200,15.59,4.42,35,66,0,0
3.1648e+05,1.6137e+08,0,6202,6242,15.63,4.18,35,66,0,0
3.1689e+05,1.6147e+08,0,6243,6328,15.58,4.15,35,66,0,0
3.1734e+05,1.6158e+08,0,6324,6257,15.58,4.43,35,66,0,0
3.1779e+05,1.6169e+08,0,6257,6271,15.67,3.8,35,66,0,0
3.1823e+05,1.618e+08,0,6252,6000,15.62,3.57,35,66,0,0
3.1864e+05,1.6191e+08,0,6002,6157,15.64,4.33,35,66,0,0
3.1909e+05,1.6202e+08,0,6159,6328,15.73,3.73,35,67,0,0
3.1953e+05,1.6212e+08,0,6316,6014,15.61,3.86,35,67,0,0
3.2002e+05,1.6224e+08,0,6025,6142,15.65,4.1,35,67,0,0
3.2046e+05,1.6235e+08,0,6146,6185,15.64,3.7,35,67,0,0
3.2091e+05,1.6246e+08,0,6181,6157,15.67,3.93,35,67,0,0
3.2131e+05,1.6256e+08,0,6152,6085,15.7,3.77,35,67,0,0
3.2176e+05,1.6267e+08,0,6078,5942,15.66,3.66,35,67,0,0
3.2221e+05,1.6278e+08,0,5940,5914,15.75,3.41,35,67,0,0
3.227e+05,1.6289e+08,0,5880,5414,16.38,1.62,35,67,0,0
3.231e+05,1.63e+08,0,5405,4885,16.04,2.61,35,67,0,0
3.2359e+05,1.6311e+08,0,4787,3342,16.12,0.08,35,68,0,0
3.2404e+05,1.6322e+08,0,3319,2842,16.08,0.55,35,68,0,0
3.2448e+05,1.6333e+08,0,2852,3000,16.08,0.57,35,68,0,0
3.2534e+05,1.6355e+08,0,2998,2942,16.11,0.58,35,68,0,0
3.2579e+05,1.6366e+08,0,2943,2985,16.09,0.53,35,68,0,0
3.2668e+05,1.6387e+08,0,2984,2971,16.1,0.55,35,68,0,0
3.2708e+05,1.6398e+08,0,2971,2985,16.11,0.54,35,68,0,0
3.2757e+05,1.6409e+08,0,2987,3028,16.1,0.55,35,68,0,0
3.2798e+05,1.642e+08,0,3026,3000,16.1,0.54,35,68,0,0
3.2847e+05,1.6432e+08,0,3000,3000,16.11,0.55,35,68,0,0
3.2887e+05,1.6442e+08,0,2998,2971,16.12,0.54,35,68,0,0
3.2932e+05,1.6452e+08,0,2971,3000,16.12,0.54,35,68,0,0
3.2977e+05,1.6463e+08,0,2999,2985,16.14,0.52,35,68,0,0
3.3022e+05,1.6474e+08,0,2984,2971,16.11,0.54,35,68,0,0
3.3066e+05,1.6485e+08,0,2973,3000,16.11,0.53,35,68,0,0
3.311e+05,1.6496e+08,0,2998,2985,16.13,0.49,35,68,0,0
3.3155e+05,1.6506e+08,0,2942,2057,16.21,0.02,35,68,0,0
3.32e+05,1.6518e+08,0,2008,1585,16.2,0,35,68,0,0
3.3245e+05,1.6529e+08,0,1558,1371,16.19,0.07,35,68,0,0
3.3335e+05,1.655e+08,0,1369,1314,16.19,0.1,35,68,0,0
3.3383e+05,1.6562e+08,0,1314,1314,16.19,0.11,35,68,0,0
3.3428e+05,1.6572e+08,0,1314,1314,16.2,0.11,35,68,0,0
3.3468e+05,1.6582e+08,0,1314,1314,16.2,0.1,35,68,0,0
3.3514e+05,1.6593e+08,0,1314,1314,16.2,0.11,35,68,0,0
3.3554e+05,1.6604e+08,0,1314,1314,16.2,0.11,35,68,0,0
3.3598e+05,1.6614e+08,0,1314,1314,16.2,0.11,35,68,0,0
3.3643e+05,1.6625e+08,0,1314,1314,16.2,0.11,35,68,0,0
3.3688e+05,1.6636e+08,0,1314,1314,16.2,0.11,35,68,0,0
3.3732e+05,1.6646e+08,0,1314,1314,16.21,0.11,35,68,0,0
3.3778e+05,1.6658e+08,0,1284,585,16.23,0.01,35,68,0,0
3.3823e+05,1.6668e+08,0,579,242,16.23,0.02,35,68,0,0
3.3872e+05,1.668e+08,0,218,0,16.23,0.03,35,68,0,0
3.3917e+05,1.669e+08,0,0,0,16.23,0.04,35,68,0,0
3.3962e+05,1.6701e+08,0,0,0,16.23,0.04,35,68,0,0
3.4013e+05,1.6713e+08,0,0,0,16.23,0.04,35,68,0,0
3.4053e+05,1.6723e+08,0,0,0,16.23,0.03,34,68,0,0
3.4103e+05,1.6735e+08,0,0,0,16.24,0.04,35,68,0,0
3.4148e+05,1.6745e+08,0,0,0,16.24,0.03,34,68,0,0
3.4193e+05,1.6756e+08,0,0,0,16.24,0.03,34,68,0,0
3.4238e+05,1.6767e+08,0,0,0,16.25,0.03,34,68,0,0
3.4283e+05,1.6777e+08,0,0,0,16.25,0.03,34,68,0,0
3.4328e+05,1.6788e+08,0,0,0,16.25,0.04,34,68,0,0
3.4378e+05,1.68e+08,0,0,0,16.25,0.04,34,68,0,0
3.4423e+05,1.681e+08,0,0,0,16.25,0.04,34,68,0,0
3.4468e+05,1.6821e+08,0,0,0,16.25,0.04,34,68,0,0
3.4518e+05,1.6832e+08,0,0,0,16.25,0.04,34,68,0,0
3.4562e+05,1.6842e+08,0,0,0,16.26,0.04,34,68,0,0
3.4613e+05,1.6854e+08,0,0,0,16.26,0.04,34,68,0,0
3.4657e+05,1.6865e+08,0,0,0,16.26,0.03,34,68,0,0
3.4703e+05,1.6876e+08,0,0,0,16.26,0.03,34,68,0,0
3.4748e+05,1.6886e+08,0,0,0,16.26,0.03,34,68,0,0
3.4796e+05,1.6897e+08,0,0,0,16.26,0.04,34,68,0,0
3.4846e+05,1.6909e+08,0,0,0,16.26,0.04,34,68,0,0
3.4891e+05,1.6919e+08,0,0,0,16.26,0.04,34,68,0,0
3.4936e+05,1.693e+08,0,0,0,16.27,0.04,34,68,0,0
3.4985e+05,1.6941e+08,0,0,0,16.26,0.04,34,68,0,0
3.5031e+05,1.6952e+08,0,0,0,16.27,0.04,34,68,0,0
3.5076e+05,1.6963e+08,0,0,0,16.27,0.04,34,68,0,0
3.5124e+05,1.6974e+08,0,0,0,16.26,0.04,34,68,0,0
3.517e+05,1.6984e+08,0,0,0,16.27,0.04,34,68,0,0
3.5216e+05,1.6996e+08,0,0,0,16.27,0.04,34,68,0,0
3.5261e+05,1.7006e+08,0,0,0,16.27,0.04,34,68,0,0
3.5306e+05,1.7016e+08,0,0,0,16.27,0.04,34,68,0,0
3.5351e+05,1.7027e+08,0,0,0,16.27,0.04,34,68,0,0
3.5396e+05,1.7038e+08,0,0,0,16.27,0.04,34,68,0,0
3.5442e+05,1.7049e+08,0,0,0,16.27,0.04,34,68,0,0
3.5483e+05,1.7059e+08,0,0,0,16.28,0.04,34,68,0,0
3.5533e+05,1.707e+08,0,0,0,16.28,0.04,34,68,0,0
3.5577e+05,1.7081e+08,0,0,0,16.28,0.04,34,68,0,0
3.5623e+05,1.7091e+08,0,0,0,16.28,0.04,34,68,0,0
3.5672e+05,1.7103e+08,0,0,0,16.29,0.03,34,68,0,0
3.5718e+05,1.7113e+08,0,0,0,16.29,0.04,34,68,0,0
3.5762e+05,1.7123e+08,0,0,0,16.29,0.04,34,68,0,0
3.5812e+05,1.7135e+08,0,0,0,16.29,0.04,34,68,0,0
3.5857e+05,1.7146e+08,0,0,0,16.29,0.04,34,68,0,0
3.5952e+05,1.7168e+08,0,0,0,16.29,0.04,34,68,0,0
3.5992e+05,1.7178e+08,0,0,0,16.29,0.04,34,68,0,0
3.6042e+05,1.7189e+08,0,0,0,16.29,0.04,34,68,0,0
3.6087e+05,1.72e+08,0,0,0,16.3,0.04,34,68,0,0
3.6133e+05,1.7211e+08,0,0,0,16.3,0.04,34,68,0,0
3.6182e+05,1.7223e+08,0,0,0,16.29,0.04,34,68,0,0
3.6227e+05,1.7233e+08,0,0,0,16.3,0.04,34,68,0,0
3.6273e+05,1.7244e+08,0,0,0,16.3,0.04,34,68,0,0
3.6318e+05,1.7255e+08,0,0,0,16.3,0.04,34,68,0,0
3.6363e+05,1.7266e+08,0,0,0,16.3,0.04,34,68,0,0
