LineNo,TimeUS,Instance,RPM,RawRPM,Volt,Curr,Temp,CTot,MotTemp,Err
1902,3.3739e+07,1,0,0,16.82,0.04,22,0,0,0
2311,3.384e+07,1,0,0,16.82,0.03,22,0,0,0
2772,3.3957e+07,1,0,0,16.82,0.03,22,0,0,0
3186,3.406e+07,1,0,0,16.81,0.03,22,0,0,0
3608,3.4165e+07,1,0,0,16.81,0.03,22,0,0,0
4057,3.4281e+07,1,0,0,16.82,0.03,22,0,0,0
4471,3.4383e+07,1,0,0,16.82,0.03,22,0,0,0
4886,3.4491e+07,1,0,0,16.81,0.03,22,0,0,0
5331,3.4594e+07,1,0,0,16.81,0.03,22,0,0,0
5743,3.47e+07,1,0,0,16.82,0.03,22,0,0,0
6164,3.4808e+07,1,0,0,16.82,0.03,22,0,0,0
6575,3.4913e+07,1,0,0,16.82,0.03,22,0,0,0
7029,3.5028e+07,1,0,0,16.82,0.03,22,0,0,0
7441,3.5133e+07,1,0,0,16.81,0.03,22,0,0,0
7891,3.5246e+07,1,0,0,16.82,0.03,22,0,0,0
8271,3.5343e+07,1,0,0,16.82,0.04,22,0,0,0
8726,3.5459e+07,1,0,0,16.81,0.03,22,0,0,0
9146,3.5564e+07,1,0,0,16.81,0.03,22,0,0,0
9558,3.5669e+07,1,0,0,16.82,0.03,22,0,0,0
10016,3.5784e+07,1,0,0,16.82,0.03,22,0,0,0
10429,3.589e+07,1,0,0,16.82,0.03,22,0,0,0
10743,3.5992e+07,1,0,0,16.82,0.03,22,0,0,0
11198,3.6106e+07,1,0,0,16.81,0.03,22,0,0,0
11618,3.6211e+07,1,0,0,16.82,0.03,22,0,0,0
12028,3.6314e+07,1,0,0,16.81,0.03,22,0,0,0
12482,3.6428e+07,1,0,0,16.81,0.03,22,0,0,0
13305,3.6638e+07,1,0,0,16.81,0.03,22,0,0,0
13720,3.6746e+07,1,0,0,16.82,0.04,22,0,0,0
14143,3.686e+07,1,0,0,16.82,0.04,22,0,0,0
14553,3.6962e+07,1,0,0,16.82,0.03,22,0,0,0
15002,3.7074e+07,1,0,0,16.81,0.03,22,0,0,0
15414,3.718e+07,1,0,0,16.81,0.03,22,0,0,0
15822,3.728e+07,1,0,0,16.82,0.03,22,0,0,0
16277,3.7391e+07,1,0,0,16.82,0.03,22,0,0,0
16723,3.7501e+07,1,0,0,16.81,0.03,22,0,0,0
17146,3.7607e+07,1,0,0,16.81,0.03,22,0,0,0
17555,3.7711e+07,1,0,0,16.82,0.03,22,0,0,0
17971,3.7817e+07,1,0,0,16.81,0.03,22,0,0,0
18426,3.793e+07,1,0,0,16.82,0.03,22,0,0,0
18840,3.8033e+07,1,0,0,16.82,0.03,22,0,0,0
19298,3.8149e+07,1,0,0,16.82,0.03,22,0,0,0
19706,3.8251e+07,1,0,0,16.82,0.03,22,0,0,0
20124,3.8356e+07,1,0,0,16.82,0.03,22,0,0,0
20579,3.8468e+07,1,0,0,16.81,0.03,22,0,0,0
20968,3.8572e+07,1,0,0,16.81,0.03,22,0,0,0
21418,3.8686e+07,1,0,0,16.82,0.03,22,0,0,0
21829,3.8791e+07,1,0,0,16.82,0.03,22,0,0,0
22243,3.8898e+07,1,0,0,16.81,0.03,22,0,0,0
22661,3.9004e+07,1,0,0,16.82,0.03,22,0,0,0
23103,3.911e+07,1,0,0,16.82,0.03,22,0,0,0
23512,3.9215e+07,1,0,0,16.81,0.03,22,0,0,0
23966,3.9332e+07,1,0,0,16.82,0.03,22,0,0,0
24381,3.9437e+07,1,0,0,16.81,0.03,22,0,0,0
24803,3.9543e+07,1,0,0,16.82,0.03,22,0,0,0
25216,3.9646e+07,1,0,0,16.81,0.03,22,0,0,0
25664,3.9755e+07,1,0,0,16.82,0.03,22,0,0,0
26081,3.9861e+07,1,0,0,16.8,0.03,22,0,0,0
26534,3.9975e+07,1,0,0,16.81,0.03,22,0,0,0
26950,4.0081e+07,1,0,0,16.81,0.03,22,0,0,0
27365,4.0186e+07,1,0,0,16.81,0.03,22,0,0,0
27815,4.0299e+07,1,0,0,16.82,0.03,22,0,0,0
28234,4.0402e+07,1,0,0,16.81,0.03,22,0,0,0
28692,4.052e+07,1,0,0,16.81,0.03,22,0,0,0
29107,4.0624e+07,1,0,0,16.81,0.03,22,0,0,0
29522,4.0729e+07,1,0,0,16.81,0.03,22,0,0,0
29935,4.0834e+07,1,0,0,16.8,0.03,22,0,0,0
30394,4.0956e+07,1,0,0,16.82,0.03,22,0,0,0
30768,4.1048e+07,1,0,0,16.81,0.03,22,0,0,0
31217,4.1163e+07,1,0,0,16.82,0.03,22,0,0,0
31628,4.1266e+07,1,0,0,16.82,0.03,22,0,0,0
32042,4.1374e+07,1,0,0,16.82,0.03,22,0,0,0
32498,4.149e+07,1,0,0,16.81,0.03,22,0,0,0
32955,4.1603e+07,1,0,0,16.82,0.03,22,0,0,0
33368,4.1709e+07,1,0,0,16.82,0.03,22,0,0,0
33783,4.1812e+07,1,0,0,16.82,0.03,22,0,0,0
34194,4.1918e+07,1,0,0,16.82,0.03,22,0,0,0
34647,4.2034e+07,1,0,0,16.82,0.03,22,0,0,0
35065,4.2139e+07,1,0,0,16.81,0.03,22,0,0,0
35476,4.2244e+07,1,0,0,16.82,0.03,22,0,0,0
35891,4.2346e+07,1,0,0,16.82,0.03,22,0,0,0
36311,4.2454e+07,1,0,0,16.81,0.03,22,0,0,0
36773,4.2572e+07,1,0,0,16.81,0.03,22,0,0,0
37145,4.2669e+07,1,0,0,16.82,0.03,22,0,0,0
37594,4.2783e+07,1,0,0,16.82,0.03,22,0,0,0
38003,4.2889e+07,1,0,0,16.82,0.03,22,0,0,0
38457,4.3004e+07,1,0,0,16.82,0.03,22,0,0,0
38867,4.3106e+07,1,0,0,16.81,0.03,22,0,0,0
39280,4.3214e+07,1,0,0,16.81,0.03,22,0,0,0
39702,4.3326e+07,1,0,0,16.82,0.03,22,0,0,0
40114,4.3427e+07,1,0,0,16.82,0.03,22,0,0,0
40985,4.3651e+07,1,0,0,16.81,0.03,22,0,0,0
41394,4.3753e+07,1,0,0,16.82,0.03,22,0,0,0
41808,4.386e+07,1,0,0,16.81,0.03,22,0,0,0
42259,4.3972e+07,1,0,0,16.81,0.03,22,0,0,0
42669,4.4074e+07,1,0,0,16.82,0.03,22,0,0,0
43087,4.4182e+07,1,0,0,16.8,0.03,22,0,0,0
43501,4.4287e+07,1,0,0,16.82,0.03,22,0,0,0
43958,4.4399e+07,1,0,0,16.82,0.02,22,0,0,0
44377,4.4505e+07,1,0,0,16.81,0.03,22,0,0,0
44796,4.4613e+07,1,0,0,16.81,0.03,22,0,0,0
45209,4.4717e+07,1,0,0,16.81,0.03,22,0,0,0
45660,4.483e+07,1,0,0,16.82,0.03,22,0,0,0
46073,4.4934e+07,1,0,0,16.81,0.03,22,0,0,0
46491,4.504e+07,1,0,0,16.81,0.03,22,0,0,0
46941,4.5151e+07,1,0,0,16.81,0.03,22,0,0,0
47353,4.5256e+07,1,0,0,16.81,0.03,22,0,0,0
47770,4.5364e+07,1,0,0,16.82,0.03,22,0,0,0
48594,4.5574e+07,1,0,0,16.81,0.03,22,0,0,0
49006,4.5681e+07,1,0,0,16.81,0.03,22,0,0,0
49455,4.5792e+07,1,0,0,16.81,0.03,22,0,0,0
49865,4.5894e+07,1,0,0,16.81,0.03,22,0,0,0
50283,4.6e+07,1,0,0,16.81,0.03,22,0,0,0
50730,4.6113e+07,1,0,0,16.82,0.03,22,0,0,0
51146,4.6215e+07,1,0,0,16.81,0.03,22,0,0,0
51565,4.6323e+07,1,0,0,16.81,0.03,22,0,0,0
52022,4.6438e+07,1,0,0,16.81,0.03,22,0,0,0
52434,4.6543e+07,1,0,0,16.81,0.03,22,0,0,0
52843,4.6647e+07,1,0,0,16.81,0.03,22,0,0,0
53303,4.6762e+07,1,0,0,16.81,0.03,22,0,0,0
53713,4.6863e+07,1,0,0,16.81,0.03,22,0,0,0
54174,4.6978e+07,1,0,0,16.81,0.03,22,0,0,0
54995,4.7185e+07,1,0,0,16.81,0.03,22,0,0,0
55445,4.7298e+07,1,0,0,16.81,0.03,22,0,0,0
56144,4.7512e+07,1,0,0,16.81,0.03,22,0,0,0
56558,4.7618e+07,1,0,0,16.81,0.03,22,0,0,0
57005,4.7725e+07,1,0,0,16.82,0.03,22,0,0,0
57017,9.781e+07,1,0,0,16.8,0.02,23,0,0,0
57474,9.7921e+07,1,0,0,16.8,0.02,23,0,0,0
57889,9.8022e+07,1,0,0,16.8,0.02,23,0,0,0
58385,9.8135e+07,1,0,0,16.8,0.02,23,0,0,0
58834,9.824e+07,1,0,0,16.8,0.02,23,0,0,0
59285,9.8346e+07,1,0,0,16.8,0.02,23,0,0,0
59782,9.8459e+07,1,0,0,16.8,0.02,23,0,0,0
60191,9.8556e+07,1,0,0,16.8,0.02,23,0,0,0
60690,9.867e+07,1,0,0,16.8,0.02,23,0,0,0
61146,9.8777e+07,1,0,0,16.8,0.02,23,0,0,0
61601,9.8882e+07,1,0,0,16.8,0.02,23,0,0,0
62051,9.8987e+07,1,0,0,16.8,0.02,23,0,0,0
62552,9.9102e+07,1,0,0,16.8,0.02,23,0,0,0
63463,9.932e+07,1,0,0,16.8,0.02,23,0,0,0
63907,9.9423e+07,1,0,0,16.8,0.02,24,0,0,0
64362,9.9526e+07,1,0,0,16.8,0.02,23,0,0,0
64858,9.9642e+07,1,0,0,16.8,0.02,23,0,0,0
65272,9.9743e+07,1,0,0,16.8,0.02,24,0,0,0
65772,9.9856e+07,1,0,0,16.8,0.01,24,0,0,0
66217,9.9957e+07,1,8,228,16.79,0.03,23,0,0,0
66720,1.0007e+08,1,267,657,16.77,0.09,23,0,0,0
67176,1.0018e+08,1,693,1085,16.76,0.15,24,0,0,0
67633,1.0029e+08,1,1095,1242,16.79,0.11,23,0,0,0
68086,1.0039e+08,1,1245,1300,16.78,0.1,23,0,0,0
68585,1.005e+08,1,1302,1328,16.77,0.1,23,0,0,0
68982,1.006e+08,1,1328,1342,16.78,0.1,24,0,0,0
69456,1.0071e+08,1,1342,1342,16.79,0.1,23,0,0,0
69938,1.0083e+08,1,1343,1357,16.79,0.1,23,0,0,0
70604,1.0103e+08,1,1342,1342,16.78,0.1,24,0,0,0
71100,1.0115e+08,1,1342,1342,16.78,0.09,23,0,0,0
71554,1.0125e+08,1,1343,1357,16.77,0.09,23,0,0,0
72006,1.0136e+08,1,1357,1357,16.79,0.1,23,0,0,0
72502,1.0147e+08,1,1357,1357,16.78,0.1,23,0,0,0
72914,1.0157e+08,1,1357,1357,16.78,0.09,24,0,0,0
73410,1.0169e+08,1,1355,1342,16.79,0.1,24,0,0,0
73850,1.0179e+08,1,1342,1342,16.79,0.1,24,0,0,0
74327,1.019e+08,1,1343,1357,16.79,0.1,23,0,0,0
74732,1.02e+08,1,1357,1385,16.77,0.14,24,0,0,0
75231,1.0211e+08,1,1398,1714,16.6,0.32,24,0,0,0
75719,1.0223e+08,1,1798,2671,16.45,1.1,24,0,0,0
76174,1.0233e+08,1,2691,2957,16.57,1.07,24,0,0,0
77034,1.0255e+08,1,2966,4057,16.38,2.07,24,0,0,0
77530,1.0266e+08,1,4100,4671,16.25,2.11,24,0,0,0
77980,1.0277e+08,1,4719,5285,16.15,2.69,24,0,0,0
78476,1.0288e+08,1,5298,5442,16.19,2.64,24,0,0,0
78920,1.0299e+08,1,5432,5342,16.32,2.02,24,1,0,0
79349,1.0309e+08,1,5336,4942,16.33,1.47,24,1,0,0
80282,1.0331e+08,1,4937,4742,16.17,1.79,24,1,0,0
80698,1.0342e+08,1,4742,4800,16.19,1.66,24,1,0,0
81194,1.0353e+08,1,4788,4685,16.27,1.47,24,1,0,0
81645,1.0364e+08,1,4687,4742,16.26,1.61,24,1,0,0
82093,1.0375e+08,1,4740,4714,16.21,1.74,24,1,0,0
82545,1.0385e+08,1,4717,4928,16.04,1.96,24,1,0,0
83040,1.0397e+08,1,4926,4914,16.1,1.73,24,1,0,0
83497,1.0408e+08,1,4904,4814,16.1,1.77,24,1,0,0
83903,1.0418e+08,1,4817,4885,16.05,1.94,24,1,0,0
84402,1.0429e+08,1,4887,4928,16.1,1.78,24,1,0,0
84813,1.044e+08,1,4924,4857,16.07,1.85,24,1,0,0
85273,1.0451e+08,1,4858,4985,16.08,1.85,24,1,0,0
85712,1.0462e+08,1,4984,4957,16.08,1.86,24,1,0,0
86144,1.0472e+08,1,4957,5000,16.08,1.69,24,1,0,0
87085,1.0495e+08,1,5000,5014,16.04,2.16,24,2,0,0
87492,1.0505e+08,1,5014,5071,16.07,2.2,24,2,0,0
87947,1.0516e+08,1,5075,5171,16.06,1.92,24,2,0,0
88443,1.0527e+08,1,5162,5071,16.11,1.82,24,2,0,0
88894,1.0538e+08,1,5062,4971,16.1,2.17,24,2,0,0
89391,1.0549e+08,1,4975,5028,16.11,2.17,24,2,0,0
89796,1.0559e+08,1,5028,5042,16.08,2.05,24,2,0,0
90256,1.057e+08,1,5042,5042,16.09,2.05,24,2,0,0
90704,1.0581e+08,1,5046,5114,16.04,2.29,24,2,0,0
91154,1.0592e+08,1,5127,5271,16.07,2.18,24,2,0,0
91604,1.0603e+08,1,5263,5185,16.07,1.95,24,2,0,0
92500,1.0625e+08,1,5172,4914,15.94,1.87,24,2,0,0
93349,1.0646e+08,1,4924,5228,15.98,2.08,24,2,0,0
94229,1.0667e+08,1,5225,5042,16.06,1.91,24,2,0,0
94680,1.0679e+08,1,5027,4885,16.05,1.59,24,3,0,0
95126,1.069e+08,1,4871,4700,16.08,1.52,24,3,0,0
95577,1.0701e+08,1,4696,4642,16.17,1.53,24,3,0,0
96023,1.0711e+08,1,4633,4528,16.2,1.4,24,3,0,0
96419,1.0722e+08,1,4524,4357,16.21,1.19,24,3,0,0
96895,1.0734e+08,1,4329,4128,16.27,0.76,24,3,0,0
97294,1.0744e+08,1,4123,3928,16.3,0.87,24,3,0,0
97781,1.0756e+08,1,3904,3657,16.29,1.19,24,3,0,0
98230,1.0766e+08,1,3672,3828,16.24,1.08,24,3,0,0
98670,1.0777e+08,1,3846,4028,16.23,1.43,24,3,0,0
99525,1.0799e+08,1,4034,4171,16.14,1.7,24,3,0,0
99929,1.0809e+08,1,4172,4200,16.15,1.94,24,3,0,0
1.0038e+05,1.082e+08,1,4210,4357,16.16,1.36,24,3,0,0
1.0084e+05,1.0831e+08,1,4362,4442,16.16,1.32,24,3,0,0
1.0128e+05,1.0842e+08,1,4443,4471,16.23,1.45,24,3,0,0
1.0173e+05,1.0853e+08,1,4472,4571,16.14,1.34,24,3,0,0
1.0221e+05,1.0864e+08,1,4563,4485,16.12,1.13,25,3,0,0
1.0262e+05,1.0875e+08,1,4489,4571,16.14,1.33,25,3,0,0
1.0307e+05,1.0886e+08,1,4588,4757,16.07,1.99,25,3,0,0
1.0348e+05,1.0896e+08,1,4767,4871,16.14,1.35,25,3,0,0
1.0433e+05,1.0918e+08,1,4867,4414,16.18,1.07,25,3,0,0
1.0478e+05,1.0928e+08,1,4416,4542,16.11,1.62,25,3,0,0
1.0527e+05,1.094e+08,1,4555,4700,16.06,1.59,25,4,0,0
1.0572e+05,1.0951e+08,1,4688,4571,16.08,1.37,24,4,0,0
1.0616e+05,1.0962e+08,1,4572,4585,16.13,1.57,24,4,0,0
1.066e+05,1.0973e+08,1,4585,4585,16.07,1.48,25,4,0,0
1.0701e+05,1.0983e+08,1,4585,4600,16.11,1.42,24,4,0,0
1.079e+05,1.1005e+08,1,4598,4414,16.11,1.2,25,4,0,0
1.0929e+05,1.1038e+08,1,4417,4585,16.1,1.55,25,4,0,0
1.0974e+05,1.1049e+08,1,4578,4514,16.02,1.5,25,4,0,0
1.1014e+05,1.106e+08,1,4517,4585,16.08,1.44,24,4,0,0
1.1059e+05,1.107e+08,1,4581,4528,16.13,1.24,25,4,0,0
1.1102e+05,1.1082e+08,1,4509,4314,16.16,1.26,25,4,0,0
1.1141e+05,1.1092e+08,1,4317,4385,16.08,1.45,25,4,0,0
1.1186e+05,1.1103e+08,1,4383,4357,16.13,1.27,25,4,0,0
1.1231e+05,1.1114e+08,1,4357,4357,16.13,1.21,25,4,0,0
1.1275e+05,1.1125e+08,1,4347,4128,16.11,0.98,25,4,0,0
1.1316e+05,1.1135e+08,1,4129,4214,16.14,1.07,25,4,0,0
1.1365e+05,1.1147e+08,1,4221,4300,16.13,1.29,25,4,0,0
1.141e+05,1.1158e+08,1,4281,4114,16.13,1.01,25,4,0,0
1.1454e+05,1.1169e+08,1,4108,3985,16.1,1.16,25,4,0,0
1.1499e+05,1.118e+08,1,3997,4142,16.17,1.09,25,4,0,0
1.1544e+05,1.1191e+08,1,4118,3900,16.12,1.68,25,4,0,0
1.1584e+05,1.1201e+08,1,3900,3914,16.12,1.23,25,4,0,0
1.1632e+05,1.1213e+08,1,3911,3885,15.94,1.25,25,5,0,0
1.1673e+05,1.1223e+08,1,3888,4085,16.15,1.91,25,5,0,0
1.1722e+05,1.1234e+08,1,4086,4100,16.13,1.32,25,5,0,0
1.1767e+05,1.1245e+08,1,4096,4014,16.13,0.98,25,5,0,0
1.1808e+05,1.1256e+08,1,3995,3771,16.1,1.09,25,5,0,0
1.1856e+05,1.1267e+08,1,3769,3757,16.09,1.26,25,5,0,0
1.1897e+05,1.1278e+08,1,3773,3942,16.06,1.28,25,5,0,0
1.1986e+05,1.1299e+08,1,3943,4014,16.1,1.47,25,5,0,0
1.2032e+05,1.1311e+08,1,4006,3928,16.12,1.08,25,5,0,0
1.2072e+05,1.1321e+08,1,3936,4271,16.13,1.66,25,5,0,0
1.2117e+05,1.1332e+08,1,4238,3628,16.17,0.6,25,5,0,0
1.2162e+05,1.1343e+08,1,3623,3528,16.16,0.82,25,5,0,0
1.2206e+05,1.1354e+08,1,3531,3557,16.14,0.78,25,5,0,0
1.2247e+05,1.1364e+08,1,3557,3585,16.11,0.93,25,5,0,0
1.2292e+05,1.1376e+08,1,3588,3614,16.11,0.85,25,5,0,0
1.2333e+05,1.1386e+08,1,3617,3657,16.13,0.98,25,5,0,0
1.2466e+05,1.1418e+08,1,3667,4285,16.05,1.47,25,5,0,0
1.2511e+05,1.1429e+08,1,4303,4500,16,1.41,25,5,0,0
1.2555e+05,1.144e+08,1,4469,4057,16,0.68,25,5,0,0
1.26e+05,1.1451e+08,1,4071,4271,16.02,1.4,25,5,0,0
1.2645e+05,1.1462e+08,1,4308,4642,16.05,1.83,25,5,0,0
1.2693e+05,1.1473e+08,1,4643,4657,15.97,1.62,25,5,0,0
1.2738e+05,1.1484e+08,1,4669,4785,15.96,2.03,25,5,0,0
1.2779e+05,1.1495e+08,1,4807,5057,15.96,2.37,25,6,0,0
1.2823e+05,1.1505e+08,1,5056,5028,15.93,1.99,25,6,0,0
1.2868e+05,1.1516e+08,1,5021,4871,15.95,1.4,25,6,0,0
1.2912e+05,1.1527e+08,1,4867,4642,15.99,1.7,25,6,0,0
1.2957e+05,1.1538e+08,1,4646,4814,16,1.74,25,6,0,0
1.3007e+05,1.155e+08,1,4828,4985,15.98,2.17,25,6,0,0
1.3047e+05,1.156e+08,1,5006,5271,15.92,2.57,25,6,0,0
1.3092e+05,1.1571e+08,1,5280,5371,15.87,2.63,25,6,0,0
1.3136e+05,1.1581e+08,1,5390,5671,15.84,3.32,25,6,0,0
1.3226e+05,1.1604e+08,1,5685,6028,15.91,3.21,25,6,0,0
1.3266e+05,1.1613e+08,1,6025,5885,15.85,2.93,25,6,0,0
1.3311e+05,1.1625e+08,1,5881,5800,15.89,2.86,25,6,0,0
1.3356e+05,1.1636e+08,1,5789,5628,15.89,2.72,25,7,0,0
1.3401e+05,1.1647e+08,1,5628,5628,15.98,2.61,25,7,0,0
1.3441e+05,1.1657e+08,1,5620,5514,15.87,2.44,25,7,0,0
1.3486e+05,1.1668e+08,1,5496,5271,15.98,1.8,25,7,0,0
1.3531e+05,1.1679e+08,1,5263,4942,16.02,1.57,25,7,0,0
1.3577e+05,1.169e+08,1,4936,4857,16.03,1.74,25,7,0,0
1.3621e+05,1.1701e+08,1,4860,4900,15.95,1.84,25,7,0,0
1.3666e+05,1.1712e+08,1,4898,4885,16.08,1.53,25,7,0,0
1.3706e+05,1.1722e+08,1,4874,4728,16.01,1.27,25,7,0,0
1.3795e+05,1.1744e+08,1,4735,4957,16.11,1.92,25,7,0,0
1.384e+05,1.1756e+08,1,4971,5128,16.05,2.08,25,7,0,0
1.3884e+05,1.1766e+08,1,5141,5328,16.07,2.11,25,7,0,0
1.3929e+05,1.1777e+08,1,5317,5171,16.06,1.86,25,7,0,0
1.3974e+05,1.1788e+08,1,5167,5128,16,1.68,25,7,0,0
1.4014e+05,1.1798e+08,1,5128,5128,15.99,2.13,25,7,0,0
1.4103e+05,1.182e+08,1,5129,5228,15.97,2.01,25,8,0,0
1.4149e+05,1.1831e+08,1,5233,5357,16.04,2.19,25,8,0,0
1.4194e+05,1.1842e+08,1,5362,5414,16.04,1.95,25,8,0,0
1.4243e+05,1.1853e+08,1,5407,5314,15.98,2.2,25,8,0,0
1.4284e+05,1.1864e+08,1,5322,5400,15.98,2.25,25,8,0,0
1.4327e+05,1.1875e+08,1,5401,5428,16,2.01,25,8,0,0
1.4368e+05,1.1885e+08,1,5419,5242,15.98,2,25,8,0,0
1.4413e+05,1.1897e+08,1,5249,5342,15.97,2.01,25,8,0,0
1.4458e+05,1.1907e+08,1,5340,5314,16,1.96,25,8,0,0
1.4498e+05,1.1918e+08,1,5313,5300,15.99,1.94,25,8,0,0
1.4543e+05,1.1928e+08,1,5298,5214,15.95,1.78,25,8,0,0
1.4592e+05,1.194e+08,1,5200,5071,16,1.48,25,8,0,0
1.4632e+05,1.195e+08,1,5070,5042,16,1.89,25,8,0,0
1.4682e+05,1.1962e+08,1,5043,5057,15.95,1.51,25,8,0,0
1.4722e+05,1.1972e+08,1,5047,4857,15.99,1.7,25,8,0,0
1.4763e+05,1.1983e+08,1,4860,5057,15.99,1.97,25,8,0,0
1.4811e+05,1.1994e+08,1,5049,4971,16.05,1.62,25,8,0,0
1.4852e+05,1.2005e+08,1,4968,4842,16.08,1.29,25,8,0,0
1.4897e+05,1.2016e+08,1,4826,4642,15.98,1.2,25,9,0,0
1.4942e+05,1.2027e+08,1,4636,4585,16.02,1.17,25,9,0,0
1.4988e+05,1.2038e+08,1,4582,4542,16.04,1.2,25,9,0,0
1.5029e+05,1.2048e+08,1,4538,4371,16.07,1.37,25,9,0,0
1.5076e+05,1.2059e+08,1,4371,4371,16.03,1.11,25,9,0,0
1.5125e+05,1.2071e+08,1,4378,4485,16.02,1.26,25,9,0,0
1.5167e+05,1.2082e+08,1,4491,4614,16.04,1.21,25,9,0,0
1.5212e+05,1.2092e+08,1,4589,4271,15.97,0.97,25,9,0,0
1.5256e+05,1.2104e+08,1,4282,4442,15.89,1.59,25,9,0,0
1.5301e+05,1.2115e+08,1,4466,4685,15.97,1.79,25,9,0,0
1.5342e+05,1.2125e+08,1,4698,4885,16,1.68,25,9,0,0
1.5387e+05,1.2136e+08,1,4884,4871,16,1.53,25,9,0,0
1.5432e+05,1.2147e+08,1,4878,4985,15.98,1.86,25,9,0,0
1.5473e+05,1.2158e+08,1,4985,5000,15.97,1.56,25,9,0,0
1.5561e+05,1.2179e+08,1,5001,5028,16.02,1.87,25,9,0,0
1.5606e+05,1.219e+08,1,5024,4971,15.97,1.63,25,9,0,0
1.5646e+05,1.22e+08,1,4969,4928,15.98,1.53,25,9,0,0
1.5695e+05,1.2212e+08,1,4924,4885,16.01,1.64,25,9,0,0
1.5739e+05,1.2223e+08,1,4883,4857,16.02,1.46,25,9,0,0
1.5785e+05,1.2234e+08,1,4845,4728,16.01,1.47,25,9,0,0
1.583e+05,1.2245e+08,1,4727,4714,16.04,1.25,25,9,0,0
1.587e+05,1.2255e+08,1,4710,4471,16.05,1.02,25,10,0,0
1.5915e+05,1.2266e+08,1,4470,4414,16.05,1.29,25,10,0,0
1.5959e+05,1.2277e+08,1,4415,4457,16.02,1.32,25,10,0,0
1.6008e+05,1.2289e+08,1,4459,4485,16.01,1.33,25,10,0,0
1.6049e+05,1.2299e+08,1,4488,4557,16.03,1.36,25,10,0,0
1.6094e+05,1.2311e+08,1,4546,4328,16.04,1.15,25,10,0,0
1.6138e+05,1.2321e+08,1,4322,4185,15.98,1.08,25,10,0,0
1.6183e+05,1.2332e+08,1,4193,4357,16.05,1.29,25,10,0,0
1.6228e+05,1.2344e+08,1,4358,4385,16.01,1.59,25,10,0,0
1.6273e+05,1.2355e+08,1,4401,4528,15.98,1.55,25,10,0,0
1.6313e+05,1.2365e+08,1,4544,4671,15.97,1.51,25,10,0,0
1.6358e+05,1.2376e+08,1,4662,4571,15.99,1.59,25,10,0,0
1.6403e+05,1.2387e+08,1,4597,4828,15.97,1.92,25,10,0,0
1.6448e+05,1.2399e+08,1,4826,4814,15.97,1.38,25,10,0,0
1.6489e+05,1.2409e+08,1,4806,4714,15.94,1.63,25,10,0,0
1.6534e+05,1.242e+08,1,4707,4571,15.97,1.33,25,10,0,0
1.6583e+05,1.2431e+08,1,4559,4442,15.99,1.45,25,10,0,0
1.6624e+05,1.2442e+08,1,4433,4357,16.03,1.4,25,10,0,0
1.6664e+05,1.2452e+08,1,4358,4442,15.98,1.74,25,10,0,0
1.6713e+05,1.2464e+08,1,4438,4414,15.94,1.38,25,10,0,0
1.6758e+05,1.2475e+08,1,4428,4542,15.95,1.78,25,10,0,0
1.6798e+05,1.2485e+08,1,4543,4571,15.98,1.63,25,10,0,0
1.6844e+05,1.2497e+08,1,4571,4571,15.94,1.68,25,10,0,0
1.6884e+05,1.2506e+08,1,4582,4728,15.95,1.88,25,10,0,0
1.6929e+05,1.2517e+08,1,4732,4785,15.94,2.01,25,11,0,0
1.6974e+05,1.2528e+08,1,4792,4871,15.92,1.92,25,11,0,0
1.7015e+05,1.2539e+08,1,4873,4900,15.92,2.05,25,11,0,0
1.706e+05,1.255e+08,1,4911,5042,15.83,2,25,11,0,0
1.7104e+05,1.256e+08,1,5039,4985,15.85,2.28,25,11,0,0
1.7149e+05,1.2571e+08,1,4991,5128,15.88,2.5,25,11,0,0
1.7194e+05,1.2583e+08,1,5144,5285,15.89,2.58,25,11,0,0
1.7239e+05,1.2594e+08,1,5286,5300,15.9,2.46,25,11,0,0
1.728e+05,1.2604e+08,1,5300,5314,15.89,2.59,25,11,0,0
1.7328e+05,1.2616e+08,1,5324,5400,15.98,2.62,25,11,0,0
1.7369e+05,1.2626e+08,1,5406,5500,15.88,2.65,25,11,0,0
1.7414e+05,1.2637e+08,1,5488,5371,15.99,2.59,25,11,0,0
1.7459e+05,1.2648e+08,1,5380,5471,15.95,2.97,25,11,0,0
1.75e+05,1.2658e+08,1,5468,5400,15.99,2.71,25,11,0,0
1.7544e+05,1.2669e+08,1,5401,5500,15.94,2.78,25,11,0,0
1.7585e+05,1.2679e+08,1,5508,5614,15.97,2.94,25,12,0,0
1.7634e+05,1.2691e+08,1,5600,5485,15.97,2.21,25,12,0,0
1.767e+05,1.2701e+08,1,5484,5471,15.86,2.75,25,12,0,0
1.772e+05,1.2713e+08,1,5488,5614,15.92,2.77,25,12,0,0
1.776e+05,1.2723e+08,1,5614,5628,15.86,3.01,25,12,0,0
1.7805e+05,1.2734e+08,1,5626,5600,15.89,2.82,25,12,0,0
1.7849e+05,1.2744e+08,1,5599,5557,15.91,2.43,25,12,0,0
1.7898e+05,1.2756e+08,1,5545,5442,15.89,2.35,25,12,0,0
1.7938e+05,1.2766e+08,1,5435,5200,15.86,2.13,25,12,0,0
1.7983e+05,1.2777e+08,1,5198,5171,15.88,2.11,25,12,0,0
1.8028e+05,1.2788e+08,1,5158,5028,15.88,2.02,25,12,0,0
1.8073e+05,1.2799e+08,1,5034,5128,15.89,2.18,25,12,0,0
1.8114e+05,1.2809e+08,1,5128,5128,15.83,1.91,25,12,0,0
1.8158e+05,1.2821e+08,1,5122,5057,15.94,1.9,25,13,0,0
1.8204e+05,1.2832e+08,1,5058,5071,15.86,1.83,25,13,0,0
1.8248e+05,1.2843e+08,1,5071,5071,15.94,1.95,25,13,0,0
1.8289e+05,1.2853e+08,1,5039,4442,15.96,0.6,25,13,0,0
1.8334e+05,1.2865e+08,1,4410,4100,15.93,0.91,25,13,0,0
1.8379e+05,1.2876e+08,1,4091,4000,15.9,1.54,25,13,0,0
1.842e+05,1.2886e+08,1,4014,4214,16.01,1.7,26,13,0,0
1.8464e+05,1.2897e+08,1,4224,4428,15.98,1.45,25,13,0,0
1.8509e+05,1.2907e+08,1,4423,4342,15.94,1.28,25,13,0,0
1.8554e+05,1.2918e+08,1,4348,4500,15.97,1.32,25,13,0,0
1.8599e+05,1.2929e+08,1,4498,4400,15.95,1.27,25,13,0,0
1.8643e+05,1.294e+08,1,4399,4357,15.85,1.36,25,13,0,0
1.8692e+05,1.2951e+08,1,4368,4528,15.91,1.6,25,13,0,0
1.8736e+05,1.2962e+08,1,4531,4585,15.94,1.5,25,13,0,0
1.8781e+05,1.2973e+08,1,4594,4714,15.97,1.59,25,13,0,0
1.8826e+05,1.2984e+08,1,4708,4657,15.95,1.59,25,13,0,0
1.8871e+05,1.2996e+08,1,4655,4642,15.93,1.48,25,13,0,0
1.8911e+05,1.3006e+08,1,4641,4614,15.92,1.36,25,13,0,0
1.8956e+05,1.3016e+08,1,4622,4785,15.88,1.58,25,13,0,0
1.9e+05,1.3027e+08,1,4782,4657,15.97,1.28,25,13,0,0
1.9045e+05,1.3038e+08,1,4655,4628,15.94,1.4,25,13,0,0
1.909e+05,1.3049e+08,1,4616,4500,15.96,1.18,25,13,0,0
1.913e+05,1.306e+08,1,4498,4457,15.94,1.29,25,13,0,0
1.9176e+05,1.3071e+08,1,4455,4428,15.98,1.22,25,14,0,0
1.9216e+05,1.3081e+08,1,4426,4328,15.99,1.21,25,14,0,0
1.9269e+05,1.3093e+08,1,4328,4328,15.95,1.09,25,14,0,0
1.9305e+05,1.3102e+08,1,4327,4285,15.95,1.39,25,14,0,0
1.9353e+05,1.3113e+08,1,4287,4400,15.99,1.18,25,14,0,0
1.9398e+05,1.3125e+08,1,4399,4371,15.96,1.22,25,14,0,0
1.9439e+05,1.3135e+08,1,4372,4500,15.97,1.44,26,14,0,0
1.9488e+05,1.3147e+08,1,4496,4457,16.01,1.32,26,14,0,0
1.9529e+05,1.3157e+08,1,4459,4614,15.97,1.48,25,14,0,0
1.9573e+05,1.3168e+08,1,4614,4657,15.88,1.65,25,14,0,0
1.9618e+05,1.3179e+08,1,4657,4657,15.91,1.73,25,14,0,0
1.9663e+05,1.319e+08,1,4655,4614,15.93,1.25,25,14,0,0
1.9708e+05,1.3201e+08,1,4606,4528,15.97,1.15,25,14,0,0
1.9752e+05,1.3211e+08,1,4526,4485,15.96,1.25,25,14,0,0
1.9801e+05,1.3223e+08,1,4478,4371,15.94,1.16,26,14,0,0
1.9887e+05,1.3245e+08,1,4368,4314,15.98,1.23,25,14,0,0
1.9931e+05,1.3255e+08,1,4323,4528,15.99,1.41,25,14,0,0
1.9976e+05,1.3266e+08,1,4521,4371,15.95,1.45,25,14,0,0
2.0021e+05,1.3278e+08,1,4379,4471,15.91,1.34,25,14,0,0
2.0066e+05,1.3289e+08,1,4458,4328,15.91,1.22,26,14,0,0
2.0106e+05,1.3299e+08,1,4333,4457,15.91,1.38,25,14,0,0
2.0152e+05,1.331e+08,1,4461,4528,15.89,1.45,26,14,0,0
2.0197e+05,1.3322e+08,1,4529,4557,15.92,1.44,25,14,0,0
2.0238e+05,1.3332e+08,1,4556,4542,15.94,1.43,25,14,0,0
2.0282e+05,1.3343e+08,1,4544,4600,15.9,1.44,25,15,0,0
2.0331e+05,1.3354e+08,1,4610,4714,15.88,1.72,26,15,0,0
2.0372e+05,1.3364e+08,1,4710,4671,15.91,1.4,25,15,0,0
2.0416e+05,1.3375e+08,1,4669,4571,15.94,1.44,26,15,0,0
2.0461e+05,1.3386e+08,1,4577,4728,15.93,1.29,25,15,0,0
2.0505e+05,1.3397e+08,1,4723,4671,15.9,1.48,25,15,0,0
2.055e+05,1.3408e+08,1,4670,4628,15.94,1.47,25,15,0,0
2.0595e+05,1.3419e+08,1,4619,4542,15.95,1.29,25,15,0,0
2.064e+05,1.343e+08,1,4534,4457,15.88,1.39,25,15,0,0
2.0681e+05,1.344e+08,1,4461,4542,15.94,1.35,25,15,0,0
2.073e+05,1.3452e+08,1,4535,4485,15.92,1.47,25,15,0,0
2.077e+05,1.3462e+08,1,4491,4557,15.92,1.35,26,15,0,0
2.0856e+05,1.3484e+08,1,4556,4528,15.93,1.3,25,15,0,0
2.0905e+05,1.3495e+08,1,4524,4485,15.96,1.38,25,15,0,0
2.0945e+05,1.3505e+08,1,4488,4542,15.91,1.43,25,15,0,0
2.0989e+05,1.3516e+08,1,4544,4585,15.93,1.48,25,15,0,0
2.1035e+05,1.3527e+08,1,4581,4542,15.92,1.36,25,15,0,0
2.108e+05,1.3539e+08,1,4543,4557,15.9,1.49,25,15,0,0
2.112e+05,1.3548e+08,1,4556,4542,15.86,1.43,25,15,0,0
2.1165e+05,1.3559e+08,1,4536,4471,15.97,1.33,25,15,0,0
2.121e+05,1.3571e+08,1,4474,4500,15.94,1.57,26,15,0,0
2.1251e+05,1.3581e+08,1,4500,4514,15.9,1.4,25,15,0,0
2.1296e+05,1.3593e+08,1,4521,4585,15.93,1.4,26,15,0,0
2.134e+05,1.3603e+08,1,4586,4600,15.92,1.9,25,16,0,0
2.143e+05,1.3625e+08,1,4593,4457,15.89,1.38,25,16,0,0
2.1474e+05,1.3636e+08,1,4461,4500,15.89,1.39,26,16,0,0
2.1563e+05,1.3658e+08,1,4500,4614,15.86,1.51,26,16,0,0
2.1608e+05,1.3668e+08,1,4614,4671,15.89,1.58,25,16,0,0
2.1652e+05,1.3679e+08,1,4671,4671,15.89,1.42,25,16,0,0
2.1701e+05,1.3691e+08,1,4677,4742,15.89,1.77,25,16,0,0
2.1741e+05,1.3701e+08,1,4746,4914,15.92,1.76,25,16,0,0
2.1826e+05,1.3722e+08,1,4914,4942,15.86,1.62,25,16,0,0
2.1875e+05,1.3734e+08,1,4939,4914,15.86,1.54,25,16,0,0
2.192e+05,1.3744e+08,1,4909,4842,15.89,1.54,26,16,0,0
2.1961e+05,1.3755e+08,1,4840,4742,15.89,1.47,25,16,0,0
2.2009e+05,1.3766e+08,1,4748,4814,15.9,1.62,25,16,0,0
2.2049e+05,1.3777e+08,1,4811,4742,15.88,1.44,25,16,0,0
2.2098e+05,1.3788e+08,1,4747,4800,15.85,1.63,25,16,0,0
2.2142e+05,1.3799e+08,1,4808,4914,15.89,1.77,25,16,0,0
2.2183e+05,1.3809e+08,1,4916,5028,15.89,1.7,25,16,0,0
2.2232e+05,1.3821e+08,1,5029,5042,15.89,1.77,25,16,0,0
2.2276e+05,1.3832e+08,1,5046,5142,15.87,1.8,26,17,0,0
2.2317e+05,1.3842e+08,1,5141,5128,15.84,1.76,25,17,0,0
2.2366e+05,1.3853e+08,1,5123,5028,15.94,1.81,26,17,0,0
2.241e+05,1.3864e+08,1,5026,5000,15.88,1.71,25,17,0,0
2.2434e+05,1.3874e+08,1,5006,5128,15.92,1.92,25,17,0,0
2.2474e+05,1.3886e+08,1,5124,5085,15.94,1.68,25,17,0,0
2.2515e+05,1.3896e+08,1,5084,5071,15.91,1.61,25,17,0,0
2.256e+05,1.3907e+08,1,5071,5100,15.91,1.65,25,17,0,0
2.2604e+05,1.3918e+08,1,5095,4971,15.85,1.69,25,17,0,0
2.2648e+05,1.3928e+08,1,4973,5085,15.88,2.02,26,17,0,0
2.2693e+05,1.3939e+08,1,5082,5028,15.89,1.66,25,17,0,0
2.2741e+05,1.3951e+08,1,5028,5042,15.91,1.69,25,17,0,0
2.2786e+05,1.3961e+08,1,5038,4985,15.83,1.67,25,17,0,0
2.2831e+05,1.3972e+08,1,4985,5000,15.88,1.8,25,17,0,0
2.2874e+05,1.3983e+08,1,5004,5171,15.79,2.16,25,17,0,0
2.2919e+05,1.3994e+08,1,5169,5128,15.84,1.97,25,17,0,0
2.2964e+05,1.4005e+08,1,5128,5128,15.86,2.14,25,17,0,0
2.301e+05,1.4016e+08,1,5130,5157,15.83,2.21,25,17,0,0
2.3054e+05,1.4027e+08,1,5154,5128,15.85,1.78,25,18,0,0
2.3094e+05,1.4037e+08,1,5112,4914,15.83,1.65,26,18,0,0
2.3139e+05,1.4048e+08,1,4912,4885,15.86,1.55,25,18,0,0
2.3224e+05,1.4069e+08,1,4882,4557,15.96,1.37,25,18,0,0
2.3269e+05,1.408e+08,1,4553,4471,15.94,1.43,25,18,0,0
2.3318e+05,1.4092e+08,1,4467,4428,15.89,1.39,25,18,0,0
2.3359e+05,1.4102e+08,1,4425,4400,15.85,1.49,26,18,0,0
2.3404e+05,1.4113e+08,1,4406,4500,15.9,1.67,26,18,0,0
2.3449e+05,1.4125e+08,1,4507,4614,15.9,1.55,25,18,0,0
2.3489e+05,1.4135e+08,1,4630,4757,15.92,1.55,25,18,0,0
2.3534e+05,1.4146e+08,1,4744,4585,15.87,1.52,26,18,0,0
2.3578e+05,1.4157e+08,1,4580,4514,15.89,1.56,25,18,0,0
2.3624e+05,1.4168e+08,1,4507,4442,15.89,1.44,25,18,0,0
2.3668e+05,1.4179e+08,1,4443,4457,15.9,1.34,26,18,0,0
2.3713e+05,1.419e+08,1,4463,4528,15.86,1.72,25,18,0,0
2.3753e+05,1.42e+08,1,4531,4714,15.76,2.07,25,18,0,0
2.3797e+05,1.4211e+08,1,4714,4757,15.82,1.28,25,18,0,0
2.3842e+05,1.4222e+08,1,4750,4671,15.92,1.56,25,18,0,0
2.3887e+05,1.4233e+08,1,4656,4514,15.85,1.37,25,18,0,0
2.3931e+05,1.4243e+08,1,4509,4457,15.86,1.14,26,18,0,0
2.3976e+05,1.4254e+08,1,4440,4128,15.96,0.99,25,18,0,0
2.402e+05,1.4265e+08,1,4128,4142,15.83,1.7,25,18,0,0
2.4069e+05,1.4277e+08,1,4174,4485,15.84,1.69,25,19,0,0
2.4109e+05,1.4286e+08,1,4488,4642,15.83,1.38,25,19,0,0
2.415e+05,1.4297e+08,1,4636,4371,15.86,1.2,26,19,0,0
2.4239e+05,1.4319e+08,1,4376,4585,15.83,1.49,25,19,0,0
2.4284e+05,1.433e+08,1,4582,4471,15.84,1.54,25,19,0,0
2.4329e+05,1.4341e+08,1,4479,4571,15.88,1.78,26,19,0,0
2.4374e+05,1.4352e+08,1,4619,5114,15.85,2.55,25,19,0,0
2.4414e+05,1.4362e+08,1,5107,4714,15.86,0.85,26,19,0,0
2.4507e+05,1.4385e+08,1,4682,3971,15.97,0.87,25,19,0,0
2.4552e+05,1.4396e+08,1,3988,4157,15.89,1.92,25,19,0,0
2.4596e+05,1.4407e+08,1,4181,4442,15.89,1.73,25,19,0,0
2.4636e+05,1.4417e+08,1,4446,4542,15.83,1.33,25,19,0,0
2.477e+05,1.4449e+08,1,4541,4471,15.81,2.66,25,19,0,0
2.4815e+05,1.446e+08,1,4496,4857,15.92,1.76,25,19,0,0
2.4859e+05,1.4471e+08,1,4856,4842,15.92,1.52,25,19,0,0
2.4904e+05,1.4482e+08,1,4837,4785,15.94,1.41,25,19,0,0
2.4949e+05,1.4493e+08,1,4790,4842,15.89,1.6,25,19,0,0
2.5034e+05,1.4515e+08,1,4844,5171,15.82,2.58,25,20,0,0
2.5082e+05,1.4526e+08,1,5196,5485,15.77,2.88,25,20,0,0
2.513e+05,1.4538e+08,1,5507,5728,15.8,2.85,25,20,0,0
2.5171e+05,1.4548e+08,1,5725,5657,15.77,3.22,25,20,0,0
2.5216e+05,1.4559e+08,1,5682,5914,15.8,3.25,25,20,0,0
2.5257e+05,1.4569e+08,1,5914,5971,15.8,2.47,26,20,0,0
2.5305e+05,1.4582e+08,1,5931,5542,15.81,2.18,25,20,0,0
2.5431e+05,1.4612e+08,1,5545,6114,15.85,3.66,26,20,0,0
2.5479e+05,1.4623e+08,1,6116,6385,15.78,3.76,26,20,0,0
2.5523e+05,1.4634e+08,1,6387,6442,15.83,3.51,25,20,0,0
2.5567e+05,1.4645e+08,1,6440,6428,15.79,3.48,25,21,0,0
2.5612e+05,1.4656e+08,1,6422,6142,15.89,2.83,26,21,0,0
2.5657e+05,1.4667e+08,1,6125,5971,15.89,2.73,26,21,0,0
2.5701e+05,1.4678e+08,1,5939,5628,15.87,2.44,26,21,0,0
2.5746e+05,1.4689e+08,1,5613,5414,15.94,2.61,26,21,0,0
2.5786e+05,1.4699e+08,1,5392,5157,15.95,2.05,25,21,0,0
2.5831e+05,1.471e+08,1,5134,4957,15.86,2.06,25,21,0,0
2.5871e+05,1.472e+08,1,4948,4857,15.78,1.78,26,21,0,0
2.5916e+05,1.4731e+08,1,4854,4800,15.88,1.8,26,21,0,0
2.5961e+05,1.4743e+08,1,4786,4671,15.89,1.67,26,21,0,0
2.6006e+05,1.4753e+08,1,4677,4728,15.94,2.54,25,21,0,0
2.6051e+05,1.4764e+08,1,4751,5000,15.89,2.2,26,21,0,0
2.6094e+05,1.4775e+08,1,5015,5357,15.82,2.82,26,21,0,0
2.6139e+05,1.4786e+08,1,5361,5414,15.77,2.84,26,22,0,0
2.6183e+05,1.4797e+08,1,5421,5742,15.7,3.37,26,22,0,0
2.6228e+05,1.4808e+08,1,5756,5914,15.83,2.97,26,22,0,0
2.6272e+05,1.4819e+08,1,5911,5785,15.72,2.87,26,22,0,0
2.6313e+05,1.4829e+08,1,5784,5771,15.63,2.78,26,22,0,0
2.641e+05,1.4852e+08,1,5760,5528,15.73,2.55,26,22,0,0
2.6499e+05,1.4874e+08,1,5513,5257,15.76,1.56,26,22,0,0
2.654e+05,1.4884e+08,1,5250,4842,15.81,1.29,26,22,0,0
2.6588e+05,1.4896e+08,1,4842,4842,15.79,1.65,26,22,0,0
2.6629e+05,1.4906e+08,1,4838,4771,15.77,1.88,26,22,0,0
2.6674e+05,1.4917e+08,1,4777,4857,15.8,1.74,26,22,0,0
2.6719e+05,1.4928e+08,1,4862,4914,15.8,1.7,26,22,0,0
2.6764e+05,1.494e+08,1,4915,4928,15.79,1.88,26,23,0,0
2.6808e+05,1.495e+08,1,4932,5028,15.77,2.44,26,23,0,0
2.6853e+05,1.4961e+08,1,5045,5300,15.78,2.47,26,23,0,0
2.6897e+05,1.4972e+08,1,5302,5371,15.69,2.69,26,23,0,0
2.6942e+05,1.4983e+08,1,5353,5100,15.79,2.06,26,23,0,0
2.6986e+05,1.4994e+08,1,5098,5057,15.8,2.02,26,23,0,0
2.7032e+05,1.5005e+08,1,5051,5000,15.83,1.96,26,23,0,0
2.7076e+05,1.5016e+08,1,4992,4900,15.79,1.79,26,23,0,0
2.712e+05,1.5027e+08,1,4904,5000,15.83,2.02,26,23,0,0
2.7166e+05,1.5038e+08,1,5001,5014,15.86,2.06,26,23,0,0
2.7207e+05,1.5048e+08,1,5015,5114,15.8,2.11,26,23,0,0
2.7255e+05,1.506e+08,1,5114,5128,15.86,2.29,26,23,0,0
2.73e+05,1.5071e+08,1,5145,5328,15.82,2.21,26,23,0,0
2.7344e+05,1.5082e+08,1,5319,5228,15.9,2.09,26,23,0,0
2.7384e+05,1.5091e+08,1,5222,5000,15.93,1.74,26,23,0,0
2.7429e+05,1.5102e+08,1,4997,4928,15.91,1.7,26,23,0,0
2.7478e+05,1.5114e+08,1,4923,4871,15.95,1.75,26,23,0,0
2.7523e+05,1.5125e+08,1,4856,4700,15.94,1.27,26,24,0,0
2.7568e+05,1.5137e+08,1,4692,4614,15.89,1.58,26,24,0,0
2.7612e+05,1.5147e+08,1,4619,4671,15.94,1.88,26,24,0,0
2.7653e+05,1.5158e+08,1,4677,4828,15.86,1.85,26,24,0,0
2.7702e+05,1.5169e+08,1,4832,4885,15.85,1.66,26,24,0,0
2.7742e+05,1.5179e+08,1,4881,4714,15.88,1.49,26,24,0,0
2.7791e+05,1.5191e+08,1,4722,4828,15.83,1.84,26,24,0,0
2.7831e+05,1.5202e+08,1,4856,5042,15.91,1.89,26,24,0,0
2.7876e+05,1.5212e+08,1,5028,4885,15.85,1.76,26,24,0,0
2.7917e+05,1.5223e+08,1,4892,4971,15.86,1.81,26,24,0,0
2.8006e+05,1.5245e+08,1,4972,5057,15.86,2.19,26,24,0,0
2.8051e+05,1.5256e+08,1,5078,5271,15.83,2.06,26,24,0,0
2.8092e+05,1.5266e+08,1,5271,5342,15.87,2.33,26,24,0,0
2.8139e+05,1.5278e+08,1,5342,5342,15.87,2.22,26,24,0,0
2.8185e+05,1.5289e+08,1,5332,5271,15.85,2.13,26,24,0,0
2.8229e+05,1.53e+08,1,5253,5114,15.81,1.83,26,24,0,0
2.8274e+05,1.5311e+08,1,5111,5085,15.77,1.9,26,25,0,0
2.8315e+05,1.5321e+08,1,5090,5228,15.79,2.2,26,25,0,0
2.836e+05,1.5332e+08,1,5235,5342,15.85,2.31,26,25,0,0
2.84e+05,1.5342e+08,1,5340,5257,15.77,1.96,26,25,0,0
2.8449e+05,1.5354e+08,1,5246,5128,15.83,1.51,26,25,0,0
2.8494e+05,1.5365e+08,1,5097,4871,15.8,1.42,26,25,0,0
2.8627e+05,1.5397e+08,1,4861,4357,15.86,1.09,26,25,0,0
2.8667e+05,1.5407e+08,1,4356,4342,15.86,1.15,26,25,0,0
2.8712e+05,1.5418e+08,1,4337,4228,15.86,1.08,26,25,0,0
2.8757e+05,1.5429e+08,1,4227,4214,15.88,1.16,26,25,0,0
2.8801e+05,1.544e+08,1,4208,4142,15.88,1.16,26,25,0,0
2.8849e+05,1.5451e+08,1,4139,4114,15.85,1.24,26,25,0,0
2.8895e+05,1.5462e+08,1,4112,4100,15.82,1.23,26,25,0,0
2.8938e+05,1.5472e+08,1,4101,4142,15.86,1.2,26,25,0,0
2.898e+05,1.5483e+08,1,4145,4214,15.88,1.21,26,25,0,0
2.9024e+05,1.5494e+08,1,4223,4414,15.86,1.26,26,25,0,0
2.907e+05,1.5505e+08,1,4412,4371,15.9,1.13,26,25,0,0
2.9118e+05,1.5517e+08,1,4370,4357,15.89,0.93,26,25,0,0
2.9163e+05,1.5528e+08,1,4349,4271,15.9,1.03,26,25,0,0
2.9208e+05,1.5539e+08,1,4288,4457,15.88,1.33,26,25,0,0
2.9248e+05,1.5549e+08,1,4456,4428,15.87,1.34,26,25,0,0
2.9293e+05,1.556e+08,1,4429,4542,15.86,1.24,26,25,0,0
2.9342e+05,1.5572e+08,1,4549,4628,15.88,1.42,26,26,0,0
2.9382e+05,1.5582e+08,1,4624,4542,15.82,1.22,26,26,0,0
2.9427e+05,1.5592e+08,1,4537,4442,15.85,1.18,26,26,0,0
2.9476e+05,1.5605e+08,1,4443,4457,15.84,1.33,26,26,0,0
2.9521e+05,1.5616e+08,1,4454,4428,15.83,1.2,26,26,0,0
2.9561e+05,1.5625e+08,1,4431,4500,15.82,1.25,26,26,0,0
2.9606e+05,1.5636e+08,1,4498,4457,15.79,1.55,26,26,0,0
2.9656e+05,1.5649e+08,1,4449,4371,15.79,1.27,26,26,0,0
2.9698e+05,1.5659e+08,1,4373,4414,15.69,1.45,26,26,0,0
2.9742e+05,1.567e+08,1,4403,4300,15.75,1.26,26,26,0,0
2.9783e+05,1.5681e+08,1,4302,4371,15.8,1.55,26,26,0,0
2.9831e+05,1.5692e+08,1,4378,4457,15.82,1.29,26,26,0,0
2.9876e+05,1.5703e+08,1,4450,4385,15.76,1.29,26,26,0,0
2.992e+05,1.5714e+08,1,4394,4500,15.83,1.24,26,26,0,0
2.996e+05,1.5724e+08,1,4497,4385,15.86,1.24,26,26,0,0
3.0005e+05,1.5735e+08,1,4390,4442,15.86,1.12,26,26,0,0
3.005e+05,1.5746e+08,1,4446,4557,15.88,1.48,26,26,0,0
3.0094e+05,1.5757e+08,1,4562,4685,15.82,1.54,26,26,0,0
3.0139e+05,1.5768e+08,1,4686,4771,15.86,1.61,26,26,0,0
3.0187e+05,1.5779e+08,1,4778,4928,15.88,1.9,26,26,0,0
3.0232e+05,1.579e+08,1,4941,5142,15.83,2.2,26,26,0,0
3.0276e+05,1.5801e+08,1,5144,5171,15.8,1.87,26,26,0,0
3.0321e+05,1.5812e+08,1,5169,5157,15.83,1.74,26,26,0,0
3.0366e+05,1.5823e+08,1,5115,4828,15.85,1.55,26,26,0,0
3.041e+05,1.5833e+08,1,4831,4885,15.8,1.73,26,27,0,0
3.0499e+05,1.5856e+08,1,4878,4771,15.8,1.62,26,27,0,0
3.0544e+05,1.5866e+08,1,4771,4771,15.85,1.48,26,27,0,0
3.0588e+05,1.5877e+08,1,4764,4714,15.86,1.28,26,27,0,0
3.0633e+05,1.5888e+08,1,4698,4528,15.92,1.33,26,27,0,0
3.0673e+05,1.5898e+08,1,4526,4457,15.88,1.13,26,27,0,0
3.0722e+05,1.591e+08,1,4455,4442,15.88,1.22,26,27,0,0
3.0762e+05,1.592e+08,1,4439,4328,15.85,1.18,26,27,0,0
3.0807e+05,1.5931e+08,1,4326,4300,15.87,1.11,26,27,0,0
3.0851e+05,1.5942e+08,1,4299,4285,15.86,1.23,26,27,0,0
3.0896e+05,1.5953e+08,1,4282,4242,15.86,1.24,26,27,0,0
3.0936e+05,1.5963e+08,1,4242,4257,15.88,1.22,26,27,0,0
3.1029e+05,1.5985e+08,1,4257,4285,15.85,1.22,26,27,0,0
3.1078e+05,1.5997e+08,1,4286,4300,15.82,1.36,26,27,0,0
3.1119e+05,1.6007e+08,1,4312,4585,15.85,1.52,26,27,0,0
3.1163e+05,1.6018e+08,1,4579,4485,15.82,1.33,26,27,0,0
3.1248e+05,1.6039e+08,1,4485,4485,15.84,1.41,26,27,0,0
3.1293e+05,1.605e+08,1,4485,4557,15.82,1.26,26,27,0,0
3.1338e+05,1.6061e+08,1,4555,4485,15.84,1.3,26,27,0,0
3.1386e+05,1.6073e+08,1,4489,4557,15.85,1.53,26,27,0,0
3.143e+05,1.6083e+08,1,4557,4600,15.85,1.56,26,27,0,0
3.1475e+05,1.6094e+08,1,4604,4685,15.81,1.55,26,28,0,0
3.152e+05,1.6105e+08,1,4686,4757,15.77,1.71,26,28,0,0
3.1612e+05,1.6128e+08,1,4755,4714,15.78,1.5,26,28,0,0
3.1657e+05,1.6139e+08,1,4714,4714,15.83,1.53,26,28,0,0
3.1698e+05,1.6149e+08,1,4715,4742,15.75,1.62,26,28,0,0
3.1743e+05,1.6161e+08,1,4727,4514,15.81,1.4,26,28,0,0
3.1788e+05,1.6172e+08,1,4505,4428,15.86,1.1,26,28,0,0
3.1828e+05,1.6181e+08,1,4428,4471,15.8,1.64,26,28,0,0
3.1873e+05,1.6193e+08,1,4469,4442,15.82,1.12,26,28,0,0
3.1918e+05,1.6204e+08,1,4435,4371,15.89,1.49,26,28,0,0
3.1963e+05,1.6215e+08,1,4382,4500,15.83,1.34,26,28,0,0
3.2006e+05,1.6225e+08,1,4497,4371,15.89,1.19,26,28,0,0
3.2055e+05,1.6237e+08,1,4365,4271,15.88,1.1,26,28,0,0
3.2096e+05,1.6247e+08,1,4257,4128,15.88,1.2,26,28,0,0
3.2141e+05,1.6258e+08,1,4140,4271,15.9,1.57,26,28,0,0
3.2185e+05,1.6269e+08,1,4271,4271,15.89,1.4,26,28,0,0
3.223e+05,1.628e+08,1,4278,4385,15.94,1.34,26,28,0,0
3.2279e+05,1.6291e+08,1,4251,2728,16.5,0.08,26,28,0,0
3.232e+05,1.6302e+08,1,2695,2257,16.38,0.27,26,28,0,0
3.2368e+05,1.6313e+08,1,2264,2342,16.28,0.46,26,28,0,0
3.2412e+05,1.6324e+08,1,2328,2114,16.26,0.05,26,28,0,0
3.2453e+05,1.6334e+08,1,2110,1942,16.26,0.14,26,28,0,0
3.2538e+05,1.6356e+08,1,1942,1985,16.27,0.12,26,28,0,0
3.2584e+05,1.6367e+08,1,1984,1942,16.27,0.19,26,28,0,0
3.2632e+05,1.6379e+08,1,1942,1942,16.26,0.15,26,28,0,0
3.2677e+05,1.6389e+08,1,1942,1942,16.27,0.15,26,28,0,0
3.2718e+05,1.64e+08,1,1940,1914,16.28,0.16,26,28,0,0
3.2766e+05,1.6412e+08,1,1914,1914,16.28,0.16,26,28,0,0
3.2806e+05,1.6422e+08,1,1913,1900,16.28,0.16,26,28,0,0
3.2855e+05,1.6434e+08,1,1900,1900,16.29,0.17,26,28,0,0
3.2896e+05,1.6444e+08,1,1901,1928,16.29,0.16,26,28,0,0
3.2941e+05,1.6455e+08,1,1928,1928,16.29,0.16,26,28,0,0
3.2985e+05,1.6466e+08,1,1929,1942,16.29,0.19,26,28,0,0
3.303e+05,1.6477e+08,1,1942,1942,16.29,0.17,26,28,0,0
3.3074e+05,1.6487e+08,1,1941,1928,16.29,0.16,26,28,0,0
3.3115e+05,1.6497e+08,1,1929,1985,16.33,0.18,26,28,0,0
3.3164e+05,1.6509e+08,1,1964,1785,16.37,0.02,26,28,0,0
3.3204e+05,1.6519e+08,1,1759,1457,16.36,0,26,28,0,0
3.325e+05,1.653e+08,1,1447,1342,16.35,0.06,26,28,0,0
3.3298e+05,1.6541e+08,1,1340,1328,16.36,0.08,26,28,0,0
3.3339e+05,1.6551e+08,1,1328,1328,16.36,0.08,26,28,0,0
3.3388e+05,1.6563e+08,1,1328,1328,16.36,0.08,26,28,0,0
3.3432e+05,1.6573e+08,1,1328,1328,16.36,0.08,26,28,0,0
3.3473e+05,1.6584e+08,1,1328,1328,16.36,0.08,25,28,0,0
3.3518e+05,1.6594e+08,1,1328,1328,16.36,0.08,26,28,0,0
3.3563e+05,1.6606e+08,1,1328,1328,16.37,0.08,25,28,0,0
3.3607e+05,1.6616e+08,1,1328,1328,16.38,0.08,25,28,0,0
3.3652e+05,1.6627e+08,1,1328,1328,16.36,0.09,25,28,0,0
3.3697e+05,1.6638e+08,1,1326,1314,16.37,0.09,26,28,0,0
3.3741e+05,1.6649e+08,1,1314,1328,16.37,0.08,25,28,0,0
3.3787e+05,1.666e+08,1,1291,471,16.39,0,25,28,0,0
3.3832e+05,1.667e+08,1,460,200,16.39,0,25,28,0,0
3.3881e+05,1.6682e+08,1,182,0,16.4,0,25,28,0,0
3.3926e+05,1.6692e+08,1,0,0,16.41,0.01,25,28,0,0
3.3972e+05,1.6703e+08,1,0,0,16.4,0.01,25,28,0,0
3.4062e+05,1.6725e+08,1,0,0,16.41,0.01,25,28,0,0
3.4107e+05,1.6736e+08,1,0,0,16.41,0.01,25,28,0,0
3.4152e+05,1.6746e+08,1,0,0,16.41,0.01,25,28,0,0
3.4198e+05,1.6757e+08,1,0,0,16.41,0.01,25,28,0,0
3.4243e+05,1.6768e+08,1,0,0,16.41,0.01,25,28,0,0
3.4292e+05,1.6779e+08,1,0,0,16.41,0.01,25,28,0,0
3.4337e+05,1.679e+08,1,0,0,16.42,0.01,25,28,0,0
3.4383e+05,1.6801e+08,1,0,0,16.42,0.01,25,28,0,0
3.4432e+05,1.6812e+08,1,0,0,16.42,0.01,25,28,0,0
3.4477e+05,1.6823e+08,1,0,0,16.42,0.01,25,28,0,0
3.4526e+05,1.6834e+08,1,0,0,16.42,0.01,25,28,0,0
3.4571e+05,1.6844e+08,1,0,0,16.42,0.01,25,28,0,0
3.4662e+05,1.6866e+08,1,0,0,16.42,0.01,25,28,0,0
3.4707e+05,1.6877e+08,1,0,0,16.42,0.01,25,28,0,0
3.4757e+05,1.6888e+08,1,0,0,16.42,0.01,25,28,0,0
3.4801e+05,1.6899e+08,1,0,0,16.43,0.01,25,28,0,0
3.485e+05,1.691e+08,1,0,0,16.43,0.01,25,28,0,0
3.4945e+05,1.6932e+08,1,0,0,16.42,0.01,25,28,0,0
3.499e+05,1.6942e+08,1,0,0,16.44,0.01,25,28,0,0
3.504e+05,1.6954e+08,1,0,0,16.44,0.01,25,28,0,0
3.5081e+05,1.6964e+08,1,0,0,16.44,0.01,25,28,0,0
3.5129e+05,1.6975e+08,1,0,0,16.44,0.01,25,28,0,0
3.5175e+05,1.6986e+08,1,0,0,16.44,0.01,25,28,0,0
3.522e+05,1.6997e+08,1,0,0,16.44,0.01,25,28,0,0
3.527e+05,1.7008e+08,1,0,0,16.44,0.01,25,28,0,0
3.5315e+05,1.7019e+08,1,0,0,16.44,0.01,25,28,0,0
3.536e+05,1.7029e+08,1,0,0,16.44,0.01,25,28,0,0
3.5406e+05,1.704e+08,1,0,0,16.45,0.01,25,28,0,0
3.5452e+05,1.7051e+08,1,0,0,16.45,0.01,25,28,0,0
3.5492e+05,1.7061e+08,1,0,0,16.45,0.01,25,28,0,0
3.5538e+05,1.7071e+08,1,0,0,16.45,0.02,25,28,0,0
3.5587e+05,1.7083e+08,1,0,0,16.45,0.02,25,28,0,0
3.5632e+05,1.7093e+08,1,0,0,16.45,0.01,25,28,0,0
3.5677e+05,1.7104e+08,1,0,0,16.45,0.01,25,28,0,0
3.5726e+05,1.7115e+08,1,0,0,16.45,0.01,25,28,0,0
3.5771e+05,1.7126e+08,1,0,0,16.45,0.01,25,28,0,0
3.5816e+05,1.7136e+08,1,0,0,16.45,0.01,25,28,0,0
3.5861e+05,1.7147e+08,1,0,0,16.45,0.01,25,28,0,0
3.5911e+05,1.7159e+08,1,0,0,16.46,0.01,25,28,0,0
3.596e+05,1.717e+08,1,0,0,16.46,0.01,25,28,0,0
3.6001e+05,1.718e+08,1,0,0,16.45,0.01,25,28,0,0
3.6047e+05,1.7191e+08,1,0,0,16.46,0.01,25,28,0,0
3.6093e+05,1.7202e+08,1,0,0,16.46,0.01,25,28,0,0
3.6138e+05,1.7213e+08,1,0,0,16.46,0.01,25,28,0,0
3.6187e+05,1.7224e+08,1,0,0,16.46,0.01,25,28,0,0
3.6236e+05,1.7236e+08,1,0,0,16.47,0.01,25,28,0,0
3.6282e+05,1.7246e+08,1,0,0,16.46,0.01,25,28,0,0
3.6372e+05,1.7268e+08,1,0,0,16.47,0.01,25,28,0,0
