LineNo,TimeUS,Instance,RPM,RawRPM,Volt,Curr,Temp,CTot,MotTemp,Err
1815,33717649,0,0,0,16.67,0.04,28,0,0,0
2270,33831179,0,0,0,16.67,0.04,28,0,0,0
3103,34040518,0,0,0,16.67,0.04,28,0,0,0
3527,34144651,0,0,0,16.66,0.04,28,0,0,0
3979,34259681,0,0,0,16.67,0.04,28,0,0,0
4393,34362164,0,0,0,16.67,0.04,28,0,0,0
4845,34479905,0,0,0,16.66,0.04,28,0,0,0
5221,34570854,0,0,0,16.67,0.04,28,0,0,0
5702,34689547,0,0,0,16.67,0.04,28,0,0,0
6083,34787871,0,0,0,16.67,0.04,28,0,0,0
6533,34902603,0,0,0,16.67,0.04,28,0,0,0
7357,35111218,0,0,0,16.67,0.04,28,0,0,0
7810,35224311,0,0,0,16.67,0.04,28,0,0,0
8230,35333493,0,0,0,16.67,0.04,28,0,0,0
8642,35435907,0,0,0,16.67,0.04,28,0,0,0
9105,35553858,0,0,0,16.66,0.04,28,0,0,0
9476,35648139,0,0,0,16.67,0.04,28,0,0,0
9931,35764231,0,0,0,16.67,0.04,28,0,0,0
10344,35869832,0,0,0,16.67,0.04,28,0,0,0
10657,35971777,0,0,0,16.67,0.04,28,0,0,0
11117,36085324,0,0,0,16.67,0.04,28,0,0,0
11537,36190572,0,0,0,16.67,0.04,28,0,0,0
11987,36303629,0,0,0,16.67,0.04,28,0,0,0
12400,36408155,0,0,0,16.67,0.04,28,0,0,0
12811,36514632,0,0,0,16.67,0.04,28,0,0,0
13267,36627110,0,0,0,16.66,0.04,28,0,0,0
13682,36734376,0,0,0,16.67,0.05,28,0,0,0
14092,36839634,0,0,0,16.67,0.05,28,0,0,0
14512,36952181,0,0,0,16.67,0.04,28,0,0,0
14923,37053480,0,0,0,16.67,0.04,28,0,0,0
15333,37158952,0,0,0,16.67,0.04,28,0,0,0
15781,37270860,0,0,0,16.67,0.04,28,0,0,0
16196,37371110,0,0,0,16.67,0.04,28,0,0,0
16641,37480922,0,0,0,16.67,0.04,28,0,0,0
17064,37587316,0,0,0,16.67,0.04,28,0,0,0
17514,37701089,0,0,0,16.67,0.04,28,0,0,0
17930,37806811,0,0,0,16.67,0.04,28,0,0,0
18341,37910100,0,0,0,16.67,0.04,28,0,0,0
18795,38022815,0,0,0,16.67,0.04,28,0,0,0
19213,38128098,0,0,0,16.66,0.04,28,0,0,0
19620,38230915,0,0,0,16.67,0.04,28,0,0,0
20083,38346571,0,0,0,16.67,0.04,28,0,0,0
20497,38448512,0,0,0,16.67,0.04,28,0,0,0
20885,38551578,0,0,0,16.66,0.04,28,0,0,0
21336,38662827,0,0,0,16.67,0.04,28,0,0,0
21748,38768572,0,0,0,16.67,0.04,28,0,0,0
22202,38884025,0,0,0,16.67,0.04,28,0,0,0
22578,38979823,0,0,0,16.67,0.04,28,0,0,0
23062,39098138,0,0,0,16.67,0.04,28,0,0,0
23474,39203556,0,0,0,16.67,0.04,28,0,0,0
23882,39309698,0,0,0,16.66,0.04,28,0,0,0
24299,39416188,0,0,0,16.67,0.04,28,0,0,0
24721,39522642,0,0,0,16.67,0.04,28,0,0,0
25134,39626205,0,0,0,16.67,0.04,28,0,0,0
25583,39734187,0,0,0,16.67,0.04,28,0,0,0
26039,39850795,0,0,0,16.67,0.04,28,0,0,0
26453,39954849,0,0,0,16.67,0.04,28,0,0,0
26865,40060306,0,0,0,16.67,0.04,28,0,0,0
27320,40175775,0,0,0,16.67,0.04,28,0,0,0
27730,40279310,0,0,0,16.66,0.04,28,0,0,0
28193,40392186,0,0,0,16.67,0.04,28,0,0,0
28609,40499578,0,0,0,16.67,0.04,28,0,0,0
29026,40603779,0,0,0,16.67,0.03,28,0,0,0
29438,40708776,0,0,0,16.67,0.04,28,0,0,0
29894,40824155,0,0,0,16.67,0.04,28,0,0,0
30307,40929502,0,0,0,16.67,0.03,28,0,0,0
30727,41037107,0,0,0,16.67,0.04,28,0,0,0
31136,41140687,0,0,0,16.67,0.04,28,0,0,0
31590,41254628,0,0,0,16.66,0.04,28,0,0,0
32001,41360648,0,0,0,16.67,0.04,28,0,0,0
32415,41469131,0,0,0,16.67,0.04,28,0,0,0
32874,41583179,0,0,0,16.67,0.04,28,0,0,0
33287,41688294,0,0,0,16.67,0.04,28,0,0,0
33702,41791230,0,0,0,16.67,0.04,28,0,0,0
34153,41906813,0,0,0,16.67,0.04,28,0,0,0
34982,42118059,0,0,0,16.67,0.04,28,0,0,0
35393,42223818,0,0,0,16.67,0.04,28,0,0,0
35849,42335871,0,0,0,16.67,0.04,28,0,0,0
36266,42443312,0,0,0,16.67,0.04,28,0,0,0
36686,42550607,0,0,0,16.67,0.04,28,0,0,0
37512,42763128,0,0,0,16.67,0.04,28,0,0,0
37962,42878850,0,0,0,16.67,0.04,28,0,0,0
38376,42982532,0,0,0,16.67,0.04,28,0,0,0
38826,43095066,0,0,0,16.67,0.04,28,0,0,0
39242,43202645,0,0,0,16.66,0.04,28,0,0,0
39655,43310778,0,0,0,16.67,0.04,28,0,0,0
40071,43417632,0,0,0,16.67,0.04,28,0,0,0
40903,43630829,0,0,0,16.67,0.04,28,0,0,0
41315,43732284,0,0,0,16.67,0.04,28,0,0,0
41766,43849199,0,0,0,16.67,0.04,28,0,0,0
42178,43951308,0,0,0,16.67,0.04,28,0,0,0
42587,44054299,0,0,0,16.67,0.04,28,0,0,0
43460,44277040,0,0,0,16.66,0.04,28,0,0,0
43872,44378610,0,0,0,16.67,0.04,28,0,0,0
44292,44485698,0,0,0,16.67,0.04,28,0,0,0
44708,44591649,0,0,0,16.66,0.04,28,0,0,0
45124,44696837,0,0,0,16.67,0.04,28,0,0,0
45578,44809665,0,0,0,16.67,0.04,28,0,0,0
45988,44912590,0,0,0,16.66,0.04,29,0,0,0
46410,45018819,0,0,0,16.67,0.04,29,0,0,0
46859,45131151,0,0,0,16.66,0.04,29,0,0,0
47275,45235501,0,0,0,16.66,0.04,28,0,0,0
47692,45343613,0,0,0,16.66,0.04,29,0,0,0
48101,45445202,0,0,0,16.66,0.04,28,0,0,0
48515,45552811,0,0,0,16.66,0.04,28,0,0,0
48965,45670627,0,0,0,16.67,0.04,29,0,0,0
49376,45772457,0,0,0,16.67,0.04,28,0,0,0
49787,45874338,0,0,0,16.67,0.04,28,0,0,0
50242,45988771,0,0,0,16.67,0.04,28,0,0,0
50649,46092180,0,0,0,16.66,0.04,29,0,0,0
51105,46204793,0,0,0,16.66,0.04,28,0,0,0
51524,46311903,0,0,0,16.67,0.04,28,0,0,0
51941,46417650,0,0,0,16.67,0.04,28,0,0,0
52353,46522772,0,0,0,16.66,0.04,28,0,0,0
52801,46637260,0,0,0,16.66,0.04,29,0,0,0
53218,46740574,0,0,0,16.66,0.04,28,0,0,0
53668,46853339,0,0,0,16.67,0.04,28,0,0,0
54089,46957563,0,0,0,16.67,0.04,29,0,0,0
54501,47062818,0,0,0,16.67,0.04,28,0,0,0
54953,47175128,0,0,0,16.67,0.04,28,0,0,0
55363,47277815,0,0,0,16.67,0.04,28,0,0,0
56062,47488690,0,0,0,16.66,0.04,28,0,0,0
56517,47604252,0,0,0,16.66,0.04,29,0,0,0
56924,47704850,0,0,0,16.67,0.04,28,0,0,0
57016,97810295,0,0,0,16.66,0.04,30,0,0,0
57389,97900145,0,0,0,16.65,0.04,30,0,0,0
57796,98002522,0,0,0,16.66,0.04,30,0,0,0
58294,98115629,0,0,0,16.65,0.04,30,0,0,0
58744,98218917,0,0,0,16.65,0.04,30,0,0,0
59199,98323077,0,0,0,16.65,0.04,30,0,0,0
59692,98437593,0,0,0,16.66,0.04,30,0,0,0
60145,98544825,0,0,0,16.66,0.04,30,0,0,0
60600,98650119,0,0,0,16.65,0.04,30,0,0,0
61056,98756410,0,0,0,16.66,0.04,30,0,0,0
61556,98869867,0,0,0,16.66,0.04,30,0,0,0
62003,98974656,0,0,0,16.65,0.04,30,0,0,0
62462,99082209,0,0,0,16.66,0.04,30,0,0,0
62903,99187320,0,0,0,16.65,0.04,30,0,0,0
63336,99288617,0,0,0,16.66,0.04,30,0,0,0
63818,99403526,0,0,0,16.65,0.04,30,0,0,0
64272,99504638,0,0,0,16.65,0.04,30,0,0,0
64768,99622268,0,0,0,16.65,0.04,30,0,0,0
65226,99732799,0,0,0,16.66,0.04,30,0,0,0
65681,99834840,0,0,0,16.65,0.04,30,0,0,0
66171,99946775,0,0,0,16.65,0.05,30,0,0,0
66627,100050768,0,30,500,16.63,0.12,30,0,0,0
67083,100161336,0,532,1014,16.61,0.17,30,0,0,0
67537,100264582,0,1023,1242,16.63,0.13,30,0,0,0
67992,100370579,0,1244,1300,16.63,0.12,30,0,0,0
68495,100483634,0,1301,1328,16.63,0.11,30,0,0,0
68938,100591821,0,1329,1342,16.63,0.11,30,0,0,0
69371,100694211,0,1342,1342,16.64,0.11,30,0,0,0
69846,100803305,0,1342,1357,16.63,0.11,30,0,0,0
70558,101023205,0,1355,1342,16.64,0.11,30,0,0,0
71012,101125834,0,1342,1357,16.64,0.11,30,0,0,0
71463,101232258,0,1357,1357,16.64,0.11,30,0,0,0
71957,101347200,0,1355,1342,16.63,0.11,30,0,0,0
72868,101563807,0,1342,1342,16.63,0.11,30,0,0,0
73320,101665505,0,1342,1357,16.64,0.11,30,0,0,0
73802,101777609,0,1357,1357,16.64,0.11,30,0,0,0
74240,101881554,0,1356,1342,16.63,0.11,30,0,0,0
74687,101991378,0,1343,1357,16.61,0.14,30,0,0,0
75140,102094091,0,1362,1671,16.57,0.28,30,0,0,0
75626,102205368,0,1713,2557,16.43,1.37,30,0,0,0
76082,102311067,0,2581,3171,16.42,1.42,30,0,0,0
76535,102422589,0,3206,3714,16.3,1.74,30,0,0,0
77441,102637921,0,3756,4942,16.06,3.1,30,1,0,0
77887,102745828,0,4948,5585,15.9,3.56,30,1,0,0
78383,102860688,0,5635,6128,16.04,4.07,30,1,0,0
78831,102968585,0,6116,5957,16.1,3.07,30,1,0,0
80237,103301279,0,5956,5942,16.09,3.65,30,1,0,0
80653,103407250,0,5945,6028,16.14,3.54,30,1,0,0
81105,103510625,0,6030,6100,16.13,3.65,30,1,0,0
81556,103619585,0,6100,6114,16.1,3.59,30,2,0,0
82500,103843544,0,6132,6514,15.94,4.55,30,2,0,0
82953,103947185,0,6515,6557,15.92,5.15,30,2,0,0
83404,104055774,0,6580,6885,15.89,5.16,30,2,0,0
83858,104166679,0,6879,6828,15.88,5.37,30,2,0,0
84313,104273679,0,6828,6828,15.91,5.11,30,2,0,0
84768,104385648,0,6823,6785,15.86,5.09,30,3,0,0
85184,104485146,0,6788,6857,15.88,5.16,30,3,0,0
86059,104701596,0,6855,6671,15.89,4.98,30,3,0,0
86994,104925234,0,6670,6657,15.89,4.58,30,3,0,0
87447,105035877,0,6658,6671,15.85,4.57,30,3,0,0
87902,105145229,0,6662,6585,15.86,4.8,30,4,0,0
88351,105250264,0,6590,6714,15.86,4.68,30,4,0,0
88805,105355902,0,6705,6500,15.93,4.35,30,4,0,0
89302,105469764,0,6507,6585,15.96,4.28,30,4,0,0
89748,105575912,0,6576,6457,15.89,4.26,30,4,0,0
90164,105675360,0,6455,6328,15.89,4.24,30,4,0,0
90613,105791576,0,6330,6357,15.92,4.17,30,4,0,0
91107,105909682,0,6349,6271,15.85,4.21,30,5,0,0
91514,106012149,0,6275,6542,15.86,4.63,30,5,0,0
91963,106119663,0,6550,6757,15.83,5.17,30,5,0,0
92410,106229601,0,6761,6828,15.82,5.32,30,5,0,0
92814,106328686,0,6827,6814,15.78,5.5,30,5,0,0
93304,106450636,0,6820,6885,15.75,5.4,30,5,0,0
94183,106661674,0,6878,6714,15.82,5,30,6,0,0
94591,106768099,0,6725,7014,15.85,5.09,30,6,0,0
95040,106874041,0,7001,6700,15.89,4.62,30,6,0,0
95488,106986523,0,6680,6414,15.96,3.96,30,6,0,0
96332,107196856,0,6412,6242,16.02,3.58,30,6,0,0
96803,107313901,0,6216,5957,16.07,3.14,30,6,0,0
97204,107415312,0,5953,5728,16.14,2.75,30,6,0,0
97691,107533067,0,5723,5671,16.07,3.06,30,7,0,0
98137,107643842,0,5679,5757,16.02,3.24,30,7,0,0
99027,107862625,0,5765,5957,16.07,3.65,30,7,0,0
99431,107964923,0,5961,6057,15.93,3.72,30,7,0,0
99884,108076216,0,6077,6300,16.03,4.12,30,7,0,0
100290,108178789,0,6298,6171,15.97,4.09,30,7,0,0
100739,108290381,0,6170,6157,15.95,3.77,30,7,0,0
101230,108408149,0,6160,6200,15.98,3.87,30,7,0,0
101677,108517593,0,6197,6171,16,3.92,30,8,0,0
102117,108623136,0,6176,6257,15.97,4.24,30,8,0,0
102565,108733114,0,6251,6185,15.97,4.01,30,8,0,0
102978,108841548,0,6185,6185,15.96,3.74,30,8,0,0
103431,108954356,0,6181,6142,15.97,4.06,31,8,0,0
103833,109051307,0,6148,6228,15.94,4.01,31,8,0,0
104281,109163904,0,6232,6285,15.95,4.53,31,8,0,0
104729,109272807,0,6290,6428,15.92,4.07,31,8,0,0
105627,109493109,0,6427,6414,15.94,4.39,31,9,0,0
106062,109600609,0,6409,6314,15.92,4.21,31,9,0,0
106509,109708599,0,6324,6457,15.91,4.38,31,9,0,0
106912,109811319,0,6456,6414,15.91,4.11,31,9,0,0
107411,109927850,0,6403,6257,15.97,4.31,31,9,0,0
107856,110040389,0,6273,6428,15.89,4.38,31,9,0,0
108340,110152614,0,6422,6371,15.92,4.28,31,9,0,0
108742,110251124,0,6374,6442,15.91,4.65,31,10,0,0
109192,110361355,0,6441,6414,15.91,4.15,31,10,0,0
109648,110472504,0,6416,6457,15.89,4.51,31,10,0,0
110094,110584788,0,6458,6471,15.85,4.44,31,10,0,0
110499,110683925,0,6471,6485,15.85,4.42,31,10,0,0
110939,110797770,0,6483,6457,15.91,4.4,31,10,0,0
111371,110907802,0,6449,6371,15.86,4.4,31,10,0,0
111768,111010924,0,6377,6528,15.85,4.56,31,11,0,0
112217,111118289,0,6524,6457,15.91,4.14,31,11,0,0
112661,111226554,0,6456,6442,15.96,4.41,31,11,0,0
113111,111341197,0,6441,6400,15.98,4.05,31,11,0,0
113559,111446602,0,6397,6371,15.96,3.97,31,11,0,0
114009,111557619,0,6368,6328,15.95,4.12,31,11,0,0
114455,111664533,0,6328,6342,15.95,4.1,31,11,0,0
114901,111775889,0,6339,6285,15.99,3.88,31,11,0,0
115351,111884874,0,6285,6300,15.88,4.3,31,12,0,0
116239,112099289,0,6300,6300,15.88,4.1,31,12,0,0
116689,112215813,0,6289,6185,15.89,4.46,31,12,0,0
117137,112321604,0,6199,6400,15.86,4.53,31,12,0,0
117585,112432036,0,6410,6514,15.95,4.28,31,12,0,0
118030,112536798,0,6514,6514,15.86,4.38,31,12,0,0
118883,112753688,0,6513,6428,15.94,4.23,31,13,0,0
119338,112863796,0,6429,6500,15.89,4.35,31,13,0,0
119776,112971422,0,6494,6357,15.94,4.12,31,13,0,0
120229,113084646,0,6359,6514,15.97,4.54,31,13,0,0
120671,113192916,0,6501,6300,15.96,3.67,31,13,0,0
121124,113304611,0,6312,6428,15.96,4.9,31,13,0,0
122023,113524780,0,6430,6471,15.92,4.31,31,13,0,0
122423,113630080,0,6476,6514,15.95,4.41,31,14,0,0
123287,113847114,0,6516,6571,15.97,4.18,31,14,0,0
123732,113955042,0,6530,6214,15.85,4.38,31,14,0,0
124612,114170662,0,6226,6485,15.82,4.5,32,14,0,0
125024,114273798,0,6485,6542,15.78,4.73,31,14,0,0
125509,114391078,0,6582,6857,15.79,5.6,32,15,0,0
125919,114485875,0,6853,6628,15.82,5.05,32,15,0,0
126363,114599767,0,6625,6442,15.79,4.15,32,15,0,0
126808,114705043,0,6442,6457,15.74,4.59,32,15,0,0
127290,114822372,0,6457,6471,15.74,4.43,32,15,0,0
127744,114933126,0,6460,6371,15.71,4.68,32,15,0,0
128145,115029637,0,6375,6628,15.72,4.85,32,15,0,0
128593,115138799,0,6627,6614,15.73,5.11,32,16,0,0
129034,115247650,0,6613,6585,15.74,4.59,32,16,0,0
129525,115365083,0,6573,6457,15.76,4.28,32,16,0,0
129980,115474354,0,6463,6528,15.76,4.27,32,16,0,0
130378,115571827,0,6525,6428,15.75,4.1,32,16,0,0
130827,115683785,0,6422,6342,15.67,4.06,32,16,0,0
131266,115791297,0,6338,6271,15.74,3.49,32,16,0,0
132128,116005332,0,6268,5942,15.65,3.56,32,17,0,0
132571,116111810,0,5944,6100,15.68,3.89,32,17,0,0
133063,116235553,0,6103,6128,15.67,3.98,32,17,0,0
133474,116337009,0,6124,6085,15.8,3.73,32,17,0,0
133925,116443892,0,6087,6114,15.74,3.82,32,17,0,0
134368,116557198,0,6115,6128,15.77,3.75,32,17,0,0
134773,116656679,0,6140,6371,15.71,4.09,32,17,0,0
135217,116766568,0,6373,6471,15.84,4.42,32,17,0,0
135675,116882791,0,6452,6214,15.83,3.92,32,18,0,0
136119,116991331,0,6205,6071,15.82,3.83,32,18,0,0
136568,117100079,0,6075,6171,15.8,3.81,32,18,0,0
137015,117213184,0,6172,6185,15.81,4.03,32,18,0,0
137465,117323661,0,6170,6042,15.95,3.48,32,18,0,0
137864,117420877,0,6027,5728,15.91,2.73,32,18,0,0
138355,117545387,0,5688,5457,15.89,2.48,32,18,0,0
138752,117637541,0,5454,5357,15.82,2.91,32,18,0,0
139243,117759783,0,5379,5614,15.87,3.42,32,18,0,0
139647,117855681,0,5616,5714,15.77,3.6,32,18,0,0
140100,117970614,0,5733,5928,15.76,3.76,32,19,0,0
140988,118185525,0,5928,5928,15.78,3.58,32,19,0,0
141442,118297899,0,5911,5742,15.86,2.93,32,19,0,0
141848,118401098,0,5745,5828,15.83,3.26,32,19,0,0
142331,118512117,0,5823,5728,15.79,3.29,32,19,0,0
142746,118620882,0,5731,5785,15.74,3.4,32,19,0,0
143228,118738269,0,5780,5757,15.88,3.31,32,19,0,0
143637,118840896,0,5762,5814,15.86,3.36,32,19,0,0
144087,118955586,0,5807,5742,15.83,3.22,32,20,0,0
144491,119053150,0,5749,5842,15.77,3.39,32,20,0,0
144940,119166849,0,5840,5828,15.82,3.39,32,20,0,0
145343,119263880,0,5828,5857,15.81,3.55,32,20,0,0
145825,119377855,0,5863,6014,15.77,3.78,32,20,0,0
146278,119490070,0,6021,6100,15.85,3.55,32,20,0,0
146721,119598126,0,6096,6042,15.82,3.66,32,20,0,0
147172,119709044,0,6045,6085,15.79,3.7,32,20,0,0
147583,119818590,0,6077,6000,15.78,3.55,32,20,0,0
148023,119920284,0,5997,5942,15.85,3.7,32,20,0,0
148474,120037566,0,5950,6042,15.86,3.58,32,21,0,0
148927,120146071,0,6036,5985,15.84,3.63,32,21,0,0
149329,120248569,0,5991,6085,15.85,3.63,32,21,0,0
149782,120358302,0,6084,6071,15.85,3.76,32,21,0,0
150237,120471865,0,6066,6014,15.83,4.08,32,21,0,0
150714,120582348,0,6026,6200,15.79,4.23,32,21,0,0
151160,120688357,0,6205,6328,15.84,4.07,32,21,0,0
151575,120794613,0,6320,6157,15.87,4,32,21,0,0
152069,120911156,0,6180,6414,15.77,4.63,32,21,0,0
152471,121014703,0,6406,6271,15.78,4.54,32,22,0,0
152925,121125644,0,6280,6371,15.74,4.54,32,22,0,0
153329,121229541,0,6367,6185,15.78,4.15,32,22,0,0
153826,121348691,0,6175,6100,15.77,3.91,32,22,0,0
154233,121449336,0,6097,6057,15.77,3.74,32,22,0,0
154634,121554044,0,6059,6228,15.75,4.15,32,22,0,0
155112,121669581,0,6220,6128,15.81,4.03,32,22,0,0
155518,121773067,0,6123,6071,15.85,3.7,32,23,0,0
155968,121880684,0,6076,6157,15.83,3.95,32,23,0,0
156413,121993106,0,6160,6200,15.77,3.94,32,23,0,0
156862,122101544,0,6200,6214,15.79,3.9,32,23,0,0
157304,122210811,0,6204,6071,15.78,4.22,32,23,0,0
157758,122321073,0,6065,5942,15.83,3.93,32,23,0,0
158202,122428153,0,5958,6300,15.85,3.97,32,23,0,0
158659,122541827,0,6293,6128,15.83,4.39,32,23,0,0
159545,122760410,0,6125,6071,15.88,3.85,33,24,0,0
159996,122869663,0,6068,6042,15.84,3.77,32,24,0,0
160443,122983132,0,6047,6114,15.79,3.49,32,24,0,0
160851,123083167,0,6114,6114,15.89,3.93,32,24,0,0
161293,123192613,0,6115,6200,15.83,4.02,32,24,0,0
161785,123309905,0,6189,6042,15.83,3.99,32,24,0,0
162195,123414297,0,6053,6271,15.8,4.02,32,24,0,0
162645,123523827,0,6264,6171,15.82,3.82,32,24,0,0
163043,123623202,0,6173,6271,15.8,4.08,33,24,0,0
163497,123734502,0,6259,6057,15.8,3.84,33,25,0,0
163946,123847852,0,6052,5985,15.75,3.69,33,25,0,0
164398,123961362,0,5995,6085,15.79,4.27,32,25,0,0
164842,124077154,0,6086,6100,15.8,3.95,33,25,0,0
165249,124175482,0,6105,6200,15.8,4.3,33,25,0,0
165735,124294146,0,6203,6242,15.74,4.49,33,25,0,0
166149,124396317,0,6244,6271,15.76,4.41,33,25,0,0
166598,124507679,0,6265,6214,15.83,3.99,33,26,0,0
167038,124608089,0,6212,6128,15.74,4.39,33,26,0,0
167491,124721559,0,6134,6200,15.75,4.29,33,26,0,0
167897,124826115,0,6198,6171,15.76,4.13,33,26,0,0
168350,124940405,0,6178,6242,15.73,4.2,33,26,0,0
168757,125041041,0,6237,6128,15.73,4.22,33,26,0,0
169202,125145376,0,6127,6114,15.75,4.04,33,26,0,0
169649,125263580,0,6107,6042,15.78,3.91,33,26,0,0
170104,125375696,0,6034,5971,15.8,3.77,33,27,0,0
170993,125591047,0,5971,5971,15.71,3.72,33,27,0,0
171443,125702344,0,5962,5900,15.77,3.57,33,27,0,0
171858,125803693,0,5900,5914,15.79,3.38,33,27,0,0
172305,125912043,0,5905,5814,15.71,3.32,33,27,0,0
172752,126026600,0,5811,5785,15.74,3.22,33,27,0,0
173646,126249850,0,5777,5642,15.79,3.05,33,27,0,0
174094,126362536,0,5646,5685,15.81,2.79,33,28,0,0
174544,126470678,0,5677,5571,15.84,2.39,33,28,0,0
174951,126574113,0,5561,5485,15.82,2.72,33,28,0,0
175405,126678138,0,5486,5528,15.76,2.74,33,28,0,0
175806,126783772,0,5502,5285,15.73,2.4,33,28,0,0
176252,126889868,0,5329,5671,15.73,3.48,33,28,0,0
176663,126993662,0,5672,5714,15.75,2.96,33,28,0,0
177110,127102520,0,5708,5642,15.66,3.03,33,28,0,0
177516,127201705,0,5642,5671,15.76,2.94,33,28,0,0
178008,127323359,0,5683,5800,15.73,3.46,33,28,0,0
178411,127421034,0,5799,5742,15.73,3.51,33,28,0,0
178897,127538207,0,5752,5885,15.75,3.44,33,29,0,0
179339,127646217,0,5891,6000,15.71,3.85,33,29,0,0
179791,127755614,0,6001,6014,15.72,4.03,33,29,0,0
180237,127870508,0,6019,6071,15.7,4.02,33,29,0,0
181091,128080797,0,6071,6071,15.7,4.02,33,29,0,0
181543,128198265,0,6071,6071,15.64,4.18,33,29,0,0
181950,128296895,0,6073,6185,15.73,4.31,33,29,0,0
182842,128517182,0,6191,6357,15.75,4.98,33,29,0,0
183292,128634526,0,6384,6557,15.79,4.61,33,30,0,0
183703,128733833,0,6553,6328,15.77,4.19,33,30,0,0
184153,128848685,0,6331,6371,15.77,3.98,33,30,0,0
184596,128956286,0,6364,6228,15.76,4.04,33,30,0,0
185044,129064146,0,6228,6242,15.78,4.31,33,30,0,0
185490,129172811,0,6251,6357,15.76,4.01,33,30,0,0
185941,129281375,0,6358,6371,15.73,4.5,33,30,0,0
186347,129379574,0,6371,6385,15.69,4.49,33,31,0,0
186872,129501512,0,6373,6257,15.75,4.15,33,31,0,0
187271,129600888,0,6256,6242,15.68,4.25,33,31,0,0
187763,129720553,0,6261,6542,15.66,4.4,33,31,0,0
188169,129821801,0,6524,6300,15.76,4.12,33,31,0,0
188621,129933866,0,6307,6414,15.72,4.24,33,31,0,0
189022,130034632,0,6410,6228,15.75,4.24,33,31,0,0
189467,130141144,0,6230,6385,15.73,4.16,33,32,0,0
189913,130251118,0,6382,6228,15.7,4.08,33,32,0,0
190408,130373626,0,6233,6300,15.8,3.86,33,32,0,0
190814,130473269,0,6300,6300,15.74,4.35,33,32,0,0
191259,130585048,0,6315,6471,15.76,4.16,33,32,0,0
191667,130685893,0,6468,6414,15.72,4.29,33,32,0,0
192120,130798656,0,6415,6428,15.79,4.31,33,32,0,0
192566,130904629,0,6425,6271,15.82,3.88,33,32,0,0
193008,131013224,0,6270,6257,15.73,4.27,33,33,0,0
193489,131123775,0,6254,6228,15.75,4.09,33,33,0,0
193937,131234689,0,6228,6228,15.76,4.02,33,33,0,0
194346,131341139,0,6229,6257,15.81,3.94,33,33,0,0
194793,131448077,0,6256,6242,15.8,3.94,33,33,0,0
195688,131668283,0,6242,6257,15.73,4.2,33,33,0,0
196132,131777851,0,6254,6228,15.76,4.06,33,33,0,0
196584,131889502,0,6235,6314,15.7,4.44,33,33,0,0
196988,131990900,0,6320,6485,15.71,4.47,33,34,0,0
197472,132103267,0,6475,6357,15.73,4.22,33,34,0,0
197920,132214016,0,6360,6400,15.77,4.4,33,34,0,0
198371,132324199,0,6391,6314,15.73,4.15,33,34,0,0
198773,132427082,0,6319,6457,15.8,4.05,33,34,0,0
199264,132541617,0,6434,6085,15.79,3.72,33,34,0,0
199707,132652454,0,6102,6271,15.79,4.07,33,34,0,0
200119,132759925,0,6274,6328,15.78,4.25,33,35,0,0
200569,132868814,0,6324,6285,15.73,4.28,34,35,0,0
201018,132979670,0,6283,6271,15.77,4.12,33,35,0,0
201425,133082584,0,6268,6214,15.7,4.2,33,35,0,0
201878,133195789,0,6214,6228,15.74,4.05,33,35,0,0
202331,133304850,0,6232,6271,15.73,4.23,33,35,0,0
202778,133415062,0,6272,6285,15.66,4.1,34,35,0,0
203223,133519538,0,6284,6271,15.77,4.14,34,35,0,0
203627,133623189,0,6270,6257,15.77,4.14,33,36,0,0
204120,133738548,0,6254,6228,15.75,4.15,34,36,0,0
204519,133839412,0,6228,6242,15.75,4.3,34,36,0,0
204963,133949822,0,6235,6100,15.75,3.99,34,36,0,0
205412,134059297,0,6101,6185,15.71,4.11,33,36,0,0
205861,134171193,0,6188,6285,15.7,4.32,34,36,0,0
206311,134278286,0,6290,6371,15.72,4.2,34,36,0,0
206764,134392332,0,6374,6414,15.73,4.06,34,36,0,0
207212,134500050,0,6400,6228,15.79,4.04,34,36,0,0
207616,134603797,0,6233,6300,15.79,4.16,34,37,0,0
208070,134715679,0,6300,6300,15.72,4.18,34,37,0,0
208514,134826169,0,6291,6200,15.81,3.95,34,37,0,0
208963,134932087,0,6200,6200,15.75,3.89,34,37,0,0
209409,135044679,0,6196,6157,15.73,3.88,34,37,0,0
209854,135151328,0,6155,6142,15.7,4.11,34,37,0,0
210260,135251305,0,6147,6257,15.72,4.23,34,37,0,0
210708,135362641,0,6244,6128,15.68,4.22,34,37,0,0
211158,135472126,0,6144,6314,15.68,4.31,34,38,0,0
211559,135572575,0,6312,6285,15.74,4.36,34,38,0,0
212013,135685603,0,6282,6242,15.72,4.14,34,38,0,0
212420,135790758,0,6250,6414,15.72,4.17,34,38,0,0
212871,135899352,0,6411,6228,15.68,4.3,34,38,0,0
213310,136004268,0,6228,6228,15.73,4,34,38,0,0
214214,136231058,0,6229,6257,15.72,4.12,34,39,0,0
214663,136340607,0,6255,6157,15.64,4.37,34,39,0,0
215591,136564602,0,6161,6242,15.62,4.54,34,39,0,0
216035,136669865,0,6249,6342,15.7,4.39,34,39,0,0
216480,136779138,0,6349,6414,15.65,4.24,34,39,0,0
216925,136885544,0,6404,6285,15.71,4.03,34,39,0,0
217366,136994629,0,6280,6228,15.7,3.97,34,39,0,0
217814,137107836,0,6241,6328,15.71,4.13,34,40,0,0
218220,137209588,0,6319,6214,15.68,4.09,34,40,0,0
218669,137313540,0,6214,6257,15.66,4.29,34,40,0,0
219559,137529688,0,6257,6257,15.66,4.27,34,40,0,0
220448,137757568,0,6262,6357,15.64,4.44,34,40,0,0
220934,137871806,0,6341,6214,15.7,4.16,34,40,0,0
221334,137970129,0,6214,6228,15.65,4.14,34,41,0,0
221788,138083317,0,6224,6185,15.67,4.01,34,41,0,0
222231,138191549,0,6185,6185,15.75,4.05,34,41,0,0
222679,138295922,0,6183,6057,15.67,3.62,34,41,0,0
223085,138402637,0,6058,6128,15.75,3.65,34,41,0,0
223567,138512058,0,6124,6057,15.74,3.68,34,41,0,0
224008,138619045,0,6056,6042,15.76,3.58,34,41,0,0
224286,138729499,0,6041,6028,15.7,3.53,34,41,0,0
224699,138844886,0,6032,6071,15.68,3.65,34,41,0,0
225147,138960068,0,6073,6100,15.73,3.6,34,42,0,0
225506,139048695,0,6099,6042,15.72,3.76,34,42,0,0
225950,139159793,0,6040,6014,15.68,3.85,34,42,0,0
226882,139384225,0,6017,6071,15.63,4.02,34,42,0,0
227365,139492870,0,6071,6085,15.64,3.91,34,42,0,0
227769,139593036,0,6085,6100,15.63,4.19,34,42,0,0
228219,139701306,0,6102,6285,15.64,4.38,34,42,0,0
228696,139815060,0,6287,6314,15.62,4.04,34,43,0,0
229145,139923774,0,6313,6300,15.68,4.16,34,43,0,0
229551,140026322,0,6300,6300,15.69,3.94,34,43,0,0
230004,140138815,0,6302,6357,15.66,4.06,34,43,0,0
230448,140249120,0,6357,6357,15.58,4.58,34,43,0,0
230896,140360320,0,6362,6414,15.65,4.33,34,43,0,0
231298,140456852,0,6414,6442,15.73,4.06,34,43,0,0
231748,140570779,0,6444,6471,15.67,4.42,34,43,0,0
232198,140679670,0,6475,6571,15.75,4.37,34,44,0,0
232597,140776341,0,6569,6442,15.72,4.06,34,44,0,0
233091,140896088,0,6443,6471,15.73,3.97,34,44,0,0
233494,140998270,0,6465,6371,15.7,3.74,34,44,0,0
233946,141110731,0,6370,6357,15.67,3.76,34,44,0,0
234394,141224162,0,6354,6314,15.69,3.71,34,44,0,0
234842,141336675,0,6308,6257,15.68,3.79,34,44,0,0
235245,141439808,0,6261,6314,15.63,3.83,34,44,0,0
235690,141548317,0,6311,6257,15.68,3.97,34,45,0,0
236142,141655857,0,6282,6514,15.62,4.22,34,45,0,0
236587,141767602,0,6509,6457,15.73,3.91,34,45,0,0
237033,141876158,0,6457,6457,15.67,3.83,34,45,0,0
237439,141974730,0,6456,6442,15.55,4.53,34,45,0,0
237925,142095841,0,6464,6714,15.57,5.03,34,45,0,0
238330,142199841,0,6698,6500,15.73,4.13,34,45,0,0
238777,142308099,0,6502,6571,15.67,4.03,34,45,0,0
239261,142422179,0,6560,6457,15.68,4.49,34,46,0,0
239708,142528258,0,6485,6757,15.68,4.58,34,46,0,0
240103,142625630,0,6750,6514,15.73,3.77,34,46,0,0
240602,142744277,0,6515,6542,15.54,4.92,34,46,0,0
240998,142843474,0,6550,6857,15.57,4.86,34,46,0,0
241452,142959319,0,6836,6671,15.64,4.7,34,46,0,0
241898,143065522,0,6662,6585,15.63,4.35,34,46,0,0
242295,143167073,0,6584,6557,15.66,4.66,34,47,0,0
242743,143274691,0,6561,6728,15.69,4.48,34,47,0,0
243197,143390360,0,6709,6457,15.61,4.24,34,47,0,0
243599,143490061,0,6451,6185,15.7,2.96,34,47,0,0
244043,143601327,0,6186,6257,15.62,4.63,34,47,0,0
245425,143931778,0,6258,6342,15.69,3.93,35,47,0,0
245872,144044417,0,6329,6157,15.62,3.67,34,48,0,0
246318,144155700,0,6152,6100,15.75,3.81,34,48,0,0
247170,144364097,0,6113,6485,15.61,5.84,34,48,0,0
247656,144479358,0,6463,6214,15.69,3.09,34,48,0,0
248057,144580439,0,6194,5828,15.7,3.22,35,48,0,0
248505,144688882,0,5821,5671,15.69,3.32,34,48,0,0
248952,144804574,0,5677,5742,15.76,3.56,34,48,0,0
249400,144911875,0,5748,5814,15.78,3.34,34,48,0,0
249841,145020339,0,5817,5871,15.71,3.49,35,49,0,0
250290,145127862,0,5869,5842,15.67,3.41,34,49,0,0
250692,145231424,0,5840,5728,15.63,3.39,34,49,0,0
251182,145347141,0,5728,5728,15.6,3.14,34,49,0,0
252112,145582154,0,5718,5557,15.64,2.85,34,49,0,0
252521,145679345,0,5569,5742,15.61,3.74,34,49,0,0
252965,145790309,0,5762,5971,15.64,3.94,35,49,0,0
253414,145899301,0,5968,5942,15.62,3.24,34,49,0,0
253819,146002851,0,5900,5500,15.67,2.34,35,49,0,0
254265,146109085,0,5475,5228,15.68,1.98,34,50,0,0
254700,146212295,0,5221,5085,15.67,1.98,35,50,0,0
255189,146328607,0,5062,4828,15.7,1.69,34,50,0,0
255629,146437079,0,4829,4842,15.67,1.88,34,50,0,0
256034,146535873,0,4849,5157,15.73,2.53,35,50,0,0
256483,146648191,0,5161,5285,15.73,2.53,34,50,0,0
256923,146757517,0,5287,5314,15.73,2.76,35,50,0,0
257372,146865286,0,5316,5357,15.72,2.27,35,50,0,0
257817,146976793,0,5374,5557,15.74,3,34,50,0,0
258228,147079901,0,5568,5714,15.66,3.05,35,50,0,0
258671,147191537,0,5722,5842,15.67,3.49,35,50,0,0
259119,147299839,0,5854,5971,15.72,3.18,34,50,0,0
259525,147402793,0,5973,6042,15.72,3.28,34,50,0,0
259971,147508535,0,6043,6128,15.72,3.08,34,51,0,0
260418,147619580,0,6101,5757,15.63,3.29,34,51,0,0
260903,147737899,0,5751,5700,15.68,2.69,34,51,0,0
261304,147835116,0,5701,5800,15.61,2.98,34,51,0,0
261753,147947084,0,5784,5571,15.61,2.79,34,51,0,0
262192,148054146,0,5576,5714,15.63,2.9,34,51,0,0
262638,148166010,0,5714,5714,15.55,3.59,35,51,0,0
264016,148500788,0,5723,6014,15.6,4.04,34,51,0,0
264463,148607700,0,6028,6185,15.58,4.22,34,52,0,0
264900,148716644,0,6193,6385,15.52,4.78,34,52,0,0
265350,148831795,0,6408,6571,15.57,4.93,34,52,0,0
265798,148936129,0,6563,6485,15.57,4.63,34,52,0,0
266200,149040140,0,6487,6628,15.59,4.69,34,52,0,0
266651,149149321,0,6626,6514,15.55,4.42,34,52,0,0
267140,149268599,0,6510,6471,15.6,4.17,34,52,0,0
267548,149376356,0,6462,6342,15.57,4.38,34,53,0,0
267988,149477112,0,6338,6214,15.59,3.93,34,53,0,0
268437,149589487,0,6214,6214,15.53,4.07,34,53,0,0
268881,149697666,0,6206,6057,15.53,3.74,35,53,0,0
269327,149809609,0,6067,6214,15.5,4.51,34,53,0,0
269776,149916657,0,6214,6242,15.62,4.22,34,53,0,0
270224,150030678,0,6242,6257,15.6,4.08,34,53,0,0
270672,150137875,0,6252,6142,15.59,4.19,35,53,0,0
271156,150255078,0,6132,6028,15.66,3.85,34,53,0,0
271565,150359823,0,6035,6142,15.67,3.59,34,54,0,0
272017,150471319,0,6126,5900,15.67,3.38,34,54,0,0
272457,150577687,0,5902,5942,15.7,3.11,34,54,0,0
272905,150685784,0,5928,5728,15.7,3.23,34,54,0,0
273346,150793624,0,5718,5528,15.7,2.71,34,54,0,0
273795,150902578,0,5518,5400,15.79,2.53,34,54,0,0
274244,151014887,0,5403,5442,15.76,2.86,34,54,0,0
274692,151119339,0,5449,5557,15.72,2.84,34,54,0,0
275139,151234139,0,5561,5628,15.78,2.75,35,54,0,0
275587,151344660,0,5621,5542,15.77,2.76,34,54,0,0
276036,151453343,0,5553,5657,15.75,3.09,34,55,0,0
276443,151559202,0,5655,5585,15.66,3.1,34,55,0,0
276933,151673902,0,5581,5542,15.66,3.31,34,55,0,0
277820,151888577,0,5554,5942,15.69,3.56,34,55,0,0
278224,151993359,0,5940,5914,15.67,3.39,34,55,0,0
278675,152103590,0,5920,6014,15.6,3.87,34,55,0,0
279081,152208306,0,6003,5857,15.63,3.61,35,55,0,0
279529,152315818,0,5857,5900,15.58,3.64,34,55,0,0
279974,152425683,0,5896,5814,15.72,3.33,34,55,0,0
280427,152535059,0,5802,5642,15.64,3.5,34,56,0,0
281760,152863626,0,5642,5685,15.63,3.42,34,56,0,0
282205,152973630,0,5695,5800,15.69,3.91,35,56,0,0
282658,153084777,0,5805,5957,15.57,3.99,34,56,0,0
283106,153199164,0,5977,6157,15.54,4.26,34,56,0,0
283507,153294586,0,6159,6342,15.58,4.14,35,56,0,0
283957,153411902,0,6312,6114,15.57,4.3,35,57,0,0
284408,153519862,0,6133,6371,15.64,4.4,34,57,0,0
284858,153628312,0,6367,6328,15.64,4.32,34,57,0,0
285303,153742142,0,6340,6428,15.62,4.45,34,57,0,0
286227,153962170,0,6413,6214,15.66,4.47,35,57,0,0
286627,154061205,0,6222,6371,15.61,4.39,34,57,0,0
287078,154173484,0,6375,6414,15.67,4.48,35,57,0,0
287523,154279187,0,6400,6285,15.61,4.45,34,58,0,0
287964,154382599,0,6286,6300,15.62,4.29,34,58,0,0
288373,154483150,0,6308,6442,15.6,4.25,34,58,0,0
288861,154599581,0,6444,6471,15.7,4.49,34,58,0,0
289749,154818168,0,6463,6271,15.67,4.2,35,58,0,0
290200,154930662,0,6267,6228,15.67,3.99,35,58,0,0
290650,155042181,0,6235,6314,15.64,4.03,35,58,0,0
291094,155145409,0,6310,6228,15.66,4.11,35,59,0,0
291540,155258852,0,6236,6357,15.72,3.92,35,59,0,0
291988,155368428,0,6343,6157,15.72,3.91,35,59,0,0
292882,155586545,0,6154,6100,15.66,3.92,35,59,0,0
293331,155694325,0,6101,6128,15.63,3.94,35,59,0,0
294223,155915167,0,6137,6342,15.64,4.16,35,59,0,0
294667,156022201,0,6333,6228,15.68,4.15,35,60,0,0
295120,156132674,0,6243,6414,15.66,4.25,35,60,0,0
295564,156242615,0,6404,6314,15.6,4.1,35,60,0,0
296015,156353048,0,6327,6514,15.62,4.3,35,60,0,0
296474,156466317,0,6515,6528,15.58,4.97,35,60,0,0
296885,156573325,0,6518,6385,15.61,4.58,35,60,0,0
297336,156682680,0,6393,6514,15.47,5.33,35,60,0,0
297738,156785784,0,6522,6714,15.6,5.05,35,61,0,0
298222,156897286,0,6696,6457,15.6,4.54,35,61,0,0
298664,157008901,0,6469,6628,15.56,4.47,35,61,0,0
299114,157117787,0,6623,6585,15.64,4.3,35,61,0,0
299558,157228399,0,6579,6500,15.65,4.23,35,61,0,0
299966,157329913,0,6496,6342,15.61,4.18,35,61,0,0
300410,157438146,0,6339,6185,15.65,3.59,35,61,0,0
300897,157556833,0,6177,6100,15.63,3.63,35,61,0,0
301346,157665399,0,6105,6157,15.67,3.6,35,62,0,0
301782,157768263,0,6133,5828,15.71,3.25,35,62,0,0
302232,157877769,0,5829,5857,15.59,3.25,35,62,0,0
302673,157986275,0,5862,5942,15.56,3.82,35,62,0,0
303123,158095233,0,5942,5942,15.57,3.78,35,62,0,0
303567,158205616,0,5948,6014,15.62,3.86,35,62,0,0
303974,158305063,0,6012,5928,15.63,3.77,35,62,0,0
304457,158420575,0,5939,6100,15.52,4,35,62,0,0
304903,158525826,0,6105,6228,15.6,4.1,35,62,0,0
305351,158640134,0,6221,6042,15.67,3.97,35,63,0,0
305799,158746262,0,6050,6171,15.64,4.05,35,63,0,0
306244,158857599,0,6171,6171,15.67,3.86,35,63,0,0
306689,158968912,0,6171,6185,15.63,4.19,35,63,0,0
307135,159074804,0,6192,6285,15.65,4.1,35,63,0,0
307579,159184837,0,6275,6142,15.67,4.24,35,63,0,0
308022,159299926,0,6150,6257,15.62,4.44,35,63,0,0
308426,159396383,0,6259,6414,15.66,4.31,35,63,0,0
308912,159516231,0,6389,6185,15.63,4.36,35,64,0,0
309321,159616675,0,6185,6200,15.64,4.44,35,64,0,0
309770,159723914,0,6203,6442,15.64,4.38,35,64,0,0
310246,159838675,0,6433,6342,15.66,4.37,35,64,0,0
310698,159948858,0,6337,6300,15.61,4.1,35,64,0,0
311547,160157106,0,6299,6200,15.61,4.25,35,64,0,0
312433,160381405,0,6204,6328,15.66,3.98,35,65,0,0
312886,160493044,0,6326,6314,15.57,4.25,35,65,0,0
313287,160593540,0,6314,6328,15.61,4.28,35,65,0,0
313774,160707053,0,6321,6185,15.64,4,35,65,0,0
314258,160824405,0,6182,6157,15.65,4.25,35,65,0,0
315108,161033286,0,6158,6285,15.55,4.32,35,65,0,0
316036,161255787,0,6282,6200,15.59,4.42,35,66,0,0
316483,161369068,0,6202,6242,15.63,4.18,35,66,0,0
316893,161473327,0,6243,6328,15.58,4.15,35,66,0,0
317339,161584175,0,6324,6257,15.58,4.43,35,66,0,0
317789,161693619,0,6257,6271,15.67,3.8,35,66,0,0
318231,161804083,0,6252,6000,15.62,3.57,35,66,0,0
318639,161905300,0,6002,6157,15.64,4.33,35,66,0,0
319088,162015884,0,6159,6328,15.73,3.73,35,67,0,0
319534,162123539,0,6316,6014,15.61,3.86,35,67,0,0
320016,162240236,0,6025,6142,15.65,4.1,35,67,0,0
320462,162350854,0,6146,6185,15.64,3.7,35,67,0,0
320911,162463374,0,6181,6157,15.67,3.93,35,67,0,0
321314,162562198,0,6152,6085,15.7,3.77,35,67,0,0
321760,162667899,0,6078,5942,15.66,3.66,35,67,0,0
322206,162776601,0,5940,5914,15.75,3.41,35,67,0,0
322700,162892133,0,5880,5414,16.38,1.62,35,67,0,0
323104,162996171,0,5405,4885,16.04,2.61,35,67,0,0
323594,163109857,0,4787,3342,16.12,0.08,35,68,0,0
324035,163219842,0,3319,2842,16.08,0.55,35,68,0,0
324483,163328542,0,2852,3000,16.08,0.57,35,68,0,0
325340,163547068,0,2998,2942,16.11,0.58,35,68,0,0
325790,163655463,0,2943,2985,16.09,0.53,35,68,0,0
326677,163874294,0,2984,2971,16.1,0.55,35,68,0,0
327085,163980874,0,2971,2985,16.11,0.54,35,68,0,0
327571,164092305,0,2987,3028,16.1,0.55,35,68,0,0
327975,164197059,0,3026,3000,16.1,0.54,35,68,0,0
328468,164316067,0,3000,3000,16.11,0.55,35,68,0,0
328871,164419831,0,2998,2971,16.12,0.54,35,68,0,0
329320,164523817,0,2971,3000,16.12,0.54,35,68,0,0
329767,164634351,0,2999,2985,16.14,0.52,35,68,0,0
330217,164741698,0,2984,2971,16.11,0.54,35,68,0,0
330659,164851215,0,2973,3000,16.11,0.53,35,68,0,0
331104,164959559,0,2998,2985,16.13,0.49,35,68,0,0
331550,165062656,0,2942,2057,16.21,0.02,35,68,0,0
331997,165177222,0,2008,1585,16.2,0,35,68,0,0
332451,165288369,0,1558,1371,16.19,0.07000000000000001,35,68,0,0
333346,165497808,0,1369,1314,16.19,0.09999999,35,68,0,0
333829,165616412,0,1314,1314,16.19,0.11,35,68,0,0
334276,165721292,0,1314,1314,16.2,0.11,35,68,0,0
334682,165823686,0,1314,1314,16.2,0.09999999,35,68,0,0
335135,165934321,0,1314,1314,16.2,0.11,35,68,0,0
335539,166035604,0,1314,1314,16.2,0.11,35,68,0,0
335980,166143119,0,1314,1314,16.2,0.11,35,68,0,0
336433,166252290,0,1314,1314,16.2,0.11,35,68,0,0
336877,166359834,0,1314,1314,16.2,0.11,35,68,0,0
337322,166464912,0,1314,1314,16.21,0.11,35,68,0,0
337776,166576844,0,1284,585,16.23,0.01,35,68,0,0
338229,166681147,0,579,242,16.23,0.02,35,68,0,0
338720,166796908,0,218,0,16.23,0.03,35,68,0,0
339172,166901883,0,0,0,16.23,0.04,35,68,0,0
339625,167011681,0,0,0,16.23,0.04,35,68,0,0
340126,167134770,0,0,0,16.23,0.04,35,68,0,0
340527,167228823,0,0,0,16.23,0.03,34,68,0,0
341030,167345522,0,0,0,16.24,0.04,35,68,0,0
341478,167452562,0,0,0,16.24,0.03,34,68,0,0
341934,167561126,0,0,0,16.24,0.03,34,68,0,0
342384,167665563,0,0,0,16.25,0.03,34,68,0,0
342832,167773175,0,0,0,16.25,0.03,34,68,0,0
343283,167879319,0,0,0,16.25,0.04,34,68,0,0
343780,167995648,0,0,0,16.25,0.04,34,68,0,0
344231,168099496,0,0,0,16.25,0.04,34,68,0,0
344683,168206679,0,0,0,16.25,0.04,34,68,0,0
345178,168321639,0,0,0,16.25,0.04,34,68,0,0
345623,168423639,0,0,0,16.26,0.04,34,68,0,0
346126,168543873,0,0,0,16.26,0.04,34,68,0,0
346572,168649153,0,0,0,16.26,0.03,34,68,0,0
347026,168756901,0,0,0,16.26,0.03,34,68,0,0
347476,168862280,0,0,0,16.26,0.03,34,68,0,0
347965,168974659,0,0,0,16.26,0.04,34,68,0,0
348460,169088112,0,0,0,16.26,0.04,34,68,0,0
348910,169194276,0,0,0,16.26,0.04,34,68,0,0
349360,169296353,0,0,0,16.27,0.04,34,68,0,0
349853,169411918,0,0,0,16.26,0.04,34,68,0,0
350310,169518332,0,0,0,16.27,0.04,34,68,0,0
350760,169626238,0,0,0,16.27,0.04,34,68,0,0
351243,169737613,0,0,0,16.26,0.04,34,68,0,0
351702,169844322,0,0,0,16.27,0.04,34,68,0,0
352157,169955341,0,0,0,16.27,0.04,34,68,0,0
352608,170061102,0,0,0,16.27,0.04,34,68,0,0
353055,170164773,0,0,0,16.27,0.04,34,68,0,0
353509,170271445,0,0,0,16.27,0.04,34,68,0,0
353965,170381671,0,0,0,16.27,0.04,34,68,0,0
354421,170486628,0,0,0,16.27,0.04,34,68,0,0
354831,170587900,0,0,0,16.28,0.04,34,68,0,0
355326,170702559,0,0,0,16.28,0.04,34,68,0,0
355774,170808667,0,0,0,16.28,0.04,34,68,0,0
356226,170913704,0,0,0,16.28,0.04,34,68,0,0
356724,171028200,0,0,0,16.29,0.03,34,68,0,0
357177,171130471,0,0,0,16.29,0.04,34,68,0,0
357622,171234778,0,0,0,16.29,0.04,34,68,0,0
358116,171353524,0,0,0,16.29,0.04,34,68,0,0
358569,171458078,0,0,0,16.29,0.04,34,68,0,0
359516,171680181,0,0,0,16.29,0.04,34,68,0,0
359925,171779634,0,0,0,16.29,0.04,34,68,0,0
360422,171894848,0,0,0,16.29,0.04,34,68,0,0
360870,171999804,0,0,0,16.3,0.04,34,68,0,0
361333,172114423,0,0,0,16.3,0.04,34,68,0,0
361821,172228612,0,0,0,16.29,0.04,34,68,0,0
362272,172332914,0,0,0,16.3,0.04,34,68,0,0
362727,172442599,0,0,0,16.3,0.04,34,68,0,0
363177,172552042,0,0,0,16.3,0.04,34,68,0,0
363630,172657045,0,0,0,16.3,0.04,34,68,0,0
