LineNo,TimeUS,Instance,RPM,RawRPM,Volt,Curr,Temp,CTot,MotTemp,Err
1734,33697540,5,0,0,16.85,0.05,21,0,0,0
2185,33810540,5,0,0,16.85,0.05,21,0,0,0
2604,33915871,5,0,0,16.84,0.04,21,0,0,0
3018,34019829,5,0,0,16.84,0.04,21,0,0,0
3484,34135081,5,0,0,16.84,0.04,21,0,0,0
3897,34239043,5,0,0,16.85,0.05,21,0,0,0
4311,34342114,5,0,0,16.85,0.05,21,0,0,0
4758,34454342,5,0,0,16.85,0.05,21,0,0,0
5180,34561098,5,0,0,16.84,0.04,21,0,0,0
5624,34668632,5,0,0,16.84,0.04,21,0,0,0
6041,34776837,5,0,0,16.85,0.04,21,0,0,0
6455,34879680,5,0,0,16.84,0.04,21,0,0,0
6870,34987647,5,0,0,16.84,0.05,21,0,0,0
7316,35101095,5,0,0,16.83,0.05,21,0,0,0
7729,35204088,5,0,0,16.84,0.05,21,0,0,0
8145,35308774,5,0,0,16.84,0.04,21,0,0,0
8560,35415603,5,0,0,16.84,0.04,21,0,0,0
9019,35533518,5,0,0,16.85,0.04,21,0,0,0
9435,35638151,5,0,0,16.85,0.04,21,0,0,0
9850,35743194,5,0,0,16.85,0.04,21,0,0,0
10262,35849126,5,0,0,16.84,0.05,21,0,0,0
11030,36065346,5,0,0,16.84,0.04,21,0,0,0
11449,36170184,5,0,0,16.84,0.05,21,0,0,0
11901,36282331,5,0,0,16.85,0.05,21,0,0,0
12319,36388122,5,0,0,16.84,0.04,21,0,0,0
12730,36493221,5,0,0,16.84,0.04,21,0,0,0
13186,36606890,5,0,0,16.84,0.04,21,0,0,0
13596,36711224,5,0,0,16.85,0.05,21,0,0,0
14010,36817580,5,0,0,16.85,0.05,21,0,0,0
14434,36931025,5,0,0,16.84,0.05,21,0,0,0
14845,37033533,5,0,0,16.84,0.05,21,0,0,0
15294,37145784,5,0,0,16.84,0.05,21,0,0,0
15706,37249650,5,0,0,16.84,0.05,21,0,0,0
16155,37360553,5,0,0,16.85,0.05,21,0,0,0
16600,37470532,5,0,0,16.84,0.05,21,0,0,0
17020,37575208,5,0,0,16.84,0.05,21,0,0,0
17432,37680200,5,0,0,16.85,0.05,21,0,0,0
17848,37786198,5,0,0,16.83,0.05,21,0,0,0
18300,37899555,5,0,0,16.85,0.05,21,0,0,0
18711,38002560,5,0,0,16.85,0.05,21,0,0,0
19128,38108532,5,0,0,16.85,0.05,21,0,0,0
19579,38220596,5,0,0,16.84,0.04,21,0,0,0
19997,38325848,5,0,0,16.84,0.04,21,0,0,0
20410,38427321,5,0,0,16.85,0.05,21,0,0,0
20844,38541265,5,0,0,16.84,0.05,21,0,0,0
21254,38642588,5,0,0,16.84,0.05,21,0,0,0
21706,38758034,5,0,0,16.84,0.05,21,0,0,0
22118,38862860,5,0,0,16.84,0.05,21,0,0,0
22535,38970173,5,0,0,16.85,0.05,21,0,0,0
22952,39074205,5,0,0,16.84,0.05,21,0,0,0
23396,39184047,5,0,0,16.84,0.05,21,0,0,0
23806,39288308,5,0,0,16.85,0.05,21,0,0,0
24258,39403857,5,0,0,16.85,0.05,21,0,0,0
24677,39510288,5,0,0,16.84,0.05,21,0,0,0
25093,39616644,5,0,0,16.84,0.05,21,0,0,0
25539,39723333,5,0,0,16.85,0.05,21,0,0,0
25957,39830183,5,0,0,16.84,0.05,21,0,0,0
26368,39933212,5,0,0,16.84,0.05,21,0,0,0
26824,40050046,5,0,0,16.84,0.05,21,0,0,0
27235,40154770,5,0,0,16.85,0.05,21,0,0,0
27647,40258730,5,0,0,16.85,0.05,21,0,0,0
28107,40371524,5,0,0,16.84,0.05,21,0,0,0
28522,40478244,5,0,0,16.83,0.05,21,0,0,0
28940,40583155,5,0,0,16.84,0.05,21,0,0,0
29392,40698137,5,0,0,16.85,0.05,21,0,0,0
29811,40804925,5,0,0,16.84,0.05,21,0,0,0
30225,40909578,5,0,0,16.83,0.05,21,0,0,0
30645,41017049,5,0,0,16.84,0.05,21,0,0,0
31094,41131295,5,0,0,16.85,0.05,21,0,0,0
31507,41235171,5,0,0,16.84,0.05,21,0,0,0
31959,41347344,5,0,0,16.84,0.05,21,0,0,0
32374,41456112,5,0,0,16.84,0.05,21,0,0,0
32793,41562375,5,0,0,16.84,0.05,21,0,0,0
33205,41664858,5,0,0,16.85,0.05,21,0,0,0
33660,41781116,5,0,0,16.84,0.05,21,0,0,0
34067,41884623,5,0,0,16.84,0.05,21,0,0,0
34488,41992648,5,0,0,16.84,0.05,21,0,0,0
34941,42108202,5,0,0,16.84,0.04,21,0,0,0
35352,42213698,5,0,0,16.84,0.05,21,0,0,0
35765,42315519,5,0,0,16.84,0.05,21,0,0,0
36183,42422632,5,0,0,16.85,0.05,21,0,0,0
36605,42529909,5,0,0,16.84,0.05,21,0,0,0
37019,42637698,5,0,0,16.84,0.05,21,0,0,0
37467,42752520,5,0,0,16.84,0.05,21,0,0,0
37876,42857876,5,0,0,16.84,0.05,21,0,0,0
39159,43182845,5,0,0,16.84,0.05,21,0,0,0
39572,43290161,5,0,0,16.84,0.05,21,0,0,0
39993,43396781,5,0,0,16.84,0.05,21,0,0,0
40403,43499120,5,0,0,16.84,0.05,21,0,0,0
40821,43607096,5,0,0,16.84,0.05,21,0,0,0
41234,43711681,5,0,0,16.84,0.05,21,0,0,0
41687,43826148,5,0,0,16.85,0.05,21,0,0,0
42098,43930675,5,0,0,16.85,0.05,21,0,0,0
42506,44034063,5,0,0,16.84,0.05,21,0,0,0
42964,44151846,5,0,0,16.83,0.05,21,0,0,0
43378,44256469,5,0,0,16.83,0.05,21,0,0,0
43790,44358299,5,0,0,16.84,0.05,21,0,0,0
44210,44465030,5,0,0,16.84,0.05,21,0,0,0
44626,44571802,5,0,0,16.83,0.05,21,0,0,0
45083,44686533,5,0,0,16.85,0.05,21,0,0,0
45493,44788883,5,0,0,16.84,0.04,21,0,0,0
45943,44901638,5,0,0,16.84,0.04,21,0,0,0
46365,45008548,5,0,0,16.84,0.04,21,0,0,0
46772,45110120,5,0,0,16.83,0.04,21,0,0,0
47190,45214914,5,0,0,16.83,0.04,21,0,0,0
47607,45322792,5,0,0,16.83,0.04,21,0,0,0
48060,45435655,5,0,0,16.84,0.05,21,0,0,0
48883,45645110,5,0,0,16.84,0.04,21,0,0,0
49298,45751894,5,0,0,16.84,0.04,21,0,0,0
49745,45864885,5,0,0,16.84,0.04,21,0,0,0
50161,45965822,5,0,0,16.84,0.04,21,0,0,0
50574,46071548,5,0,0,16.83,0.04,21,0,0,0
51023,46185595,5,0,0,16.83,0.05,21,0,0,0
51439,46289657,5,0,0,16.83,0.04,21,0,0,0
51857,46397642,5,0,0,16.84,0.04,21,0,0,0
52719,46616087,5,0,0,16.83,0.05,21,0,0,0
53134,46719918,5,0,0,16.83,0.05,21,0,0,0
53586,46832648,5,0,0,16.83,0.05,21,0,0,0
54007,46937766,5,0,0,16.83,0.05,21,0,0,0
54413,47040295,5,0,0,16.84,0.05,21,0,0,0
54867,47154852,5,0,0,16.83,0.05,21,0,0,0
55277,47257303,5,0,0,16.84,0.05,21,0,0,0
55695,47364073,5,0,0,16.85,0.04,21,0,0,0
56021,47479344,5,0,0,16.84,0.04,21,0,0,0
56436,47583590,5,0,0,16.83,0.05,21,0,0,0
56882,47694109,5,0,0,16.84,0.05,21,0,0,0
57021,97810531,5,0,0,16.83,0.04,22,0,0,0
57307,97880367,5,0,0,16.82,0.04,22,0,0,0
57750,97991777,5,0,0,16.83,0.04,22,0,0,0
58201,98094655,5,0,0,16.83,0.04,22,0,0,0
59148,98311826,5,0,0,16.83,0.04,22,0,0,0
59599,98418106,5,0,0,16.82,0.04,22,0,0,0
60053,98521175,5,0,0,16.83,0.04,22,0,0,0
60511,98630682,5,0,0,16.83,0.04,22,0,0,0
61007,98744386,5,0,0,16.83,0.04,22,0,0,0
61466,98848890,5,0,0,16.83,0.04,22,0,0,0
61915,98953681,5,0,0,16.83,0.04,22,0,0,0
62373,99061308,5,0,0,16.83,0.04,22,0,0,0
62818,99166627,5,0,0,16.83,0.04,22,0,0,0
63292,99278097,5,0,0,16.83,0.04,22,0,0,0
63773,99392137,5,0,0,16.83,0.04,22,0,0,0
64227,99494147,5,0,0,16.83,0.04,22,0,0,0
64679,99601273,5,0,0,16.83,0.04,22,0,0,0
65135,99706072,5,0,0,16.82,0.04,22,0,0,0
65591,99815062,5,0,0,16.83,0.04,22,0,0,0
66538,100030785,5,5,257,16.82,0.12,22,0,0,0
67035,100148924,5,340,928,16.79,0.16,22,0,0,0
67492,100254143,5,952,1228,16.8,0.14,22,0,0,0
67944,100358625,5,1232,1285,16.82,0.12,22,0,0,0
68401,100462300,5,1287,1328,16.81,0.12,22,0,0,0
68849,100571866,5,1329,1342,16.8,0.11,22,0,0,0
69282,100674230,5,1342,1342,16.81,0.11,22,0,0,0
69753,100783162,5,1342,1342,16.81,0.11,22,0,0,0
70469,101003122,5,1342,1342,16.8,0.11,22,0,0,0
70923,101104827,5,1342,1342,16.81,0.11,22,0,0,0
71374,101211791,5,1342,1342,16.8,0.11,22,0,0,0
71872,101324560,5,1342,1342,16.81,0.11,22,0,0,0
72323,101432835,5,1342,1342,16.81,0.11,22,0,0,0
72822,101552812,5,1342,1342,16.8,0.11,22,0,0,0
73231,101645161,5,1342,1342,16.8,0.11,22,0,0,0
73716,101755665,5,1342,1342,16.81,0.11,22,0,0,0
74154,101862079,5,1342,1342,16.81,0.11,22,0,0,0
74598,101970767,5,1342,1357,16.8,0.12,22,0,0,0
75094,102083850,5,1376,1585,16.77,0.26,22,0,0,0
75537,102184423,5,1601,2285,16.57,0.84,22,0,0,0
76037,102300676,5,2322,2742,16.63,0.86,22,0,0,0
76943,102517841,5,2798,3942,16.31,1.95,22,1,0,0
77352,102617132,5,3951,4571,16.25,2.74,22,1,0,0
78293,102839038,5,4577,5571,16.12,3.89,22,1,0,0
78740,102946857,5,5574,5657,16.25,2.89,22,1,0,0
79649,103164654,5,5655,5571,16.25,3.09,22,1,0,0
80143,103280488,5,5575,5628,16.23,3.34,22,1,0,0
80560,103386488,5,5634,5771,16.28,3.01,22,1,0,0
81011,103490821,5,5766,5671,16.25,2.79,22,1,0,0
81462,103598484,5,5670,5614,16.22,3.44,23,1,0,0
81962,103713816,5,5629,5785,16.17,3.57,22,2,0,0
82409,103822079,5,5815,6114,16.13,4.22,23,2,0,0
82863,103927165,5,6114,6114,16.02,4.35,23,2,0,0
83315,104034170,5,6126,6371,16.08,4.21,23,2,0,0
83766,104143924,5,6375,6457,16.05,4.54,23,2,0,0
84224,104253057,5,6458,6471,16.1,4.5,23,2,0,0
84679,104363695,5,6464,6385,16.04,4.43,23,2,0,0
85139,104474874,5,6395,6500,16.01,4.19,23,2,0,0
85543,104575318,5,6497,6371,16.04,4.56,23,3,0,0
86016,104690812,5,6380,6471,16.06,4.7,23,3,0,0
86457,104798525,5,6471,6471,16.01,4.68,23,3,0,0
86907,104903636,5,6469,6357,16.08,4.12,23,3,0,0
87356,105014649,5,6359,6385,16.04,4.21,23,3,0,0
87813,105119828,5,6383,6300,16.09,4.18,23,3,0,0
88261,105229697,5,6299,6285,16.05,3.78,23,3,0,0
88759,105345135,5,6274,6185,16.04,4.02,23,4,0,0
89213,105448777,5,6183,6171,16.04,3.82,23,4,0,0
89703,105565651,5,6171,6171,16.08,3.94,23,4,0,0
90165,105675374,5,6168,6142,16.07,3.9,23,4,0,0
90565,105778583,5,6145,6171,16.04,3.88,23,4,0,0
91018,105885598,5,6168,6142,16.07,3.97,23,4,0,0
91428,105990843,5,6139,5971,16.03,4.02,23,4,0,0
92365,106219578,5,5986,6242,15.99,4.3,23,4,0,0
93218,106428070,5,6261,6585,15.94,4.9,23,5,0,0
93663,106540863,5,6581,6557,15.96,4.67,23,5,0,0
94138,106651029,5,6545,6428,15.98,4.34,23,5,0,0
94546,106757696,5,6431,6457,16.01,4.43,23,5,0,0
94995,106864668,5,6435,6228,16.03,3.98,23,5,0,0
95443,106975792,5,6209,6057,16.08,3.48,23,5,0,0
95891,107081093,5,6058,6071,16.19,3.35,23,6,0,0
96760,107303631,5,6054,5714,16.26,2.78,23,6,0,0
97644,107519141,5,5692,5257,16.32,2.34,24,6,0,0
98048,107623163,5,5256,5242,16.29,2.59,24,6,0,0
98934,107839458,5,5245,5371,16.19,2.53,24,6,0,0
99386,107954626,5,5387,5528,16.19,3.05,24,6,0,0
99795,108055908,5,5531,5585,16.16,3.14,24,6,0,0
100694,108278869,5,5586,5628,16.16,2.85,24,7,0,0
101140,108388116,5,5630,5671,16.1,2.94,24,7,0,0
101588,108496551,5,5653,5500,16.07,2.97,24,7,0,0
102024,108600814,5,5495,5400,16.18,2.74,24,7,0,0
102475,108712549,5,5406,5542,16.11,2.83,24,7,0,0
102888,108820689,5,5532,5400,16.11,2.87,24,7,0,0
103335,108927323,5,5407,5557,16.08,3.19,24,7,0,0
103744,109031193,5,5560,5628,16.13,2.88,24,7,0,0
104190,109143563,5,5622,5557,16.19,2.88,24,7,0,0
104638,109251824,5,5555,5485,16.09,2.74,24,7,0,0
105082,109361805,5,5487,5685,16.1,3.37,24,7,0,0
105534,109471613,5,5691,5857,16.09,3.21,24,7,0,0
106017,109590101,5,5851,5800,16.12,3.3,24,8,0,0
106464,109697605,5,5804,5842,16.07,3.08,24,8,0,0
106867,109801071,5,5836,5785,16.1,3.26,24,8,0,0
107316,109906609,5,5780,5657,16.11,3.07,24,8,0,0
107762,110018846,5,5653,5571,16.06,2.88,24,8,0,0
108244,110128216,5,5579,5757,16.05,3.61,24,8,0,0
108648,110230533,5,5757,5771,16.05,3.2,24,8,0,0
109101,110339317,5,5773,5885,16.11,3.41,24,8,0,0
109554,110451666,5,5875,5685,16.08,3.15,24,8,0,0
109999,110563924,5,5703,5957,16.1,3.3,24,8,0,0
110449,110673766,5,5945,5828,16.01,3.41,24,9,0,0
110848,110776137,5,5832,5900,16.12,3.27,24,9,0,0
111282,110886662,5,5889,5742,16.1,3.18,24,9,0,0
111674,110990031,5,5751,5942,16.08,3.55,24,9,0,0
112171,111107195,5,5931,5828,16.04,2.81,24,9,0,0
112614,111215610,5,5806,5585,16.07,2.85,24,9,0,0
113066,111325832,5,5594,5685,16.12,2.85,24,9,0,0
113466,111426441,5,5683,5628,16.05,2.87,24,9,0,0
113964,111547089,5,5625,5600,16.1,2.99,24,9,0,0
114410,111653615,5,5594,5542,16.09,2.78,24,9,0,0
114856,111765857,5,5539,5500,16.13,2.77,24,9,0,0
115261,111864866,5,5502,5557,16.16,2.76,24,10,0,0
115710,111978631,5,5555,5528,16.16,2.75,24,10,0,0
116194,112088651,5,5532,5600,15.99,2.95,24,10,0,0
117047,112301087,5,5601,5742,16.06,3.2,24,10,0,0
117496,112410613,5,5741,5728,16.1,3.17,24,10,0,0
117985,112526355,5,5715,5571,16.17,2.84,24,10,0,0
118353,112623480,5,5569,5471,16.17,2.88,24,10,0,0
118838,112743069,5,5477,5542,16.13,2.76,24,10,0,0
119249,112842375,5,5539,5385,16.1,2.57,24,10,0,0
119734,112960497,5,5394,5485,16.1,2.8,24,10,0,0
120184,113070319,5,5500,5657,16.14,2.95,24,11,0,0
120582,113168363,5,5656,5642,16.15,2.83,24,11,0,0
121038,113283089,5,5625,5400,16.16,2.24,24,11,0,0
121490,113395432,5,5400,5414,16.13,2.38,24,11,0,0
121935,113501862,5,5406,5300,16.05,2.44,24,11,0,0
122336,113603523,5,5303,5385,16.1,2.6,24,11,0,0
123195,113822151,5,5386,5457,16.16,2.76,24,11,0,0
123646,113931821,5,5481,5728,16.02,3.14,24,11,0,0
124091,114043289,5,5745,5928,15.95,3.89,24,11,0,0
124979,114257105,5,5932,6028,16.01,3.89,24,11,0,0
125420,114362855,5,6037,6157,16.06,3.57,24,12,0,0
125873,114475105,5,6146,6042,16.06,3.63,24,12,0,0
126277,114577880,5,6036,5914,16.01,4.09,24,12,0,0
126721,114682885,5,5920,6314,15.98,4.88,24,12,0,0
127244,114811862,5,6310,6285,15.9,4.56,24,12,0,0
127699,114918521,5,6286,6300,15.9,4.41,24,12,0,0
128100,115019868,5,6280,6128,15.82,4.15,24,12,0,0
128549,115123818,5,6130,6285,15.94,3.86,24,12,0,0
128992,115235801,5,6275,6085,15.98,3.71,24,12,0,0
129448,115347182,5,6074,5957,15.91,3.66,24,13,0,0
129887,115451301,5,5953,5900,15.92,3.46,24,13,0,0
130333,115561422,5,5897,5871,15.97,3.43,24,13,0,0
130782,115673378,5,5887,6028,15.92,3.75,24,13,0,0
131221,115780833,5,6030,6057,15.83,3.82,24,13,0,0
132083,115994251,5,6061,6185,15.79,3.92,24,13,0,0
132531,116099693,5,6182,6142,15.85,3.8,25,13,0,0
132977,116208613,5,6141,6057,15.89,4.07,24,14,0,0
133432,116324158,5,6060,6085,15.9,4.14,25,14,0,0
133838,116422132,5,6085,6142,15.86,4.15,25,14,0,0
134283,116530617,5,6152,6271,15.91,4.37,25,14,0,0
134728,116645869,5,6273,6300,15.97,4.05,25,14,0,0
135175,116755156,5,6274,5971,16.01,3.61,25,14,0,0
135627,116869667,5,5968,5942,15.91,3.63,25,14,0,0
136036,116968503,5,5940,5871,15.97,3.91,25,14,0,0
136523,117089604,5,5889,6157,15.97,4.1,25,15,0,0
137818,117410337,5,6153,6042,16.09,3.53,25,15,0,0
138707,117626767,5,6036,5914,15.97,3.89,25,15,0,0
139156,117736380,5,5915,5928,15.94,3.62,25,15,0,0
139605,117842864,5,5931,5971,15.94,3.48,25,15,0,0
140053,117959913,5,5955,5842,15.95,3.59,25,15,0,0
140461,118055660,5,5843,5942,15.91,3.91,25,15,0,0
140897,118164776,5,5939,5842,15.86,3.8,25,16,0,0
141350,118277089,5,5850,5971,16.02,3.84,25,16,0,0
141757,118380245,5,5970,5914,16.04,3.25,25,16,0,0
142286,118501340,5,5910,5871,15.98,3.71,25,16,0,0
142701,118610292,5,5884,6000,15.98,3.7,25,16,0,0
143104,118709902,5,6008,6114,15.95,4.06,25,16,0,0
143548,118819549,5,6098,5885,15.93,3.78,25,16,0,0
144004,118932662,5,5901,6057,16.04,3.67,25,16,0,0
144895,119156578,5,6055,6014,16,3.91,25,17,0,0
145297,119252773,5,6030,6228,15.9,4.31,25,17,0,0
145780,119367657,5,6213,6085,15.91,4.04,25,17,0,0
146188,119464780,5,6086,6214,15.93,4.49,25,17,0,0
146634,119576597,5,6211,6171,15.96,4.07,25,17,0,0
147080,119686109,5,6168,6128,15.94,3.95,25,17,0,0
147978,119909839,5,6143,6457,15.95,4.55,25,17,0,0
148385,120017281,5,6451,6385,16.01,4.03,25,18,0,0
149283,120237887,5,6376,6200,16.01,3.95,25,18,0,0
149694,120335914,5,6199,6157,16.05,4.24,25,18,0,0
150148,120451545,5,6157,6171,15.96,3.9,25,18,0,0
150625,120562238,5,6165,6100,16,4.2,25,18,0,0
151071,120667564,5,6106,6328,16.04,4,25,18,0,0
151530,120784074,5,6323,6271,15.89,4.52,25,18,0,0
151976,120890273,5,6273,6300,16,3.88,25,19,0,0
152423,121001795,5,6285,6085,15.86,3.76,25,19,0,0
152831,121104231,5,6090,6157,15.95,3.53,25,19,0,0
153240,121209326,5,6154,6014,15.94,3.68,25,19,0,0
153735,121324854,5,6002,5885,16.02,3.39,25,19,0,0
154140,121429155,5,5882,5842,15.98,3.5,25,19,0,0
154589,121543698,5,5831,5742,16,3.11,25,19,0,0
155019,121648497,5,5743,5771,15.92,3.06,25,19,0,0
155467,121761919,5,5757,5642,15.95,3.29,25,19,0,0
155874,121859691,5,5640,5600,16,2.87,25,20,0,0
156319,121972547,5,5600,5614,16.02,2.86,25,20,0,0
156768,122080637,5,5616,5671,15.95,2.88,26,20,0,0
157210,122190110,5,5668,5614,16.04,3.07,25,20,0,0
157665,122299922,5,5616,5671,16,3.04,25,20,0,0
158108,122407441,5,5669,5628,15.9,2.99,26,20,0,0
158563,122520611,5,5623,5514,15.98,2.71,25,20,0,0
159013,122632295,5,5503,5400,16.04,2.76,25,20,0,0
159449,122733082,5,5403,5542,16.05,2.84,25,20,0,0
159907,122848870,5,5532,5400,15.98,2.75,25,20,0,0
160805,123073245,5,5397,5285,16.04,2.35,26,20,0,0
161247,123181893,5,5278,5214,15.99,2.41,26,21,0,0
161695,123289201,5,5218,5285,15.97,2.56,25,21,0,0
162106,123393138,5,5280,5128,15.94,2.78,25,21,0,0
162554,123502116,5,5148,5414,15.98,2.79,26,21,0,0
162997,123612786,5,5420,5514,16,2.79,26,21,0,0
163405,123713679,5,5512,5442,16,2.7,26,21,0,0
163856,123828262,5,5449,5600,16,2.99,26,21,0,0
164304,123935052,5,5600,5614,15.97,3.02,26,21,0,0
164756,124051218,5,5611,5571,16.01,3.28,26,21,0,0
165159,124154286,5,5572,5642,15.98,3.13,26,21,0,0
165652,124271637,5,5655,5842,15.91,3.51,25,21,0,0
166059,124375698,5,5846,5957,15.97,3.51,25,22,0,0
166508,124482794,5,5955,5885,15.87,3.78,25,22,0,0
166992,124597897,5,5892,6042,15.94,3.55,26,22,0,0
167401,124699500,5,6033,5928,15.89,3.58,26,22,0,0
167849,124813069,5,5932,6000,15.95,4.09,26,22,0,0
168257,124913608,5,6001,6057,15.97,3.85,25,22,0,0
168712,125031122,5,6065,6157,15.86,4.17,25,22,0,0
169607,125248648,5,6157,6157,15.91,3.83,26,23,0,0
170018,125353213,5,6160,6200,15.94,3.67,26,23,0,0
170467,125464567,5,6180,5985,15.86,3.6,26,23,0,0
170871,125565522,5,5984,5971,15.9,3.73,26,23,0,0
171354,125675077,5,5973,6028,15.95,3.37,25,23,0,0
171769,125782633,5,6025,5914,15.89,3.46,26,23,0,0
172216,125892262,5,5921,6014,15.92,3.44,26,23,0,0
172665,126004296,5,6000,5814,15.89,3.18,26,23,0,0
173111,126111350,5,5814,5828,15.89,3.26,26,23,0,0
173558,126223898,5,5820,5714,15.94,3.08,26,23,0,0
174013,126337917,5,5721,5785,15.89,3.21,26,23,0,0
174461,126447142,5,5778,5714,15.95,3.29,26,24,0,0
174908,126559874,5,5714,5714,15.94,3.36,26,24,0,0
175316,126656171,5,5713,5700,15.95,3.14,26,24,0,0
175715,126755895,5,5703,5842,15.91,3.78,26,24,0,0
176169,126866625,5,5840,5771,15.94,2.87,26,24,0,0
176576,126971532,5,5768,5714,15.9,3.31,26,24,0,0
177024,127079783,5,5716,5885,15.88,3.55,26,24,0,0
177471,127191100,5,5890,5942,15.75,3.89,26,24,0,0
177921,127301504,5,5956,6100,15.8,3.58,26,24,0,0
178322,127399768,5,6098,6000,15.8,3.48,26,25,0,0
178811,127516564,5,5998,5971,15.86,3.53,26,25,0,0
179253,127624688,5,5964,5700,15.81,3.2,26,25,0,0
179701,127730400,5,5706,5914,15.86,3.59,26,25,0,0
180151,127844374,5,5921,6000,15.86,3.79,26,25,0,0
180553,127946341,5,5998,5885,15.85,3.48,26,25,0,0
181045,128066579,5,5892,6000,15.89,3.46,26,25,0,0
181454,128173642,5,5987,5842,15.82,3.55,26,25,0,0
181908,128285195,5,5844,5871,15.82,3.44,26,25,0,0
182311,128385657,5,5872,5900,15.89,3.4,26,25,0,0
182759,128493629,5,5897,5828,15.91,2.91,26,26,0,0
183206,128607510,5,5811,5571,15.91,2.84,26,26,0,0
183658,128718640,5,5567,5528,15.97,2.55,26,26,0,0
184066,128822775,5,5526,5500,16,2.83,26,26,0,0
184516,128932314,5,5507,5571,15.95,3.24,26,26,0,0
185407,129150646,5,5572,5742,15.91,3.57,26,26,0,0
185852,129260523,5,5741,5728,15.89,3.57,26,26,0,0
186302,129368811,5,5739,5857,15.89,3.57,26,26,0,0
187226,129589927,5,5857,5885,15.89,3.41,26,27,0,0
187630,129688797,5,5883,5757,15.88,3.25,26,27,0,0
188078,129801033,5,5759,5814,15.92,3.25,26,27,0,0
188576,129923204,5,5807,5742,15.86,3.23,26,27,0,0
188977,130023912,5,5749,5828,15.89,2.98,26,27,0,0
189871,130239647,5,5826,5685,15.93,2.94,26,27,0,0
190324,130351523,5,5686,5700,15.95,3.01,26,27,0,0
190768,130462604,5,5695,5657,15.92,3.11,26,27,0,0
191169,130563920,5,5658,5700,15.87,3.25,26,27,0,0
191622,130674789,5,5696,5671,15.91,3.08,26,28,0,0
192031,130778212,5,5672,5700,15.9,3.08,26,28,0,0
192963,131002927,5,5693,5585,15.97,2.91,26,28,0,0
193845,131213674,5,5582,5471,15.89,2.45,26,28,0,0
194299,131327091,5,5479,5557,16,2.88,26,28,0,0
195198,131551688,5,5553,5485,15.88,2.7,26,28,0,0
195602,131646127,5,5484,5471,15.88,2.94,26,28,0,0
196086,131767273,5,5482,5600,15.91,2.94,26,28,0,0
197383,132082060,5,5600,5628,15.95,2.9,26,29,0,0
197826,132192609,5,5612,5471,15.91,3.01,26,29,0,0
198278,132302859,5,5479,5585,15.94,2.75,26,29,0,0
198687,132403924,5,5585,5585,15.97,2.72,26,29,0,0
199173,132521627,5,5592,5657,15.95,3.22,26,29,0,0
199618,132631128,5,5655,5642,15.97,3.1,26,29,0,0
200071,132747063,5,5646,5685,15.92,3.35,26,29,0,0
200480,132848637,5,5692,5785,15.86,2.96,26,29,0,0
200925,132959313,5,5776,5671,15.91,3.11,26,29,0,0
201380,133071336,5,5663,5585,15.94,2.93,26,29,0,0
201782,133172503,5,5599,5885,15.91,3.25,26,30,0,0
202237,133283585,5,5867,5628,15.84,3.05,26,30,0,0
202683,133393613,5,5639,5800,15.87,3.07,26,30,0,0
203130,133499928,5,5792,5642,15.91,2.96,26,30,0,0
203534,133602280,5,5641,5628,15.85,3.11,26,30,0,0
204027,133718150,5,5636,5757,15.94,3.14,26,30,0,0
204470,133828361,5,5749,5671,15.89,3.08,26,30,0,0
205363,134048359,5,5668,5614,15.95,3.01,26,30,0,0
205768,134150824,5,5614,5642,15.91,2.99,26,30,0,0
206218,134258776,5,5641,5614,15.95,3.07,26,30,0,0
206670,134371321,5,5610,5571,15.95,3.29,26,31,0,0
207118,134478783,5,5576,5657,15.87,3.21,26,31,0,0
207570,134593571,5,5655,5642,15.89,3.04,26,31,0,0
207977,134695524,5,5638,5600,15.93,2.99,26,31,0,0
208425,134805092,5,5595,5485,15.91,2.85,26,31,0,0
208871,134911836,5,5473,5328,15.99,2.71,26,31,0,0
209320,135024038,5,5335,5414,15.93,2.75,26,31,0,0
209766,135129298,5,5411,5385,15.92,2.83,26,31,0,0
210214,135240836,5,5393,5471,15.92,3.15,26,31,0,0
210622,135341157,5,5474,5614,15.81,3.28,26,31,0,0
211069,135451039,5,5624,5757,15.88,3.17,26,31,0,0
211514,135562540,5,5746,5642,15.92,3.07,26,32,0,0
211922,135664817,5,5643,5742,15.92,3.15,26,32,0,0
212375,135780254,5,5742,5742,15.9,3.08,26,32,0,0
212826,135888608,5,5738,5700,15.92,3.16,26,32,0,0
213264,135994289,5,5703,5771,15.91,3.6,26,32,0,0
213677,136096685,5,5770,5728,15.91,2.63,26,32,0,0
214125,136209847,5,5726,5700,15.91,3.03,26,32,0,0
214575,136318266,5,5696,5600,15.95,2.64,26,32,0,0
215018,136426167,5,5599,5542,15.82,3.02,26,32,0,0
215506,136542360,5,5553,5671,15.83,3.29,26,32,0,0
215947,136648785,5,5683,5857,15.85,3.38,26,33,0,0
216394,136757795,5,5854,5828,15.83,3.27,26,33,0,0
216839,136864044,5,5830,5871,15.89,3.22,26,33,0,0
217324,136981903,5,5865,5800,15.83,3.31,26,33,0,0
217728,137082679,5,5804,5857,15.86,3.35,26,33,0,0
218175,137195881,5,5840,5685,15.89,3.32,26,33,0,0
218623,137303670,5,5700,5857,15.84,3.44,26,33,0,0
219068,137411725,5,5860,5900,15.81,3.37,26,33,0,0
219514,137518859,5,5890,5800,15.87,3.29,26,33,0,0
219916,137622047,5,5803,5857,15.86,3.46,26,33,0,0
220409,137745356,5,5871,5957,15.83,3.5,26,34,0,0
220810,137840643,5,5957,5957,15.89,3.5,26,34,0,0
221699,138056607,5,5958,6014,15.79,3.66,26,34,0,0
222147,138167655,5,6013,6000,15.87,3.47,26,34,0,0
222634,138284888,5,5984,5842,15.88,3.4,26,34,0,0
223038,138391807,5,5838,5814,15.88,3.28,26,34,0,0
223522,138501640,5,5829,6028,15.9,3.77,26,34,0,0
223963,138608492,5,6035,6114,15.84,3.72,26,34,0,0
224613,138822762,5,6052,6014,15.86,3.46,26,35,0,0
225061,138933641,5,5995,5828,15.84,3.68,26,35,0,0
225464,139037494,5,5834,5971,15.79,3.66,26,35,0,0
226394,139264165,5,5971,5971,15.87,3.9,26,35,0,0
226795,139359552,5,5971,5985,15.81,4.14,26,35,0,0
227276,139472322,5,5992,6085,15.77,3.8,26,35,0,0
227724,139583329,5,6081,6042,15.8,3.57,26,35,0,0
228174,139691777,5,6019,5814,15.85,3.65,26,35,0,0
229055,139903067,5,5820,6114,15.8,3.88,26,36,0,0
229506,140015871,5,6108,6042,15.86,3.84,26,36,0,0
229913,140117673,5,6035,5885,15.72,3.61,26,36,0,0
230359,140228727,5,5904,6171,15.84,3.68,26,36,0,0
230811,140334114,5,6166,6071,15.82,3.76,26,36,0,0
231253,140446152,5,6057,5885,15.8,3.6,26,36,0,0
231662,140548101,5,5888,5957,15.84,3.41,26,36,0,0
232109,140659317,5,5955,5914,15.94,3.05,26,36,0,0
232598,140776520,5,5908,5828,15.91,3.13,26,37,0,0
232998,140873074,5,5831,5942,15.97,3.09,26,37,0,0
233449,140987776,5,5932,5800,15.93,2.94,26,37,0,0
233901,141100139,5,5798,5771,15.88,2.98,26,37,0,0
234302,141200635,5,5771,5771,15.86,3,26,37,0,0
234756,141313918,5,5770,5757,15.85,2.96,27,37,0,0
235156,141418118,5,5756,5742,15.84,3.05,26,37,0,0
235648,141536138,5,5744,5771,15.87,2.86,26,37,0,0
236498,141746654,5,5766,5642,15.94,2.96,27,37,0,0
236944,141855128,5,5642,5642,15.83,3.23,27,37,0,0
237392,141964901,5,5657,5814,15.79,3.7,27,38,0,0
237836,142074819,5,5842,6128,15.8,3.91,26,38,0,0
238244,142178005,5,6125,6000,15.85,3.04,27,38,0,0
239168,142400390,5,5995,5871,15.85,3.52,26,38,0,0
239615,142507802,5,5857,5671,15.91,2.81,26,38,0,0
240058,142615045,5,5673,5700,15.88,2.94,26,38,0,0
240509,142723266,5,5714,5914,15.76,3.87,26,38,0,0
240953,142833027,5,5918,5971,15.73,3.61,27,38,0,0
241360,142933646,5,5969,5885,15.81,3.51,26,39,0,0
241805,143043595,5,5885,5928,15.85,3.37,27,39,0,0
242698,143264307,5,5925,5871,15.77,3.34,27,39,0,0
243104,143368871,5,5875,5942,15.83,3.15,26,39,0,0
243553,143479085,5,5956,6114,15.75,4.1,27,39,0,0
243998,143590520,5,6095,5914,15.83,3.16,26,39,0,0
244886,143804866,5,5898,5400,15.94,2.41,27,39,0,0
245331,143910764,5,5397,5342,15.92,2.47,26,39,0,0
245779,144022666,5,5348,5528,15.88,3.29,26,39,0,0
246226,144129868,5,5532,5771,15.89,3.54,27,40,0,0
246673,144242070,5,5771,5771,15.95,3.24,27,40,0,0
247124,144353875,5,5748,5471,15.89,2.04,26,40,0,0
247964,144559360,5,5476,5914,15.85,3.72,27,40,0,0
248460,144678702,5,5912,5900,15.92,3.31,27,40,0,0
248863,144783852,5,5881,5642,15.9,2.8,27,40,0,0
249311,144890805,5,5642,5642,15.91,2.95,27,40,0,0
249751,144999374,5,5640,5600,15.88,2.97,27,40,0,0
250201,145106569,5,5597,5542,15.78,3.82,27,40,0,0
250646,145220902,5,5561,5885,15.72,3.84,27,41,0,0
251093,145325889,5,5889,6000,15.76,4.38,27,41,0,0
251576,145443823,5,5994,5942,15.73,3.62,27,41,0,0
252026,145553205,5,5945,6000,15.72,3.7,26,41,0,0
252432,145658667,5,5995,5885,15.73,3.35,27,41,0,0
252875,145769493,5,5880,5814,15.74,2.94,26,41,0,0
253325,145878864,5,5786,5514,15.81,2.76,26,41,0,0
253730,145981670,5,5510,5414,15.91,2.67,26,41,0,0
254174,146088780,5,5420,5571,15.86,2.86,27,41,0,0
254611,146191080,5,5568,5371,15.76,2.43,26,41,0,0
255099,146308124,5,5384,5571,15.79,3.04,26,41,0,0
255539,146415793,5,5564,5471,15.8,3.03,27,42,0,0
255989,146525650,5,5471,5485,15.84,2.69,27,42,0,0
256394,146628608,5,5476,5300,15.89,2.64,27,42,0,0
256881,146746449,5,5314,5442,15.85,2.99,27,42,0,0
257282,146844683,5,5451,5571,15.88,3.51,27,42,0,0
257728,146955786,5,5606,5942,15.83,4.02,27,42,0,0
258181,147069170,5,5955,6100,15.85,3.95,27,42,0,0
258582,147170652,5,6110,6242,15.82,4.44,27,42,0,0
259029,147279021,5,6241,6228,15.86,4.26,27,42,0,0
259436,147383015,5,6225,6171,15.8,4.06,27,43,0,0
260329,147598600,5,6170,6100,15.83,3.74,27,43,0,0
260777,147707845,5,6101,6185,15.8,4.41,27,43,0,0
261664,147925903,5,6185,6257,15.76,4.47,27,43,0,0
262146,148044026,5,6266,6357,15.69,4.32,27,43,0,0
262598,148153860,5,6352,6300,15.67,4.52,27,43,0,0
263044,148262829,5,6294,6242,15.73,4.1,27,44,0,0
263481,148367689,5,6239,6185,15.73,4.22,27,44,0,0
263927,148476689,5,6190,6300,15.7,4.17,27,44,0,0
264374,148587792,5,6293,6228,15.7,4.21,27,44,0,0
264817,148693884,5,6228,6242,15.73,4.3,27,44,0,0
265264,148806141,5,6232,6100,15.76,4.06,27,44,0,0
265712,148914420,5,6102,6271,15.79,4.03,27,44,0,0
266158,149028442,5,6255,6142,15.73,4.31,27,44,0,0
266610,149133246,5,6144,6314,15.7,4.13,27,45,0,0
267051,149245054,5,6299,6142,15.71,3.96,27,45,0,0
267503,149366320,5,6142,6142,15.78,3.8,27,45,0,0
267943,149466839,5,6133,6014,15.76,3.97,27,45,0,0
268392,149578768,5,6016,6042,15.63,4,27,45,0,0
268795,149675065,5,6044,6200,15.61,5.24,27,45,0,0
269282,149798890,5,6192,6128,15.77,3.55,27,45,0,0
269687,149896785,5,6125,6014,15.69,3.53,27,45,0,0
270135,150009670,5,6012,5914,15.79,3.24,27,46,0,0
270581,150117555,5,5903,5714,15.78,2.96,27,46,0,0
271067,150234674,5,5701,5500,15.73,2.92,27,46,0,0
271520,150349301,5,5512,5628,15.76,2.67,27,46,0,0
271928,150449670,5,5619,5414,15.83,2.54,27,46,0,0
272366,150556209,5,5413,5400,15.83,2.6,27,46,0,0
272816,150665334,5,5391,5185,15.87,2.29,27,46,0,0
273257,150772929,5,5178,5042,15.87,2.13,27,46,0,0
273706,150881535,5,5042,5057,15.94,2.17,27,46,0,0
274599,151099075,5,5058,5114,15.91,2.45,27,46,0,0
275046,151212502,5,5106,5014,15.92,2.03,27,46,0,0
275540,151332801,5,5022,5085,15.95,2.34,27,46,0,0
275940,151429796,5,5091,5214,15.91,2.49,27,47,0,0
276396,151547355,5,5221,5300,15.91,2.64,27,47,0,0
276839,151653526,5,5302,5485,15.91,2.55,27,47,0,0
277731,151868878,5,5482,5414,15.85,2.77,27,47,0,0
278129,151972047,5,5425,5657,15.82,3.19,27,47,0,0
278582,152082389,5,5643,5471,15.82,2.4,27,47,0,0
278985,152185805,5,5471,5500,15.8,2.66,27,47,0,0
279484,152305867,5,5495,5442,15.85,2.97,27,47,0,0
279927,152416074,5,5442,5442,15.87,2.55,27,47,0,0
280335,152514492,5,5442,5442,15.85,2.74,27,47,0,0
280783,152625472,5,5441,5414,15.83,2.88,27,47,0,0
281232,152738524,5,5411,5385,15.77,2.79,27,47,0,0
281715,152852632,5,5381,5342,15.79,2.57,27,48,0,0
282121,152951277,5,5341,5300,15.77,2.7,27,48,0,0
282569,153063586,5,5306,5471,15.82,2.94,27,48,0,0
283017,153174587,5,5484,5671,15.72,3.08,27,48,0,0
283465,153282916,5,5691,5900,15.72,3.54,27,48,0,0
283868,153386789,5,5903,5985,15.8,3.6,27,48,0,0
284318,153495559,5,5987,6042,15.8,3.45,27,48,0,0
284768,153607842,5,6034,5928,15.86,3.11,27,48,0,0
285216,153716864,5,5912,5685,15.74,3.3,27,48,0,0
285661,153827288,5,5685,5700,15.83,3.23,27,48,0,0
286107,153935063,5,5719,5914,15.81,3.69,27,49,0,0
286541,154037703,5,5912,5885,15.75,3.64,27,49,0,0
286992,154145034,5,5883,5857,15.83,3.64,27,49,0,0
287440,154255636,5,5858,5928,15.81,3.5,27,49,0,0
287883,154365528,5,5921,5857,15.77,3.55,27,49,0,0
288326,154468521,5,5849,5771,15.82,3.23,27,49,0,0
288772,154579270,5,5765,5657,15.84,3.12,27,49,0,0
289252,154687574,5,5657,5657,15.73,3.48,27,49,0,0
289707,154806556,5,5653,5628,15.79,3.37,27,49,0,0
290114,154908651,5,5617,5485,15.89,2.64,27,50,0,0
290562,155021550,5,5469,5271,15.89,2.79,27,50,0,0
291003,155125137,5,5270,5228,15.86,2.67,27,50,0,0
291448,155235620,5,5225,5128,15.9,2.7,27,50,0,0
291902,155343679,5,5128,5200,15.85,2.58,27,50,0,0
292348,155457089,5,5200,5200,15.9,2.46,27,50,0,0
292792,155565640,5,5208,5328,15.87,2.74,27,50,0,0
293242,155673360,5,5325,5285,15.78,3.17,27,50,0,0
293689,155788604,5,5300,5457,15.79,2.87,27,50,0,0
294133,155894166,5,5463,5571,15.85,3.19,27,50,0,0
294578,156001540,5,5571,5585,15.82,3.16,27,50,0,0
295031,156112585,5,5586,5600,15.8,2.91,27,50,0,0
295472,156220058,5,5601,5642,15.77,3.92,27,51,0,0
295923,156328106,5,5653,5885,15.76,3.8,27,51,0,0
296378,156443587,5,5893,6071,15.78,4,27,51,0,0
296833,156560878,5,6068,6042,15.82,4.21,27,51,0,0
297243,156661669,5,6049,6200,15.7,4.19,27,51,0,0
297645,156764880,5,6195,5971,15.72,3.67,27,51,0,0
298126,156874040,5,5977,6100,15.78,3.59,27,51,0,0
298571,156987305,5,6091,5971,15.79,3.18,27,51,0,0
299021,157096438,5,5966,5900,15.86,3.28,27,51,0,0
299465,157207807,5,5884,5542,15.85,2.48,27,52,0,0
299917,157319169,5,5544,5571,15.75,2.94,27,52,0,0
300316,157417781,5,5570,5542,15.87,2.71,27,52,0,0
300814,157534691,5,5510,5214,15.79,2.37,27,52,0,0
301257,157644069,5,5206,5100,15.88,2.29,27,52,0,0
302143,157857293,5,5101,5257,15.82,2.89,27,52,0,0
302627,157975579,5,5282,5571,15.76,2.83,27,52,0,0
303034,158074916,5,5566,5285,15.78,2.4,27,52,0,0
303478,158185334,5,5280,5171,15.76,2.44,27,52,0,0
303929,158294605,5,5181,5285,15.83,2.73,27,52,0,0
304368,158400094,5,5289,5400,15.76,2.9,27,52,0,0
304856,158515055,5,5403,5442,15.79,2.86,27,52,0,0
305262,158619703,5,5444,5571,15.86,3.06,27,53,0,0
305707,158725580,5,5571,5614,15.79,2.95,27,53,0,0
306155,158836783,5,5613,5600,15.78,3.07,27,53,0,0
306644,158958637,5,5605,5642,15.89,2.8,27,53,0,0
307046,159054159,5,5647,5757,15.86,3.15,27,53,0,0
307490,159164168,5,5749,5600,15.8,3.1,27,53,0,0
308380,159385333,5,5603,5671,15.8,3.18,27,53,0,0
308827,159492611,5,5669,5642,15.86,2.54,27,53,0,0
309276,159605199,5,5639,5614,15.81,3.07,27,53,0,0
309725,159714213,5,5612,5600,15.83,3.09,27,53,0,0
310124,159813701,5,5606,5771,15.79,2.91,27,54,0,0
310610,159924053,5,5753,5514,15.86,2.86,27,54,0,0
311056,160034584,5,5517,5571,15.73,3.12,27,54,0,0
311503,160144795,5,5571,5585,15.76,2.74,27,54,0,0
311946,160255518,5,5581,5542,15.86,2.61,27,54,0,0
312346,160356196,5,5540,5428,15.8,2.73,27,54,0,0
312799,160466865,5,5427,5414,15.83,2.76,27,54,0,0
313244,160582101,5,5415,5457,15.83,2.96,27,54,0,0
313728,160692892,5,5468,5614,15.82,3.02,27,54,0,0
314172,160798638,5,5616,5657,15.79,2.97,27,54,0,0
315511,161127242,5,5657,5685,15.74,3.37,27,55,0,0
315990,161245138,5,5680,5614,15.79,2.55,27,55,0,0
316438,161358651,5,5601,5500,15.75,2.95,27,55,0,0
316848,161458610,5,5505,5585,15.77,3.08,27,55,0,0
317291,161571841,5,5585,5600,15.72,3.07,27,55,0,0
317699,161673119,5,5600,5600,15.79,2.9,27,55,0,0
318142,161783588,5,5600,5614,15.88,3,27,55,0,0
318593,161890686,5,5624,5771,15.77,2.93,27,55,0,0
319043,162001645,5,5760,5614,15.88,2.98,27,55,0,0
319926,162219841,5,5626,5885,15.8,2.95,27,56,0,0
320374,162328561,5,5875,5742,15.91,3.04,27,56,0,0
320821,162438487,5,5732,5600,15.8,2.81,27,56,0,0
321269,162552066,5,5604,5714,15.86,3.26,27,56,0,0
321715,162657792,5,5723,5800,15.83,3.25,27,56,0,0
322160,162766302,5,5807,5885,15.8,3.38,27,56,0,0
322606,162870920,5,5817,4871,16.33,0.76,27,56,0,0
323056,162986145,5,4763,3642,16.01,1.09,27,56,0,0
323498,163086797,5,3618,2700,16.29,0.17,27,56,0,0
323986,163209436,5,2709,2814,16.25,0.49,27,56,0,0
324390,163307545,5,2811,2757,16.25,0.26,27,56,0,0
324843,163424615,5,2745,2614,16.26,0.37,27,56,0,0
325295,163537384,5,2628,2728,16.26,0.5,27,56,0,0
325696,163634399,5,2725,2657,16.27,0.34,27,56,0,0
326144,163742859,5,2657,2671,16.26,0.4,27,56,0,0
326992,163960541,5,2670,2657,16.29,0.4,27,56,0,0
327482,164072222,5,2657,2671,16.25,0.41,27,56,0,0
327930,164186604,5,2673,2700,16.27,0.44,27,56,0,0
328378,164295130,5,2697,2671,16.29,0.37,27,56,0,0
328781,164398837,5,2671,2671,16.29,0.38,27,56,0,0
329230,164503185,5,2671,2671,16.29,0.44,27,56,0,0
330126,164721527,5,2672,2814,16.32,0.43,27,56,0,0
330570,164831027,5,2814,2814,16.27,0.48,27,56,0,0
331021,164937067,5,2814,2814,16.3,0.43,27,56,0,0
331461,165042522,5,2782,2171,16.39,0.04,27,56,0,0
331908,165153623,5,2129,1671,16.38,0,27,56,0,0
332364,165264533,5,1652,1385,16.37,0.06,26,56,0,0
332771,165362862,5,1384,1342,16.36,0.09,26,56,0,0
333257,165476337,5,1341,1328,16.36,0.09999999,27,56,0,0
333743,165592108,5,1328,1328,16.37,0.09999999,26,56,0,0
334193,165698330,5,1328,1328,16.37,0.09999999,26,56,0,0
334640,165808871,5,1328,1328,16.38,0.09999999,26,56,0,0
335048,165911817,5,1328,1328,16.38,0.09999999,26,56,0,0
335494,166024654,5,1328,1328,16.38,0.09999999,26,56,0,0
335939,166131245,5,1328,1328,16.38,0.09,26,56,0,0
336388,166242167,5,1327,1314,16.38,0.09999999,26,56,0,0
336829,166347798,5,1314,1314,16.39,0.09999999,26,56,0,0
337277,166454325,5,1315,1328,16.39,0.09999999,26,56,0,0
337687,166555633,5,1305,714,16.41,0.02,26,56,0,0
338183,166670821,5,669,257,16.41,0,26,56,0,0
338631,166774883,5,246,0,16.41,0.02,26,56,0,0
339126,166891569,5,0,0,16.41,0.02,26,56,0,0
339580,167000701,5,0,0,16.41,0.02,26,56,0,0
340031,167106785,5,0,0,16.41,0.02,26,56,0,0
340482,167218156,5,0,0,16.42,0.02,26,56,0,0
340935,167323392,5,0,0,16.42,0.02,26,56,0,0
341385,167431276,5,0,0,16.42,0.02,26,56,0,0
341839,167535878,5,0,0,16.42,0.02,26,56,0,0
342291,167644834,5,0,0,16.42,0.03,26,56,0,0
342739,167752133,5,0,0,16.42,0.03,26,56,0,0
343190,167858186,5,0,0,16.42,0.03,26,56,0,0
343687,167974911,5,0,0,16.42,0.03,26,56,0,0
344138,168078565,5,0,0,16.43,0.03,26,56,0,0
344638,168196003,5,0,0,16.44,0.02,26,56,0,0
345089,168301582,5,0,0,16.43,0.02,26,56,0,0
345578,168414288,5,0,0,16.44,0.02,26,56,0,0
346035,168519628,5,0,0,16.44,0.02,26,56,0,0
346483,168628282,5,0,0,16.44,0.02,26,56,0,0
346935,168732904,5,0,0,16.44,0.03,26,56,0,0
347386,168841085,5,0,0,16.45,0.03,26,56,0,0
347917,168961795,5,0,0,16.45,0.03,26,56,0,0
348371,169068068,5,0,0,16.44,0.03,26,56,0,0
348821,169173763,5,0,0,16.45,0.03,26,56,0,0
349271,169275849,5,0,0,16.45,0.03,26,56,0,0
349764,169390881,5,0,0,16.45,0.03,26,56,0,0
350218,169495329,5,0,0,16.45,0.03,26,56,0,0
350671,169605140,5,0,0,16.45,0.03,26,56,0,0
351120,169710621,5,0,0,16.45,0.03,26,56,0,0
351613,169824585,5,0,0,16.45,0.03,26,56,0,0
352067,169930913,5,0,0,16.45,0.03,26,56,0,0
352519,170040533,5,0,0,16.45,0.02,26,56,0,0
353010,170154614,5,0,0,16.45,0.03,26,56,0,0
353464,170260848,5,0,0,16.45,0.03,26,56,0,0
353873,170358674,5,0,0,16.46,0.03,26,56,0,0
354331,170466788,5,0,0,16.46,0.03,26,56,0,0
354741,170567357,5,0,0,16.47,0.03,26,56,0,0
355236,170681887,5,0,0,16.47,0.02,25,56,0,0
355684,170787037,5,0,0,16.47,0.02,26,56,0,0
356180,170903643,5,0,0,16.47,0.02,26,56,0,0
356630,171007578,5,0,0,16.47,0.02,26,56,0,0
357126,171120094,5,0,0,16.47,0.02,26,56,0,0
357573,171224058,5,0,0,16.47,0.02,26,56,0,0
358023,171329322,5,0,0,16.47,0.02,26,56,0,0
358480,171439087,5,0,0,16.47,0.02,26,56,0,0
358932,171544441,5,0,0,16.47,0.02,26,56,0,0
359426,171659052,5,0,0,16.47,0.02,25,56,0,0
359836,171759059,5,0,0,16.47,0.02,25,56,0,0
360332,171873119,5,0,0,16.47,0.03,25,56,0,0
360781,171979145,5,0,0,16.48,0.03,25,56,0,0
361244,172093337,5,0,0,16.48,0.03,25,56,0,0
361732,172207024,5,0,0,16.48,0.03,25,56,0,0
362183,172311609,5,0,0,16.48,0.03,25,56,0,0
362638,172421628,5,0,0,16.48,0.02,25,56,0,0
363135,172541160,5,0,0,16.48,0.02,25,56,0,0
363541,172636479,5,0,0,16.48,0.03,25,56,0,0
