LineNo,TimeUS,Instance,RPM,RawRPM,Volt,Curr,Temp,CTot,MotTemp,Err
1902,33738909,1,0,0,16.82,0.04,22,0,0,0
2311,33840339,1,0,0,16.82,0.03,22,0,0,0
2772,33956566,1,0,0,16.82,0.03,22,0,0,0
3186,34059851,1,0,0,16.81,0.03,22,0,0,0
3608,34164636,1,0,0,16.81,0.03,22,0,0,0
4057,34281108,1,0,0,16.82,0.03,22,0,0,0
4471,34382692,1,0,0,16.82,0.03,22,0,0,0
4886,34490524,1,0,0,16.81,0.03,22,0,0,0
5331,34594354,1,0,0,16.81,0.03,22,0,0,0
5743,34699662,1,0,0,16.82,0.03,22,0,0,0
6164,34807876,1,0,0,16.82,0.03,22,0,0,0
6575,34912872,1,0,0,16.82,0.03,22,0,0,0
7029,35028084,1,0,0,16.82,0.03,22,0,0,0
7441,35132507,1,0,0,16.81,0.03,22,0,0,0
7891,35245781,1,0,0,16.82,0.03,22,0,0,0
8271,35342892,1,0,0,16.82,0.04,22,0,0,0
8726,35458634,1,0,0,16.81,0.03,22,0,0,0
9146,35564180,1,0,0,16.81,0.03,22,0,0,0
9558,35668526,1,0,0,16.82,0.03,22,0,0,0
10016,35784216,1,0,0,16.82,0.03,22,0,0,0
10429,35889814,1,0,0,16.82,0.03,22,0,0,0
10743,35992099,1,0,0,16.82,0.03,22,0,0,0
11198,36105869,1,0,0,16.81,0.03,22,0,0,0
11618,36210528,1,0,0,16.82,0.03,22,0,0,0
12028,36313827,1,0,0,16.81,0.03,22,0,0,0
12482,36428086,1,0,0,16.81,0.03,22,0,0,0
13305,36638098,1,0,0,16.81,0.03,22,0,0,0
13720,36745897,1,0,0,16.82,0.04,22,0,0,0
14143,36859814,1,0,0,16.82,0.04,22,0,0,0
14553,36962071,1,0,0,16.82,0.03,22,0,0,0
15002,37074265,1,0,0,16.81,0.03,22,0,0,0
15414,37179648,1,0,0,16.81,0.03,22,0,0,0
15822,37280418,1,0,0,16.82,0.03,22,0,0,0
16277,37391170,1,0,0,16.82,0.03,22,0,0,0
16723,37501395,1,0,0,16.81,0.03,22,0,0,0
17146,37607133,1,0,0,16.81,0.03,22,0,0,0
17555,37710788,1,0,0,16.82,0.03,22,0,0,0
17971,37816664,1,0,0,16.81,0.03,22,0,0,0
18426,37930047,1,0,0,16.82,0.03,22,0,0,0
18840,38032887,1,0,0,16.82,0.03,22,0,0,0
19298,38148571,1,0,0,16.82,0.03,22,0,0,0
19706,38250795,1,0,0,16.82,0.03,22,0,0,0
20124,38355922,1,0,0,16.82,0.03,22,0,0,0
20579,38468224,1,0,0,16.81,0.03,22,0,0,0
20968,38571999,1,0,0,16.81,0.03,22,0,0,0
21418,38686111,1,0,0,16.82,0.03,22,0,0,0
21829,38790853,1,0,0,16.82,0.03,22,0,0,0
22243,38897719,1,0,0,16.81,0.03,22,0,0,0
22661,39003911,1,0,0,16.82,0.03,22,0,0,0
23103,39110265,1,0,0,16.82,0.03,22,0,0,0
23512,39214795,1,0,0,16.81,0.03,22,0,0,0
23966,39331879,1,0,0,16.82,0.03,22,0,0,0
24381,39437284,1,0,0,16.81,0.03,22,0,0,0
24803,39542699,1,0,0,16.82,0.03,22,0,0,0
25216,39646190,1,0,0,16.81,0.03,22,0,0,0
25664,39754780,1,0,0,16.82,0.03,22,0,0,0
26081,39861349,1,0,0,16.8,0.03,22,0,0,0
26534,39975295,1,0,0,16.81,0.03,22,0,0,0
26950,40080625,1,0,0,16.81,0.03,22,0,0,0
27365,40186153,1,0,0,16.81,0.03,22,0,0,0
27815,40299373,1,0,0,16.82,0.03,22,0,0,0
28234,40402103,1,0,0,16.81,0.03,22,0,0,0
28692,40519627,1,0,0,16.81,0.03,22,0,0,0
29107,40623556,1,0,0,16.81,0.03,22,0,0,0
29522,40728797,1,0,0,16.81,0.03,22,0,0,0
29935,40834335,1,0,0,16.8,0.03,22,0,0,0
30394,40956128,1,0,0,16.82,0.03,22,0,0,0
30768,41047702,1,0,0,16.81,0.03,22,0,0,0
31217,41162641,1,0,0,16.82,0.03,22,0,0,0
31628,41265640,1,0,0,16.82,0.03,22,0,0,0
32042,41374199,1,0,0,16.82,0.03,22,0,0,0
32498,41490320,1,0,0,16.81,0.03,22,0,0,0
32955,41602642,1,0,0,16.82,0.03,22,0,0,0
33368,41709191,1,0,0,16.82,0.03,22,0,0,0
33783,41812074,1,0,0,16.82,0.03,22,0,0,0
34194,41917515,1,0,0,16.82,0.03,22,0,0,0
34647,42033693,1,0,0,16.82,0.03,22,0,0,0
35065,42138527,1,0,0,16.81,0.03,22,0,0,0
35476,42243774,1,0,0,16.82,0.03,22,0,0,0
35891,42345889,1,0,0,16.82,0.03,22,0,0,0
36311,42454271,1,0,0,16.81,0.03,22,0,0,0
36773,42571560,1,0,0,16.81,0.03,22,0,0,0
37145,42668531,1,0,0,16.82,0.03,22,0,0,0
37594,42783291,1,0,0,16.82,0.03,22,0,0,0
38003,42889250,1,0,0,16.82,0.03,22,0,0,0
38457,43004436,1,0,0,16.82,0.03,22,0,0,0
38867,43105586,1,0,0,16.81,0.03,22,0,0,0
39280,43213602,1,0,0,16.81,0.03,22,0,0,0
39702,43325568,1,0,0,16.82,0.03,22,0,0,0
40114,43427126,1,0,0,16.82,0.03,22,0,0,0
40985,43650691,1,0,0,16.81,0.03,22,0,0,0
41394,43752655,1,0,0,16.82,0.03,22,0,0,0
41808,43859921,1,0,0,16.81,0.03,22,0,0,0
42259,43971817,1,0,0,16.81,0.03,22,0,0,0
42669,44074282,1,0,0,16.82,0.03,22,0,0,0
43087,44182182,1,0,0,16.8,0.03,22,0,0,0
43501,44286588,1,0,0,16.82,0.03,22,0,0,0
43958,44398892,1,0,0,16.82,0.02,22,0,0,0
44377,44505168,1,0,0,16.81,0.03,22,0,0,0
44796,44613115,1,0,0,16.81,0.03,22,0,0,0
45209,44717417,1,0,0,16.81,0.03,22,0,0,0
45660,44829545,1,0,0,16.82,0.03,22,0,0,0
46073,44933843,1,0,0,16.81,0.03,22,0,0,0
46491,45039772,1,0,0,16.81,0.03,22,0,0,0
46941,45151229,1,0,0,16.81,0.03,22,0,0,0
47353,45256416,1,0,0,16.81,0.03,22,0,0,0
47770,45363841,1,0,0,16.82,0.03,22,0,0,0
48594,45573759,1,0,0,16.81,0.03,22,0,0,0
49006,45680869,1,0,0,16.81,0.03,22,0,0,0
49455,45792166,1,0,0,16.81,0.03,22,0,0,0
49865,45894353,1,0,0,16.81,0.03,22,0,0,0
50283,45999657,1,0,0,16.81,0.03,22,0,0,0
50730,46112854,1,0,0,16.82,0.03,22,0,0,0
51146,46215175,1,0,0,16.81,0.03,22,0,0,0
51565,46323089,1,0,0,16.81,0.03,22,0,0,0
52022,46438486,1,0,0,16.81,0.03,22,0,0,0
52434,46543178,1,0,0,16.81,0.03,22,0,0,0
52843,46646878,1,0,0,16.81,0.03,22,0,0,0
53303,46761993,1,0,0,16.81,0.03,22,0,0,0
53713,46863286,1,0,0,16.81,0.03,22,0,0,0
54174,46978240,1,0,0,16.81,0.03,22,0,0,0
54995,47185275,1,0,0,16.81,0.03,22,0,0,0
55445,47297834,1,0,0,16.81,0.03,22,0,0,0
56144,47512277,1,0,0,16.81,0.03,22,0,0,0
56558,47617563,1,0,0,16.81,0.03,22,0,0,0
57005,47724697,1,0,0,16.82,0.03,22,0,0,0
57017,97810308,1,0,0,16.8,0.02,23,0,0,0
57474,97920587,1,0,0,16.8,0.02,23,0,0,0
57889,98022133,1,0,0,16.8,0.02,23,0,0,0
58385,98135399,1,0,0,16.8,0.02,23,0,0,0
58834,98240321,1,0,0,16.8,0.02,23,0,0,0
59285,98346348,1,0,0,16.8,0.02,23,0,0,0
59782,98458568,1,0,0,16.8,0.02,23,0,0,0
60191,98555841,1,0,0,16.8,0.02,23,0,0,0
60690,98670187,1,0,0,16.8,0.02,23,0,0,0
61146,98776845,1,0,0,16.8,0.02,23,0,0,0
61601,98882226,1,0,0,16.8,0.02,23,0,0,0
62051,98986632,1,0,0,16.8,0.02,23,0,0,0
62552,99101692,1,0,0,16.8,0.02,23,0,0,0
63463,99319672,1,0,0,16.8,0.02,23,0,0,0
63907,99423375,1,0,0,16.8,0.02,24,0,0,0
64362,99525824,1,0,0,16.8,0.02,23,0,0,0
64858,99642097,1,0,0,16.8,0.02,23,0,0,0
65272,99742615,1,0,0,16.8,0.02,24,0,0,0
65772,99855585,1,0,0,16.8,0.01,24,0,0,0
66217,99956661,1,8,228,16.79,0.03,23,0,0,0
66720,100072214,1,267,657,16.77,0.09,23,0,0,0
67176,100182609,1,693,1085,16.76,0.15,24,0,0,0
67633,100285836,1,1095,1242,16.79,0.11,23,0,0,0
68086,100392092,1,1245,1300,16.78,0.09999999,23,0,0,0
68585,100503648,1,1302,1328,16.77,0.09999999,23,0,0,0
68982,100602636,1,1328,1342,16.78,0.09999999,24,0,0,0
69456,100714698,1,1342,1342,16.79,0.09999999,23,0,0,0
69938,100825363,1,1343,1357,16.79,0.09999999,23,0,0,0
70604,101033614,1,1342,1342,16.78,0.09999999,24,0,0,0
71100,101149596,1,1342,1342,16.78,0.09,23,0,0,0
71554,101253272,1,1343,1357,16.77,0.09,23,0,0,0
72006,101359732,1,1357,1357,16.79,0.09999999,23,0,0,0
72502,101474605,1,1357,1357,16.78,0.09999999,23,0,0,0
72914,101573838,1,1357,1357,16.78,0.09,24,0,0,0
73410,101685647,1,1355,1342,16.79,0.09999999,24,0,0,0
73850,101789806,1,1342,1342,16.79,0.09999999,24,0,0,0
74327,101901872,1,1343,1357,16.79,0.09999999,23,0,0,0
74732,102001612,1,1357,1385,16.77,0.14,24,0,0,0
75231,102114334,1,1398,1714,16.6,0.32,24,0,0,0
75719,102229053,1,1798,2671,16.45,1.1,24,0,0,0
76174,102332340,1,2691,2957,16.57,1.07,24,0,0,0
77034,102545107,1,2966,4057,16.38,2.07,24,0,0,0
77530,102658927,1,4100,4671,16.25,2.11,24,0,0,0
77980,102767490,1,4719,5285,16.15,2.69,24,0,0,0
78476,102881291,1,5298,5442,16.19,2.64,24,0,0,0
78920,102988990,1,5432,5342,16.32,2.02,24,1,0,0
79349,103091894,1,5336,4942,16.33,1.47,24,1,0,0
80282,103311499,1,4937,4742,16.17,1.79,24,1,0,0
80698,103418029,1,4742,4800,16.19,1.66,24,1,0,0
81194,103532108,1,4788,4685,16.27,1.47,24,1,0,0
81645,103640820,1,4687,4742,16.26,1.61,24,1,0,0
82093,103747348,1,4740,4714,16.21,1.74,24,1,0,0
82545,103853860,1,4717,4928,16.04,1.96,24,1,0,0
83040,103968866,1,4926,4914,16.1,1.73,24,1,0,0
83497,104079671,1,4904,4814,16.1,1.77,24,1,0,0
83903,104177503,1,4817,4885,16.05,1.94,24,1,0,0
84402,104294624,1,4887,4928,16.1,1.78,24,1,0,0
84813,104396123,1,4924,4857,16.07,1.85,24,1,0,0
85273,104505530,1,4858,4985,16.08,1.85,24,1,0,0
85712,104617632,1,4984,4957,16.08,1.86,24,1,0,0
86144,104722249,1,4957,5000,16.08,1.69,24,1,0,0
87085,104950584,1,5000,5014,16.04,2.16,24,2,0,0
87492,105046886,1,5014,5071,16.07,2.2,24,2,0,0
87947,105155674,1,5075,5171,16.06,1.92,24,2,0,0
88443,105271086,1,5162,5071,16.11,1.82,24,2,0,0
88894,105376334,1,5062,4971,16.1,2.17,24,2,0,0
89391,105490618,1,4975,5028,16.11,2.17,24,2,0,0
89796,105588558,1,5028,5042,16.08,2.05,24,2,0,0
90256,105696679,1,5042,5042,16.09,2.05,24,2,0,0
90704,105811415,1,5046,5114,16.04,2.29,24,2,0,0
91154,105919598,1,5127,5271,16.07,2.18,24,2,0,0
91604,106032892,1,5263,5185,16.07,1.95,24,2,0,0
92500,106250272,1,5172,4914,15.94,1.87,24,2,0,0
93349,106460394,1,4924,5228,15.98,2.08,24,2,0,0
94229,106672300,1,5225,5042,16.06,1.91,24,2,0,0
94680,106788875,1,5027,4885,16.05,1.59,24,3,0,0
95126,106896579,1,4871,4700,16.08,1.52,24,3,0,0
95577,107007062,1,4696,4642,16.17,1.53,24,3,0,0
96023,107113646,1,4633,4528,16.2,1.4,24,3,0,0
96419,107217664,1,4524,4357,16.21,1.19,24,3,0,0
96895,107338041,1,4329,4128,16.27,0.76,24,3,0,0
97294,107437647,1,4123,3928,16.3,0.87,24,3,0,0
97781,107555508,1,3904,3657,16.29,1.19,24,3,0,0
98230,107664278,1,3672,3828,16.24,1.08,24,3,0,0
98670,107773830,1,3846,4028,16.23,1.43,24,3,0,0
99525,107986603,1,4034,4171,16.14,1.7,24,3,0,0
99929,108086860,1,4172,4200,16.15,1.94,24,3,0,0
100383,108199829,1,4210,4357,16.16,1.36,24,3,0,0
100835,108311342,1,4362,4442,16.16,1.32,24,3,0,0
101279,108419514,1,4443,4471,16.23,1.45,24,3,0,0
101727,108528589,1,4472,4571,16.14,1.34,24,3,0,0
102210,108644645,1,4563,4485,16.12,1.13,25,3,0,0
102620,108750289,1,4489,4571,16.14,1.33,25,3,0,0
103071,108862917,1,4588,4757,16.07,1.99,25,3,0,0
103476,108964844,1,4767,4871,16.14,1.35,25,3,0,0
104331,109175185,1,4867,4414,16.18,1.07,25,3,0,0
104778,109284332,1,4416,4542,16.11,1.62,25,3,0,0
105269,109403689,1,4555,4700,16.06,1.59,25,4,0,0
105717,109514058,1,4688,4571,16.08,1.37,24,4,0,0
106155,109621031,1,4572,4585,16.13,1.57,24,4,0,0
106603,109729629,1,4585,4585,16.07,1.48,25,4,0,0
107007,109831889,1,4585,4600,16.11,1.42,24,4,0,0
107902,110050500,1,4598,4414,16.11,1.2,25,4,0,0
109286,110384067,1,4417,4585,16.1,1.55,25,4,0,0
109740,110494687,1,4578,4514,16.02,1.5,25,4,0,0
110139,110595104,1,4517,4585,16.08,1.44,24,4,0,0
110588,110704780,1,4581,4528,16.13,1.24,25,4,0,0
111024,110818849,1,4509,4314,16.16,1.26,25,4,0,0
111414,110917927,1,4317,4385,16.08,1.45,25,4,0,0
111857,111030807,1,4383,4357,16.13,1.27,25,4,0,0
112309,111138791,1,4357,4357,16.13,1.21,25,4,0,0
112750,111246918,1,4347,4128,16.11,0.98,25,4,0,0
113159,111351620,1,4129,4214,16.14,1.07,25,4,0,0
113648,111467728,1,4221,4300,16.13,1.29,25,4,0,0
114095,111579070,1,4281,4114,16.13,1.01,25,4,0,0
114545,111685115,1,4108,3985,16.1,1.16,25,4,0,0
114987,111798620,1,3997,4142,16.17,1.09,25,4,0,0
115440,111908918,1,4118,3900,16.12,1.68,25,4,0,0
115844,112009784,1,3900,3914,16.12,1.23,25,4,0,0
116325,112125341,1,3911,3885,15.94,1.25,25,5,0,0
116732,112227531,1,3888,4085,16.15,1.91,25,5,0,0
117222,112344797,1,4086,4100,16.13,1.32,25,5,0,0
117671,112453615,1,4096,4014,16.13,0.98,25,5,0,0
118077,112561875,1,3995,3771,16.1,1.09,25,5,0,0
118563,112673140,1,3769,3757,16.09,1.26,25,5,0,0
118973,112781867,1,3773,3942,16.06,1.28,25,5,0,0
119863,112994279,1,3943,4014,16.1,1.47,25,5,0,0
120318,113108902,1,4006,3928,16.12,1.08,25,5,0,0
120716,113207596,1,3936,4271,16.13,1.66,25,5,0,0
121168,113316576,1,4238,3628,16.17,0.6,25,5,0,0
121620,113427565,1,3623,3528,16.16,0.82,25,5,0,0
122065,113539684,1,3531,3557,16.14,0.78,25,5,0,0
122468,113640409,1,3557,3585,16.11,0.93,25,5,0,0
122924,113756838,1,3588,3614,16.11,0.85,25,5,0,0
123329,113858823,1,3617,3657,16.13,0.98,25,5,0,0
124657,114181353,1,3667,4285,16.05,1.47,25,5,0,0
125113,114294441,1,4303,4500,16,1.41,25,5,0,0
125554,114401313,1,4469,4057,16,0.68,25,5,0,0
126005,114508842,1,4071,4271,16.02,1.4,25,5,0,0
126449,114621493,1,4308,4642,16.05,1.83,25,5,0,0
126932,114732597,1,4643,4657,15.97,1.62,25,5,0,0
127381,114843510,1,4669,4785,15.96,2.03,25,5,0,0
127788,114945215,1,4807,5057,15.96,2.37,25,6,0,0
128231,115051593,1,5056,5028,15.93,1.99,25,6,0,0
128676,115161651,1,5021,4871,15.95,1.4,25,6,0,0
129124,115268584,1,4867,4642,15.99,1.7,25,6,0,0
129570,115375345,1,4646,4814,16,1.74,25,6,0,0
130066,115495910,1,4828,4985,15.98,2.17,25,6,0,0
130467,115596605,1,5006,5271,15.92,2.57,25,6,0,0
130917,115705286,1,5280,5371,15.87,2.63,25,6,0,0
131362,115814616,1,5390,5671,15.84,3.32,25,6,0,0
132258,116036878,1,5685,6028,15.91,3.21,25,6,0,0
132660,116132884,1,6025,5885,15.85,2.93,25,6,0,0
133109,116245769,1,5881,5800,15.89,2.86,25,6,0,0
133565,116359767,1,5789,5628,15.89,2.72,25,7,0,0
134011,116466277,1,5628,5628,15.98,2.61,25,7,0,0
134413,116567356,1,5620,5514,15.87,2.44,25,7,0,0
134862,116677565,1,5496,5271,15.98,1.8,25,7,0,0
135306,116787626,1,5263,4942,16.02,1.57,25,7,0,0
135766,116903852,1,4936,4857,16.03,1.74,25,7,0,0
136208,117012498,1,4860,4900,15.95,1.84,25,7,0,0
136661,117124109,1,4898,4885,16.08,1.53,25,7,0,0
137060,117223662,1,4874,4728,16.01,1.27,25,7,0,0
137953,117442039,1,4735,4957,16.11,1.92,25,7,0,0
138400,117555615,1,4971,5128,16.05,2.08,25,7,0,0
138844,117660840,1,5141,5328,16.07,2.11,25,7,0,0
139288,117770044,1,5317,5171,16.06,1.86,25,7,0,0
139736,117876275,1,5167,5128,16,1.68,25,7,0,0
140145,117980884,1,5128,5128,15.99,2.13,25,7,0,0
141033,118195645,1,5129,5228,15.97,2.01,25,8,0,0
141488,118308573,1,5233,5357,16.04,2.19,25,8,0,0
141937,118421664,1,5362,5414,16.04,1.95,25,8,0,0
142428,118533103,1,5407,5314,15.98,2.2,25,8,0,0
142839,118642527,1,5322,5400,15.98,2.25,25,8,0,0
143273,118748600,1,5401,5428,16,2.01,25,8,0,0
143682,118851633,1,5419,5242,15.98,2,25,8,0,0
144132,118966131,1,5249,5342,15.97,2.01,25,8,0,0
144585,119074861,1,5340,5314,16,1.96,25,8,0,0
144985,119177183,1,5313,5300,15.99,1.94,25,8,0,0
145432,119284151,1,5298,5214,15.95,1.78,25,8,0,0
145921,119401460,1,5200,5071,16,1.48,25,8,0,0
146323,119500599,1,5070,5042,16,1.89,25,8,0,0
146815,119619268,1,5043,5057,15.95,1.51,25,8,0,0
147217,119720096,1,5047,4857,15.99,1.7,25,8,0,0
147628,119828866,1,4860,5057,15.99,1.97,25,8,0,0
148112,119943704,1,5049,4971,16.05,1.62,25,8,0,0
148519,120047620,1,4968,4842,16.08,1.29,25,8,0,0
148973,120160564,1,4826,4642,15.98,1.2,25,9,0,0
149422,120270531,1,4636,4585,16.02,1.17,25,9,0,0
149875,120378896,1,4582,4542,16.04,1.2,25,9,0,0
150286,120483274,1,4538,4371,16.07,1.37,25,9,0,0
150763,120592351,1,4371,4371,16.03,1.11,25,9,0,0
151254,120708667,1,4378,4485,16.02,1.26,25,9,0,0
151669,120815687,1,4491,4614,16.04,1.21,25,9,0,0
152118,120924057,1,4589,4271,15.97,0.97,25,9,0,0
152564,121035304,1,4282,4442,15.89,1.59,25,9,0,0
153014,121147080,1,4466,4685,15.97,1.79,25,9,0,0
153424,121250621,1,4698,4885,16,1.68,25,9,0,0
153872,121359106,1,4884,4871,16,1.53,25,9,0,0
154324,121470185,1,4878,4985,15.98,1.86,25,9,0,0
154727,121575122,1,4985,5000,15.97,1.56,25,9,0,0
155607,121793589,1,5001,5028,16.02,1.87,25,9,0,0
156057,121901366,1,5024,4971,15.97,1.63,25,9,0,0
156458,122003670,1,4969,4928,15.98,1.53,25,9,0,0
156951,122122868,1,4924,4885,16.01,1.64,25,9,0,0
157393,122230794,1,4883,4857,16.02,1.46,25,9,0,0
157849,122341511,1,4845,4728,16.01,1.47,25,9,0,0
158295,122450818,1,4727,4714,16.04,1.25,25,9,0,0
158698,122554048,1,4710,4471,16.05,1.02,25,10,0,0
159146,122662062,1,4470,4414,16.05,1.29,25,10,0,0
159590,122770925,1,4415,4457,16.02,1.32,25,10,0,0
160085,122890533,1,4459,4485,16.01,1.33,25,10,0,0
160488,122993612,1,4488,4557,16.03,1.36,25,10,0,0
160941,123105085,1,4546,4328,16.04,1.15,25,10,0,0
161382,123214088,1,4322,4185,15.98,1.08,25,10,0,0
161831,123320567,1,4193,4357,16.05,1.29,25,10,0,0
162282,123435920,1,4358,4385,16.01,1.59,25,10,0,0
162730,123547155,1,4401,4528,15.98,1.55,25,10,0,0
163132,123651388,1,4544,4671,15.97,1.51,25,10,0,0
163579,123762239,1,4662,4571,15.99,1.59,25,10,0,0
164033,123871112,1,4597,4828,15.97,1.92,25,10,0,0
164481,123988065,1,4826,4814,15.97,1.38,25,10,0,0
164887,124087837,1,4806,4714,15.94,1.63,25,10,0,0
165335,124197046,1,4707,4571,15.97,1.33,25,10,0,0
165826,124314608,1,4559,4442,15.99,1.45,25,10,0,0
166235,124418565,1,4433,4357,16.03,1.4,25,10,0,0
166640,124519339,1,4358,4442,15.98,1.74,25,10,0,0
167127,124637200,1,4438,4414,15.94,1.38,25,10,0,0
167575,124746880,1,4428,4542,15.95,1.78,25,10,0,0
167983,124851649,1,4543,4571,15.98,1.63,25,10,0,0
168435,124965165,1,4571,4571,15.94,1.68,25,10,0,0
168841,125064113,1,4582,4728,15.95,1.88,25,10,0,0
169289,125172540,1,4732,4785,15.94,2.01,25,11,0,0
169740,125284134,1,4792,4871,15.92,1.92,25,11,0,0
170146,125387690,1,4873,4900,15.92,2.05,25,11,0,0
170600,125502249,1,4911,5042,15.83,2,25,11,0,0
171035,125602594,1,5039,4985,15.85,2.28,25,11,0,0
171488,125712817,1,4991,5128,15.88,2.5,25,11,0,0
171941,125827867,1,5144,5285,15.89,2.58,25,11,0,0
172390,125935867,1,5286,5300,15.9,2.46,25,11,0,0
172797,126036920,1,5300,5314,15.89,2.59,25,11,0,0
173281,126158237,1,5324,5400,15.98,2.62,25,11,0,0
173691,126260086,1,5406,5500,15.88,2.65,25,11,0,0
174140,126372811,1,5488,5371,15.99,2.59,25,11,0,0
174592,126483565,1,5380,5471,15.95,2.97,25,11,0,0
174998,126584785,1,5468,5400,15.99,2.71,25,11,0,0
175444,126690091,1,5401,5500,15.94,2.78,25,11,0,0
175851,126793807,1,5508,5614,15.97,2.94,25,12,0,0
176344,126913092,1,5600,5485,15.97,2.21,25,12,0,0
176705,127005272,1,5484,5471,15.86,2.75,25,12,0,0
177199,127127132,1,5488,5614,15.92,2.77,25,12,0,0
177603,127227205,1,5614,5628,15.86,3.01,25,12,0,0
178049,127336036,1,5626,5600,15.89,2.82,25,12,0,0
178494,127444130,1,5599,5557,15.91,2.43,25,12,0,0
178979,127562565,1,5545,5442,15.89,2.35,25,12,0,0
179381,127657640,1,5435,5200,15.86,2.13,25,12,0,0
179833,127767259,1,5198,5171,15.88,2.11,25,12,0,0
180282,127881228,1,5158,5028,15.88,2.02,25,12,0,0
180728,127989108,1,5034,5128,15.89,2.18,25,12,0,0
181136,128094530,1,5128,5128,15.83,1.91,25,12,0,0
181585,128210013,1,5122,5057,15.94,1.9,25,13,0,0
182039,128321619,1,5058,5071,15.86,1.83,25,13,0,0
182482,128428796,1,5071,5071,15.94,1.95,25,13,0,0
182890,128530131,1,5039,4442,15.96,0.6,25,13,0,0
183339,128645097,1,4410,4100,15.93,0.91,25,13,0,0
183794,128759363,1,4091,4000,15.9,1.54,25,13,0,0
184199,128858272,1,4014,4214,16.01,1.7,26,13,0,0
184641,128966693,1,4224,4428,15.98,1.45,25,13,0,0
185090,129074426,1,4423,4342,15.94,1.28,25,13,0,0
185535,129183286,1,4348,4500,15.97,1.32,25,13,0,0
185987,129291308,1,4498,4400,15.95,1.27,25,13,0,0
186434,129401129,1,4399,4357,15.85,1.36,25,13,0,0
186917,129511529,1,4368,4528,15.91,1.6,25,13,0,0
187361,129621610,1,4531,4585,15.94,1.5,25,13,0,0
187808,129731553,1,4594,4714,15.97,1.59,25,13,0,0
188259,129843542,1,4708,4657,15.95,1.59,25,13,0,0
188713,129955130,1,4655,4642,15.93,1.48,25,13,0,0
189111,130055921,1,4641,4614,15.92,1.36,25,13,0,0
189555,130163828,1,4622,4785,15.88,1.58,25,13,0,0
190003,130271670,1,4782,4657,15.97,1.28,25,13,0,0
190454,130383896,1,4655,4628,15.94,1.4,25,13,0,0
190903,130494365,1,4616,4500,15.96,1.18,25,13,0,0
191304,130595300,1,4498,4457,15.94,1.29,25,13,0,0
191756,130706598,1,4455,4428,15.98,1.22,25,14,0,0
192165,130809349,1,4426,4328,15.99,1.21,25,14,0,0
192689,130930137,1,4328,4328,15.95,1.09,25,14,0,0
193054,131023261,1,4327,4285,15.95,1.39,25,14,0,0
193534,131133859,1,4287,4400,15.99,1.18,25,14,0,0
193982,131245331,1,4399,4371,15.96,1.22,25,14,0,0
194391,131352356,1,4372,4500,15.97,1.44,26,14,0,0
194883,131469170,1,4496,4457,16.01,1.32,26,14,0,0
195287,131571904,1,4459,4614,15.97,1.48,25,14,0,0
195733,131678852,1,4614,4657,15.88,1.65,25,14,0,0
196177,131788123,1,4657,4657,15.91,1.73,25,14,0,0
196629,131899216,1,4655,4614,15.93,1.25,25,14,0,0
197081,132012118,1,4606,4528,15.97,1.15,25,14,0,0
197517,132113819,1,4526,4485,15.96,1.25,25,14,0,0
198013,132234267,1,4478,4371,15.94,1.16,26,14,0,0
198866,132448074,1,4368,4314,15.98,1.23,25,14,0,0
199307,132553659,1,4323,4528,15.99,1.41,25,14,0,0
199756,132662780,1,4521,4371,15.95,1.45,25,14,0,0
200213,132780607,1,4379,4471,15.91,1.34,25,14,0,0
200663,132888871,1,4458,4328,15.91,1.22,26,14,0,0
201063,132989828,1,4333,4457,15.91,1.38,25,14,0,0
201519,133102297,1,4461,4528,15.89,1.45,26,14,0,0
201970,133216569,1,4529,4557,15.92,1.44,25,14,0,0
202377,133315070,1,4556,4542,15.94,1.43,25,14,0,0
202823,133425692,1,4544,4600,15.9,1.44,25,15,0,0
203313,133540837,1,4610,4714,15.88,1.72,26,15,0,0
203718,133643636,1,4710,4671,15.91,1.4,25,15,0,0
204164,133750050,1,4669,4571,15.94,1.44,26,15,0,0
204608,133859157,1,4577,4728,15.93,1.29,25,15,0,0
205052,133970661,1,4723,4671,15.9,1.48,25,15,0,0
205501,134079851,1,4670,4628,15.94,1.47,25,15,0,0
205951,134192300,1,4619,4542,15.95,1.29,25,15,0,0
206400,134298783,1,4534,4457,15.88,1.39,25,15,0,0
206809,134403483,1,4461,4542,15.94,1.35,25,15,0,0
207301,134524579,1,4535,4485,15.92,1.47,25,15,0,0
207705,134624598,1,4491,4557,15.92,1.35,26,15,0,0
208559,134837077,1,4556,4528,15.93,1.3,25,15,0,0
209046,134953301,1,4524,4485,15.96,1.38,25,15,0,0
209454,135054900,1,4488,4542,15.91,1.43,25,15,0,0
209893,135163782,1,4544,4585,15.93,1.48,25,15,0,0
210349,135271829,1,4581,4542,15.92,1.36,25,15,0,0
210798,135387159,1,4543,4557,15.9,1.49,25,15,0,0
211203,135483211,1,4556,4542,15.86,1.43,25,15,0,0
211648,135594645,1,4536,4471,15.97,1.33,25,15,0,0
212096,135708888,1,4474,4500,15.94,1.57,26,15,0,0
212510,135811035,1,4500,4514,15.9,1.4,25,15,0,0
212957,135925160,1,4521,4585,15.93,1.4,26,15,0,0
213403,136026680,1,4586,4600,15.92,1.9,25,16,0,0
214302,136252638,1,4593,4457,15.89,1.38,25,16,0,0
214743,136363485,1,4461,4500,15.89,1.39,26,16,0,0
215633,136576034,1,4500,4614,15.86,1.51,26,16,0,0
216077,136681767,1,4614,4671,15.89,1.58,25,16,0,0
216525,136789878,1,4671,4671,15.89,1.42,25,16,0,0
217014,136906617,1,4677,4742,15.89,1.77,25,16,0,0
217411,137005040,1,4746,4914,15.92,1.76,25,16,0,0
218265,137220548,1,4914,4942,15.86,1.62,25,16,0,0
218754,137336855,1,4939,4914,15.86,1.54,25,16,0,0
219197,137444926,1,4909,4842,15.89,1.54,26,16,0,0
219606,137547518,1,4840,4742,15.89,1.47,25,16,0,0
220090,137664565,1,4748,4814,15.9,1.62,25,16,0,0
220493,137768276,1,4811,4742,15.88,1.44,25,16,0,0
220980,137882656,1,4747,4800,15.85,1.63,25,16,0,0
221423,137991161,1,4808,4914,15.89,1.77,25,16,0,0
221833,138094080,1,4916,5028,15.89,1.7,25,16,0,0
222320,138211068,1,5029,5042,15.89,1.77,25,16,0,0
222765,138317635,1,5046,5142,15.87,1.8,26,17,0,0
223174,138423653,1,5141,5128,15.84,1.76,25,17,0,0
223658,138532625,1,5123,5028,15.94,1.81,26,17,0,0
224097,138639273,1,5026,5000,15.88,1.71,25,17,0,0
224336,138742242,1,5006,5128,15.92,1.92,25,17,0,0
224745,138855885,1,5124,5085,15.94,1.68,25,17,0,0
225148,138960082,1,5084,5071,15.91,1.61,25,17,0,0
225596,139069876,1,5071,5100,15.91,1.65,25,17,0,0
226040,139179685,1,5095,4971,15.85,1.69,25,17,0,0
226483,139284880,1,4973,5085,15.88,2.02,26,17,0,0
226928,139394306,1,5082,5028,15.89,1.66,25,17,0,0
227413,139505315,1,5028,5042,15.91,1.69,25,17,0,0
227859,139613841,1,5038,4985,15.83,1.67,25,17,0,0
228309,139722076,1,4985,5000,15.88,1.8,25,17,0,0
228741,139825688,1,5004,5171,15.79,2.16,25,17,0,0
229193,139935891,1,5169,5128,15.84,1.97,25,17,0,0
229641,140047102,1,5128,5128,15.86,2.14,25,17,0,0
230097,140164114,1,5130,5157,15.83,2.21,25,17,0,0
230542,140270891,1,5154,5128,15.85,1.78,25,18,0,0
230942,140371113,1,5112,4914,15.83,1.65,26,18,0,0
231392,140480266,1,4912,4885,15.86,1.55,25,18,0,0
232243,140690170,1,4882,4557,15.96,1.37,25,18,0,0
232687,140797255,1,4553,4471,15.94,1.43,25,18,0,0
233185,140917050,1,4467,4428,15.89,1.39,25,18,0,0
233592,141022060,1,4425,4400,15.85,1.49,26,18,0,0
234041,141130622,1,4406,4500,15.9,1.67,26,18,0,0
234487,141246123,1,4507,4614,15.9,1.55,25,18,0,0
234893,141354046,1,4630,4757,15.92,1.55,25,18,0,0
235338,141461661,1,4744,4585,15.87,1.52,26,18,0,0
235783,141568167,1,4580,4514,15.89,1.56,25,18,0,0
236235,141677280,1,4507,4442,15.89,1.44,25,18,0,0
236680,141789682,1,4443,4457,15.9,1.34,26,18,0,0
237126,141897460,1,4463,4528,15.86,1.72,25,18,0,0
237526,141997651,1,4531,4714,15.76,2.07,25,18,0,0
237974,142107340,1,4714,4757,15.82,1.28,25,18,0,0
238423,142220858,1,4750,4671,15.92,1.56,25,18,0,0
238870,142328692,1,4656,4514,15.85,1.37,25,18,0,0
239306,142433329,1,4509,4457,15.86,1.14,26,18,0,0
239755,142539179,1,4440,4128,15.96,0.9899999,25,18,0,0
240199,142648906,1,4128,4142,15.83,1.7,25,18,0,0
240687,142765800,1,4174,4485,15.84,1.69,25,19,0,0
241091,142863792,1,4488,4642,15.83,1.38,25,19,0,0
241498,142969672,1,4636,4371,15.86,1.2,26,19,0,0
242388,143187959,1,4376,4585,15.83,1.49,25,19,0,0
242836,143295044,1,4582,4471,15.84,1.54,25,19,0,0
243287,143411905,1,4479,4571,15.88,1.78,26,19,0,0
243736,143521531,1,4619,5114,15.85,2.55,25,19,0,0
244138,143622073,1,5107,4714,15.86,0.85,26,19,0,0
245067,143846570,1,4682,3971,15.97,0.87,25,19,0,0
245516,143955802,1,3988,4157,15.89,1.92,25,19,0,0
245961,144065153,1,4181,4442,15.89,1.73,25,19,0,0
246363,144166043,1,4446,4542,15.83,1.33,25,19,0,0
247701,144489692,1,4541,4471,15.81,2.66,25,19,0,0
248151,144603601,1,4496,4857,15.92,1.76,25,19,0,0
248594,144710624,1,4856,4842,15.92,1.52,25,19,0,0
249042,144824667,1,4837,4785,15.94,1.41,25,19,0,0
249489,144933517,1,4790,4842,15.89,1.6,25,19,0,0
250337,145145620,1,4844,5171,15.82,2.58,25,20,0,0
250816,145258827,1,5196,5485,15.77,2.88,25,20,0,0
251302,145376911,1,5507,5728,15.8,2.85,25,20,0,0
251706,145475538,1,5725,5657,15.77,3.22,25,20,0,0
252156,145594316,1,5682,5914,15.8,3.25,25,20,0,0
252566,145693870,1,5914,5971,15.8,2.47,26,20,0,0
253052,145815567,1,5931,5542,15.81,2.18,25,20,0,0
254310,146119897,1,5545,6114,15.85,3.66,26,20,0,0
254786,146233909,1,6116,6385,15.78,3.76,26,20,0,0
255234,146338575,1,6387,6442,15.83,3.51,25,20,0,0
255671,146452544,1,6440,6428,15.79,3.48,25,21,0,0
256119,146559148,1,6422,6142,15.89,2.83,26,21,0,0
256566,146671120,1,6125,5971,15.89,2.73,26,21,0,0
257006,146780864,1,5939,5628,15.87,2.44,26,21,0,0
257458,146887619,1,5613,5414,15.94,2.61,26,21,0,0
257864,146991480,1,5392,5157,15.95,2.05,25,21,0,0
258311,147102189,1,5134,4957,15.86,2.06,25,21,0,0
258713,147203552,1,4948,4857,15.78,1.78,26,21,0,0
259164,147309095,1,4854,4800,15.88,1.8,26,21,0,0
259609,147426113,1,4786,4671,15.89,1.67,26,21,0,0
260058,147534431,1,4677,4728,15.94,2.54,25,21,0,0
260507,147643544,1,4751,5000,15.89,2.2,26,21,0,0
260942,147750065,1,5015,5357,15.82,2.82,26,21,0,0
261390,147858547,1,5361,5414,15.77,2.84,26,22,0,0
261832,147965821,1,5421,5742,15.7,3.37,26,22,0,0
262279,148077039,1,5756,5914,15.83,2.97,26,22,0,0
262724,148187690,1,5911,5785,15.72,2.87,26,22,0,0
263133,148290645,1,5784,5771,15.63,2.78,26,22,0,0
264102,148523596,1,5760,5528,15.73,2.55,26,22,0,0
264988,148741576,1,5513,5257,15.76,1.56,26,22,0,0
265395,148841635,1,5250,4842,15.81,1.29,26,22,0,0
265884,148962042,1,4842,4842,15.79,1.65,26,22,0,0
266289,149060909,1,4838,4771,15.77,1.88,26,22,0,0
266737,149171579,1,4777,4857,15.8,1.74,26,22,0,0
267188,149281135,1,4862,4914,15.8,1.7,26,22,0,0
267637,149396836,1,4915,4928,15.79,1.88,26,23,0,0
268077,149497687,1,4932,5028,15.77,2.44,26,23,0,0
268526,149610453,1,5045,5300,15.78,2.47,26,23,0,0
268970,149717524,1,5302,5371,15.69,2.69,26,23,0,0
269416,149829663,1,5353,5100,15.79,2.06,26,23,0,0
269861,149939641,1,5098,5057,15.8,2.02,26,23,0,0
270317,150052081,1,5051,5000,15.83,1.96,26,23,0,0
270759,150160512,1,4992,4900,15.79,1.79,26,23,0,0
271205,150265907,1,4904,5000,15.83,2.02,26,23,0,0
271658,150379860,1,5001,5014,15.86,2.06,26,23,0,0
272066,150481674,1,5015,5114,15.8,2.11,26,23,0,0
272550,150597422,1,5114,5128,15.86,2.29,26,23,0,0
272998,150706545,1,5145,5328,15.82,2.21,26,23,0,0
273442,150816147,1,5319,5228,15.9,2.09,26,23,0,0
273844,150912794,1,5222,5000,15.93,1.74,26,23,0,0
274289,151024569,1,4997,4928,15.91,1.7,26,23,0,0
274777,151141782,1,4923,4871,15.95,1.75,26,23,0,0
275228,151254776,1,4856,4700,15.94,1.27,26,24,0,0
275676,151365142,1,4692,4614,15.89,1.58,26,24,0,0
276125,151474370,1,4619,4671,15.94,1.88,26,24,0,0
276534,151579998,1,4677,4828,15.86,1.85,26,24,0,0
277022,151694691,1,4832,4885,15.85,1.66,26,24,0,0
277420,151794926,1,4881,4714,15.88,1.49,26,24,0,0
277906,151911603,1,4722,4828,15.83,1.84,26,24,0,0
278313,152018468,1,4856,5042,15.91,1.89,26,24,0,0
278764,152124108,1,5028,4885,15.85,1.76,26,24,0,0
279170,152228887,1,4892,4971,15.86,1.81,26,24,0,0
280063,152445336,1,4972,5057,15.86,2.19,26,24,0,0
280512,152561245,1,5078,5271,15.83,2.06,26,24,0,0
280919,152662157,1,5271,5342,15.87,2.33,26,24,0,0
281394,152778309,1,5342,5342,15.87,2.22,26,24,0,0
281846,152889322,1,5332,5271,15.85,2.13,26,24,0,0
282294,153001218,1,5253,5114,15.81,1.83,26,24,0,0
282741,153107226,1,5111,5085,15.77,1.9,26,25,0,0
283151,153208897,1,5090,5228,15.79,2.2,26,25,0,0
283596,153315824,1,5235,5342,15.85,2.31,26,25,0,0
284005,153422162,1,5340,5257,15.77,1.96,26,25,0,0
284490,153543773,1,5246,5128,15.83,1.51,26,25,0,0
284944,153654060,1,5097,4871,15.8,1.42,26,25,0,0
286266,153973864,1,4861,4357,15.86,1.09,26,25,0,0
286672,154071315,1,4356,4342,15.86,1.15,26,25,0,0
287123,154183628,1,4337,4228,15.86,1.08,26,25,0,0
287568,154289689,1,4227,4214,15.88,1.16,26,25,0,0
288009,154396682,1,4208,4142,15.88,1.16,26,25,0,0
288494,154507588,1,4139,4114,15.85,1.24,26,25,0,0
288947,154621096,1,4112,4100,15.82,1.23,26,25,0,0
289385,154721568,1,4101,4142,15.86,1.2,26,25,0,0
289797,154830810,1,4145,4214,15.88,1.21,26,25,0,0
290245,154941277,1,4223,4414,15.86,1.26,26,25,0,0
290695,155052695,1,4412,4371,15.9,1.13,26,25,0,0
291177,155168387,1,4370,4357,15.89,0.93,26,25,0,0
291629,155279862,1,4349,4271,15.9,1.03,26,25,0,0
292077,155389770,1,4288,4457,15.88,1.33,26,25,0,0
292481,155487356,1,4456,4428,15.87,1.34,26,25,0,0
292927,155596864,1,4429,4542,15.86,1.24,26,25,0,0
293424,155715797,1,4549,4628,15.88,1.42,26,26,0,0
293822,155820834,1,4624,4542,15.82,1.22,26,26,0,0
294268,155924788,1,4537,4442,15.85,1.18,26,26,0,0
294765,156045530,1,4443,4457,15.84,1.33,26,26,0,0
295209,156156026,1,4454,4428,15.83,1.2,26,26,0,0
295613,156253168,1,4431,4500,15.82,1.25,26,26,0,0
296064,156363589,1,4498,4457,15.79,1.55,26,26,0,0
296563,156487171,1,4449,4371,15.79,1.27,26,26,0,0
296975,156594286,1,4373,4414,15.69,1.45,26,26,0,0
297425,156703183,1,4403,4300,15.75,1.26,26,26,0,0
297827,156806099,1,4302,4371,15.8,1.55,26,26,0,0
298311,156917700,1,4378,4457,15.82,1.29,26,26,0,0
298756,157029494,1,4450,4385,15.76,1.29,26,26,0,0
299204,157138144,1,4394,4500,15.83,1.24,26,26,0,0
299603,157238646,1,4497,4385,15.86,1.24,26,26,0,0
300054,157353854,1,4390,4442,15.86,1.12,26,26,0,0
300499,157459646,1,4446,4557,15.88,1.48,26,26,0,0
300942,157567128,1,4562,4685,15.82,1.54,26,26,0,0
301391,157676171,1,4686,4771,15.86,1.61,26,26,0,0
301871,157788513,1,4778,4928,15.88,1.9,26,26,0,0
302321,157898299,1,4941,5142,15.83,2.2,26,26,0,0
302762,158007490,1,5144,5171,15.8,1.87,26,26,0,0
303206,158119528,1,5169,5157,15.83,1.74,26,26,0,0
303656,158233531,1,5115,4828,15.85,1.55,26,26,0,0
304095,158329826,1,4831,4885,15.8,1.73,26,27,0,0
304988,158555853,1,4878,4771,15.8,1.62,26,27,0,0
305437,158661633,1,4771,4771,15.85,1.48,26,27,0,0
305881,158773389,1,4764,4714,15.86,1.28,26,27,0,0
306327,158880123,1,4698,4528,15.92,1.33,26,27,0,0
306728,158981541,1,4526,4457,15.88,1.13,26,27,0,0
307221,159100451,1,4455,4442,15.88,1.22,26,27,0,0
307618,159197377,1,4439,4328,15.85,1.18,26,27,0,0
308067,159310402,1,4326,4300,15.87,1.11,26,27,0,0
308512,159417900,1,4299,4285,15.86,1.23,26,27,0,0
308957,159526600,1,4282,4242,15.86,1.24,26,27,0,0
309364,159631625,1,4242,4257,15.88,1.22,26,27,0,0
310290,159850082,1,4257,4285,15.85,1.22,26,27,0,0
310781,159972690,1,4286,4300,15.82,1.36,26,27,0,0
311189,160069641,1,4312,4585,15.85,1.52,26,27,0,0
311627,160180791,1,4579,4485,15.82,1.33,26,27,0,0
312478,160391801,1,4485,4485,15.84,1.41,26,27,0,0
312931,160503159,1,4485,4557,15.82,1.26,26,27,0,0
313376,160614604,1,4555,4485,15.84,1.3,26,27,0,0
313863,160727484,1,4489,4557,15.85,1.53,26,27,0,0
314303,160834204,1,4557,4600,15.85,1.56,26,27,0,0
314750,160944255,1,4604,4685,15.81,1.55,26,28,0,0
315197,161053626,1,4686,4757,15.77,1.71,26,28,0,0
316125,161276109,1,4755,4714,15.78,1.5,26,28,0,0
316572,161389922,1,4714,4714,15.83,1.53,26,28,0,0
316983,161494685,1,4715,4742,15.75,1.62,26,28,0,0
317429,161605340,1,4727,4514,15.81,1.4,26,28,0,0
317885,161717363,1,4505,4428,15.86,1.1,26,28,0,0
318277,161813917,1,4428,4471,15.8,1.64,26,28,0,0
318729,161926197,1,4469,4442,15.82,1.12,26,28,0,0
319177,162036763,1,4435,4371,15.89,1.49,26,28,0,0
319628,162145353,1,4382,4500,15.83,1.34,26,28,0,0
320061,162250592,1,4497,4371,15.89,1.19,26,28,0,0
320553,162371346,1,4365,4271,15.88,1.1,26,28,0,0
320960,162473665,1,4257,4128,15.88,1.2,26,28,0,0
321408,162583284,1,4140,4271,15.9,1.57,26,28,0,0
321854,162688864,1,4271,4271,15.89,1.4,26,28,0,0
322299,162797228,1,4278,4385,15.94,1.34,26,28,0,0
322789,162911884,1,4251,2728,16.5,0.08,26,28,0,0
323197,163016583,1,2695,2257,16.38,0.27,26,28,0,0
323684,163131319,1,2264,2342,16.28,0.46,26,28,0,0
324124,163239374,1,2328,2114,16.26,0.05,26,28,0,0
324527,163343522,1,2110,1942,16.26,0.14,26,28,0,0
325385,163557559,1,1942,1985,16.27,0.12,26,28,0,0
325835,163665701,1,1984,1942,16.27,0.19,26,28,0,0
326319,163788618,1,1942,1942,16.26,0.15,26,28,0,0
326766,163894346,1,1942,1942,16.27,0.15,26,28,0,0
327178,164001286,1,1940,1914,16.28,0.16,26,28,0,0
327661,164117803,1,1914,1914,16.28,0.16,26,28,0,0
328065,164217876,1,1913,1900,16.28,0.16,26,28,0,0
328554,164338033,1,1900,1900,16.29,0.17,26,28,0,0
328961,164439565,1,1901,1928,16.29,0.16,26,28,0,0
329414,164546182,1,1928,1928,16.29,0.16,26,28,0,0
329854,164660675,1,1929,1942,16.29,0.19,26,28,0,0
330297,164766400,1,1942,1942,16.29,0.17,26,28,0,0
330742,164874103,1,1941,1928,16.29,0.16,26,28,0,0
331149,164969667,1,1929,1985,16.33,0.18,26,28,0,0
331637,165087599,1,1964,1785,16.37,0.02,26,28,0,0
332045,165190695,1,1759,1457,16.36,0,26,28,0,0
332496,165298136,1,1447,1342,16.35,0.06,26,28,0,0
332984,165410631,1,1340,1328,16.36,0.08,26,28,0,0
333391,165507277,1,1328,1328,16.36,0.08,26,28,0,0
333876,165627513,1,1328,1328,16.36,0.08,26,28,0,0
334324,165731500,1,1328,1328,16.36,0.08,26,28,0,0
334731,165836177,1,1328,1328,16.36,0.08,25,28,0,0
335180,165944921,1,1328,1328,16.36,0.08,26,28,0,0
335629,166056683,1,1328,1328,16.37,0.08,25,28,0,0
336069,166163597,1,1328,1328,16.38,0.08,25,28,0,0
336522,166272577,1,1328,1328,16.36,0.09,25,28,0,0
336966,166380535,1,1326,1314,16.37,0.09,26,28,0,0
337414,166485627,1,1314,1328,16.37,0.08,25,28,0,0
337866,166597820,1,1291,471,16.39,0,25,28,0,0
338319,166702119,1,460,200,16.39,0,25,28,0,0
338814,166817551,1,182,0,16.4,0,25,28,0,0
339265,166923106,1,0,0,16.41,0.01,25,28,0,0
339718,167031866,1,0,0,16.4,0.01,25,28,0,0
340620,167249264,1,0,0,16.41,0.01,25,28,0,0
341072,167356823,1,0,0,16.41,0.01,25,28,0,0
341525,167462173,1,0,0,16.41,0.01,25,28,0,0
341979,167571084,1,0,0,16.41,0.01,25,28,0,0
342430,167676094,1,0,0,16.41,0.01,25,28,0,0
342922,167793929,1,0,0,16.41,0.01,25,28,0,0
343373,167900040,1,0,0,16.42,0.01,25,28,0,0
343826,168006312,1,0,0,16.42,0.01,25,28,0,0
344321,168120797,1,0,0,16.42,0.01,25,28,0,0
344773,168227849,1,0,0,16.42,0.01,25,28,0,0
345258,168339201,1,0,0,16.42,0.01,25,28,0,0
345712,168443560,1,0,0,16.42,0.01,25,28,0,0
346617,168659010,1,0,0,16.42,0.01,25,28,0,0
347070,168768531,1,0,0,16.42,0.01,25,28,0,0
347566,168881831,1,0,0,16.42,0.01,25,28,0,0
348010,168985621,1,0,0,16.43,0.01,25,28,0,0
348505,169099037,1,0,0,16.43,0.01,25,28,0,0
349449,169317684,1,0,0,16.42,0.01,25,28,0,0
349898,169422515,1,0,0,16.44,0.01,25,28,0,0
350405,169541734,1,0,0,16.44,0.01,25,28,0,0
350806,169636353,1,0,0,16.44,0.01,25,28,0,0
351288,169747416,1,0,0,16.44,0.01,25,28,0,0
351747,169855216,1,0,0,16.44,0.01,25,28,0,0
352203,169966130,1,0,0,16.44,0.01,25,28,0,0
352702,170081433,1,0,0,16.44,0.01,25,28,0,0
353152,170187677,1,0,0,16.44,0.01,25,28,0,0
353603,170292774,1,0,0,16.44,0.01,25,28,0,0
354059,170403422,1,0,0,16.45,0.01,25,28,0,0
354515,170507684,1,0,0,16.45,0.01,25,28,0,0
354924,170608699,1,0,0,16.45,0.01,25,28,0,0
355376,170712644,1,0,0,16.45,0.02,25,28,0,0
355867,170830561,1,0,0,16.45,0.02,25,28,0,0
356320,170934498,1,0,0,16.45,0.01,25,28,0,0
356769,171037871,1,0,0,16.45,0.01,25,28,0,0
357260,171151645,1,0,0,16.45,0.01,25,28,0,0
357711,171256121,1,0,0,16.45,0.01,25,28,0,0
358161,171364277,1,0,0,16.45,0.01,25,28,0,0
358614,171468886,1,0,0,16.45,0.01,25,28,0,0
359110,171587154,1,0,0,16.46,0.01,25,28,0,0
359605,171700557,1,0,0,16.46,0.01,25,28,0,0
360014,171800009,1,0,0,16.45,0.01,25,28,0,0
360468,171905635,1,0,0,16.46,0.01,25,28,0,0
360928,172019612,1,0,0,16.46,0.01,25,28,0,0
361378,172125054,1,0,0,16.46,0.01,25,28,0,0
361866,172238612,1,0,0,16.46,0.01,25,28,0,0
362360,172358285,1,0,0,16.47,0.01,25,28,0,0
362816,172463654,1,0,0,16.46,0.01,25,28,0,0
363719,172678657,1,0,0,16.47,0.01,25,28,0,0
