LineNo,TimeUS,Instance,RPM,RawRPM,Volt,Curr,Temp,CTot,MotTemp,Err
1734,3.3698e+07,5,0,0,16.85,0.05,21,0,0,0
2185,3.3811e+07,5,0,0,16.85,0.05,21,0,0,0
2604,3.3916e+07,5,0,0,16.84,0.04,21,0,0,0
3018,3.402e+07,5,0,0,16.84,0.04,21,0,0,0
3484,3.4135e+07,5,0,0,16.84,0.04,21,0,0,0
3897,3.4239e+07,5,0,0,16.85,0.05,21,0,0,0
4311,3.4342e+07,5,0,0,16.85,0.05,21,0,0,0
4758,3.4454e+07,5,0,0,16.85,0.05,21,0,0,0
5180,3.4561e+07,5,0,0,16.84,0.04,21,0,0,0
5624,3.4669e+07,5,0,0,16.84,0.04,21,0,0,0
6041,3.4777e+07,5,0,0,16.85,0.04,21,0,0,0
6455,3.488e+07,5,0,0,16.84,0.04,21,0,0,0
6870,3.4988e+07,5,0,0,16.84,0.05,21,0,0,0
7316,3.5101e+07,5,0,0,16.83,0.05,21,0,0,0
7729,3.5204e+07,5,0,0,16.84,0.05,21,0,0,0
8145,3.5309e+07,5,0,0,16.84,0.04,21,0,0,0
8560,3.5416e+07,5,0,0,16.84,0.04,21,0,0,0
9019,3.5534e+07,5,0,0,16.85,0.04,21,0,0,0
9435,3.5638e+07,5,0,0,16.85,0.04,21,0,0,0
9850,3.5743e+07,5,0,0,16.85,0.04,21,0,0,0
10262,3.5849e+07,5,0,0,16.84,0.05,21,0,0,0
11030,3.6065e+07,5,0,0,16.84,0.04,21,0,0,0
11449,3.617e+07,5,0,0,16.84,0.05,21,0,0,0
11901,3.6282e+07,5,0,0,16.85,0.05,21,0,0,0
12319,3.6388e+07,5,0,0,16.84,0.04,21,0,0,0
12730,3.6493e+07,5,0,0,16.84,0.04,21,0,0,0
13186,3.6607e+07,5,0,0,16.84,0.04,21,0,0,0
13596,3.6711e+07,5,0,0,16.85,0.05,21,0,0,0
14010,3.6818e+07,5,0,0,16.85,0.05,21,0,0,0
14434,3.6931e+07,5,0,0,16.84,0.05,21,0,0,0
14845,3.7034e+07,5,0,0,16.84,0.05,21,0,0,0
15294,3.7146e+07,5,0,0,16.84,0.05,21,0,0,0
15706,3.725e+07,5,0,0,16.84,0.05,21,0,0,0
16155,3.7361e+07,5,0,0,16.85,0.05,21,0,0,0
16600,3.7471e+07,5,0,0,16.84,0.05,21,0,0,0
17020,3.7575e+07,5,0,0,16.84,0.05,21,0,0,0
17432,3.768e+07,5,0,0,16.85,0.05,21,0,0,0
17848,3.7786e+07,5,0,0,16.83,0.05,21,0,0,0
18300,3.79e+07,5,0,0,16.85,0.05,21,0,0,0
18711,3.8003e+07,5,0,0,16.85,0.05,21,0,0,0
19128,3.8109e+07,5,0,0,16.85,0.05,21,0,0,0
19579,3.8221e+07,5,0,0,16.84,0.04,21,0,0,0
19997,3.8326e+07,5,0,0,16.84,0.04,21,0,0,0
20410,3.8427e+07,5,0,0,16.85,0.05,21,0,0,0
20844,3.8541e+07,5,0,0,16.84,0.05,21,0,0,0
21254,3.8643e+07,5,0,0,16.84,0.05,21,0,0,0
21706,3.8758e+07,5,0,0,16.84,0.05,21,0,0,0
22118,3.8863e+07,5,0,0,16.84,0.05,21,0,0,0
22535,3.897e+07,5,0,0,16.85,0.05,21,0,0,0
22952,3.9074e+07,5,0,0,16.84,0.05,21,0,0,0
23396,3.9184e+07,5,0,0,16.84,0.05,21,0,0,0
23806,3.9288e+07,5,0,0,16.85,0.05,21,0,0,0
24258,3.9404e+07,5,0,0,16.85,0.05,21,0,0,0
24677,3.951e+07,5,0,0,16.84,0.05,21,0,0,0
25093,3.9617e+07,5,0,0,16.84,0.05,21,0,0,0
25539,3.9723e+07,5,0,0,16.85,0.05,21,0,0,0
25957,3.983e+07,5,0,0,16.84,0.05,21,0,0,0
26368,3.9933e+07,5,0,0,16.84,0.05,21,0,0,0
26824,4.005e+07,5,0,0,16.84,0.05,21,0,0,0
27235,4.0155e+07,5,0,0,16.85,0.05,21,0,0,0
27647,4.0259e+07,5,0,0,16.85,0.05,21,0,0,0
28107,4.0372e+07,5,0,0,16.84,0.05,21,0,0,0
28522,4.0478e+07,5,0,0,16.83,0.05,21,0,0,0
28940,4.0583e+07,5,0,0,16.84,0.05,21,0,0,0
29392,4.0698e+07,5,0,0,16.85,0.05,21,0,0,0
29811,4.0805e+07,5,0,0,16.84,0.05,21,0,0,0
30225,4.091e+07,5,0,0,16.83,0.05,21,0,0,0
30645,4.1017e+07,5,0,0,16.84,0.05,21,0,0,0
31094,4.1131e+07,5,0,0,16.85,0.05,21,0,0,0
31507,4.1235e+07,5,0,0,16.84,0.05,21,0,0,0
31959,4.1347e+07,5,0,0,16.84,0.05,21,0,0,0
32374,4.1456e+07,5,0,0,16.84,0.05,21,0,0,0
32793,4.1562e+07,5,0,0,16.84,0.05,21,0,0,0
33205,4.1665e+07,5,0,0,16.85,0.05,21,0,0,0
33660,4.1781e+07,5,0,0,16.84,0.05,21,0,0,0
34067,4.1885e+07,5,0,0,16.84,0.05,21,0,0,0
34488,4.1993e+07,5,0,0,16.84,0.05,21,0,0,0
34941,4.2108e+07,5,0,0,16.84,0.04,21,0,0,0
35352,4.2214e+07,5,0,0,16.84,0.05,21,0,0,0
35765,4.2316e+07,5,0,0,16.84,0.05,21,0,0,0
36183,4.2423e+07,5,0,0,16.85,0.05,21,0,0,0
36605,4.253e+07,5,0,0,16.84,0.05,21,0,0,0
37019,4.2638e+07,5,0,0,16.84,0.05,21,0,0,0
37467,4.2753e+07,5,0,0,16.84,0.05,21,0,0,0
37876,4.2858e+07,5,0,0,16.84,0.05,21,0,0,0
39159,4.3183e+07,5,0,0,16.84,0.05,21,0,0,0
39572,4.329e+07,5,0,0,16.84,0.05,21,0,0,0
39993,4.3397e+07,5,0,0,16.84,0.05,21,0,0,0
40403,4.3499e+07,5,0,0,16.84,0.05,21,0,0,0
40821,4.3607e+07,5,0,0,16.84,0.05,21,0,0,0
41234,4.3712e+07,5,0,0,16.84,0.05,21,0,0,0
41687,4.3826e+07,5,0,0,16.85,0.05,21,0,0,0
42098,4.3931e+07,5,0,0,16.85,0.05,21,0,0,0
42506,4.4034e+07,5,0,0,16.84,0.05,21,0,0,0
42964,4.4152e+07,5,0,0,16.83,0.05,21,0,0,0
43378,4.4256e+07,5,0,0,16.83,0.05,21,0,0,0
43790,4.4358e+07,5,0,0,16.84,0.05,21,0,0,0
44210,4.4465e+07,5,0,0,16.84,0.05,21,0,0,0
44626,4.4572e+07,5,0,0,16.83,0.05,21,0,0,0
45083,4.4687e+07,5,0,0,16.85,0.05,21,0,0,0
45493,4.4789e+07,5,0,0,16.84,0.04,21,0,0,0
45943,4.4902e+07,5,0,0,16.84,0.04,21,0,0,0
46365,4.5009e+07,5,0,0,16.84,0.04,21,0,0,0
46772,4.511e+07,5,0,0,16.83,0.04,21,0,0,0
47190,4.5215e+07,5,0,0,16.83,0.04,21,0,0,0
47607,4.5323e+07,5,0,0,16.83,0.04,21,0,0,0
48060,4.5436e+07,5,0,0,16.84,0.05,21,0,0,0
48883,4.5645e+07,5,0,0,16.84,0.04,21,0,0,0
49298,4.5752e+07,5,0,0,16.84,0.04,21,0,0,0
49745,4.5865e+07,5,0,0,16.84,0.04,21,0,0,0
50161,4.5966e+07,5,0,0,16.84,0.04,21,0,0,0
50574,4.6072e+07,5,0,0,16.83,0.04,21,0,0,0
51023,4.6186e+07,5,0,0,16.83,0.05,21,0,0,0
51439,4.629e+07,5,0,0,16.83,0.04,21,0,0,0
51857,4.6398e+07,5,0,0,16.84,0.04,21,0,0,0
52719,4.6616e+07,5,0,0,16.83,0.05,21,0,0,0
53134,4.672e+07,5,0,0,16.83,0.05,21,0,0,0
53586,4.6833e+07,5,0,0,16.83,0.05,21,0,0,0
54007,4.6938e+07,5,0,0,16.83,0.05,21,0,0,0
54413,4.704e+07,5,0,0,16.84,0.05,21,0,0,0
54867,4.7155e+07,5,0,0,16.83,0.05,21,0,0,0
55277,4.7257e+07,5,0,0,16.84,0.05,21,0,0,0
55695,4.7364e+07,5,0,0,16.85,0.04,21,0,0,0
56021,4.7479e+07,5,0,0,16.84,0.04,21,0,0,0
56436,4.7584e+07,5,0,0,16.83,0.05,21,0,0,0
56882,4.7694e+07,5,0,0,16.84,0.05,21,0,0,0
57021,9.7811e+07,5,0,0,16.83,0.04,22,0,0,0
57307,9.788e+07,5,0,0,16.82,0.04,22,0,0,0
57750,9.7992e+07,5,0,0,16.83,0.04,22,0,0,0
58201,9.8095e+07,5,0,0,16.83,0.04,22,0,0,0
59148,9.8312e+07,5,0,0,16.83,0.04,22,0,0,0
59599,9.8418e+07,5,0,0,16.82,0.04,22,0,0,0
60053,9.8521e+07,5,0,0,16.83,0.04,22,0,0,0
60511,9.8631e+07,5,0,0,16.83,0.04,22,0,0,0
61007,9.8744e+07,5,0,0,16.83,0.04,22,0,0,0
61466,9.8849e+07,5,0,0,16.83,0.04,22,0,0,0
61915,9.8954e+07,5,0,0,16.83,0.04,22,0,0,0
62373,9.9061e+07,5,0,0,16.83,0.04,22,0,0,0
62818,9.9167e+07,5,0,0,16.83,0.04,22,0,0,0
63292,9.9278e+07,5,0,0,16.83,0.04,22,0,0,0
63773,9.9392e+07,5,0,0,16.83,0.04,22,0,0,0
64227,9.9494e+07,5,0,0,16.83,0.04,22,0,0,0
64679,9.9601e+07,5,0,0,16.83,0.04,22,0,0,0
65135,9.9706e+07,5,0,0,16.82,0.04,22,0,0,0
65591,9.9815e+07,5,0,0,16.83,0.04,22,0,0,0
66538,1.0003e+08,5,5,257,16.82,0.12,22,0,0,0
67035,1.0015e+08,5,340,928,16.79,0.16,22,0,0,0
67492,1.0025e+08,5,952,1228,16.8,0.14,22,0,0,0
67944,1.0036e+08,5,1232,1285,16.82,0.12,22,0,0,0
68401,1.0046e+08,5,1287,1328,16.81,0.12,22,0,0,0
68849,1.0057e+08,5,1329,1342,16.8,0.11,22,0,0,0
69282,1.0067e+08,5,1342,1342,16.81,0.11,22,0,0,0
69753,1.0078e+08,5,1342,1342,16.81,0.11,22,0,0,0
70469,1.01e+08,5,1342,1342,16.8,0.11,22,0,0,0
70923,1.011e+08,5,1342,1342,16.81,0.11,22,0,0,0
71374,1.0121e+08,5,1342,1342,16.8,0.11,22,0,0,0
71872,1.0132e+08,5,1342,1342,16.81,0.11,22,0,0,0
72323,1.0143e+08,5,1342,1342,16.81,0.11,22,0,0,0
72822,1.0155e+08,5,1342,1342,16.8,0.11,22,0,0,0
73231,1.0165e+08,5,1342,1342,16.8,0.11,22,0,0,0
73716,1.0176e+08,5,1342,1342,16.81,0.11,22,0,0,0
74154,1.0186e+08,5,1342,1342,16.81,0.11,22,0,0,0
74598,1.0197e+08,5,1342,1357,16.8,0.12,22,0,0,0
75094,1.0208e+08,5,1376,1585,16.77,0.26,22,0,0,0
75537,1.0218e+08,5,1601,2285,16.57,0.84,22,0,0,0
76037,1.023e+08,5,2322,2742,16.63,0.86,22,0,0,0
76943,1.0252e+08,5,2798,3942,16.31,1.95,22,1,0,0
77352,1.0262e+08,5,3951,4571,16.25,2.74,22,1,0,0
78293,1.0284e+08,5,4577,5571,16.12,3.89,22,1,0,0
78740,1.0295e+08,5,5574,5657,16.25,2.89,22,1,0,0
79649,1.0316e+08,5,5655,5571,16.25,3.09,22,1,0,0
80143,1.0328e+08,5,5575,5628,16.23,3.34,22,1,0,0
80560,1.0339e+08,5,5634,5771,16.28,3.01,22,1,0,0
81011,1.0349e+08,5,5766,5671,16.25,2.79,22,1,0,0
81462,1.036e+08,5,5670,5614,16.22,3.44,23,1,0,0
81962,1.0371e+08,5,5629,5785,16.17,3.57,22,2,0,0
82409,1.0382e+08,5,5815,6114,16.13,4.22,23,2,0,0
82863,1.0393e+08,5,6114,6114,16.02,4.35,23,2,0,0
83315,1.0403e+08,5,6126,6371,16.08,4.21,23,2,0,0
83766,1.0414e+08,5,6375,6457,16.05,4.54,23,2,0,0
84224,1.0425e+08,5,6458,6471,16.1,4.5,23,2,0,0
84679,1.0436e+08,5,6464,6385,16.04,4.43,23,2,0,0
85139,1.0447e+08,5,6395,6500,16.01,4.19,23,2,0,0
85543,1.0458e+08,5,6497,6371,16.04,4.56,23,3,0,0
86016,1.0469e+08,5,6380,6471,16.06,4.7,23,3,0,0
86457,1.048e+08,5,6471,6471,16.01,4.68,23,3,0,0
86907,1.049e+08,5,6469,6357,16.08,4.12,23,3,0,0
87356,1.0501e+08,5,6359,6385,16.04,4.21,23,3,0,0
87813,1.0512e+08,5,6383,6300,16.09,4.18,23,3,0,0
88261,1.0523e+08,5,6299,6285,16.05,3.78,23,3,0,0
88759,1.0535e+08,5,6274,6185,16.04,4.02,23,4,0,0
89213,1.0545e+08,5,6183,6171,16.04,3.82,23,4,0,0
89703,1.0557e+08,5,6171,6171,16.08,3.94,23,4,0,0
90165,1.0568e+08,5,6168,6142,16.07,3.9,23,4,0,0
90565,1.0578e+08,5,6145,6171,16.04,3.88,23,4,0,0
91018,1.0589e+08,5,6168,6142,16.07,3.97,23,4,0,0
91428,1.0599e+08,5,6139,5971,16.03,4.02,23,4,0,0
92365,1.0622e+08,5,5986,6242,15.99,4.3,23,4,0,0
93218,1.0643e+08,5,6261,6585,15.94,4.9,23,5,0,0
93663,1.0654e+08,5,6581,6557,15.96,4.67,23,5,0,0
94138,1.0665e+08,5,6545,6428,15.98,4.34,23,5,0,0
94546,1.0676e+08,5,6431,6457,16.01,4.43,23,5,0,0
94995,1.0686e+08,5,6435,6228,16.03,3.98,23,5,0,0
95443,1.0698e+08,5,6209,6057,16.08,3.48,23,5,0,0
95891,1.0708e+08,5,6058,6071,16.19,3.35,23,6,0,0
96760,1.073e+08,5,6054,5714,16.26,2.78,23,6,0,0
97644,1.0752e+08,5,5692,5257,16.32,2.34,24,6,0,0
98048,1.0762e+08,5,5256,5242,16.29,2.59,24,6,0,0
98934,1.0784e+08,5,5245,5371,16.19,2.53,24,6,0,0
99386,1.0795e+08,5,5387,5528,16.19,3.05,24,6,0,0
99795,1.0806e+08,5,5531,5585,16.16,3.14,24,6,0,0
1.0069e+05,1.0828e+08,5,5586,5628,16.16,2.85,24,7,0,0
1.0114e+05,1.0839e+08,5,5630,5671,16.1,2.94,24,7,0,0
1.0159e+05,1.085e+08,5,5653,5500,16.07,2.97,24,7,0,0
1.0202e+05,1.086e+08,5,5495,5400,16.18,2.74,24,7,0,0
1.0248e+05,1.0871e+08,5,5406,5542,16.11,2.83,24,7,0,0
1.0289e+05,1.0882e+08,5,5532,5400,16.11,2.87,24,7,0,0
1.0334e+05,1.0893e+08,5,5407,5557,16.08,3.19,24,7,0,0
1.0374e+05,1.0903e+08,5,5560,5628,16.13,2.88,24,7,0,0
1.0419e+05,1.0914e+08,5,5622,5557,16.19,2.88,24,7,0,0
1.0464e+05,1.0925e+08,5,5555,5485,16.09,2.74,24,7,0,0
1.0508e+05,1.0936e+08,5,5487,5685,16.1,3.37,24,7,0,0
1.0553e+05,1.0947e+08,5,5691,5857,16.09,3.21,24,7,0,0
1.0602e+05,1.0959e+08,5,5851,5800,16.12,3.3,24,8,0,0
1.0646e+05,1.097e+08,5,5804,5842,16.07,3.08,24,8,0,0
1.0687e+05,1.098e+08,5,5836,5785,16.1,3.26,24,8,0,0
1.0732e+05,1.0991e+08,5,5780,5657,16.11,3.07,24,8,0,0
1.0776e+05,1.1002e+08,5,5653,5571,16.06,2.88,24,8,0,0
1.0824e+05,1.1013e+08,5,5579,5757,16.05,3.61,24,8,0,0
1.0865e+05,1.1023e+08,5,5757,5771,16.05,3.2,24,8,0,0
1.091e+05,1.1034e+08,5,5773,5885,16.11,3.41,24,8,0,0
1.0955e+05,1.1045e+08,5,5875,5685,16.08,3.15,24,8,0,0
1.1e+05,1.1056e+08,5,5703,5957,16.1,3.3,24,8,0,0
1.1045e+05,1.1067e+08,5,5945,5828,16.01,3.41,24,9,0,0
1.1085e+05,1.1078e+08,5,5832,5900,16.12,3.27,24,9,0,0
1.1128e+05,1.1089e+08,5,5889,5742,16.1,3.18,24,9,0,0
1.1167e+05,1.1099e+08,5,5751,5942,16.08,3.55,24,9,0,0
1.1217e+05,1.1111e+08,5,5931,5828,16.04,2.81,24,9,0,0
1.1261e+05,1.1122e+08,5,5806,5585,16.07,2.85,24,9,0,0
1.1307e+05,1.1133e+08,5,5594,5685,16.12,2.85,24,9,0,0
1.1347e+05,1.1143e+08,5,5683,5628,16.05,2.87,24,9,0,0
1.1396e+05,1.1155e+08,5,5625,5600,16.1,2.99,24,9,0,0
1.1441e+05,1.1165e+08,5,5594,5542,16.09,2.78,24,9,0,0
1.1486e+05,1.1177e+08,5,5539,5500,16.13,2.77,24,9,0,0
1.1526e+05,1.1186e+08,5,5502,5557,16.16,2.76,24,10,0,0
1.1571e+05,1.1198e+08,5,5555,5528,16.16,2.75,24,10,0,0
1.1619e+05,1.1209e+08,5,5532,5600,15.99,2.95,24,10,0,0
1.1705e+05,1.123e+08,5,5601,5742,16.06,3.2,24,10,0,0
1.175e+05,1.1241e+08,5,5741,5728,16.1,3.17,24,10,0,0
1.1798e+05,1.1253e+08,5,5715,5571,16.17,2.84,24,10,0,0
1.1835e+05,1.1262e+08,5,5569,5471,16.17,2.88,24,10,0,0
1.1884e+05,1.1274e+08,5,5477,5542,16.13,2.76,24,10,0,0
1.1925e+05,1.1284e+08,5,5539,5385,16.1,2.57,24,10,0,0
1.1973e+05,1.1296e+08,5,5394,5485,16.1,2.8,24,10,0,0
1.2018e+05,1.1307e+08,5,5500,5657,16.14,2.95,24,11,0,0
1.2058e+05,1.1317e+08,5,5656,5642,16.15,2.83,24,11,0,0
1.2104e+05,1.1328e+08,5,5625,5400,16.16,2.24,24,11,0,0
1.2149e+05,1.134e+08,5,5400,5414,16.13,2.38,24,11,0,0
1.2194e+05,1.135e+08,5,5406,5300,16.05,2.44,24,11,0,0
1.2234e+05,1.136e+08,5,5303,5385,16.1,2.6,24,11,0,0
1.232e+05,1.1382e+08,5,5386,5457,16.16,2.76,24,11,0,0
1.2365e+05,1.1393e+08,5,5481,5728,16.02,3.14,24,11,0,0
1.2409e+05,1.1404e+08,5,5745,5928,15.95,3.89,24,11,0,0
1.2498e+05,1.1426e+08,5,5932,6028,16.01,3.89,24,11,0,0
1.2542e+05,1.1436e+08,5,6037,6157,16.06,3.57,24,12,0,0
1.2587e+05,1.1448e+08,5,6146,6042,16.06,3.63,24,12,0,0
1.2628e+05,1.1458e+08,5,6036,5914,16.01,4.09,24,12,0,0
1.2672e+05,1.1468e+08,5,5920,6314,15.98,4.88,24,12,0,0
1.2724e+05,1.1481e+08,5,6310,6285,15.9,4.56,24,12,0,0
1.277e+05,1.1492e+08,5,6286,6300,15.9,4.41,24,12,0,0
1.281e+05,1.1502e+08,5,6280,6128,15.82,4.15,24,12,0,0
1.2855e+05,1.1512e+08,5,6130,6285,15.94,3.86,24,12,0,0
1.2899e+05,1.1524e+08,5,6275,6085,15.98,3.71,24,12,0,0
1.2945e+05,1.1535e+08,5,6074,5957,15.91,3.66,24,13,0,0
1.2989e+05,1.1545e+08,5,5953,5900,15.92,3.46,24,13,0,0
1.3033e+05,1.1556e+08,5,5897,5871,15.97,3.43,24,13,0,0
1.3078e+05,1.1567e+08,5,5887,6028,15.92,3.75,24,13,0,0
1.3122e+05,1.1578e+08,5,6030,6057,15.83,3.82,24,13,0,0
1.3208e+05,1.1599e+08,5,6061,6185,15.79,3.92,24,13,0,0
1.3253e+05,1.161e+08,5,6182,6142,15.85,3.8,25,13,0,0
1.3298e+05,1.1621e+08,5,6141,6057,15.89,4.07,24,14,0,0
1.3343e+05,1.1632e+08,5,6060,6085,15.9,4.14,25,14,0,0
1.3384e+05,1.1642e+08,5,6085,6142,15.86,4.15,25,14,0,0
1.3428e+05,1.1653e+08,5,6152,6271,15.91,4.37,25,14,0,0
1.3473e+05,1.1665e+08,5,6273,6300,15.97,4.05,25,14,0,0
1.3518e+05,1.1676e+08,5,6274,5971,16.01,3.61,25,14,0,0
1.3563e+05,1.1687e+08,5,5968,5942,15.91,3.63,25,14,0,0
1.3604e+05,1.1697e+08,5,5940,5871,15.97,3.91,25,14,0,0
1.3652e+05,1.1709e+08,5,5889,6157,15.97,4.1,25,15,0,0
1.3782e+05,1.1741e+08,5,6153,6042,16.09,3.53,25,15,0,0
1.3871e+05,1.1763e+08,5,6036,5914,15.97,3.89,25,15,0,0
1.3916e+05,1.1774e+08,5,5915,5928,15.94,3.62,25,15,0,0
1.396e+05,1.1784e+08,5,5931,5971,15.94,3.48,25,15,0,0
1.4005e+05,1.1796e+08,5,5955,5842,15.95,3.59,25,15,0,0
1.4046e+05,1.1806e+08,5,5843,5942,15.91,3.91,25,15,0,0
1.409e+05,1.1816e+08,5,5939,5842,15.86,3.8,25,16,0,0
1.4135e+05,1.1828e+08,5,5850,5971,16.02,3.84,25,16,0,0
1.4176e+05,1.1838e+08,5,5970,5914,16.04,3.25,25,16,0,0
1.4229e+05,1.185e+08,5,5910,5871,15.98,3.71,25,16,0,0
1.427e+05,1.1861e+08,5,5884,6000,15.98,3.7,25,16,0,0
1.431e+05,1.1871e+08,5,6008,6114,15.95,4.06,25,16,0,0
1.4355e+05,1.1882e+08,5,6098,5885,15.93,3.78,25,16,0,0
1.44e+05,1.1893e+08,5,5901,6057,16.04,3.67,25,16,0,0
1.449e+05,1.1916e+08,5,6055,6014,16,3.91,25,17,0,0
1.453e+05,1.1925e+08,5,6030,6228,15.9,4.31,25,17,0,0
1.4578e+05,1.1937e+08,5,6213,6085,15.91,4.04,25,17,0,0
1.4619e+05,1.1946e+08,5,6086,6214,15.93,4.49,25,17,0,0
1.4663e+05,1.1958e+08,5,6211,6171,15.96,4.07,25,17,0,0
1.4708e+05,1.1969e+08,5,6168,6128,15.94,3.95,25,17,0,0
1.4798e+05,1.1991e+08,5,6143,6457,15.95,4.55,25,17,0,0
1.4838e+05,1.2002e+08,5,6451,6385,16.01,4.03,25,18,0,0
1.4928e+05,1.2024e+08,5,6376,6200,16.01,3.95,25,18,0,0
1.4969e+05,1.2034e+08,5,6199,6157,16.05,4.24,25,18,0,0
1.5015e+05,1.2045e+08,5,6157,6171,15.96,3.9,25,18,0,0
1.5062e+05,1.2056e+08,5,6165,6100,16,4.2,25,18,0,0
1.5107e+05,1.2067e+08,5,6106,6328,16.04,4,25,18,0,0
1.5153e+05,1.2078e+08,5,6323,6271,15.89,4.52,25,18,0,0
1.5198e+05,1.2089e+08,5,6273,6300,16,3.88,25,19,0,0
1.5242e+05,1.21e+08,5,6285,6085,15.86,3.76,25,19,0,0
1.5283e+05,1.211e+08,5,6090,6157,15.95,3.53,25,19,0,0
1.5324e+05,1.2121e+08,5,6154,6014,15.94,3.68,25,19,0,0
1.5374e+05,1.2132e+08,5,6002,5885,16.02,3.39,25,19,0,0
1.5414e+05,1.2143e+08,5,5882,5842,15.98,3.5,25,19,0,0
1.5459e+05,1.2154e+08,5,5831,5742,16,3.11,25,19,0,0
1.5502e+05,1.2165e+08,5,5743,5771,15.92,3.06,25,19,0,0
1.5547e+05,1.2176e+08,5,5757,5642,15.95,3.29,25,19,0,0
1.5587e+05,1.2186e+08,5,5640,5600,16,2.87,25,20,0,0
1.5632e+05,1.2197e+08,5,5600,5614,16.02,2.86,25,20,0,0
1.5677e+05,1.2208e+08,5,5616,5671,15.95,2.88,26,20,0,0
1.5721e+05,1.2219e+08,5,5668,5614,16.04,3.07,25,20,0,0
1.5766e+05,1.223e+08,5,5616,5671,16,3.04,25,20,0,0
1.5811e+05,1.2241e+08,5,5669,5628,15.9,2.99,26,20,0,0
1.5856e+05,1.2252e+08,5,5623,5514,15.98,2.71,25,20,0,0
1.5901e+05,1.2263e+08,5,5503,5400,16.04,2.76,25,20,0,0
1.5945e+05,1.2273e+08,5,5403,5542,16.05,2.84,25,20,0,0
1.5991e+05,1.2285e+08,5,5532,5400,15.98,2.75,25,20,0,0
1.608e+05,1.2307e+08,5,5397,5285,16.04,2.35,26,20,0,0
1.6125e+05,1.2318e+08,5,5278,5214,15.99,2.41,26,21,0,0
1.617e+05,1.2329e+08,5,5218,5285,15.97,2.56,25,21,0,0
1.6211e+05,1.2339e+08,5,5280,5128,15.94,2.78,25,21,0,0
1.6255e+05,1.235e+08,5,5148,5414,15.98,2.79,26,21,0,0
1.63e+05,1.2361e+08,5,5420,5514,16,2.79,26,21,0,0
1.634e+05,1.2371e+08,5,5512,5442,16,2.7,26,21,0,0
1.6386e+05,1.2383e+08,5,5449,5600,16,2.99,26,21,0,0
1.643e+05,1.2394e+08,5,5600,5614,15.97,3.02,26,21,0,0
1.6476e+05,1.2405e+08,5,5611,5571,16.01,3.28,26,21,0,0
1.6516e+05,1.2415e+08,5,5572,5642,15.98,3.13,26,21,0,0
1.6565e+05,1.2427e+08,5,5655,5842,15.91,3.51,25,21,0,0
1.6606e+05,1.2438e+08,5,5846,5957,15.97,3.51,25,22,0,0
1.6651e+05,1.2448e+08,5,5955,5885,15.87,3.78,25,22,0,0
1.6699e+05,1.246e+08,5,5892,6042,15.94,3.55,26,22,0,0
1.674e+05,1.247e+08,5,6033,5928,15.89,3.58,26,22,0,0
1.6785e+05,1.2481e+08,5,5932,6000,15.95,4.09,26,22,0,0
1.6826e+05,1.2491e+08,5,6001,6057,15.97,3.85,25,22,0,0
1.6871e+05,1.2503e+08,5,6065,6157,15.86,4.17,25,22,0,0
1.6961e+05,1.2525e+08,5,6157,6157,15.91,3.83,26,23,0,0
1.7002e+05,1.2535e+08,5,6160,6200,15.94,3.67,26,23,0,0
1.7047e+05,1.2546e+08,5,6180,5985,15.86,3.6,26,23,0,0
1.7087e+05,1.2557e+08,5,5984,5971,15.9,3.73,26,23,0,0
1.7135e+05,1.2568e+08,5,5973,6028,15.95,3.37,25,23,0,0
1.7177e+05,1.2578e+08,5,6025,5914,15.89,3.46,26,23,0,0
1.7222e+05,1.2589e+08,5,5921,6014,15.92,3.44,26,23,0,0
1.7266e+05,1.26e+08,5,6000,5814,15.89,3.18,26,23,0,0
1.7311e+05,1.2611e+08,5,5814,5828,15.89,3.26,26,23,0,0
1.7356e+05,1.2622e+08,5,5820,5714,15.94,3.08,26,23,0,0
1.7401e+05,1.2634e+08,5,5721,5785,15.89,3.21,26,23,0,0
1.7446e+05,1.2645e+08,5,5778,5714,15.95,3.29,26,24,0,0
1.7491e+05,1.2656e+08,5,5714,5714,15.94,3.36,26,24,0,0
1.7532e+05,1.2666e+08,5,5713,5700,15.95,3.14,26,24,0,0
1.7572e+05,1.2676e+08,5,5703,5842,15.91,3.78,26,24,0,0
1.7617e+05,1.2687e+08,5,5840,5771,15.94,2.87,26,24,0,0
1.7658e+05,1.2697e+08,5,5768,5714,15.9,3.31,26,24,0,0
1.7702e+05,1.2708e+08,5,5716,5885,15.88,3.55,26,24,0,0
1.7747e+05,1.2719e+08,5,5890,5942,15.75,3.89,26,24,0,0
1.7792e+05,1.273e+08,5,5956,6100,15.8,3.58,26,24,0,0
1.7832e+05,1.274e+08,5,6098,6000,15.8,3.48,26,25,0,0
1.7881e+05,1.2752e+08,5,5998,5971,15.86,3.53,26,25,0,0
1.7925e+05,1.2762e+08,5,5964,5700,15.81,3.2,26,25,0,0
1.797e+05,1.2773e+08,5,5706,5914,15.86,3.59,26,25,0,0
1.8015e+05,1.2784e+08,5,5921,6000,15.86,3.79,26,25,0,0
1.8055e+05,1.2795e+08,5,5998,5885,15.85,3.48,26,25,0,0
1.8104e+05,1.2807e+08,5,5892,6000,15.89,3.46,26,25,0,0
1.8145e+05,1.2817e+08,5,5987,5842,15.82,3.55,26,25,0,0
1.8191e+05,1.2829e+08,5,5844,5871,15.82,3.44,26,25,0,0
1.8231e+05,1.2839e+08,5,5872,5900,15.89,3.4,26,25,0,0
1.8276e+05,1.2849e+08,5,5897,5828,15.91,2.91,26,26,0,0
1.8321e+05,1.2861e+08,5,5811,5571,15.91,2.84,26,26,0,0
1.8366e+05,1.2872e+08,5,5567,5528,15.97,2.55,26,26,0,0
1.8407e+05,1.2882e+08,5,5526,5500,16,2.83,26,26,0,0
1.8452e+05,1.2893e+08,5,5507,5571,15.95,3.24,26,26,0,0
1.8541e+05,1.2915e+08,5,5572,5742,15.91,3.57,26,26,0,0
1.8585e+05,1.2926e+08,5,5741,5728,15.89,3.57,26,26,0,0
1.863e+05,1.2937e+08,5,5739,5857,15.89,3.57,26,26,0,0
1.8723e+05,1.2959e+08,5,5857,5885,15.89,3.41,26,27,0,0
1.8763e+05,1.2969e+08,5,5883,5757,15.88,3.25,26,27,0,0
1.8808e+05,1.298e+08,5,5759,5814,15.92,3.25,26,27,0,0
1.8858e+05,1.2992e+08,5,5807,5742,15.86,3.23,26,27,0,0
1.8898e+05,1.3002e+08,5,5749,5828,15.89,2.98,26,27,0,0
1.8987e+05,1.3024e+08,5,5826,5685,15.93,2.94,26,27,0,0
1.9032e+05,1.3035e+08,5,5686,5700,15.95,3.01,26,27,0,0
1.9077e+05,1.3046e+08,5,5695,5657,15.92,3.11,26,27,0,0
1.9117e+05,1.3056e+08,5,5658,5700,15.87,3.25,26,27,0,0
1.9162e+05,1.3067e+08,5,5696,5671,15.91,3.08,26,28,0,0
1.9203e+05,1.3078e+08,5,5672,5700,15.9,3.08,26,28,0,0
1.9296e+05,1.31e+08,5,5693,5585,15.97,2.91,26,28,0,0
1.9384e+05,1.3121e+08,5,5582,5471,15.89,2.45,26,28,0,0
1.943e+05,1.3133e+08,5,5479,5557,16,2.88,26,28,0,0
1.952e+05,1.3155e+08,5,5553,5485,15.88,2.7,26,28,0,0
1.956e+05,1.3165e+08,5,5484,5471,15.88,2.94,26,28,0,0
1.9609e+05,1.3177e+08,5,5482,5600,15.91,2.94,26,28,0,0
1.9738e+05,1.3208e+08,5,5600,5628,15.95,2.9,26,29,0,0
1.9783e+05,1.3219e+08,5,5612,5471,15.91,3.01,26,29,0,0
1.9828e+05,1.323e+08,5,5479,5585,15.94,2.75,26,29,0,0
1.9869e+05,1.324e+08,5,5585,5585,15.97,2.72,26,29,0,0
1.9917e+05,1.3252e+08,5,5592,5657,15.95,3.22,26,29,0,0
1.9962e+05,1.3263e+08,5,5655,5642,15.97,3.1,26,29,0,0
2.0007e+05,1.3275e+08,5,5646,5685,15.92,3.35,26,29,0,0
2.0048e+05,1.3285e+08,5,5692,5785,15.86,2.96,26,29,0,0
2.0092e+05,1.3296e+08,5,5776,5671,15.91,3.11,26,29,0,0
2.0138e+05,1.3307e+08,5,5663,5585,15.94,2.93,26,29,0,0
2.0178e+05,1.3317e+08,5,5599,5885,15.91,3.25,26,30,0,0
2.0224e+05,1.3328e+08,5,5867,5628,15.84,3.05,26,30,0,0
2.0268e+05,1.3339e+08,5,5639,5800,15.87,3.07,26,30,0,0
2.0313e+05,1.335e+08,5,5792,5642,15.91,2.96,26,30,0,0
2.0353e+05,1.336e+08,5,5641,5628,15.85,3.11,26,30,0,0
2.0403e+05,1.3372e+08,5,5636,5757,15.94,3.14,26,30,0,0
2.0447e+05,1.3383e+08,5,5749,5671,15.89,3.08,26,30,0,0
2.0536e+05,1.3405e+08,5,5668,5614,15.95,3.01,26,30,0,0
2.0577e+05,1.3415e+08,5,5614,5642,15.91,2.99,26,30,0,0
2.0622e+05,1.3426e+08,5,5641,5614,15.95,3.07,26,30,0,0
2.0667e+05,1.3437e+08,5,5610,5571,15.95,3.29,26,31,0,0
2.0712e+05,1.3448e+08,5,5576,5657,15.87,3.21,26,31,0,0
2.0757e+05,1.3459e+08,5,5655,5642,15.89,3.04,26,31,0,0
2.0798e+05,1.347e+08,5,5638,5600,15.93,2.99,26,31,0,0
2.0842e+05,1.3481e+08,5,5595,5485,15.91,2.85,26,31,0,0
2.0887e+05,1.3491e+08,5,5473,5328,15.99,2.71,26,31,0,0
2.0932e+05,1.3502e+08,5,5335,5414,15.93,2.75,26,31,0,0
2.0977e+05,1.3513e+08,5,5411,5385,15.92,2.83,26,31,0,0
2.1021e+05,1.3524e+08,5,5393,5471,15.92,3.15,26,31,0,0
2.1062e+05,1.3534e+08,5,5474,5614,15.81,3.28,26,31,0,0
2.1107e+05,1.3545e+08,5,5624,5757,15.88,3.17,26,31,0,0
2.1151e+05,1.3556e+08,5,5746,5642,15.92,3.07,26,32,0,0
2.1192e+05,1.3566e+08,5,5643,5742,15.92,3.15,26,32,0,0
2.1238e+05,1.3578e+08,5,5742,5742,15.9,3.08,26,32,0,0
2.1283e+05,1.3589e+08,5,5738,5700,15.92,3.16,26,32,0,0
2.1326e+05,1.3599e+08,5,5703,5771,15.91,3.6,26,32,0,0
2.1368e+05,1.361e+08,5,5770,5728,15.91,2.63,26,32,0,0
2.1412e+05,1.3621e+08,5,5726,5700,15.91,3.03,26,32,0,0
2.1458e+05,1.3632e+08,5,5696,5600,15.95,2.64,26,32,0,0
2.1502e+05,1.3643e+08,5,5599,5542,15.82,3.02,26,32,0,0
2.1551e+05,1.3654e+08,5,5553,5671,15.83,3.29,26,32,0,0
2.1595e+05,1.3665e+08,5,5683,5857,15.85,3.38,26,33,0,0
2.1639e+05,1.3676e+08,5,5854,5828,15.83,3.27,26,33,0,0
2.1684e+05,1.3686e+08,5,5830,5871,15.89,3.22,26,33,0,0
2.1732e+05,1.3698e+08,5,5865,5800,15.83,3.31,26,33,0,0
2.1773e+05,1.3708e+08,5,5804,5857,15.86,3.35,26,33,0,0
2.1818e+05,1.372e+08,5,5840,5685,15.89,3.32,26,33,0,0
2.1862e+05,1.373e+08,5,5700,5857,15.84,3.44,26,33,0,0
2.1907e+05,1.3741e+08,5,5860,5900,15.81,3.37,26,33,0,0
2.1951e+05,1.3752e+08,5,5890,5800,15.87,3.29,26,33,0,0
2.1992e+05,1.3762e+08,5,5803,5857,15.86,3.46,26,33,0,0
2.2041e+05,1.3775e+08,5,5871,5957,15.83,3.5,26,34,0,0
2.2081e+05,1.3784e+08,5,5957,5957,15.89,3.5,26,34,0,0
2.217e+05,1.3806e+08,5,5958,6014,15.79,3.66,26,34,0,0
2.2215e+05,1.3817e+08,5,6013,6000,15.87,3.47,26,34,0,0
2.2263e+05,1.3828e+08,5,5984,5842,15.88,3.4,26,34,0,0
2.2304e+05,1.3839e+08,5,5838,5814,15.88,3.28,26,34,0,0
2.2352e+05,1.385e+08,5,5829,6028,15.9,3.77,26,34,0,0
2.2396e+05,1.3861e+08,5,6035,6114,15.84,3.72,26,34,0,0
2.2461e+05,1.3882e+08,5,6052,6014,15.86,3.46,26,35,0,0
2.2506e+05,1.3893e+08,5,5995,5828,15.84,3.68,26,35,0,0
2.2546e+05,1.3904e+08,5,5834,5971,15.79,3.66,26,35,0,0
2.2639e+05,1.3926e+08,5,5971,5971,15.87,3.9,26,35,0,0
2.268e+05,1.3936e+08,5,5971,5985,15.81,4.14,26,35,0,0
2.2728e+05,1.3947e+08,5,5992,6085,15.77,3.8,26,35,0,0
2.2772e+05,1.3958e+08,5,6081,6042,15.8,3.57,26,35,0,0
2.2817e+05,1.3969e+08,5,6019,5814,15.85,3.65,26,35,0,0
2.2906e+05,1.399e+08,5,5820,6114,15.8,3.88,26,36,0,0
2.2951e+05,1.4002e+08,5,6108,6042,15.86,3.84,26,36,0,0
2.2991e+05,1.4012e+08,5,6035,5885,15.72,3.61,26,36,0,0
2.3036e+05,1.4023e+08,5,5904,6171,15.84,3.68,26,36,0,0
2.3081e+05,1.4033e+08,5,6166,6071,15.82,3.76,26,36,0,0
2.3125e+05,1.4045e+08,5,6057,5885,15.8,3.6,26,36,0,0
2.3166e+05,1.4055e+08,5,5888,5957,15.84,3.41,26,36,0,0
2.3211e+05,1.4066e+08,5,5955,5914,15.94,3.05,26,36,0,0
2.326e+05,1.4078e+08,5,5908,5828,15.91,3.13,26,37,0,0
2.33e+05,1.4087e+08,5,5831,5942,15.97,3.09,26,37,0,0
2.3345e+05,1.4099e+08,5,5932,5800,15.93,2.94,26,37,0,0
2.339e+05,1.411e+08,5,5798,5771,15.88,2.98,26,37,0,0
2.343e+05,1.412e+08,5,5771,5771,15.86,3,26,37,0,0
2.3476e+05,1.4131e+08,5,5770,5757,15.85,2.96,27,37,0,0
2.3516e+05,1.4142e+08,5,5756,5742,15.84,3.05,26,37,0,0
2.3565e+05,1.4154e+08,5,5744,5771,15.87,2.86,26,37,0,0
2.365e+05,1.4175e+08,5,5766,5642,15.94,2.96,27,37,0,0
2.3694e+05,1.4186e+08,5,5642,5642,15.83,3.23,27,37,0,0
2.3739e+05,1.4196e+08,5,5657,5814,15.79,3.7,27,38,0,0
2.3784e+05,1.4207e+08,5,5842,6128,15.8,3.91,26,38,0,0
2.3824e+05,1.4218e+08,5,6125,6000,15.85,3.04,27,38,0,0
2.3917e+05,1.424e+08,5,5995,5871,15.85,3.52,26,38,0,0
2.3962e+05,1.4251e+08,5,5857,5671,15.91,2.81,26,38,0,0
2.4006e+05,1.4262e+08,5,5673,5700,15.88,2.94,26,38,0,0
2.4051e+05,1.4272e+08,5,5714,5914,15.76,3.87,26,38,0,0
2.4095e+05,1.4283e+08,5,5918,5971,15.73,3.61,27,38,0,0
2.4136e+05,1.4293e+08,5,5969,5885,15.81,3.51,26,39,0,0
2.418e+05,1.4304e+08,5,5885,5928,15.85,3.37,27,39,0,0
2.427e+05,1.4326e+08,5,5925,5871,15.77,3.34,27,39,0,0
2.431e+05,1.4337e+08,5,5875,5942,15.83,3.15,26,39,0,0
2.4355e+05,1.4348e+08,5,5956,6114,15.75,4.1,27,39,0,0
2.44e+05,1.4359e+08,5,6095,5914,15.83,3.16,26,39,0,0
2.4489e+05,1.438e+08,5,5898,5400,15.94,2.41,27,39,0,0
2.4533e+05,1.4391e+08,5,5397,5342,15.92,2.47,26,39,0,0
2.4578e+05,1.4402e+08,5,5348,5528,15.88,3.29,26,39,0,0
2.4623e+05,1.4413e+08,5,5532,5771,15.89,3.54,27,40,0,0
2.4667e+05,1.4424e+08,5,5771,5771,15.95,3.24,27,40,0,0
2.4712e+05,1.4435e+08,5,5748,5471,15.89,2.04,26,40,0,0
2.4796e+05,1.4456e+08,5,5476,5914,15.85,3.72,27,40,0,0
2.4846e+05,1.4468e+08,5,5912,5900,15.92,3.31,27,40,0,0
2.4886e+05,1.4478e+08,5,5881,5642,15.9,2.8,27,40,0,0
2.4931e+05,1.4489e+08,5,5642,5642,15.91,2.95,27,40,0,0
2.4975e+05,1.45e+08,5,5640,5600,15.88,2.97,27,40,0,0
2.502e+05,1.4511e+08,5,5597,5542,15.78,3.82,27,40,0,0
2.5065e+05,1.4522e+08,5,5561,5885,15.72,3.84,27,41,0,0
2.5109e+05,1.4533e+08,5,5889,6000,15.76,4.38,27,41,0,0
2.5158e+05,1.4544e+08,5,5994,5942,15.73,3.62,27,41,0,0
2.5203e+05,1.4555e+08,5,5945,6000,15.72,3.7,26,41,0,0
2.5243e+05,1.4566e+08,5,5995,5885,15.73,3.35,27,41,0,0
2.5288e+05,1.4577e+08,5,5880,5814,15.74,2.94,26,41,0,0
2.5332e+05,1.4588e+08,5,5786,5514,15.81,2.76,26,41,0,0
2.5373e+05,1.4598e+08,5,5510,5414,15.91,2.67,26,41,0,0
2.5417e+05,1.4609e+08,5,5420,5571,15.86,2.86,27,41,0,0
2.5461e+05,1.4619e+08,5,5568,5371,15.76,2.43,26,41,0,0
2.551e+05,1.4631e+08,5,5384,5571,15.79,3.04,26,41,0,0
2.5554e+05,1.4642e+08,5,5564,5471,15.8,3.03,27,42,0,0
2.5599e+05,1.4653e+08,5,5471,5485,15.84,2.69,27,42,0,0
2.5639e+05,1.4663e+08,5,5476,5300,15.89,2.64,27,42,0,0
2.5688e+05,1.4675e+08,5,5314,5442,15.85,2.99,27,42,0,0
2.5728e+05,1.4684e+08,5,5451,5571,15.88,3.51,27,42,0,0
2.5773e+05,1.4696e+08,5,5606,5942,15.83,4.02,27,42,0,0
2.5818e+05,1.4707e+08,5,5955,6100,15.85,3.95,27,42,0,0
2.5858e+05,1.4717e+08,5,6110,6242,15.82,4.44,27,42,0,0
2.5903e+05,1.4728e+08,5,6241,6228,15.86,4.26,27,42,0,0
2.5944e+05,1.4738e+08,5,6225,6171,15.8,4.06,27,43,0,0
2.6033e+05,1.476e+08,5,6170,6100,15.83,3.74,27,43,0,0
2.6078e+05,1.4771e+08,5,6101,6185,15.8,4.41,27,43,0,0
2.6166e+05,1.4793e+08,5,6185,6257,15.76,4.47,27,43,0,0
2.6215e+05,1.4804e+08,5,6266,6357,15.69,4.32,27,43,0,0
2.626e+05,1.4815e+08,5,6352,6300,15.67,4.52,27,43,0,0
2.6304e+05,1.4826e+08,5,6294,6242,15.73,4.1,27,44,0,0
2.6348e+05,1.4837e+08,5,6239,6185,15.73,4.22,27,44,0,0
2.6393e+05,1.4848e+08,5,6190,6300,15.7,4.17,27,44,0,0
2.6437e+05,1.4859e+08,5,6293,6228,15.7,4.21,27,44,0,0
2.6482e+05,1.4869e+08,5,6228,6242,15.73,4.3,27,44,0,0
2.6526e+05,1.4881e+08,5,6232,6100,15.76,4.06,27,44,0,0
2.6571e+05,1.4891e+08,5,6102,6271,15.79,4.03,27,44,0,0
2.6616e+05,1.4903e+08,5,6255,6142,15.73,4.31,27,44,0,0
2.6661e+05,1.4913e+08,5,6144,6314,15.7,4.13,27,45,0,0
2.6705e+05,1.4925e+08,5,6299,6142,15.71,3.96,27,45,0,0
2.675e+05,1.4937e+08,5,6142,6142,15.78,3.8,27,45,0,0
2.6794e+05,1.4947e+08,5,6133,6014,15.76,3.97,27,45,0,0
2.6839e+05,1.4958e+08,5,6016,6042,15.63,4,27,45,0,0
2.688e+05,1.4968e+08,5,6044,6200,15.61,5.24,27,45,0,0
2.6928e+05,1.498e+08,5,6192,6128,15.77,3.55,27,45,0,0
2.6969e+05,1.499e+08,5,6125,6014,15.69,3.53,27,45,0,0
2.7014e+05,1.5001e+08,5,6012,5914,15.79,3.24,27,46,0,0
2.7058e+05,1.5012e+08,5,5903,5714,15.78,2.96,27,46,0,0
2.7107e+05,1.5023e+08,5,5701,5500,15.73,2.92,27,46,0,0
2.7152e+05,1.5035e+08,5,5512,5628,15.76,2.67,27,46,0,0
2.7193e+05,1.5045e+08,5,5619,5414,15.83,2.54,27,46,0,0
2.7237e+05,1.5056e+08,5,5413,5400,15.83,2.6,27,46,0,0
2.7282e+05,1.5067e+08,5,5391,5185,15.87,2.29,27,46,0,0
2.7326e+05,1.5077e+08,5,5178,5042,15.87,2.13,27,46,0,0
2.7371e+05,1.5088e+08,5,5042,5057,15.94,2.17,27,46,0,0
2.746e+05,1.511e+08,5,5058,5114,15.91,2.45,27,46,0,0
2.7505e+05,1.5121e+08,5,5106,5014,15.92,2.03,27,46,0,0
2.7554e+05,1.5133e+08,5,5022,5085,15.95,2.34,27,46,0,0
2.7594e+05,1.5143e+08,5,5091,5214,15.91,2.49,27,47,0,0
2.764e+05,1.5155e+08,5,5221,5300,15.91,2.64,27,47,0,0
2.7684e+05,1.5165e+08,5,5302,5485,15.91,2.55,27,47,0,0
2.7773e+05,1.5187e+08,5,5482,5414,15.85,2.77,27,47,0,0
2.7813e+05,1.5197e+08,5,5425,5657,15.82,3.19,27,47,0,0
2.7858e+05,1.5208e+08,5,5643,5471,15.82,2.4,27,47,0,0
2.7898e+05,1.5219e+08,5,5471,5500,15.8,2.66,27,47,0,0
2.7948e+05,1.5231e+08,5,5495,5442,15.85,2.97,27,47,0,0
2.7993e+05,1.5242e+08,5,5442,5442,15.87,2.55,27,47,0,0
2.8034e+05,1.5251e+08,5,5442,5442,15.85,2.74,27,47,0,0
2.8078e+05,1.5263e+08,5,5441,5414,15.83,2.88,27,47,0,0
2.8123e+05,1.5274e+08,5,5411,5385,15.77,2.79,27,47,0,0
2.8172e+05,1.5285e+08,5,5381,5342,15.79,2.57,27,48,0,0
2.8212e+05,1.5295e+08,5,5341,5300,15.77,2.7,27,48,0,0
2.8257e+05,1.5306e+08,5,5306,5471,15.82,2.94,27,48,0,0
2.8302e+05,1.5317e+08,5,5484,5671,15.72,3.08,27,48,0,0
2.8346e+05,1.5328e+08,5,5691,5900,15.72,3.54,27,48,0,0
2.8387e+05,1.5339e+08,5,5903,5985,15.8,3.6,27,48,0,0
2.8432e+05,1.535e+08,5,5987,6042,15.8,3.45,27,48,0,0
2.8477e+05,1.5361e+08,5,6034,5928,15.86,3.11,27,48,0,0
2.8522e+05,1.5372e+08,5,5912,5685,15.74,3.3,27,48,0,0
2.8566e+05,1.5383e+08,5,5685,5700,15.83,3.23,27,48,0,0
2.8611e+05,1.5394e+08,5,5719,5914,15.81,3.69,27,49,0,0
2.8654e+05,1.5404e+08,5,5912,5885,15.75,3.64,27,49,0,0
2.8699e+05,1.5415e+08,5,5883,5857,15.83,3.64,27,49,0,0
2.8744e+05,1.5426e+08,5,5858,5928,15.81,3.5,27,49,0,0
2.8788e+05,1.5437e+08,5,5921,5857,15.77,3.55,27,49,0,0
2.8833e+05,1.5447e+08,5,5849,5771,15.82,3.23,27,49,0,0
2.8877e+05,1.5458e+08,5,5765,5657,15.84,3.12,27,49,0,0
2.8925e+05,1.5469e+08,5,5657,5657,15.73,3.48,27,49,0,0
2.8971e+05,1.5481e+08,5,5653,5628,15.79,3.37,27,49,0,0
2.9011e+05,1.5491e+08,5,5617,5485,15.89,2.64,27,50,0,0
2.9056e+05,1.5502e+08,5,5469,5271,15.89,2.79,27,50,0,0
2.91e+05,1.5513e+08,5,5270,5228,15.86,2.67,27,50,0,0
2.9145e+05,1.5524e+08,5,5225,5128,15.9,2.7,27,50,0,0
2.919e+05,1.5534e+08,5,5128,5200,15.85,2.58,27,50,0,0
2.9235e+05,1.5546e+08,5,5200,5200,15.9,2.46,27,50,0,0
2.9279e+05,1.5557e+08,5,5208,5328,15.87,2.74,27,50,0,0
2.9324e+05,1.5567e+08,5,5325,5285,15.78,3.17,27,50,0,0
2.9369e+05,1.5579e+08,5,5300,5457,15.79,2.87,27,50,0,0
2.9413e+05,1.5589e+08,5,5463,5571,15.85,3.19,27,50,0,0
2.9458e+05,1.56e+08,5,5571,5585,15.82,3.16,27,50,0,0
2.9503e+05,1.5611e+08,5,5586,5600,15.8,2.91,27,50,0,0
2.9547e+05,1.5622e+08,5,5601,5642,15.77,3.92,27,51,0,0
2.9592e+05,1.5633e+08,5,5653,5885,15.76,3.8,27,51,0,0
2.9638e+05,1.5644e+08,5,5893,6071,15.78,4,27,51,0,0
2.9683e+05,1.5656e+08,5,6068,6042,15.82,4.21,27,51,0,0
2.9724e+05,1.5666e+08,5,6049,6200,15.7,4.19,27,51,0,0
2.9764e+05,1.5676e+08,5,6195,5971,15.72,3.67,27,51,0,0
2.9813e+05,1.5687e+08,5,5977,6100,15.78,3.59,27,51,0,0
2.9857e+05,1.5699e+08,5,6091,5971,15.79,3.18,27,51,0,0
2.9902e+05,1.571e+08,5,5966,5900,15.86,3.28,27,51,0,0
2.9946e+05,1.5721e+08,5,5884,5542,15.85,2.48,27,52,0,0
2.9992e+05,1.5732e+08,5,5544,5571,15.75,2.94,27,52,0,0
3.0032e+05,1.5742e+08,5,5570,5542,15.87,2.71,27,52,0,0
3.0081e+05,1.5753e+08,5,5510,5214,15.79,2.37,27,52,0,0
3.0126e+05,1.5764e+08,5,5206,5100,15.88,2.29,27,52,0,0
3.0214e+05,1.5786e+08,5,5101,5257,15.82,2.89,27,52,0,0
3.0263e+05,1.5798e+08,5,5282,5571,15.76,2.83,27,52,0,0
3.0303e+05,1.5807e+08,5,5566,5285,15.78,2.4,27,52,0,0
3.0348e+05,1.5819e+08,5,5280,5171,15.76,2.44,27,52,0,0
3.0393e+05,1.5829e+08,5,5181,5285,15.83,2.73,27,52,0,0
3.0437e+05,1.584e+08,5,5289,5400,15.76,2.9,27,52,0,0
3.0486e+05,1.5852e+08,5,5403,5442,15.79,2.86,27,52,0,0
3.0526e+05,1.5862e+08,5,5444,5571,15.86,3.06,27,53,0,0
3.0571e+05,1.5873e+08,5,5571,5614,15.79,2.95,27,53,0,0
3.0616e+05,1.5884e+08,5,5613,5600,15.78,3.07,27,53,0,0
3.0664e+05,1.5896e+08,5,5605,5642,15.89,2.8,27,53,0,0
3.0705e+05,1.5905e+08,5,5647,5757,15.86,3.15,27,53,0,0
3.0749e+05,1.5916e+08,5,5749,5600,15.8,3.1,27,53,0,0
3.0838e+05,1.5939e+08,5,5603,5671,15.8,3.18,27,53,0,0
3.0883e+05,1.5949e+08,5,5669,5642,15.86,2.54,27,53,0,0
3.0928e+05,1.5961e+08,5,5639,5614,15.81,3.07,27,53,0,0
3.0972e+05,1.5971e+08,5,5612,5600,15.83,3.09,27,53,0,0
3.1012e+05,1.5981e+08,5,5606,5771,15.79,2.91,27,54,0,0
3.1061e+05,1.5992e+08,5,5753,5514,15.86,2.86,27,54,0,0
3.1106e+05,1.6003e+08,5,5517,5571,15.73,3.12,27,54,0,0
3.115e+05,1.6014e+08,5,5571,5585,15.76,2.74,27,54,0,0
3.1195e+05,1.6026e+08,5,5581,5542,15.86,2.61,27,54,0,0
3.1235e+05,1.6036e+08,5,5540,5428,15.8,2.73,27,54,0,0
3.128e+05,1.6047e+08,5,5427,5414,15.83,2.76,27,54,0,0
3.1324e+05,1.6058e+08,5,5415,5457,15.83,2.96,27,54,0,0
3.1373e+05,1.6069e+08,5,5468,5614,15.82,3.02,27,54,0,0
3.1417e+05,1.608e+08,5,5616,5657,15.79,2.97,27,54,0,0
3.1551e+05,1.6113e+08,5,5657,5685,15.74,3.37,27,55,0,0
3.1599e+05,1.6125e+08,5,5680,5614,15.79,2.55,27,55,0,0
3.1644e+05,1.6136e+08,5,5601,5500,15.75,2.95,27,55,0,0
3.1685e+05,1.6146e+08,5,5505,5585,15.77,3.08,27,55,0,0
3.1729e+05,1.6157e+08,5,5585,5600,15.72,3.07,27,55,0,0
3.177e+05,1.6167e+08,5,5600,5600,15.79,2.9,27,55,0,0
3.1814e+05,1.6178e+08,5,5600,5614,15.88,3,27,55,0,0
3.1859e+05,1.6189e+08,5,5624,5771,15.77,2.93,27,55,0,0
3.1904e+05,1.62e+08,5,5760,5614,15.88,2.98,27,55,0,0
3.1993e+05,1.6222e+08,5,5626,5885,15.8,2.95,27,56,0,0
3.2037e+05,1.6233e+08,5,5875,5742,15.91,3.04,27,56,0,0
3.2082e+05,1.6244e+08,5,5732,5600,15.8,2.81,27,56,0,0
3.2127e+05,1.6255e+08,5,5604,5714,15.86,3.26,27,56,0,0
3.2172e+05,1.6266e+08,5,5723,5800,15.83,3.25,27,56,0,0
3.2216e+05,1.6277e+08,5,5807,5885,15.8,3.38,27,56,0,0
3.2261e+05,1.6287e+08,5,5817,4871,16.33,0.76,27,56,0,0
3.2306e+05,1.6299e+08,5,4763,3642,16.01,1.09,27,56,0,0
3.235e+05,1.6309e+08,5,3618,2700,16.29,0.17,27,56,0,0
3.2399e+05,1.6321e+08,5,2709,2814,16.25,0.49,27,56,0,0
3.2439e+05,1.6331e+08,5,2811,2757,16.25,0.26,27,56,0,0
3.2484e+05,1.6342e+08,5,2745,2614,16.26,0.37,27,56,0,0
3.253e+05,1.6354e+08,5,2628,2728,16.26,0.5,27,56,0,0
3.257e+05,1.6363e+08,5,2725,2657,16.27,0.34,27,56,0,0
3.2614e+05,1.6374e+08,5,2657,2671,16.26,0.4,27,56,0,0
3.2699e+05,1.6396e+08,5,2670,2657,16.29,0.4,27,56,0,0
3.2748e+05,1.6407e+08,5,2657,2671,16.25,0.41,27,56,0,0
3.2793e+05,1.6419e+08,5,2673,2700,16.27,0.44,27,56,0,0
3.2838e+05,1.643e+08,5,2697,2671,16.29,0.37,27,56,0,0
3.2878e+05,1.644e+08,5,2671,2671,16.29,0.38,27,56,0,0
3.2923e+05,1.645e+08,5,2671,2671,16.29,0.44,27,56,0,0
3.3013e+05,1.6472e+08,5,2672,2814,16.32,0.43,27,56,0,0
3.3057e+05,1.6483e+08,5,2814,2814,16.27,0.48,27,56,0,0
3.3102e+05,1.6494e+08,5,2814,2814,16.3,0.43,27,56,0,0
3.3146e+05,1.6504e+08,5,2782,2171,16.39,0.04,27,56,0,0
3.3191e+05,1.6515e+08,5,2129,1671,16.38,0,27,56,0,0
3.3236e+05,1.6526e+08,5,1652,1385,16.37,0.06,26,56,0,0
3.3277e+05,1.6536e+08,5,1384,1342,16.36,0.09,26,56,0,0
3.3326e+05,1.6548e+08,5,1341,1328,16.36,0.1,27,56,0,0
3.3374e+05,1.6559e+08,5,1328,1328,16.37,0.1,26,56,0,0
3.3419e+05,1.657e+08,5,1328,1328,16.37,0.1,26,56,0,0
3.3464e+05,1.6581e+08,5,1328,1328,16.38,0.1,26,56,0,0
3.3505e+05,1.6591e+08,5,1328,1328,16.38,0.1,26,56,0,0
3.3549e+05,1.6602e+08,5,1328,1328,16.38,0.1,26,56,0,0
3.3594e+05,1.6613e+08,5,1328,1328,16.38,0.09,26,56,0,0
3.3639e+05,1.6624e+08,5,1327,1314,16.38,0.1,26,56,0,0
3.3683e+05,1.6635e+08,5,1314,1314,16.39,0.1,26,56,0,0
3.3728e+05,1.6645e+08,5,1315,1328,16.39,0.1,26,56,0,0
3.3769e+05,1.6656e+08,5,1305,714,16.41,0.02,26,56,0,0
3.3818e+05,1.6667e+08,5,669,257,16.41,0,26,56,0,0
3.3863e+05,1.6677e+08,5,246,0,16.41,0.02,26,56,0,0
3.3913e+05,1.6689e+08,5,0,0,16.41,0.02,26,56,0,0
3.3958e+05,1.67e+08,5,0,0,16.41,0.02,26,56,0,0
3.4003e+05,1.6711e+08,5,0,0,16.41,0.02,26,56,0,0
3.4048e+05,1.6722e+08,5,0,0,16.42,0.02,26,56,0,0
3.4094e+05,1.6732e+08,5,0,0,16.42,0.02,26,56,0,0
3.4138e+05,1.6743e+08,5,0,0,16.42,0.02,26,56,0,0
3.4184e+05,1.6754e+08,5,0,0,16.42,0.02,26,56,0,0
3.4229e+05,1.6764e+08,5,0,0,16.42,0.03,26,56,0,0
3.4274e+05,1.6775e+08,5,0,0,16.42,0.03,26,56,0,0
3.4319e+05,1.6786e+08,5,0,0,16.42,0.03,26,56,0,0
3.4369e+05,1.6797e+08,5,0,0,16.42,0.03,26,56,0,0
3.4414e+05,1.6808e+08,5,0,0,16.43,0.03,26,56,0,0
3.4464e+05,1.682e+08,5,0,0,16.44,0.02,26,56,0,0
3.4509e+05,1.683e+08,5,0,0,16.43,0.02,26,56,0,0
3.4558e+05,1.6841e+08,5,0,0,16.44,0.02,26,56,0,0
3.4604e+05,1.6852e+08,5,0,0,16.44,0.02,26,56,0,0
3.4648e+05,1.6863e+08,5,0,0,16.44,0.02,26,56,0,0
3.4694e+05,1.6873e+08,5,0,0,16.44,0.03,26,56,0,0
3.4739e+05,1.6884e+08,5,0,0,16.45,0.03,26,56,0,0
3.4792e+05,1.6896e+08,5,0,0,16.45,0.03,26,56,0,0
3.4837e+05,1.6907e+08,5,0,0,16.44,0.03,26,56,0,0
3.4882e+05,1.6917e+08,5,0,0,16.45,0.03,26,56,0,0
3.4927e+05,1.6928e+08,5,0,0,16.45,0.03,26,56,0,0
3.4976e+05,1.6939e+08,5,0,0,16.45,0.03,26,56,0,0
3.5022e+05,1.695e+08,5,0,0,16.45,0.03,26,56,0,0
3.5067e+05,1.6961e+08,5,0,0,16.45,0.03,26,56,0,0
3.5112e+05,1.6971e+08,5,0,0,16.45,0.03,26,56,0,0
3.5161e+05,1.6982e+08,5,0,0,16.45,0.03,26,56,0,0
3.5207e+05,1.6993e+08,5,0,0,16.45,0.03,26,56,0,0
3.5252e+05,1.7004e+08,5,0,0,16.45,0.02,26,56,0,0
3.5301e+05,1.7015e+08,5,0,0,16.45,0.03,26,56,0,0
3.5346e+05,1.7026e+08,5,0,0,16.45,0.03,26,56,0,0
3.5387e+05,1.7036e+08,5,0,0,16.46,0.03,26,56,0,0
3.5433e+05,1.7047e+08,5,0,0,16.46,0.03,26,56,0,0
3.5474e+05,1.7057e+08,5,0,0,16.47,0.03,26,56,0,0
3.5524e+05,1.7068e+08,5,0,0,16.47,0.02,25,56,0,0
3.5568e+05,1.7079e+08,5,0,0,16.47,0.02,26,56,0,0
3.5618e+05,1.709e+08,5,0,0,16.47,0.02,26,56,0,0
3.5663e+05,1.7101e+08,5,0,0,16.47,0.02,26,56,0,0
3.5713e+05,1.7112e+08,5,0,0,16.47,0.02,26,56,0,0
3.5757e+05,1.7122e+08,5,0,0,16.47,0.02,26,56,0,0
3.5802e+05,1.7133e+08,5,0,0,16.47,0.02,26,56,0,0
3.5848e+05,1.7144e+08,5,0,0,16.47,0.02,26,56,0,0
3.5893e+05,1.7154e+08,5,0,0,16.47,0.02,26,56,0,0
3.5943e+05,1.7166e+08,5,0,0,16.47,0.02,25,56,0,0
3.5984e+05,1.7176e+08,5,0,0,16.47,0.02,25,56,0,0
3.6033e+05,1.7187e+08,5,0,0,16.47,0.03,25,56,0,0
3.6078e+05,1.7198e+08,5,0,0,16.48,0.03,25,56,0,0
3.6124e+05,1.7209e+08,5,0,0,16.48,0.03,25,56,0,0
3.6173e+05,1.7221e+08,5,0,0,16.48,0.03,25,56,0,0
3.6218e+05,1.7231e+08,5,0,0,16.48,0.03,25,56,0,0
3.6264e+05,1.7242e+08,5,0,0,16.48,0.02,25,56,0,0
3.6314e+05,1.7254e+08,5,0,0,16.48,0.02,25,56,0,0
3.6354e+05,1.7264e+08,5,0,0,16.48,0.03,25,56,0,0
