LineNo,TimeUS,I,GyrX,GyrY,GyrZ,AccX,AccY,AccZ,EG,EA,T,GH,AH,GHz,AHz
183,33256349,1,-0.003823026,0.003455658,-0.003035119,-0.4083094,-0.1710509,-9.800917999999999,0,0,41.37292,1,1,755,998
214,33259140,1,-0.008572076,-0.0003926846,-0.003119276,-0.3935282,-0.1571523,-9.745734000000001,0,0,41.37292,1,1,755,998
290,33285681,1,0.001123503,0.004804539,0.009664305,-0.5658157,0.01090206,-9.697725,0,0,41.37389,1,1,755,998
406,33309404,1,-0.004226845,0.007739619,-0.002286031,-0.3953493,-0.1248961,-9.761081000000001,0,0,41.37529,1,1,755,998
521,33334855,1,-0.004628555,0.002254855,0.003079588,-0.450282,-0.1778354,-9.847568000000001,0,0,41.37626,1,1,755,998
552,33337667,1,-0.005898794,0.002010435,0.002963765,-0.4572645,-0.2037831,-9.819827999999999,0,0,41.37626,1,1,755,998
632,33358133,1,0.002541061,0.0013778,0.002102974,-0.4921028,-0.1531921,-9.620092,0,0,41.37723,1,1,755,998
748,33384900,1,0.003581391,0.005710373,0.003593629,-0.505394,-0.1023066,-9.643687999999999,0,0,41.37805,1,1,755,998
863,33405910,1,-0.005750894,-0.000550209,-0.01293025,-0.4670881,-0.1957813,-9.610721,0,0,41.3788,1,1,755,998
979,33436545,1,-4.138783e-05,8.996719e-05,0.003305553,-0.4860337,-0.1087518,-9.636274999999999,0,0,41.37982,1,1,755,998
1010,33439609,1,-0.001192342,0.002008818,0.0008387675,-0.4748436,-0.1178898,-9.589883,0,0,41.37982,1,1,755,998
1090,33476225,1,0.001526719,0.01048385,0.001854662,-0.452309,-0.1881908,-9.625011000000001,0,0,41.38091,1,1,755,998
1205,33569561,1,0.004623181,0.0006090266,0.0008601427,-0.4256979,-0.2340672,-9.683234000000001,0,0,41.38383,1,1,755,998
1297,33614185,1,-0.004434654,0.001065145,-0.003510966,-0.4519477,-0.110805,-9.564829,0,0,41.3852,1,1,755,998
1328,33617187,1,0.002116475,0.001035685,-0.001236463,-0.4769868,-0.1298962,-9.646927,0,0,41.38554,1,1,755,998
1389,33633490,1,0.001357996,0.0009841559000000001,0.0004158201,-0.5064949,-0.1477582,-9.778476,0,0,41.38587,1,1,755,998
1482,33648343,1,0.000836061,0.002468474,-0.001876648,-0.5001451,-0.14384,-9.750259,0,0,41.3862,1,1,755,998
1567,33653495,1,-0.001643365,0.003354226,-0.004053243,-0.4398353,-0.1137019,-9.803789999999999,0,0,41.38652,1,1,755,998
1571,33660692,1,0.002304694,0.002022379,-0.002969777,-0.4029822,-0.0913064,-9.808555,0,0,41.38685,1,1,755,998
1605,33663202,1,0.003762181,0.001064212,-0.003081476,-0.3849737,-0.1022056,-9.812466000000001,0,0,41.38685,1,1,755,998
1608,33666092,1,0.004767694,0.001345097,-0.002549743,-0.3740299,-0.1040494,-9.799922,0,0,41.38685,1,1,755,998
1612,33668580,1,0.004826542,0.002101142,-0.001280055,-0.3686167,-0.09890728,-9.782208000000001,0,0,41.38685,1,1,755,998
1617,33670677,1,0.006641102,0.0003445062,0.0002447514,-0.3686753,-0.0966045,-9.766138,0,0,41.38685,1,1,755,998
1648,33673388,1,0.007891329000000001,-0.002176037,0.002430072,-0.3622953,-0.1039858,-9.741719,0,0,41.3872,1,1,755,998
1651,33675790,1,0.008669948,-0.001894918,0.005532041,-0.3564986,-0.1170583,-9.731984000000001,0,0,41.3872,1,1,755,998
1655,33679635,1,0.007208063,-0.001953512,0.005507424,-0.3438591,-0.1411517,-9.696064,0,0,41.3872,1,1,755,998
1658,33682560,1,0.006128243,-0.001957836,0.003327461,-0.351119,-0.1638592,-9.662808999999999,0,0,41.3872,1,1,755,998
1661,33684093,1,0.002906592,-0.001404977,0.0007929362,-0.3525517,-0.1604977,-9.654139000000001,0,0,41.38757,1,1,755,998
1692,33686552,1,6.459695e-05,0.0006015041,-0.003068611,-0.3655508,-0.1438292,-9.683987,0,0,41.38757,1,1,755,998
1695,33690092,1,-0.0003281056,0.001064321,-0.003254066,-0.3794582,-0.1374344,-9.700324,0,0,41.38757,1,1,755,998
1698,33691828,1,0.001035949,0.001285448,-0.001266312,-0.3833503,-0.1351209,-9.702527999999999,0,0,41.38757,1,1,755,998
1701,33694775,1,0.004524144,0.0003621038,0.002417278,-0.3758728,-0.1324083,-9.700027,0,0,41.38796,1,1,755,998
1732,33697134,1,0.003767033,-0.001029031,0.006360803,-0.3610403,-0.1338965,-9.712757999999999,0,0,41.38796,1,1,755,998
1736,33700395,1,-0.001397815,-0.0008287841,0.008677359000000001,-0.3553684,-0.1509972,-9.720734,0,0,41.38796,1,1,755,998
1739,33702312,1,-0.003167439,0.0006389864000000001,0.00766571,-0.3546557,-0.189924,-9.708399999999999,0,0,41.38796,1,1,755,998
1742,33704868,1,-0.00267478,0.001800468,0.006272323,-0.3601362,-0.2214178,-9.689551,0,0,41.38837,1,1,755,998
1773,33707622,1,-0.002736149,0.005374219,0.001526,-0.3660682,-0.2569648,-9.66025,0,0,41.38837,1,1,755,998
1776,33709795,1,-0.003121778,0.005760491,9.081157999999999e-05,-0.3619198,-0.2708134,-9.640399,0,0,41.38837,1,1,755,998
1779,33712606,1,-0.005767811,0.007505919,-0.001681464,-0.35723,-0.2847376,-9.627817,0,0,41.38837,1,1,755,998
1782,33714889,1,-0.007054484,0.008690882,-0.001742721,-0.3636155,-0.2829218,-9.62716,0,0,41.38837,1,1,755,998
1813,33717202,1,-0.0081326,0.009182523999999999,-0.001415648,-0.394641,-0.2722761,-9.644587,0,0,41.38879,1,1,755,998
1817,33719728,1,-0.006369039,0.00712865,0.0008631818,-0.4222401,-0.2621416,-9.674752,0,0,41.38879,1,1,755,998
1824,33722816,1,-0.003119524,0.005083431,0.001355296,-0.4490602,-0.2422646,-9.719670000000001,0,0,41.38879,1,1,755,998
1829,33725834,1,-0.002452117,0.003973165,-0.001699473,-0.4553525,-0.231426,-9.725158,0,0,41.38879,1,1,755,998
1860,33728784,1,-0.0009532163,-0.0007632048999999999,-0.0004004903,-0.4937149,-0.2236316,-9.722693,0,0,41.38924,1,1,755,998
1863,33730684,1,-0.002816038,-0.002859245,0.002056776,-0.5235932,-0.230671,-9.698947,0,0,41.38924,1,1,755,998
1866,33733210,1,-0.004471072,-0.002931427,0.002422343,-0.5332233,-0.2324015,-9.675205,0,0,41.38924,1,1,755,998
1869,33736125,1,-0.005293272,-0.00133859,0.0009483051,-0.5324612,-0.2247759,-9.651861999999999,0,0,41.38924,1,1,755,998
1900,33738613,1,-0.003648821,0.002861033,-0.0003044202,-0.5135485,-0.2052175,-9.631746,0,0,41.3897,1,1,755,998
1904,33741152,1,-0.003857019,0.003606906,-0.001574833,-0.4862511,-0.1840436,-9.637634,0,0,41.3897,1,1,755,998
1907,33743892,1,-0.001881085,0.002798894,-0.004171349,-0.4635295,-0.1730089,-9.647497,0,0,41.3897,1,1,755,998
1910,33746497,1,9.607755999999999e-05,0.003560134,-0.004748011,-0.4271679,-0.1538221,-9.681315,0,0,41.3897,1,1,755,998
1941,33749116,1,-0.002477389,0.002024989,-0.00385883,-0.4047842,-0.1325005,-9.704931999999999,0,0,41.39018,1,1,755,998
1944,33751801,1,-0.005136703,0.0003794656,-0.002147349,-0.4040179,-0.1266672,-9.724918000000001,0,0,41.39018,1,1,755,998
1948,33753598,1,-0.005272976,0.0005005682999999999,-0.0007649442,-0.4075764,-0.1231928,-9.740465,0,0,41.39018,1,1,755,998
1951,33755900,1,-0.001450413,0.002788964,-0.00161195,-0.4056549,-0.1150413,-9.759198,0,0,41.39018,1,1,755,998
1982,33758356,1,-0.0007096715,0.003906699,-0.003503419,-0.4049909,-0.109009,-9.759131999999999,0,0,41.39018,1,1,755,998
1986,33764650,1,-0.001228698,0.001011686,-0.004321356,-0.3949867,-0.1011754,-9.738706000000001,0,0,41.39067,1,1,755,998
1989,33766844,1,-0.002201475,-0.001141819,-0.003619849,-0.3910241,-0.1031886,-9.735106,0,0,41.39067,1,1,755,998
2020,33769084,1,-0.005159356,-0.003734781,-0.007020431,-0.3978262,-0.1171429,-9.732783,0,0,41.39067,1,1,755,998
2024,33772094,1,-0.007103176,-0.003439453,-0.008762667999999999,-0.409583,-0.1318728,-9.730828000000001,0,0,41.39118,1,1,755,998
2027,33774200,1,-0.008291425,-0.002145825,-0.009401121,-0.4342415,-0.1569093,-9.716742,0,0,41.39118,1,1,755,998
2030,33776920,1,-0.006145459,-0.003371186,-0.005070761,-0.4548696,-0.1690356,-9.700846,0,0,41.39118,1,1,755,998
2061,33779903,1,-0.001926199,-0.004619896,-0.001393694,-0.4674441,-0.1646978,-9.704015999999999,0,0,41.39118,1,1,755,998
2064,33781579,1,0.001283779,-0.003690228,-0.0008408952,-0.4661722,-0.1506798,-9.711615999999999,0,0,41.39171,1,1,755,998
2067,33784690,1,0.002528324,-0.003607791,-0.001030129,-0.4644844,-0.1258602,-9.731686,0,0,41.39171,1,1,755,998
2070,33786662,1,0.002967519,-0.003495176,-0.00094904,-0.4679236,-0.1042679,-9.739136,0,0,41.39171,1,1,755,998
2101,33789346,1,0.002382421,0.001254377,-0.0008568295,-0.4727816,-0.07095256,-9.732684000000001,0,0,41.39171,1,1,755,998
2105,33793128,1,0.001545444,0.003066364,0.0003832636,-0.4729859,-0.05664497,-9.729304000000001,0,0,41.39171,1,1,755,998
2108,33795056,1,0.001115494,0.003185771,0.003036187,-0.4770688,-0.04798488,-9.713319,0,0,41.39224,1,1,755,998
2111,33797208,1,0.00166461,0.00286114,0.003885409,-0.465625,-0.04487244,-9.710051,0,0,41.39224,1,1,755,998
2142,33799538,1,0.001927078,0.002702898,0.005094854,-0.4570601,-0.04477056,-9.706272,0,0,41.39224,1,1,755,998
2145,33802115,1,0.001840062,0.001813882,0.006892474,-0.459799,-0.07826602000000001,-9.706868999999999,0,0,41.39224,1,1,755,998
2149,33805099,1,0.001082231,0.001844228,0.005954457,-0.4674254,-0.1001982,-9.702434999999999,0,0,41.39274,1,1,755,998
2152,33807579,1,-0.0005672679,-0.0004721204,0.004362017,-0.4920177,-0.09837151,-9.702748,0,0,41.39274,1,1,755,998
2183,33810095,1,7.30467e-05,-0.002994619,-0.0002349863,-0.5009806,-0.08021598000000001,-9.712173999999999,0,0,41.39274,1,1,755,998
2187,33812652,1,0.0006424282,-0.002327641,-0.0009434254,-0.5052720000000001,-0.07338404,-9.715132000000001,0,0,41.39274,1,1,755,998
2190,33815146,1,0.0003598348,-0.0009930170999999999,-0.001315708,-0.5066971,-0.08197396,-9.708504,0,0,41.39319,1,1,755,998
2193,33817663,1,0.002645642,-0.00155378,-0.001785633,-0.4999393,-0.09795668,-9.704216000000001,0,0,41.39319,1,1,755,998
2224,33820663,1,0.006708612,-0.0006735449,-0.001464446,-0.4872325,-0.1160973,-9.685034999999999,0,0,41.39319,1,1,755,998
2227,33822793,1,0.007905629000000001,0.00028126,0.001619186,-0.4760453,-0.1126235,-9.691901,0,0,41.39319,1,1,755,998
2234,33825357,1,0.004433033,0.001847921,0.004695859,-0.4624565,-0.1011834,-9.703709999999999,0,0,41.3936,1,1,755,998
2237,33827629,1,0.002649835,0.00218913,0.005347947,-0.4483187,-0.1000758,-9.700004,0,0,41.3936,1,1,755,998
2268,33830647,1,-0.0006205803,-0.002035753,0.005912903,-0.4304607,-0.1112205,-9.696407000000001,0,0,41.3936,1,1,755,998
2272,33832900,1,-0.001502249,-0.003459989,0.005790052,-0.4274134,-0.1236175,-9.692824,0,0,41.3936,1,1,755,998
2275,33835694,1,-0.001674176,-0.004050369,0.003824152,-0.4398097,-0.1466987,-9.681936,0,0,41.3936,1,1,755,998
2278,33837598,1,0.0009449235,-0.001215517,0.0006216054,-0.4521277,-0.1501777,-9.675461,0,0,41.39397,1,1,755,998
2309,33840022,1,0.002962986,0.002080514,-0.001848827,-0.4584177,-0.1379148,-9.681803,0,0,41.39397,1,1,755,998
2316,33842915,1,0.004288427,0.004678256,-0.003509243,-0.459262,-0.1325406,-9.685157,0,0,41.39397,1,1,755,998
2319,33845370,1,0.003935782,0.005045856,-0.002370422,-0.4562141,-0.1322929,-9.677555999999999,0,0,41.39397,1,1,755,998
2323,33847380,1,0.002585649,0.002610399,0.0002333596,-0.4622412,-0.1363814,-9.670629999999999,0,0,41.39431,1,1,755,998
2354,33850212,1,-0.0004719802,0.002687431,0.0008732836,-0.4726642,-0.1399617,-9.658993000000001,0,0,41.39431,1,1,755,998
2357,33852333,1,-0.001738324,0.003108843,7.431883000000001e-05,-0.4774899,-0.1312854,-9.65127,0,0,41.39431,1,1,755,998
2360,33855171,1,-0.002002932,0.00720555,-0.005661782,-0.4897264,-0.1246516,-9.626063,0,0,41.39431,1,1,755,998
2363,33858845,1,-0.001193149,0.008428819000000001,-0.00703754,-0.4966791,-0.1159975,-9.620091,0,0,41.39431,1,1,755,998
2366,33860873,1,-0.0003952853,0.009518567,-0.00634607,-0.5090479999999999,-0.09459919,-9.628078,0,0,41.3946,1,1,755,998
2398,33863185,1,-0.0001040696,0.008224429,-0.001459048,-0.5114862,-0.07168679999999999,-9.625372,0,0,41.3946,1,1,755,998
2401,33865888,1,0.001213376,0.006159658,0.001635318,-0.5097598,-0.05792588,-9.621782,0,0,41.3946,1,1,755,998
2404,33869278,1,0.001684305,0.005602592,0.002788841,-0.5099074,-0.06013524,-9.613293000000001,0,0,41.3946,1,1,755,998
2407,33872155,1,0.002182606,0.005085988,0.001459992,-0.5066039,-0.07239221999999999,-9.607021,0,0,41.39486,1,1,755,998
2438,33874506,1,-0.001062172,0.003691226,-0.002769456,-0.4879411,-0.1062605,-9.611534000000001,0,0,41.39486,1,1,755,998
2442,33877287,1,-0.004283666,0.004050481,-0.004970815,-0.4838969,-0.1313214,-9.626087999999999,0,0,41.39486,1,1,755,998
2445,33880285,1,-0.004997205,0.0006451598999999999,-0.001466512,-0.4824242,-0.1407166,-9.647482,0,0,41.39486,1,1,755,998
2448,33882205,1,-0.004831509,-0.005341969,0.002733422,-0.483174,-0.1483696,-9.693503,0,0,41.39508,1,1,755,998
2479,33885566,1,-0.004322003,-0.006052385,0.00187406,-0.4814486,-0.1526074,-9.716168,0,0,41.39508,1,1,755,998
2482,33887081,1,-0.003084821,-0.002670142,-0.001853298,-0.4792798,-0.1575897,-9.713441,0,0,41.39508,1,1,755,998
2485,33890282,1,-0.002140337,-0.0001894941,-0.003984609,-0.4829907,-0.1702073,-9.711747000000001,0,0,41.39508,1,1,755,998
2488,33891833,1,0.0004251595,0.00447697,-0.008373547,-0.4935353,-0.1840543,-9.697884999999999,0,0,41.39531,1,1,755,998
2519,33894792,1,0.0006844436,0.00559569,-0.009151166000000001,-0.4929702,-0.1829364,-9.682893,0,0,41.39531,1,1,755,998
2525,33897101,1,-3.566677e-05,0.006247396,-0.007396283,-0.4894947,-0.1873243,-9.658488999999999,0,0,41.39531,1,1,755,998
2528,33899843,1,-0.001019223,0.002808016,-0.003879346,-0.4952894,-0.1843887,-9.638838,0,0,41.39531,1,1,755,998
2531,33902637,1,-0.0013169,0.001691778,-0.003217108,-0.5036838,-0.1626855,-9.623391,0,0,41.39553,1,1,755,998
2562,33905497,1,-0.0006462185,0.004641494,-0.00341304,-0.5001910000000001,-0.1522388,-9.643322,0,0,41.39553,1,1,755,998
2565,33907581,1,0.0003650755,0.003514984,-0.00219012,-0.5028909,-0.1449942,-9.654351,0,0,41.39553,1,1,755,998
2568,33910240,1,-0.0004855824,0.001886086,0.001397201,-0.5099631999999999,-0.1277403,-9.667787000000001,0,0,41.39553,1,1,755,998
2571,33912343,1,-0.001406863,0.001648764,0.004044676,-0.51117,-0.1214105,-9.672836,0,0,41.39553,1,1,755,998
2602,33915662,1,-0.001646259,0.0009973642,0.003558021,-0.5198328,-0.1042736,-9.673451999999999,0,0,41.39575,1,1,755,998
2606,33917868,1,0.0006050093,0.002070631,0.003242717,-0.5288531,-0.09203689,-9.663936,0,0,41.39575,1,1,755,998
2609,33920272,1,0.001676822,0.003401229,0.002998707,-0.5240624,-0.08632636,-9.660309,0,0,41.39575,1,1,755,998
2612,33922634,1,0.00138259,0.004669222,0.002416247,-0.5093014,-0.09185603000000001,-9.676681,0,0,41.39575,1,1,755,998
2643,33925095,1,-0.0004924122,0.007022042,0.0004948056,-0.4865639,-0.1104343,-9.7159,0,0,41.39596,1,1,755,998
2650,33928533,1,-0.004135909,0.005803485,-0.002600764,-0.4811894,-0.11987,-9.737569000000001,0,0,41.39596,1,1,755,998
2655,33930635,1,-0.00646433,0.004349968,-0.0066954,-0.4734587,-0.1381051,-9.758058,0,0,41.39596,1,1,755,998
2658,33932547,1,-0.003697976,0.002907399,-0.00573292,-0.4683471,-0.1402486,-9.758827,0,0,41.39596,1,1,755,998
2689,33935789,1,0.00113352,0.0004751105,-0.001794143,-0.4690564,-0.1423973,-9.741158,0,0,41.39618,1,1,755,998
2692,33937849,1,0.004423639,0.0006318857999999999,0.001681419,-0.4626807,-0.144036,-9.722744,0,0,41.39618,1,1,755,998
2695,33940223,1,0.00394579,0.001439081,0.002544226,-0.4387658,-0.1407284,-9.691361000000001,0,0,41.39618,1,1,755,998
2698,33943143,1,0.003050328,0.001936974,0.002723751,-0.4257387,-0.1417918,-9.662646000000001,0,0,41.39618,1,1,755,998
2729,33945755,1,0.001985332,0.002551146,0.002432559,-0.4280111,-0.1658626,-9.607588,0,0,41.39618,1,1,755,998
2733,33948118,1,0.00250972,0.001376254,-0.0001252629,-0.4498544,-0.1931843,-9.548788999999999,0,0,41.39643,1,1,755,998
2736,33950761,1,0.001807834,0.00111967,-0.0004973856,-0.4659193,-0.1975956,-9.531741999999999,0,0,41.39643,1,1,755,998
2739,33953479,1,-0.001226644,-0.0008013358,-9.883759e-05,-0.486047,-0.1902106,-9.515428999999999,0,0,41.39643,1,1,755,998
2770,33956180,1,-7.562567e-05,-0.001023545,-0.001059651,-0.4834557,-0.1830861,-9.516928999999999,0,0,41.39643,1,1,755,998
2774,33958541,1,0.0003037925,-0.0012911,-0.001702721,-0.4797597,-0.1823364,-9.521430000000001,0,0,41.39669,1,1,755,998
2777,33960801,1,0.001546037,0.002217617,-0.001898492,-0.4714542,-0.1699422,-9.524476999999999,0,0,41.39669,1,1,755,998
2780,33963321,1,0.001656256,0.004611111,0.0008421657,-0.4657422,-0.1611772,-9.527051,0,0,41.39669,1,1,755,998
2811,33966904,1,-0.001024697,0.004231992,0.003747675,-0.4655398,-0.1657616,-9.513726,0,0,41.39669,1,1,755,998
2815,33969178,1,-0.0009464988,0.002213391,0.002362752,-0.471888,-0.1701351,-9.503363,0,0,41.39697,1,1,755,998
2818,33971191,1,0.0001538975,-0.001523625,-0.000453271,-0.4817384,-0.167169,-9.495279,0,0,41.39697,1,1,755,998
2821,33973287,1,-0.0003244384,-0.001504496,-0.002187619,-0.484211,-0.1646821,-9.500844000000001,0,0,41.39697,1,1,755,998
2852,33975856,1,1.299463e-05,0.001774632,-0.001822445,-0.4946402,-0.1499533,-9.525397999999999,0,0,41.39697,1,1,755,998
2855,33979273,1,0.001991548,0.004912911,0.0001929539,-0.5084807,-0.1385795,-9.544782,0,0,41.39697,1,1,755,998
2858,33981336,1,0.004733437,0.006649334,0.002384861,-0.5277018999999999,-0.1198717,-9.568521,0,0,41.39726,1,1,755,998
2861,33983532,1,0.005653619,0.007177108,0.002692729,-0.5307883,-0.1183345,-9.569623,0,0,41.39726,1,1,755,998
2892,33985839,1,0.003758028,0.005432511,0.003675219,-0.5261323999999999,-0.1426021,-9.557147000000001,0,0,41.39726,1,1,755,998
2896,33988497,1,0.001605631,0.004855743,0.003635848,-0.5209825,-0.1562506,-9.560468,0,0,41.39726,1,1,755,998
2899,33991771,1,-0.0001314598,0.004963559,0.0009884347999999999,-0.5111343,-0.1637326,-9.576217,0,0,41.39755,1,1,755,998
2902,33996113,1,0.003841859,0.006444815,-0.002889722,-0.5154334,-0.1847836,-9.65226,0,0,41.39755,1,1,755,998
2933,33998601,1,0.00321444,0.005783897,-0.002073626,-0.5285721,-0.1996813,-9.70383,0,0,41.39755,1,1,755,998
2936,34001183,1,0.001883976,0.005848511,-0.001448875,-0.5257227,-0.2003016,-9.729730999999999,0,0,41.39783,1,1,755,998
2939,34004304,1,0.0006520607,0.007725831,0.0004737609,-0.5165458000000001,-0.2028414,-9.752915,0,0,41.39783,1,1,755,998
2944,34006634,1,0.0008605733,0.007648588,0.003353924,-0.515807,-0.1994145,-9.752393,0,0,41.39783,1,1,755,998
2976,34008884,1,-0.0009140929,0.005912683,0.00687065,-0.512453,-0.1940029,-9.751117000000001,0,0,41.39783,1,1,755,998
2979,34011352,1,-0.002476684,0.004947547,0.008064919,-0.5029274,-0.1906215,-9.746479000000001,0,0,41.39783,1,1,755,998
2982,34013907,1,-0.005746248,0.002957981,0.007544558,-0.4742297,-0.1902874,-9.712552000000001,0,0,41.39813,1,1,755,998
2985,34016874,1,-0.004871948,0.002641524,0.006392994,-0.4528834,-0.193391,-9.682506999999999,0,0,41.39813,1,1,755,998
3016,34019629,1,-0.001715443,0.002192831,0.002749209,-0.437007,-0.2114533,-9.667555999999999,0,0,41.39813,1,1,755,998
3020,34021881,1,-0.001211037,0.002192463,0.0008052114,-0.4378018,-0.2298516,-9.650833,0,0,41.39813,1,1,755,998
3023,34024237,1,-0.001279193,0.001573218,-0.0004610937,-0.4437219,-0.2316845,-9.646597,0,0,41.39845,1,1,755,998
3026,34027103,1,-0.00187271,0.001305311,-0.0002682575,-0.4663995,-0.2239309,-9.643027999999999,0,0,41.39845,1,1,755,998
3061,34029927,1,-0.002431111,0.001491079,0.0008033197,-0.488005,-0.2129885,-9.641652000000001,0,0,41.39845,1,1,755,998
3064,34032567,1,-0.003056866,-0.0006513451,0.002540989,-0.5008653,-0.185328,-9.640743000000001,0,0,41.39845,1,1,755,998
3067,34034256,1,-0.004629254,-0.004687374,-0.0006112797,-0.5022351,-0.1674566,-9.646459,0,0,41.39878,1,1,755,998
3070,34037111,1,-0.004750564,-0.005721534,-0.001932754,-0.5000743,-0.1377226,-9.669495,0,0,41.39878,1,1,755,998
3101,34040253,1,-0.003097946,-0.002903298,-0.001960471,-0.4889459,-0.1207026,-9.675513,0,0,41.39878,1,1,755,998
3105,34042504,1,-0.001019398,0.001401367,-0.003378937,-0.4760052,-0.1143309,-9.654256,0,0,41.39878,1,1,755,998
3108,34044567,1,-0.0005527081,0.003290989,-0.00427288,-0.4717464,-0.1202137,-9.639281,0,0,41.39878,1,1,755,998
3111,34046699,1,-0.002483136,0.005289454,-0.001398562,-0.4747625,-0.1397022,-9.629799,0,0,41.39915,1,1,755,998
3142,34049348,1,-0.003601307,0.00517,1.042578e-05,-0.4836891,-0.1569987,-9.633070999999999,0,0,41.39915,1,1,755,998
3145,34052200,1,-0.005580114,0.004368376,0.003203687,-0.4976794,-0.183792,-9.64761,0,0,41.39915,1,1,755,998
3148,34054795,1,-0.004880819,0.002242401,0.005274691,-0.4991065,-0.1913201,-9.662647,0,0,41.39915,1,1,755,998
3151,34056915,1,-0.002589689,-0.0004869087,0.003541581,-0.4840726,-0.1836073,-9.682719000000001,0,0,41.39952,1,1,755,998
3184,34059649,1,-0.001155588,-0.005562435,-9.269909999999999e-05,-0.4733871,-0.1763587,-9.691183000000001,0,0,41.39952,1,1,755,998
3188,34061841,1,-0.00198455,-0.008096809,-0.001478215,-0.4534864,-0.1730271,-9.690867000000001,0,0,41.39952,1,1,755,998
3191,34065623,1,-0.002896744,-0.006188314,-0.0005439965,-0.4422327,-0.1716343,-9.700725,0,0,41.39952,1,1,755,998
3194,34068382,1,-0.001434463,-0.002483912,0.002402069,-0.4393209,-0.1821348,-9.713265,0,0,41.39991,1,1,755,998
3197,34070006,1,-0.00166301,0.003017128,0.00578994,-0.4384587,-0.2005333,-9.716143000000001,0,0,41.39991,1,1,755,998
3228,34072554,1,-0.002208836,0.005854059,0.007889527,-0.4258907,-0.1904654,-9.718106000000001,0,0,41.39991,1,1,755,998
3231,34075731,1,-0.002180001,0.005293354,0.008180747,-0.3985363,-0.1569719,-9.724095999999999,0,0,41.39991,1,1,755,998
3234,34077363,1,-0.001903777,0.004112486,0.008338026,-0.3889065,-0.133487,-9.718636999999999,0,0,41.39991,1,1,755,998
3237,34080321,1,-0.0007320968,-0.0005069209,0.008021653,-0.3962821,-0.1130337,-9.690538,0,0,41.40031,1,1,755,998
3268,34082904,1,0.001614468,-0.001898731,0.007937204999999999,-0.4081007,-0.09120652,-9.668132,0,0,41.40031,1,1,755,998
3273,34085553,1,0.002468096,-0.002046009,0.006747833,-0.4252698,-0.08213263,-9.654253000000001,0,0,41.40031,1,1,755,998
3276,34088125,1,0.002509082,0.002771893,0.000940957,-0.4659459,-0.07574394,-9.657731999999999,0,0,41.40031,1,1,755,998
3279,34090605,1,0.002378645,0.005171943,0.0006561035,-0.4985121,-0.08420508,-9.671685999999999,0,0,41.40073,1,1,755,998
3313,34093728,1,0.00226166,0.007527696,0.001070706,-0.5451459,-0.09741075,-9.677643,0,0,41.40073,1,1,755,998
3317,34095522,1,0.001521192,0.007850698,0.001836962,-0.5647858,-0.09101484999999999,-9.672333999999999,0,0,41.40073,1,1,755,998
3320,34097787,1,-0.001541166,0.006860106,0.002768512,-0.570168,-0.08919133,-9.650998,0,0,41.40073,1,1,755,998
3324,34100834,1,-0.00501082,0.005974442,0.0009641553,-0.566066,-0.09770215,-9.645701000000001,0,0,41.40117,1,1,755,998
3355,34103668,1,-0.005219577,0.005487331,-0.001243173,-0.5429742,-0.1258831,-9.668089,0,0,41.40117,1,1,755,998
3358,34105844,1,-0.003030118,0.005417229,-0.001131827,-0.5241957,-0.1487281,-9.685575,0,0,41.40117,1,1,755,998
3361,34108327,1,0.0002455035,0.0055974,-0.001361255,-0.5044805,-0.1896644,-9.701765999999999,0,0,41.40117,1,1,755,998
3364,34111203,1,0.000861992,0.00525721,-0.001612495,-0.4902816,-0.2117129,-9.700473000000001,0,0,41.40117,1,1,755,998
3395,34113474,1,-0.0007481929,0.004277532,-0.002906527,-0.4916117,-0.2312137,-9.692254,0,0,41.40163,1,1,755,998
3399,34116628,1,-0.0003346066,0.004120799,-0.003962091,-0.5114811,-0.2404771,-9.678727,0,0,41.40163,1,1,755,998
3402,34118813,1,0.0004892905,0.003981431,-0.003897686,-0.5253342,-0.2295374,-9.680932,0,0,41.40163,1,1,755,998
3405,34121332,1,0.0009453411,0.006644253,-0.001174738,-0.538794,-0.1967754,-9.713957000000001,0,0,41.40163,1,1,755,998
3436,34124196,1,0.0005406897,0.007106433,-0.002201825,-0.5471659,-0.1692918,-9.765746999999999,0,0,41.40211,1,1,755,998
3439,34126247,1,0.0002748817,0.006534277,-0.002215728,-0.5528785000000001,-0.1560938,-9.797376999999999,0,0,41.40211,1,1,755,998
3442,34128774,1,-0.0009880862000000001,0.00509067,0.0008698726,-0.558131,-0.1478296,-9.826302999999999,0,0,41.40211,1,1,755,998
3449,34131689,1,-0.003982188,0.00501943,0.004572574,-0.5492892,-0.1357156,-9.815828,0,0,41.40211,1,1,755,998
3482,34134815,1,-0.006047008,0.005447423,0.00571781,-0.5360093,-0.1191321,-9.785425999999999,0,0,41.40259,1,1,755,998
3486,34137214,1,-0.005849341,0.005028632,0.005338298,-0.5226218,-0.1057388,-9.765110999999999,0,0,41.40259,1,1,755,998
3489,34139150,1,-0.003687127,0.004646657,0.003415807,-0.5015083,-0.08824447000000001,-9.718824,0,0,41.40259,1,1,755,998
3493,34141624,1,-0.0006920195000000001,0.007107542,-0.0001109828,-0.4982039,-0.07633966,-9.680533,0,0,41.40259,1,1,755,998
3524,34144314,1,0.001529877,0.005829006,0.000115219,-0.5001734,-0.05568955,-9.652810000000001,0,0,41.40306,1,1,755,998
3529,34147506,1,0.003077816,0.002068121,0.000287811,-0.4991138,-0.03728905,-9.655670000000001,0,0,41.40306,1,1,755,998
3532,34149526,1,0.003539098,0.0005317729,-0.0001243851,-0.5037764,-0.02098706,-9.673576000000001,0,0,41.40306,1,1,755,998
3535,34151858,1,0.00220513,-0.0004631087,-0.0003648249,-0.5068677,-0.01795393,-9.69045,0,0,41.40306,1,1,755,998
3566,34154099,1,-0.003099777,-0.001450541,-0.002983056,-0.5100478000000001,-0.02195603,-9.699175,0,0,41.40306,1,1,755,998
3569,34156861,1,-0.003413334,-0.0007194683,-0.003678625,-0.5051290000000001,-0.02369848,-9.680897999999999,0,0,41.40351,1,1,755,998
3572,34159609,1,-0.003051505,0.003445702,-0.00409954,-0.4985951,-0.0336979,-9.647798,0,0,41.40351,1,1,755,998
3575,34161915,1,-0.002095406,0.007257901,-0.003582291,-0.5024812,-0.02830571,-9.640095000000001,0,0,41.40351,1,1,755,998
3606,34164170,1,0.0001272245,0.009416330000000001,-0.000962806,-0.5215392,-0.01714307,-9.652865,0,0,41.40351,1,1,755,998
3610,34166600,1,0.001293242,0.009161613000000001,0.001136387,-0.5258707,-0.01465304,-9.668030999999999,0,0,41.40395,1,1,755,998
3613,34170550,1,0.00251884,0.008674071,0.001297149,-0.5239719,-0.02675704,-9.68507,0,0,41.40395,1,1,755,998
3616,34171694,1,0.003277662,0.008209144999999999,-0.002486936,-0.5144054,-0.05183367,-9.695194000000001,0,0,41.40395,1,1,755,998
3647,34177594,1,-0.002899026,0.003183517,-0.002992559,-0.4891645,-0.09389342000000001,-9.708551,0,0,41.40437,1,1,755,998
3650,34180768,1,-0.002993706,0.002803578,-0.0003574074,-0.4686059,-0.1079513,-9.703034000000001,0,0,41.40437,1,1,755,998
3653,34182142,1,-0.003152272,0.003575249,0.0009839365999999999,-0.45274,-0.1087469,-9.720872,0,0,41.40437,1,1,755,998
3684,34185286,1,-0.00256654,0.002473552,0.0009525393,-0.4263946,-0.1178252,-9.747458,0,0,41.40437,1,1,755,998
3687,34187423,1,-0.0003413841,0.002848966,0.003506231,-0.4083667,-0.1271804,-9.759073000000001,0,0,41.40437,1,1,755,998
3691,34189807,1,0.001111492,0.0008310623,0.007271221,-0.3997471,-0.1395885,-9.782147999999999,0,0,41.40477,1,1,755,998
3694,34192775,1,0.001190222,-0.0005850578,0.007914266,-0.4058692,-0.1381201,-9.799128,0,0,41.40477,1,1,755,998
3725,34195248,1,0.001412974,-0.0009410626,0.004631652,-0.4133605,-0.134658,-9.775575,0,0,41.40477,1,1,755,998
3728,34198176,1,0.0028291,-0.001198914,0.004417269,-0.4126509,-0.143939,-9.745875,0,0,41.40477,1,1,755,998
3732,34200282,1,0.002343694,-0.0007407803,0.00553847,-0.4096057,-0.184504,-9.719315999999999,0,0,41.40516,1,1,755,998
3735,34202806,1,-0.002009142,-0.0009515556,0.00609802,-0.4051667,-0.2054156,-9.723846999999999,0,0,41.40516,1,1,755,998
3766,34205119,1,-0.004940384,-0.004413476,0.006035247,-0.4136162,-0.204532,-9.738709999999999,0,0,41.40516,1,1,755,998
3770,34208020,1,-0.005921096,-0.004488514,0.00434047,-0.4252327,-0.1921205,-9.731386000000001,0,0,41.40516,1,1,755,998
3773,34210591,1,-0.007062975,-0.003657693,0.0005398643,-0.4254153,-0.163155,-9.719802,0,0,41.4055,1,1,755,998
3776,34212827,1,-0.007915106,-0.003217832,-0.001411779,-0.4250112,-0.1412063,-9.708475,0,0,41.4055,1,1,755,998
3807,34215587,1,-0.006212133,0.0007789556,-0.003396448,-0.4274511,-0.1152935,-9.695187000000001,0,0,41.4055,1,1,755,998
3810,34217777,1,-0.004451436,0.001958287,-0.002299543,-0.4321829,-0.1006217,-9.697238,0,0,41.4055,1,1,755,998
3814,34220681,1,-0.0008163191,0.003227079,0.0004174748,-0.4464953,-0.09346761000000001,-9.688777999999999,0,0,41.4055,1,1,755,998
3817,34223135,1,0.0001648918,0.002609822,0.000169991,-0.4536348,-0.08333831,-9.67656,0,0,41.4058,1,1,755,998
3848,34225537,1,-0.0006351052,0.0001007566,-0.002534656,-0.453808,-0.07032807000000001,-9.667246,0,0,41.4058,1,1,755,998
3851,34228603,1,-0.001092439,0.003065335,-0.002683561,-0.445359,-0.06884129,-9.693754999999999,0,0,41.4058,1,1,755,998
3854,34230845,1,-0.0004961755,0.004658097,-0.001001787,-0.4424334,-0.08186789,-9.712949,0,0,41.4058,1,1,755,998
3861,34233372,1,0.0004375222,0.005203675,0.002149152,-0.4364395,-0.1214398,-9.728683,0,0,41.40608,1,1,755,998
3892,34236203,1,-0.001609627,2.437119e-05,0.004021748,-0.4326086,-0.1588255,-9.748888000000001,0,0,41.40608,1,1,755,998
3895,34238575,1,-0.002333728,-0.0003648366,0.003199095,-0.4264504,-0.1742511,-9.74976,0,0,41.40608,1,1,755,998
3899,34241190,1,-0.002192005,-0.0006826751,0.002069693,-0.4155603,-0.2044655,-9.73831,0,0,41.40608,1,1,755,998
3902,34243877,1,-0.0006500316,-0.002215848,0.004118542,-0.4136863,-0.2237166,-9.744725000000001,0,0,41.40635,1,1,755,998
3933,34246613,1,0.0006014894,0.000742241,0.004524533,-0.4297046,-0.2323886,-9.770764,0,0,41.40635,1,1,755,998
3936,34249359,1,0.001493805,0.006783663,0.002802106,-0.4535442,-0.2208571,-9.792427,0,0,41.40635,1,1,755,998
3939,34251626,1,0.001499744,0.008468432,0.001135439,-0.4675085,-0.2045624,-9.796452,0,0,41.40635,1,1,755,998
3942,34254303,1,0.001729239,0.007399455,0.002040881,-0.4752271,-0.1741812,-9.777499000000001,0,0,41.4066,1,1,755,998
3973,34256809,1,-0.0001544237,0.004529345,0.002095488,-0.4710981,-0.1443729,-9.735695,0,0,41.4066,1,1,755,998
3977,34259544,1,-0.004748702,0.001123539,-0.001246557,-0.4730577,-0.1265847,-9.707819000000001,0,0,41.4066,1,1,755,998
3981,34262250,1,-0.005961789,-0.0005535637,-0.003230472,-0.4716791,-0.1201192,-9.690841000000001,0,0,41.4066,1,1,755,998
3984,34264599,1,-0.00319906,-0.0009110707,-0.0008752364,-0.4576954,-0.1460903,-9.674173,0,0,41.4066,1,1,755,998
4015,34268152,1,-0.0007742566,0.001079482,0.002431688,-0.4528885,-0.1898808,-9.650378999999999,0,0,41.40686,1,1,755,998
4018,34269796,1,-0.0009656293,0.004188306,0.003131568,-0.4586312,-0.2304772,-9.623037999999999,0,0,41.40686,1,1,755,998
4021,34272105,1,-0.003057234,0.007059428,0.0002398042,-0.4661776,-0.2457613,-9.615069999999999,0,0,41.40686,1,1,755,998
4024,34277329,1,-0.005855266,0.004565442,-0.002443358,-0.4872376,-0.2646118,-9.628043,0,0,41.40714,1,1,755,998
4055,34280799,1,-0.002305614,0.005256542,-0.004477783,-0.4898638,-0.2355024,-9.640458000000001,0,0,41.40714,1,1,755,998
4059,34282579,1,-0.0003592187,0.005917827,-0.005226421,-0.4842601,-0.2078189,-9.649374999999999,0,0,41.40714,1,1,755,998
4062,34284836,1,4.305361e-06,0.005035597,-0.004909432,-0.4688874,-0.1645304,-9.669504999999999,0,0,41.40714,1,1,755,998
4065,34287794,1,-0.001562286,0.003752623,-0.004631646,-0.4594874,-0.1317666,-9.678184999999999,0,0,41.40742,1,1,755,998
4096,34290674,1,-0.002372614,0.001899455,-0.002700438,-0.441195,-0.08039080999999999,-9.698076,0,0,41.40742,1,1,755,998
4100,34292867,1,-0.000526664,0.003077891,0.001344053,-0.4190337,-0.05162077,-9.712809999999999,0,0,41.40742,1,1,755,998
4103,34295110,1,0.0006093495,0.00660958,0.003166601,-0.3819811,-0.01324628,-9.732253,0,0,41.40742,1,1,755,998
4106,34297869,1,0.0005262319,0.008079777,0.001130984,-0.3610748,0.0004108324,-9.735903,0,0,41.40742,1,1,755,998
4137,34300496,1,-0.002441392,0.007032532,-0.001394686,-0.349347,-0.003185607,-9.73057,0,0,41.40771,1,1,755,998
4141,34303239,1,-0.004410707,0.004628189,-0.002055656,-0.3478277,-0.01275128,-9.718776,0,0,41.40771,1,1,755,998
4144,34305455,1,-0.003237136,0.004687484,-0.001862957,-0.3522545,-0.03628908,-9.718081,0,0,41.40771,1,1,755,998
4147,34308094,1,-0.0008041588,0.006383962,-0.001169361,-0.3561988,-0.07154734,-9.729232,0,0,41.40771,1,1,755,998
4178,34310802,1,0.0002190761,0.006749139,0.0001644021,-0.3541516,-0.09736794999999999,-9.751312,0,0,41.40801,1,1,755,998
4182,34313265,1,0.002655182,0.006538131,0.004001705,-0.3550544,-0.1100048,-9.76634,0,0,41.40801,1,1,755,998
4185,34316103,1,0.004079229,0.005959361,0.004059977,-0.3648768,-0.106438,-9.767961,0,0,41.40801,1,1,755,998
4188,34318292,1,0.006145533,0.001497222,0.005924705,-0.4036371,-0.09825610999999999,-9.769291000000001,0,0,41.40801,1,1,755,998
4221,34321558,1,0.004923203,-0.0007474593,0.007507605,-0.4497586,-0.1078179,-9.762268000000001,0,0,41.40834,1,1,755,998
4224,34323322,1,0.003118359,-0.0006889543,0.00749736,-0.4775546,-0.1160573,-9.774473,0,0,41.40834,1,1,755,998
4227,34325670,1,-0.003451001,0.001652839,0.006182676,-0.500339,-0.1152423,-9.788596,0,0,41.40834,1,1,755,998
4230,34328650,1,-0.008291626999999999,0.004689977,0.003181965,-0.5203385,-0.1163494,-9.795076,0,0,41.40834,1,1,755,998
4261,34330925,1,-0.007149333,0.005241904,0.0003129027,-0.5188642999999999,-0.1256776,-9.7845,0,0,41.40867,1,1,755,998
4265,34334167,1,-0.004088425,0.005634536,-0.001430829,-0.5153470999999999,-0.1274403,-9.765847000000001,0,0,41.40867,1,1,755,998
4272,34336637,1,-0.00135961,0.006815994,-0.002199629,-0.5010611,-0.1450349,-9.734080000000001,0,0,41.40867,1,1,755,998
4278,34338915,1,-0.0001749247,0.006411646,-0.004027365,-0.4866464,-0.1524847,-9.718944,0,0,41.40867,1,1,755,998
4309,34341536,1,-0.002069569,0.005290024,-0.005835124,-0.4727815,-0.1548201,-9.710089999999999,0,0,41.40867,1,1,755,998
4314,34344239,1,-0.003478045,0.003291941,-0.005784031,-0.4669417,-0.1652765,-9.680581999999999,0,0,41.40899,1,1,755,998
4317,34346864,1,-0.005477585,-0.0009823722999999999,-0.004056005,-0.4560534,-0.1656542,-9.680561000000001,0,0,41.40899,1,1,755,998
4320,34349159,1,-0.005264633,-0.006315251,-0.0004733186,-0.4416484,-0.15897,-9.697801,0,0,41.40899,1,1,755,998
4351,34351910,1,-0.002227985,-0.009916314000000001,-4.634996e-05,-0.4344285,-0.1607522,-9.711693,0,0,41.40899,1,1,755,998
4354,34354131,1,-0.0004055272,-0.008119349,-0.0003945361,-0.430524,-0.156686,-9.723933000000001,0,0,41.40928,1,1,755,998
4357,34356914,1,-0.001212943,-0.005439791,-0.0004661496,-0.4355373,-0.1468035,-9.727677999999999,0,0,41.40928,1,1,755,998
4360,34359574,1,-0.00828745,0.003136618,-0.002374325,-0.451838,-0.1284998,-9.736527000000001,0,0,41.40928,1,1,755,998
4391,34361810,1,-0.009566606,0.004345743,-0.002461578,-0.4674439,-0.1042542,-9.758658,0,0,41.40928,1,1,755,998
4395,34364892,1,-0.008593147000000001,0.004269681,-0.002226405,-0.4798779,-0.09361521,-9.779731999999999,0,0,41.40957,1,1,755,998
4398,34367094,1,-0.00608355,2.317987e-06,-0.003922032,-0.492591,-0.1014275,-9.800003999999999,0,0,41.40957,1,1,755,998
4401,34369577,1,-0.00561071,-0.002745851,-0.004826284,-0.5059589,-0.1039013,-9.794081,0,0,41.40957,1,1,755,998
4432,34372049,1,-0.005382747,-0.005632122,-0.006041104,-0.5223147,-0.1104498,-9.758768999999999,0,0,41.40957,1,1,755,998
4435,34375038,1,-0.004938447,-0.004946582,-0.004563816,-0.5258434,-0.1166419,-9.720663999999999,0,0,41.40957,1,1,755,998
4438,34379885,1,-0.002665857,-0.002064296,7.004823999999999e-05,-0.4991418,-0.1308841,-9.632539,0,0,41.40988,1,1,755,998
4469,34382478,1,0.0001484898,0.0001867794,0.001526307,-0.5025237,-0.1316364,-9.611489000000001,0,0,41.40988,1,1,755,998
4473,34387905,1,0.003515084,0.002436679,0.00184574,-0.4828102,-0.0879373,-9.603429999999999,0,0,41.4102,1,1,755,998
4476,34390458,1,0.002561058,0.002837064,0.0001080951,-0.4717589,-0.06561838,-9.625952,0,0,41.4102,1,1,755,998
4507,34392691,1,-5.261399e-06,0.002739818,-0.001545339,-0.4621829,-0.05007592,-9.663548,0,0,41.4102,1,1,755,998
4511,34395497,1,-0.001992889,0.001271424,-0.002389918,-0.4583017,-0.04693368,-9.691625999999999,0,0,41.4102,1,1,755,998
4514,34397819,1,-0.001758168,0.0008523326,-0.002751447,-0.4574309,-0.05143272,-9.716176000000001,0,0,41.41053,1,1,755,998
4517,34400879,1,0.001212671,0.003268505,-0.001471558,-0.4540572,-0.05613053,-9.732784000000001,0,0,41.41053,1,1,755,998
4548,34403855,1,0.002685899,0.004364065,0.002327462,-0.4520225,-0.05696066,-9.733891,0,0,41.41053,1,1,755,998
4552,34406151,1,0.003564785,0.004809482,0.004682678,-0.4468866,-0.06415203,-9.72982,0,0,41.41053,1,1,755,998
4556,34408492,1,0.005462423,0.004456277,0.00585084,-0.4403535,-0.08414859,-9.717281,0,0,41.41087,1,1,755,998
4559,34411451,1,0.003566694,0.004067451,0.0004758976,-0.4409447,-0.09792381999999999,-9.710919000000001,0,0,41.41087,1,1,755,998
4590,34414148,1,0.0004673193,0.003286608,-0.002595447,-0.4564073,-0.131536,-9.710467,0,0,41.41087,1,1,755,998
4594,34416356,1,0.0001189765,0.003804726,-0.003086611,-0.4683867,-0.1536354,-9.719446,0,0,41.41087,1,1,755,998
4597,34418726,1,-0.0002070043,0.005710966,-0.004215349,-0.4745123,-0.1749412,-9.727668,0,0,41.41087,1,1,755,998
4600,34421317,1,-0.0006273933,0.005715265,-0.005383433,-0.4767146,-0.1881846,-9.739240000000001,0,0,41.41123,1,1,755,998
4631,34424151,1,-0.0002008455,0.003747501,-0.007160674,-0.4739544,-0.1883309,-9.756962,0,0,41.41123,1,1,755,998
4634,34426864,1,0.0001664845,0.003704904,-0.00697548,-0.4679356,-0.190145,-9.755084,0,0,41.41123,1,1,755,998
4637,34428810,1,0.0007568371,0.003370717,-0.004704067,-0.4587071,-0.1930993,-9.741808000000001,0,0,41.41123,1,1,755,998
4640,34431297,1,0.0003833379,0.0041728,-0.0006861745,-0.4530269,-0.1908726,-9.703115,0,0,41.4116,1,1,755,998
4671,34433666,1,0.0002436041,0.00748803,0.001967559,-0.4613912,-0.1957613,-9.676773000000001,0,0,41.4116,1,1,755,998
4675,34436769,1,0.001490331,0.008921043,0.004771153,-0.484777,-0.1922233,-9.655595999999999,0,0,41.4116,1,1,755,998
4682,34439671,1,0.002054288,0.008862750000000001,0.006045163,-0.4912379,-0.1864322,-9.649417,0,0,41.4116,1,1,755,998
4685,34441463,1,0.002484213,0.00663928,0.005216017,-0.5019127,-0.1849193,-9.64626,0,0,41.41198,1,1,755,998
4716,34443882,1,0.001236779,0.006688462,0.002413328,-0.5184857,-0.1821596,-9.664742,0,0,41.41198,1,1,755,998
4719,34446332,1,0.001272307,0.006617242,0.001256815,-0.5231683,-0.1835029,-9.683843,0,0,41.41198,1,1,755,998
4722,34449516,1,0.00133225,0.004376402,0.000593252,-0.5220143,-0.1829294,-9.702066,0,0,41.41198,1,1,755,998
4725,34451874,1,0.0009115178,0.0003153869,0.002843889,-0.5112715,-0.1781931,-9.731182,0,0,41.41198,1,1,755,998
4756,34454067,1,-0.001643498,-0.000865458,0.003499895,-0.4938845,-0.1752937,-9.760063000000001,0,0,41.41236,1,1,755,998
4760,34456858,1,-0.003554641,-0.001971096,0.001958692,-0.4838447,-0.167611,-9.774174,0,0,41.41236,1,1,755,998
4763,34459411,1,-0.003365947,-0.002782306,0.002415161,-0.4830663,-0.1425182,-9.791702000000001,0,0,41.41236,1,1,755,998
4766,34462122,1,-0.001315625,-0.00592708,0.003209182,-0.490942,-0.1221616,-9.796535,0,0,41.41236,1,1,755,998
4797,34464913,1,-0.001680335,-0.007434165,0.003865971,-0.4986697,-0.1016323,-9.807744,0,0,41.41277,1,1,755,998
4800,34466658,1,-0.003116125,-0.006160637,0.003332674,-0.505586,-0.09684420000000001,-9.815462999999999,0,0,41.41277,1,1,755,998
4803,34469141,1,-0.003195908,-0.002668854,0.002390315,-0.5192989,-0.09820551,-9.815728999999999,0,0,41.41277,1,1,755,998
4806,34471863,1,-0.002642135,-0.0004625371,0.001674438,-0.5140396,-0.09763278,-9.804233999999999,0,0,41.41277,1,1,755,998
4837,34475397,1,-0.0004446579,0.002819493,0.0009180093,-0.4906559,-0.09142132,-9.77675,0,0,41.41318,1,1,755,998
4840,34478268,1,0.002547224,0.006173535,-0.0002733354,-0.4728277,-0.08634588,-9.762259,0,0,41.41318,1,1,755,998
4843,34479605,1,0.003636107,0.007890467999999999,-0.0001579799,-0.4619927,-0.09145878,-9.765504,0,0,41.41318,1,1,755,998
4847,34482109,1,0.0034317,0.007131426,0.001156161,-0.4660733,-0.09777479,-9.776687000000001,0,0,41.41318,1,1,755,998
4878,34485572,1,0.003423502,0.006163245,0.002928543,-0.4847573,-0.09630378000000001,-9.791065,0,0,41.41318,1,1,755,998
4881,34487146,1,0.004190559,0.00567701,0.004100209,-0.4999348,-0.09302235,-9.802830999999999,0,0,41.41361,1,1,755,998
4884,34490148,1,0.001096887,0.007074285,0.003612971,-0.5046011,-0.1123169,-9.801869,0,0,41.41361,1,1,755,998
4888,34492143,1,-0.0002626645,0.007672623,0.0006295989,-0.5073688,-0.1315505,-9.777915999999999,0,0,41.41361,1,1,755,998
4919,34494992,1,-0.001786979,0.004398696,-0.005750592,-0.4993789,-0.1639552,-9.723895000000001,0,0,41.41361,1,1,755,998
4922,34497871,1,-0.003144141,0.0002917322,-0.008513211999999999,-0.4811588,-0.1926463,-9.69059,0,0,41.41405,1,1,755,998
4925,34499888,1,-0.004358791,-9.516443e-05,-0.007665281,-0.4489623,-0.2285137,-9.654828,0,0,41.41405,1,1,755,998
4929,34502517,1,-0.002177642,0.0003236444,-0.004383218,-0.4385305,-0.2364707,-9.654313999999999,0,0,41.41405,1,1,755,998
4960,34505639,1,-0.0009479794,0.0009434112,-0.0008907368,-0.4371295,-0.2371356,-9.66662,0,0,41.41405,1,1,755,998
4963,34507138,1,-0.0004713683,0.001518201,3.906645e-05,-0.4441473,-0.2317568,-9.676504,0,0,41.4145,1,1,755,998
4966,34510385,1,-0.0003649368,0.001877635,0.0005579792,-0.4440549,-0.2235514,-9.678941999999999,0,0,41.4145,1,1,755,998
4969,34512496,1,-0.001494342,0.001988045,0.001504597,-0.4314353,-0.2086337,-9.658505,0,0,41.4145,1,1,755,998
5000,34514809,1,-0.003588423,0.002306507,0.003124034,-0.4136727,-0.1956096,-9.621314,0,0,41.4145,1,1,755,998
5004,34517455,1,-0.003279647,0.004318543,0.00171015,-0.4060013,-0.195047,-9.615168000000001,0,0,41.4145,1,1,755,998
5007,34520637,1,-0.003682714,0.007892812000000001,9.610517e-05,-0.4000694,-0.1884615,-9.630686000000001,0,0,41.41496,1,1,755,998
5011,34522665,1,-0.003793909,0.009818545,-0.002871889,-0.4005433,-0.1796233,-9.645205000000001,0,0,41.41496,1,1,755,998
5044,34525543,1,-0.003428612,0.009149483,-0.004287441,-0.3984383,-0.1766333,-9.654696,0,0,41.41496,1,1,755,998
5047,34527668,1,-0.004207164,0.004420833,-0.002172385,-0.3873051,-0.1737185,-9.651540000000001,0,0,41.41496,1,1,755,998
5051,34530665,1,-0.004204322,0.002513751,-0.0004727038,-0.3688072,-0.1570263,-9.641339,0,0,41.41543,1,1,755,998
5054,34533127,1,-0.003889611,0.002811804,0.0001863785,-0.3655669,-0.1560695,-9.645117000000001,0,0,41.41543,1,1,755,998
5085,34535335,1,-0.002018157,0.003597748,0.00371364,-0.3819985,-0.150532,-9.663239000000001,0,0,41.41543,1,1,755,998
5088,34538238,1,-0.0004978864,0.004440759,0.00423735,-0.4125293,-0.157621,-9.68144,0,0,41.41543,1,1,755,998
5095,34540892,1,-0.0004597516,0.004277649,0.004457267,-0.4397305,-0.1663918,-9.697431,0,0,41.4159,1,1,755,998
5099,34543200,1,-0.002322,0.000187548,0.001187437,-0.4788339,-0.1753179,-9.698556,0,0,41.4159,1,1,755,998
5130,34546216,1,-0.002600501,-0.001863591,-0.001683578,-0.5037978,-0.1718562,-9.705876,0,0,41.4159,1,1,755,998
5133,34548391,1,-0.001790155,-0.002105553,-0.003114626,-0.5151384,-0.1720258,-9.711436000000001,0,0,41.4159,1,1,755,998
5136,34550863,1,-0.0002100703,-0.001862541,-0.005528363,-0.5236341,-0.1767366,-9.720193,0,0,41.4159,1,1,755,998
5139,34553132,1,-0.001983564,-0.000927484,-0.007225097,-0.5175729,-0.176185,-9.711330999999999,0,0,41.41639,1,1,755,998
5172,34555564,1,-0.004645645,-0.002120662,-0.005359262,-0.502773,-0.1637943,-9.692270000000001,0,0,41.41639,1,1,755,998
5175,34558081,1,-0.006421036,-0.001902255,-0.00155099,-0.4733085,-0.1536852,-9.643376,0,0,41.41639,1,1,755,998
5178,34560841,1,-0.006755159,-0.001460734,-0.0001150241,-0.457676,-0.1497113,-9.602729,0,0,41.41639,1,1,755,998
5182,34563319,1,-0.006678953,0.0008818729,0.00148608,-0.4382268,-0.1481132,-9.556201,0,0,41.41688,1,1,755,998
5213,34566181,1,-0.007411326,0.002364134,0.001639391,-0.4326142,-0.1472656,-9.540628999999999,0,0,41.41688,1,1,755,998
5216,34568511,1,-0.009213043000000001,0.009361641,-0.001415807,-0.439234,-0.1367583,-9.541842000000001,0,0,41.41688,1,1,755,998
5219,34570636,1,-0.007276087,0.01113529,-0.002627634,-0.447615,-0.1325435,-9.552953,0,0,41.41688,1,1,755,998
5224,34572847,1,-0.002072962,0.01095318,-0.00270346,-0.4681468,-0.1360282,-9.573134,0,0,41.41737,1,1,755,998
5255,34575624,1,0.0003040379,0.005848294,0.001549376,-0.4826036,-0.1424052,-9.584007,0,0,41.41737,1,1,755,998
5258,34578060,1,-0.0002930392,0.002915382,0.003715471,-0.4948975,-0.1507743,-9.600091000000001,0,0,41.41737,1,1,755,998
5261,34581051,1,-0.00108628,0.002485219,0.004122751,-0.4990023,-0.1491658,-9.613305,0,0,41.41737,1,1,755,998
5264,34583289,1,-0.002706207,0.002563472,0.004552042,-0.503231,-0.1344119,-9.649611999999999,0,0,41.41737,1,1,755,998
5295,34586097,1,-0.003639506,0.003243475,0.004106497,-0.514854,-0.1170501,-9.680004,0,0,41.41785,1,1,755,998
5298,34588091,1,-0.006787009,0.009051481,-0.00205211,-0.5222331,-0.0920676,-9.717318000000001,0,0,41.41785,1,1,755,998
5301,34593094,1,-0.005383721,0.01023097,-0.01093871,-0.5249918,-0.1026302,-9.704983,0,0,41.41785,1,1,755,998
5333,34597084,1,7.877213000000001e-05,0.006484786,-0.009774676,-0.520273,-0.1279825,-9.672090000000001,0,0,41.41834,1,1,755,998
5336,34598579,1,0.001330091,0.006246179,-0.007392397,-0.5247786,-0.1415791,-9.659995,0,0,41.41834,1,1,755,998
5339,34600790,1,0.003296064,0.008923512,-0.001251334,-0.524141,-0.1464794,-9.650293,0,0,41.41834,1,1,755,998
5342,34603795,1,0.003328184,0.01110561,0.003189308,-0.5211504,-0.1384088,-9.649603000000001,0,0,41.41834,1,1,755,998
5373,34606378,1,0.001860275,0.007455792,0.00354903,-0.515011,-0.1226478,-9.642185,0,0,41.41884,1,1,755,998
5376,34609792,1,0.001983794,0.002087059,0.002653619,-0.511314,-0.1044618,-9.633495999999999,0,0,41.41884,1,1,755,998
5379,34611177,1,0.002735615,0.0003190874,0.001920108,-0.5180911,-0.06966419,-9.647462000000001,0,0,41.41884,1,1,755,998
5382,34613568,1,0.003184399,0.0001268619,0.002618359,-0.5312999,-0.0508798,-9.677030999999999,0,0,41.41884,1,1,755,998
5413,34616798,1,0.003344588,0.00175778,0.002662619,-0.5446133,-0.03393826,-9.726782999999999,0,0,41.41884,1,1,755,998
5417,34618663,1,0.002551657,0.003070991,0.001970316,-0.5399938,-0.02363941,-9.761773,0,0,41.41935,1,1,755,998
5420,34621673,1,-5.791274e-05,0.004843909,-0.00118401,-0.5215432,-0.007428041,-9.774728,0,0,41.41935,1,1,755,998
5423,34623816,1,-0.0002253803,0.005420212,-0.001488418,-0.5055187,-0.00871154,-9.774773,0,0,41.41935,1,1,755,998
5454,34626097,1,-0.0004988992,0.006456895,-9.855693999999999e-05,-0.481393,-0.01271894,-9.752616,0,0,41.41935,1,1,755,998
5458,34629266,1,0.0002248673,0.007182043,0.00107643,-0.4722283,-0.016733,-9.7331,0,0,41.41984,1,1,755,998
5461,34631615,1,0.002292774,0.008516994,-8.422913000000001e-05,-0.4660704,-0.03121126,-9.712946000000001,0,0,41.41984,1,1,755,998
5464,34634102,1,0.004784319,0.008453296000000001,-0.002171307,-0.4671221,-0.04527691,-9.704669000000001,0,0,41.41984,1,1,755,998
5495,34636649,1,0.004876964,0.003522246,-0.003167283,-0.4806498,-0.08026239,-9.706225,0,0,41.41984,1,1,755,998
5499,34639566,1,0.003896357,0.002475321,-0.003069764,-0.4837017,-0.1026804,-9.720488,0,0,41.42031,1,1,755,998
5506,34642589,1,0.002369995,-0.0006284534,-0.001374567,-0.4812703,-0.1216613,-9.73019,0,0,41.42031,1,1,755,998
5509,34644796,1,0.00248906,-0.002020298,0.002024701,-0.4726346,-0.1302762,-9.731242999999999,0,0,41.42031,1,1,755,998
5540,34646929,1,0.002185323,-0.0009614294,0.004896218,-0.4708693,-0.1260958,-9.708239000000001,0,0,41.42031,1,1,755,998
5544,34649702,1,0.000921817,0.001837364,0.005014398,-0.4673131,-0.1166513,-9.672071000000001,0,0,41.42031,1,1,755,998
5547,34652550,1,0.0002061141,0.003557988,0.002401288,-0.4671887,-0.1069066,-9.620687,0,0,41.42076,1,1,755,998
5550,34655291,1,-0.0005600353,0.001816125,-0.001600564,-0.4725411,-0.1075185,-9.606913,0,0,41.42076,1,1,755,998
5581,34657888,1,-0.0005596059,0.001855595,-0.004893849,-0.4887469,-0.08532234,-9.61552,0,0,41.42076,1,1,755,998
5585,34660657,1,-0.0003950888,0.002931399,-0.005091225,-0.4971001,-0.07318974,-9.625615,0,0,41.42076,1,1,755,998
5588,34663339,1,-0.0003205685,0.004734172,-0.003487732,-0.5109321,-0.06463539,-9.643535999999999,0,0,41.42119,1,1,755,998
5591,34665328,1,-0.000635475,0.00327832,-0.0007499781,-0.5193433,-0.0643996,-9.65438,0,0,41.42119,1,1,755,998
5622,34668496,1,-0.001835232,0.001695949,0.00126238,-0.5372927,-0.06274125,-9.661149999999999,0,0,41.42119,1,1,755,998
5626,34670580,1,-0.0006448936,0.002010807,0.002595525,-0.5507458,-0.05003987,-9.672882,0,0,41.42119,1,1,755,998
5629,34673367,1,0.0007176869999999999,0.001819176,0.002851052,-0.5584728,-0.03670553,-9.676849000000001,0,0,41.42161,1,1,755,998
5632,34675659,1,-1.938947e-05,0.002102706,0.001821422,-0.5546132,-0.03484039,-9.674272999999999,0,0,41.42161,1,1,755,998
5663,34677927,1,-0.004649347,0.005617329,-0.004138763,-0.5474479,-0.03895964,-9.670446999999999,0,0,41.42161,1,1,755,998
5666,34681810,1,-0.004785911,0.006235435,-0.00603416,-0.5474972,-0.04868376,-9.661319000000001,0,0,41.42161,1,1,755,998
5669,34683054,1,-0.002400884,0.005411216,-0.008843454000000001,-0.5388106,-0.05987952,-9.653869,0,0,41.42205,1,1,755,998
5672,34688103,1,0.004861256,0.00148929,-0.009185921,-0.5074365,-0.09279625,-9.665978000000001,0,0,41.42205,1,1,755,998
5704,34691602,1,0.004220405,0.002332057,-0.00843819,-0.5022598,-0.09132988,-9.640727999999999,0,0,41.42205,1,1,755,998
5707,34693390,1,0.00329303,0.004370224,-0.008841362,-0.4984619,-0.07890026,-9.631724999999999,0,0,41.42205,1,1,755,998
5710,34695916,1,0.00146066,0.01025032,-0.009769168,-0.49074,-0.07107859,-9.637411,0,0,41.42251,1,1,755,998
5713,34698467,1,-0.001077079,0.0135048,-0.008540102000000001,-0.4833522,-0.08485755,-9.64859,0,0,41.42251,1,1,755,998
5745,34701355,1,-0.003799365,0.01237565,-0.007487824,-0.4788714,-0.09464855,-9.669845,0,0,41.42251,1,1,755,998
5748,34703798,1,-0.004956992,0.01018582,-0.007787269,-0.4800307,-0.1089498,-9.677982999999999,0,0,41.42251,1,1,755,998
5751,34705920,1,-0.005026293,0.008934378999999999,-0.008094933,-0.4836472,-0.1246871,-9.679626000000001,0,0,41.42298,1,1,755,998
5754,34708521,1,-0.003443555,0.004079828,-0.008033134000000001,-0.4914817,-0.1389997,-9.67065,0,0,41.42298,1,1,755,998
5785,34711150,1,0.001091746,-0.003846129,-0.001561342,-0.5062132,-0.124212,-9.657622,0,0,41.42298,1,1,755,998
5788,34713772,1,0.002008283,-0.004174935,0.001273008,-0.5146441,-0.1126892,-9.667135999999999,0,0,41.42298,1,1,755,998
5792,34716174,1,0.003424508,-0.002095885,0.004177514,-0.5165882000000001,-0.1075525,-9.673094000000001,0,0,41.42298,1,1,755,998
5795,34718461,1,0.002832296,-0.0003670247,0.003014375,-0.5121707,-0.0980505,-9.673909,0,0,41.42345,1,1,755,998
5826,34721253,1,0.0002966299,-0.0001529346,0.0001441814,-0.5072601,-0.107079,-9.660982000000001,0,0,41.42345,1,1,755,998
5830,34723506,1,-0.003257521,0.0008188013,-0.002421544,-0.5078104,-0.1277517,-9.664655,0,0,41.42345,1,1,755,998
5833,34725910,1,-0.003439317,0.0009363706000000001,-0.004299697,-0.5084649,-0.1437928,-9.666968000000001,0,0,41.42345,1,1,755,998
5838,34729159,1,-0.001407712,-0.0001131307,-0.008756115,-0.5094473,-0.1454608,-9.676883,0,0,41.42394,1,1,755,998
5869,34732224,1,-2.298041e-05,-0.0002311749,-0.009149529999999999,-0.5090715,-0.1162685,-9.723420000000001,0,0,41.42394,1,1,755,998
5872,34734150,1,-0.001563235,6.673783e-05,-0.006411341,-0.5081293,-0.1005848,-9.758354000000001,0,0,41.42394,1,1,755,998
5876,34736870,1,-0.003390727,0.001763188,-0.004786506,-0.5073852,-0.07987456,-9.794155,0,0,41.42394,1,1,755,998
5879,34740085,1,-0.00252895,0.002328505,-0.00127663,-0.5027581,-0.07641642999999999,-9.801002,0,0,41.42443,1,1,755,998
5910,34742913,1,-1.718519e-05,0.00166693,0.003059371,-0.4911194,-0.07259646,-9.782527,0,0,41.42443,1,1,755,998
5918,34745622,1,0.002429695,0.001194729,0.006375681,-0.4740871,-0.07455228,-9.759145,0,0,41.42443,1,1,755,998
5921,34747562,1,0.002008735,0.001322439,0.006680405,-0.4656677,-0.09105773,-9.733304,0,0,41.42443,1,1,755,998
5924,34750678,1,0.0009625567,-0.0005736221,0.005203456,-0.4448695,-0.1222582,-9.704874,0,0,41.42493,1,1,755,998
5955,34753152,1,0.001340611,-0.003405783,0.002724756,-0.4221449,-0.1470104,-9.696118999999999,0,0,41.42493,1,1,755,998
5959,34756110,1,0.0002364516,-0.006728314,0.004835679,-0.4103485,-0.1559619,-9.709815000000001,0,0,41.42493,1,1,755,998
5962,34758110,1,-0.00031342,-0.006317159,0.006654834,-0.4001517,-0.1590925,-9.739993,0,0,41.42493,1,1,755,998
5965,34761165,1,-1.160015e-05,-0.001167443,0.006586574,-0.3984002,-0.1553144,-9.753612,0,0,41.42493,1,1,755,998
5996,34764058,1,0.0008030501,0.006159641,0.00565937,-0.3955843,-0.1512657,-9.749058,0,0,41.42543,1,1,755,998
5999,34766324,1,-0.001082068,0.007565005,0.002886838,-0.3827249,-0.1687191,-9.719272999999999,0,0,41.42543,1,1,755,998
6002,34768849,1,-0.002654451,0.003374429,-0.0002024817,-0.3808798,-0.1874034,-9.689558999999999,0,0,41.42543,1,1,755,998
6005,34771333,1,-0.001872908,-0.0002707821,-0.001024357,-0.3995785,-0.2110957,-9.644708,0,0,41.42543,1,1,755,998
6036,34775154,1,-0.001703555,-0.001532328,-0.0004395143,-0.4238068,-0.1983764,-9.620262,0,0,41.42595,1,1,755,998
6039,34776551,1,-0.00167663,0.0001601418,-0.0008821234,-0.4384108,-0.1784925,-9.609201000000001,0,0,41.42595,1,1,755,998
6044,34779605,1,-0.003579224,0.002205394,-0.0005424311,-0.4641447,-0.1605894,-9.591162000000001,0,0,41.42595,1,1,755,998
6047,34781702,1,-0.004575911,0.00213681,0.001605908,-0.4769578,-0.1570908,-9.583804000000001,0,0,41.42595,1,1,755,998
6078,34784044,1,-0.002182667,0.0007739707,0.005627168,-0.4894188,-0.1484198,-9.574062,0,0,41.42646,1,1,755,998
6081,34787775,1,-0.000697738,-7.197624000000001e-05,0.006683033,-0.4946738,-0.1405986,-9.571273,0,0,41.42646,1,1,755,998
6085,34788925,1,0.0004938695,0.0005166527,0.005856087,-0.4935045,-0.1472864,-9.568292,0,0,41.42646,1,1,755,998
6088,34792867,1,0.0002408031,0.0008135505,0.005286508,-0.4947324,-0.1526584,-9.570909,0,0,41.42646,1,1,755,998
6091,34794151,1,-0.0003214759,0.0003273688,0.004910217,-0.4972799,-0.1513724,-9.578965999999999,0,0,41.42698,1,1,755,998
6122,34796700,1,0.000831912,0.001510724,0.004907189,-0.496851,-0.1520893,-9.576867,0,0,41.42698,1,1,755,998
6125,34800014,1,0.0007808229,0.001952474,0.005460076,-0.4974529,-0.1465575,-9.571873,0,0,41.42698,1,1,755,998
6128,34801892,1,-0.001702115,0.00251068,0.007066153,-0.4984179,-0.1213832,-9.573918000000001,0,0,41.42698,1,1,755,998
6131,34805293,1,-0.003920638,0.002826733,0.007529023,-0.50363,-0.1010136,-9.587413,0,0,41.42698,1,1,755,998
6162,34807605,1,-0.002257966,0.0028124,0.006657385,-0.5017412999999999,-0.08926649,-9.589051,0,0,41.42751,1,1,755,998
6166,34810525,1,-0.002135287,0.001865055,0.005818158,-0.481949,-0.08583333999999999,-9.591172,0,0,41.42751,1,1,755,998
6169,34813117,1,-0.003808619,0.0005523988,0.001997705,-0.474679,-0.08281403,-9.603918999999999,0,0,41.42751,1,1,755,998
6172,34815768,1,-0.004723219,-0.0023496,-0.002076423,-0.4686814,-0.08369928,-9.630405,0,0,41.42751,1,1,755,998
6203,34818183,1,-0.00668996,-0.003979102,-0.007373703,-0.4531166,-0.0875322,-9.680555999999999,0,0,41.42804,1,1,755,998
6206,34820813,1,-0.006436513,-0.003514188,-0.007865919000000001,-0.4477648,-0.09074498,-9.729704999999999,0,0,41.42804,1,1,755,998
6209,34823402,1,-0.003888403,-0.003834774,-0.005924424,-0.44085,-0.09341867,-9.801394999999999,0,0,41.42804,1,1,755,998
6212,34826310,1,-0.0009986636999999999,-0.005412568,-0.003138056,-0.4306994,-0.09364013,-9.840585000000001,0,0,41.42804,1,1,755,998
6243,34829504,1,-0.00209529,0.0003408159,0.000739231,-0.4132142,-0.1086468,-9.912236999999999,0,0,41.42858,1,1,755,998
6247,34831534,1,-0.003057636,0.002280723,0.001492143,-0.4069635,-0.1058706,-9.938647,0,0,41.42858,1,1,755,998
6250,34833775,1,-0.003062758,0.003381658,0.00173563,-0.4003823,-0.1020034,-9.963359000000001,0,0,41.42858,1,1,755,998
6253,34836256,1,-0.002151767,0.002903556,0.0001931241,-0.400646,-0.1005083,-9.962783,0,0,41.42858,1,1,755,998
6284,34839293,1,-0.001616693,0.001271939,-0.004128283,-0.4099649,-0.09805901,-9.946972000000001,0,0,41.42913,1,1,755,998
6287,34841802,1,-0.00101716,0.001266997,-0.005964578,-0.4249605,-0.09406138,-9.925863,0,0,41.42913,1,1,755,998
6290,34843651,1,0.0004571748,0.001402413,-0.001521075,-0.4456025,-0.08586891000000001,-9.852577999999999,0,0,41.42913,1,1,755,998
6293,34846119,1,0.001220719,0.002809517,0.001704044,-0.4506618,-0.08516741999999999,-9.797515000000001,0,0,41.42913,1,1,755,998
6328,34848933,1,0.001703652,0.005234447,0.002050417,-0.4579247,-0.09202534,-9.75596,0,0,41.42913,1,1,755,998
6334,34851997,1,0.001561312,0.005693702,0.002482329,-0.46788,-0.09034397,-9.739341,0,0,41.42968,1,1,755,998
6338,34854193,1,-0.001863537,0.004491128,0.003704308,-0.4719707,-0.09111289,-9.723667000000001,0,0,41.42968,1,1,755,998
6341,34856811,1,-0.00357836,0.003702285,0.003118986,-0.45578,-0.1072062,-9.673994,0,0,41.42968,1,1,755,998
6372,34859072,1,-0.007222304,-0.00252221,0.005222976,-0.4448262,-0.1312365,-9.622593,0,0,41.42968,1,1,755,998
6376,34862202,1,-0.006870241,-0.003581915,0.006522644,-0.4489074,-0.1373289,-9.604870999999999,0,0,41.43023,1,1,755,998
6379,34864305,1,-0.004448426,-0.003373655,0.007772818,-0.4718024,-0.1203493,-9.596071,0,0,41.43023,1,1,755,998
6382,34866855,1,-0.003181963,-0.00376389,0.006015201,-0.4800881,-0.1043305,-9.593413999999999,0,0,41.43023,1,1,755,998
6413,34869789,1,-0.003462882,-0.002696225,0.003815501,-0.4691063,-0.08019216,-9.589449999999999,0,0,41.43023,1,1,755,998
6416,34871625,1,-0.003053075,-7.776478000000001e-06,0.002948456,-0.4646286,-0.0680304,-9.589328999999999,0,0,41.43079,1,1,755,998
6419,34874822,1,-0.002900451,0.001039602,0.001797072,-0.4593753,-0.07476258,-9.587346,0,0,41.43079,1,1,755,998
6422,34876908,1,-0.00296793,0.00165016,0.0007373049999999999,-0.4464584,-0.09615567,-9.584764,0,0,41.43079,1,1,755,998
6453,34879409,1,-0.005804038,0.004432458,-0.003770866,-0.4220408,-0.1201419,-9.592684,0,0,41.43079,1,1,755,998
6457,34881897,1,-0.006818179,0.005175787,-0.006060479,-0.4053984,-0.1325096,-9.600357000000001,0,0,41.43079,1,1,755,998
6460,34884818,1,-0.00536254,0.004648456,-0.009560568,-0.3790721,-0.156423,-9.603763000000001,0,0,41.43136,1,1,755,998
6463,34889277,1,0.0004419698,0.002320839,-0.007085944,-0.3629331,-0.2218737,-9.590761000000001,0,0,41.43136,1,1,755,998
6494,34891852,1,0.001980927,0.002324118,-0.001805626,-0.3697162,-0.2454648,-9.576510000000001,0,0,41.43136,1,1,755,998
6497,34896916,1,0.000123019,0.00349512,-0.002049109,-0.3954515,-0.2515371,-9.558214,0,0,41.43193,1,1,755,998
6500,34900005,1,-0.0006984449,0.003162574,-0.00266098,-0.3987691,-0.2528055,-9.562336999999999,0,0,41.43193,1,1,755,998
6531,34902161,1,-0.0003557084,0.00123509,-0.001572241,-0.4150788,-0.23501,-9.560288,0,0,41.43193,1,1,755,998
6536,34904840,1,0.001193007,-0.003265525,0.0003089336,-0.4567209,-0.2045932,-9.56767,0,0,41.4325,1,1,755,998
6539,34907791,1,0.002141563,-0.006525367,0.002348979,-0.483009,-0.1815312,-9.579890000000001,0,0,41.4325,1,1,755,998
6542,34910491,1,0.002708232,-0.005660947,0.003508686,-0.5150083,-0.1681404,-9.612804000000001,0,0,41.4325,1,1,755,998
6573,34912599,1,0.003360643,0.0004066699,0.00381664,-0.5231337,-0.1630351,-9.655559999999999,0,0,41.4325,1,1,755,998
6577,34915192,1,0.002649362,0.008413373,0.003072548,-0.512413,-0.1566821,-9.669667,0,0,41.43307,1,1,755,998
6580,34918221,1,0.002871291,0.01188331,0.001959404,-0.489704,-0.1518643,-9.682404,0,0,41.43307,1,1,755,998
6583,34920802,1,0.002192708,0.01108612,0.001435337,-0.475692,-0.1612603,-9.700625,0,0,41.43307,1,1,755,998
6614,34923553,1,0.000533697,0.01006236,3.017088e-05,-0.4592762,-0.1759791,-9.699265,0,0,41.43307,1,1,755,998
6617,34926298,1,-0.0006557064,0.009371724,-0.0007643473,-0.4490078,-0.1857803,-9.674749,0,0,41.43307,1,1,755,998
6620,34928343,1,-0.004158603,0.006424185,-0.004307394,-0.4254439,-0.1910411,-9.632626999999999,0,0,41.43362,1,1,755,998
6623,34930703,1,-0.004093703,0.005752209,-0.004635985,-0.4101295,-0.1933514,-9.600642000000001,0,0,41.43362,1,1,755,998
6654,34933372,1,-0.002370394,0.003770604,-0.002657726,-0.3947591,-0.191993,-9.568871,0,0,41.43362,1,1,755,998
6658,34936236,1,-0.0002439785,0.003894752,-0.0005857390000000001,-0.3899028,-0.179932,-9.563942000000001,0,0,41.43362,1,1,755,998
6663,34939169,1,0.0007402736,0.001742467,-0.001127062,-0.3935173,-0.1619702,-9.579324,0,0,41.43415,1,1,755,998
6666,34940647,1,-0.001379325,-0.002177795,-0.002695249,-0.4031306,-0.1553731,-9.588778,0,0,41.43415,1,1,755,998
6697,34943485,1,-0.0006626362,-0.0003158232,-0.005611135,-0.4034794,-0.145004,-9.597303999999999,0,0,41.43415,1,1,755,998
6700,34945825,1,0.0007500117,0.001764645,-0.006011856,-0.4013549,-0.1431241,-9.613524,0,0,41.43415,1,1,755,998
6704,34948656,1,0.00263316,0.006997236,-0.002761097,-0.401409,-0.1551289,-9.643686000000001,0,0,41.43466,1,1,755,998
6712,34951293,1,0.002130757,0.007010463,-0.001352571,-0.3968331,-0.1599,-9.660596999999999,0,0,41.43466,1,1,755,998
6743,34954117,1,0.0002840869,0.003225994,0.0001255806,-0.3757466,-0.1504808,-9.666537999999999,0,0,41.43466,1,1,755,998
6747,34956277,1,0.0003050724,0.002668201,0.001003474,-0.3752012,-0.1430051,-9.667249999999999,0,0,41.43466,1,1,755,998
6750,34959369,1,0.0007270257,0.001342342,0.001564026,-0.3860641,-0.1283582,-9.676913000000001,0,0,41.43466,1,1,755,998
