LineNo,TimeUS,I,GyrX,GyrY,GyrZ,AccX,AccY,AccZ,EG,EA,T,GH,AH,GHz,AHz
183,3.3256e+07,1,-0.003823,0.0034557,-0.0030351,-0.40831,-0.17105,-9.8009,0,0,41.373,1,1,755,998
214,3.3259e+07,1,-0.0085721,-0.00039268,-0.0031193,-0.39353,-0.15715,-9.7457,0,0,41.373,1,1,755,998
290,3.3286e+07,1,0.0011235,0.0048045,0.0096643,-0.56582,0.010902,-9.6977,0,0,41.374,1,1,755,998
406,3.3309e+07,1,-0.0042268,0.0077396,-0.002286,-0.39535,-0.1249,-9.7611,0,0,41.375,1,1,755,998
521,3.3335e+07,1,-0.0046286,0.0022549,0.0030796,-0.45028,-0.17784,-9.8476,0,0,41.376,1,1,755,998
552,3.3338e+07,1,-0.0058988,0.0020104,0.0029638,-0.45726,-0.20378,-9.8198,0,0,41.376,1,1,755,998
632,3.3358e+07,1,0.0025411,0.0013778,0.002103,-0.4921,-0.15319,-9.6201,0,0,41.377,1,1,755,998
748,3.3385e+07,1,0.0035814,0.0057104,0.0035936,-0.50539,-0.10231,-9.6437,0,0,41.378,1,1,755,998
863,3.3406e+07,1,-0.0057509,-0.00055021,-0.01293,-0.46709,-0.19578,-9.6107,0,0,41.379,1,1,755,998
979,3.3437e+07,1,-4.1388e-05,8.9967e-05,0.0033056,-0.48603,-0.10875,-9.6363,0,0,41.38,1,1,755,998
1010,3.344e+07,1,-0.0011923,0.0020088,0.00083877,-0.47484,-0.11789,-9.5899,0,0,41.38,1,1,755,998
1090,3.3476e+07,1,0.0015267,0.010484,0.0018547,-0.45231,-0.18819,-9.625,0,0,41.381,1,1,755,998
1205,3.357e+07,1,0.0046232,0.00060903,0.00086014,-0.4257,-0.23407,-9.6832,0,0,41.384,1,1,755,998
1297,3.3614e+07,1,-0.0044347,0.0010651,-0.003511,-0.45195,-0.11081,-9.5648,0,0,41.385,1,1,755,998
1328,3.3617e+07,1,0.0021165,0.0010357,-0.0012365,-0.47699,-0.1299,-9.6469,0,0,41.386,1,1,755,998
1389,3.3633e+07,1,0.001358,0.00098416,0.00041582,-0.50649,-0.14776,-9.7785,0,0,41.386,1,1,755,998
1482,3.3648e+07,1,0.00083606,0.0024685,-0.0018766,-0.50015,-0.14384,-9.7503,0,0,41.386,1,1,755,998
1567,3.3653e+07,1,-0.0016434,0.0033542,-0.0040532,-0.43984,-0.1137,-9.8038,0,0,41.387,1,1,755,998
1571,3.3661e+07,1,0.0023047,0.0020224,-0.0029698,-0.40298,-0.091306,-9.8086,0,0,41.387,1,1,755,998
1605,3.3663e+07,1,0.0037622,0.0010642,-0.0030815,-0.38497,-0.10221,-9.8125,0,0,41.387,1,1,755,998
1608,3.3666e+07,1,0.0047677,0.0013451,-0.0025497,-0.37403,-0.10405,-9.7999,0,0,41.387,1,1,755,998
1612,3.3669e+07,1,0.0048265,0.0021011,-0.0012801,-0.36862,-0.098907,-9.7822,0,0,41.387,1,1,755,998
1617,3.3671e+07,1,0.0066411,0.00034451,0.00024475,-0.36868,-0.096604,-9.7661,0,0,41.387,1,1,755,998
1648,3.3673e+07,1,0.0078913,-0.002176,0.0024301,-0.3623,-0.10399,-9.7417,0,0,41.387,1,1,755,998
1651,3.3676e+07,1,0.0086699,-0.0018949,0.005532,-0.3565,-0.11706,-9.732,0,0,41.387,1,1,755,998
1655,3.368e+07,1,0.0072081,-0.0019535,0.0055074,-0.34386,-0.14115,-9.6961,0,0,41.387,1,1,755,998
1658,3.3683e+07,1,0.0061282,-0.0019578,0.0033275,-0.35112,-0.16386,-9.6628,0,0,41.387,1,1,755,998
1661,3.3684e+07,1,0.0029066,-0.001405,0.00079294,-0.35255,-0.1605,-9.6541,0,0,41.388,1,1,755,998
1692,3.3687e+07,1,6.4597e-05,0.0006015,-0.0030686,-0.36555,-0.14383,-9.684,0,0,41.388,1,1,755,998
1695,3.369e+07,1,-0.00032811,0.0010643,-0.0032541,-0.37946,-0.13743,-9.7003,0,0,41.388,1,1,755,998
1698,3.3692e+07,1,0.0010359,0.0012854,-0.0012663,-0.38335,-0.13512,-9.7025,0,0,41.388,1,1,755,998
1701,3.3695e+07,1,0.0045241,0.0003621,0.0024173,-0.37587,-0.13241,-9.7,0,0,41.388,1,1,755,998
1732,3.3697e+07,1,0.003767,-0.001029,0.0063608,-0.36104,-0.1339,-9.7128,0,0,41.388,1,1,755,998
1736,3.37e+07,1,-0.0013978,-0.00082878,0.0086774,-0.35537,-0.151,-9.7207,0,0,41.388,1,1,755,998
1739,3.3702e+07,1,-0.0031674,0.00063899,0.0076657,-0.35466,-0.18992,-9.7084,0,0,41.388,1,1,755,998
1742,3.3705e+07,1,-0.0026748,0.0018005,0.0062723,-0.36014,-0.22142,-9.6896,0,0,41.388,1,1,755,998
1773,3.3708e+07,1,-0.0027361,0.0053742,0.001526,-0.36607,-0.25696,-9.6602,0,0,41.388,1,1,755,998
1776,3.371e+07,1,-0.0031218,0.0057605,9.0812e-05,-0.36192,-0.27081,-9.6404,0,0,41.388,1,1,755,998
1779,3.3713e+07,1,-0.0057678,0.0075059,-0.0016815,-0.35723,-0.28474,-9.6278,0,0,41.388,1,1,755,998
1782,3.3715e+07,1,-0.0070545,0.0086909,-0.0017427,-0.36362,-0.28292,-9.6272,0,0,41.388,1,1,755,998
1813,3.3717e+07,1,-0.0081326,0.0091825,-0.0014156,-0.39464,-0.27228,-9.6446,0,0,41.389,1,1,755,998
1817,3.372e+07,1,-0.006369,0.0071287,0.00086318,-0.42224,-0.26214,-9.6748,0,0,41.389,1,1,755,998
1824,3.3723e+07,1,-0.0031195,0.0050834,0.0013553,-0.44906,-0.24226,-9.7197,0,0,41.389,1,1,755,998
1829,3.3726e+07,1,-0.0024521,0.0039732,-0.0016995,-0.45535,-0.23143,-9.7252,0,0,41.389,1,1,755,998
1860,3.3729e+07,1,-0.00095322,-0.0007632,-0.00040049,-0.49371,-0.22363,-9.7227,0,0,41.389,1,1,755,998
1863,3.3731e+07,1,-0.002816,-0.0028592,0.0020568,-0.52359,-0.23067,-9.6989,0,0,41.389,1,1,755,998
1866,3.3733e+07,1,-0.0044711,-0.0029314,0.0024223,-0.53322,-0.2324,-9.6752,0,0,41.389,1,1,755,998
1869,3.3736e+07,1,-0.0052933,-0.0013386,0.00094831,-0.53246,-0.22478,-9.6519,0,0,41.389,1,1,755,998
1900,3.3739e+07,1,-0.0036488,0.002861,-0.00030442,-0.51355,-0.20522,-9.6317,0,0,41.39,1,1,755,998
1904,3.3741e+07,1,-0.003857,0.0036069,-0.0015748,-0.48625,-0.18404,-9.6376,0,0,41.39,1,1,755,998
1907,3.3744e+07,1,-0.0018811,0.0027989,-0.0041713,-0.46353,-0.17301,-9.6475,0,0,41.39,1,1,755,998
1910,3.3746e+07,1,9.6078e-05,0.0035601,-0.004748,-0.42717,-0.15382,-9.6813,0,0,41.39,1,1,755,998
1941,3.3749e+07,1,-0.0024774,0.002025,-0.0038588,-0.40478,-0.1325,-9.7049,0,0,41.39,1,1,755,998
1944,3.3752e+07,1,-0.0051367,0.00037947,-0.0021473,-0.40402,-0.12667,-9.7249,0,0,41.39,1,1,755,998
1948,3.3754e+07,1,-0.005273,0.00050057,-0.00076494,-0.40758,-0.12319,-9.7405,0,0,41.39,1,1,755,998
1951,3.3756e+07,1,-0.0014504,0.002789,-0.001612,-0.40565,-0.11504,-9.7592,0,0,41.39,1,1,755,998
1982,3.3758e+07,1,-0.00070967,0.0039067,-0.0035034,-0.40499,-0.10901,-9.7591,0,0,41.39,1,1,755,998
1986,3.3765e+07,1,-0.0012287,0.0010117,-0.0043214,-0.39499,-0.10118,-9.7387,0,0,41.391,1,1,755,998
1989,3.3767e+07,1,-0.0022015,-0.0011418,-0.0036198,-0.39102,-0.10319,-9.7351,0,0,41.391,1,1,755,998
2020,3.3769e+07,1,-0.0051594,-0.0037348,-0.0070204,-0.39783,-0.11714,-9.7328,0,0,41.391,1,1,755,998
2024,3.3772e+07,1,-0.0071032,-0.0034395,-0.0087627,-0.40958,-0.13187,-9.7308,0,0,41.391,1,1,755,998
2027,3.3774e+07,1,-0.0082914,-0.0021458,-0.0094011,-0.43424,-0.15691,-9.7167,0,0,41.391,1,1,755,998
2030,3.3777e+07,1,-0.0061455,-0.0033712,-0.0050708,-0.45487,-0.16904,-9.7008,0,0,41.391,1,1,755,998
2061,3.378e+07,1,-0.0019262,-0.0046199,-0.0013937,-0.46744,-0.1647,-9.704,0,0,41.391,1,1,755,998
2064,3.3782e+07,1,0.0012838,-0.0036902,-0.0008409,-0.46617,-0.15068,-9.7116,0,0,41.392,1,1,755,998
2067,3.3785e+07,1,0.0025283,-0.0036078,-0.0010301,-0.46448,-0.12586,-9.7317,0,0,41.392,1,1,755,998
2070,3.3787e+07,1,0.0029675,-0.0034952,-0.00094904,-0.46792,-0.10427,-9.7391,0,0,41.392,1,1,755,998
2101,3.3789e+07,1,0.0023824,0.0012544,-0.00085683,-0.47278,-0.070953,-9.7327,0,0,41.392,1,1,755,998
2105,3.3793e+07,1,0.0015454,0.0030664,0.00038326,-0.47299,-0.056645,-9.7293,0,0,41.392,1,1,755,998
2108,3.3795e+07,1,0.0011155,0.0031858,0.0030362,-0.47707,-0.047985,-9.7133,0,0,41.392,1,1,755,998
2111,3.3797e+07,1,0.0016646,0.0028611,0.0038854,-0.46563,-0.044872,-9.7101,0,0,41.392,1,1,755,998
2142,3.38e+07,1,0.0019271,0.0027029,0.0050949,-0.45706,-0.044771,-9.7063,0,0,41.392,1,1,755,998
2145,3.3802e+07,1,0.0018401,0.0018139,0.0068925,-0.4598,-0.078266,-9.7069,0,0,41.392,1,1,755,998
2149,3.3805e+07,1,0.0010822,0.0018442,0.0059545,-0.46743,-0.1002,-9.7024,0,0,41.393,1,1,755,998
2152,3.3808e+07,1,-0.00056727,-0.00047212,0.004362,-0.49202,-0.098372,-9.7027,0,0,41.393,1,1,755,998
2183,3.381e+07,1,7.3047e-05,-0.0029946,-0.00023499,-0.50098,-0.080216,-9.7122,0,0,41.393,1,1,755,998
2187,3.3813e+07,1,0.00064243,-0.0023276,-0.00094343,-0.50527,-0.073384,-9.7151,0,0,41.393,1,1,755,998
2190,3.3815e+07,1,0.00035983,-0.00099302,-0.0013157,-0.5067,-0.081974,-9.7085,0,0,41.393,1,1,755,998
2193,3.3818e+07,1,0.0026456,-0.0015538,-0.0017856,-0.49994,-0.097957,-9.7042,0,0,41.393,1,1,755,998
2224,3.3821e+07,1,0.0067086,-0.00067354,-0.0014644,-0.48723,-0.1161,-9.685,0,0,41.393,1,1,755,998
2227,3.3823e+07,1,0.0079056,0.00028126,0.0016192,-0.47605,-0.11262,-9.6919,0,0,41.393,1,1,755,998
2234,3.3825e+07,1,0.004433,0.0018479,0.0046959,-0.46246,-0.10118,-9.7037,0,0,41.394,1,1,755,998
2237,3.3828e+07,1,0.0026498,0.0021891,0.0053479,-0.44832,-0.10008,-9.7,0,0,41.394,1,1,755,998
2268,3.3831e+07,1,-0.00062058,-0.0020358,0.0059129,-0.43046,-0.11122,-9.6964,0,0,41.394,1,1,755,998
2272,3.3833e+07,1,-0.0015022,-0.00346,0.0057901,-0.42741,-0.12362,-9.6928,0,0,41.394,1,1,755,998
2275,3.3836e+07,1,-0.0016742,-0.0040504,0.0038242,-0.43981,-0.1467,-9.6819,0,0,41.394,1,1,755,998
2278,3.3838e+07,1,0.00094492,-0.0012155,0.00062161,-0.45213,-0.15018,-9.6755,0,0,41.394,1,1,755,998
2309,3.384e+07,1,0.002963,0.0020805,-0.0018488,-0.45842,-0.13791,-9.6818,0,0,41.394,1,1,755,998
2316,3.3843e+07,1,0.0042884,0.0046783,-0.0035092,-0.45926,-0.13254,-9.6852,0,0,41.394,1,1,755,998
2319,3.3845e+07,1,0.0039358,0.0050459,-0.0023704,-0.45621,-0.13229,-9.6776,0,0,41.394,1,1,755,998
2323,3.3847e+07,1,0.0025856,0.0026104,0.00023336,-0.46224,-0.13638,-9.6706,0,0,41.394,1,1,755,998
2354,3.385e+07,1,-0.00047198,0.0026874,0.00087328,-0.47266,-0.13996,-9.659,0,0,41.394,1,1,755,998
2357,3.3852e+07,1,-0.0017383,0.0031088,7.4319e-05,-0.47749,-0.13129,-9.6513,0,0,41.394,1,1,755,998
2360,3.3855e+07,1,-0.0020029,0.0072055,-0.0056618,-0.48973,-0.12465,-9.6261,0,0,41.394,1,1,755,998
2363,3.3859e+07,1,-0.0011931,0.0084288,-0.0070375,-0.49668,-0.116,-9.6201,0,0,41.394,1,1,755,998
2366,3.3861e+07,1,-0.00039529,0.0095186,-0.0063461,-0.50905,-0.094599,-9.6281,0,0,41.395,1,1,755,998
2398,3.3863e+07,1,-0.00010407,0.0082244,-0.001459,-0.51149,-0.071687,-9.6254,0,0,41.395,1,1,755,998
2401,3.3866e+07,1,0.0012134,0.0061597,0.0016353,-0.50976,-0.057926,-9.6218,0,0,41.395,1,1,755,998
2404,3.3869e+07,1,0.0016843,0.0056026,0.0027888,-0.50991,-0.060135,-9.6133,0,0,41.395,1,1,755,998
2407,3.3872e+07,1,0.0021826,0.005086,0.00146,-0.5066,-0.072392,-9.607,0,0,41.395,1,1,755,998
2438,3.3875e+07,1,-0.0010622,0.0036912,-0.0027695,-0.48794,-0.10626,-9.6115,0,0,41.395,1,1,755,998
2442,3.3877e+07,1,-0.0042837,0.0040505,-0.0049708,-0.4839,-0.13132,-9.6261,0,0,41.395,1,1,755,998
2445,3.388e+07,1,-0.0049972,0.00064516,-0.0014665,-0.48242,-0.14072,-9.6475,0,0,41.395,1,1,755,998
2448,3.3882e+07,1,-0.0048315,-0.005342,0.0027334,-0.48317,-0.14837,-9.6935,0,0,41.395,1,1,755,998
2479,3.3886e+07,1,-0.004322,-0.0060524,0.0018741,-0.48145,-0.15261,-9.7162,0,0,41.395,1,1,755,998
2482,3.3887e+07,1,-0.0030848,-0.0026701,-0.0018533,-0.47928,-0.15759,-9.7134,0,0,41.395,1,1,755,998
2485,3.389e+07,1,-0.0021403,-0.00018949,-0.0039846,-0.48299,-0.17021,-9.7117,0,0,41.395,1,1,755,998
2488,3.3892e+07,1,0.00042516,0.004477,-0.0083735,-0.49354,-0.18405,-9.6979,0,0,41.395,1,1,755,998
2519,3.3895e+07,1,0.00068444,0.0055957,-0.0091512,-0.49297,-0.18294,-9.6829,0,0,41.395,1,1,755,998
2525,3.3897e+07,1,-3.5667e-05,0.0062474,-0.0073963,-0.48949,-0.18732,-9.6585,0,0,41.395,1,1,755,998
2528,3.39e+07,1,-0.0010192,0.002808,-0.0038793,-0.49529,-0.18439,-9.6388,0,0,41.395,1,1,755,998
2531,3.3903e+07,1,-0.0013169,0.0016918,-0.0032171,-0.50368,-0.16269,-9.6234,0,0,41.396,1,1,755,998
2562,3.3905e+07,1,-0.00064622,0.0046415,-0.003413,-0.50019,-0.15224,-9.6433,0,0,41.396,1,1,755,998
2565,3.3908e+07,1,0.00036508,0.003515,-0.0021901,-0.50289,-0.14499,-9.6544,0,0,41.396,1,1,755,998
2568,3.391e+07,1,-0.00048558,0.0018861,0.0013972,-0.50996,-0.12774,-9.6678,0,0,41.396,1,1,755,998
2571,3.3912e+07,1,-0.0014069,0.0016488,0.0040447,-0.51117,-0.12141,-9.6728,0,0,41.396,1,1,755,998
2602,3.3916e+07,1,-0.0016463,0.00099736,0.003558,-0.51983,-0.10427,-9.6735,0,0,41.396,1,1,755,998
2606,3.3918e+07,1,0.00060501,0.0020706,0.0032427,-0.52885,-0.092037,-9.6639,0,0,41.396,1,1,755,998
2609,3.392e+07,1,0.0016768,0.0034012,0.0029987,-0.52406,-0.086326,-9.6603,0,0,41.396,1,1,755,998
2612,3.3923e+07,1,0.0013826,0.0046692,0.0024162,-0.5093,-0.091856,-9.6767,0,0,41.396,1,1,755,998
2643,3.3925e+07,1,-0.00049241,0.007022,0.00049481,-0.48656,-0.11043,-9.7159,0,0,41.396,1,1,755,998
2650,3.3929e+07,1,-0.0041359,0.0058035,-0.0026008,-0.48119,-0.11987,-9.7376,0,0,41.396,1,1,755,998
2655,3.3931e+07,1,-0.0064643,0.00435,-0.0066954,-0.47346,-0.13811,-9.7581,0,0,41.396,1,1,755,998
2658,3.3933e+07,1,-0.003698,0.0029074,-0.0057329,-0.46835,-0.14025,-9.7588,0,0,41.396,1,1,755,998
2689,3.3936e+07,1,0.0011335,0.00047511,-0.0017941,-0.46906,-0.1424,-9.7412,0,0,41.396,1,1,755,998
2692,3.3938e+07,1,0.0044236,0.00063189,0.0016814,-0.46268,-0.14404,-9.7227,0,0,41.396,1,1,755,998
2695,3.394e+07,1,0.0039458,0.0014391,0.0025442,-0.43877,-0.14073,-9.6914,0,0,41.396,1,1,755,998
2698,3.3943e+07,1,0.0030503,0.001937,0.0027238,-0.42574,-0.14179,-9.6626,0,0,41.396,1,1,755,998
2729,3.3946e+07,1,0.0019853,0.0025511,0.0024326,-0.42801,-0.16586,-9.6076,0,0,41.396,1,1,755,998
2733,3.3948e+07,1,0.0025097,0.0013763,-0.00012526,-0.44985,-0.19318,-9.5488,0,0,41.396,1,1,755,998
2736,3.3951e+07,1,0.0018078,0.0011197,-0.00049739,-0.46592,-0.1976,-9.5317,0,0,41.396,1,1,755,998
2739,3.3953e+07,1,-0.0012266,-0.00080134,-9.8838e-05,-0.48605,-0.19021,-9.5154,0,0,41.396,1,1,755,998
2770,3.3956e+07,1,-7.5626e-05,-0.0010235,-0.0010597,-0.48346,-0.18309,-9.5169,0,0,41.396,1,1,755,998
2774,3.3959e+07,1,0.00030379,-0.0012911,-0.0017027,-0.47976,-0.18234,-9.5214,0,0,41.397,1,1,755,998
2777,3.3961e+07,1,0.001546,0.0022176,-0.0018985,-0.47145,-0.16994,-9.5245,0,0,41.397,1,1,755,998
2780,3.3963e+07,1,0.0016563,0.0046111,0.00084217,-0.46574,-0.16118,-9.5271,0,0,41.397,1,1,755,998
2811,3.3967e+07,1,-0.0010247,0.004232,0.0037477,-0.46554,-0.16576,-9.5137,0,0,41.397,1,1,755,998
2815,3.3969e+07,1,-0.0009465,0.0022134,0.0023628,-0.47189,-0.17014,-9.5034,0,0,41.397,1,1,755,998
2818,3.3971e+07,1,0.0001539,-0.0015236,-0.00045327,-0.48174,-0.16717,-9.4953,0,0,41.397,1,1,755,998
2821,3.3973e+07,1,-0.00032444,-0.0015045,-0.0021876,-0.48421,-0.16468,-9.5008,0,0,41.397,1,1,755,998
2852,3.3976e+07,1,1.2995e-05,0.0017746,-0.0018224,-0.49464,-0.14995,-9.5254,0,0,41.397,1,1,755,998
2855,3.3979e+07,1,0.0019915,0.0049129,0.00019295,-0.50848,-0.13858,-9.5448,0,0,41.397,1,1,755,998
2858,3.3981e+07,1,0.0047334,0.0066493,0.0023849,-0.5277,-0.11987,-9.5685,0,0,41.397,1,1,755,998
2861,3.3984e+07,1,0.0056536,0.0071771,0.0026927,-0.53079,-0.11833,-9.5696,0,0,41.397,1,1,755,998
2892,3.3986e+07,1,0.003758,0.0054325,0.0036752,-0.52613,-0.1426,-9.5571,0,0,41.397,1,1,755,998
2896,3.3988e+07,1,0.0016056,0.0048557,0.0036358,-0.52098,-0.15625,-9.5605,0,0,41.397,1,1,755,998
2899,3.3992e+07,1,-0.00013146,0.0049636,0.00098843,-0.51113,-0.16373,-9.5762,0,0,41.398,1,1,755,998
2902,3.3996e+07,1,0.0038419,0.0064448,-0.0028897,-0.51543,-0.18478,-9.6523,0,0,41.398,1,1,755,998
2933,3.3999e+07,1,0.0032144,0.0057839,-0.0020736,-0.52857,-0.19968,-9.7038,0,0,41.398,1,1,755,998
2936,3.4001e+07,1,0.001884,0.0058485,-0.0014489,-0.52572,-0.2003,-9.7297,0,0,41.398,1,1,755,998
2939,3.4004e+07,1,0.00065206,0.0077258,0.00047376,-0.51655,-0.20284,-9.7529,0,0,41.398,1,1,755,998
2944,3.4007e+07,1,0.00086057,0.0076486,0.0033539,-0.51581,-0.19941,-9.7524,0,0,41.398,1,1,755,998
2976,3.4009e+07,1,-0.00091409,0.0059127,0.0068706,-0.51245,-0.194,-9.7511,0,0,41.398,1,1,755,998
2979,3.4011e+07,1,-0.0024767,0.0049475,0.0080649,-0.50293,-0.19062,-9.7465,0,0,41.398,1,1,755,998
2982,3.4014e+07,1,-0.0057462,0.002958,0.0075446,-0.47423,-0.19029,-9.7126,0,0,41.398,1,1,755,998
2985,3.4017e+07,1,-0.0048719,0.0026415,0.006393,-0.45288,-0.19339,-9.6825,0,0,41.398,1,1,755,998
3016,3.402e+07,1,-0.0017154,0.0021928,0.0027492,-0.43701,-0.21145,-9.6676,0,0,41.398,1,1,755,998
3020,3.4022e+07,1,-0.001211,0.0021925,0.00080521,-0.4378,-0.22985,-9.6508,0,0,41.398,1,1,755,998
3023,3.4024e+07,1,-0.0012792,0.0015732,-0.00046109,-0.44372,-0.23168,-9.6466,0,0,41.398,1,1,755,998
3026,3.4027e+07,1,-0.0018727,0.0013053,-0.00026826,-0.4664,-0.22393,-9.643,0,0,41.398,1,1,755,998
3061,3.403e+07,1,-0.0024311,0.0014911,0.00080332,-0.48801,-0.21299,-9.6417,0,0,41.398,1,1,755,998
3064,3.4033e+07,1,-0.0030569,-0.00065135,0.002541,-0.50087,-0.18533,-9.6407,0,0,41.398,1,1,755,998
3067,3.4034e+07,1,-0.0046293,-0.0046874,-0.00061128,-0.50224,-0.16746,-9.6465,0,0,41.399,1,1,755,998
3070,3.4037e+07,1,-0.0047506,-0.0057215,-0.0019328,-0.50007,-0.13772,-9.6695,0,0,41.399,1,1,755,998
3101,3.404e+07,1,-0.0030979,-0.0029033,-0.0019605,-0.48895,-0.1207,-9.6755,0,0,41.399,1,1,755,998
3105,3.4043e+07,1,-0.0010194,0.0014014,-0.0033789,-0.47601,-0.11433,-9.6543,0,0,41.399,1,1,755,998
3108,3.4045e+07,1,-0.00055271,0.003291,-0.0042729,-0.47175,-0.12021,-9.6393,0,0,41.399,1,1,755,998
3111,3.4047e+07,1,-0.0024831,0.0052895,-0.0013986,-0.47476,-0.1397,-9.6298,0,0,41.399,1,1,755,998
3142,3.4049e+07,1,-0.0036013,0.00517,1.0426e-05,-0.48369,-0.157,-9.6331,0,0,41.399,1,1,755,998
3145,3.4052e+07,1,-0.0055801,0.0043684,0.0032037,-0.49768,-0.18379,-9.6476,0,0,41.399,1,1,755,998
3148,3.4055e+07,1,-0.0048808,0.0022424,0.0052747,-0.49911,-0.19132,-9.6626,0,0,41.399,1,1,755,998
3151,3.4057e+07,1,-0.0025897,-0.00048691,0.0035416,-0.48407,-0.18361,-9.6827,0,0,41.4,1,1,755,998
3184,3.406e+07,1,-0.0011556,-0.0055624,-9.2699e-05,-0.47339,-0.17636,-9.6912,0,0,41.4,1,1,755,998
3188,3.4062e+07,1,-0.0019845,-0.0080968,-0.0014782,-0.45349,-0.17303,-9.6909,0,0,41.4,1,1,755,998
3191,3.4066e+07,1,-0.0028967,-0.0061883,-0.000544,-0.44223,-0.17163,-9.7007,0,0,41.4,1,1,755,998
3194,3.4068e+07,1,-0.0014345,-0.0024839,0.0024021,-0.43932,-0.18213,-9.7133,0,0,41.4,1,1,755,998
3197,3.407e+07,1,-0.001663,0.0030171,0.0057899,-0.43846,-0.20053,-9.7161,0,0,41.4,1,1,755,998
3228,3.4073e+07,1,-0.0022088,0.0058541,0.0078895,-0.42589,-0.19047,-9.7181,0,0,41.4,1,1,755,998
3231,3.4076e+07,1,-0.00218,0.0052934,0.0081807,-0.39854,-0.15697,-9.7241,0,0,41.4,1,1,755,998
3234,3.4077e+07,1,-0.0019038,0.0041125,0.008338,-0.38891,-0.13349,-9.7186,0,0,41.4,1,1,755,998
3237,3.408e+07,1,-0.0007321,-0.00050692,0.0080217,-0.39628,-0.11303,-9.6905,0,0,41.4,1,1,755,998
3268,3.4083e+07,1,0.0016145,-0.0018987,0.0079372,-0.4081,-0.091207,-9.6681,0,0,41.4,1,1,755,998
3273,3.4086e+07,1,0.0024681,-0.002046,0.0067478,-0.42527,-0.082133,-9.6543,0,0,41.4,1,1,755,998
3276,3.4088e+07,1,0.0025091,0.0027719,0.00094096,-0.46595,-0.075744,-9.6577,0,0,41.4,1,1,755,998
3279,3.4091e+07,1,0.0023786,0.0051719,0.0006561,-0.49851,-0.084205,-9.6717,0,0,41.401,1,1,755,998
3313,3.4094e+07,1,0.0022617,0.0075277,0.0010707,-0.54515,-0.097411,-9.6776,0,0,41.401,1,1,755,998
3317,3.4096e+07,1,0.0015212,0.0078507,0.001837,-0.56479,-0.091015,-9.6723,0,0,41.401,1,1,755,998
3320,3.4098e+07,1,-0.0015412,0.0068601,0.0027685,-0.57017,-0.089191,-9.651,0,0,41.401,1,1,755,998
3324,3.4101e+07,1,-0.0050108,0.0059744,0.00096416,-0.56607,-0.097702,-9.6457,0,0,41.401,1,1,755,998
3355,3.4104e+07,1,-0.0052196,0.0054873,-0.0012432,-0.54297,-0.12588,-9.6681,0,0,41.401,1,1,755,998
3358,3.4106e+07,1,-0.0030301,0.0054172,-0.0011318,-0.5242,-0.14873,-9.6856,0,0,41.401,1,1,755,998
3361,3.4108e+07,1,0.0002455,0.0055974,-0.0013613,-0.50448,-0.18966,-9.7018,0,0,41.401,1,1,755,998
3364,3.4111e+07,1,0.00086199,0.0052572,-0.0016125,-0.49028,-0.21171,-9.7005,0,0,41.401,1,1,755,998
3395,3.4113e+07,1,-0.00074819,0.0042775,-0.0029065,-0.49161,-0.23121,-9.6923,0,0,41.402,1,1,755,998
3399,3.4117e+07,1,-0.00033461,0.0041208,-0.0039621,-0.51148,-0.24048,-9.6787,0,0,41.402,1,1,755,998
3402,3.4119e+07,1,0.00048929,0.0039814,-0.0038977,-0.52533,-0.22954,-9.6809,0,0,41.402,1,1,755,998
3405,3.4121e+07,1,0.00094534,0.0066443,-0.0011747,-0.53879,-0.19678,-9.714,0,0,41.402,1,1,755,998
3436,3.4124e+07,1,0.00054069,0.0071064,-0.0022018,-0.54717,-0.16929,-9.7657,0,0,41.402,1,1,755,998
3439,3.4126e+07,1,0.00027488,0.0065343,-0.0022157,-0.55288,-0.15609,-9.7974,0,0,41.402,1,1,755,998
3442,3.4129e+07,1,-0.00098809,0.0050907,0.00086987,-0.55813,-0.14783,-9.8263,0,0,41.402,1,1,755,998
3449,3.4132e+07,1,-0.0039822,0.0050194,0.0045726,-0.54929,-0.13572,-9.8158,0,0,41.402,1,1,755,998
3482,3.4135e+07,1,-0.006047,0.0054474,0.0057178,-0.53601,-0.11913,-9.7854,0,0,41.403,1,1,755,998
3486,3.4137e+07,1,-0.0058493,0.0050286,0.0053383,-0.52262,-0.10574,-9.7651,0,0,41.403,1,1,755,998
3489,3.4139e+07,1,-0.0036871,0.0046467,0.0034158,-0.50151,-0.088244,-9.7188,0,0,41.403,1,1,755,998
3493,3.4142e+07,1,-0.00069202,0.0071075,-0.00011098,-0.4982,-0.07634,-9.6805,0,0,41.403,1,1,755,998
3524,3.4144e+07,1,0.0015299,0.005829,0.00011522,-0.50017,-0.05569,-9.6528,0,0,41.403,1,1,755,998
3529,3.4148e+07,1,0.0030778,0.0020681,0.00028781,-0.49911,-0.037289,-9.6557,0,0,41.403,1,1,755,998
3532,3.415e+07,1,0.0035391,0.00053177,-0.00012439,-0.50378,-0.020987,-9.6736,0,0,41.403,1,1,755,998
3535,3.4152e+07,1,0.0022051,-0.00046311,-0.00036482,-0.50687,-0.017954,-9.6905,0,0,41.403,1,1,755,998
3566,3.4154e+07,1,-0.0030998,-0.0014505,-0.0029831,-0.51005,-0.021956,-9.6992,0,0,41.403,1,1,755,998
3569,3.4157e+07,1,-0.0034133,-0.00071947,-0.0036786,-0.50513,-0.023698,-9.6809,0,0,41.404,1,1,755,998
3572,3.416e+07,1,-0.0030515,0.0034457,-0.0040995,-0.4986,-0.033698,-9.6478,0,0,41.404,1,1,755,998
3575,3.4162e+07,1,-0.0020954,0.0072579,-0.0035823,-0.50248,-0.028306,-9.6401,0,0,41.404,1,1,755,998
3606,3.4164e+07,1,0.00012722,0.0094163,-0.00096281,-0.52154,-0.017143,-9.6529,0,0,41.404,1,1,755,998
3610,3.4167e+07,1,0.0012932,0.0091616,0.0011364,-0.52587,-0.014653,-9.668,0,0,41.404,1,1,755,998
3613,3.4171e+07,1,0.0025188,0.0086741,0.0012971,-0.52397,-0.026757,-9.6851,0,0,41.404,1,1,755,998
3616,3.4172e+07,1,0.0032777,0.0082091,-0.0024869,-0.51441,-0.051834,-9.6952,0,0,41.404,1,1,755,998
3647,3.4178e+07,1,-0.002899,0.0031835,-0.0029926,-0.48916,-0.093893,-9.7086,0,0,41.404,1,1,755,998
3650,3.4181e+07,1,-0.0029937,0.0028036,-0.00035741,-0.46861,-0.10795,-9.703,0,0,41.404,1,1,755,998
3653,3.4182e+07,1,-0.0031523,0.0035752,0.00098394,-0.45274,-0.10875,-9.7209,0,0,41.404,1,1,755,998
3684,3.4185e+07,1,-0.0025665,0.0024736,0.00095254,-0.42639,-0.11783,-9.7475,0,0,41.404,1,1,755,998
3687,3.4187e+07,1,-0.00034138,0.002849,0.0035062,-0.40837,-0.12718,-9.7591,0,0,41.404,1,1,755,998
3691,3.419e+07,1,0.0011115,0.00083106,0.0072712,-0.39975,-0.13959,-9.7821,0,0,41.405,1,1,755,998
3694,3.4193e+07,1,0.0011902,-0.00058506,0.0079143,-0.40587,-0.13812,-9.7991,0,0,41.405,1,1,755,998
3725,3.4195e+07,1,0.001413,-0.00094106,0.0046317,-0.41336,-0.13466,-9.7756,0,0,41.405,1,1,755,998
3728,3.4198e+07,1,0.0028291,-0.0011989,0.0044173,-0.41265,-0.14394,-9.7459,0,0,41.405,1,1,755,998
3732,3.42e+07,1,0.0023437,-0.00074078,0.0055385,-0.40961,-0.1845,-9.7193,0,0,41.405,1,1,755,998
3735,3.4203e+07,1,-0.0020091,-0.00095156,0.006098,-0.40517,-0.20542,-9.7238,0,0,41.405,1,1,755,998
3766,3.4205e+07,1,-0.0049404,-0.0044135,0.0060352,-0.41362,-0.20453,-9.7387,0,0,41.405,1,1,755,998
3770,3.4208e+07,1,-0.0059211,-0.0044885,0.0043405,-0.42523,-0.19212,-9.7314,0,0,41.405,1,1,755,998
3773,3.4211e+07,1,-0.007063,-0.0036577,0.00053986,-0.42542,-0.16315,-9.7198,0,0,41.406,1,1,755,998
3776,3.4213e+07,1,-0.0079151,-0.0032178,-0.0014118,-0.42501,-0.14121,-9.7085,0,0,41.406,1,1,755,998
3807,3.4216e+07,1,-0.0062121,0.00077896,-0.0033964,-0.42745,-0.11529,-9.6952,0,0,41.406,1,1,755,998
3810,3.4218e+07,1,-0.0044514,0.0019583,-0.0022995,-0.43218,-0.10062,-9.6972,0,0,41.406,1,1,755,998
3814,3.4221e+07,1,-0.00081632,0.0032271,0.00041747,-0.4465,-0.093468,-9.6888,0,0,41.406,1,1,755,998
3817,3.4223e+07,1,0.00016489,0.0026098,0.00016999,-0.45363,-0.083338,-9.6766,0,0,41.406,1,1,755,998
3848,3.4226e+07,1,-0.00063511,0.00010076,-0.0025347,-0.45381,-0.070328,-9.6672,0,0,41.406,1,1,755,998
3851,3.4229e+07,1,-0.0010924,0.0030653,-0.0026836,-0.44536,-0.068841,-9.6938,0,0,41.406,1,1,755,998
3854,3.4231e+07,1,-0.00049618,0.0046581,-0.0010018,-0.44243,-0.081868,-9.7129,0,0,41.406,1,1,755,998
3861,3.4233e+07,1,0.00043752,0.0052037,0.0021492,-0.43644,-0.12144,-9.7287,0,0,41.406,1,1,755,998
3892,3.4236e+07,1,-0.0016096,2.4371e-05,0.0040217,-0.43261,-0.15883,-9.7489,0,0,41.406,1,1,755,998
3895,3.4239e+07,1,-0.0023337,-0.00036484,0.0031991,-0.42645,-0.17425,-9.7498,0,0,41.406,1,1,755,998
3899,3.4241e+07,1,-0.002192,-0.00068268,0.0020697,-0.41556,-0.20447,-9.7383,0,0,41.406,1,1,755,998
3902,3.4244e+07,1,-0.00065003,-0.0022158,0.0041185,-0.41369,-0.22372,-9.7447,0,0,41.406,1,1,755,998
3933,3.4247e+07,1,0.00060149,0.00074224,0.0045245,-0.4297,-0.23239,-9.7708,0,0,41.406,1,1,755,998
3936,3.4249e+07,1,0.0014938,0.0067837,0.0028021,-0.45354,-0.22086,-9.7924,0,0,41.406,1,1,755,998
3939,3.4252e+07,1,0.0014997,0.0084684,0.0011354,-0.46751,-0.20456,-9.7965,0,0,41.406,1,1,755,998
3942,3.4254e+07,1,0.0017292,0.0073995,0.0020409,-0.47523,-0.17418,-9.7775,0,0,41.407,1,1,755,998
3973,3.4257e+07,1,-0.00015442,0.0045293,0.0020955,-0.4711,-0.14437,-9.7357,0,0,41.407,1,1,755,998
3977,3.426e+07,1,-0.0047487,0.0011235,-0.0012466,-0.47306,-0.12658,-9.7078,0,0,41.407,1,1,755,998
3981,3.4262e+07,1,-0.0059618,-0.00055356,-0.0032305,-0.47168,-0.12012,-9.6908,0,0,41.407,1,1,755,998
3984,3.4265e+07,1,-0.0031991,-0.00091107,-0.00087524,-0.4577,-0.14609,-9.6742,0,0,41.407,1,1,755,998
4015,3.4268e+07,1,-0.00077426,0.0010795,0.0024317,-0.45289,-0.18988,-9.6504,0,0,41.407,1,1,755,998
4018,3.427e+07,1,-0.00096563,0.0041883,0.0031316,-0.45863,-0.23048,-9.623,0,0,41.407,1,1,755,998
4021,3.4272e+07,1,-0.0030572,0.0070594,0.0002398,-0.46618,-0.24576,-9.6151,0,0,41.407,1,1,755,998
4024,3.4277e+07,1,-0.0058553,0.0045654,-0.0024434,-0.48724,-0.26461,-9.628,0,0,41.407,1,1,755,998
4055,3.4281e+07,1,-0.0023056,0.0052565,-0.0044778,-0.48986,-0.2355,-9.6405,0,0,41.407,1,1,755,998
4059,3.4283e+07,1,-0.00035922,0.0059178,-0.0052264,-0.48426,-0.20782,-9.6494,0,0,41.407,1,1,755,998
4062,3.4285e+07,1,4.3054e-06,0.0050356,-0.0049094,-0.46889,-0.16453,-9.6695,0,0,41.407,1,1,755,998
4065,3.4288e+07,1,-0.0015623,0.0037526,-0.0046316,-0.45949,-0.13177,-9.6782,0,0,41.407,1,1,755,998
4096,3.4291e+07,1,-0.0023726,0.0018995,-0.0027004,-0.4412,-0.080391,-9.6981,0,0,41.407,1,1,755,998
4100,3.4293e+07,1,-0.00052666,0.0030779,0.0013441,-0.41903,-0.051621,-9.7128,0,0,41.407,1,1,755,998
4103,3.4295e+07,1,0.00060935,0.0066096,0.0031666,-0.38198,-0.013246,-9.7323,0,0,41.407,1,1,755,998
4106,3.4298e+07,1,0.00052623,0.0080798,0.001131,-0.36107,0.00041083,-9.7359,0,0,41.407,1,1,755,998
4137,3.43e+07,1,-0.0024414,0.0070325,-0.0013947,-0.34935,-0.0031856,-9.7306,0,0,41.408,1,1,755,998
4141,3.4303e+07,1,-0.0044107,0.0046282,-0.0020557,-0.34783,-0.012751,-9.7188,0,0,41.408,1,1,755,998
4144,3.4305e+07,1,-0.0032371,0.0046875,-0.001863,-0.35225,-0.036289,-9.7181,0,0,41.408,1,1,755,998
4147,3.4308e+07,1,-0.00080416,0.006384,-0.0011694,-0.3562,-0.071547,-9.7292,0,0,41.408,1,1,755,998
4178,3.4311e+07,1,0.00021908,0.0067491,0.0001644,-0.35415,-0.097368,-9.7513,0,0,41.408,1,1,755,998
4182,3.4313e+07,1,0.0026552,0.0065381,0.0040017,-0.35505,-0.11,-9.7663,0,0,41.408,1,1,755,998
4185,3.4316e+07,1,0.0040792,0.0059594,0.00406,-0.36488,-0.10644,-9.768,0,0,41.408,1,1,755,998
4188,3.4318e+07,1,0.0061455,0.0014972,0.0059247,-0.40364,-0.098256,-9.7693,0,0,41.408,1,1,755,998
4221,3.4322e+07,1,0.0049232,-0.00074746,0.0075076,-0.44976,-0.10782,-9.7623,0,0,41.408,1,1,755,998
4224,3.4323e+07,1,0.0031184,-0.00068895,0.0074974,-0.47755,-0.11606,-9.7745,0,0,41.408,1,1,755,998
4227,3.4326e+07,1,-0.003451,0.0016528,0.0061827,-0.50034,-0.11524,-9.7886,0,0,41.408,1,1,755,998
4230,3.4329e+07,1,-0.0082916,0.00469,0.003182,-0.52034,-0.11635,-9.7951,0,0,41.408,1,1,755,998
4261,3.4331e+07,1,-0.0071493,0.0052419,0.0003129,-0.51886,-0.12568,-9.7845,0,0,41.409,1,1,755,998
4265,3.4334e+07,1,-0.0040884,0.0056345,-0.0014308,-0.51535,-0.12744,-9.7658,0,0,41.409,1,1,755,998
4272,3.4337e+07,1,-0.0013596,0.006816,-0.0021996,-0.50106,-0.14503,-9.7341,0,0,41.409,1,1,755,998
4278,3.4339e+07,1,-0.00017492,0.0064116,-0.0040274,-0.48665,-0.15248,-9.7189,0,0,41.409,1,1,755,998
4309,3.4342e+07,1,-0.0020696,0.00529,-0.0058351,-0.47278,-0.15482,-9.7101,0,0,41.409,1,1,755,998
4314,3.4344e+07,1,-0.003478,0.0032919,-0.005784,-0.46694,-0.16528,-9.6806,0,0,41.409,1,1,755,998
4317,3.4347e+07,1,-0.0054776,-0.00098237,-0.004056,-0.45605,-0.16565,-9.6806,0,0,41.409,1,1,755,998
4320,3.4349e+07,1,-0.0052646,-0.0063153,-0.00047332,-0.44165,-0.15897,-9.6978,0,0,41.409,1,1,755,998
4351,3.4352e+07,1,-0.002228,-0.0099163,-4.635e-05,-0.43443,-0.16075,-9.7117,0,0,41.409,1,1,755,998
4354,3.4354e+07,1,-0.00040553,-0.0081193,-0.00039454,-0.43052,-0.15669,-9.7239,0,0,41.409,1,1,755,998
4357,3.4357e+07,1,-0.0012129,-0.0054398,-0.00046615,-0.43554,-0.1468,-9.7277,0,0,41.409,1,1,755,998
4360,3.436e+07,1,-0.0082875,0.0031366,-0.0023743,-0.45184,-0.1285,-9.7365,0,0,41.409,1,1,755,998
4391,3.4362e+07,1,-0.0095666,0.0043457,-0.0024616,-0.46744,-0.10425,-9.7587,0,0,41.409,1,1,755,998
4395,3.4365e+07,1,-0.0085931,0.0042697,-0.0022264,-0.47988,-0.093615,-9.7797,0,0,41.41,1,1,755,998
4398,3.4367e+07,1,-0.0060836,2.318e-06,-0.003922,-0.49259,-0.10143,-9.8,0,0,41.41,1,1,755,998
4401,3.437e+07,1,-0.0056107,-0.0027459,-0.0048263,-0.50596,-0.1039,-9.7941,0,0,41.41,1,1,755,998
4432,3.4372e+07,1,-0.0053827,-0.0056321,-0.0060411,-0.52231,-0.11045,-9.7588,0,0,41.41,1,1,755,998
4435,3.4375e+07,1,-0.0049384,-0.0049466,-0.0045638,-0.52584,-0.11664,-9.7207,0,0,41.41,1,1,755,998
4438,3.438e+07,1,-0.0026659,-0.0020643,7.0048e-05,-0.49914,-0.13088,-9.6325,0,0,41.41,1,1,755,998
4469,3.4382e+07,1,0.00014849,0.00018678,0.0015263,-0.50252,-0.13164,-9.6115,0,0,41.41,1,1,755,998
4473,3.4388e+07,1,0.0035151,0.0024367,0.0018457,-0.48281,-0.087937,-9.6034,0,0,41.41,1,1,755,998
4476,3.439e+07,1,0.0025611,0.0028371,0.0001081,-0.47176,-0.065618,-9.626,0,0,41.41,1,1,755,998
4507,3.4393e+07,1,-5.2614e-06,0.0027398,-0.0015453,-0.46218,-0.050076,-9.6635,0,0,41.41,1,1,755,998
4511,3.4395e+07,1,-0.0019929,0.0012714,-0.0023899,-0.4583,-0.046934,-9.6916,0,0,41.41,1,1,755,998
4514,3.4398e+07,1,-0.0017582,0.00085233,-0.0027514,-0.45743,-0.051433,-9.7162,0,0,41.411,1,1,755,998
4517,3.4401e+07,1,0.0012127,0.0032685,-0.0014716,-0.45406,-0.056131,-9.7328,0,0,41.411,1,1,755,998
4548,3.4404e+07,1,0.0026859,0.0043641,0.0023275,-0.45202,-0.056961,-9.7339,0,0,41.411,1,1,755,998
4552,3.4406e+07,1,0.0035648,0.0048095,0.0046827,-0.44689,-0.064152,-9.7298,0,0,41.411,1,1,755,998
4556,3.4408e+07,1,0.0054624,0.0044563,0.0058508,-0.44035,-0.084149,-9.7173,0,0,41.411,1,1,755,998
4559,3.4411e+07,1,0.0035667,0.0040675,0.0004759,-0.44094,-0.097924,-9.7109,0,0,41.411,1,1,755,998
4590,3.4414e+07,1,0.00046732,0.0032866,-0.0025954,-0.45641,-0.13154,-9.7105,0,0,41.411,1,1,755,998
4594,3.4416e+07,1,0.00011898,0.0038047,-0.0030866,-0.46839,-0.15364,-9.7194,0,0,41.411,1,1,755,998
4597,3.4419e+07,1,-0.000207,0.005711,-0.0042153,-0.47451,-0.17494,-9.7277,0,0,41.411,1,1,755,998
4600,3.4421e+07,1,-0.00062739,0.0057153,-0.0053834,-0.47671,-0.18818,-9.7392,0,0,41.411,1,1,755,998
4631,3.4424e+07,1,-0.00020085,0.0037475,-0.0071607,-0.47395,-0.18833,-9.757,0,0,41.411,1,1,755,998
4634,3.4427e+07,1,0.00016648,0.0037049,-0.0069755,-0.46794,-0.19015,-9.7551,0,0,41.411,1,1,755,998
4637,3.4429e+07,1,0.00075684,0.0033707,-0.0047041,-0.45871,-0.1931,-9.7418,0,0,41.411,1,1,755,998
4640,3.4431e+07,1,0.00038334,0.0041728,-0.00068617,-0.45303,-0.19087,-9.7031,0,0,41.412,1,1,755,998
4671,3.4434e+07,1,0.0002436,0.007488,0.0019676,-0.46139,-0.19576,-9.6768,0,0,41.412,1,1,755,998
4675,3.4437e+07,1,0.0014903,0.008921,0.0047712,-0.48478,-0.19222,-9.6556,0,0,41.412,1,1,755,998
4682,3.444e+07,1,0.0020543,0.0088628,0.0060452,-0.49124,-0.18643,-9.6494,0,0,41.412,1,1,755,998
4685,3.4441e+07,1,0.0024842,0.0066393,0.005216,-0.50191,-0.18492,-9.6463,0,0,41.412,1,1,755,998
4716,3.4444e+07,1,0.0012368,0.0066885,0.0024133,-0.51849,-0.18216,-9.6647,0,0,41.412,1,1,755,998
4719,3.4446e+07,1,0.0012723,0.0066172,0.0012568,-0.52317,-0.1835,-9.6838,0,0,41.412,1,1,755,998
4722,3.445e+07,1,0.0013323,0.0043764,0.00059325,-0.52201,-0.18293,-9.7021,0,0,41.412,1,1,755,998
4725,3.4452e+07,1,0.00091152,0.00031539,0.0028439,-0.51127,-0.17819,-9.7312,0,0,41.412,1,1,755,998
4756,3.4454e+07,1,-0.0016435,-0.00086546,0.0034999,-0.49388,-0.17529,-9.7601,0,0,41.412,1,1,755,998
4760,3.4457e+07,1,-0.0035546,-0.0019711,0.0019587,-0.48384,-0.16761,-9.7742,0,0,41.412,1,1,755,998
4763,3.4459e+07,1,-0.0033659,-0.0027823,0.0024152,-0.48307,-0.14252,-9.7917,0,0,41.412,1,1,755,998
4766,3.4462e+07,1,-0.0013156,-0.0059271,0.0032092,-0.49094,-0.12216,-9.7965,0,0,41.412,1,1,755,998
4797,3.4465e+07,1,-0.0016803,-0.0074342,0.003866,-0.49867,-0.10163,-9.8077,0,0,41.413,1,1,755,998
4800,3.4467e+07,1,-0.0031161,-0.0061606,0.0033327,-0.50559,-0.096844,-9.8155,0,0,41.413,1,1,755,998
4803,3.4469e+07,1,-0.0031959,-0.0026689,0.0023903,-0.5193,-0.098206,-9.8157,0,0,41.413,1,1,755,998
4806,3.4472e+07,1,-0.0026421,-0.00046254,0.0016744,-0.51404,-0.097633,-9.8042,0,0,41.413,1,1,755,998
4837,3.4475e+07,1,-0.00044466,0.0028195,0.00091801,-0.49066,-0.091421,-9.7767,0,0,41.413,1,1,755,998
4840,3.4478e+07,1,0.0025472,0.0061735,-0.00027334,-0.47283,-0.086346,-9.7623,0,0,41.413,1,1,755,998
4843,3.448e+07,1,0.0036361,0.0078905,-0.00015798,-0.46199,-0.091459,-9.7655,0,0,41.413,1,1,755,998
4847,3.4482e+07,1,0.0034317,0.0071314,0.0011562,-0.46607,-0.097775,-9.7767,0,0,41.413,1,1,755,998
4878,3.4486e+07,1,0.0034235,0.0061632,0.0029285,-0.48476,-0.096304,-9.7911,0,0,41.413,1,1,755,998
4881,3.4487e+07,1,0.0041906,0.005677,0.0041002,-0.49993,-0.093022,-9.8028,0,0,41.414,1,1,755,998
4884,3.449e+07,1,0.0010969,0.0070743,0.003613,-0.5046,-0.11232,-9.8019,0,0,41.414,1,1,755,998
4888,3.4492e+07,1,-0.00026266,0.0076726,0.0006296,-0.50737,-0.13155,-9.7779,0,0,41.414,1,1,755,998
4919,3.4495e+07,1,-0.001787,0.0043987,-0.0057506,-0.49938,-0.16396,-9.7239,0,0,41.414,1,1,755,998
4922,3.4498e+07,1,-0.0031441,0.00029173,-0.0085132,-0.48116,-0.19265,-9.6906,0,0,41.414,1,1,755,998
4925,3.45e+07,1,-0.0043588,-9.5164e-05,-0.0076653,-0.44896,-0.22851,-9.6548,0,0,41.414,1,1,755,998
4929,3.4503e+07,1,-0.0021776,0.00032364,-0.0043832,-0.43853,-0.23647,-9.6543,0,0,41.414,1,1,755,998
4960,3.4506e+07,1,-0.00094798,0.00094341,-0.00089074,-0.43713,-0.23714,-9.6666,0,0,41.414,1,1,755,998
4963,3.4507e+07,1,-0.00047137,0.0015182,3.9066e-05,-0.44415,-0.23176,-9.6765,0,0,41.414,1,1,755,998
4966,3.451e+07,1,-0.00036494,0.0018776,0.00055798,-0.44405,-0.22355,-9.6789,0,0,41.414,1,1,755,998
4969,3.4512e+07,1,-0.0014943,0.001988,0.0015046,-0.43144,-0.20863,-9.6585,0,0,41.414,1,1,755,998
5000,3.4515e+07,1,-0.0035884,0.0023065,0.003124,-0.41367,-0.19561,-9.6213,0,0,41.414,1,1,755,998
5004,3.4517e+07,1,-0.0032796,0.0043185,0.0017101,-0.406,-0.19505,-9.6152,0,0,41.414,1,1,755,998
5007,3.4521e+07,1,-0.0036827,0.0078928,9.6105e-05,-0.40007,-0.18846,-9.6307,0,0,41.415,1,1,755,998
5011,3.4523e+07,1,-0.0037939,0.0098185,-0.0028719,-0.40054,-0.17962,-9.6452,0,0,41.415,1,1,755,998
5044,3.4526e+07,1,-0.0034286,0.0091495,-0.0042874,-0.39844,-0.17663,-9.6547,0,0,41.415,1,1,755,998
5047,3.4528e+07,1,-0.0042072,0.0044208,-0.0021724,-0.38731,-0.17372,-9.6515,0,0,41.415,1,1,755,998
5051,3.4531e+07,1,-0.0042043,0.0025138,-0.0004727,-0.36881,-0.15703,-9.6413,0,0,41.415,1,1,755,998
5054,3.4533e+07,1,-0.0038896,0.0028118,0.00018638,-0.36557,-0.15607,-9.6451,0,0,41.415,1,1,755,998
5085,3.4535e+07,1,-0.0020182,0.0035977,0.0037136,-0.382,-0.15053,-9.6632,0,0,41.415,1,1,755,998
5088,3.4538e+07,1,-0.00049789,0.0044408,0.0042373,-0.41253,-0.15762,-9.6814,0,0,41.415,1,1,755,998
5095,3.4541e+07,1,-0.00045975,0.0042776,0.0044573,-0.43973,-0.16639,-9.6974,0,0,41.416,1,1,755,998
5099,3.4543e+07,1,-0.002322,0.00018755,0.0011874,-0.47883,-0.17532,-9.6986,0,0,41.416,1,1,755,998
5130,3.4546e+07,1,-0.0026005,-0.0018636,-0.0016836,-0.5038,-0.17186,-9.7059,0,0,41.416,1,1,755,998
5133,3.4548e+07,1,-0.0017902,-0.0021056,-0.0031146,-0.51514,-0.17203,-9.7114,0,0,41.416,1,1,755,998
5136,3.4551e+07,1,-0.00021007,-0.0018625,-0.0055284,-0.52363,-0.17674,-9.7202,0,0,41.416,1,1,755,998
5139,3.4553e+07,1,-0.0019836,-0.00092748,-0.0072251,-0.51757,-0.17619,-9.7113,0,0,41.416,1,1,755,998
5172,3.4556e+07,1,-0.0046456,-0.0021207,-0.0053593,-0.50277,-0.16379,-9.6923,0,0,41.416,1,1,755,998
5175,3.4558e+07,1,-0.006421,-0.0019023,-0.001551,-0.47331,-0.15369,-9.6434,0,0,41.416,1,1,755,998
5178,3.4561e+07,1,-0.0067552,-0.0014607,-0.00011502,-0.45768,-0.14971,-9.6027,0,0,41.416,1,1,755,998
5182,3.4563e+07,1,-0.006679,0.00088187,0.0014861,-0.43823,-0.14811,-9.5562,0,0,41.417,1,1,755,998
5213,3.4566e+07,1,-0.0074113,0.0023641,0.0016394,-0.43261,-0.14727,-9.5406,0,0,41.417,1,1,755,998
5216,3.4569e+07,1,-0.009213,0.0093616,-0.0014158,-0.43923,-0.13676,-9.5418,0,0,41.417,1,1,755,998
5219,3.4571e+07,1,-0.0072761,0.011135,-0.0026276,-0.44761,-0.13254,-9.553,0,0,41.417,1,1,755,998
5224,3.4573e+07,1,-0.002073,0.010953,-0.0027035,-0.46815,-0.13603,-9.5731,0,0,41.417,1,1,755,998
5255,3.4576e+07,1,0.00030404,0.0058483,0.0015494,-0.4826,-0.14241,-9.584,0,0,41.417,1,1,755,998
5258,3.4578e+07,1,-0.00029304,0.0029154,0.0037155,-0.4949,-0.15077,-9.6001,0,0,41.417,1,1,755,998
5261,3.4581e+07,1,-0.0010863,0.0024852,0.0041228,-0.499,-0.14917,-9.6133,0,0,41.417,1,1,755,998
5264,3.4583e+07,1,-0.0027062,0.0025635,0.004552,-0.50323,-0.13441,-9.6496,0,0,41.417,1,1,755,998
5295,3.4586e+07,1,-0.0036395,0.0032435,0.0041065,-0.51485,-0.11705,-9.68,0,0,41.418,1,1,755,998
5298,3.4588e+07,1,-0.006787,0.0090515,-0.0020521,-0.52223,-0.092068,-9.7173,0,0,41.418,1,1,755,998
5301,3.4593e+07,1,-0.0053837,0.010231,-0.010939,-0.52499,-0.10263,-9.705,0,0,41.418,1,1,755,998
5333,3.4597e+07,1,7.8772e-05,0.0064848,-0.0097747,-0.52027,-0.12798,-9.6721,0,0,41.418,1,1,755,998
5336,3.4599e+07,1,0.0013301,0.0062462,-0.0073924,-0.52478,-0.14158,-9.66,0,0,41.418,1,1,755,998
5339,3.4601e+07,1,0.0032961,0.0089235,-0.0012513,-0.52414,-0.14648,-9.6503,0,0,41.418,1,1,755,998
5342,3.4604e+07,1,0.0033282,0.011106,0.0031893,-0.52115,-0.13841,-9.6496,0,0,41.418,1,1,755,998
5373,3.4606e+07,1,0.0018603,0.0074558,0.003549,-0.51501,-0.12265,-9.6422,0,0,41.419,1,1,755,998
5376,3.461e+07,1,0.0019838,0.0020871,0.0026536,-0.51131,-0.10446,-9.6335,0,0,41.419,1,1,755,998
5379,3.4611e+07,1,0.0027356,0.00031909,0.0019201,-0.51809,-0.069664,-9.6475,0,0,41.419,1,1,755,998
5382,3.4614e+07,1,0.0031844,0.00012686,0.0026184,-0.5313,-0.05088,-9.677,0,0,41.419,1,1,755,998
5413,3.4617e+07,1,0.0033446,0.0017578,0.0026626,-0.54461,-0.033938,-9.7268,0,0,41.419,1,1,755,998
5417,3.4619e+07,1,0.0025517,0.003071,0.0019703,-0.53999,-0.023639,-9.7618,0,0,41.419,1,1,755,998
5420,3.4622e+07,1,-5.7913e-05,0.0048439,-0.001184,-0.52154,-0.007428,-9.7747,0,0,41.419,1,1,755,998
5423,3.4624e+07,1,-0.00022538,0.0054202,-0.0014884,-0.50552,-0.0087115,-9.7748,0,0,41.419,1,1,755,998
5454,3.4626e+07,1,-0.0004989,0.0064569,-9.8557e-05,-0.48139,-0.012719,-9.7526,0,0,41.419,1,1,755,998
5458,3.4629e+07,1,0.00022487,0.007182,0.0010764,-0.47223,-0.016733,-9.7331,0,0,41.42,1,1,755,998
5461,3.4632e+07,1,0.0022928,0.008517,-8.4229e-05,-0.46607,-0.031211,-9.7129,0,0,41.42,1,1,755,998
5464,3.4634e+07,1,0.0047843,0.0084533,-0.0021713,-0.46712,-0.045277,-9.7047,0,0,41.42,1,1,755,998
5495,3.4637e+07,1,0.004877,0.0035222,-0.0031673,-0.48065,-0.080262,-9.7062,0,0,41.42,1,1,755,998
5499,3.464e+07,1,0.0038964,0.0024753,-0.0030698,-0.4837,-0.10268,-9.7205,0,0,41.42,1,1,755,998
5506,3.4643e+07,1,0.00237,-0.00062845,-0.0013746,-0.48127,-0.12166,-9.7302,0,0,41.42,1,1,755,998
5509,3.4645e+07,1,0.0024891,-0.0020203,0.0020247,-0.47263,-0.13028,-9.7312,0,0,41.42,1,1,755,998
5540,3.4647e+07,1,0.0021853,-0.00096143,0.0048962,-0.47087,-0.1261,-9.7082,0,0,41.42,1,1,755,998
5544,3.465e+07,1,0.00092182,0.0018374,0.0050144,-0.46731,-0.11665,-9.6721,0,0,41.42,1,1,755,998
5547,3.4653e+07,1,0.00020611,0.003558,0.0024013,-0.46719,-0.10691,-9.6207,0,0,41.421,1,1,755,998
5550,3.4655e+07,1,-0.00056004,0.0018161,-0.0016006,-0.47254,-0.10752,-9.6069,0,0,41.421,1,1,755,998
5581,3.4658e+07,1,-0.00055961,0.0018556,-0.0048938,-0.48875,-0.085322,-9.6155,0,0,41.421,1,1,755,998
5585,3.4661e+07,1,-0.00039509,0.0029314,-0.0050912,-0.4971,-0.07319,-9.6256,0,0,41.421,1,1,755,998
5588,3.4663e+07,1,-0.00032057,0.0047342,-0.0034877,-0.51093,-0.064635,-9.6435,0,0,41.421,1,1,755,998
5591,3.4665e+07,1,-0.00063548,0.0032783,-0.00074998,-0.51934,-0.0644,-9.6544,0,0,41.421,1,1,755,998
5622,3.4668e+07,1,-0.0018352,0.0016959,0.0012624,-0.53729,-0.062741,-9.6611,0,0,41.421,1,1,755,998
5626,3.4671e+07,1,-0.00064489,0.0020108,0.0025955,-0.55075,-0.05004,-9.6729,0,0,41.421,1,1,755,998
5629,3.4673e+07,1,0.00071769,0.0018192,0.0028511,-0.55847,-0.036706,-9.6768,0,0,41.422,1,1,755,998
5632,3.4676e+07,1,-1.9389e-05,0.0021027,0.0018214,-0.55461,-0.03484,-9.6743,0,0,41.422,1,1,755,998
5663,3.4678e+07,1,-0.0046493,0.0056173,-0.0041388,-0.54745,-0.03896,-9.6704,0,0,41.422,1,1,755,998
5666,3.4682e+07,1,-0.0047859,0.0062354,-0.0060342,-0.5475,-0.048684,-9.6613,0,0,41.422,1,1,755,998
5669,3.4683e+07,1,-0.0024009,0.0054112,-0.0088435,-0.53881,-0.05988,-9.6539,0,0,41.422,1,1,755,998
5672,3.4688e+07,1,0.0048613,0.0014893,-0.0091859,-0.50744,-0.092796,-9.666,0,0,41.422,1,1,755,998
5704,3.4692e+07,1,0.0042204,0.0023321,-0.0084382,-0.50226,-0.09133,-9.6407,0,0,41.422,1,1,755,998
5707,3.4693e+07,1,0.003293,0.0043702,-0.0088414,-0.49846,-0.0789,-9.6317,0,0,41.422,1,1,755,998
5710,3.4696e+07,1,0.0014607,0.01025,-0.0097692,-0.49074,-0.071079,-9.6374,0,0,41.423,1,1,755,998
5713,3.4698e+07,1,-0.0010771,0.013505,-0.0085401,-0.48335,-0.084858,-9.6486,0,0,41.423,1,1,755,998
5745,3.4701e+07,1,-0.0037994,0.012376,-0.0074878,-0.47887,-0.094649,-9.6698,0,0,41.423,1,1,755,998
5748,3.4704e+07,1,-0.004957,0.010186,-0.0077873,-0.48003,-0.10895,-9.678,0,0,41.423,1,1,755,998
5751,3.4706e+07,1,-0.0050263,0.0089344,-0.0080949,-0.48365,-0.12469,-9.6796,0,0,41.423,1,1,755,998
5754,3.4709e+07,1,-0.0034436,0.0040798,-0.0080331,-0.49148,-0.139,-9.6707,0,0,41.423,1,1,755,998
5785,3.4711e+07,1,0.0010917,-0.0038461,-0.0015613,-0.50621,-0.12421,-9.6576,0,0,41.423,1,1,755,998
5788,3.4714e+07,1,0.0020083,-0.0041749,0.001273,-0.51464,-0.11269,-9.6671,0,0,41.423,1,1,755,998
5792,3.4716e+07,1,0.0034245,-0.0020959,0.0041775,-0.51659,-0.10755,-9.6731,0,0,41.423,1,1,755,998
5795,3.4718e+07,1,0.0028323,-0.00036702,0.0030144,-0.51217,-0.09805,-9.6739,0,0,41.423,1,1,755,998
5826,3.4721e+07,1,0.00029663,-0.00015293,0.00014418,-0.50726,-0.10708,-9.661,0,0,41.423,1,1,755,998
5830,3.4724e+07,1,-0.0032575,0.0008188,-0.0024215,-0.50781,-0.12775,-9.6647,0,0,41.423,1,1,755,998
5833,3.4726e+07,1,-0.0034393,0.00093637,-0.0042997,-0.50846,-0.14379,-9.667,0,0,41.423,1,1,755,998
5838,3.4729e+07,1,-0.0014077,-0.00011313,-0.0087561,-0.50945,-0.14546,-9.6769,0,0,41.424,1,1,755,998
5869,3.4732e+07,1,-2.298e-05,-0.00023117,-0.0091495,-0.50907,-0.11627,-9.7234,0,0,41.424,1,1,755,998
5872,3.4734e+07,1,-0.0015632,6.6738e-05,-0.0064113,-0.50813,-0.10058,-9.7584,0,0,41.424,1,1,755,998
5876,3.4737e+07,1,-0.0033907,0.0017632,-0.0047865,-0.50739,-0.079875,-9.7942,0,0,41.424,1,1,755,998
5879,3.474e+07,1,-0.0025289,0.0023285,-0.0012766,-0.50276,-0.076416,-9.801,0,0,41.424,1,1,755,998
5910,3.4743e+07,1,-1.7185e-05,0.0016669,0.0030594,-0.49112,-0.072596,-9.7825,0,0,41.424,1,1,755,998
5918,3.4746e+07,1,0.0024297,0.0011947,0.0063757,-0.47409,-0.074552,-9.7591,0,0,41.424,1,1,755,998
5921,3.4748e+07,1,0.0020087,0.0013224,0.0066804,-0.46567,-0.091058,-9.7333,0,0,41.424,1,1,755,998
5924,3.4751e+07,1,0.00096256,-0.00057362,0.0052035,-0.44487,-0.12226,-9.7049,0,0,41.425,1,1,755,998
5955,3.4753e+07,1,0.0013406,-0.0034058,0.0027248,-0.42214,-0.14701,-9.6961,0,0,41.425,1,1,755,998
5959,3.4756e+07,1,0.00023645,-0.0067283,0.0048357,-0.41035,-0.15596,-9.7098,0,0,41.425,1,1,755,998
5962,3.4758e+07,1,-0.00031342,-0.0063172,0.0066548,-0.40015,-0.15909,-9.74,0,0,41.425,1,1,755,998
5965,3.4761e+07,1,-1.16e-05,-0.0011674,0.0065866,-0.3984,-0.15531,-9.7536,0,0,41.425,1,1,755,998
5996,3.4764e+07,1,0.00080305,0.0061596,0.0056594,-0.39558,-0.15127,-9.7491,0,0,41.425,1,1,755,998
5999,3.4766e+07,1,-0.0010821,0.007565,0.0028868,-0.38272,-0.16872,-9.7193,0,0,41.425,1,1,755,998
6002,3.4769e+07,1,-0.0026545,0.0033744,-0.00020248,-0.38088,-0.1874,-9.6896,0,0,41.425,1,1,755,998
6005,3.4771e+07,1,-0.0018729,-0.00027078,-0.0010244,-0.39958,-0.2111,-9.6447,0,0,41.425,1,1,755,998
6036,3.4775e+07,1,-0.0017036,-0.0015323,-0.00043951,-0.42381,-0.19838,-9.6203,0,0,41.426,1,1,755,998
6039,3.4777e+07,1,-0.0016766,0.00016014,-0.00088212,-0.43841,-0.17849,-9.6092,0,0,41.426,1,1,755,998
6044,3.478e+07,1,-0.0035792,0.0022054,-0.00054243,-0.46414,-0.16059,-9.5912,0,0,41.426,1,1,755,998
6047,3.4782e+07,1,-0.0045759,0.0021368,0.0016059,-0.47696,-0.15709,-9.5838,0,0,41.426,1,1,755,998
6078,3.4784e+07,1,-0.0021827,0.00077397,0.0056272,-0.48942,-0.14842,-9.5741,0,0,41.426,1,1,755,998
6081,3.4788e+07,1,-0.00069774,-7.1976e-05,0.006683,-0.49467,-0.1406,-9.5713,0,0,41.426,1,1,755,998
6085,3.4789e+07,1,0.00049387,0.00051665,0.0058561,-0.4935,-0.14729,-9.5683,0,0,41.426,1,1,755,998
6088,3.4793e+07,1,0.0002408,0.00081355,0.0052865,-0.49473,-0.15266,-9.5709,0,0,41.426,1,1,755,998
6091,3.4794e+07,1,-0.00032148,0.00032737,0.0049102,-0.49728,-0.15137,-9.579,0,0,41.427,1,1,755,998
6122,3.4797e+07,1,0.00083191,0.0015107,0.0049072,-0.49685,-0.15209,-9.5769,0,0,41.427,1,1,755,998
6125,3.48e+07,1,0.00078082,0.0019525,0.0054601,-0.49745,-0.14656,-9.5719,0,0,41.427,1,1,755,998
6128,3.4802e+07,1,-0.0017021,0.0025107,0.0070662,-0.49842,-0.12138,-9.5739,0,0,41.427,1,1,755,998
6131,3.4805e+07,1,-0.0039206,0.0028267,0.007529,-0.50363,-0.10101,-9.5874,0,0,41.427,1,1,755,998
6162,3.4808e+07,1,-0.002258,0.0028124,0.0066574,-0.50174,-0.089266,-9.5891,0,0,41.428,1,1,755,998
6166,3.4811e+07,1,-0.0021353,0.0018651,0.0058182,-0.48195,-0.085833,-9.5912,0,0,41.428,1,1,755,998
6169,3.4813e+07,1,-0.0038086,0.0005524,0.0019977,-0.47468,-0.082814,-9.6039,0,0,41.428,1,1,755,998
6172,3.4816e+07,1,-0.0047232,-0.0023496,-0.0020764,-0.46868,-0.083699,-9.6304,0,0,41.428,1,1,755,998
6203,3.4818e+07,1,-0.00669,-0.0039791,-0.0073737,-0.45312,-0.087532,-9.6806,0,0,41.428,1,1,755,998
6206,3.4821e+07,1,-0.0064365,-0.0035142,-0.0078659,-0.44776,-0.090745,-9.7297,0,0,41.428,1,1,755,998
6209,3.4823e+07,1,-0.0038884,-0.0038348,-0.0059244,-0.44085,-0.093419,-9.8014,0,0,41.428,1,1,755,998
6212,3.4826e+07,1,-0.00099866,-0.0054126,-0.0031381,-0.4307,-0.09364,-9.8406,0,0,41.428,1,1,755,998
6243,3.483e+07,1,-0.0020953,0.00034082,0.00073923,-0.41321,-0.10865,-9.9122,0,0,41.429,1,1,755,998
6247,3.4832e+07,1,-0.0030576,0.0022807,0.0014921,-0.40696,-0.10587,-9.9386,0,0,41.429,1,1,755,998
6250,3.4834e+07,1,-0.0030628,0.0033817,0.0017356,-0.40038,-0.102,-9.9634,0,0,41.429,1,1,755,998
6253,3.4836e+07,1,-0.0021518,0.0029036,0.00019312,-0.40065,-0.10051,-9.9628,0,0,41.429,1,1,755,998
6284,3.4839e+07,1,-0.0016167,0.0012719,-0.0041283,-0.40996,-0.098059,-9.947,0,0,41.429,1,1,755,998
6287,3.4842e+07,1,-0.0010172,0.001267,-0.0059646,-0.42496,-0.094061,-9.9259,0,0,41.429,1,1,755,998
6290,3.4844e+07,1,0.00045717,0.0014024,-0.0015211,-0.4456,-0.085869,-9.8526,0,0,41.429,1,1,755,998
6293,3.4846e+07,1,0.0012207,0.0028095,0.001704,-0.45066,-0.085167,-9.7975,0,0,41.429,1,1,755,998
6328,3.4849e+07,1,0.0017037,0.0052344,0.0020504,-0.45792,-0.092025,-9.756,0,0,41.429,1,1,755,998
6334,3.4852e+07,1,0.0015613,0.0056937,0.0024823,-0.46788,-0.090344,-9.7393,0,0,41.43,1,1,755,998
6338,3.4854e+07,1,-0.0018635,0.0044911,0.0037043,-0.47197,-0.091113,-9.7237,0,0,41.43,1,1,755,998
6341,3.4857e+07,1,-0.0035784,0.0037023,0.003119,-0.45578,-0.10721,-9.674,0,0,41.43,1,1,755,998
6372,3.4859e+07,1,-0.0072223,-0.0025222,0.005223,-0.44483,-0.13124,-9.6226,0,0,41.43,1,1,755,998
6376,3.4862e+07,1,-0.0068702,-0.0035819,0.0065226,-0.44891,-0.13733,-9.6049,0,0,41.43,1,1,755,998
6379,3.4864e+07,1,-0.0044484,-0.0033737,0.0077728,-0.4718,-0.12035,-9.5961,0,0,41.43,1,1,755,998
6382,3.4867e+07,1,-0.003182,-0.0037639,0.0060152,-0.48009,-0.10433,-9.5934,0,0,41.43,1,1,755,998
6413,3.487e+07,1,-0.0034629,-0.0026962,0.0038155,-0.46911,-0.080192,-9.5894,0,0,41.43,1,1,755,998
6416,3.4872e+07,1,-0.0030531,-7.7765e-06,0.0029485,-0.46463,-0.06803,-9.5893,0,0,41.431,1,1,755,998
6419,3.4875e+07,1,-0.0029005,0.0010396,0.0017971,-0.45938,-0.074763,-9.5873,0,0,41.431,1,1,755,998
6422,3.4877e+07,1,-0.0029679,0.0016502,0.0007373,-0.44646,-0.096156,-9.5848,0,0,41.431,1,1,755,998
6453,3.4879e+07,1,-0.005804,0.0044325,-0.0037709,-0.42204,-0.12014,-9.5927,0,0,41.431,1,1,755,998
6457,3.4882e+07,1,-0.0068182,0.0051758,-0.0060605,-0.4054,-0.13251,-9.6004,0,0,41.431,1,1,755,998
6460,3.4885e+07,1,-0.0053625,0.0046485,-0.0095606,-0.37907,-0.15642,-9.6038,0,0,41.431,1,1,755,998
6463,3.4889e+07,1,0.00044197,0.0023208,-0.0070859,-0.36293,-0.22187,-9.5908,0,0,41.431,1,1,755,998
6494,3.4892e+07,1,0.0019809,0.0023241,-0.0018056,-0.36972,-0.24546,-9.5765,0,0,41.431,1,1,755,998
6497,3.4897e+07,1,0.00012302,0.0034951,-0.0020491,-0.39545,-0.25154,-9.5582,0,0,41.432,1,1,755,998
6500,3.49e+07,1,-0.00069844,0.0031626,-0.002661,-0.39877,-0.25281,-9.5623,0,0,41.432,1,1,755,998
6531,3.4902e+07,1,-0.00035571,0.0012351,-0.0015722,-0.41508,-0.23501,-9.5603,0,0,41.432,1,1,755,998
6536,3.4905e+07,1,0.001193,-0.0032655,0.00030893,-0.45672,-0.20459,-9.5677,0,0,41.432,1,1,755,998
6539,3.4908e+07,1,0.0021416,-0.0065254,0.002349,-0.48301,-0.18153,-9.5799,0,0,41.432,1,1,755,998
6542,3.491e+07,1,0.0027082,-0.0056609,0.0035087,-0.51501,-0.16814,-9.6128,0,0,41.432,1,1,755,998
6573,3.4913e+07,1,0.0033606,0.00040667,0.0038166,-0.52313,-0.16304,-9.6556,0,0,41.432,1,1,755,998
6577,3.4915e+07,1,0.0026494,0.0084134,0.0030725,-0.51241,-0.15668,-9.6697,0,0,41.433,1,1,755,998
6580,3.4918e+07,1,0.0028713,0.011883,0.0019594,-0.4897,-0.15186,-9.6824,0,0,41.433,1,1,755,998
6583,3.4921e+07,1,0.0021927,0.011086,0.0014353,-0.47569,-0.16126,-9.7006,0,0,41.433,1,1,755,998
6614,3.4924e+07,1,0.0005337,0.010062,3.0171e-05,-0.45928,-0.17598,-9.6993,0,0,41.433,1,1,755,998
6617,3.4926e+07,1,-0.00065571,0.0093717,-0.00076435,-0.44901,-0.18578,-9.6747,0,0,41.433,1,1,755,998
6620,3.4928e+07,1,-0.0041586,0.0064242,-0.0043074,-0.42544,-0.19104,-9.6326,0,0,41.434,1,1,755,998
6623,3.4931e+07,1,-0.0040937,0.0057522,-0.004636,-0.41013,-0.19335,-9.6006,0,0,41.434,1,1,755,998
6654,3.4933e+07,1,-0.0023704,0.0037706,-0.0026577,-0.39476,-0.19199,-9.5689,0,0,41.434,1,1,755,998
6658,3.4936e+07,1,-0.00024398,0.0038948,-0.00058574,-0.3899,-0.17993,-9.5639,0,0,41.434,1,1,755,998
6663,3.4939e+07,1,0.00074027,0.0017425,-0.0011271,-0.39352,-0.16197,-9.5793,0,0,41.434,1,1,755,998
6666,3.4941e+07,1,-0.0013793,-0.0021778,-0.0026952,-0.40313,-0.15537,-9.5888,0,0,41.434,1,1,755,998
6697,3.4943e+07,1,-0.00066264,-0.00031582,-0.0056111,-0.40348,-0.145,-9.5973,0,0,41.434,1,1,755,998
6700,3.4946e+07,1,0.00075001,0.0017646,-0.0060119,-0.40135,-0.14312,-9.6135,0,0,41.434,1,1,755,998
6704,3.4949e+07,1,0.0026332,0.0069972,-0.0027611,-0.40141,-0.15513,-9.6437,0,0,41.435,1,1,755,998
6712,3.4951e+07,1,0.0021308,0.0070105,-0.0013526,-0.39683,-0.1599,-9.6606,0,0,41.435,1,1,755,998
6743,3.4954e+07,1,0.00028409,0.003226,0.00012558,-0.37575,-0.15048,-9.6665,0,0,41.435,1,1,755,998
6747,3.4956e+07,1,0.00030507,0.0026682,0.0010035,-0.3752,-0.14301,-9.6672,0,0,41.435,1,1,755,998
6750,3.4959e+07,1,0.00072703,0.0013423,0.001564,-0.38606,-0.12836,-9.6769,0,0,41.435,1,1,755,998
6753,3.4961e+07,1,0.0012738,-0.00061131,0.0032265,-0.41389,-0.094964,-9.6905,0,0,41.435,1,1,755,998
6784,3.4964e+07,1,-0.00071669,-0.0010362,0.0050866,-0.4469,-0.064128,-9.6956,0,0,41.435,1,1,755,998
6787,3.4966e+07,1,-0.0019065,0.00020871,0.0056603,-0.46686,-0.04614,-9.7028,0,0,41.435,1,1,755,998
6790,3.4969e+07,1,-0.0029985,0.0038664,0.0055195,-0.48698,-0.029749,-9.7081,0,0,41.435,1,1,755,998
6793,3.4972e+07,1,-0.0032482,0.0042683,0.0030859,-0.50364,-0.023801,-9.6973,0,0,41.436,1,1,755,998
6824,3.4974e+07,1,-0.0025781,0.004248,0.00089767,-0.50924,-0.030191,-9.6922,0,0,41.436,1,1,755,998
6828,3.4977e+07,1,-0.0033984,0.0053443,0.0010999,-0.50799,-0.050393,-9.706,0,0,41.436,1,1,755,998
6831,3.4979e+07,1,-0.0049044,0.004094,0.0007447,-0.50275,-0.073748,-9.7186,0,0,41.436,1,1,755,998
6834,3.4983e+07,1,-0.0028907,0.0018655,-0.0018188,-0.49527,-0.089759,-9.7193,0,0,41.436,1,1,755,998
6837,3.4984e+07,1,-0.00028534,-0.00062982,-0.0013276,-0.49685,-0.11713,-9.7299,0,0,41.436,1,1,755,998
6868,3.4987e+07,1,0.00011966,-0.00065186,-0.00059005,-0.50509,-0.1447,-9.7423,0,0,41.436,1,1,755,998
6872,3.4989e+07,1,-0.00071078,0.0030826,-0.00026332,-0.51373,-0.16121,-9.7444,0,0,41.436,1,1,755,998
6875,3.4992e+07,1,-0.00093708,0.0051219,0.0001211,-0.51916,-0.17222,-9.7395,0,0,41.436,1,1,755,998
6878,3.4995e+07,1,-0.0015504,0.0044062,-0.0033493,-0.52455,-0.18663,-9.7182,0,0,41.437,1,1,755,998
6909,3.4997e+07,1,-0.00099801,0.00059835,-0.0038979,-0.51883,-0.18633,-9.6885,0,0,41.437,1,1,755,998
6912,3.5002e+07,1,0.0030084,-0.00057022,4.2103e-05,-0.50387,-0.15904,-9.677,0,0,41.437,1,1,755,998
6916,3.5005e+07,1,0.0039925,-0.00072176,0.00018151,-0.49607,-0.15202,-9.6782,0,0,41.437,1,1,755,998
6947,3.5007e+07,1,0.0032658,-0.0019666,-0.00013813,-0.49195,-0.14391,-9.6763,0,0,41.437,1,1,755,998
6950,3.5011e+07,1,0.0016239,-0.0023307,0.0014073,-0.47863,-0.1483,-9.6856,0,0,41.437,1,1,755,998
6953,3.5013e+07,1,0.0020858,-0.0012989,0.0010645,-0.46168,-0.15397,-9.6954,0,0,41.437,1,1,755,998
6956,3.5015e+07,1,0.0028678,0.0016485,0.00064305,-0.44791,-0.16433,-9.6844,0,0,41.437,1,1,755,998
6987,3.5018e+07,1,0.0012809,0.0035578,-0.0041244,-0.42289,-0.15491,-9.6816,0,0,41.437,1,1,755,998
6990,3.502e+07,1,-0.00051865,0.0034577,-0.0064432,-0.40818,-0.13598,-9.6734,0,0,41.437,1,1,755,998
6993,3.5023e+07,1,-0.0016644,0.0042673,-0.0091169,-0.39798,-0.11191,-9.6542,0,0,41.437,1,1,755,998
6996,3.5025e+07,1,0.00019699,0.0047177,-0.0084129,-0.40416,-0.077122,-9.6352,0,0,41.438,1,1,755,998
7027,3.5028e+07,1,0.0010292,0.0029257,-0.0070555,-0.42955,-0.059325,-9.6281,0,0,41.438,1,1,755,998
7032,3.5031e+07,1,0.0027899,0.0011472,-0.0047456,-0.45086,-0.065676,-9.6312,0,0,41.438,1,1,755,998
7035,3.5033e+07,1,0.0034596,0.00057091,-0.003787,-0.46702,-0.082315,-9.648,0,0,41.438,1,1,755,998
7038,3.5036e+07,1,0.00031568,0.0022522,-0.00222,-0.47706,-0.10064,-9.6831,0,0,41.438,1,1,755,998
7069,3.5038e+07,1,-0.0037376,0.0031074,-0.0057451,-0.47269,-0.10871,-9.6885,0,0,41.438,1,1,755,998
7073,3.5041e+07,1,-0.004045,0.0027004,-0.0081477,-0.45565,-0.12064,-9.6562,0,0,41.438,1,1,755,998
7076,3.5043e+07,1,-0.0015073,0.0019853,-0.0076249,-0.44737,-0.13473,-9.6282,0,0,41.438,1,1,755,998
7079,3.5046e+07,1,0.00094693,-0.0019247,-0.0039737,-0.43996,-0.1493,-9.5991,0,0,41.438,1,1,755,998
7112,3.5049e+07,1,0.0017724,-0.0039295,0.0016736,-0.43614,-0.16543,-9.5558,0,0,41.438,1,1,755,998
7116,3.5051e+07,1,0.0039832,-0.0002775,0.00468,-0.43989,-0.17837,-9.5531,0,0,41.438,1,1,755,998
7123,3.5055e+07,1,0.0074871,0.0035772,0.005289,-0.45129,-0.19063,-9.5674,0,0,41.438,1,1,755,998
7126,3.5057e+07,1,0.0076476,0.0046038,0.0050606,-0.4542,-0.18771,-9.5883,0,0,41.438,1,1,755,998
7157,3.506e+07,1,0.0016888,0.0068869,0.003237,-0.45416,-0.17393,-9.6256,0,0,41.439,1,1,755,998
7161,3.5062e+07,1,-0.0044203,0.0076123,0.00085563,-0.456,-0.15879,-9.6524,0,0,41.439,1,1,755,998
7164,3.5064e+07,1,-0.005418,0.0077743,-0.00028904,-0.45505,-0.1507,-9.6733,0,0,41.439,1,1,755,998
7167,3.5067e+07,1,-0.0024651,0.0072495,-0.0019083,-0.4626,-0.14166,-9.699,0,0,41.439,1,1,755,998
7198,3.507e+07,1,-0.00028637,0.0058291,-0.003173,-0.49326,-0.12812,-9.7149,0,0,41.439,1,1,755,998
7201,3.5072e+07,1,0.00066587,0.0052918,-0.0036174,-0.52066,-0.12102,-9.7258,0,0,41.439,1,1,755,998
7204,3.5075e+07,1,0.0041038,0.0022627,-0.0010864,-0.55792,-0.1336,-9.7261,0,0,41.439,1,1,755,998
7207,3.5078e+07,1,0.0051526,-0.00052474,0.00083956,-0.57355,-0.13711,-9.7028,0,0,41.439,1,1,755,998
7238,3.5081e+07,1,0.0046722,-0.0040411,0.0046763,-0.57445,-0.14288,-9.6685,0,0,41.44,1,1,755,998
7242,3.5083e+07,1,0.0042453,-0.0030398,0.0063551,-0.56297,-0.15073,-9.6455,0,0,41.44,1,1,755,998
7245,3.5085e+07,1,0.0031569,-0.0012719,0.0090114,-0.54017,-0.14303,-9.6322,0,0,41.44,1,1,755,998
7249,3.5088e+07,1,0.0016256,-0.0020687,0.0093184,-0.51512,-0.12341,-9.6453,0,0,41.44,1,1,755,998
7280,3.5091e+07,1,2.8827e-05,-0.0029505,0.0075184,-0.47073,-0.090724,-9.6905,0,0,41.44,1,1,755,998
7283,3.5098e+07,1,0.0018258,-0.0021912,0.0017452,-0.43647,-0.10396,-9.7611,0,0,41.44,1,1,755,998
7314,3.5101e+07,1,0.0026111,-0.0034791,0.001821,-0.44622,-0.13341,-9.8013,0,0,41.44,1,1,755,998
7318,3.5103e+07,1,0.0027163,-0.0056307,0.0028398,-0.45752,-0.14374,-9.8304,0,0,41.44,1,1,755,998
7321,3.5106e+07,1,0.0025622,-0.0053549,0.0041926,-0.46652,-0.15407,-9.8566,0,0,41.44,1,1,755,998
7324,3.5109e+07,1,0.0022054,0.00047596,0.0034726,-0.46886,-0.17401,-9.8641,0,0,41.44,1,1,755,998
7355,3.5111e+07,1,0.003469,0.0042934,0.00087545,-0.48464,-0.1792,-9.8456,0,0,41.44,1,1,755,998
7359,3.5113e+07,1,0.0028829,0.0048507,-0.00025338,-0.49775,-0.17519,-9.8308,0,0,41.441,1,1,755,998
7362,3.5116e+07,1,0.0016141,0.0027714,-0.00074378,-0.51349,-0.16571,-9.7996,0,0,41.441,1,1,755,998
7365,3.5119e+07,1,0.0018218,0.0027258,-0.0012106,-0.51112,-0.16093,-9.7851,0,0,41.441,1,1,755,998
7396,3.5122e+07,1,0.0034705,0.0055946,-0.0027048,-0.50359,-0.15835,-9.7726,0,0,41.441,1,1,755,998
7399,3.5124e+07,1,0.0031119,0.005402,0.0009169,-0.50735,-0.15956,-9.7498,0,0,41.441,1,1,755,998
7404,3.5127e+07,1,0.0022646,0.0044774,0.002821,-0.5179,-0.1589,-9.7373,0,0,41.441,1,1,755,998
7408,3.513e+07,1,-0.002722,0.0019756,-0.0005779,-0.52808,-0.16442,-9.7227,0,0,41.441,1,1,755,998
7439,3.5132e+07,1,-0.0051315,0.0012542,-0.005052,-0.52329,-0.16854,-9.7206,0,0,41.441,1,1,755,998
7443,3.5135e+07,1,-0.0051199,0.0028243,-0.0061887,-0.51842,-0.17298,-9.7191,0,0,41.441,1,1,755,998
7446,3.5137e+07,1,-0.0030133,0.0076067,-0.0065834,-0.50207,-0.17262,-9.7204,0,0,41.442,1,1,755,998
7449,3.514e+07,1,-0.0033202,0.0081373,-0.0062559,-0.49594,-0.16273,-9.7218,0,0,41.442,1,1,755,998
7480,3.5143e+07,1,-0.0064116,0.008799,-0.0052612,-0.49014,-0.15267,-9.7296,0,0,41.442,1,1,755,998
7484,3.5145e+07,1,-0.010692,0.0084437,-0.0052949,-0.47859,-0.15472,-9.7394,0,0,41.442,1,1,755,998
7488,3.5148e+07,1,-0.013303,0.0089012,-0.0063068,-0.45601,-0.16512,-9.7681,0,0,41.442,1,1,755,998
7491,3.515e+07,1,-0.011379,0.0074252,-0.0059994,-0.45452,-0.17189,-9.7701,0,0,41.442,1,1,755,998
7524,3.5152e+07,1,-0.010362,0.0027365,-0.0039758,-0.45454,-0.17562,-9.7604,0,0,41.442,1,1,755,998
7528,3.5155e+07,1,-0.0090643,-0.00333,0.00075995,-0.44812,-0.18558,-9.7539,0,0,41.442,1,1,755,998
7535,3.5158e+07,1,-0.0065113,-0.0072376,0.0070306,-0.43638,-0.20332,-9.7421,0,0,41.443,1,1,755,998
7539,3.516e+07,1,-0.005281,-0.0076414,0.0092535,-0.43295,-0.21059,-9.7367,0,0,41.443,1,1,755,998
7570,3.5163e+07,1,-0.0059871,-0.0043107,0.011202,-0.43773,-0.20214,-9.7369,0,0,41.443,1,1,755,998
7573,3.5165e+07,1,-0.0071634,0.0006878,0.0079459,-0.44151,-0.19753,-9.74,0,0,41.443,1,1,755,998
7576,3.5169e+07,1,-0.0075631,0.0039809,0.0050029,-0.4474,-0.19965,-9.7324,0,0,41.443,1,1,755,998
7579,3.5171e+07,1,-0.0054198,0.0040857,0.0034054,-0.45629,-0.19655,-9.7067,0,0,41.443,1,1,755,998
7610,3.5173e+07,1,-0.001781,0.0040995,0.002275,-0.46842,-0.18479,-9.6702,0,0,41.443,1,1,755,998
7614,3.5175e+07,1,-0.00035146,0.0037993,0.0020365,-0.4682,-0.17577,-9.6275,0,0,41.443,1,1,755,998
7617,3.5178e+07,1,-0.0015617,0.002152,0.00047309,-0.46354,-0.17204,-9.5742,0,0,41.443,1,1,755,998
7620,3.5181e+07,1,-0.0031767,0.0021824,-0.0010783,-0.43953,-0.17748,-9.5401,0,0,41.444,1,1,755,998
7651,3.5184e+07,1,-0.0050616,-0.0001505,-0.005391,-0.4286,-0.17249,-9.5478,0,0,41.444,1,1,755,998
7655,3.5186e+07,1,-0.0061475,-0.0031263,-0.0080203,-0.43179,-0.16349,-9.5601,0,0,41.444,1,1,755,998
7659,3.5188e+07,1,-0.0061043,-0.0038096,-0.0081388,-0.4406,-0.14968,-9.5761,0,0,41.444,1,1,755,998
7662,3.5191e+07,1,-0.0048314,-0.0015732,-0.005205,-0.44797,-0.14669,-9.5828,0,0,41.444,1,1,755,998
7693,3.5193e+07,1,-0.0030077,0.0022913,2.0685e-05,-0.46009,-0.13873,-9.5852,0,0,41.444,1,1,755,998
7696,3.5201e+07,1,0.0032057,0.0035241,0.00092117,-0.47237,-0.080362,-9.6265,0,0,41.444,1,1,755,998
7727,3.5204e+07,1,0.00414,0.0019353,-0.00027441,-0.4699,-0.068062,-9.6441,0,0,41.444,1,1,755,998
7731,3.5206e+07,1,0.0030065,0.003243,-8.1527e-05,-0.46748,-0.08158,-9.6562,0,0,41.444,1,1,755,998
7734,3.521e+07,1,0.0020386,0.0039087,-0.00083843,-0.46863,-0.10743,-9.678,0,0,41.444,1,1,755,998
7737,3.5211e+07,1,-0.0031129,0.0037202,-0.0030386,-0.48085,-0.14342,-9.7325,0,0,41.444,1,1,755,998
