LineNo,TimeUS,C,Roll,Pitch,Yaw,VN,VE,VD,dPD,PN,PE,PD,GX,GY,GZ,OH
199,3.3255e+07,1,2.3,-2.17,10.64,0.0091516,0.019527,-0.0098236,-0.10177,0,0,0.75513,-0.12,0.15,-0.8,0
537,3.3334e+07,1,2.29,-2.17,10.73,0.010903,0.02334,-0.016593,-0.084659,0,0,0.74967,-0.11,0.14,-0.78,0
995,3.3435e+07,1,2.3,-2.17,10.83,0.011921,0.026028,-0.015952,-0.077334,0,0,0.74135,-0.11,0.14,-0.75,0
1313,3.3612e+07,1,2.31,-2.18,10.94,0.020575,0.021646,-0.46406,-0.48955,0,0,0.6973,-0.1,0.13,-0.72,0
1498,3.3647e+07,1,2.31,-2.18,10.97,0.020956,0.021885,-0.46878,-0.5122,0,0,0.67645,-0.11,0.13,-0.73,0
1587,3.366e+07,1,2.31,-2.18,10.98,0.022597,0.023066,-0.47111,-0.52292,0,0,0.66953,-0.11,0.13,-0.73,0
1633,3.367e+07,1,2.32,-2.18,10.99,0.023701,0.023701,-0.47113,-0.52911,0,0,0.66346,-0.11,0.13,-0.73,0
1677,3.3683e+07,1,2.32,-2.18,11,0.025491,0.024311,-0.47185,-0.53992,0,0,0.65491,-0.11,0.13,-0.74,0
1717,3.3693e+07,1,2.32,-2.18,11.02,0.0268,0.024834,-0.47267,-0.54808,0,0,0.64832,-0.11,0.13,-0.74,0
1758,3.3704e+07,1,2.32,-2.18,11.03,0.028163,0.022898,-0.47179,-0.5576,0,0,0.64363,-0.11,0.13,-0.74,0
1798,3.3714e+07,1,2.32,-2.18,11.04,0.029152,0.022204,-0.47237,-0.56696,0,0,0.63719,-0.11,0.13,-0.74,0
1845,3.3724e+07,1,2.31,-2.18,11.06,0.028884,0.021662,-0.47345,-0.57321,0,0,0.63244,-0.11,0.13,-0.74,0
1885,3.3735e+07,1,2.31,-2.18,11.07,0.028743,0.021246,-0.47276,-0.57675,0,0,0.6256,-0.1,0.13,-0.74,0
1926,3.3745e+07,1,2.31,-2.18,11.08,0.030411,0.022257,-0.4737,-0.57898,0,0,0.62034,-0.1,0.13,-0.74,0
1967,3.3755e+07,1,2.31,-2.18,11.09,0.030989,0.022584,-0.47492,-0.57995,0,0,0.61405,-0.1,0.13,-0.73,0
2005,3.3766e+07,1,2.31,-2.18,11.1,0.031594,0.023049,-0.47555,-0.58089,0,0,0.60777,-0.1,0.13,-0.73,0
2046,3.3776e+07,1,2.31,-2.19,11.11,0.031425,0.022346,-0.47545,-0.58237,0,0,0.60301,-0.1,0.13,-0.73,0
2086,3.3786e+07,1,2.31,-2.19,11.12,0.031665,0.024113,-0.47672,-0.58453,0,0,0.59693,-0.1,0.13,-0.73,0
2127,3.3796e+07,1,2.31,-2.19,11.14,0.03214,0.025108,-0.47759,-0.59046,0,0,0.58874,-0.1,0.13,-0.73,0
2168,3.3806e+07,1,2.31,-2.19,11.15,0.031294,0.025113,-0.47944,-0.59939,0,0,0.58124,-0.1,0.13,-0.73,0
2209,3.3816e+07,1,2.31,-2.19,11.16,0.031831,0.024919,-0.4789,-0.6081,0,0,0.57641,-0.1,0.13,-0.73,0
2253,3.3826e+07,1,2.32,-2.19,11.17,0.032688,0.025965,-0.48029,-0.61606,0,0,0.56902,-0.1,0.13,-0.73,0
2294,3.3837e+07,1,2.32,-2.19,11.19,0.032722,0.025623,-0.48148,-0.62424,0,0,0.56173,-0.1,0.13,-0.73,0
2339,3.3846e+07,1,2.32,-2.19,11.2,0.032725,0.025408,-0.48191,-0.63408,0,0,0.55465,-0.1,0.13,-0.74,0
2382,3.386e+07,1,2.32,-2.19,11.21,0.031981,0.026931,-0.48197,-0.64368,0,0,0.54627,-0.1,0.13,-0.74,0
2423,3.387e+07,1,2.32,-2.19,11.22,0.032266,0.026745,-0.48229,-0.6508,0,0,0.53749,-0.1,0.13,-0.74,0
2464,3.3881e+07,1,2.31,-2.19,11.23,0.032128,0.026864,-0.48382,-0.66643,0,0,0.53219,-0.1,0.13,-0.74,0
2504,3.3891e+07,1,2.32,-2.19,11.24,0.032257,0.02614,-0.48422,-0.67743,0,0,0.52408,-0.1,0.13,-0.74,0
2547,3.3901e+07,1,2.31,-2.19,11.24,0.032024,0.026533,-0.48382,-0.68242,0,0,0.51924,-0.1,0.13,-0.74,0
2587,3.3912e+07,1,2.31,-2.19,11.26,0.031686,0.026569,-0.48535,-0.68899,0,0,0.51123,-0.1,0.13,-0.73,0
2628,3.3922e+07,1,2.31,-2.19,11.27,0.031962,0.026776,-0.48733,-0.69708,0,0,0.50346,-0.1,0.13,-0.74,0
2674,3.3932e+07,1,2.31,-2.19,11.27,0.031906,0.026999,-0.48735,-0.70075,0,0,0.49857,-0.1,0.13,-0.74,0
2714,3.3942e+07,1,2.31,-2.19,11.28,0.033042,0.02663,-0.48703,-0.70278,0,0,0.49087,-0.1,0.13,-0.73,0
2755,3.3952e+07,1,2.32,-2.19,11.29,0.032427,0.026235,-0.48512,-0.69838,0,0,0.48554,-0.1,0.13,-0.73,0
2796,3.3963e+07,1,2.32,-2.19,11.3,0.032807,0.026231,-0.48471,-0.69541,0,0,0.47796,-0.1,0.13,-0.72,0
2837,3.3973e+07,1,2.32,-2.19,11.31,0.032438,0.025938,-0.48416,-0.69405,0,0,0.47058,-0.1,0.13,-0.73,0
2877,3.3982e+07,1,2.32,-2.18,11.32,0.031975,0.02574,-0.48409,-0.69265,0,0,0.46339,-0.1,0.13,-0.73,0
2918,3.3995e+07,1,2.32,-2.18,11.33,0.031531,0.024677,-0.48632,-0.69582,0,0,0.45428,-0.1,0.13,-0.75,0
2960,3.4005e+07,1,2.32,-2.18,11.35,0.031436,0.024537,-0.48777,-0.69684,0,0,0.44682,-0.1,0.13,-0.76,0
3001,3.4015e+07,1,2.32,-2.18,11.36,0.032624,0.024069,-0.48685,-0.69954,0,0,0.44195,-0.1,0.13,-0.76,0
3042,3.4026e+07,1,2.32,-2.18,11.38,0.031719,0.023195,-0.48776,-0.70173,0,0,0.43419,-0.1,0.13,-0.76,0
3086,3.4036e+07,1,2.32,-2.18,11.39,0.032131,0.024195,-0.48893,-0.70268,0,0,0.42701,-0.1,0.13,-0.76,0
3127,3.4046e+07,1,2.31,-2.18,11.41,0.031957,0.02307,-0.48866,-0.70329,0,0,0.41999,-0.1,0.13,-0.76,0
3169,3.4056e+07,1,2.31,-2.18,11.42,0.032456,0.023145,-0.49023,-0.70413,0,0,0.41312,-0.1,0.13,-0.77,0
3213,3.4069e+07,1,2.31,-2.18,11.44,0.033345,0.022602,-0.49079,-0.70123,0,0,0.40552,-0.1,0.13,-0.77,0
3253,3.4079e+07,1,2.31,-2.19,11.46,0.03364,0.023778,-0.49058,-0.69356,0,0,0.3995,-0.1,0.13,-0.78,0
3295,3.4089e+07,1,2.31,-2.18,11.48,0.032402,0.023545,-0.49141,-0.68637,0,0,0.39461,-0.1,0.13,-0.78,0
3340,3.4099e+07,1,2.31,-2.18,11.5,0.032027,0.023747,-0.49101,-0.67553,0,0,0.38869,-0.1,0.13,-0.78,0
3380,3.411e+07,1,2.31,-2.18,11.51,0.032713,0.022186,-0.4916,-0.66539,0,0,0.38284,-0.11,0.13,-0.78,0
3421,3.412e+07,1,2.31,-2.18,11.53,0.031306,0.022372,-0.4934,-0.65415,0,0,0.37657,-0.11,0.13,-0.78,0
3465,3.413e+07,1,2.31,-2.17,11.55,0.031129,0.022797,-0.49373,-0.64136,0,0,0.3716,-0.11,0.13,-0.78,0
3509,3.4141e+07,1,2.31,-2.17,11.56,0.030438,0.023605,-0.4927,-0.62714,0,0,0.36586,-0.1,0.13,-0.78,0
3551,3.4151e+07,1,2.31,-2.17,11.58,0.029918,0.024564,-0.49474,-0.61674,0,0,0.36021,-0.11,0.13,-0.78,0
3591,3.4161e+07,1,2.31,-2.17,11.59,0.029036,0.026108,-0.49401,-0.60377,0,0,0.35457,-0.11,0.13,-0.78,0
3632,3.4171e+07,1,2.31,-2.17,11.6,0.029138,0.026023,-0.49515,-0.59268,0,0,0.34893,-0.11,0.13,-0.79,0
3669,3.4181e+07,1,2.31,-2.17,11.62,0.029846,0.026521,-0.49612,-0.58181,0,0,0.34384,-0.11,0.13,-0.8,0
3710,3.4191e+07,1,2.31,-2.17,11.64,0.030132,0.026623,-0.49697,-0.5705,0,0,0.33875,-0.11,0.13,-0.8,0
3751,3.4202e+07,1,2.31,-2.17,11.65,0.031162,0.025496,-0.49684,-0.55845,0,0,0.33373,-0.11,0.13,-0.8,0
3792,3.4212e+07,1,2.31,-2.17,11.67,0.031431,0.026871,-0.49643,-0.5465,0,0,0.32876,-0.11,0.13,-0.8,0
3833,3.4222e+07,1,2.31,-2.17,11.68,0.031154,0.027538,-0.49594,-0.53486,0,0,0.32375,-0.11,0.13,-0.8,0
3877,3.4232e+07,1,2.31,-2.17,11.69,0.032179,0.026669,-0.4977,-0.52515,0,0,0.3183,-0.11,0.13,-0.8,0
3918,3.4243e+07,1,2.31,-2.18,11.71,0.032815,0.025615,-0.49843,-0.51619,0,0,0.31331,-0.11,0.13,-0.8,0
3958,3.4253e+07,1,2.31,-2.17,11.73,0.032456,0.026527,-0.49821,-0.50629,0,0,0.30787,-0.11,0.13,-0.81,0
4000,3.4263e+07,1,2.31,-2.17,11.74,0.033077,0.025503,-0.49788,-0.49799,0,0,0.30289,-0.11,0.13,-0.81,0
4040,3.4277e+07,1,2.3,-2.17,11.75,0.032606,0.024316,-0.49703,-0.48297,0,0,0.29784,-0.11,0.13,-0.81,0
4081,3.4287e+07,1,2.3,-2.17,11.76,0.032801,0.025996,-0.4967,-0.46926,0,0,0.29421,-0.11,0.13,-0.81,0
4122,3.4296e+07,1,2.3,-2.16,11.77,0.03442,0.02776,-0.49663,-0.45489,0,0,0.29055,-0.11,0.13,-0.81,0
4163,3.4307e+07,1,2.3,-2.16,11.79,0.03549,0.027189,-0.49719,-0.44216,0,0,0.28641,-0.11,0.13,-0.8,0
4204,3.4317e+07,1,2.31,-2.16,11.8,0.034755,0.028223,-0.4972,-0.42863,0,0,0.28143,-0.11,0.13,-0.8,0
4246,3.4327e+07,1,2.3,-2.16,11.81,0.034588,0.028026,-0.49795,-0.41755,0,0,0.27772,-0.11,0.13,-0.81,0
4294,3.4338e+07,1,2.3,-2.16,11.82,0.034945,0.028142,-0.4974,-0.40599,0,0,0.27395,-0.11,0.13,-0.81,0
4336,3.4348e+07,1,2.3,-2.16,11.83,0.035557,0.028025,-0.49769,-0.39585,0,0,0.26963,-0.11,0.13,-0.81,0
4376,3.4358e+07,1,2.3,-2.16,11.84,0.03499,0.02871,-0.49784,-0.38859,0,0,0.26585,-0.11,0.13,-0.81,0
4417,3.4369e+07,1,2.29,-2.17,11.84,0.034361,0.028718,-0.49845,-0.38129,0,0,0.26087,-0.11,0.13,-0.81,0
4454,3.4379e+07,1,2.29,-2.17,11.85,0.034234,0.028622,-0.49613,-0.37355,0,0,0.25659,-0.11,0.13,-0.81,0
4492,3.4389e+07,1,2.3,-2.17,11.86,0.034393,0.030419,-0.49641,-0.36804,0,0,0.2534,-0.11,0.13,-0.81,0
4533,3.4399e+07,1,2.3,-2.17,11.87,0.034529,0.031193,-0.49702,-0.36401,0,0,0.24843,-0.11,0.13,-0.81,0
4575,3.441e+07,1,2.3,-2.17,11.87,0.03486,0.030675,-0.49615,-0.35875,0,0,0.2452,-0.11,0.13,-0.8,0
4616,3.442e+07,1,2.3,-2.16,11.88,0.034747,0.029877,-0.497,-0.35336,0,0,0.24145,-0.11,0.13,-0.8,0
4656,3.443e+07,1,2.3,-2.16,11.88,0.03492,0.029428,-0.49481,-0.34573,0,0,0.23811,-0.11,0.13,-0.81,0
4701,3.444e+07,1,2.3,-2.16,11.89,0.034031,0.028944,-0.4944,-0.3404,0,0,0.23475,-0.11,0.13,-0.81,0
4741,3.445e+07,1,2.3,-2.16,11.9,0.034182,0.028585,-0.49528,-0.33815,0,0,0.23135,-0.11,0.13,-0.81,0
4782,3.4461e+07,1,2.3,-2.17,11.91,0.033652,0.029464,-0.49651,-0.33495,0,0,0.22634,-0.11,0.13,-0.81,0
4822,3.4471e+07,1,2.3,-2.17,11.92,0.033616,0.029836,-0.49638,-0.33254,0,0,0.22294,-0.11,0.13,-0.81,0
4863,3.4481e+07,1,2.3,-2.16,11.93,0.032724,0.029846,-0.49652,-0.32713,0,0,0.22135,-0.11,0.13,-0.81,0
4904,3.4491e+07,1,2.3,-2.16,11.93,0.032547,0.029075,-0.49442,-0.31583,0,0,0.22013,-0.11,0.13,-0.81,0
4945,3.4501e+07,1,2.3,-2.16,11.94,0.033765,0.028475,-0.49458,-0.30179,0,0,0.21512,-0.11,0.13,-0.81,0
4985,3.4511e+07,1,2.3,-2.16,11.94,0.034283,0.028665,-0.49179,-0.2856,0,0,0.21384,-0.11,0.13,-0.8,0
5027,3.4521e+07,1,2.3,-2.16,11.94,0.034648,0.028219,-0.4906,-0.27437,0,0,0.21239,-0.11,0.13,-0.8,0
5070,3.4532e+07,1,2.3,-2.16,11.95,0.035699,0.028135,-0.48909,-0.25894,0,0,0.21088,-0.11,0.13,-0.8,0
5115,3.4542e+07,1,2.3,-2.16,11.96,0.034838,0.0275,-0.48946,-0.24411,0,0,0.20547,-0.11,0.13,-0.8,0
5157,3.4552e+07,1,2.3,-2.16,11.96,0.034955,0.027665,-0.48788,-0.23541,0,0,0.20382,-0.11,0.13,-0.8,0
5198,3.4562e+07,1,2.29,-2.16,11.96,0.035902,0.027665,-0.4854,-0.22915,0,0,0.19893,-0.11,0.13,-0.8,0
5240,3.4572e+07,1,2.29,-2.16,11.97,0.034856,0.027438,-0.48432,-0.22803,0,0,0.19722,-0.1,0.13,-0.79,0
5280,3.4582e+07,1,2.29,-2.16,11.97,0.03445,0.028136,-0.48464,-0.22999,0,0,0.19237,-0.1,0.13,-0.79,0
5317,3.4592e+07,1,2.29,-2.15,11.97,0.034232,0.027806,-0.48263,-0.22832,0,0,0.19057,-0.1,0.13,-0.79,0
5358,3.4602e+07,1,2.29,-2.15,11.98,0.033301,0.027893,-0.48077,-0.21989,0,0,0.1903,-0.1,0.13,-0.79,0
5398,3.4613e+07,1,2.29,-2.15,11.99,0.031882,0.029093,-0.47991,-0.20875,0,0,0.18998,-0.1,0.13,-0.79,0
5439,3.4623e+07,1,2.29,-2.15,11.99,0.032293,0.030436,-0.47873,-0.19748,0,0,0.18947,-0.1,0.13,-0.79,0
5480,3.4633e+07,1,2.3,-2.14,11.99,0.031942,0.030634,-0.47663,-0.18424,0,0,0.18877,-0.1,0.13,-0.79,0
5525,3.4643e+07,1,2.3,-2.14,12,0.031867,0.030646,-0.47557,-0.16779,0,0,0.18745,-0.1,0.13,-0.79,0
5566,3.4654e+07,1,2.3,-2.14,12,0.031742,0.03109,-0.47434,-0.15069,0,0,0.18259,-0.1,0.13,-0.79,0
5607,3.4665e+07,1,2.3,-2.14,12.01,0.030471,0.031853,-0.47275,-0.14775,0,0,0.18129,-0.1,0.13,-0.79,0
5648,3.4674e+07,1,2.3,-2.14,12.01,0.029665,0.033102,-0.47126,-0.14177,0,0,0.18024,-0.1,0.13,-0.79,0
5688,3.4687e+07,1,2.3,-2.14,12.01,0.028952,0.03303,-0.46828,-0.12958,0,0,0.17995,-0.1,0.13,-0.79,0
5729,3.4697e+07,1,2.3,-2.14,12.01,0.02893,0.033948,-0.46847,-0.1195,0,0,0.17518,-0.1,0.13,-0.79,0
5770,3.4707e+07,1,2.3,-2.14,12.01,0.027998,0.033654,-0.46553,-0.1068,0,0,0.17618,-0.1,0.13,-0.79,0
5811,3.4717e+07,1,2.3,-2.14,12.01,0.02783,0.034065,-0.46311,-0.091892,0,0,0.17686,-0.1,0.13,-0.79,0
5854,3.4727e+07,1,2.3,-2.14,12.01,0.027385,0.034219,-0.46381,-0.085451,0,0,0.17225,-0.1,0.13,-0.79,0
5895,3.4738e+07,1,2.3,-2.14,12.02,0.027075,0.034981,-0.46252,-0.079763,0,0,0.17229,-0.1,0.13,-0.79,0
5940,3.4749e+07,1,2.3,-2.14,12.03,0.027741,0.03459,-0.45972,-0.06633,0,0,0.17217,-0.1,0.13,-0.79,0
5981,3.476e+07,1,2.3,-2.14,12.04,0.028337,0.035117,-0.45957,-0.059091,0,0,0.17227,-0.1,0.13,-0.79,0
6021,3.477e+07,1,2.3,-2.14,12.04,0.028443,0.033848,-0.45608,-0.050277,0,0,0.17178,-0.1,0.13,-0.79,0
6063,3.4781e+07,1,2.3,-2.14,12.05,0.027878,0.034256,-0.45342,-0.043177,0,0,0.17161,-0.1,0.13,-0.79,0
6107,3.4793e+07,1,2.3,-2.14,12.06,0.027756,0.033694,-0.4496,-0.031255,0,0,0.17228,-0.1,0.13,-0.8,0
6147,3.4804e+07,1,2.3,-2.14,12.07,0.026718,0.034614,-0.44624,-0.021927,0,0,0.174,-0.1,0.13,-0.79,0
6188,3.4814e+07,1,2.29,-2.15,12.08,0.027151,0.034675,-0.44389,-0.0047944,0,0,0.17511,-0.1,0.13,-0.79,0
6228,3.4825e+07,1,2.29,-2.15,12.08,0.028068,0.035389,-0.44704,0.011073,0,0,0.17066,-0.1,0.13,-0.79,0
6269,3.4835e+07,1,2.29,-2.15,12.09,0.028509,0.036073,-0.44716,0.022646,0,0,0.17147,-0.1,0.13,-0.79,0
6309,3.4845e+07,1,2.29,-2.15,12.09,0.027942,0.036292,-0.44445,0.034208,0,0,0.17253,-0.1,0.13,-0.8,0
6357,3.4855e+07,1,2.29,-2.15,12.1,0.028299,0.036028,-0.44125,0.036192,0,0,0.17345,-0.1,0.13,-0.79,0
6398,3.4866e+07,1,2.29,-2.15,12.11,0.027728,0.037713,-0.44094,0.041964,0,0,0.16902,-0.1,0.13,-0.79,0
6438,3.4876e+07,1,2.29,-2.15,12.11,0.028668,0.037167,-0.43797,0.044747,0,0,0.1697,-0.1,0.13,-0.79,0
6479,3.4889e+07,1,2.29,-2.15,12.12,0.030094,0.035803,-0.43455,0.040652,0,0,0.16891,-0.1,0.13,-0.79,0
6516,3.4898e+07,1,2.29,-2.15,12.12,0.03037,0.035193,-0.43096,0.0445,0,0,0.17074,-0.1,0.13,-0.79,0
6558,3.4909e+07,1,2.29,-2.15,12.13,0.028708,0.034808,-0.42903,0.047128,0,0,0.17191,-0.1,0.13,-0.79,0
6599,3.4919e+07,1,2.29,-2.15,12.13,0.029939,0.034622,-0.42898,0.047262,0,0,0.1676,-0.1,0.13,-0.79,0
6639,3.493e+07,1,2.29,-2.14,12.14,0.030678,0.034305,-0.42367,0.045656,0,0,0.16904,-0.1,0.13,-0.79,0
6682,3.494e+07,1,2.29,-2.15,12.14,0.030834,0.034599,-0.42145,0.040891,0,0,0.17018,-0.1,0.13,-0.79,0
6728,3.495e+07,1,2.29,-2.14,12.15,0.032401,0.034759,-0.42195,0.036615,0,0,0.166,-0.1,0.13,-0.79,0
6769,3.4961e+07,1,2.29,-2.14,12.15,0.031174,0.036036,-0.41968,0.030647,0,0,0.16661,-0.1,0.13,-0.79,0
6809,3.497e+07,1,2.29,-2.14,12.16,0.030496,0.036801,-0.41719,0.031428,0,0,0.16744,-0.1,0.13,-0.79,0
6853,3.4983e+07,1,2.29,-2.14,12.17,0.030381,0.036058,-0.41672,0.028723,0,0,0.16681,-0.1,0.13,-0.79,0
6894,3.4993e+07,1,2.29,-2.14,12.17,0.029633,0.035286,-0.41423,0.030102,0,0,0.16724,-0.1,0.13,-0.79,0
6932,3.5004e+07,1,2.29,-2.14,12.18,0.029298,0.035699,-0.41207,0.032396,0,0,0.16926,-0.1,0.13,-0.8,0
6972,3.5014e+07,1,2.29,-2.14,12.19,0.030029,0.035219,-0.4094,0.036245,0,0,0.17067,-0.1,0.13,-0.8,0
7012,3.5024e+07,1,2.29,-2.14,12.19,0.029771,0.037075,-0.40647,0.045982,0,0,0.17222,-0.1,0.13,-0.8,0
7054,3.5034e+07,1,2.29,-2.14,12.2,0.029449,0.036466,-0.40529,0.049318,0,0,0.17359,-0.1,0.13,-0.8,0
7097,3.5045e+07,1,2.29,-2.14,12.2,0.02965,0.035981,-0.40059,0.059969,0,0,0.17471,-0.1,0.13,-0.81,0
7142,3.5055e+07,1,2.29,-2.14,12.21,0.029921,0.036087,-0.40066,0.069085,0,0,0.17036,-0.1,0.13,-0.81,0
7183,3.5066e+07,1,2.29,-2.14,12.22,0.029398,0.03613,-0.39919,0.070279,0,0,0.17092,-0.1,0.13,-0.81,0
7223,3.5076e+07,1,2.29,-2.14,12.23,0.027812,0.035825,-0.39641,0.072703,0,0,0.17172,-0.1,0.13,-0.81,0
7265,3.5087e+07,1,2.3,-2.14,12.24,0.028638,0.036721,-0.39528,0.070539,0,0,0.17231,-0.11,0.13,-0.81,0
7299,3.5097e+07,1,2.3,-2.14,12.25,0.028613,0.035828,-0.39476,0.064804,0,0,0.17383,-0.1,0.13,-0.81,0
7340,3.5107e+07,1,2.3,-2.15,12.26,0.028273,0.035525,-0.39403,0.058679,0,0,0.17552,-0.1,0.13,-0.81,0
7381,3.5118e+07,1,2.3,-2.15,12.27,0.028073,0.035818,-0.39424,0.060786,0,0,0.17157,-0.1,0.13,-0.81,0
7424,3.5128e+07,1,2.3,-2.14,12.27,0.027349,0.035145,-0.39236,0.060807,0,0,0.17266,-0.1,0.13,-0.81,0
7465,3.5139e+07,1,2.3,-2.14,12.28,0.02688,0.035383,-0.39062,0.058976,0,0,0.17388,-0.1,0.13,-0.81,0
7508,3.5149e+07,1,2.29,-2.14,12.28,0.027345,0.034493,-0.38947,0.053792,0,0,0.17494,-0.1,0.13,-0.81,0
7555,3.5159e+07,1,2.29,-2.14,12.29,0.027855,0.03383,-0.3882,0.048466,0,0,0.17585,-0.1,0.13,-0.81,0
7595,3.5169e+07,1,2.28,-2.14,12.3,0.027915,0.033601,-0.38772,0.046991,0,0,0.17153,-0.1,0.13,-0.81,0
7636,3.518e+07,1,2.28,-2.14,12.31,0.028819,0.0332,-0.38393,0.043226,0,0,0.17226,-0.1,0.13,-0.81,0
7678,3.519e+07,1,2.28,-2.14,12.31,0.02812,0.033343,-0.38139,0.037885,0,0,0.17281,-0.1,0.13,-0.81,0
7712,3.52e+07,1,2.28,-2.14,12.32,0.027669,0.034637,-0.37952,0.02978,0,0,0.17337,-0.1,0.13,-0.81,0
7753,3.521e+07,1,2.28,-2.14,12.33,0.028048,0.033476,-0.38114,0.018818,0,0,0.16956,-0.1,0.13,-0.81,0
7793,3.522e+07,1,2.28,-2.14,12.34,0.027863,0.033802,-0.37776,0.011599,0,0,0.17034,-0.1,0.13,-0.8,0
7834,3.5231e+07,1,2.28,-2.13,12.35,0.027419,0.03332,-0.37622,0.004236,0,0,0.17096,-0.1,0.13,-0.81,0
7874,3.5241e+07,1,2.29,-2.14,12.35,0.027139,0.033967,-0.37488,-0.010527,0,0,0.17103,-0.1,0.13,-0.8,0
7916,3.5252e+07,1,2.28,-2.14,12.36,0.027202,0.034215,-0.37364,-0.017085,0,0,0.16728,-0.1,0.13,-0.8,0
7961,3.5262e+07,1,2.28,-2.14,12.37,0.028091,0.033436,-0.37252,-0.038195,0,0,0.16761,-0.1,0.13,-0.79,0
8002,3.5272e+07,1,2.29,-2.13,12.38,0.028201,0.034006,-0.37301,-0.052257,0,0,0.16355,-0.1,0.13,-0.79,0
8043,3.5282e+07,1,2.29,-2.13,12.39,0.027745,0.033417,-0.37206,-0.067218,0,0,0.16373,-0.1,0.13,-0.79,0
8087,3.5295e+07,1,2.29,-2.13,12.4,0.027838,0.0337,-0.3701,-0.07847,0,0,0.16303,-0.1,0.13,-0.79,0
8128,3.5304e+07,1,2.29,-2.13,12.4,0.028206,0.03398,-0.36848,-0.087173,0,0,0.16292,-0.1,0.13,-0.79,0
8171,3.5315e+07,1,2.29,-2.12,12.41,0.029435,0.034679,-0.36635,-0.09385,0,0,0.15886,-0.1,0.13,-0.79,0
8208,3.5326e+07,1,2.29,-2.12,12.42,0.028827,0.03374,-0.36413,-0.097017,0,0,0.1598,-0.1,0.13,-0.79,0
8251,3.5336e+07,1,2.29,-2.12,12.43,0.028896,0.033381,-0.36393,-0.098103,0,0,0.16084,-0.1,0.13,-0.79,0
8293,3.5346e+07,1,2.29,-2.12,12.43,0.028957,0.032933,-0.36139,-0.095677,0,0,0.16166,-0.1,0.13,-0.79,0
8333,3.5356e+07,1,2.3,-2.12,12.44,0.028945,0.032228,-0.36075,-0.093199,0,0,0.16238,-0.1,0.13,-0.8,0
8380,3.5367e+07,1,2.3,-2.12,12.45,0.029294,0.032882,-0.36045,-0.08444,0,0,0.15842,-0.1,0.13,-0.8,0
8420,3.5378e+07,1,2.3,-2.12,12.45,0.02879,0.032734,-0.35943,-0.079938,0,0,0.15892,-0.1,0.13,-0.8,0
8462,3.5387e+07,1,2.3,-2.12,12.46,0.027542,0.031901,-0.35598,-0.072934,0,0,0.15933,-0.1,0.13,-0.8,0
8502,3.5397e+07,1,2.3,-2.12,12.47,0.025852,0.032693,-0.35495,-0.074649,0,0,0.15955,-0.1,0.13,-0.79,0
8546,3.5414e+07,1,2.3,-2.13,12.48,0.025042,0.033034,-0.35484,-0.071776,0,0,0.15856,-0.1,0.13,-0.8,0
8588,3.5424e+07,1,2.3,-2.13,12.5,0.025185,0.032632,-0.35273,-0.065741,0,0,0.15949,-0.1,0.13,-0.78,0
8628,3.5434e+07,1,2.3,-2.13,12.5,0.025476,0.032068,-0.35014,-0.058719,0,0,0.16025,-0.1,0.13,-0.78,0
8669,3.5444e+07,1,2.3,-2.12,12.5,0.025486,0.031885,-0.34899,-0.047817,0,0,0.15643,-0.1,0.13,-0.78,0
8709,3.5454e+07,1,2.3,-2.12,12.5,0.025845,0.03279,-0.34803,-0.042864,0,0,0.15704,-0.1,0.13,-0.78,0
8755,3.5465e+07,1,2.3,-2.12,12.51,0.026401,0.033899,-0.34606,-0.042097,0,0,0.15717,-0.1,0.13,-0.78,0
8795,3.5476e+07,1,2.3,-2.12,12.51,0.026687,0.033489,-0.34561,-0.043778,0,0,0.15372,-0.1,0.13,-0.78,0
8836,3.5486e+07,1,2.31,-2.12,12.52,0.026715,0.033971,-0.34328,-0.047026,0,0,0.15374,-0.1,0.13,-0.78,0
8878,3.5497e+07,1,2.31,-2.12,12.52,0.025885,0.03375,-0.34132,-0.04887,0,0,0.15393,-0.1,0.13,-0.78,0
8918,3.5506e+07,1,2.3,-2.12,12.52,0.026067,0.033828,-0.33899,-0.051646,0,0,0.15398,-0.1,0.13,-0.78,0
8962,3.5519e+07,1,2.3,-2.12,12.53,0.02541,0.034385,-0.33647,-0.050998,0,0,0.15448,-0.1,0.13,-0.78,0
9002,3.5529e+07,1,2.3,-2.12,12.53,0.025029,0.033203,-0.3361,-0.051369,0,0,0.15581,-0.1,0.13,-0.77,0
9048,3.554e+07,1,2.3,-2.12,12.53,0.024088,0.034176,-0.33472,-0.041802,0,0,0.15246,-0.1,0.13,-0.77,0
9088,3.555e+07,1,2.3,-2.12,12.53,0.023517,0.035404,-0.33325,-0.03475,0,0,0.15358,-0.1,0.13,-0.77,0
9129,3.556e+07,1,2.3,-2.12,12.54,0.02391,0.035646,-0.32802,-0.028177,0,0,0.15422,-0.1,0.13,-0.77,0
9174,3.557e+07,1,2.3,-2.12,12.55,0.0241,0.037044,-0.32912,-0.028487,0,0,0.15092,-0.1,0.13,-0.77,0
9214,3.558e+07,1,2.3,-2.12,12.55,0.023009,0.035282,-0.32937,-0.027646,0,0,0.15177,-0.1,0.13,-0.77,0
9256,3.559e+07,1,2.3,-2.12,12.55,0.02281,0.035153,-0.32742,-0.021294,0,0,0.15243,-0.1,0.13,-0.78,0
9296,3.56e+07,1,2.3,-2.11,12.56,0.022265,0.034759,-0.32531,-0.017749,0,0,0.15294,-0.1,0.13,-0.78,0
9340,3.5616e+07,1,2.3,-2.12,12.57,0.02052,0.035619,-0.32408,-0.015797,0,0,0.15285,-0.1,0.12,-0.77,0
9381,3.5626e+07,1,2.3,-2.12,12.57,0.021187,0.034637,-0.32298,-0.01785,0,0,0.14962,-0.1,0.12,-0.77,0
9421,3.5636e+07,1,2.3,-2.11,12.58,0.020611,0.033795,-0.32103,-0.021107,0,0,0.15138,-0.1,0.12,-0.75,0
9462,3.5646e+07,1,2.3,-2.11,12.58,0.020675,0.034028,-0.32048,-0.020808,0,0,0.1529,-0.1,0.12,-0.76,0
9503,3.5656e+07,1,2.3,-2.11,12.58,0.020526,0.033919,-0.31983,-0.018512,0,0,0.1497,-0.1,0.12,-0.76,0
9544,3.5666e+07,1,2.3,-2.11,12.58,0.020066,0.033337,-0.31841,-0.019566,0,0,0.15109,-0.1,0.12,-0.75,0
9589,3.5676e+07,1,2.3,-2.11,12.58,0.020131,0.032973,-0.31776,-0.014702,0,0,0.1522,-0.1,0.12,-0.76,0
9629,3.5687e+07,1,2.31,-2.11,12.58,0.020411,0.032738,-0.31504,-0.0095137,0,0,0.15314,-0.1,0.12,-0.76,0
9670,3.5697e+07,1,2.31,-2.11,12.58,0.020123,0.033405,-0.31455,-0.006285,0,0,0.14976,-0.1,0.12,-0.76,0
9711,3.5707e+07,1,2.31,-2.11,12.58,0.019678,0.033825,-0.31391,-0.012736,0,0,0.15065,-0.1,0.12,-0.75,0
9752,3.5718e+07,1,2.31,-2.11,12.59,0.019197,0.03372,-0.31483,-0.020084,0,0,0.14718,-0.1,0.12,-0.75,0
9796,3.5729e+07,1,2.31,-2.11,12.59,0.019007,0.033102,-0.31278,-0.024481,0,0,0.14789,-0.09,0.12,-0.74,0
9833,3.5739e+07,1,2.31,-2.1,12.59,0.019915,0.032194,-0.30893,-0.02045,0,0,0.14995,-0.09,0.12,-0.74,0
9874,3.5749e+07,1,2.31,-2.1,12.6,0.019592,0.033094,-0.30826,-0.016358,0,0,0.15207,-0.09,0.12,-0.74,0
9914,3.576e+07,1,2.31,-2.1,12.6,0.018473,0.032624,-0.30612,-0.0082827,0,0,0.149,-0.09,0.12,-0.74,0
9955,3.577e+07,1,2.31,-2.1,12.6,0.018518,0.03172,-0.30279,-0.0088717,0,0,0.15069,-0.09,0.12,-0.73,0
9999,3.578e+07,1,2.31,-2.1,12.61,0.018267,0.032218,-0.3,-0.007602,0,0,0.15251,-0.09,0.12,-0.73,0
10040,3.5791e+07,1,2.31,-2.1,12.61,0.018489,0.031377,-0.29768,0.0013387,0,0,0.15408,-0.09,0.12,-0.74,0
10081,3.5801e+07,1,2.31,-2.1,12.61,0.019049,0.031815,-0.29731,0.014741,0,0,0.1508,-0.09,0.12,-0.74,0
10122,3.5811e+07,1,2.31,-2.1,12.61,0.019588,0.032548,-0.29631,0.024082,0,0,0.1522,-0.09,0.12,-0.74,0
10162,3.5821e+07,1,2.32,-2.09,12.61,0.019258,0.032645,-0.29299,0.029063,0,0,0.15345,-0.09,0.12,-0.73,0
10202,3.5832e+07,1,2.32,-2.09,12.62,0.01955,0.033456,-0.29293,0.029828,0,0,0.15051,-0.09,0.12,-0.73,0
10242,3.5842e+07,1,2.32,-2.09,12.61,0.019453,0.033959,-0.29157,0.031579,0,0,0.15196,-0.09,0.12,-0.73,0
10283,3.5852e+07,1,2.32,-2.09,12.62,0.020062,0.034149,-0.28993,0.033847,0,0,0.15347,-0.09,0.12,-0.73,0
10324,3.5862e+07,1,2.32,-2.09,12.62,0.020866,0.033621,-0.28604,0.033162,0,0,0.15486,-0.09,0.12,-0.73,0
10365,3.5873e+07,1,2.31,-2.09,12.62,0.019845,0.035024,-0.2834,0.036625,0,0,0.15575,-0.09,0.12,-0.73,0
10409,3.5884e+07,1,2.32,-2.09,12.63,0.019093,0.03464,-0.28298,0.041612,0,0,0.15294,-0.09,0.12,-0.73,0
10450,3.5893e+07,1,2.32,-2.09,12.63,0.01936,0.034613,-0.27984,0.045328,0,0,0.15398,-0.09,0.12,-0.73,0
10490,3.5904e+07,1,2.32,-2.09,12.63,0.018893,0.034412,-0.27754,0.0429,0,0,0.15458,-0.09,0.12,-0.73,0
10531,3.5915e+07,1,2.31,-2.08,12.63,0.019012,0.035227,-0.2764,0.038717,0,0,0.15182,-0.09,0.12,-0.73,0
10570,3.5925e+07,1,2.32,-2.08,12.63,0.019348,0.035695,-0.27355,0.02976,0,0,0.15232,-0.09,0.12,-0.72,0
10612,3.5935e+07,1,2.32,-2.08,12.64,0.019543,0.035323,-0.26979,0.032312,0,0,0.15531,-0.09,0.12,-0.73,0
10652,3.5945e+07,1,2.31,-2.08,12.64,0.019279,0.036301,-0.26583,0.038462,0,0,0.15804,-0.09,0.12,-0.72,0
10679,3.5975e+07,1,2.31,-2.08,12.65,0.018132,0.035526,-0.26372,0.071367,0,0,0.16019,-0.09,0.12,-0.72,0
10723,3.5985e+07,1,2.31,-2.08,12.66,0.017627,0.035216,-0.26199,0.082798,0,0,0.16226,-0.09,0.12,-0.73,0
10764,3.5995e+07,1,2.31,-2.08,12.66,0.017464,0.035326,-0.26044,0.090183,0,0,0.16411,-0.09,0.12,-0.73,0
10804,3.6005e+07,1,2.31,-2.08,12.67,0.016812,0.035373,-0.25871,0.096227,0,0,0.16576,-0.09,0.12,-0.73,0
10848,3.6021e+07,1,2.31,-2.08,12.68,0.016552,0.033925,-0.25713,0.10785,0,0,0.16693,-0.09,0.12,-0.73,0
10891,3.6031e+07,1,2.31,-2.08,12.69,0.016532,0.034117,-0.25602,0.11811,0,0,0.16938,-0.09,0.12,-0.74,0
10932,3.6041e+07,1,2.31,-2.08,12.69,0.017499,0.034455,-0.25633,0.12441,0,0,0.16684,-0.09,0.12,-0.74,0
10973,3.6051e+07,1,2.31,-2.08,12.7,0.018589,0.034164,-0.25597,0.12769,0,0,0.1691,-0.09,0.12,-0.73,0
11013,3.6061e+07,1,2.31,-2.08,12.7,0.01874,0.033592,-0.25538,0.12032,0,0,0.17118,-0.09,0.12,-0.73,0
11056,3.6071e+07,1,2.31,-2.07,12.71,0.017764,0.034095,-0.25535,0.12043,0,0,0.16861,-0.09,0.12,-0.73,0
11100,3.6082e+07,1,2.31,-2.07,12.71,0.017589,0.03305,-0.25284,0.1203,0,0,0.17051,-0.09,0.12,-0.73,0
11141,3.6091e+07,1,2.31,-2.07,12.72,0.017851,0.031473,-0.25071,0.11988,0,0,0.17218,-0.09,0.12,-0.73,0
11181,3.6102e+07,1,2.31,-2.07,12.73,0.017799,0.031042,-0.24939,0.12015,0,0,0.17342,-0.09,0.12,-0.74,0
11222,3.6112e+07,1,2.31,-2.07,12.73,0.017291,0.031427,-0.24721,0.11939,0,0,0.17477,-0.09,0.12,-0.74,0
11267,3.6125e+07,1,2.31,-2.08,12.74,0.017545,0.032808,-0.24627,0.11694,0,0,0.17719,-0.09,0.12,-0.74,0
11309,3.6136e+07,1,2.31,-2.07,12.75,0.017172,0.032365,-0.24676,0.11641,0,0,0.1747,-0.09,0.12,-0.74,0
11350,3.6147e+07,1,2.31,-2.07,12.75,0.016356,0.032727,-0.24394,0.11753,0,0,0.17744,-0.09,0.12,-0.74,0
11391,3.6156e+07,1,2.31,-2.08,12.76,0.016526,0.032378,-0.24166,0.12194,0,0,0.18018,-0.09,0.12,-0.74,0
11432,3.6166e+07,1,2.31,-2.08,12.78,0.016832,0.033009,-0.23954,0.12498,0,0,0.18271,-0.09,0.12,-0.74,0
11476,3.6176e+07,1,2.31,-2.08,12.78,0.017411,0.033359,-0.23857,0.12925,0,0,0.18031,-0.09,0.12,-0.74,0
11520,3.6186e+07,1,2.31,-2.08,12.78,0.016984,0.033166,-0.2357,0.13246,0,0,0.18267,-0.09,0.12,-0.74,0
11561,3.6197e+07,1,2.31,-2.07,12.79,0.016401,0.033139,-0.23226,0.13648,0,0,0.18482,-0.09,0.12,-0.74,0
11601,3.6207e+07,1,2.31,-2.07,12.8,0.01579,0.032491,-0.23016,0.1365,0,0,0.18679,-0.09,0.12,-0.74,0
11642,3.6217e+07,1,2.3,-2.07,12.81,0.015464,0.032121,-0.23016,0.13522,0,0,0.18448,-0.09,0.12,-0.74,0
11679,3.6227e+07,1,2.3,-2.07,12.81,0.01522,0.032335,-0.22961,0.13097,0,0,0.18605,-0.09,0.12,-0.74,0
11720,3.6237e+07,1,2.29,-2.07,12.82,0.015133,0.032791,-0.2276,0.13447,0,0,0.18923,-0.09,0.12,-0.74,0
11761,3.6248e+07,1,2.29,-2.07,12.82,0.014355,0.033885,-0.22472,0.13568,0,0,0.19199,-0.09,0.12,-0.72,0
11802,3.6259e+07,1,2.29,-2.07,12.82,0.014159,0.034051,-0.22417,0.13594,0,0,0.18976,-0.09,0.12,-0.72,0
11843,3.6269e+07,1,2.29,-2.07,12.83,0.013694,0.034374,-0.22463,0.1305,0,0,0.19258,-0.09,0.12,-0.72,0
11884,3.6279e+07,1,2.29,-2.07,12.83,0.013707,0.034399,-0.22204,0.12906,0,0,0.19516,-0.09,0.12,-0.72,0
11930,3.6289e+07,1,2.29,-2.07,12.84,0.013813,0.033379,-0.2212,0.12947,0,0,0.19294,-0.09,0.12,-0.72,0
11970,3.6299e+07,1,2.29,-2.07,12.84,0.013518,0.032422,-0.21842,0.12998,0,0,0.19514,-0.09,0.12,-0.72,0
12011,3.631e+07,1,2.29,-2.07,12.84,0.013205,0.033204,-0.21864,0.13097,0,0,0.19733,-0.09,0.12,-0.72,0
12052,3.632e+07,1,2.29,-2.06,12.85,0.012984,0.03349,-0.21813,0.12392,0,0,0.19515,-0.09,0.12,-0.72,0
12092,3.6333e+07,1,2.29,-2.06,12.85,0.012472,0.033312,-0.21696,0.11453,0,0,0.19656,-0.09,0.12,-0.72,0
12132,3.6343e+07,1,2.29,-2.06,12.86,0.012197,0.033883,-0.21612,0.11236,0,0,0.19927,-0.09,0.12,-0.72,0
12173,3.6353e+07,1,2.29,-2.06,12.86,0.011989,0.034133,-0.21506,0.10325,0,0,0.19712,-0.09,0.12,-0.72,0
12214,3.6364e+07,1,2.3,-2.06,12.86,0.011105,0.034596,-0.21264,0.098533,0,0,0.19987,-0.09,0.12,-0.7,0
12255,3.6373e+07,1,2.3,-2.06,12.87,0.0093477,0.034002,-0.21156,0.086517,0,0,0.20247,-0.09,0.12,-0.7,0
12296,3.6384e+07,1,2.3,-2.05,12.87,0.0095106,0.033476,-0.21241,0.084702,0,0,0.20037,-0.09,0.12,-0.7,0
12343,3.6394e+07,1,2.3,-2.06,12.87,0.008252,0.033259,-0.21219,0.083622,0,0,0.20274,-0.09,0.12,-0.7,0
12383,3.6404e+07,1,2.3,-2.06,12.87,0.0084164,0.033724,-0.20885,0.087897,0,0,0.20488,-0.09,0.12,-0.7,0
12424,3.6414e+07,1,2.3,-2.06,12.87,0.0085455,0.03404,-0.20777,0.093497,0,0,0.20664,-0.09,0.12,-0.71,0
12465,3.6424e+07,1,2.3,-2.06,12.88,0.0069594,0.032438,-0.20429,0.098069,0,0,0.20838,-0.09,0.12,-0.71,0
12506,3.6438e+07,1,2.31,-2.06,12.88,0.0060995,0.033291,-0.20119,0.10323,0,0,0.21135,-0.09,0.12,-0.71,0
12546,3.6447e+07,1,2.31,-2.06,12.88,0.0058698,0.033504,-0.19861,0.11075,0,0,0.21465,-0.09,0.12,-0.7,0
12586,3.6458e+07,1,2.31,-2.06,12.89,0.004853,0.032874,-0.19486,0.12757,0,0,0.21752,-0.09,0.12,-0.71,0
12626,3.6469e+07,1,2.3,-2.05,12.88,0.003519,0.032502,-0.19427,0.1443,0,0,0.21555,-0.09,0.12,-0.71,0
12667,3.6479e+07,1,2.31,-2.05,12.88,0.0037385,0.03324,-0.19204,0.15647,0,0,0.21859,-0.09,0.12,-0.71,0
12713,3.6489e+07,1,2.31,-2.05,12.88,0.0044257,0.032674,-0.18821,0.16912,0,0,0.22095,-0.09,0.12,-0.71,0
12754,3.65e+07,1,2.31,-2.05,12.89,0.0050007,0.032287,-0.18927,0.16857,0,0,0.21907,-0.09,0.12,-0.71,0
12794,3.651e+07,1,2.31,-2.04,12.89,0.0039226,0.032538,-0.18821,0.16745,0,0,0.22141,-0.09,0.12,-0.7,0
12837,3.6521e+07,1,2.31,-2.04,12.89,0.0030443,0.032684,-0.18597,0.16672,0,0,0.22371,-0.09,0.12,-0.7,0
12880,3.6531e+07,1,2.32,-2.04,12.89,0.0020123,0.032734,-0.18347,0.15919,0,0,0.22568,-0.09,0.12,-0.7,0
12920,3.6542e+07,1,2.32,-2.04,12.89,0.0022358,0.032333,-0.18406,0.15511,0,0,0.22383,-0.09,0.12,-0.7,0
12961,3.6552e+07,1,2.32,-2.04,12.89,0.0015105,0.03183,-0.18246,0.1554,0,0,0.22723,-0.09,0.12,-0.7,0
13001,3.6562e+07,1,2.32,-2.04,12.89,0.00023235,0.031978,-0.17896,0.16006,0,0,0.23056,-0.09,0.12,-0.7,0
13042,3.6572e+07,1,2.32,-2.04,12.9,-0.00013854,0.032712,-0.17796,0.16423,0,0,0.23364,-0.09,0.12,-0.7,0
13083,3.6582e+07,1,2.32,-2.04,12.9,-3.8311e-05,0.032974,-0.1773,0.16635,0,0,0.2365,-0.09,0.12,-0.7,0
13128,3.6592e+07,1,2.32,-2.05,12.9,-0.00032325,0.032343,-0.17732,0.17387,0,0,0.23472,-0.09,0.12,-0.7,0
13169,3.6603e+07,1,2.32,-2.05,12.9,0.00011855,0.032279,-0.17536,0.17895,0,0,0.23737,-0.09,0.12,-0.7,0
13210,3.6613e+07,1,2.32,-2.04,12.9,-0.00040121,0.031576,-0.17282,0.1824,0,0,0.23965,-0.09,0.12,-0.7,0
13250,3.6623e+07,1,2.32,-2.04,12.9,-0.00024744,0.031971,-0.16943,0.1885,0,0,0.24191,-0.09,0.12,-0.7,0
13291,3.6636e+07,1,2.32,-2.04,12.9,-0.0013492,0.033491,-0.16807,0.18778,0,0,0.24527,-0.09,0.12,-0.69,0
13329,3.6646e+07,1,2.32,-2.04,12.9,-0.0011936,0.033969,-0.16519,0.19455,0,0,0.24887,-0.09,0.12,-0.7,0
13370,3.6656e+07,1,2.32,-2.04,12.9,-0.0012848,0.035437,-0.16226,0.20236,0,0,0.25223,-0.09,0.12,-0.7,0
13411,3.6666e+07,1,2.32,-2.04,12.89,-0.0010857,0.036128,-0.16095,0.21448,0,0,0.25063,-0.09,0.12,-0.7,0
13451,3.6677e+07,1,2.31,-2.04,12.89,-0.0015937,0.036508,-0.16001,0.22184,0,0,0.25363,-0.09,0.12,-0.7,0
13492,3.6688e+07,1,2.31,-2.04,12.9,-0.0008416,0.035026,-0.15696,0.23091,0,0,0.25657,-0.09,0.12,-0.7,0
13538,3.6697e+07,1,2.31,-2.04,12.9,-0.0012154,0.03404,-0.15465,0.23658,0,0,0.25931,-0.09,0.12,-0.7,0
13579,3.6707e+07,1,2.32,-2.04,12.9,-0.00091151,0.033677,-0.15276,0.23691,0,0,0.26187,-0.09,0.12,-0.7,0
13620,3.6718e+07,1,2.31,-2.04,12.9,-0.0021622,0.033323,-0.15208,0.23399,0,0,0.26421,-0.09,0.12,-0.7,0
13662,3.6727e+07,1,2.32,-2.04,12.9,-0.0024163,0.033069,-0.15182,0.23347,0,0,0.2627,-0.09,0.12,-0.7,0
13703,3.6741e+07,1,2.32,-2.04,12.9,-0.0026676,0.032816,-0.14736,0.23276,0,0,0.27069,-0.09,0.12,-0.7,0
13744,3.6752e+07,1,2.32,-2.04,12.9,-0.0029341,0.034194,-0.14643,0.23882,0,0,0.26906,-0.09,0.12,-0.7,0
13784,3.6762e+07,1,2.32,-2.04,12.9,-0.0024986,0.032812,-0.14452,0.24244,0,0,0.2723,-0.09,0.12,-0.7,0
13826,3.6773e+07,1,2.32,-2.04,12.9,-0.0027139,0.032624,-0.1448,0.24441,0,0,0.27532,-0.09,0.12,-0.7,0
13866,3.6783e+07,1,2.32,-2.04,12.9,-0.0014386,0.031893,-0.14361,0.23481,0,0,0.278,-0.09,0.12,-0.69,0
13907,3.6794e+07,1,2.32,-2.04,12.9,-0.0003642,0.031791,-0.14462,0.22974,0,0,0.27656,-0.09,0.12,-0.69,0
13951,3.6804e+07,1,2.32,-2.04,12.9,-6.8558e-06,0.031182,-0.14215,0.22534,0,0,0.27918,-0.09,0.12,-0.69,0
13993,3.6814e+07,1,2.32,-2.04,12.91,-0.00063102,0.031725,-0.14175,0.22196,0,0,0.28163,-0.09,0.12,-0.7,0
14034,3.6824e+07,1,2.32,-2.05,12.91,-0.00091834,0.032432,-0.13922,0.21455,0,0,0.28375,-0.09,0.12,-0.7,0
14075,3.6835e+07,1,2.32,-2.05,12.91,-0.00044672,0.032689,-0.13575,0.2066,0,0,0.28589,-0.09,0.12,-0.7,0
14120,3.685e+07,1,2.32,-2.05,12.91,-0.0014117,0.032585,-0.13332,0.20309,0,0,0.28837,-0.09,0.12,-0.69,0
14161,3.6861e+07,1,2.32,-2.05,12.91,-0.0016306,0.03424,-0.13039,0.20029,0,0,0.29145,-0.09,0.12,-0.69,0
14202,3.6871e+07,1,2.32,-2.05,12.91,-0.0020767,0.033735,-0.1275,0.20301,0,0,0.29434,-0.09,0.12,-0.7,0
14243,3.6881e+07,1,2.32,-2.05,12.91,-0.0020481,0.034419,-0.12462,0.20519,0,0,0.29705,-0.09,0.12,-0.7,0
14285,3.6891e+07,1,2.32,-2.05,12.91,-0.0014468,0.035384,-0.12358,0.20906,0,0,0.2957,-0.09,0.12,-0.7,0
14329,3.6901e+07,1,2.32,-2.05,12.91,-0.00029781,0.033822,-0.11977,0.21191,0,0,0.29827,-0.09,0.12,-0.7,0
14370,3.6912e+07,1,2.32,-2.05,12.91,-0.0003184,0.033327,-0.11553,0.215,0,0,0.30069,-0.09,0.12,-0.7,0
14411,3.6922e+07,1,2.32,-2.05,12.91,-0.0012613,0.033117,-0.11449,0.20839,0,0,0.30286,-0.09,0.12,-0.7,0
14454,3.6932e+07,1,2.32,-2.05,12.91,-0.0022401,0.032701,-0.11384,0.20086,0,0,0.30172,-0.09,0.12,-0.7,0
14492,3.6943e+07,1,2.33,-2.06,12.92,-0.0030281,0.031554,-0.11263,0.19193,0,0,0.30388,-0.09,0.12,-0.69,0
14530,3.6953e+07,1,2.33,-2.05,12.92,-0.0037896,0.032374,-0.11098,0.18555,0,0,0.30664,-0.09,0.12,-0.69,0
14571,3.6963e+07,1,2.33,-2.05,12.92,-0.0039054,0.032577,-0.10736,0.18149,0,0,0.30922,-0.09,0.12,-0.69,0
14611,3.6973e+07,1,2.33,-2.05,12.92,-0.0037708,0.032004,-0.10576,0.17588,0,0,0.31156,-0.09,0.12,-0.69,0
14652,3.6984e+07,1,2.33,-2.05,12.92,-0.0031555,0.032073,-0.1058,0.17368,0,0,0.31049,-0.09,0.12,-0.69,0
14692,3.6994e+07,1,2.33,-2.05,12.92,-0.0034877,0.03131,-0.10468,0.17038,0,0,0.31279,-0.09,0.12,-0.69,0
14737,3.7004e+07,1,2.33,-2.05,12.93,-0.0046667,0.033024,-0.10457,0.15973,0,0,0.31173,-0.09,0.12,-0.69,0
14780,3.7014e+07,1,2.33,-2.05,12.93,-0.0044664,0.03223,-0.10326,0.14878,0,0,0.31383,-0.08,0.12,-0.68,0
14822,3.7024e+07,1,2.33,-2.04,12.93,-0.0057333,0.032481,-0.10253,0.13702,0,0,0.31589,-0.08,0.12,-0.68,0
14863,3.7034e+07,1,2.32,-2.05,12.93,-0.0065104,0.031649,-0.10112,0.13126,0,0,0.3178,-0.08,0.12,-0.68,0
14903,3.7044e+07,1,2.32,-2.05,12.93,-0.0065396,0.031142,-0.099517,0.12653,0,0,0.31955,-0.09,0.12,-0.68,0
14941,3.7055e+07,1,2.32,-2.05,12.94,-0.0061686,0.029816,-0.10089,0.12261,0,0,0.31855,-0.09,0.12,-0.68,0
14979,3.7065e+07,1,2.32,-2.06,12.94,-0.0068349,0.029674,-0.10043,0.12014,0,0,0.32086,-0.08,0.12,-0.67,0
15020,3.7075e+07,1,2.32,-2.06,12.93,-0.0071476,0.030742,-0.098883,0.11341,0,0,0.31987,-0.08,0.12,-0.67,0
15061,3.7085e+07,1,2.32,-2.06,12.93,-0.0070409,0.0318,-0.096284,0.10955,0,0,0.32222,-0.08,0.12,-0.67,0
15101,3.7095e+07,1,2.32,-2.06,12.93,-0.0074313,0.032436,-0.095562,0.099639,0,0,0.32444,-0.08,0.12,-0.66,0
15146,3.7106e+07,1,2.33,-2.06,12.93,-0.007401,0.031002,-0.096406,0.096176,0,0,0.32348,-0.08,0.12,-0.66,0
15192,3.7119e+07,1,2.33,-2.05,12.94,-0.0069596,0.03251,-0.092629,0.095252,0,0,0.32811,-0.08,0.12,-0.67,0
15234,3.7129e+07,1,2.33,-2.05,12.94,-0.0064195,0.03234,-0.090737,0.099769,0,0,0.32711,-0.08,0.12,-0.67,0
15274,3.7139e+07,1,2.32,-2.05,12.94,-0.0069409,0.031917,-0.088727,0.10258,0,0,0.32893,-0.08,0.12,-0.67,0
15315,3.715e+07,1,2.32,-2.05,12.94,-0.0079477,0.031497,-0.087462,0.10518,0,0,0.3306,-0.08,0.12,-0.67,0
15351,3.7161e+07,1,2.32,-2.04,12.94,-0.0071726,0.031184,-0.08689,0.10717,0,0,0.33305,-0.08,0.12,-0.67,0
15391,3.717e+07,1,2.31,-2.05,12.94,-0.0066943,0.030658,-0.086379,0.10592,0,0,0.33544,-0.08,0.12,-0.67,0
15433,3.7181e+07,1,2.31,-2.04,12.95,-0.0070502,0.030035,-0.085386,0.11126,0,0,0.33459,-0.08,0.12,-0.67,0
15473,3.7191e+07,1,2.31,-2.04,12.94,-0.0084308,0.029973,-0.083527,0.11332,0,0,0.33687,-0.08,0.12,-0.66,0
15514,3.7201e+07,1,2.31,-2.04,12.95,-0.0077003,0.030247,-0.083365,0.11356,0,0,0.33899,-0.08,0.12,-0.66,0
15559,3.7211e+07,1,2.31,-2.04,12.95,-0.0086174,0.030349,-0.081826,0.1183,0,0,0.34096,-0.08,0.12,-0.67,0
15600,3.7221e+07,1,2.31,-2.04,12.95,-0.010184,0.030443,-0.079443,0.12294,0,0,0.34279,-0.08,0.12,-0.67,0
15643,3.7231e+07,1,2.31,-2.04,12.95,-0.011305,0.029586,-0.078288,0.12837,0,0,0.342,-0.08,0.12,-0.67,0
15683,3.7241e+07,1,2.31,-2.04,12.95,-0.012145,0.030725,-0.076718,0.13081,0,0,0.34373,-0.08,0.12,-0.67,0
15724,3.7251e+07,1,2.31,-2.05,12.96,-0.011592,0.031252,-0.074446,0.13265,0,0,0.34534,-0.08,0.12,-0.67,0
15758,3.7261e+07,1,2.31,-2.05,12.96,-0.012056,0.031259,-0.073153,0.1349,0,0,0.34757,-0.08,0.12,-0.66,0
15799,3.7271e+07,1,2.31,-2.04,12.96,-0.011636,0.030964,-0.071137,0.13686,0,0,0.34974,-0.08,0.12,-0.66,0
15841,3.7281e+07,1,2.31,-2.04,12.96,-0.011675,0.030284,-0.072022,0.13609,0,0,0.35175,-0.08,0.12,-0.66,0
15881,3.7291e+07,1,2.31,-2.04,12.97,-0.011425,0.030022,-0.069951,0.14136,0,0,0.35104,-0.08,0.12,-0.66,0
15922,3.7301e+07,1,2.31,-2.04,12.96,-0.010934,0.029428,-0.067953,0.14375,0,0,0.35296,-0.08,0.12,-0.66,0
15966,3.7311e+07,1,2.31,-2.04,12.96,-0.01197,0.029896,-0.068049,0.1433,0,0,0.35474,-0.08,0.12,-0.66,0
16009,3.7322e+07,1,2.31,-2.04,12.96,-0.012018,0.028938,-0.064467,0.14427,0,0,0.35642,-0.08,0.12,-0.66,0
16050,3.7331e+07,1,2.31,-2.04,12.96,-0.012502,0.028841,-0.063669,0.14181,0,0,0.35799,-0.08,0.12,-0.67,0
16092,3.7341e+07,1,2.31,-2.04,12.96,-0.013025,0.028948,-0.066299,0.13786,0,0,0.35734,-0.08,0.12,-0.67,0
16135,3.7354e+07,1,2.31,-2.04,12.96,-0.01315,0.029695,-0.064184,0.1393,0,0,0.35989,-0.08,0.12,-0.67,0
16176,3.7364e+07,1,2.31,-2.04,12.96,-0.013366,0.029181,-0.063432,0.14304,0,0,0.36253,-0.08,0.12,-0.66,0
16217,3.7375e+07,1,2.31,-2.04,12.96,-0.013488,0.02927,-0.063486,0.14837,0,0,0.36489,-0.08,0.12,-0.66,0
16257,3.7384e+07,1,2.31,-2.04,12.96,-0.013248,0.028474,-0.062985,0.15308,0,0,0.36714,-0.08,0.12,-0.66,0
16298,3.7394e+07,1,2.31,-2.04,12.96,-0.012514,0.028716,-0.061548,0.15374,0,0,0.36928,-0.08,0.12,-0.66,0
16338,3.7405e+07,1,2.32,-2.04,12.96,-0.012032,0.030031,-0.06387,0.1541,0,0,0.36866,-0.08,0.12,-0.66,0
16385,3.7415e+07,1,2.31,-2.03,12.96,-0.012216,0.029491,-0.063024,0.15505,0,0,0.37065,-0.08,0.12,-0.66,0
16425,3.7425e+07,1,2.32,-2.03,12.96,-0.011926,0.028852,-0.062633,0.15668,0,0,0.3725,-0.08,0.12,-0.67,0
16466,3.7435e+07,1,2.32,-2.04,12.97,-0.012035,0.029611,-0.061278,0.1589,0,0,0.37414,-0.08,0.12,-0.67,0
16509,3.7445e+07,1,2.32,-2.04,12.97,-0.010839,0.028858,-0.058813,0.16015,0,0,0.37577,-0.08,0.12,-0.67,0
16543,3.7456e+07,1,2.32,-2.04,12.97,-0.010844,0.029321,-0.057377,0.15898,0,0,0.37842,-0.08,0.12,-0.66,0
16583,3.7466e+07,1,2.31,-2.04,12.97,-0.0099122,0.02945,-0.05611,0.15836,0,0,0.38098,-0.08,0.12,-0.66,0
16624,3.7477e+07,1,2.32,-2.04,12.97,-0.010494,0.029481,-0.057375,0.16065,0,0,0.38041,-0.08,0.12,-0.66,0
16666,3.7487e+07,1,2.32,-2.04,12.97,-0.010493,0.031203,-0.057044,0.1544,0,0,0.37983,-0.08,0.12,-0.66,0
16706,3.7497e+07,1,2.31,-2.04,12.98,-0.010001,0.031564,-0.056433,0.14996,0,0,0.38233,-0.08,0.12,-0.65,0
16747,3.7507e+07,1,2.31,-2.04,12.98,-0.0094171,0.03151,-0.053519,0.15165,0,0,0.38462,-0.08,0.12,-0.65,0
16794,3.7517e+07,1,2.31,-2.04,12.98,-0.010122,0.030629,-0.052525,0.15261,0,0,0.38684,-0.08,0.12,-0.65,0
16837,3.7527e+07,1,2.31,-2.04,12.98,-0.0090392,0.029075,-0.054254,0.14982,0,0,0.3889,-0.08,0.12,-0.65,0
16878,3.7537e+07,1,2.31,-2.05,12.98,-0.0088646,0.029445,-0.053203,0.14968,0,0,0.39083,-0.08,0.12,-0.65,0
16921,3.755e+07,1,2.31,-2.05,12.98,-0.0086889,0.030181,-0.051674,0.1506,0,0,0.3925,-0.08,0.12,-0.65,0
16965,3.7563e+07,1,2.31,-2.05,12.98,-0.0093464,0.02942,-0.050274,0.15322,0,0,0.39434,-0.08,0.12,-0.66,0
17006,3.7573e+07,1,2.31,-2.05,12.98,-0.0081103,0.029809,-0.048126,0.15436,0,0,0.39385,-0.08,0.12,-0.66,0
17047,3.7583e+07,1,2.31,-2.05,12.98,-0.0083275,0.030262,-0.047774,0.15307,0,0,0.39576,-0.08,0.12,-0.65,0
17089,3.7593e+07,1,2.31,-2.05,12.98,-0.0090534,0.030602,-0.047759,0.15015,0,0,0.39755,-0.08,0.12,-0.65,0
17129,3.7603e+07,1,2.31,-2.04,12.98,-0.0089263,0.0306,-0.047747,0.14471,0,0,0.39709,-0.08,0.12,-0.65,0
17174,3.7613e+07,1,2.31,-2.05,12.98,-0.0098707,0.031188,-0.046283,0.14092,0,0,0.3988,-0.08,0.12,-0.64,0
17214,3.7624e+07,1,2.31,-2.04,12.98,-0.011042,0.030781,-0.04668,0.1303,0,0,0.40044,-0.08,0.12,-0.64,0
17255,3.7634e+07,1,2.31,-2.04,12.98,-0.010568,0.030868,-0.045257,0.12527,0,0,0.39994,-0.08,0.12,-0.64,0
17297,3.7645e+07,1,2.3,-2.04,12.98,-0.010953,0.031582,-0.044225,0.11989,0,0,0.4015,-0.08,0.12,-0.64,0
17337,3.7655e+07,1,2.3,-2.04,12.99,-0.011408,0.032028,-0.043907,0.11493,0,0,0.40295,-0.08,0.12,-0.64,0
17375,3.7665e+07,1,2.3,-2.04,12.99,-0.010727,0.031794,-0.04256,0.11129,0,0,0.40495,-0.08,0.12,-0.64,0
17415,3.7675e+07,1,2.3,-2.04,13,-0.010219,0.031582,-0.043853,0.1072,0,0,0.40451,-0.08,0.12,-0.64,0
17457,3.7686e+07,1,2.3,-2.04,12.99,-0.01015,0.03179,-0.043703,0.10522,0,0,0.40645,-0.08,0.12,-0.63,0
17497,3.7696e+07,1,2.3,-2.03,12.99,-0.010225,0.03079,-0.040563,0.10701,0,0,0.40824,-0.08,0.12,-0.63,0
17538,3.7706e+07,1,2.3,-2.03,12.99,-0.0096785,0.030693,-0.039842,0.10423,0,0,0.40998,-0.08,0.12,-0.63,0
17584,3.7717e+07,1,2.29,-2.03,12.99,-0.0099639,0.031783,-0.040071,0.10419,0,0,0.40954,-0.08,0.12,-0.63,0
17626,3.7727e+07,1,2.29,-2.02,12.98,-0.0099204,0.031558,-0.039151,0.10399,0,0,0.41119,-0.08,0.12,-0.62,0
17667,3.7738e+07,1,2.3,-2.02,12.99,-0.010119,0.031254,-0.037857,0.10459,0,0,0.41272,-0.08,0.12,-0.63,0
17707,3.7748e+07,1,2.3,-2.02,12.99,-0.0098229,0.031203,-0.037678,0.10264,0,0,0.41414,-0.08,0.12,-0.63,0
17748,3.7759e+07,1,2.3,-2.02,12.98,-0.010483,0.030432,-0.036819,0.1013,0,0,0.41547,-0.08,0.12,-0.63,0
17785,3.777e+07,1,2.3,-2.02,12.99,-0.010936,0.029697,-0.03518,0.10243,0,0,0.41508,-0.08,0.12,-0.63,0
17827,3.778e+07,1,2.3,-2.02,12.99,-0.011814,0.031193,-0.034289,0.10193,0,0,0.41671,-0.08,0.12,-0.62,0
17870,3.779e+07,1,2.3,-2.02,12.98,-0.011471,0.030823,-0.033542,0.097723,0,0,0.41637,-0.08,0.12,-0.62,0
17910,3.7801e+07,1,2.3,-2.03,12.98,-0.012651,0.030372,-0.029624,0.095951,0,0,0.41801,-0.08,0.12,-0.61,0
17951,3.781e+07,1,2.29,-2.03,12.98,-0.013567,0.030981,-0.029187,0.092121,0,0,0.41956,-0.08,0.12,-0.61,0
17996,3.7821e+07,1,2.29,-2.03,12.98,-0.013359,0.030457,-0.027865,0.090619,0,0,0.42101,-0.08,0.12,-0.61,0
18037,3.7831e+07,1,2.29,-2.03,12.98,-0.013238,0.030723,-0.026226,0.092222,0,0,0.42072,-0.08,0.12,-0.61,0
18078,3.7841e+07,1,2.29,-2.03,12.98,-0.013557,0.031475,-0.027092,0.090776,0,0,0.4221,-0.08,0.12,-0.61,0
18118,3.7852e+07,1,2.29,-2.04,12.98,-0.013965,0.031893,-0.027748,0.090033,0,0,0.42336,-0.08,0.12,-0.61,0
18159,3.7862e+07,1,2.3,-2.04,12.98,-0.012778,0.031312,-0.027255,0.08824,0,0,0.42451,-0.08,0.12,-0.61,0
18200,3.7875e+07,1,2.3,-2.04,12.98,-0.01363,0.030639,-0.024837,0.088255,0,0,0.42579,-0.08,0.12,-0.61,0
18242,3.7886e+07,1,2.3,-2.04,12.98,-0.013951,0.03059,-0.024061,0.087973,0,0,0.42708,-0.08,0.12,-0.61,0
18283,3.7895e+07,1,2.3,-2.04,12.98,-0.01376,0.030275,-0.023098,0.087936,0,0,0.42826,-0.08,0.12,-0.62,0
18324,3.7906e+07,1,2.29,-2.03,12.99,-0.013354,0.029345,-0.020777,0.090103,0,0,0.42935,-0.08,0.12,-0.62,0
18365,3.7916e+07,1,2.29,-2.03,12.99,-0.013362,0.029263,-0.019627,0.091632,0,0,0.42915,-0.08,0.12,-0.62,0
18409,3.7926e+07,1,2.29,-2.03,12.99,-0.01235,0.029801,-0.018348,0.092009,0,0,0.43021,-0.08,0.12,-0.62,0
18452,3.7936e+07,1,2.29,-2.03,13,-0.012922,0.03029,-0.015897,0.091332,0,0,0.43123,-0.08,0.12,-0.62,0
18493,3.7946e+07,1,2.29,-2.04,13,-0.012502,0.030348,-0.016815,0.086491,0,0,0.43218,-0.08,0.12,-0.62,0
18534,3.7956e+07,1,2.29,-2.03,13.01,-0.012027,0.029114,-0.01731,0.083429,0,0,0.432,-0.08,0.12,-0.62,0
18572,3.7967e+07,1,2.29,-2.04,13.01,-0.011283,0.028426,-0.016065,0.084011,0,0,0.43391,-0.08,0.12,-0.62,0
18612,3.7977e+07,1,2.29,-2.03,13.01,-0.010937,0.028161,-0.016161,0.086475,0,0,0.43571,-0.08,0.12,-0.61,0
18653,3.7988e+07,1,2.29,-2.03,13.01,-0.011538,0.029895,-0.01587,0.090236,0,0,0.4374,-0.08,0.12,-0.61,0
18694,3.7998e+07,1,2.28,-2.03,13.01,-0.011599,0.030224,-0.0149,0.094608,0,0,0.43898,-0.08,0.12,-0.61,0
18737,3.8008e+07,1,2.28,-2.03,13.01,-0.011299,0.029335,-0.013492,0.097933,0,0,0.44049,-0.08,0.12,-0.61,0
18778,3.8019e+07,1,2.28,-2.02,13.01,-0.011132,0.029322,-0.013132,0.10203,0,0,0.44036,-0.08,0.12,-0.61,0
18823,3.8029e+07,1,2.27,-2.02,13.01,-0.011407,0.028693,-0.012443,0.10471,0,0,0.44179,-0.08,0.12,-0.61,0
18864,3.8039e+07,1,2.27,-2.02,13.02,-0.012418,0.028169,-0.010641,0.10899,0,0,0.44313,-0.08,0.12,-0.62,0
18904,3.8049e+07,1,2.27,-2.02,13.02,-0.012963,0.029228,-0.010399,0.11012,0,0,0.44439,-0.08,0.12,-0.62,0
18945,3.806e+07,1,2.27,-2.02,13.02,-0.01301,0.028998,-0.0092614,0.11041,0,0,0.44559,-0.08,0.12,-0.62,0
18989,3.8073e+07,1,2.27,-2.01,13.02,-0.012936,0.029003,-0.01133,0.10802,0,0,0.44789,-0.08,0.12,-0.61,0
19030,3.8083e+07,1,2.27,-2.02,13.02,-0.01337,0.030186,-0.010032,0.1105,0,0,0.4501,-0.08,0.12,-0.61,0
19071,3.8093e+07,1,2.27,-2.01,13.02,-0.013825,0.030574,-0.0093463,0.11722,0,0,0.45217,-0.08,0.12,-0.61,0
19111,3.8104e+07,1,2.27,-2.01,13.02,-0.014137,0.030545,-0.0111,0.12362,0,0,0.45206,-0.08,0.12,-0.61,0
19154,3.8114e+07,1,2.27,-2.01,13.02,-0.012922,0.030722,-0.010508,0.12918,0,0,0.45403,-0.08,0.12,-0.61,0
19196,3.8124e+07,1,2.27,-2.01,13.02,-0.01345,0.030809,-0.011599,0.13264,0,0,0.45588,-0.08,0.12,-0.61,0
19241,3.8134e+07,1,2.27,-2.01,13.03,-0.013152,0.030937,-0.010417,0.13751,0,0,0.45762,-0.08,0.12,-0.61,0
19281,3.8144e+07,1,2.27,-2.01,13.03,-0.013087,0.031271,-0.010697,0.13947,0,0,0.45752,-0.08,0.12,-0.61,0
19322,3.8155e+07,1,2.27,-2.01,13.03,-0.013655,0.031381,-0.0098451,0.1408,0,0,0.45918,-0.08,0.12,-0.61,0
19364,3.8165e+07,1,2.27,-2.01,13.03,-0.013861,0.031855,-0.0093729,0.14055,0,0,0.46077,-0.08,0.12,-0.61,0
19398,3.8176e+07,1,2.27,-2,13.02,-0.012926,0.029966,-0.0061972,0.1437,0,0,0.46303,-0.08,0.12,-0.6,0
19439,3.8186e+07,1,2.27,-2,13.02,-0.012797,0.029273,-0.0045354,0.14552,0,0,0.46521,-0.08,0.12,-0.6,0
19480,3.8196e+07,1,2.27,-1.99,13.01,-0.013538,0.030232,-0.004336,0.14961,0,0,0.46516,-0.08,0.12,-0.6,0
19521,3.8206e+07,1,2.27,-2,13.01,-0.01391,0.030526,-0.0031453,0.15358,0,0,0.46723,-0.08,0.12,-0.6,0
19562,3.8216e+07,1,2.27,-2,13.01,-0.013933,0.028976,0.00021735,0.15857,0,0,0.46923,-0.08,0.12,-0.6,0
19603,3.8226e+07,1,2.27,-2,13.02,-0.014347,0.030042,0.0019193,0.15942,0,0,0.46924,-0.08,0.12,-0.6,0
19648,3.8236e+07,1,2.27,-2,13.03,-0.015157,0.030846,0.0017422,0.1577,0,0,0.47119,-0.08,0.12,-0.6,0
19689,3.8246e+07,1,2.27,-2,13.02,-0.014951,0.03044,0.0046742,0.15958,0,0,0.47305,-0.08,0.12,-0.6,0
19731,3.8257e+07,1,2.27,-2,13.03,-0.017092,0.030446,0.0057697,0.15899,0,0,0.47484,-0.08,0.12,-0.6,0
19771,3.8267e+07,1,2.28,-2,13.03,-0.017468,0.030802,0.0064481,0.15842,0,0,0.47652,-0.08,0.12,-0.6,0
19815,3.8281e+07,1,2.28,-2,13.03,-0.016037,0.03128,0.0072804,0.15814,0,0,0.47943,-0.08,0.12,-0.6,0
19855,3.8291e+07,1,2.28,-2,13.04,-0.016822,0.031574,0.0077286,0.16045,0,0,0.48218,-0.08,0.12,-0.6,0
19897,3.8301e+07,1,2.28,-2,13.04,-0.017018,0.031957,0.0078284,0.16698,0,0,0.4848,-0.08,0.12,-0.6,0
19938,3.8312e+07,1,2.28,-2,13.03,-0.015294,0.029931,0.0085798,0.17619,0,0,0.48488,-0.08,0.12,-0.6,0
19978,3.8322e+07,1,2.28,-2,13.03,-0.015444,0.030185,0.0097057,0.1758,0,0,0.48742,-0.07,0.12,-0.59,0
20021,3.8332e+07,1,2.28,-2,13.03,-0.015383,0.029912,0.0098806,0.17909,0,0,0.48753,-0.07,0.12,-0.59,0
20066,3.8342e+07,1,2.29,-2,13.03,-0.014596,0.029727,0.012703,0.18331,0,0,0.48999,-0.07,0.12,-0.59,0
20107,3.8352e+07,1,2.29,-2,13.03,-0.015009,0.029275,0.013523,0.18585,0,0,0.49234,-0.07,0.12,-0.59,0
20149,3.8362e+07,1,2.29,-2,13.03,-0.014982,0.029343,0.017095,0.18797,0,0,0.4946,-0.07,0.12,-0.59,0
20189,3.8373e+07,1,2.29,-2,13.03,-0.014838,0.029703,0.017852,0.19025,0,0,0.49478,-0.07,0.12,-0.59,0
20230,3.8383e+07,1,2.29,-2,13.03,-0.015517,0.03032,0.017823,0.18991,0,0,0.49696,-0.07,0.12,-0.59,0
20270,3.8393e+07,1,2.29,-2,13.04,-0.016884,0.03139,0.018628,0.18645,0,0,0.49714,-0.07,0.12,-0.59,0
20311,3.8403e+07,1,2.29,-2,13.04,-0.017159,0.030486,0.021709,0.18744,0,0,0.50021,-0.07,0.12,-0.59,0
20351,3.8413e+07,1,2.28,-2,13.05,-0.017791,0.030801,0.022282,0.1886,0,0,0.50312,-0.07,0.12,-0.58,0
20393,3.8423e+07,1,2.28,-2,13.05,-0.019026,0.029915,0.02389,0.19139,0,0,0.50591,-0.07,0.12,-0.58,0
20434,3.8433e+07,1,2.28,-2,13.04,-0.018645,0.028546,0.026259,0.19588,0,0,0.50858,-0.07,0.12,-0.58,0
20480,3.8444e+07,1,2.28,-2,13.05,-0.019407,0.027524,0.026844,0.20194,0,0,0.50887,-0.07,0.12,-0.58,0
20522,3.8454e+07,1,2.27,-2,13.05,-0.020773,0.027334,0.028425,0.20601,0,0,0.51144,-0.07,0.12,-0.58,0
20562,3.8464e+07,1,2.27,-2,13.05,-0.0208,0.02759,0.029698,0.20747,0,0,0.51392,-0.07,0.12,-0.58,0
20604,3.8474e+07,1,2.27,-2,13.05,-0.019956,0.026855,0.0285,0.20527,0,0,0.51628,-0.07,0.12,-0.58,0
20651,3.8491e+07,1,2.28,-2,13.05,-0.020783,0.026817,0.031722,0.20999,0,0,0.52012,-0.07,0.12,-0.58,0
20694,3.8501e+07,1,2.28,-2,13.06,-0.021329,0.026953,0.033849,0.21372,0,0,0.52358,-0.07,0.12,-0.57,0
20734,3.8511e+07,1,2.28,-2,13.05,-0.021729,0.02489,0.034966,0.22292,0,0,0.52694,-0.07,0.12,-0.57,0
20775,3.8522e+07,1,2.29,-2,13.05,-0.022115,0.023079,0.036607,0.23478,0,0,0.5273,-0.07,0.12,-0.57,0
20817,3.8532e+07,1,2.29,-2,13.05,-0.022232,0.02253,0.037284,0.24249,0,0,0.53055,-0.07,0.12,-0.57,0
20862,3.8542e+07,1,2.29,-2,13.05,-0.022926,0.021827,0.037666,0.24852,0,0,0.53362,-0.07,0.12,-0.57,0
20905,3.8552e+07,1,2.29,-2,13.06,-0.021834,0.020332,0.040573,0.25582,0,0,0.53656,-0.07,0.12,-0.57,0
20945,3.8562e+07,1,2.29,-2,13.05,-0.021888,0.020615,0.039948,0.25693,0,0,0.53938,-0.07,0.12,-0.57,0
20986,3.8573e+07,1,2.28,-2.01,13.05,-0.020829,0.020983,0.041229,0.26173,0,0,0.53979,-0.07,0.12,-0.57,0
21026,3.8586e+07,1,2.28,-2,13.06,-0.020565,0.018733,0.043647,0.26748,0,0,0.5436,-0.07,0.12,-0.57,0
21066,3.8595e+07,1,2.27,-2,13.05,-0.020653,0.018517,0.045882,0.2734,0,0,0.54714,-0.07,0.12,-0.56,0
21107,3.8606e+07,1,2.27,-2,13.05,-0.019296,0.018601,0.047874,0.27846,0,0,0.55058,-0.07,0.12,-0.56,0
21148,3.8616e+07,1,2.27,-2,13.05,-0.020272,0.019253,0.04912,0.28213,0,0,0.55385,-0.07,0.12,-0.56,0
21189,3.8626e+07,1,2.27,-2,13.04,-0.021683,0.01875,0.050619,0.28388,0,0,0.55698,-0.07,0.12,-0.56,0
21230,3.8636e+07,1,2.27,-2,13.04,-0.022231,0.019562,0.050669,0.28674,0,0,0.55748,-0.07,0.12,-0.56,0
21275,3.8646e+07,1,2.28,-2,13.03,-0.021928,0.018083,0.051514,0.28826,0,0,0.56049,-0.07,0.12,-0.56,0
21316,3.8656e+07,1,2.28,-2,13.03,-0.02253,0.018291,0.052055,0.28826,0,0,0.56338,-0.07,0.12,-0.56,0
21357,3.8666e+07,1,2.28,-2,13.03,-0.023165,0.018703,0.05414,0.28623,0,0,0.56616,-0.07,0.12,-0.56,0
21398,3.8676e+07,1,2.29,-2.01,13.02,-0.024338,0.019138,0.053873,0.28186,0,0,0.5667,-0.07,0.12,-0.56,0
21436,3.8687e+07,1,2.28,-2.01,13.02,-0.024705,0.018991,0.054308,0.27144,0,0,0.56948,-0.07,0.12,-0.56,0
21477,3.87e+07,1,2.29,-2.01,13.02,-0.025381,0.019699,0.055974,0.26349,0,0,0.57348,-0.07,0.12,-0.55,0
21517,3.871e+07,1,2.29,-2.01,13.01,-0.026065,0.019733,0.056566,0.26038,0,0,0.57723,-0.07,0.12,-0.56,0
21558,3.8721e+07,1,2.29,-2.01,13,-0.026286,0.021047,0.058948,0.26487,0,0,0.58085,-0.07,0.12,-0.56,0
21598,3.8731e+07,1,2.28,-2.01,13,-0.025587,0.020879,0.059723,0.27127,0,0,0.58145,-0.07,0.12,-0.56,0
21641,3.8741e+07,1,2.28,-2.02,13,-0.026064,0.021235,0.05901,0.27426,0,0,0.58495,-0.07,0.12,-0.56,0
21686,3.8751e+07,1,2.28,-2.02,13,-0.026592,0.021866,0.061609,0.27876,0,0,0.58826,-0.07,0.12,-0.56,0
21728,3.8761e+07,1,2.28,-2.02,13,-0.026959,0.021794,0.063173,0.27797,0,0,0.59147,-0.07,0.12,-0.56,0
21769,3.8772e+07,1,2.28,-2.01,13,-0.028121,0.022155,0.063786,0.27966,0,0,0.5921,-0.07,0.12,-0.56,0
21812,3.8784e+07,1,2.28,-2.01,12.99,-0.028316,0.023126,0.065566,0.27936,0,0,0.59541,-0.07,0.12,-0.56,0
21850,3.8795e+07,1,2.28,-2.01,12.99,-0.027997,0.023549,0.066075,0.27864,0,0,0.5987,-0.07,0.12,-0.55,0
21890,3.8805e+07,1,2.28,-2.01,12.99,-0.027708,0.023664,0.067678,0.27834,0,0,0.60192,-0.07,0.12,-0.55,0
21932,3.8815e+07,1,2.28,-2.01,12.99,-0.028355,0.024157,0.067858,0.27679,0,0,0.60497,-0.07,0.12,-0.55,0
21973,3.8825e+07,1,2.28,-2.01,12.99,-0.02886,0.024587,0.067642,0.273,0,0,0.60786,-0.07,0.12,-0.55,0
22013,3.8835e+07,1,2.29,-2.01,13,-0.029463,0.025146,0.068836,0.27318,0,0,0.60855,-0.07,0.12,-0.55,0
22058,3.8846e+07,1,2.29,-2.01,13,-0.029672,0.025621,0.071599,0.2724,0,0,0.61144,-0.07,0.12,-0.55,0
22098,3.8856e+07,1,2.29,-2.01,13,-0.030479,0.026724,0.073157,0.26943,0,0,0.61417,-0.07,0.12,-0.55,0
22141,3.8866e+07,1,2.29,-2.01,13,-0.030696,0.025799,0.07297,0.2617,0,0,0.6168,-0.07,0.12,-0.55,0
22181,3.8877e+07,1,2.29,-2,13,-0.031222,0.025243,0.07348,0.25662,0,0,0.6176,-0.07,0.12,-0.55,0
22223,3.8888e+07,1,2.28,-2,13,-0.031482,0.025653,0.073716,0.24883,0,0,0.62017,-0.07,0.12,-0.55,0
22261,3.8898e+07,1,2.28,-2,13.01,-0.030455,0.026738,0.075924,0.24512,0,0,0.62283,-0.07,0.12,-0.54,0
22301,3.8908e+07,1,2.28,-2,13.01,-0.030498,0.027881,0.076573,0.23976,0,0,0.62534,-0.07,0.12,-0.54,0
22342,3.8919e+07,1,2.28,-2,13,-0.032035,0.027951,0.077773,0.23403,0,0,0.62618,-0.07,0.12,-0.54,0
22384,3.893e+07,1,2.28,-2,13.01,-0.032303,0.02608,0.078764,0.22797,0,0,0.62864,-0.07,0.12,-0.54,0
22427,3.894e+07,1,2.28,-2,13.01,-0.032172,0.026478,0.081838,0.22361,0,0,0.6311,-0.07,0.12,-0.54,0
22472,3.8951e+07,1,2.28,-2,13.01,-0.03265,0.026793,0.081612,0.21855,0,0,0.63339,-0.07,0.12,-0.54,0
22512,3.8961e+07,1,2.28,-2,13.01,-0.03266,0.026483,0.0807,0.21183,0,0,0.63566,-0.07,0.12,-0.54,0
22553,3.8971e+07,1,2.28,-2,13.01,-0.03188,0.026768,0.080958,0.20591,0,0,0.63777,-0.07,0.12,-0.54,0
22599,3.8984e+07,1,2.27,-2,13.01,-0.030872,0.025484,0.081514,0.20024,0,0,0.63996,-0.07,0.12,-0.54,0
22641,3.8994e+07,1,2.27,-2,13.01,-0.030489,0.023832,0.084085,0.19786,0,0,0.64087,-0.07,0.12,-0.54,0
22679,3.9005e+07,1,2.27,-2,13.01,-0.030387,0.023649,0.084394,0.19219,0,0,0.64339,-0.07,0.12,-0.53,0
22719,3.9015e+07,1,2.27,-2,13.01,-0.030133,0.022868,0.084648,0.18578,0,0,0.64577,-0.07,0.12,-0.53,0
22760,3.9025e+07,1,2.27,-2,13.01,-0.031609,0.023033,0.085828,0.18401,0,0,0.64662,-0.07,0.12,-0.53,0
22802,3.9035e+07,1,2.27,-2,13.01,-0.032725,0.022332,0.086847,0.18206,0,0,0.64894,-0.07,0.12,-0.53,0
22842,3.9045e+07,1,2.27,-2,13.01,-0.032384,0.021422,0.087881,0.18091,0,0,0.65117,-0.07,0.12,-0.53,0
22888,3.9055e+07,1,2.27,-2,13.01,-0.032717,0.021776,0.087743,0.17824,0,0,0.65331,-0.07,0.12,-0.53,0
22928,3.9065e+07,1,2.27,-2,13,-0.033337,0.02274,0.089049,0.17729,0,0,0.65539,-0.07,0.12,-0.53,0
22970,3.9075e+07,1,2.27,-2,13,-0.032944,0.022825,0.090278,0.17775,0,0,0.65628,-0.07,0.12,-0.53,0
23011,3.9085e+07,1,2.27,-2,13,-0.032455,0.023599,0.091114,0.17679,0,0,0.6583,-0.07,0.12,-0.53,0
23048,3.9096e+07,1,2.27,-2,13,-0.031919,0.024008,0.091114,0.17545,0,0,0.66034,-0.07,0.12,-0.54,0
23086,3.9106e+07,1,2.27,-2,13,-0.031698,0.02423,0.094366,0.17651,0,0,0.66293,-0.07,0.12,-0.53,0
23127,3.9117e+07,1,2.26,-2,13,-0.032205,0.023381,0.094952,0.17732,0,0,0.66542,-0.07,0.12,-0.53,0
23169,3.9127e+07,1,2.27,-2,13,-0.032964,0.023222,0.096746,0.18148,0,0,0.66793,-0.07,0.12,-0.53,0
23210,3.9138e+07,1,2.27,-2,13,-0.031668,0.022308,0.096748,0.18329,0,0,0.67038,-0.07,0.12,-0.54,0
23250,3.9149e+07,1,2.27,-2,13,-0.032163,0.022758,0.098411,0.18768,0,0,0.67135,-0.07,0.12,-0.54,0
23295,3.9159e+07,1,2.27,-2,13,-0.031647,0.02265,0.09925,0.18983,0,0,0.67364,-0.07,0.12,-0.54,0
23338,3.9169e+07,1,2.28,-2.01,13,-0.031845,0.022798,0.10132,0.19108,0,0,0.67587,-0.07,0.12,-0.53,0
23379,3.9179e+07,1,2.28,-2,13,-0.030188,0.023343,0.10331,0.19203,0,0,0.67815,-0.07,0.12,-0.53,0
23420,3.919e+07,1,2.28,-2,13,-0.030018,0.023013,0.10273,0.19147,0,0,0.67918,-0.07,0.12,-0.53,0
23457,3.92e+07,1,2.27,-2.01,13,-0.03037,0.022876,0.10332,0.18868,0,0,0.68133,-0.07,0.12,-0.53,0
23498,3.9213e+07,1,2.27,-2,13,-0.029729,0.022655,0.10579,0.18829,0,0,0.68426,-0.07,0.12,-0.53,0
23539,3.9223e+07,1,2.27,-2,13.01,-0.030559,0.02334,0.10389,0.18572,0,0,0.6868,-0.07,0.12,-0.53,0
23580,3.9233e+07,1,2.27,-2,13.01,-0.031622,0.023789,0.10298,0.1871,0,0,0.68794,-0.07,0.12,-0.53,0
23621,3.9244e+07,1,2.27,-2,13.01,-0.03166,0.022214,0.10558,0.19091,0,0,0.6904,-0.07,0.12,-0.53,0
23661,3.9254e+07,1,2.27,-2.01,13.02,-0.031189,0.022575,0.10766,0.19442,0,0,0.69279,-0.07,0.12,-0.53,0
23706,3.9263e+07,1,2.27,-2.01,13.02,-0.030754,0.023532,0.10817,0.19448,0,0,0.69512,-0.07,0.12,-0.53,0
23747,3.9274e+07,1,2.27,-2.01,13.02,-0.03095,0.023693,0.10763,0.19526,0,0,0.69622,-0.07,0.12,-0.53,0
23789,3.9284e+07,1,2.28,-2.01,13.03,-0.030875,0.024039,0.10616,0.19371,0,0,0.69857,-0.07,0.12,-0.53,0
23830,3.9295e+07,1,2.27,-2.01,13.02,-0.030294,0.02284,0.10906,0.19498,0,0,0.70078,-0.07,0.12,-0.53,0
23868,3.9308e+07,1,2.28,-2.01,13.02,-0.030822,0.023241,0.11084,0.19679,0,0,0.70413,-0.07,0.12,-0.52,0
23909,3.9318e+07,1,2.28,-2.01,13.02,-0.030996,0.023403,0.11139,0.2003,0,0,0.70703,-0.07,0.12,-0.52,0
23949,3.9328e+07,1,2.28,-2.01,13.03,-0.030735,0.022654,0.11213,0.20547,0,0,0.70816,-0.07,0.12,-0.52,0
23992,3.9338e+07,1,2.28,-2,13.03,-0.031341,0.023422,0.11372,0.21091,0,0,0.711,-0.07,0.12,-0.52,0
24033,3.9348e+07,1,2.29,-2,13.03,-0.030354,0.02239,0.11394,0.21298,0,0,0.71378,-0.07,0.12,-0.52,0
24074,3.9358e+07,1,2.28,-2.01,13.03,-0.03075,0.02041,0.11636,0.21998,0,0,0.71657,-0.07,0.12,-0.52,0
24119,3.9368e+07,1,2.28,-2.01,13.04,-0.03021,0.019683,0.11596,0.22211,0,0,0.71918,-0.07,0.12,-0.52,0
24159,3.9379e+07,1,2.28,-2.01,13.04,-0.029449,0.017966,0.11726,0.22679,0,0,0.7218,-0.07,0.12,-0.53,0
24201,3.9389e+07,1,2.28,-2.01,13.04,-0.029692,0.016994,0.11778,0.23063,0,0,0.72297,-0.07,0.12,-0.53,0
24244,3.9402e+07,1,2.28,-2.01,13.04,-0.029382,0.016843,0.11926,0.23378,0,0,0.72566,-0.07,0.12,-0.53,0
24282,3.9412e+07,1,2.28,-2.01,13.04,-0.028479,0.017315,0.12088,0.2347,0,0,0.72846,-0.07,0.12,-0.52,0
24324,3.9422e+07,1,2.28,-2.01,13.05,-0.02828,0.016759,0.12094,0.23442,0,0,0.73105,-0.07,0.12,-0.52,0
24364,3.9433e+07,1,2.28,-2.01,13.05,-0.028572,0.017172,0.12274,0.2355,0,0,0.73227,-0.07,0.12,-0.52,0
24405,3.9443e+07,1,2.28,-2.01,13.05,-0.027614,0.01674,0.12368,0.23481,0,0,0.73495,-0.07,0.12,-0.52,0
24446,3.9453e+07,1,2.28,-2.01,13.05,-0.02763,0.015837,0.12508,0.23338,0,0,0.73746,-0.07,0.12,-0.52,0
24496,3.9466e+07,1,2.28,-2.02,13.06,-0.027071,0.016312,0.12509,0.23048,0,0,0.74013,-0.07,0.12,-0.52,0
24537,3.9475e+07,1,2.28,-2.01,13.06,-0.02699,0.01653,0.12524,0.22804,0,0,0.74249,-0.07,0.12,-0.52,0
24579,3.9486e+07,1,2.28,-2.01,13.06,-0.027709,0.015988,0.1269,0.22815,0,0,0.74388,-0.07,0.12,-0.52,0
24620,3.9496e+07,1,2.28,-2.01,13.06,-0.028148,0.016201,0.1277,0.22561,0,0,0.74619,-0.07,0.12,-0.52,0
24660,3.9506e+07,1,2.28,-2.01,13.07,-0.027919,0.016805,0.12757,0.22091,0,0,0.74846,-0.07,0.12,-0.52,0
24702,3.9516e+07,1,2.28,-2.01,13.07,-0.028288,0.018162,0.12805,0.21857,0,0,0.74975,-0.07,0.12,-0.52,0
24743,3.9526e+07,1,2.28,-2.01,13.07,-0.028235,0.018958,0.12823,0.21633,0,0,0.75193,-0.07,0.12,-0.52,0
24783,3.9537e+07,1,2.28,-2.02,13.08,-0.026953,0.019215,0.12949,0.2145,0,0,0.7543,-0.07,0.12,-0.51,0
24824,3.9547e+07,1,2.28,-2.02,13.08,-0.025734,0.018635,0.12885,0.20985,0,0,0.75651,-0.07,0.12,-0.51,0
24864,3.9557e+07,1,2.29,-2.01,13.08,-0.026116,0.019345,0.128,0.20621,0,0,0.75791,-0.07,0.12,-0.51,0
24909,3.9567e+07,1,2.28,-2.01,13.09,-0.025876,0.019724,0.12954,0.20466,0,0,0.76005,-0.07,0.12,-0.51,0
24950,3.9577e+07,1,2.28,-2.01,13.09,-0.026032,0.020563,0.12962,0.20028,0,0,0.76135,-0.07,0.12,-0.51,0
24991,3.9587e+07,1,2.28,-2.01,13.09,-0.026422,0.021389,0.12871,0.19554,0,0,0.76346,-0.07,0.12,-0.51,0
25032,3.9597e+07,1,2.28,-2.01,13.09,-0.025817,0.021335,0.12994,0.19359,0,0,0.76551,-0.07,0.12,-0.51,0
25069,3.9607e+07,1,2.28,-2.01,13.09,-0.02562,0.021092,0.13029,0.19076,0,0,0.7675,-0.07,0.12,-0.51,0
25111,3.9617e+07,1,2.28,-2.01,13.09,-0.025162,0.021389,0.13205,0.18944,0,0,0.76882,-0.07,0.12,-0.51,0
25152,3.9627e+07,1,2.28,-2.01,13.1,-0.025247,0.02182,0.13135,0.18844,0,0,0.77158,-0.07,0.12,-0.51,0
25193,3.9638e+07,1,2.28,-2.01,13.1,-0.024531,0.021668,0.13114,0.19042,0,0,0.77428,-0.07,0.12,-0.51,0
25234,3.9647e+07,1,2.28,-2,13.1,-0.025451,0.021347,0.13292,0.1952,0,0,0.77687,-0.07,0.12,-0.51,0
25274,3.9657e+07,1,2.28,-2,13.11,-0.025562,0.021253,0.13345,0.19846,0,0,0.7794,-0.07,0.12,-0.51,0
25319,3.9668e+07,1,2.28,-2,13.11,-0.025991,0.021115,0.13306,0.20076,0,0,0.78185,-0.07,0.12,-0.51,0
25360,3.9678e+07,1,2.28,-2,13.12,-0.025783,0.022182,0.13653,0.2082,0,0,0.78333,-0.07,0.12,-0.51,0
25400,3.9689e+07,1,2.28,-2,13.12,-0.025961,0.022725,0.13629,0.21008,0,0,0.78574,-0.07,0.12,-0.51,0
25441,3.9699e+07,1,2.28,-2,13.13,-0.025445,0.02251,0.13746,0.21272,0,0,0.78824,-0.07,0.12,-0.51,0
25482,3.9709e+07,1,2.28,-2,13.13,-0.025267,0.021863,0.14014,0.21596,0,0,0.7903,-0.07,0.12,-0.5,0
25522,3.972e+07,1,2.28,-2,13.13,-0.02614,0.023125,0.14226,0.21762,0,0,0.79235,-0.07,0.12,-0.5,0
25566,3.973e+07,1,2.28,-2,13.13,-0.026027,0.022593,0.14505,0.2188,0,0,0.79435,-0.07,0.12,-0.51,0
25607,3.974e+07,1,2.28,-2,13.13,-0.026713,0.023482,0.1462,0.21773,0,0,0.79646,-0.07,0.12,-0.51,0
25647,3.9751e+07,1,2.28,-2.01,13.13,-0.027597,0.023433,0.14712,0.21628,0,0,0.79792,-0.07,0.12,-0.51,0
25689,3.9761e+07,1,2.28,-2.01,13.14,-0.026599,0.022379,0.14881,0.21458,0,0,0.79989,-0.07,0.12,-0.51,0
25733,3.9771e+07,1,2.29,-2.01,13.13,-0.026408,0.022818,0.14963,0.21025,0,0,0.80153,-0.07,0.12,-0.51,0
25774,3.9781e+07,1,2.29,-2.01,13.14,-0.025289,0.022302,0.14997,0.20537,0,0,0.80351,-0.06,0.12,-0.5,0
25814,3.9791e+07,1,2.29,-2.01,13.13,-0.02471,0.02321,0.15074,0.20082,0,0,0.80546,-0.06,0.12,-0.5,0
