LineNo,TimeUS,C,Roll,Pitch,Yaw,VN,VE,VD,dPD,PN,PE,PD,GX,GY,GZ,OH
192,33254959,0,1.93,-1.62,10.29,-0.00226775,0.00202163,-0.04575879,-0.09201693,0,0,0.7066243,-0.05,-0.02,-0.8100000000000001,0
530,33333696,0,1.93,-1.63,10.38,-0.001506762,0.002739945,-0.04906702,-0.08339191999999999,0,0,0.7005954,-0.05,-0.02,-0.8100000000000001,0
988,33434939,0,1.94,-1.63,10.47,-0.003137969,0.002754317,-0.05304999,-0.07492609,0,0,0.6922346,-0.05,-0.02,-0.8,0
1306,33612414,0,1.94,-1.63,10.58,-0.003450147,0.002938319,-0.503452,-0.4909974,0,0,0.6479868,-0.05,-0.02,-0.75,0
1491,33647382,0,1.94,-1.63,10.61,-0.004007556,0.002644233,-0.5046809,-0.5058693,0,0,0.6290675999999999,-0.05,-0.02,-0.76,0
1580,33659850,0,1.94,-1.63,10.63,-0.004451458,0.002597712,-0.5049933,-0.5123982,0,0,0.6219274,-0.05,-0.02,-0.75,0
1626,33669891,0,1.94,-1.63,10.64,-0.004575871,0.002447816,-0.5049294,-0.5169016,0,0,0.6163406,-0.05,-0.02,-0.76,0
1670,33683191,0,1.94,-1.63,10.65,-0.004357881,0.00253846,-0.5054566,-0.5240639,0,0,0.6089177,-0.05,-0.02,-0.76,0
1710,33693461,0,1.94,-1.63,10.66,-0.004177038,0.002435786,-0.5059348,-0.5305085,0,0,0.60306,-0.05,-0.02,-0.76,0
1751,33703939,0,1.94,-1.63,10.67,-0.004026025,0.002546068,-0.5064281,-0.5378554,0,0,0.5967441999999999,-0.05,-0.02,-0.77,0
1791,33713946,0,1.94,-1.63,10.68,-0.00386539,0.002477468,-0.5072156,-0.5442232,0,0,0.5909759,-0.05,-0.02,-0.77,0
1838,33723836,0,1.94,-1.63,10.69,-0.003918173,0.002464581,-0.507829,-0.5493382,0,0,0.5852443000000001,-0.05,-0.02,-0.77,0
1878,33734946,0,1.94,-1.63,10.7,-0.003957822,0.002643822,-0.5080152999999999,-0.5542886,0,0,0.5790486,-0.05,-0.02,-0.77,0
1919,33745281,0,1.94,-1.62,10.71,-0.003760325,0.002814962,-0.5082678,-0.5586238,0,0,0.5739738,-0.05,-0.02,-0.77,0
1960,33755244,0,1.94,-1.62,10.72,-0.003536435,0.00283009,-0.5085739,-0.5615731,0,0,0.5683172,-0.05,-0.02,-0.77,0
1998,33765704,0,1.94,-1.63,10.73,-0.003534142,0.002878084,-0.5093561,-0.5672069,0,0,0.5609609,-0.05,-0.02,-0.77,0
2039,33775819,0,1.94,-1.63,10.74,-0.003496141,0.002823715,-0.5100275,-0.5753924,0,0,0.5542011999999999,-0.05,-0.02,-0.77,0
2079,33785695,0,1.94,-1.63,10.75,-0.003542298,0.002933175,-0.5109148999999999,-0.584634,0,0,0.5475222,-0.05,-0.02,-0.78,0
2120,33796105,0,1.94,-1.63,10.76,-0.003657969,0.003032948,-0.511566,-0.5943072,0,0,0.5409234000000001,-0.05,-0.02,-0.78,0
2161,33806107,0,1.94,-1.63,10.77,-0.003626532,0.003065174,-0.5122557,-0.6032579,0,0,0.5343974,-0.05,-0.02,-0.78,0
2202,33816476,0,1.94,-1.63,10.78,-0.003640522,0.003133578,-0.5128136,-0.6130041000000001,0,0,0.529278,-0.05,-0.02,-0.78,0
2246,33826422,0,1.94,-1.63,10.79,-0.003594886,0.00304859,-0.513778,-0.6206107,0,0,0.5228024999999999,-0.05,-0.02,-0.78,0
2287,33836501,0,1.94,-1.63,10.8,-0.003840565,0.002754171,-0.5147607,-0.6279886,0,0,0.5163929,-0.05,-0.02,-0.78,0
2332,33846435,0,1.94,-1.63,10.81,-0.003959679,0.002698725,-0.5155152,-0.6334997,0,0,0.5100426,-0.05,-0.02,-0.78,0
2375,33859612,0,1.94,-1.63,10.82,-0.003983117,0.002621713,-0.5167103,-0.638617,0,0,0.5011274999999999,-0.05,-0.02,-0.78,0
2416,33870099,0,1.94,-1.63,10.83,-0.004216148,0.002680571,-0.5177092,-0.6464693,0,0,0.4933437,-0.05,-0.02,-0.78,0
2457,33881160,0,1.94,-1.63,10.83,-0.004373019,0.00275652,-0.5187224,-0.6551436,0,0,0.4856539,-0.05,-0.02,-0.78,0
2497,33891078,0,1.94,-1.63,10.84,-0.004394209,0.00280716,-0.5197605,-0.6642411,0,0,0.4785761,-0.05,-0.02,-0.78,0
2540,33901165,0,1.94,-1.63,10.85,-0.004438211,0.002663203,-0.5210041,-0.6721838,0,0,0.4715796,-0.05,-0.02,-0.79,0
2580,33911729,0,1.94,-1.63,10.85,-0.004432301,0.002492016,-0.521301,-0.6807457,0,0,0.4658547,-0.05,-0.02,-0.79,0
2621,33921671,0,1.94,-1.63,10.86,-0.004523107,0.002495032,-0.5224928,-0.6864164,0,0,0.4589199,-0.05,-0.02,-0.79,0
2667,33931574,0,1.94,-1.62,10.87,-0.0044765,0.002579525,-0.5232471,-0.6902061,0,0,0.4520624,-0.05,-0.02,-0.79,0
2707,33941853,0,1.94,-1.62,10.87,-0.004618173,0.002540722,-0.5240811,-0.6896713,0,0,0.4452664,-0.05,-0.02,-0.78,0
2748,33952208,0,1.94,-1.62,10.88,-0.004291128,0.002457584,-0.5251943,-0.6902863,0,0,0.438019,-0.05,-0.02,-0.79,0
2789,33962687,0,1.94,-1.62,10.89,-0.004312783,0.002522694,-0.5251517,-0.6904441,0,0,0.4327734,-0.05,-0.02,-0.79,0
2830,33972642,0,1.94,-1.62,10.9,-0.004113062,0.00264635,-0.5258881,-0.6898261,0,0,0.4258781,-0.05,-0.02,-0.79,0
2870,33982470,0,1.94,-1.62,10.91,-0.004008498,0.002646296,-0.5269139,-0.6893275,0,0,0.4190574,-0.05,-0.02,-0.8100000000000001,0
2911,33995380,0,1.94,-1.62,10.93,-0.003770267,0.002687011,-0.527904,-0.6876785,0,0,0.4107215,-0.05,-0.02,-0.8100000000000001,0
2953,34005312,0,1.94,-1.62,10.94,-0.003518478,0.002617809,-0.5291162,-0.6855662,0,0,0.4040264,-0.05,-0.02,-0.8100000000000001,0
2994,34015424,0,1.94,-1.62,10.95,-0.003451416,0.002533223,-0.5300062,-0.6828630999999999,0,0,0.3973939,-0.05,-0.02,-0.8100000000000001,0
3035,34025856,0,1.94,-1.62,10.97,-0.00351671,0.002220132,-0.5307352,-0.6804715,0,0,0.3902971,-0.05,-0.02,-0.8100000000000001,0
3079,34035828,0,1.94,-1.62,10.98,-0.003478595,0.002114259,-0.5310884,-0.6787054,0,0,0.3849946,-0.05,-0.02,-0.8100000000000001,0
3120,34045870,0,1.94,-1.62,10.99,-0.00348937,0.002306084,-0.5316442,-0.675449,0,0,0.3784735,-0.05,-0.02,-0.8100000000000001,0
3160,34055828,0,1.94,-1.62,11,-0.00356096,0.002344521,-0.5324709,-0.6720329,0,0,0.3720106,-0.05,-0.02,-0.8100000000000001,0
3206,34068902,0,1.94,-1.62,11.02,-0.003603149,0.002306839,-0.5325519,-0.6644736,0,0,0.3648635,-0.05,-0.02,-0.8100000000000001,0
3246,34079062,0,1.94,-1.62,11.04,-0.003728985,0.001957292,-0.5328091,-0.6559348,0,0,0.3593336,-0.05,-0.02,-0.82,0
3288,34089451,0,1.94,-1.62,11.05,-0.003883226,0.001978536,-0.5332138,-0.6458639,0,0,0.3538197,-0.05,-0.02,-0.82,0
3333,34099443,0,1.94,-1.62,11.07,-0.004038558,0.002050806,-0.5336786,-0.6350105,0,0,0.3483225,-0.05,-0.02,-0.82,0
3373,34110031,0,1.94,-1.62,11.08,-0.004338433,0.002113206,-0.5341084,-0.622779,0,0,0.3423089,-0.05,-0.02,-0.82,0
3414,34120309,0,1.94,-1.62,11.1,-0.004209061,0.002127281,-0.5343632,-0.6117401,0,0,0.3369729,-0.05,-0.02,-0.82,0
3458,34130473,0,1.94,-1.62,11.11,-0.0040972,0.002086339,-0.5347484,-0.6010328,0,0,0.3315022,-0.05,-0.02,-0.82,0
3502,34140862,0,1.94,-1.62,11.13,-0.004167146,0.002057905,-0.535207,-0.5898646,0,0,0.325509,-0.05,-0.02,-0.82,0
3544,34150910,0,1.94,-1.62,11.14,-0.004327581,0.00224295,-0.5354158999999999,-0.5802308,0,0,0.3200648,-0.05,-0.02,-0.82,0
3584,34160856,0,1.93,-1.62,11.15,-0.004322138,0.002274986,-0.5353715,-0.5710505,0,0,0.3146363,-0.05,-0.02,-0.82,0
3625,34171106,0,1.93,-1.62,11.16,-0.004291973,0.002414998,-0.5354868,-0.562937,0,0,0.3092892,-0.05,-0.02,-0.82,0
3662,34181428,0,1.93,-1.62,11.18,-0.004193596,0.002565097,-0.5352998,-0.5533093,0,0,0.3045161,-0.05,-0.02,-0.83,0
3703,34191386,0,1.93,-1.62,11.19,-0.003915825,0.002582041,-0.5352614,-0.5429554,0,0,0.2997338,-0.05,-0.02,-0.83,0
3744,34201771,0,1.93,-1.62,11.2,-0.003798421,0.002626698,-0.5349903,-0.5323434,0,0,0.2949429,-0.05,-0.02,-0.83,0
3785,34211918,0,1.93,-1.62,11.21,-0.003816383,0.002717909,-0.5350738,-0.5211648,0,0,0.2896078,-0.05,-0.02,-0.83,0
3826,34221863,0,1.93,-1.62,11.22,-0.003630905,0.00266677,-0.535331,-0.5127611,0,0,0.2847936,-0.05,-0.02,-0.83,0
3870,34232243,0,1.93,-1.62,11.24,-0.003776322,0.002871264,-0.5355769,-0.5043101,0,0,0.2794454,-0.05,-0.02,-0.83,0
3911,34242676,0,1.93,-1.62,11.25,-0.00387037,0.002830182,-0.5357014,-0.496994,0,0,0.2746192,-0.05,-0.02,-0.83,0
3951,34253052,0,1.93,-1.62,11.26,-0.004001877,0.003023683,-0.5355741000000001,-0.4898186,0,0,0.2692485,-0.05,-0.02,-0.83,0
3993,34263424,0,1.93,-1.62,11.27,-0.003785716,0.002993624,-0.5354879,-0.4844818,0,0,0.2644048,-0.05,-0.02,-0.83,0
4033,34276679,0,1.93,-1.62,11.29,-0.003894858,0.002958837,-0.5348915,-0.4772802,0,0,0.2594403,-0.05,-0.02,-0.82,0
4074,34286869,0,1.93,-1.62,11.29,-0.004094477,0.002867381,-0.5350894,-0.4680587,0,0,0.2540977,-0.05,-0.02,-0.82,0
4115,34296461,0,1.93,-1.62,11.3,-0.003974231,0.002748105,-0.5344331,-0.4570881,0,0,0.2506804,-0.05,-0.02,-0.82,0
4156,34306785,0,1.93,-1.62,11.31,-0.003853076,0.002602869,-0.5340709,-0.4444487,0,0,0.2466669,-0.05,-0.02,-0.82,0
4197,34317140,0,1.93,-1.62,11.32,-0.004015049,0.002494684,-0.5334539,-0.4331441,0,0,0.2431258,-0.05,-0.02,-0.82,0
4239,34327260,0,1.93,-1.62,11.33,-0.0040508,0.002482543,-0.532652,-0.4217882,0,0,0.2395321,-0.05,-0.02,-0.82,0
4287,34337690,0,1.93,-1.62,11.34,-0.004052151,0.002287277,-0.5319206,-0.4086364,0,0,0.2353565,-0.05,-0.02,-0.82,0
4329,34348093,0,1.93,-1.62,11.34,-0.004129246,0.002271653,-0.5319722,-0.3970592,0,0,0.2300439,-0.05,-0.02,-0.82,0
4369,34358102,0,1.93,-1.62,11.35,-0.004262974,0.002155155,-0.5312211999999999,-0.3876042,0,0,0.2263579,-0.05,-0.02,-0.82,0
4410,34368667,0,1.93,-1.62,11.36,-0.004326304,0.002164477,-0.530428,-0.3795834,0,0,0.2226262,-0.05,-0.02,-0.82,0
4447,34378857,0,1.93,-1.62,11.36,-0.004146724,0.002354507,-0.5294666,-0.3719745,0,0,0.2191616,-0.05,-0.02,-0.8100000000000001,0
4485,34389252,0,1.93,-1.62,11.37,-0.00412444,0.002349563,-0.5286968,-0.3633532,0,0,0.2161527,-0.05,-0.02,-0.8100000000000001,0
4526,34399316,0,1.93,-1.62,11.37,-0.003960528,0.002434676,-0.5279544,-0.3549361,0,0,0.2130706,-0.05,-0.02,-0.8100000000000001,0
4568,34409908,0,1.94,-1.62,11.38,-0.003796373,0.002442583,-0.5274227,-0.3447643,0,0,0.2093887,-0.05,-0.02,-0.82,0
4609,34420393,0,1.94,-1.62,11.38,-0.003800084,0.002564423,-0.5277111,-0.3355935,0,0,0.2041202,-0.05,-0.02,-0.82,0
4649,34430377,0,1.94,-1.62,11.39,-0.003664051,0.002630275,-0.5271176,-0.3288809,0,0,0.2009026,-0.05,-0.02,-0.82,0
4694,34440411,0,1.94,-1.62,11.39,-0.003497057,0.002501141,-0.5264409,-0.32357,0,0,0.197615,-0.05,-0.02,-0.82,0
4734,34450359,0,1.94,-1.62,11.4,-0.003272262,0.002424132,-0.5257811,-0.32074,0,0,0.194267,-0.05,-0.02,-0.82,0
4775,34460856,0,1.94,-1.62,11.4,-0.003150839,0.002352718,-0.5251353,-0.3193941,0,0,0.1903348,-0.05,-0.02,-0.82,0
4815,34470870,0,1.94,-1.62,11.41,-0.003126937,0.002345518,-0.5250507,-0.317793,0,0,0.1850911,-0.05,-0.02,-0.82,0
4856,34481341,0,1.94,-1.62,11.42,-0.003065916,0.002308345,-0.5232671,-0.3086308,0,0,0.1841452,-0.05,-0.02,-0.82,0
4897,34491325,0,1.94,-1.62,11.42,-0.003098925,0.002375351,-0.521616,-0.2936076,0,0,0.1830413,-0.05,-0.02,-0.8100000000000001,0
4938,34501388,0,1.93,-1.62,11.42,-0.003104416,0.002448036,-0.5200972,-0.2770475,0,0,0.1817925,-0.05,-0.02,-0.8100000000000001,0
4978,34511289,0,1.93,-1.62,11.42,-0.002955086,0.002186392,-0.5187569,-0.2624537,0,0,0.1804064,-0.05,-0.02,-0.8100000000000001,0
5020,34521295,0,1.93,-1.62,11.43,-0.002781728,0.002172183,-0.5174949,-0.2484968,0,0,0.1788882,-0.05,-0.02,-0.8100000000000001,0
5063,34531878,0,1.93,-1.62,11.43,-0.002649371,0.002089194,-0.5160515,-0.231282,0,0,0.1767243,-0.05,-0.02,-0.8100000000000001,0
5108,34542144,0,1.93,-1.62,11.43,-0.002794914,0.002158905,-0.5162904,-0.2161547,0,0,0.1715691,-0.05,-0.02,-0.8100000000000001,0
5148,34552189,0,1.93,-1.62,11.44,-0.002891766,0.002357848,-0.5148075,-0.2048861,0,0,0.1698186,-0.05,-0.02,-0.8100000000000001,0
5191,34562196,0,1.93,-1.62,11.44,-0.00298295,0.0025997,-0.5146974,-0.2036341,0,0,0.1646779,-0.05,-0.02,-0.8100000000000001,0
5233,34572120,0,1.93,-1.62,11.44,-0.003115115,0.002611073,-0.513463,-0.203337,0,0,0.1628522,-0.05,-0.02,-0.8,0
5273,34582120,0,1.93,-1.62,11.44,-0.003120517,0.002624196,-0.5122060000000001,-0.2054723,0,0,0.1609176,-0.05,-0.02,-0.8,0
5310,34592357,0,1.93,-1.62,11.45,-0.003261973,0.002564776,-0.5103738,-0.2019311,0,0,0.1607066,-0.05,-0.02,-0.79,0
5351,34602306,0,1.93,-1.62,11.45,-0.003415991,0.00257178,-0.5085042,-0.1965999,0,0,0.1603231,-0.05,-0.02,-0.79,0
5391,34612859,0,1.93,-1.62,11.45,-0.003367483,0.00257556,-0.5086961,-0.1837433,0,0,0.1547361,-0.05,-0.02,-0.79,0
5432,34622838,0,1.93,-1.62,11.46,-0.003346959,0.002492857,-0.5070029,-0.1719899,0,0,0.1542047,-0.05,-0.02,-0.79,0
5473,34632838,0,1.93,-1.62,11.46,-0.003262459,0.002360139,-0.5052395,-0.1621798,0,0,0.1535134,-0.05,-0.02,-0.79,0
5518,34643364,0,1.93,-1.62,11.46,-0.003118105,0.002306763,-0.5035887999999999,-0.1550726,0,0,0.1526709,-0.05,-0.02,-0.79,0
5559,34653772,0,1.93,-1.62,11.47,-0.003174165,0.002143515,-0.5017284,-0.1486298,0,0,0.1511836,-0.05,-0.02,-0.79,0
5600,34664667,0,1.93,-1.62,11.47,-0.003042343,0.002039575,-0.5018473,-0.1412348,0,0,0.1461719,-0.05,-0.02,-0.79,0
5641,34674453,0,1.93,-1.62,11.47,-0.002985081,0.002037732,-0.5005246,-0.1369867,0,0,0.1450809,-0.05,-0.02,-0.79,0
5681,34687474,0,1.93,-1.62,11.48,-0.00271089,0.002175873,-0.4982329,-0.1254848,0,0,0.1446786,-0.05,-0.02,-0.79,0
5722,34697235,0,1.93,-1.62,11.48,-0.002610477,0.002100254,-0.4959967,-0.1083988,0,0,0.1455384,-0.05,-0.02,-0.79,0
5763,34707244,0,1.93,-1.62,11.48,-0.002477155,0.001987994,-0.4940464,-0.09120084000000001,0,0,0.146185,-0.05,-0.02,-0.79,0
5804,34717234,0,1.93,-1.62,11.49,-0.002426118,0.001952615,-0.4917988,-0.07742096,0,0,0.1466352,-0.05,-0.02,-0.79,0
5847,34727238,0,1.93,-1.62,11.49,-0.002554223,0.002036503,-0.4895862,-0.06506832999999999,0,0,0.1468944,-0.05,-0.02,-0.79,0
5888,34738413,0,1.93,-1.62,11.49,-0.002714312,0.002172018,-0.4880205,-0.04980723,0,0,0.1464746,-0.05,-0.02,-0.79,0
5933,34749143,0,1.93,-1.62,11.5,-0.002661606,0.002089351,-0.4861817,-0.03578849,0,0,0.1458751,-0.05,-0.02,-0.8,0
5974,34759903,0,1.93,-1.62,11.51,-0.002750189,0.001747791,-0.4844628,-0.02395589,0,0,0.1446225,-0.05,-0.02,-0.8,0
6014,34770449,0,1.93,-1.62,11.51,-0.003070754,0.00177993,-0.4846931,-0.0169965,0,0,0.1397829,-0.05,-0.02,-0.8,0
6056,34780792,0,1.93,-1.62,11.52,-0.00315563,0.001681304,-0.482055,-0.007215571,0,0,0.1412461,-0.05,-0.02,-0.8,0
6100,34793418,0,1.93,-1.62,11.52,-0.003382293,0.001656998,-0.4795088,0.004314728,0,0,0.1419915,-0.05,-0.02,-0.79,0
6140,34803764,0,1.93,-1.62,11.53,-0.003535805,0.001820542,-0.4773254,0.01588657,0,0,0.143458,-0.05,-0.02,-0.79,0
6181,34814099,0,1.93,-1.62,11.53,-0.003579106,0.001790122,-0.4748164,0.02358105,0,0,0.1442385,-0.05,-0.02,-0.79,0
6221,34824963,0,1.93,-1.62,11.54,-0.003511277,0.001603533,-0.47267,0.02826466,0,0,0.1448098,-0.05,-0.02,-0.79,0
6262,34835390,0,1.93,-1.62,11.54,-0.003571408,0.001768679,-0.4729548,0.03578205,0,0,0.140088,-0.05,-0.02,-0.79,0
6302,34845360,0,1.93,-1.62,11.54,-0.00362054,0.001805936,-0.4706928,0.03979833,0,0,0.1409426,-0.05,-0.02,-0.79,0
6350,34855267,0,1.93,-1.62,11.55,-0.003666292,0.001707359,-0.4686782,0.04209967,0,0,0.1415888,-0.05,-0.02,-0.79,0
6391,34865809,0,1.93,-1.62,11.55,-0.003770516,0.001586551,-0.4668796,0.04503217,0,0,0.1415653,-0.05,-0.02,-0.79,0
6431,34875794,0,1.93,-1.62,11.56,-0.003833421,0.001509824,-0.4648707,0.04477778,0,0,0.1418256,-0.05,-0.02,-0.79,0
6472,34888565,0,1.93,-1.62,11.56,-0.003750646,0.001456853,-0.4627895,0.04113605,0,0,0.1425355,-0.05,-0.02,-0.78,0
6509,34898232,0,1.93,-1.62,11.57,-0.003566629,0.001651408,-0.4605981,0.0397678,0,0,0.143938,-0.05,-0.02,-0.78,0
6551,34909023,0,1.93,-1.62,11.57,-0.003578292,0.001603927,-0.4582549,0.0447842,0,0,0.14466,-0.05,-0.02,-0.79,0
6592,34919461,0,1.93,-1.62,11.58,-0.003511085,0.00153879,-0.4582655,0.05186405,0,0,0.1400841,-0.05,-0.02,-0.79,0
6632,34929889,0,1.93,-1.62,11.58,-0.003452306,0.001646631,-0.4563407,0.05445392,0,0,0.140627,-0.05,-0.02,-0.79,0
6675,34939880,0,1.93,-1.62,11.59,-0.003195869,0.001740188,-0.4546179,0.05314235,0,0,0.1414291,-0.05,-0.02,-0.78,0
6721,34950008,0,1.93,-1.62,11.59,-0.003097617,0.00159209,-0.4525941,0.05072338,0,0,0.14203,-0.05,-0.02,-0.79,0
6762,34960519,0,1.93,-1.62,11.6,-0.003155671,0.001269973,-0.4506184,0.04864613,0,0,0.1424326,-0.05,-0.02,-0.79,0
6802,34970239,0,1.93,-1.62,11.6,-0.003290445,0.001164307,-0.4486345,0.04398744,0,0,0.1426549,-0.05,-0.02,-0.79,0
6846,34983332,0,1.93,-1.62,11.61,-0.003463943,0.001144713,-0.4458724,0.04293859,0,0,0.1431886,-0.05,-0.02,-0.79,0
6887,34993207,0,1.93,-1.62,11.61,-0.003607731,0.001240565,-0.4432072,0.04268617,0,0,0.1448337,-0.05,-0.02,-0.79,0
6925,35003922,0,1.93,-1.62,11.62,-0.003521602,0.001311703,-0.4405337,0.04876594,0,0,0.1458064,-0.05,-0.02,-0.79,0
6965,35014196,0,1.93,-1.62,11.62,-0.00361336,0.001285781,-0.4404303,0.05659234,0,0,0.1414073,-0.05,-0.02,-0.79,0
7005,35024203,0,1.93,-1.62,11.63,-0.003494629,0.001378883,-0.4382405,0.05997191,0,0,0.1426422,-0.05,-0.02,-0.79,0
7047,35034189,0,1.93,-1.62,11.63,-0.003559054,0.001224225,-0.4361401,0.0615215,0,0,0.1436727,-0.05,-0.02,-0.79,0
7088,35045017,0,1.93,-1.62,11.64,-0.003626994,0.001073145,-0.4344319,0.06333337999999999,0,0,0.1440615,-0.05,-0.02,-0.8,0
7135,35055312,0,1.93,-1.62,11.65,-0.003577946,0.001177119,-0.4327594,0.0546366,0,0,0.1447099,-0.05,-0.02,-0.79,0
7176,35065879,0,1.93,-1.62,11.66,-0.003343604,0.001280629,-0.430828,0.04906216,0,0,0.1447356,-0.05,-0.02,-0.79,0
7216,35076360,0,1.93,-1.62,11.66,-0.003530759,0.001314402,-0.4308264,0.04534003,0,0,0.1404336,-0.05,-0.02,-0.79,0
7258,35086875,0,1.93,-1.62,11.67,-0.003566385,0.001188592,-0.4290974,0.0369697,0,0,0.1403085,-0.05,-0.02,-0.79,0
7292,35097128,0,1.93,-1.62,11.68,-0.003421678,0.001119145,-0.4268693,0.03026955,0,0,0.142056,-0.05,-0.02,-0.78,0
7333,35107117,0,1.93,-1.62,11.69,-0.00339224,0.000988699,-0.4244661,0.02441287,0,0,0.1435841,-0.05,-0.02,-0.78,0
7374,35117876,0,1.93,-1.62,11.69,-0.003315181,0.0007353149999999999,-0.4222647,0.02079002,0,0,0.1448995,-0.05,-0.02,-0.78,0
7417,35128228,0,1.93,-1.62,11.7,-0.003095826,0.0005938867,-0.4204233,0.02270522,0,0,0.145578,-0.05,-0.02,-0.79,0
7458,35138913,0,1.93,-1.62,11.71,-0.003118015,0.0003326084,-0.4202488,0.0265956,0,0,0.14096,-0.05,-0.02,-0.79,0
7500,35148823,0,1.93,-1.62,11.71,-0.002930958,0.0003989943,-0.4179154,0.02794989,0,0,0.1418905,-0.05,-0.02,-0.78,0
7548,35158922,0,1.93,-1.62,11.72,-0.002752731,0.0004260423,-0.4160701,0.02538701,0,0,0.1426448,-0.05,-0.02,-0.78,0
7588,35169339,0,1.93,-1.62,11.72,-0.002853102,0.0003120921,-0.4143487,0.01945373,0,0,0.1432186,-0.05,-0.02,-0.78,0
7629,35179561,0,1.93,-1.62,11.73,-0.00288237,0.0002136537,-0.4142655,0.01290518,0,0,0.1390803,-0.05,-0.02,-0.78,0
7671,35189901,0,1.93,-1.62,11.73,-0.002849868,0.0004218688,-0.4124024,0.003949197,0,0,0.1391044,-0.05,-0.02,-0.78,0
7705,35200343,0,1.93,-1.62,11.74,-0.002817356,0.0004245545,-0.410196,-0.003502712,0,0,0.1400779,-0.05,-0.02,-0.78,0
7746,35210496,0,1.93,-1.62,11.74,-0.002755712,0.0004422248,-0.4079845,-0.01113572,0,0,0.1408693,-0.05,-0.02,-0.77,0
7786,35220297,0,1.93,-1.62,11.75,-0.002760442,0.0003092969,-0.4062738,-0.01763215,0,0,0.1414759,-0.05,-0.02,-0.78,0
7827,35230881,0,1.93,-1.62,11.75,-0.002720817,0.0004182946,-0.4042929,-0.01961648,0,0,0.1414905,-0.05,-0.02,-0.78,0
7867,35241146,0,1.93,-1.62,11.76,-0.002665255,0.0004988291,-0.4040508,-0.01927859,0,0,0.1374542,-0.05,-0.02,-0.78,0
7909,35251631,0,1.93,-1.62,11.77,-0.002541704,0.0004618065,-0.4026008,-0.02232142,0,0,0.1377312,-0.05,-0.02,-0.78,0
7954,35261564,0,1.93,-1.62,11.77,-0.002680654,0.0002754733,-0.4010323,-0.02614039,0,0,0.1378424,-0.05,-0.02,-0.78,0
7995,35272045,0,1.93,-1.62,11.78,-0.002501111,-5.838552e-05,-0.3999711,-0.02991377,0,0,0.13739,-0.05,-0.02,-0.78,0
8036,35281904,0,1.93,-1.62,11.78,-0.00260393,-0.000178987,-0.3985242,-0.03485171,0,0,0.1371884,-0.05,-0.02,-0.78,0
8080,35294697,0,1.93,-1.62,11.79,-0.002696475,-0.0003990091,-0.3965148,-0.0418965,0,0,0.1375657,-0.05,-0.02,-0.78,0
8121,35304400,0,1.93,-1.62,11.8,-0.002642503,-0.0003431939,-0.3945359,-0.04490713,0,0,0.1385434,-0.05,-0.02,-0.78,0
8164,35315373,0,1.93,-1.62,11.8,-0.002537611,-0.0002997608,-0.3924341,-0.04144455,0,0,0.1389328,-0.05,-0.02,-0.78,0
8201,35326103,0,1.93,-1.62,11.81,-0.002492835,-0.0005680633,-0.3925068,-0.03617648,0,0,0.134622,-0.05,-0.02,-0.78,0
8244,35336328,0,1.93,-1.62,11.82,-0.002436168,-0.0004411848,-0.3906357,-0.03465275,0,0,0.1352578,-0.05,-0.02,-0.78,0
8286,35346333,0,1.93,-1.62,11.82,-0.002454666,-0.0004080825,-0.3890269,-0.0337951,0,0,0.1357193,-0.05,-0.02,-0.78,0
8326,35356265,0,1.93,-1.62,11.83,-0.002496121,-0.0003437709,-0.3873996,-0.03587548,0,0,0.1360201,-0.05,-0.02,-0.78,0
8373,35366898,0,1.93,-1.62,11.84,-0.002514986,-0.0003094874,-0.3857779,-0.03964037,0,0,0.1357788,-0.05,-0.02,-0.78,0
8413,35377841,0,1.93,-1.62,11.85,-0.002407817,-0.0002493606,-0.3857024,-0.04083056,0,0,0.1319257,-0.05,-0.02,-0.78,0
8455,35387438,0,1.93,-1.62,11.85,-0.002208815,-0.0003007179,-0.3842571,-0.04450166,0,0,0.131937,-0.05,-0.02,-0.78,0
8495,35397425,0,1.93,-1.62,11.86,-0.002009755,-0.0003200344,-0.3826318,-0.05351879,0,0,0.1318184,-0.05,-0.02,-0.78,0
8539,35413612,0,1.93,-1.62,11.87,-0.002040541,-0.0002308512,-0.3802291,-0.06152873,0,0,0.1304576,-0.05,-0.02,-0.76,0
8581,35423588,0,1.93,-1.61,11.87,-0.002061153,-0.0001470963,-0.3782836,-0.05931455,0,0,0.1311912,-0.05,-0.02,-0.76,0
8621,35433683,0,1.93,-1.62,11.87,-0.001990783,2.138811e-05,-0.3767595,-0.05903988,0,0,0.1317553,-0.05,-0.02,-0.76,0
8662,35443838,0,1.93,-1.62,11.88,-0.001752488,-6.283654e-05,-0.3752788,-0.05914067,0,0,0.13178,-0.05,-0.02,-0.76,0
8702,35454482,0,1.93,-1.62,11.88,-0.001757637,-0.0002011844,-0.373784,-0.05612998,0,0,0.1320088,-0.05,-0.02,-0.76,0
8748,35465133,0,1.93,-1.62,11.88,-0.001940796,-0.0003335557,-0.3724531,-0.05139304,0,0,0.1317043,-0.05,-0.02,-0.76,0
8788,35475836,0,1.93,-1.62,11.88,-0.001892906,-0.0005149879,-0.3710671,-0.04725155,0,0,0.1312479,-0.05,-0.02,-0.76,0
8829,35486345,0,1.93,-1.62,11.89,-0.001888396,-0.0005010969,-0.3705983,-0.04361521,0,0,0.1275439,-0.05,-0.02,-0.76,0
8871,35496736,0,1.93,-1.62,11.89,-0.001844392,-0.0005572102,-0.3688488,-0.0439954,0,0,0.1273475,-0.05,-0.02,-0.76,0
8911,35506379,0,1.93,-1.62,11.89,-0.001951774,-0.0005543716,-0.3667986,-0.04231067,0,0,0.1282883,-0.05,-0.02,-0.76,0
8955,35519203,0,1.93,-1.62,11.89,-0.001945732,-0.0006773279,-0.3647478,-0.03888762,0,0,0.1286793,-0.05,-0.02,-0.76,0
8995,35529013,0,1.93,-1.62,11.89,-0.002107762,-0.0007966439,-0.3629063,-0.03682714,0,0,0.1296235,-0.05,-0.02,-0.75,0
9039,35539848,0,1.92,-1.62,11.89,-0.00244001,-0.0007285475,-0.3612473,-0.03061794,0,0,0.130023,-0.05,-0.02,-0.76,0
9081,35549912,0,1.93,-1.62,11.89,-0.002313275,-0.0006348194,-0.3598395,-0.02699992,0,0,0.1306128,-0.05,-0.02,-0.76,0
9122,35560236,0,1.92,-1.62,11.89,-0.002597405,-0.0007990443000000001,-0.3595206,-0.02040665,0,0,0.1270207,-0.05,-0.02,-0.76,0
9167,35570417,0,1.93,-1.62,11.89,-0.002709391,-0.0008920808,-0.3577129,-0.01724301,0,0,0.1271126,-0.05,-0.02,-0.76,0
9207,35580272,0,1.92,-1.62,11.9,-0.002644219,-0.00108343,-0.3563583,-0.01573149,0,0,0.1274041,-0.05,-0.02,-0.76,0
9249,35590236,0,1.92,-1.62,11.9,-0.002646415,-0.001108704,-0.3550318,-0.01971529,0,0,0.1275549,-0.05,-0.02,-0.75,0
9289,35600281,0,1.92,-1.62,11.9,-0.002671328,-0.001233095,-0.3535357,-0.02421905,0,0,0.127559,-0.05,-0.02,-0.76,0
9333,35615928,0,1.92,-1.62,11.9,-0.002529311,-0.0009933206,-0.3515572,-0.02693182,0,0,0.1269369,-0.05,-0.02,-0.74,0
9374,35626047,0,1.92,-1.62,11.9,-0.002259767,-0.00108049,-0.351238,-0.02879348,0,0,0.1234272,-0.05,-0.02,-0.74,0
9414,35636040,0,1.92,-1.62,11.9,-0.002081133,-0.001087685,-0.3493166,-0.02685602,0,0,0.1247741,-0.05,-0.02,-0.74,0
9455,35646001,0,1.92,-1.62,11.9,-0.00190826,-0.0009544233,-0.3476107,-0.02500926,0,0,0.1259345,-0.05,-0.02,-0.74,0
9496,35656063,0,1.92,-1.62,11.9,-0.001883772,-0.0009431384,-0.3458443,-0.02180671,0,0,0.1269101,-0.05,-0.02,-0.74,0
9537,35666288,0,1.92,-1.62,11.9,-0.001826901,-0.0009363203,-0.3439216,-0.01647815,0,0,0.1277053,-0.05,-0.02,-0.74,0
9582,35676331,0,1.92,-1.62,11.9,-0.001950188,-0.0008894794,-0.3424088,-0.01282067,0,0,0.1283339,-0.05,-0.02,-0.74,0
9622,35686782,0,1.92,-1.62,11.9,-0.002052634,-0.0009788227000000001,-0.3411344,-0.007274367,0,0,0.1284548,-0.05,-0.02,-0.74,0
9663,35697467,0,1.92,-1.62,11.9,-0.002097587,-0.001129322,-0.3410169,-0.001932022,0,0,0.1250486,-0.05,-0.02,-0.74,0
9704,35707120,0,1.92,-1.62,11.9,-0.001925249,-0.001257616,-0.3394394,-0.000479161,0,0,0.1253791,-0.05,-0.02,-0.74,0
9745,35718156,0,1.92,-1.62,11.91,-0.001884761,-0.00131752,-0.3372101,0.001695092,0,0,0.1270279,-0.05,-0.02,-0.73,0
9789,35728792,0,1.92,-1.62,11.91,-0.002005322,-0.001360132,-0.3352629,0.004430686,0,0,0.1288203,-0.05,-0.02,-0.73,0
9826,35739172,0,1.92,-1.62,11.91,-0.002017346,-0.001413662,-0.3330415,0.01391729,0,0,0.1300718,-0.05,-0.02,-0.73,0
9867,35749327,0,1.92,-1.62,11.9,-0.002111693,-0.001572183,-0.3311322,0.02117532,0,0,0.1314664,-0.05,-0.02,-0.73,0
9907,35759848,0,1.92,-1.62,11.91,-0.002080956,-0.001675458,-0.3293194,0.03190064,0,0,0.1323367,-0.05,-0.02,-0.73,0
9948,35770233,0,1.92,-1.62,11.91,-0.002206723,-0.001567914,-0.3290047,0.04226139,0,0,0.1290493,-0.05,-0.02,-0.73,0
9992,35780299,0,1.92,-1.62,11.91,-0.002057886,-0.001672135,-0.3271184,0.04806985,0,0,0.1301018,-0.05,-0.02,-0.73,0
10033,35790798,0,1.92,-1.62,11.91,-0.002037294,-0.001881812,-0.3254364,0.05140989,0,0,0.1309821,-0.05,-0.02,-0.73,0
10074,35801006,0,1.92,-1.62,11.91,-0.001978766,-0.00211895,-0.3235951,0.05477444,0,0,0.1313714,-0.05,-0.02,-0.73,0
10115,35811172,0,1.92,-1.62,11.91,-0.002023567,-0.002228667,-0.3217323,0.05560835,0,0,0.1326403,-0.05,-0.02,-0.73,0
10155,35820801,0,1.92,-1.63,11.91,-0.001849309,-0.002228357,-0.3200951,0.05341057,0,0,0.1337426,-0.05,-0.02,-0.73,0
10195,35831827,0,1.92,-1.63,11.91,-0.001703632,-0.002271819,-0.3183408,0.05448943,0,0,0.1343475,-0.05,-0.02,-0.73,0
10235,35842425,0,1.92,-1.63,11.92,-0.001689662,-0.002203451,-0.3180258,0.0566999,0,0,0.1311701,-0.05,-0.02,-0.73,0
10276,35852474,0,1.92,-1.63,11.92,-0.001656561,-0.002209337,-0.3165674,0.0551746,0,0,0.1319578,-0.05,-0.02,-0.73,0
10317,35862443,0,1.93,-1.62,11.92,-0.001590386,-0.002143794,-0.3147633,0.05260814,0,0,0.1325876,-0.05,-0.02,-0.73,0
10358,35872915,0,1.93,-1.62,11.92,-0.001271187,-0.002148645,-0.3131402,0.04988838,0,0,0.1327513,-0.05,-0.02,-0.73,0
10402,35883516,0,1.93,-1.62,11.92,-0.001139592,-0.002114406,-0.3113296,0.04387052,0,0,0.133095,-0.05,-0.02,-0.73,0
10443,35893299,0,1.93,-1.62,11.93,-0.001234802,-0.002109992,-0.3100099,0.03608587,0,0,0.1333007,-0.05,-0.02,-0.73,0
10483,35903904,0,1.92,-1.62,11.93,-0.001199366,-0.002160173,-0.3086384,0.02914764,0,0,0.1330595,-0.05,-0.02,-0.73,0
10524,35914511,0,1.92,-1.62,11.93,-0.001206183,-0.002146599,-0.3081774,0.02356092,0,0,0.1299795,-0.05,-0.02,-0.73,0
10563,35925095,0,1.92,-1.62,11.94,-0.0012477,-0.002178175,-0.3059228,0.02200089,0,0,0.1318984,-0.05,-0.02,-0.72,0
10605,35935405,0,1.92,-1.62,11.94,-0.001250093,-0.002309398,-0.3035982,0.02769874,0,0,0.1339094,-0.05,-0.02,-0.72,0
10645,35945378,0,1.92,-1.62,11.94,-0.001293508,-0.002283417,-0.3017006,0.03444877,0,0,0.135726,-0.05,-0.02,-0.72,0
10672,35975435,0,1.92,-1.62,11.95,-0.001514638,-0.002255429,-0.2975536,0.05134585,0,0,0.1358415,-0.05,-0.02,-0.72,0
10716,35985421,0,1.92,-1.62,11.95,-0.001517246,-0.002389707,-0.295829,0.05564174,0,0,0.1371494,-0.05,-0.02,-0.72,0
10757,35995406,0,1.92,-1.62,11.95,-0.001577252,-0.002394538,-0.2938827,0.05878169,0,0,0.1382904,-0.05,-0.02,-0.72,0
10797,36005401,0,1.92,-1.62,11.95,-0.001575485,-0.002316534,-0.2917846,0.05850592,0,0,0.13928,-0.05,-0.02,-0.72,0
10841,36021148,0,1.92,-1.62,11.96,-0.001924918,-0.002308721,-0.2892892,0.0624657,0,0,0.1396616,-0.05,-0.02,-0.72,0
10882,36031138,0,1.92,-1.63,11.96,-0.002053349,-0.002400547,-0.2872834,0.06863001000000001,0,0,0.1415847,-0.05,-0.02,-0.73,0
10925,36041103,0,1.92,-1.63,11.97,-0.002006503,-0.002380747,-0.2854714,0.06761397,0,0,0.1433451,-0.05,-0.02,-0.72,0
10966,36051470,0,1.92,-1.63,11.97,-0.002043124,-0.00239288,-0.2851946,0.07204550999999999,0,0,0.140496,-0.05,-0.02,-0.72,0
11006,36061439,0,1.92,-1.63,11.98,-0.001975862,-0.002658763,-0.2834813,0.07423913,0,0,0.1421019,-0.05,-0.02,-0.72,0
11049,36071467,0,1.92,-1.63,11.98,-0.001821974,-0.002675179,-0.2817027,0.07611345,0,0,0.1435311,-0.05,-0.02,-0.72,0
11093,36081641,0,1.92,-1.63,11.99,-0.00184486,-0.002751532,-0.2797635,0.07520352,0,0,0.1448023,-0.05,-0.02,-0.72,0
11134,36091440,0,1.92,-1.63,12,-0.002029386,-0.002827488,-0.2779603,0.07339191,0,0,0.1459127,-0.05,-0.02,-0.72,0
11174,36101885,0,1.92,-1.63,12,-0.001975927,-0.00289308,-0.2761984,0.07353323,0,0,0.1465863,-0.05,-0.02,-0.72,0
11215,36111885,0,1.92,-1.62,12.01,-0.002029984,-0.002831589,-0.2759788,0.07402934,0,0,0.1438291,-0.05,-0.02,-0.72,0
11260,36125239,0,1.92,-1.62,12.02,-0.001926915,-0.002748353,-0.2714756,0.07949354,0,0,0.1511586,-0.05,-0.02,-0.73,0
11302,36135776,0,1.92,-1.62,12.03,-0.001836485,-0.002774293,-0.269219,0.09152933000000001,0,0,0.1532656,-0.05,-0.02,-0.73,0
11343,36146681,0,1.92,-1.62,12.03,-0.001827997,-0.002697254,-0.2688217,0.1049977,0,0,0.1505787,-0.05,-0.02,-0.73,0
11384,36156363,0,1.92,-1.62,12.04,-0.001866254,-0.002799504,-0.2667902,0.1144645,0,0,0.1527925,-0.05,-0.02,-0.73,0
11425,36166276,0,1.92,-1.62,12.05,-0.001767772,-0.002779561,-0.264998,0.1219432,0,0,0.1548131,-0.05,-0.02,-0.73,0
11469,36176327,0,1.92,-1.62,12.06,-0.001692012,-0.002958999,-0.2630734,0.1252148,0,0,0.1566601,-0.05,-0.02,-0.73,0
11513,36186312,0,1.92,-1.62,12.06,-0.001635663,-0.003060858,-0.2612151,0.1266651,0,0,0.1583304,-0.05,-0.02,-0.73,0
11554,36196916,0,1.92,-1.62,12.07,-0.00161586,-0.003151485,-0.2610879,0.1295419,0,0,0.1554621,-0.05,-0.02,-0.73,0
11594,36206702,0,1.92,-1.62,12.08,-0.001816518,-0.003040826,-0.259091,0.1296667,0,0,0.1569883,-0.05,-0.02,-0.73,0
11635,36216899,0,1.92,-1.62,12.09,-0.001783508,-0.003031073,-0.2570015,0.1264966,0,0,0.1583632,-0.05,-0.02,-0.72,0
11672,36227310,0,1.92,-1.62,12.09,-0.00184376,-0.003211192,-0.2545355,0.1241944,0,0,0.1612036,-0.05,-0.02,-0.71,0
11713,36237494,0,1.92,-1.62,12.1,-0.001700926,-0.003177951,-0.2520244,0.1225063,0,0,0.1638424,-0.05,-0.02,-0.71,0
11754,36248126,0,1.92,-1.62,12.1,-0.001628366,-0.003231885,-0.2498647,0.1273763,0,0,0.1660219,-0.05,-0.02,-0.71,0
11795,36258906,0,1.92,-1.62,12.11,-0.001596251,-0.003258961,-0.2495775,0.1350427,0,0,0.1635278,-0.05,-0.02,-0.71,0
11836,36268692,0,1.92,-1.62,12.11,-0.001624898,-0.003412178,-0.2474696,0.1397706,0,0,0.1657938,-0.05,-0.02,-0.71,0
11877,36278690,0,1.92,-1.62,12.11,-0.00157617,-0.003369117,-0.245534,0.1432516,0,0,0.1678748,-0.05,-0.02,-0.71,0
11923,36288693,0,1.92,-1.62,12.12,-0.00157934,-0.003359939,-0.2439039,0.1386024,0,0,0.1698046,-0.05,-0.02,-0.71,0
11963,36299310,0,1.92,-1.62,12.12,-0.001724215,-0.003382263,-0.2421655,0.1377713,0,0,0.171309,-0.05,-0.02,-0.71,0
12004,36309848,0,1.92,-1.62,12.12,-0.001808746,-0.003285136,-0.2418244,0.1385089,0,0,0.1688922,-0.05,-0.02,-0.71,0
12045,36319823,0,1.92,-1.62,12.13,-0.001835265,-0.003439067,-0.2401714,0.1359703,0,0,0.170498,-0.05,-0.02,-0.71,0
12085,36332540,0,1.92,-1.62,12.13,-0.001844045,-0.00346348,-0.2379769,0.1246329,0,0,0.1723868,-0.05,-0.02,-0.7,0
12125,36343132,0,1.92,-1.62,12.13,-0.001877734,-0.003443553,-0.2356902,0.1229732,0,0,0.1745498,-0.05,-0.02,-0.7,0
12166,36353131,0,1.92,-1.62,12.13,-0.001834548,-0.003566362,-0.2336898,0.1200831,0,0,0.1767663,-0.05,-0.02,-0.7,0
12207,36363655,0,1.92,-1.62,12.13,-0.001843018,-0.003464135,-0.2332449,0.1221744,0,0,0.1742017,-0.05,-0.02,-0.7,0
12248,36373480,0,1.92,-1.62,12.13,-0.001911318,-0.003353779,-0.2312413,0.1235211,0,0,0.1764963,-0.05,-0.02,-0.7,0
12289,36383682,0,1.92,-1.62,12.14,-0.001800491,-0.003419657,-0.2290481,0.1243103,0,0,0.1783813,-0.05,-0.02,-0.7,0
12336,36393625,0,1.92,-1.62,12.14,-0.001822055,-0.003557209,-0.2274485,0.1167989,0,0,0.179901,-0.05,-0.02,-0.6899999999999999,0
12376,36404023,0,1.92,-1.62,12.14,-0.001995781,-0.003675986,-0.2260014,0.1128971,0,0,0.1812444,-0.05,-0.02,-0.6899999999999999,0
12417,36414404,0,1.92,-1.62,12.14,-0.002057419,-0.003786936,-0.2258494,0.1115536,0,0,0.1789879,-0.05,-0.02,-0.6899999999999999,0
12458,36424404,0,1.92,-1.62,12.15,-0.002055303,-0.003820625,-0.2242977,0.1080072,0,0,0.1804203,-0.05,-0.02,-0.6899999999999999,0
12499,36437773,0,1.92,-1.62,12.15,-0.001995212,-0.004083489,-0.2218849,0.1091883,0,0,0.1827436,-0.05,-0.02,-0.68,0
12539,36447285,0,1.92,-1.62,12.15,-0.001793141,-0.004127248,-0.2199144,0.1174149,0,0,0.185947,-0.05,-0.02,-0.6899999999999999,0
12579,36458317,0,1.92,-1.62,12.15,-0.001736601,-0.004329459,-0.2174894,0.1300632,0,0,0.1884928,-0.05,-0.02,-0.6899999999999999,0
12619,36468886,0,1.92,-1.62,12.15,-0.001889133,-0.004429222,-0.2153025,0.1395825,0,0,0.1908545,-0.05,-0.02,-0.6899999999999999,0
12660,36478988,0,1.92,-1.62,12.15,-0.002065346,-0.00431214,-0.2132049,0.1467926,0,0,0.1932406,-0.05,-0.02,-0.6899999999999999,0
12706,36489083,0,1.92,-1.62,12.15,-0.002048015,-0.004496068,-0.2112402,0.15598,0,0,0.1954364,-0.05,-0.02,-0.6899999999999999,0
12747,36499740,0,1.92,-1.62,12.15,-0.00204668,-0.004503763,-0.2093487,0.159103,0,0,0.1972592,-0.05,-0.02,-0.6899999999999999,0
12787,36510148,0,1.92,-1.62,12.16,-0.002178204,-0.00438139,-0.208916,0.162745,0,0,0.1951707,-0.05,-0.02,-0.6899999999999999,0
12830,36520667,0,1.92,-1.62,12.16,-0.002117173,-0.004400396,-0.2070206,0.1626875,0,0,0.1970627,-0.05,-0.02,-0.6899999999999999,0
12871,36531121,0,1.92,-1.62,12.16,-0.002076954,-0.004441872,-0.2045486,0.1629143,0,0,0.2001734,-0.05,-0.02,-0.6899999999999999,0
12913,36541564,0,1.92,-1.62,12.16,-0.002164299,-0.004491769,-0.2023877,0.1634566,0,0,0.2032819,-0.04,-0.02,-0.68,0
12954,36552051,0,1.92,-1.62,12.16,-0.002180489,-0.004532896,-0.2001297,0.1653318,0,0,0.205989,-0.04,-0.02,-0.68,0
12994,36562044,0,1.92,-1.62,12.16,-0.002166052,-0.004411083,-0.1993948,0.1718086,0,0,0.2039944,-0.04,-0.02,-0.68,0
13035,36571814,0,1.92,-1.62,12.16,-0.002342277,-0.00450324,-0.1973765,0.1775449,0,0,0.2067283,-0.04,-0.02,-0.68,0
13076,36581830,0,1.92,-1.62,12.16,-0.002368657,-0.004537921,-0.1953162,0.18032,0,0,0.209278,-0.04,-0.02,-0.68,0
13121,36592279,0,1.92,-1.62,12.16,-0.002252424,-0.004566871,-0.1935999,0.1796911,0,0,0.2116474,-0.04,-0.02,-0.68,0
13162,36602848,0,1.92,-1.62,12.17,-0.002224995,-0.004535241,-0.1916077,0.1776038,0,0,0.213658,-0.04,-0.02,-0.68,0
13203,36613213,0,1.92,-1.62,12.17,-0.002175384,-0.004456906,-0.190984,0.1780132,0,0,0.2117478,-0.04,-0.02,-0.68,0
13243,36623225,0,1.92,-1.62,12.17,-0.002052332,-0.004483921,-0.1892422,0.1753974,0,0,0.2138095,-0.04,-0.02,-0.68,0
13284,36636117,0,1.92,-1.62,12.17,-0.002123655,-0.004499642,-0.187785,0.1701179,0,0,0.2151412,-0.04,-0.02,-0.68,0
13322,36646363,0,1.92,-1.62,12.17,-0.002212426,-0.004655929,-0.1852608,0.1688936,0,0,0.2186765,-0.04,-0.02,-0.67,0
13363,36656412,0,1.92,-1.62,12.17,-0.002313998,-0.004710374,-0.1830328,0.168691,0,0,0.2220021,-0.04,-0.02,-0.66,0
13404,36666374,0,1.92,-1.62,12.17,-0.00227405,-0.00467228,-0.1806169,0.1712026,0,0,0.2251151,-0.04,-0.02,-0.67,0
13444,36677055,0,1.92,-1.62,12.17,-0.002355318,-0.004585906,-0.1784389,0.179068,0,0,0.2278396,-0.04,-0.02,-0.67,0
13485,36687810,0,1.92,-1.62,12.18,-0.002590795,-0.004605791,-0.178133,0.1881431,0,0,0.2260585,-0.04,-0.02,-0.67,0
13531,36697362,0,1.92,-1.62,12.18,-0.002723909,-0.004655936,-0.1762552,0.1935646,0,0,0.2287979,-0.04,-0.02,-0.67,0
13572,36707389,0,1.92,-1.62,12.18,-0.00278354,-0.004667319,-0.1742426,0.1975303,0,0,0.2313495,-0.04,-0.02,-0.67,0
13613,36717572,0,1.92,-1.62,12.18,-0.002741938,-0.004819878,-0.1722634,0.1975626,0,0,0.2337341,-0.04,-0.02,-0.67,0
13655,36727379,0,1.92,-1.62,12.18,-0.002700501,-0.004729942,-0.170622,0.195788,0,0,0.2359461,-0.04,-0.02,-0.67,0
13696,36741312,0,1.92,-1.62,12.18,-0.002671492,-0.004597697,-0.1680999,0.1998168,0,0,0.2388417,-0.04,-0.02,-0.66,0
13737,36752086,0,1.92,-1.62,12.18,-0.002556914,-0.004605357,-0.1659042,0.2069084,0,0,0.2420276,-0.04,-0.02,-0.66,0
13777,36762190,0,1.93,-1.62,12.18,-0.002560085,-0.004761417,-0.1637411,0.210026,0,0,0.2451855,-0.04,-0.02,-0.66,0
13819,36772857,0,1.93,-1.62,12.18,-0.002472521,-0.005000958,-0.1615386,0.2172602,0,0,0.2479734,-0.04,-0.02,-0.66,0
13859,36783174,0,1.93,-1.62,12.17,-0.002415056,-0.005125899,-0.1611116,0.2248051,0,0,0.2463631,-0.04,-0.02,-0.66,0
13900,36793657,0,1.93,-1.62,12.17,-0.002408374,-0.005292457,-0.1595689,0.2278139,0,0,0.2491549,-0.04,-0.02,-0.66,0
13944,36803676,0,1.93,-1.62,12.17,-0.002447631,-0.005330321,-0.1575312,0.2294087,0,0,0.2517634,-0.04,-0.02,-0.66,0
13986,36813702,0,1.93,-1.62,12.17,-0.0025276,-0.005402164,-0.1557847,0.2228857,0,0,0.2542275,-0.04,-0.02,-0.65,0
14027,36823919,0,1.93,-1.62,12.17,-0.002435867,-0.005454156,-0.1538692,0.2191064,0,0,0.2563585,-0.04,-0.02,-0.66,0
14068,36834779,0,1.93,-1.62,12.17,-0.002408479,-0.005488039,-0.153447,0.216811,0,0,0.2548243,-0.04,-0.02,-0.66,0
14113,36850493,0,1.92,-1.62,12.18,-0.002459696,-0.00543708,-0.1492344,0.2161908,0,0,0.2622274,-0.04,-0.02,-0.65,0
14154,36860771,0,1.92,-1.62,12.18,-0.00254824,-0.005416202,-0.1471841,0.2165727,0,0,0.2651796,-0.04,-0.02,-0.65,0
14195,36870856,0,1.92,-1.62,12.17,-0.002625431,-0.005390184,-0.1468882,0.2205304,0,0,0.2638582,-0.04,-0.02,-0.65,0
14236,36880849,0,1.92,-1.62,12.17,-0.00290643,-0.005294334,-0.144678,0.2234923,0,0,0.2667848,-0.04,-0.02,-0.65,0
14278,36890902,0,1.92,-1.62,12.17,-0.003235513,-0.00525686,-0.1425192,0.2201859,0,0,0.2694181,-0.04,-0.02,-0.65,0
14322,36901046,0,1.92,-1.62,12.17,-0.003223145,-0.00518205,-0.1404023,0.2148156,0,0,0.2720301,-0.04,-0.02,-0.65,0
14363,36911854,0,1.92,-1.62,12.17,-0.003343845,-0.005186379,-0.1386788,0.2122158,0,0,0.2743282,-0.04,-0.02,-0.65,0
14404,36922142,0,1.92,-1.62,12.17,-0.00342743,-0.005188234,-0.1382691,0.2114434,0,0,0.2729449,-0.04,-0.02,-0.65,0
14447,36932163,0,1.93,-1.62,12.17,-0.003564215,-0.005108769,-0.1365174,0.2079241,0,0,0.275244,-0.04,-0.02,-0.65,0
14485,36942637,0,1.93,-1.62,12.17,-0.003583645,-0.005090973,-0.1345932,0.2051686,0,0,0.2781971,-0.04,-0.02,-0.65,0
14523,36952893,0,1.93,-1.62,12.18,-0.003438535,-0.005251913,-0.1329223,0.201741,0,0,0.2808421,-0.04,-0.02,-0.64,0
14564,36962904,0,1.93,-1.62,12.17,-0.003306832,-0.005415385,-0.1311784,0.1968921,0,0,0.2834565,-0.04,-0.02,-0.64,0
14604,36973219,0,1.93,-1.62,12.17,-0.003297177,-0.005452211,-0.1306923,0.196364,0,0,0.2821487,-0.04,-0.02,-0.64,0
14645,36983885,0,1.93,-1.62,12.18,-0.003338077,-0.005543643,-0.1292425,0.193243,0,0,0.2844895,-0.04,-0.02,-0.64,0
14685,36993890,0,1.93,-1.62,12.18,-0.003504819,-0.005628579,-0.127674,0.1891492,0,0,0.2868088,-0.04,-0.02,-0.64,0
14730,37004054,0,1.92,-1.62,12.18,-0.003452867,-0.005799106,-0.1262808,0.1846509,0,0,0.2889709,-0.04,-0.02,-0.64,0
14773,37014442,0,1.92,-1.62,12.18,-0.003357126,-0.005824651,-0.1247102,0.1811595,0,0,0.2909729,-0.04,-0.02,-0.64,0
14813,37024467,0,1.92,-1.62,12.18,-0.003402171,-0.005882218,-0.1232144,0.1763186,0,0,0.2928333,-0.04,-0.02,-0.64,0
14856,37034441,0,1.92,-1.62,12.18,-0.003429577,-0.005884173,-0.1227078,0.1732266,0,0,0.2916053,-0.04,-0.02,-0.64,0
14896,37044467,0,1.92,-1.62,12.18,-0.003348506,-0.005823425,-0.1211861,0.16762,0,0,0.2933533,-0.04,-0.02,-0.64,0
14934,37054657,0,1.92,-1.62,12.18,-0.003422743,-0.005932682,-0.1197464,0.1627607,0,0,0.295837,-0.04,-0.02,-0.63,0
14972,37065105,0,1.92,-1.62,12.18,-0.003485945,-0.005852142,-0.1182359,0.1609943,0,0,0.2980332,-0.04,-0.02,-0.63,0
15013,37075107,0,1.93,-1.62,12.17,-0.003545749,-0.005659902,-0.1166884,0.1594307,0,0,0.3002013,-0.04,-0.02,-0.63,0
15054,37085125,0,1.93,-1.62,12.17,-0.003549808,-0.005804457,-0.1152647,0.1556018,0,0,0.3022282,-0.04,-0.02,-0.63,0
15094,37095163,0,1.93,-1.62,12.17,-0.003605739,-0.005715939,-0.1144793,0.1549582,0,0,0.3010808,-0.04,-0.02,-0.63,0
15139,37105860,0,1.93,-1.62,12.17,-0.003466571,-0.005599033,-0.1132461,0.151347,0,0,0.3028833,-0.04,-0.02,-0.63,0
15185,37118647,0,1.93,-1.62,12.17,-0.003506194,-0.005828681,-0.1119113,0.1429739,0,0,0.3043507,-0.04,-0.02,-0.62,0
15227,37129113,0,1.93,-1.62,12.17,-0.003366143,-0.005765083,-0.1105374,0.1360598,0,0,0.3060321,-0.04,-0.02,-0.62,0
15267,37139173,0,1.92,-1.62,12.17,-0.003433745,-0.005851313,-0.1092499,0.1280327,0,0,0.3075949,-0.04,-0.02,-0.62,0
15308,37149888,0,1.92,-1.62,12.18,-0.0035709,-0.005974379,-0.1089388,0.122911,0,0,0.306505,-0.04,-0.02,-0.62,0
15344,37160701,0,1.92,-1.62,12.18,-0.003601986,-0.005993907,-0.1072633,0.1198807,0,0,0.3089198,-0.04,-0.02,-0.62,0
15384,37170393,0,1.92,-1.62,12.18,-0.003724512,-0.005917962,-0.1056172,0.1215116,0,0,0.3111684,-0.04,-0.02,-0.62,0
15426,37180806,0,1.92,-1.62,12.18,-0.003715749,-0.005902769,-0.104051,0.1227379,0,0,0.3133823,-0.04,-0.02,-0.62,0
15466,37190885,0,1.92,-1.62,12.17,-0.003827953,-0.00588255,-0.102538,0.1242461,0,0,0.3154517,-0.04,-0.02,-0.62,0
15507,37200868,0,1.92,-1.62,12.17,-0.003835382,-0.005771597,-0.1011164,0.1238247,0,0,0.3173907,-0.04,-0.02,-0.62,0
15552,37210879,0,1.92,-1.62,12.18,-0.003873392,-0.005725476,-0.1007764,0.1256672,0,0,0.3162823,-0.04,-0.02,-0.62,0
15593,37220903,0,1.92,-1.62,12.18,-0.0040479,-0.005760658,-0.09924547,0.1274148,0,0,0.3181033,-0.04,-0.02,-0.62,0
15636,37230821,0,1.92,-1.62,12.18,-0.003994366,-0.005819312,-0.09786134,0.1233931,0,0,0.3198242,-0.04,-0.02,-0.62,0
15676,37240880,0,1.92,-1.62,12.18,-0.004017628,-0.005801559,-0.0964546,0.1184074,0,0,0.3214287,-0.04,-0.02,-0.62,0
15717,37250817,0,1.92,-1.62,12.18,-0.004060822,-0.005798693,-0.09591234,0.1162363,0,0,0.3204684,-0.04,-0.02,-0.62,0
15751,37261419,0,1.92,-1.63,12.18,-0.003972596,-0.005783763,-0.09421987,0.1169843,0,0,0.3228544,-0.04,-0.02,-0.6,0
15792,37271348,0,1.92,-1.63,12.18,-0.003997331,-0.005847706,-0.09280829,0.1201385,0,0,0.3250824,-0.04,-0.02,-0.61,0
15834,37281428,0,1.92,-1.63,12.18,-0.003835098,-0.005976181,-0.09144378,0.1234107,0,0,0.3271677,-0.04,-0.02,-0.61,0
15874,37291321,0,1.92,-1.63,12.18,-0.003822857,-0.006201827,-0.08979528000000001,0.1251325,0,0,0.3291263,-0.04,-0.02,-0.61,0
15915,37301396,0,1.92,-1.62,12.18,-0.003825145,-0.006163337,-0.08856314,0.1260018,0,0,0.3309547,-0.04,-0.02,-0.61,0
15959,37311358,0,1.92,-1.62,12.18,-0.003990803,-0.006041736,-0.08793484,0.1289874,0,0,0.3300731,-0.04,-0.02,-0.61,0
16002,37321621,0,1.92,-1.62,12.18,-0.003972892,-0.005968031,-0.08651691,0.129705,0,0,0.3317994,-0.04,-0.02,-0.61,0
16043,37331409,0,1.92,-1.62,12.18,-0.003970235,-0.006186257,-0.08541237,0.1292234,0,0,0.3334058,-0.04,-0.02,-0.61,0
16085,37341410,0,1.92,-1.62,12.18,-0.003882155,-0.006100637,-0.0842005,0.1267123,0,0,0.334905,-0.04,-0.02,-0.61,0
16128,37354269,0,1.92,-1.62,12.19,-0.004110131,-0.006132567,-0.08241104,0.1260018,0,0,0.3374092,-0.04,-0.02,-0.6,0
16169,37363919,0,1.92,-1.62,12.18,-0.00418744,-0.005939566,-0.08100715,0.1261496,0,0,0.3400123,-0.04,-0.02,-0.6,0
16210,37374681,0,1.92,-1.62,12.18,-0.004353338,-0.005912339,-0.08037793999999999,0.1319988,0,0,0.3392064,-0.04,-0.02,-0.6,0
16250,37384459,0,1.92,-1.62,12.18,-0.004433506,-0.005941004,-0.07870957000000001,0.1371061,0,0,0.3416828,-0.04,-0.02,-0.6,0
16291,37394386,0,1.92,-1.62,12.18,-0.004587883,-0.005907861,-0.07707498,0.1423913,0,0,0.3440141,-0.04,-0.02,-0.6,0
16331,37404978,0,1.93,-1.62,12.18,-0.004795958,-0.005899058,-0.07557888,0.1490693,0,0,0.3461224,-0.04,-0.02,-0.6,0
16378,37414884,0,1.93,-1.62,12.18,-0.004806367,-0.005924849,-0.07445607,0.1532833,0,0,0.3481732,-0.04,-0.02,-0.6,0
16418,37425067,0,1.93,-1.62,12.18,-0.004802067,-0.005950173,-0.07328272,0.1545646,0,0,0.3501026,-0.04,-0.02,-0.6,0
16459,37435347,0,1.93,-1.62,12.18,-0.004810646,-0.006021634,-0.07295579000000001,0.1572221,0,0,0.3493723,-0.04,-0.02,-0.6,0
16502,37445486,0,1.93,-1.62,12.19,-0.004748665,-0.005957371,-0.07135042,0.1578221,0,0,0.3511998,-0.04,-0.02,-0.6,0
16536,37456071,0,1.93,-1.62,12.19,-0.004596852,-0.006127687,-0.06952186,0.160491,0,0,0.3540958,-0.04,-0.02,-0.59,0
16576,37466325,0,1.93,-1.62,12.19,-0.004529358,-0.006077335,-0.0678624,0.1663635,0,0,0.356895,-0.04,-0.02,-0.59,0
16617,37477060,0,1.93,-1.62,12.19,-0.004439235,-0.00631346,-0.06599221,0.1750193,0,0,0.3594671,-0.04,-0.02,-0.59,0
16659,37486819,0,1.93,-1.62,12.19,-0.00455194,-0.006427852,-0.06436731,0.1815093,0,0,0.3619637,-0.04,-0.02,-0.59,0
16699,37496842,0,1.93,-1.62,12.19,-0.004573268,-0.006769316,-0.06292431,0.1847539,0,0,0.3643289,-0.04,-0.02,-0.59,0
16740,37507254,0,1.93,-1.62,12.19,-0.00463693,-0.00700912,-0.06247298,0.1896594,0,0,0.3637026,-0.04,-0.02,-0.59,0
16785,37517364,0,1.93,-1.62,12.19,-0.004678148,-0.006916489,-0.06122395,0.1916624,0,0,0.3659548,-0.04,-0.02,-0.59,0
16830,37527283,0,1.93,-1.63,12.19,-0.004823331,-0.00682986,-0.05963612,0.1927276,0,0,0.3680791,-0.04,-0.02,-0.59,0
16871,37537294,0,1.93,-1.62,12.19,-0.004842287,-0.006685587,-0.05841859,0.1907908,0,0,0.3700883,-0.04,-0.02,-0.59,0
16914,37550326,0,1.93,-1.62,12.19,-0.004978431,-0.006631203,-0.05679588,0.1893415,0,0,0.3721958,-0.04,-0.02,-0.59,0
16958,37563145,0,1.93,-1.62,12.19,-0.005006189,-0.006623677,-0.05533249,0.1892996,0,0,0.3741744,-0.04,-0.02,-0.58,0
16999,37573139,0,1.92,-1.62,12.18,-0.004997171,-0.006511502,-0.05404256,0.1881117,0,0,0.3762009,-0.04,-0.02,-0.58,0
17040,37583103,0,1.92,-1.62,12.18,-0.005112053,-0.006458859,-0.05352236,0.1846589,0,0,0.3756644,-0.04,-0.02,-0.58,0
17082,37593098,0,1.92,-1.62,12.18,-0.005092476,-0.006277166,-0.05190698,0.1804497,0,0,0.377618,-0.04,-0.02,-0.58,0
17122,37603137,0,1.92,-1.62,12.18,-0.005038134,-0.006228335,-0.0509155,0.1756448,0,0,0.379458,-0.04,-0.02,-0.58,0
17167,37613099,0,1.93,-1.62,12.18,-0.004958816,-0.006202779,-0.04975513,0.1707645,0,0,0.3811861,-0.04,-0.02,-0.58,0
17207,37623620,0,1.92,-1.62,12.18,-0.00513909,-0.006164887,-0.04850294,0.1664793,0,0,0.3828026,-0.04,-0.02,-0.58,0
17248,37633985,0,1.93,-1.62,12.18,-0.005297917,-0.006103115,-0.04738744,0.1603082,0,0,0.3842787,-0.04,-0.02,-0.58,0
17290,37644930,0,1.93,-1.62,12.18,-0.005103961,-0.006279659,-0.04696748,0.154738,0,0,0.3837604,-0.04,-0.02,-0.58,0
17330,37654856,0,1.93,-1.62,12.19,-0.005046817,-0.006260318,-0.04567086,0.1491156,0,0,0.3852078,-0.04,-0.02,-0.58,0
17368,37665289,0,1.93,-1.62,12.19,-0.004934014,-0.006198636,-0.04428165,0.1440073,0,0,0.3873306,-0.04,-0.02,-0.57,0
17408,37675206,0,1.93,-1.62,12.18,-0.004818202,-0.00629731,-0.04280924,0.1373612,0,0,0.3893583,-0.04,-0.02,-0.57,0
17450,37685806,0,1.92,-1.62,12.18,-0.004808284,-0.006443148,-0.04158057,0.1343708,0,0,0.3912227,-0.04,-0.02,-0.57,0
17490,37696395,0,1.92,-1.62,12.18,-0.004827403,-0.006416,-0.04091964,0.1343675,0,0,0.3908106,-0.04,-0.02,-0.57,0
17531,37706447,0,1.92,-1.62,12.18,-0.004799252,-0.006233464,-0.03956054,0.1335484,0,0,0.3926303,-0.04,-0.02,-0.57,0
17577,37717019,0,1.92,-1.62,12.18,-0.004757799,-0.006307798,-0.03855194,0.1315389,0,0,0.3943121,-0.04,-0.02,-0.57,0
17619,37727251,0,1.92,-1.62,12.17,-0.004761551,-0.006346654,-0.03748746,0.128817,0,0,0.3959368,-0.04,-0.02,-0.57,0
17660,37738040,0,1.92,-1.62,12.17,-0.004776046,-0.006211858,-0.03639231,0.1255017,0,0,0.3974347,-0.04,-0.02,-0.57,0
17700,37748326,0,1.93,-1.62,12.17,-0.004755378,-0.006190191,-0.03603881,0.1237826,0,0,0.3970723,-0.04,-0.02,-0.57,0
17741,37758597,0,1.93,-1.62,12.18,-0.004667108,-0.006258956,-0.03489386,0.1212304,0,0,0.3985289,-0.04,-0.02,-0.57,0
17778,37769770,0,1.93,-1.63,12.18,-0.004641261,-0.006370409,-0.03336521,0.1188125,0,0,0.4003185,-0.04,-0.02,-0.5600000000000001,0
17820,37780086,0,1.93,-1.62,12.18,-0.004689335,-0.006380569,-0.03219495,0.1184562,0,0,0.4020007,-0.04,-0.02,-0.5600000000000001,0
17863,37790078,0,1.93,-1.62,12.17,-0.004609483,-0.006377535,-0.03181267,0.1153736,0,0,0.4016806,-0.04,-0.02,-0.5600000000000001,0
17903,37800532,0,1.93,-1.63,12.17,-0.004694072,-0.006246182,-0.03091781,0.1125518,0,0,0.4033467,-0.04,-0.02,-0.5600000000000001,0
17944,37810392,0,1.93,-1.62,12.17,-0.004876777,-0.006327492,-0.0300149,0.110602,0,0,0.404912,-0.04,-0.02,-0.5600000000000001,0
17989,37820502,0,1.93,-1.62,12.17,-0.004905687,-0.006237955,-0.02896217,0.1083013,0,0,0.4063883,-0.04,-0.02,-0.5600000000000001,0
18030,37831100,0,1.93,-1.62,12.17,-0.004898645,-0.006139471,-0.02788038,0.1074274,0,0,0.4077394,-0.04,-0.02,-0.5600000000000001,0
18071,37841266,0,1.93,-1.62,12.17,-0.005086089,-0.006359229,-0.02689273,0.1058903,0,0,0.4090337,-0.04,-0.02,-0.5600000000000001,0
18111,37851859,0,1.93,-1.62,12.17,-0.005093565,-0.00626931,-0.02586171,0.1050647,0,0,0.410215,-0.04,-0.02,-0.5600000000000001,0
18152,37862113,0,1.92,-1.62,12.17,-0.00510288,-0.006347625,-0.02523289,0.1046223,0,0,0.4099599,-0.04,-0.02,-0.5600000000000001,0
18193,37875345,0,1.92,-1.62,12.17,-0.005172404,-0.006425851,-0.02411405,0.1027927,0,0,0.4113586,-0.04,-0.02,-0.5600000000000001,0
18235,37885543,0,1.92,-1.62,12.17,-0.005368749,-0.006408642,-0.02305244,0.1018452,0,0,0.4127521,-0.04,-0.02,-0.5600000000000001,0
18276,37895417,0,1.93,-1.62,12.17,-0.005299954,-0.006498437,-0.0217813,0.101124,0,0,0.4140621,-0.04,-0.02,-0.5600000000000001,0
18317,37905801,0,1.93,-1.62,12.17,-0.005493483,-0.00637669,-0.02097363,0.1003448,0,0,0.4152657,-0.04,-0.02,-0.5600000000000001,0
18358,37915806,0,1.93,-1.62,12.18,-0.005482864,-0.006308253,-0.02004143,0.09916648,0,0,0.4164177,-0.04,-0.02,-0.5600000000000001,0
18402,37925823,0,1.93,-1.62,12.18,-0.005253516,-0.006302122,-0.01896357,0.09687213,0,0,0.4175015,-0.04,-0.02,-0.5600000000000001,0
18445,37935841,0,1.93,-1.62,12.18,-0.005187179,-0.006330467,-0.01862247,0.09511240999999999,0,0,0.4173133,-0.04,-0.02,-0.5600000000000001,0
18486,37945818,0,1.93,-1.62,12.18,-0.005212137,-0.006427659,-0.01748772,0.09276972,0,0,0.4183428,-0.04,-0.02,-0.5600000000000001,0
18527,37956423,0,1.93,-1.62,12.19,-0.00528919,-0.006593681,-0.01675957,0.09060688,0,0,0.4192983,-0.04,-0.02,-0.5600000000000001,0
18565,37967418,0,1.93,-1.62,12.19,-0.005151488,-0.006680798,-0.01553682,0.08970549,0,0,0.4212542,-0.04,-0.02,-0.55,0
18605,37977200,0,1.93,-1.62,12.19,-0.005264909,-0.006758303,-0.01448359,0.08841643,0,0,0.4231441,-0.04,-0.02,-0.55,0
18646,37987812,0,1.93,-1.62,12.19,-0.005109746,-0.006866455,-0.01330054,0.09143268,0,0,0.4249144,-0.04,-0.02,-0.55,0
18687,37998256,0,1.93,-1.62,12.19,-0.004999298,-0.006890358,-0.01287793,0.09629487,0,0,0.4247835,-0.04,-0.02,-0.55,0
18728,38008276,0,1.92,-1.62,12.19,-0.004898683,-0.006891529,-0.01202292,0.100273,0,0,0.4264899,-0.04,-0.02,-0.55,0
18771,38018955,0,1.92,-1.62,12.19,-0.004858821,-0.006862178,-0.01114855,0.1043487,0,0,0.4280865,-0.04,-0.02,-0.55,0
18816,38028878,0,1.92,-1.62,12.2,-0.004879645,-0.006980143,-0.01022609,0.1069542,0,0,0.4296286,-0.04,-0.02,-0.55,0
18857,38039000,0,1.92,-1.62,12.2,-0.004895952,-0.006996581,-0.009541905,0.1086994,0,0,0.4295202,-0.04,-0.02,-0.55,0
18897,38049325,0,1.92,-1.62,12.2,-0.004840925,-0.006935386,-0.008404273,0.1092825,0,0,0.4310094,-0.04,-0.02,-0.55,0
18938,38059780,0,1.92,-1.62,12.2,-0.004879056,-0.006770162,-0.007422322,0.1097487,0,0,0.4324175,-0.04,-0.02,-0.55,0
18982,38072833,0,1.93,-1.62,12.2,-0.004918276,-0.006896191,-0.005887685,0.1131517,0,0,0.4349785,-0.04,-0.02,-0.55,0
19023,38082920,0,1.93,-1.62,12.21,-0.004858341,-0.006880517,-0.004488318,0.120299,0,0,0.4374377,-0.04,-0.02,-0.54,0
19064,38093460,0,1.93,-1.62,12.2,-0.004955291,-0.006838638,-0.00314898,0.1272257,0,0,0.4397872,-0.04,-0.02,-0.54,0
19104,38103831,0,1.93,-1.62,12.21,-0.005024391,-0.006886008,-0.001845614,0.1348225,0,0,0.4420297,-0.04,-0.02,-0.54,0
19147,38114340,0,1.93,-1.62,12.21,-0.004955692,-0.007077663,-0.001682894,0.1429281,0,0,0.4420117,-0.04,-0.02,-0.54,0
19189,38124468,0,1.93,-1.62,12.21,-0.004968682,-0.007017598,-0.0003718261,0.1498522,0,0,0.4441651,-0.04,-0.02,-0.54,0
19234,38134395,0,1.93,-1.62,12.21,-0.005100199,-0.007066308,0.0009805847999999999,0.1560116,0,0,0.4462155,-0.04,-0.02,-0.54,0
19274,38144278,0,1.93,-1.62,12.21,-0.004930699,-0.006891192,0.00210219,0.1599007,0,0,0.4481738,-0.04,-0.02,-0.54,0
19315,38154916,0,1.93,-1.62,12.21,-0.0050844,-0.006973019,0.002794757,0.1629058,0,0,0.4482003,-0.04,-0.02,-0.54,0
19357,38164839,0,1.93,-1.62,12.21,-0.005098417,-0.007007722,0.003912248,0.1645899,0,0,0.4500971,-0.04,-0.02,-0.54,0
19391,38175580,0,1.93,-1.62,12.21,-0.004956475,-0.006837774,0.005186158,0.1666752,0,0,0.452718,-0.04,-0.02,-0.53,0
19432,38185539,0,1.93,-1.62,12.21,-0.004834628,-0.006885005,0.006582357,0.1692715,0,0,0.4552253,-0.04,-0.02,-0.53,0
19473,38195803,0,1.93,-1.62,12.2,-0.005012486,-0.006848566,0.007724741,0.1724539,0,0,0.4576302,-0.04,-0.02,-0.53,0
19514,38206160,0,1.93,-1.62,12.2,-0.005193901,-0.006726106,0.008226692000000001,0.1775682,0,0,0.4577098,-0.04,-0.02,-0.53,0
19555,38216452,0,1.93,-1.62,12.2,-0.005255738,-0.006657836,0.009309234,0.1812869,0,0,0.4600142,-0.04,-0.02,-0.53,0
19596,38226441,0,1.93,-1.62,12.2,-0.005260034,-0.006722814,0.01034913,0.1845051,0,0,0.4622094,-0.04,-0.02,-0.53,0
19641,38236440,0,1.93,-1.62,12.2,-0.005319539,-0.006870252,0.01134,0.1859149,0,0,0.4643072,-0.04,-0.02,-0.53,0
19682,38246436,0,1.93,-1.62,12.21,-0.00541899,-0.006829032,0.01255725,0.1868479,0,0,0.4663064,-0.04,-0.02,-0.53,0
19724,38256921,0,1.93,-1.62,12.21,-0.005316075,-0.006879616,0.01342652,0.1887227,0,0,0.466449,-0.04,-0.02,-0.53,0
19764,38267317,0,1.93,-1.62,12.21,-0.005196442,-0.006860624,0.01460626,0.1881523,0,0,0.4683843,-0.04,-0.02,-0.53,0
19808,38280804,0,1.93,-1.62,12.21,-0.005116401,-0.006721361,0.01636156,0.1911763,0,0,0.4716194,-0.04,-0.02,-0.52,0
19848,38290856,0,1.93,-1.62,12.21,-0.005087039,-0.006759579,0.01763985,0.1981145,0,0,0.474647,-0.04,-0.02,-0.53,0
19890,38301176,0,1.93,-1.62,12.21,-0.005106245,-0.006767751,0.01871424,0.2062121,0,0,0.4775316,-0.04,-0.02,-0.53,0
19931,38311693,0,1.93,-1.62,12.21,-0.005096327,-0.006736496,0.02019222,0.2139747,0,0,0.4802908,-0.04,-0.02,-0.53,0
19971,38321663,0,1.93,-1.62,12.21,-0.005065978,-0.00664607,0.02143281,0.2191277,0,0,0.4829378,-0.04,-0.02,-0.53,0
20014,38332042,0,1.93,-1.62,12.21,-0.00512236,-0.006699723,0.02297326,0.2233936,0,0,0.4855005,-0.04,-0.02,-0.53,0
20059,38342284,0,1.93,-1.62,12.21,-0.005154483,-0.006683853,0.02349188,0.2276246,0,0,0.4857319,-0.04,-0.02,-0.53,0
20100,38352436,0,1.93,-1.62,12.21,-0.005235692,-0.006732845,0.02498115,0.229908,0,0,0.4881855,-0.04,-0.02,-0.53,0
20142,38362423,0,1.93,-1.62,12.21,-0.00512658,-0.006694345,0.0262488,0.2308875,0,0,0.4905355,-0.04,-0.02,-0.53,0
20182,38372914,0,1.93,-1.62,12.21,-0.005015462,-0.006814389,0.02782844,0.2337538,0,0,0.4937087,-0.04,-0.02,-0.53,0
20223,38382836,0,1.93,-1.62,12.21,-0.005105919,-0.006791915,0.02920235,0.2371398,0,0,0.496725,-0.04,-0.02,-0.52,0
20263,38392924,0,1.93,-1.62,12.21,-0.005200132,-0.00680609,0.03054078,0.2391454,0,0,0.4996211,-0.04,-0.02,-0.52,0
20304,38403090,0,1.93,-1.62,12.21,-0.005247722,-0.006681116,0.0309187,0.2433673,0,0,0.4999282,-0.04,-0.02,-0.52,0
20344,38413106,0,1.93,-1.62,12.21,-0.005080639,-0.006765945,0.03207644,0.2458053,0,0,0.5027226,-0.04,-0.02,-0.52,0
20386,38423368,0,1.93,-1.62,12.21,-0.005051729,-0.006759877,0.03349612,0.2477776,0,0,0.5054017,-0.04,-0.02,-0.52,0
20427,38433466,0,1.93,-1.62,12.21,-0.005168598,-0.006724476,0.0349443,0.2477142,0,0,0.5079784000000001,-0.04,-0.02,-0.52,0
20473,38443897,0,1.93,-1.62,12.21,-0.005065625,-0.006574683,0.03632283,0.2462374,0,0,0.5104945,-0.04,-0.02,-0.52,0
20515,38454349,0,1.93,-1.62,12.21,-0.004936512,-0.006475094,0.0369826,0.2457528,0,0,0.5108608,-0.04,-0.02,-0.52,0
20555,38464313,0,1.93,-1.62,12.21,-0.005049022,-0.006404604,0.03831154,0.2436191,0,0,0.5132611,-0.04,-0.02,-0.52,0
20597,38474351,0,1.93,-1.62,12.21,-0.005074287,-0.006278155,0.03935654,0.2380281,0,0,0.5155839,-0.04,-0.02,-0.51,0
20644,38490687,0,1.93,-1.62,12.21,-0.005150391,-0.006192898,0.04120402,0.233885,0,0,0.5194592,-0.04,-0.02,-0.51,0
20685,38500853,0,1.93,-1.62,12.2,-0.005084144,-0.006161762,0.042658,0.237036,0,0,0.5229042,-0.04,-0.02,-0.51,0
20727,38511394,0,1.93,-1.62,12.2,-0.005033149,-0.006115257,0.04406765,0.2400976,0,0,0.5262191000000001,-0.04,-0.02,-0.51,0
20768,38522035,0,1.94,-1.62,12.2,-0.005095397,-0.006048366,0.04530625,0.2436049,0,0,0.5294521,-0.04,-0.02,-0.51,0
20810,38532341,0,1.94,-1.62,12.2,-0.005135796,-0.006252869,0.04579607,0.2491477,0,0,0.5299067,-0.04,-0.02,-0.51,0
20855,38542286,0,1.94,-1.62,12.2,-0.004980454,-0.006348349,0.04749446,0.2534789,0,0,0.5329893999999999,-0.04,-0.02,-0.51,0
20898,38552205,0,1.94,-1.62,12.2,-0.004980238,-0.006613024,0.04862864,0.2566476,0,0,0.5359513,-0.04,-0.02,-0.51,0
20938,38562262,0,1.94,-1.62,12.2,-0.005089172,-0.006484038,0.04995641,0.2579202,0,0,0.5388027,-0.04,-0.02,-0.51,0
20979,38572666,0,1.93,-1.62,12.2,-0.005037746,-0.006513045,0.05098303,0.2580847,0,0,0.5415417,-0.04,-0.02,-0.51,0
21019,38585828,0,1.93,-1.62,12.2,-0.005085306,-0.006358927,0.05266666,0.2621105,0,0,0.5453282,-0.04,-0.02,-0.5,0
21059,38595399,0,1.93,-1.62,12.19,-0.005145982,-0.006149481,0.05406253,0.2639621,0,0,0.5487171,-0.04,-0.02,-0.5,0
21100,38605831,0,1.93,-1.62,12.19,-0.005180437,-0.00590987,0.05524967,0.2697167,0,0,0.5520721,-0.04,-0.02,-0.5,0
21141,38615814,0,1.93,-1.62,12.19,-0.005340255,-0.005672293,0.05578335,0.2761992,0,0,0.5526267,-0.04,-0.02,-0.5,0
21182,38625837,0,1.93,-1.62,12.18,-0.005318021,-0.005471308,0.05715495,0.2813219,0,0,0.5558141,-0.04,-0.02,-0.5,0
21223,38635816,0,1.93,-1.62,12.18,-0.005243862,-0.00527468,0.05856965,0.2839148,0,0,0.5588898,-0.04,-0.02,-0.5,0
21268,38645849,0,1.93,-1.62,12.17,-0.005144724,-0.005042857,0.05986631,0.285138,0,0,0.5618499,-0.04,-0.02,-0.5,0
21309,38655849,0,1.94,-1.62,12.17,-0.005229386,-0.004884277,0.06119407,0.2838747,0,0,0.5647067,-0.04,-0.02,-0.5,0
21350,38666446,0,1.94,-1.62,12.17,-0.005359117,-0.004921865,0.06176139,0.2837335,0,0,0.5653209,-0.04,-0.02,-0.5,0
21391,38676465,0,1.94,-1.62,12.16,-0.005489961,-0.00497253,0.06309853,0.2816686,0,0,0.5680923,-0.04,-0.02,-0.5,0
21429,38686833,0,1.94,-1.62,12.16,-0.005522132,-0.005203696,0.06481254,0.2818928,0,0,0.5720809,-0.04,-0.02,-0.49,0
21470,38699822,0,1.94,-1.62,12.16,-0.005663287,-0.005399392,0.06628645,0.286662,0,0,0.5760493,-0.04,-0.02,-0.5,0
21510,38709814,0,1.94,-1.63,12.16,-0.005681649,-0.005419235,0.06777207,0.2905377,0,0,0.579691,-0.04,-0.02,-0.49,0
21551,38720510,0,1.94,-1.63,12.16,-0.005574683,-0.005421415,0.0691302,0.2928391,0,0,0.5832054,-0.04,-0.02,-0.49,0
21591,38730928,0,1.94,-1.63,12.16,-0.005742653,-0.005398468,0.07024863000000001,0.2943383,0,0,0.5866671,-0.04,-0.02,-0.49,0
21634,38741170,0,1.93,-1.63,12.16,-0.005632292,-0.005523896,0.07075007,0.2974639,0,0,0.5873706,-0.04,-0.02,-0.49,0
21679,38751275,0,1.93,-1.63,12.16,-0.005861003,-0.00564116,0.07201898,0.2986443,0,0,0.5906579,-0.04,-0.02,-0.49,0
21721,38761174,0,1.93,-1.63,12.16,-0.005855634,-0.005576689,0.07304706,0.2988308,0,0,0.5938246,-0.04,-0.02,-0.49,0
21762,38771879,0,1.93,-1.63,12.16,-0.005953222,-0.00553799,0.074562,0.2996813,0,0,0.5969496,-0.04,-0.02,-0.49,0
21805,38784314,0,1.93,-1.63,12.16,-0.006050366,-0.005165689,0.07585048,0.2959867,0,0,0.6003747,-0.04,-0.02,-0.49,0
21843,38795006,0,1.93,-1.62,12.16,-0.006229332,-0.004992226,0.0765518,0.2924856,0,0,0.6012118,-0.04,-0.02,-0.49,0
21883,38805273,0,1.93,-1.62,12.16,-0.006431322,-0.004707582,0.07782424,0.288604,0,0,0.604413,-0.04,-0.02,-0.48,0
21925,38815271,0,1.93,-1.62,12.16,-0.006654025,-0.004682465,0.07912072000000001,0.2854626,0,0,0.6074993,-0.04,-0.02,-0.49,0
21966,38825226,0,1.94,-1.63,12.16,-0.006860341,-0.004518067,0.07999419000000001,0.2810424,0,0,0.6104815,-0.04,-0.02,-0.48,0
22006,38835481,0,1.94,-1.63,12.16,-0.006829874,-0.004490448,0.08120255,0.277134,0,0,0.6133562,-0.04,-0.02,-0.49,0
22051,38845846,0,1.94,-1.63,12.16,-0.006793109,-0.004258068,0.08261403,0.2746523,0,0,0.6162066,-0.04,-0.02,-0.49,0
22091,38856439,0,1.94,-1.63,12.16,-0.006673386,-0.004242736,0.08314273,0.2722029,0,0,0.6171171,-0.04,-0.02,-0.49,0
22134,38866442,0,1.94,-1.63,12.16,-0.006777932,-0.004308981,0.08433206,0.268351,0,0,0.619814,-0.04,-0.02,-0.49,0
22174,38877063,0,1.94,-1.63,12.16,-0.006565483,-0.004123313,0.08536241,0.2627975,0,0,0.6225097000000001,-0.04,-0.02,-0.49,0
22216,38887808,0,1.93,-1.62,12.16,-0.006587399,-0.00409843,0.08651578,0.256846,0,0,0.6252701000000001,-0.04,-0.02,-0.49,0
22254,38898245,0,1.93,-1.62,12.17,-0.006570229,-0.004136782,0.08746558,0.2522686,0,0,0.627846,-0.04,-0.01,-0.48,0
22294,38908436,0,1.93,-1.62,12.16,-0.006486332,-0.004045385,0.0882836,0.2474278,0,0,0.6303344,-0.04,-0.02,-0.48,0
22335,38919066,0,1.93,-1.62,12.16,-0.00636712,-0.003771511,0.08924346,0.243357,0,0,0.6328222999999999,-0.04,-0.02,-0.48,0
22377,38929857,0,1.93,-1.62,12.16,-0.006409908,-0.003680667,0.0902789,0.2395721,0,0,0.6352288,-0.04,-0.02,-0.48,0
22420,38940280,0,1.93,-1.63,12.17,-0.006591981,-0.003638195,0.09100277,0.2364784,0,0,0.6361337,-0.04,-0.02,-0.48,0
22465,38950583,0,1.93,-1.63,12.16,-0.006698818,-0.003482676,0.091839,0.2318191,0,0,0.638394,-0.04,-0.02,-0.48,0
22505,38960996,0,1.93,-1.63,12.16,-0.006740661,-0.00341431,0.09271166,0.2257714,0,0,0.6406805,-0.04,-0.02,-0.48,0
22546,38970851,0,1.93,-1.63,12.16,-0.006975875,-0.003424959,0.09353934,0.2200811,0,0,0.6428055,-0.04,-0.02,-0.48,0
