LineNo,TimeUS,C,Roll,Pitch,Yaw,VN,VE,VD,dPD,PN,PE,PD,GX,GY,GZ,OH
192,3.3255e+07,0,1.93,-1.62,10.29,-0.0022677,0.0020216,-0.045759,-0.092017,0,0,0.70662,-0.05,-0.02,-0.81,0
530,3.3334e+07,0,1.93,-1.63,10.38,-0.0015068,0.0027399,-0.049067,-0.083392,0,0,0.7006,-0.05,-0.02,-0.81,0
988,3.3435e+07,0,1.94,-1.63,10.47,-0.003138,0.0027543,-0.05305,-0.074926,0,0,0.69223,-0.05,-0.02,-0.8,0
1306,3.3612e+07,0,1.94,-1.63,10.58,-0.0034501,0.0029383,-0.50345,-0.491,0,0,0.64799,-0.05,-0.02,-0.75,0
1491,3.3647e+07,0,1.94,-1.63,10.61,-0.0040076,0.0026442,-0.50468,-0.50587,0,0,0.62907,-0.05,-0.02,-0.76,0
1580,3.366e+07,0,1.94,-1.63,10.63,-0.0044515,0.0025977,-0.50499,-0.5124,0,0,0.62193,-0.05,-0.02,-0.75,0
1626,3.367e+07,0,1.94,-1.63,10.64,-0.0045759,0.0024478,-0.50493,-0.5169,0,0,0.61634,-0.05,-0.02,-0.76,0
1670,3.3683e+07,0,1.94,-1.63,10.65,-0.0043579,0.0025385,-0.50546,-0.52406,0,0,0.60892,-0.05,-0.02,-0.76,0
1710,3.3693e+07,0,1.94,-1.63,10.66,-0.004177,0.0024358,-0.50593,-0.53051,0,0,0.60306,-0.05,-0.02,-0.76,0
1751,3.3704e+07,0,1.94,-1.63,10.67,-0.004026,0.0025461,-0.50643,-0.53786,0,0,0.59674,-0.05,-0.02,-0.77,0
1791,3.3714e+07,0,1.94,-1.63,10.68,-0.0038654,0.0024775,-0.50722,-0.54422,0,0,0.59098,-0.05,-0.02,-0.77,0
1838,3.3724e+07,0,1.94,-1.63,10.69,-0.0039182,0.0024646,-0.50783,-0.54934,0,0,0.58524,-0.05,-0.02,-0.77,0
1878,3.3735e+07,0,1.94,-1.63,10.7,-0.0039578,0.0026438,-0.50802,-0.55429,0,0,0.57905,-0.05,-0.02,-0.77,0
1919,3.3745e+07,0,1.94,-1.62,10.71,-0.0037603,0.002815,-0.50827,-0.55862,0,0,0.57397,-0.05,-0.02,-0.77,0
1960,3.3755e+07,0,1.94,-1.62,10.72,-0.0035364,0.0028301,-0.50857,-0.56157,0,0,0.56832,-0.05,-0.02,-0.77,0
1998,3.3766e+07,0,1.94,-1.63,10.73,-0.0035341,0.0028781,-0.50936,-0.56721,0,0,0.56096,-0.05,-0.02,-0.77,0
2039,3.3776e+07,0,1.94,-1.63,10.74,-0.0034961,0.0028237,-0.51003,-0.57539,0,0,0.5542,-0.05,-0.02,-0.77,0
2079,3.3786e+07,0,1.94,-1.63,10.75,-0.0035423,0.0029332,-0.51091,-0.58463,0,0,0.54752,-0.05,-0.02,-0.78,0
2120,3.3796e+07,0,1.94,-1.63,10.76,-0.003658,0.0030329,-0.51157,-0.59431,0,0,0.54092,-0.05,-0.02,-0.78,0
2161,3.3806e+07,0,1.94,-1.63,10.77,-0.0036265,0.0030652,-0.51226,-0.60326,0,0,0.5344,-0.05,-0.02,-0.78,0
2202,3.3816e+07,0,1.94,-1.63,10.78,-0.0036405,0.0031336,-0.51281,-0.613,0,0,0.52928,-0.05,-0.02,-0.78,0
2246,3.3826e+07,0,1.94,-1.63,10.79,-0.0035949,0.0030486,-0.51378,-0.62061,0,0,0.5228,-0.05,-0.02,-0.78,0
2287,3.3837e+07,0,1.94,-1.63,10.8,-0.0038406,0.0027542,-0.51476,-0.62799,0,0,0.51639,-0.05,-0.02,-0.78,0
2332,3.3846e+07,0,1.94,-1.63,10.81,-0.0039597,0.0026987,-0.51552,-0.6335,0,0,0.51004,-0.05,-0.02,-0.78,0
2375,3.386e+07,0,1.94,-1.63,10.82,-0.0039831,0.0026217,-0.51671,-0.63862,0,0,0.50113,-0.05,-0.02,-0.78,0
2416,3.387e+07,0,1.94,-1.63,10.83,-0.0042161,0.0026806,-0.51771,-0.64647,0,0,0.49334,-0.05,-0.02,-0.78,0
2457,3.3881e+07,0,1.94,-1.63,10.83,-0.004373,0.0027565,-0.51872,-0.65514,0,0,0.48565,-0.05,-0.02,-0.78,0
2497,3.3891e+07,0,1.94,-1.63,10.84,-0.0043942,0.0028072,-0.51976,-0.66424,0,0,0.47858,-0.05,-0.02,-0.78,0
2540,3.3901e+07,0,1.94,-1.63,10.85,-0.0044382,0.0026632,-0.521,-0.67218,0,0,0.47158,-0.05,-0.02,-0.79,0
2580,3.3912e+07,0,1.94,-1.63,10.85,-0.0044323,0.002492,-0.5213,-0.68075,0,0,0.46585,-0.05,-0.02,-0.79,0
2621,3.3922e+07,0,1.94,-1.63,10.86,-0.0045231,0.002495,-0.52249,-0.68642,0,0,0.45892,-0.05,-0.02,-0.79,0
2667,3.3932e+07,0,1.94,-1.62,10.87,-0.0044765,0.0025795,-0.52325,-0.69021,0,0,0.45206,-0.05,-0.02,-0.79,0
2707,3.3942e+07,0,1.94,-1.62,10.87,-0.0046182,0.0025407,-0.52408,-0.68967,0,0,0.44527,-0.05,-0.02,-0.78,0
2748,3.3952e+07,0,1.94,-1.62,10.88,-0.0042911,0.0024576,-0.52519,-0.69029,0,0,0.43802,-0.05,-0.02,-0.79,0
2789,3.3963e+07,0,1.94,-1.62,10.89,-0.0043128,0.0025227,-0.52515,-0.69044,0,0,0.43277,-0.05,-0.02,-0.79,0
2830,3.3973e+07,0,1.94,-1.62,10.9,-0.0041131,0.0026464,-0.52589,-0.68983,0,0,0.42588,-0.05,-0.02,-0.79,0
2870,3.3982e+07,0,1.94,-1.62,10.91,-0.0040085,0.0026463,-0.52691,-0.68933,0,0,0.41906,-0.05,-0.02,-0.81,0
2911,3.3995e+07,0,1.94,-1.62,10.93,-0.0037703,0.002687,-0.5279,-0.68768,0,0,0.41072,-0.05,-0.02,-0.81,0
2953,3.4005e+07,0,1.94,-1.62,10.94,-0.0035185,0.0026178,-0.52912,-0.68557,0,0,0.40403,-0.05,-0.02,-0.81,0
2994,3.4015e+07,0,1.94,-1.62,10.95,-0.0034514,0.0025332,-0.53001,-0.68286,0,0,0.39739,-0.05,-0.02,-0.81,0
3035,3.4026e+07,0,1.94,-1.62,10.97,-0.0035167,0.0022201,-0.53074,-0.68047,0,0,0.3903,-0.05,-0.02,-0.81,0
3079,3.4036e+07,0,1.94,-1.62,10.98,-0.0034786,0.0021143,-0.53109,-0.67871,0,0,0.38499,-0.05,-0.02,-0.81,0
3120,3.4046e+07,0,1.94,-1.62,10.99,-0.0034894,0.0023061,-0.53164,-0.67545,0,0,0.37847,-0.05,-0.02,-0.81,0
3160,3.4056e+07,0,1.94,-1.62,11,-0.003561,0.0023445,-0.53247,-0.67203,0,0,0.37201,-0.05,-0.02,-0.81,0
3206,3.4069e+07,0,1.94,-1.62,11.02,-0.0036031,0.0023068,-0.53255,-0.66447,0,0,0.36486,-0.05,-0.02,-0.81,0
3246,3.4079e+07,0,1.94,-1.62,11.04,-0.003729,0.0019573,-0.53281,-0.65593,0,0,0.35933,-0.05,-0.02,-0.82,0
3288,3.4089e+07,0,1.94,-1.62,11.05,-0.0038832,0.0019785,-0.53321,-0.64586,0,0,0.35382,-0.05,-0.02,-0.82,0
3333,3.4099e+07,0,1.94,-1.62,11.07,-0.0040386,0.0020508,-0.53368,-0.63501,0,0,0.34832,-0.05,-0.02,-0.82,0
3373,3.411e+07,0,1.94,-1.62,11.08,-0.0043384,0.0021132,-0.53411,-0.62278,0,0,0.34231,-0.05,-0.02,-0.82,0
3414,3.412e+07,0,1.94,-1.62,11.1,-0.0042091,0.0021273,-0.53436,-0.61174,0,0,0.33697,-0.05,-0.02,-0.82,0
3458,3.413e+07,0,1.94,-1.62,11.11,-0.0040972,0.0020863,-0.53475,-0.60103,0,0,0.3315,-0.05,-0.02,-0.82,0
3502,3.4141e+07,0,1.94,-1.62,11.13,-0.0041671,0.0020579,-0.53521,-0.58986,0,0,0.32551,-0.05,-0.02,-0.82,0
3544,3.4151e+07,0,1.94,-1.62,11.14,-0.0043276,0.002243,-0.53542,-0.58023,0,0,0.32006,-0.05,-0.02,-0.82,0
3584,3.4161e+07,0,1.93,-1.62,11.15,-0.0043221,0.002275,-0.53537,-0.57105,0,0,0.31464,-0.05,-0.02,-0.82,0
3625,3.4171e+07,0,1.93,-1.62,11.16,-0.004292,0.002415,-0.53549,-0.56294,0,0,0.30929,-0.05,-0.02,-0.82,0
3662,3.4181e+07,0,1.93,-1.62,11.18,-0.0041936,0.0025651,-0.5353,-0.55331,0,0,0.30452,-0.05,-0.02,-0.83,0
3703,3.4191e+07,0,1.93,-1.62,11.19,-0.0039158,0.002582,-0.53526,-0.54296,0,0,0.29973,-0.05,-0.02,-0.83,0
3744,3.4202e+07,0,1.93,-1.62,11.2,-0.0037984,0.0026267,-0.53499,-0.53234,0,0,0.29494,-0.05,-0.02,-0.83,0
3785,3.4212e+07,0,1.93,-1.62,11.21,-0.0038164,0.0027179,-0.53507,-0.52116,0,0,0.28961,-0.05,-0.02,-0.83,0
3826,3.4222e+07,0,1.93,-1.62,11.22,-0.0036309,0.0026668,-0.53533,-0.51276,0,0,0.28479,-0.05,-0.02,-0.83,0
3870,3.4232e+07,0,1.93,-1.62,11.24,-0.0037763,0.0028713,-0.53558,-0.50431,0,0,0.27945,-0.05,-0.02,-0.83,0
3911,3.4243e+07,0,1.93,-1.62,11.25,-0.0038704,0.0028302,-0.5357,-0.49699,0,0,0.27462,-0.05,-0.02,-0.83,0
3951,3.4253e+07,0,1.93,-1.62,11.26,-0.0040019,0.0030237,-0.53557,-0.48982,0,0,0.26925,-0.05,-0.02,-0.83,0
3993,3.4263e+07,0,1.93,-1.62,11.27,-0.0037857,0.0029936,-0.53549,-0.48448,0,0,0.2644,-0.05,-0.02,-0.83,0
4033,3.4277e+07,0,1.93,-1.62,11.29,-0.0038949,0.0029588,-0.53489,-0.47728,0,0,0.25944,-0.05,-0.02,-0.82,0
4074,3.4287e+07,0,1.93,-1.62,11.29,-0.0040945,0.0028674,-0.53509,-0.46806,0,0,0.2541,-0.05,-0.02,-0.82,0
4115,3.4296e+07,0,1.93,-1.62,11.3,-0.0039742,0.0027481,-0.53443,-0.45709,0,0,0.25068,-0.05,-0.02,-0.82,0
4156,3.4307e+07,0,1.93,-1.62,11.31,-0.0038531,0.0026029,-0.53407,-0.44445,0,0,0.24667,-0.05,-0.02,-0.82,0
4197,3.4317e+07,0,1.93,-1.62,11.32,-0.004015,0.0024947,-0.53345,-0.43314,0,0,0.24313,-0.05,-0.02,-0.82,0
4239,3.4327e+07,0,1.93,-1.62,11.33,-0.0040508,0.0024825,-0.53265,-0.42179,0,0,0.23953,-0.05,-0.02,-0.82,0
4287,3.4338e+07,0,1.93,-1.62,11.34,-0.0040522,0.0022873,-0.53192,-0.40864,0,0,0.23536,-0.05,-0.02,-0.82,0
4329,3.4348e+07,0,1.93,-1.62,11.34,-0.0041292,0.0022717,-0.53197,-0.39706,0,0,0.23004,-0.05,-0.02,-0.82,0
4369,3.4358e+07,0,1.93,-1.62,11.35,-0.004263,0.0021552,-0.53122,-0.3876,0,0,0.22636,-0.05,-0.02,-0.82,0
4410,3.4369e+07,0,1.93,-1.62,11.36,-0.0043263,0.0021645,-0.53043,-0.37958,0,0,0.22263,-0.05,-0.02,-0.82,0
4447,3.4379e+07,0,1.93,-1.62,11.36,-0.0041467,0.0023545,-0.52947,-0.37197,0,0,0.21916,-0.05,-0.02,-0.81,0
4485,3.4389e+07,0,1.93,-1.62,11.37,-0.0041244,0.0023496,-0.5287,-0.36335,0,0,0.21615,-0.05,-0.02,-0.81,0
4526,3.4399e+07,0,1.93,-1.62,11.37,-0.0039605,0.0024347,-0.52795,-0.35494,0,0,0.21307,-0.05,-0.02,-0.81,0
4568,3.441e+07,0,1.94,-1.62,11.38,-0.0037964,0.0024426,-0.52742,-0.34476,0,0,0.20939,-0.05,-0.02,-0.82,0
4609,3.442e+07,0,1.94,-1.62,11.38,-0.0038001,0.0025644,-0.52771,-0.33559,0,0,0.20412,-0.05,-0.02,-0.82,0
4649,3.443e+07,0,1.94,-1.62,11.39,-0.0036641,0.0026303,-0.52712,-0.32888,0,0,0.2009,-0.05,-0.02,-0.82,0
4694,3.444e+07,0,1.94,-1.62,11.39,-0.0034971,0.0025011,-0.52644,-0.32357,0,0,0.19762,-0.05,-0.02,-0.82,0
4734,3.445e+07,0,1.94,-1.62,11.4,-0.0032723,0.0024241,-0.52578,-0.32074,0,0,0.19427,-0.05,-0.02,-0.82,0
4775,3.4461e+07,0,1.94,-1.62,11.4,-0.0031508,0.0023527,-0.52514,-0.31939,0,0,0.19033,-0.05,-0.02,-0.82,0
4815,3.4471e+07,0,1.94,-1.62,11.41,-0.0031269,0.0023455,-0.52505,-0.31779,0,0,0.18509,-0.05,-0.02,-0.82,0
4856,3.4481e+07,0,1.94,-1.62,11.42,-0.0030659,0.0023083,-0.52327,-0.30863,0,0,0.18415,-0.05,-0.02,-0.82,0
4897,3.4491e+07,0,1.94,-1.62,11.42,-0.0030989,0.0023754,-0.52162,-0.29361,0,0,0.18304,-0.05,-0.02,-0.81,0
4938,3.4501e+07,0,1.93,-1.62,11.42,-0.0031044,0.002448,-0.5201,-0.27705,0,0,0.18179,-0.05,-0.02,-0.81,0
4978,3.4511e+07,0,1.93,-1.62,11.42,-0.0029551,0.0021864,-0.51876,-0.26245,0,0,0.18041,-0.05,-0.02,-0.81,0
5020,3.4521e+07,0,1.93,-1.62,11.43,-0.0027817,0.0021722,-0.51749,-0.2485,0,0,0.17889,-0.05,-0.02,-0.81,0
5063,3.4532e+07,0,1.93,-1.62,11.43,-0.0026494,0.0020892,-0.51605,-0.23128,0,0,0.17672,-0.05,-0.02,-0.81,0
5108,3.4542e+07,0,1.93,-1.62,11.43,-0.0027949,0.0021589,-0.51629,-0.21615,0,0,0.17157,-0.05,-0.02,-0.81,0
5148,3.4552e+07,0,1.93,-1.62,11.44,-0.0028918,0.0023578,-0.51481,-0.20489,0,0,0.16982,-0.05,-0.02,-0.81,0
5191,3.4562e+07,0,1.93,-1.62,11.44,-0.0029829,0.0025997,-0.5147,-0.20363,0,0,0.16468,-0.05,-0.02,-0.81,0
5233,3.4572e+07,0,1.93,-1.62,11.44,-0.0031151,0.0026111,-0.51346,-0.20334,0,0,0.16285,-0.05,-0.02,-0.8,0
5273,3.4582e+07,0,1.93,-1.62,11.44,-0.0031205,0.0026242,-0.51221,-0.20547,0,0,0.16092,-0.05,-0.02,-0.8,0
5310,3.4592e+07,0,1.93,-1.62,11.45,-0.003262,0.0025648,-0.51037,-0.20193,0,0,0.16071,-0.05,-0.02,-0.79,0
5351,3.4602e+07,0,1.93,-1.62,11.45,-0.003416,0.0025718,-0.5085,-0.1966,0,0,0.16032,-0.05,-0.02,-0.79,0
5391,3.4613e+07,0,1.93,-1.62,11.45,-0.0033675,0.0025756,-0.5087,-0.18374,0,0,0.15474,-0.05,-0.02,-0.79,0
5432,3.4623e+07,0,1.93,-1.62,11.46,-0.003347,0.0024929,-0.507,-0.17199,0,0,0.1542,-0.05,-0.02,-0.79,0
5473,3.4633e+07,0,1.93,-1.62,11.46,-0.0032625,0.0023601,-0.50524,-0.16218,0,0,0.15351,-0.05,-0.02,-0.79,0
5518,3.4643e+07,0,1.93,-1.62,11.46,-0.0031181,0.0023068,-0.50359,-0.15507,0,0,0.15267,-0.05,-0.02,-0.79,0
5559,3.4654e+07,0,1.93,-1.62,11.47,-0.0031742,0.0021435,-0.50173,-0.14863,0,0,0.15118,-0.05,-0.02,-0.79,0
5600,3.4665e+07,0,1.93,-1.62,11.47,-0.0030423,0.0020396,-0.50185,-0.14123,0,0,0.14617,-0.05,-0.02,-0.79,0
5641,3.4674e+07,0,1.93,-1.62,11.47,-0.0029851,0.0020377,-0.50052,-0.13699,0,0,0.14508,-0.05,-0.02,-0.79,0
5681,3.4687e+07,0,1.93,-1.62,11.48,-0.0027109,0.0021759,-0.49823,-0.12548,0,0,0.14468,-0.05,-0.02,-0.79,0
5722,3.4697e+07,0,1.93,-1.62,11.48,-0.0026105,0.0021003,-0.496,-0.1084,0,0,0.14554,-0.05,-0.02,-0.79,0
5763,3.4707e+07,0,1.93,-1.62,11.48,-0.0024772,0.001988,-0.49405,-0.091201,0,0,0.14619,-0.05,-0.02,-0.79,0
5804,3.4717e+07,0,1.93,-1.62,11.49,-0.0024261,0.0019526,-0.4918,-0.077421,0,0,0.14664,-0.05,-0.02,-0.79,0
5847,3.4727e+07,0,1.93,-1.62,11.49,-0.0025542,0.0020365,-0.48959,-0.065068,0,0,0.14689,-0.05,-0.02,-0.79,0
5888,3.4738e+07,0,1.93,-1.62,11.49,-0.0027143,0.002172,-0.48802,-0.049807,0,0,0.14647,-0.05,-0.02,-0.79,0
5933,3.4749e+07,0,1.93,-1.62,11.5,-0.0026616,0.0020894,-0.48618,-0.035788,0,0,0.14588,-0.05,-0.02,-0.8,0
5974,3.476e+07,0,1.93,-1.62,11.51,-0.0027502,0.0017478,-0.48446,-0.023956,0,0,0.14462,-0.05,-0.02,-0.8,0
6014,3.477e+07,0,1.93,-1.62,11.51,-0.0030708,0.0017799,-0.48469,-0.016997,0,0,0.13978,-0.05,-0.02,-0.8,0
6056,3.4781e+07,0,1.93,-1.62,11.52,-0.0031556,0.0016813,-0.48206,-0.0072156,0,0,0.14125,-0.05,-0.02,-0.8,0
6100,3.4793e+07,0,1.93,-1.62,11.52,-0.0033823,0.001657,-0.47951,0.0043147,0,0,0.14199,-0.05,-0.02,-0.79,0
6140,3.4804e+07,0,1.93,-1.62,11.53,-0.0035358,0.0018205,-0.47733,0.015887,0,0,0.14346,-0.05,-0.02,-0.79,0
6181,3.4814e+07,0,1.93,-1.62,11.53,-0.0035791,0.0017901,-0.47482,0.023581,0,0,0.14424,-0.05,-0.02,-0.79,0
6221,3.4825e+07,0,1.93,-1.62,11.54,-0.0035113,0.0016035,-0.47267,0.028265,0,0,0.14481,-0.05,-0.02,-0.79,0
6262,3.4835e+07,0,1.93,-1.62,11.54,-0.0035714,0.0017687,-0.47295,0.035782,0,0,0.14009,-0.05,-0.02,-0.79,0
6302,3.4845e+07,0,1.93,-1.62,11.54,-0.0036205,0.0018059,-0.47069,0.039798,0,0,0.14094,-0.05,-0.02,-0.79,0
6350,3.4855e+07,0,1.93,-1.62,11.55,-0.0036663,0.0017074,-0.46868,0.0421,0,0,0.14159,-0.05,-0.02,-0.79,0
6391,3.4866e+07,0,1.93,-1.62,11.55,-0.0037705,0.0015866,-0.46688,0.045032,0,0,0.14157,-0.05,-0.02,-0.79,0
6431,3.4876e+07,0,1.93,-1.62,11.56,-0.0038334,0.0015098,-0.46487,0.044778,0,0,0.14183,-0.05,-0.02,-0.79,0
6472,3.4889e+07,0,1.93,-1.62,11.56,-0.0037506,0.0014569,-0.46279,0.041136,0,0,0.14254,-0.05,-0.02,-0.78,0
6509,3.4898e+07,0,1.93,-1.62,11.57,-0.0035666,0.0016514,-0.4606,0.039768,0,0,0.14394,-0.05,-0.02,-0.78,0
6551,3.4909e+07,0,1.93,-1.62,11.57,-0.0035783,0.0016039,-0.45825,0.044784,0,0,0.14466,-0.05,-0.02,-0.79,0
6592,3.4919e+07,0,1.93,-1.62,11.58,-0.0035111,0.0015388,-0.45827,0.051864,0,0,0.14008,-0.05,-0.02,-0.79,0
6632,3.493e+07,0,1.93,-1.62,11.58,-0.0034523,0.0016466,-0.45634,0.054454,0,0,0.14063,-0.05,-0.02,-0.79,0
6675,3.494e+07,0,1.93,-1.62,11.59,-0.0031959,0.0017402,-0.45462,0.053142,0,0,0.14143,-0.05,-0.02,-0.78,0
6721,3.495e+07,0,1.93,-1.62,11.59,-0.0030976,0.0015921,-0.45259,0.050723,0,0,0.14203,-0.05,-0.02,-0.79,0
6762,3.4961e+07,0,1.93,-1.62,11.6,-0.0031557,0.00127,-0.45062,0.048646,0,0,0.14243,-0.05,-0.02,-0.79,0
6802,3.497e+07,0,1.93,-1.62,11.6,-0.0032904,0.0011643,-0.44863,0.043987,0,0,0.14265,-0.05,-0.02,-0.79,0
6846,3.4983e+07,0,1.93,-1.62,11.61,-0.0034639,0.0011447,-0.44587,0.042939,0,0,0.14319,-0.05,-0.02,-0.79,0
6887,3.4993e+07,0,1.93,-1.62,11.61,-0.0036077,0.0012406,-0.44321,0.042686,0,0,0.14483,-0.05,-0.02,-0.79,0
6925,3.5004e+07,0,1.93,-1.62,11.62,-0.0035216,0.0013117,-0.44053,0.048766,0,0,0.14581,-0.05,-0.02,-0.79,0
6965,3.5014e+07,0,1.93,-1.62,11.62,-0.0036134,0.0012858,-0.44043,0.056592,0,0,0.14141,-0.05,-0.02,-0.79,0
7005,3.5024e+07,0,1.93,-1.62,11.63,-0.0034946,0.0013789,-0.43824,0.059972,0,0,0.14264,-0.05,-0.02,-0.79,0
7047,3.5034e+07,0,1.93,-1.62,11.63,-0.0035591,0.0012242,-0.43614,0.061521,0,0,0.14367,-0.05,-0.02,-0.79,0
7088,3.5045e+07,0,1.93,-1.62,11.64,-0.003627,0.0010731,-0.43443,0.063333,0,0,0.14406,-0.05,-0.02,-0.8,0
7135,3.5055e+07,0,1.93,-1.62,11.65,-0.0035779,0.0011771,-0.43276,0.054637,0,0,0.14471,-0.05,-0.02,-0.79,0
7176,3.5066e+07,0,1.93,-1.62,11.66,-0.0033436,0.0012806,-0.43083,0.049062,0,0,0.14474,-0.05,-0.02,-0.79,0
7216,3.5076e+07,0,1.93,-1.62,11.66,-0.0035308,0.0013144,-0.43083,0.04534,0,0,0.14043,-0.05,-0.02,-0.79,0
7258,3.5087e+07,0,1.93,-1.62,11.67,-0.0035664,0.0011886,-0.4291,0.03697,0,0,0.14031,-0.05,-0.02,-0.79,0
7292,3.5097e+07,0,1.93,-1.62,11.68,-0.0034217,0.0011191,-0.42687,0.03027,0,0,0.14206,-0.05,-0.02,-0.78,0
7333,3.5107e+07,0,1.93,-1.62,11.69,-0.0033922,0.0009887,-0.42447,0.024413,0,0,0.14358,-0.05,-0.02,-0.78,0
7374,3.5118e+07,0,1.93,-1.62,11.69,-0.0033152,0.00073531,-0.42226,0.02079,0,0,0.1449,-0.05,-0.02,-0.78,0
7417,3.5128e+07,0,1.93,-1.62,11.7,-0.0030958,0.00059389,-0.42042,0.022705,0,0,0.14558,-0.05,-0.02,-0.79,0
7458,3.5139e+07,0,1.93,-1.62,11.71,-0.003118,0.00033261,-0.42025,0.026596,0,0,0.14096,-0.05,-0.02,-0.79,0
7500,3.5149e+07,0,1.93,-1.62,11.71,-0.002931,0.00039899,-0.41792,0.02795,0,0,0.14189,-0.05,-0.02,-0.78,0
7548,3.5159e+07,0,1.93,-1.62,11.72,-0.0027527,0.00042604,-0.41607,0.025387,0,0,0.14264,-0.05,-0.02,-0.78,0
7588,3.5169e+07,0,1.93,-1.62,11.72,-0.0028531,0.00031209,-0.41435,0.019454,0,0,0.14322,-0.05,-0.02,-0.78,0
7629,3.518e+07,0,1.93,-1.62,11.73,-0.0028824,0.00021365,-0.41427,0.012905,0,0,0.13908,-0.05,-0.02,-0.78,0
7671,3.519e+07,0,1.93,-1.62,11.73,-0.0028499,0.00042187,-0.4124,0.0039492,0,0,0.1391,-0.05,-0.02,-0.78,0
7705,3.52e+07,0,1.93,-1.62,11.74,-0.0028174,0.00042455,-0.4102,-0.0035027,0,0,0.14008,-0.05,-0.02,-0.78,0
7746,3.521e+07,0,1.93,-1.62,11.74,-0.0027557,0.00044222,-0.40798,-0.011136,0,0,0.14087,-0.05,-0.02,-0.77,0
7786,3.522e+07,0,1.93,-1.62,11.75,-0.0027604,0.0003093,-0.40627,-0.017632,0,0,0.14148,-0.05,-0.02,-0.78,0
7827,3.5231e+07,0,1.93,-1.62,11.75,-0.0027208,0.00041829,-0.40429,-0.019616,0,0,0.14149,-0.05,-0.02,-0.78,0
7867,3.5241e+07,0,1.93,-1.62,11.76,-0.0026653,0.00049883,-0.40405,-0.019279,0,0,0.13745,-0.05,-0.02,-0.78,0
7909,3.5252e+07,0,1.93,-1.62,11.77,-0.0025417,0.00046181,-0.4026,-0.022321,0,0,0.13773,-0.05,-0.02,-0.78,0
7954,3.5262e+07,0,1.93,-1.62,11.77,-0.0026807,0.00027547,-0.40103,-0.02614,0,0,0.13784,-0.05,-0.02,-0.78,0
7995,3.5272e+07,0,1.93,-1.62,11.78,-0.0025011,-5.8386e-05,-0.39997,-0.029914,0,0,0.13739,-0.05,-0.02,-0.78,0
8036,3.5282e+07,0,1.93,-1.62,11.78,-0.0026039,-0.00017899,-0.39852,-0.034852,0,0,0.13719,-0.05,-0.02,-0.78,0
8080,3.5295e+07,0,1.93,-1.62,11.79,-0.0026965,-0.00039901,-0.39651,-0.041897,0,0,0.13757,-0.05,-0.02,-0.78,0
8121,3.5304e+07,0,1.93,-1.62,11.8,-0.0026425,-0.00034319,-0.39454,-0.044907,0,0,0.13854,-0.05,-0.02,-0.78,0
8164,3.5315e+07,0,1.93,-1.62,11.8,-0.0025376,-0.00029976,-0.39243,-0.041445,0,0,0.13893,-0.05,-0.02,-0.78,0
8201,3.5326e+07,0,1.93,-1.62,11.81,-0.0024928,-0.00056806,-0.39251,-0.036176,0,0,0.13462,-0.05,-0.02,-0.78,0
8244,3.5336e+07,0,1.93,-1.62,11.82,-0.0024362,-0.00044118,-0.39064,-0.034653,0,0,0.13526,-0.05,-0.02,-0.78,0
8286,3.5346e+07,0,1.93,-1.62,11.82,-0.0024547,-0.00040808,-0.38903,-0.033795,0,0,0.13572,-0.05,-0.02,-0.78,0
8326,3.5356e+07,0,1.93,-1.62,11.83,-0.0024961,-0.00034377,-0.3874,-0.035875,0,0,0.13602,-0.05,-0.02,-0.78,0
8373,3.5367e+07,0,1.93,-1.62,11.84,-0.002515,-0.00030949,-0.38578,-0.03964,0,0,0.13578,-0.05,-0.02,-0.78,0
8413,3.5378e+07,0,1.93,-1.62,11.85,-0.0024078,-0.00024936,-0.3857,-0.040831,0,0,0.13193,-0.05,-0.02,-0.78,0
8455,3.5387e+07,0,1.93,-1.62,11.85,-0.0022088,-0.00030072,-0.38426,-0.044502,0,0,0.13194,-0.05,-0.02,-0.78,0
8495,3.5397e+07,0,1.93,-1.62,11.86,-0.0020098,-0.00032003,-0.38263,-0.053519,0,0,0.13182,-0.05,-0.02,-0.78,0
8539,3.5414e+07,0,1.93,-1.62,11.87,-0.0020405,-0.00023085,-0.38023,-0.061529,0,0,0.13046,-0.05,-0.02,-0.76,0
8581,3.5424e+07,0,1.93,-1.61,11.87,-0.0020612,-0.0001471,-0.37828,-0.059315,0,0,0.13119,-0.05,-0.02,-0.76,0
8621,3.5434e+07,0,1.93,-1.62,11.87,-0.0019908,2.1388e-05,-0.37676,-0.05904,0,0,0.13176,-0.05,-0.02,-0.76,0
8662,3.5444e+07,0,1.93,-1.62,11.88,-0.0017525,-6.2837e-05,-0.37528,-0.059141,0,0,0.13178,-0.05,-0.02,-0.76,0
8702,3.5454e+07,0,1.93,-1.62,11.88,-0.0017576,-0.00020118,-0.37378,-0.05613,0,0,0.13201,-0.05,-0.02,-0.76,0
8748,3.5465e+07,0,1.93,-1.62,11.88,-0.0019408,-0.00033356,-0.37245,-0.051393,0,0,0.1317,-0.05,-0.02,-0.76,0
8788,3.5476e+07,0,1.93,-1.62,11.88,-0.0018929,-0.00051499,-0.37107,-0.047252,0,0,0.13125,-0.05,-0.02,-0.76,0
8829,3.5486e+07,0,1.93,-1.62,11.89,-0.0018884,-0.0005011,-0.3706,-0.043615,0,0,0.12754,-0.05,-0.02,-0.76,0
8871,3.5497e+07,0,1.93,-1.62,11.89,-0.0018444,-0.00055721,-0.36885,-0.043995,0,0,0.12735,-0.05,-0.02,-0.76,0
8911,3.5506e+07,0,1.93,-1.62,11.89,-0.0019518,-0.00055437,-0.3668,-0.042311,0,0,0.12829,-0.05,-0.02,-0.76,0
8955,3.5519e+07,0,1.93,-1.62,11.89,-0.0019457,-0.00067733,-0.36475,-0.038888,0,0,0.12868,-0.05,-0.02,-0.76,0
8995,3.5529e+07,0,1.93,-1.62,11.89,-0.0021078,-0.00079664,-0.36291,-0.036827,0,0,0.12962,-0.05,-0.02,-0.75,0
9039,3.554e+07,0,1.92,-1.62,11.89,-0.00244,-0.00072855,-0.36125,-0.030618,0,0,0.13002,-0.05,-0.02,-0.76,0
9081,3.555e+07,0,1.93,-1.62,11.89,-0.0023133,-0.00063482,-0.35984,-0.027,0,0,0.13061,-0.05,-0.02,-0.76,0
9122,3.556e+07,0,1.92,-1.62,11.89,-0.0025974,-0.00079904,-0.35952,-0.020407,0,0,0.12702,-0.05,-0.02,-0.76,0
9167,3.557e+07,0,1.93,-1.62,11.89,-0.0027094,-0.00089208,-0.35771,-0.017243,0,0,0.12711,-0.05,-0.02,-0.76,0
9207,3.558e+07,0,1.92,-1.62,11.9,-0.0026442,-0.0010834,-0.35636,-0.015731,0,0,0.1274,-0.05,-0.02,-0.76,0
9249,3.559e+07,0,1.92,-1.62,11.9,-0.0026464,-0.0011087,-0.35503,-0.019715,0,0,0.12755,-0.05,-0.02,-0.75,0
9289,3.56e+07,0,1.92,-1.62,11.9,-0.0026713,-0.0012331,-0.35354,-0.024219,0,0,0.12756,-0.05,-0.02,-0.76,0
9333,3.5616e+07,0,1.92,-1.62,11.9,-0.0025293,-0.00099332,-0.35156,-0.026932,0,0,0.12694,-0.05,-0.02,-0.74,0
9374,3.5626e+07,0,1.92,-1.62,11.9,-0.0022598,-0.0010805,-0.35124,-0.028793,0,0,0.12343,-0.05,-0.02,-0.74,0
9414,3.5636e+07,0,1.92,-1.62,11.9,-0.0020811,-0.0010877,-0.34932,-0.026856,0,0,0.12477,-0.05,-0.02,-0.74,0
9455,3.5646e+07,0,1.92,-1.62,11.9,-0.0019083,-0.00095442,-0.34761,-0.025009,0,0,0.12593,-0.05,-0.02,-0.74,0
9496,3.5656e+07,0,1.92,-1.62,11.9,-0.0018838,-0.00094314,-0.34584,-0.021807,0,0,0.12691,-0.05,-0.02,-0.74,0
9537,3.5666e+07,0,1.92,-1.62,11.9,-0.0018269,-0.00093632,-0.34392,-0.016478,0,0,0.12771,-0.05,-0.02,-0.74,0
9582,3.5676e+07,0,1.92,-1.62,11.9,-0.0019502,-0.00088948,-0.34241,-0.012821,0,0,0.12833,-0.05,-0.02,-0.74,0
9622,3.5687e+07,0,1.92,-1.62,11.9,-0.0020526,-0.00097882,-0.34113,-0.0072744,0,0,0.12845,-0.05,-0.02,-0.74,0
9663,3.5697e+07,0,1.92,-1.62,11.9,-0.0020976,-0.0011293,-0.34102,-0.001932,0,0,0.12505,-0.05,-0.02,-0.74,0
9704,3.5707e+07,0,1.92,-1.62,11.9,-0.0019252,-0.0012576,-0.33944,-0.00047916,0,0,0.12538,-0.05,-0.02,-0.74,0
9745,3.5718e+07,0,1.92,-1.62,11.91,-0.0018848,-0.0013175,-0.33721,0.0016951,0,0,0.12703,-0.05,-0.02,-0.73,0
9789,3.5729e+07,0,1.92,-1.62,11.91,-0.0020053,-0.0013601,-0.33526,0.0044307,0,0,0.12882,-0.05,-0.02,-0.73,0
9826,3.5739e+07,0,1.92,-1.62,11.91,-0.0020173,-0.0014137,-0.33304,0.013917,0,0,0.13007,-0.05,-0.02,-0.73,0
9867,3.5749e+07,0,1.92,-1.62,11.9,-0.0021117,-0.0015722,-0.33113,0.021175,0,0,0.13147,-0.05,-0.02,-0.73,0
9907,3.576e+07,0,1.92,-1.62,11.91,-0.002081,-0.0016755,-0.32932,0.031901,0,0,0.13234,-0.05,-0.02,-0.73,0
9948,3.577e+07,0,1.92,-1.62,11.91,-0.0022067,-0.0015679,-0.329,0.042261,0,0,0.12905,-0.05,-0.02,-0.73,0
9992,3.578e+07,0,1.92,-1.62,11.91,-0.0020579,-0.0016721,-0.32712,0.04807,0,0,0.1301,-0.05,-0.02,-0.73,0
10033,3.5791e+07,0,1.92,-1.62,11.91,-0.0020373,-0.0018818,-0.32544,0.05141,0,0,0.13098,-0.05,-0.02,-0.73,0
10074,3.5801e+07,0,1.92,-1.62,11.91,-0.0019788,-0.002119,-0.3236,0.054774,0,0,0.13137,-0.05,-0.02,-0.73,0
10115,3.5811e+07,0,1.92,-1.62,11.91,-0.0020236,-0.0022287,-0.32173,0.055608,0,0,0.13264,-0.05,-0.02,-0.73,0
10155,3.5821e+07,0,1.92,-1.63,11.91,-0.0018493,-0.0022284,-0.3201,0.053411,0,0,0.13374,-0.05,-0.02,-0.73,0
10195,3.5832e+07,0,1.92,-1.63,11.91,-0.0017036,-0.0022718,-0.31834,0.054489,0,0,0.13435,-0.05,-0.02,-0.73,0
10235,3.5842e+07,0,1.92,-1.63,11.92,-0.0016897,-0.0022035,-0.31803,0.0567,0,0,0.13117,-0.05,-0.02,-0.73,0
10276,3.5852e+07,0,1.92,-1.63,11.92,-0.0016566,-0.0022093,-0.31657,0.055175,0,0,0.13196,-0.05,-0.02,-0.73,0
10317,3.5862e+07,0,1.93,-1.62,11.92,-0.0015904,-0.0021438,-0.31476,0.052608,0,0,0.13259,-0.05,-0.02,-0.73,0
10358,3.5873e+07,0,1.93,-1.62,11.92,-0.0012712,-0.0021486,-0.31314,0.049888,0,0,0.13275,-0.05,-0.02,-0.73,0
10402,3.5884e+07,0,1.93,-1.62,11.92,-0.0011396,-0.0021144,-0.31133,0.043871,0,0,0.13309,-0.05,-0.02,-0.73,0
10443,3.5893e+07,0,1.93,-1.62,11.93,-0.0012348,-0.00211,-0.31001,0.036086,0,0,0.1333,-0.05,-0.02,-0.73,0
10483,3.5904e+07,0,1.92,-1.62,11.93,-0.0011994,-0.0021602,-0.30864,0.029148,0,0,0.13306,-0.05,-0.02,-0.73,0
10524,3.5915e+07,0,1.92,-1.62,11.93,-0.0012062,-0.0021466,-0.30818,0.023561,0,0,0.12998,-0.05,-0.02,-0.73,0
10563,3.5925e+07,0,1.92,-1.62,11.94,-0.0012477,-0.0021782,-0.30592,0.022001,0,0,0.1319,-0.05,-0.02,-0.72,0
10605,3.5935e+07,0,1.92,-1.62,11.94,-0.0012501,-0.0023094,-0.3036,0.027699,0,0,0.13391,-0.05,-0.02,-0.72,0
10645,3.5945e+07,0,1.92,-1.62,11.94,-0.0012935,-0.0022834,-0.3017,0.034449,0,0,0.13573,-0.05,-0.02,-0.72,0
10672,3.5975e+07,0,1.92,-1.62,11.95,-0.0015146,-0.0022554,-0.29755,0.051346,0,0,0.13584,-0.05,-0.02,-0.72,0
10716,3.5985e+07,0,1.92,-1.62,11.95,-0.0015172,-0.0023897,-0.29583,0.055642,0,0,0.13715,-0.05,-0.02,-0.72,0
10757,3.5995e+07,0,1.92,-1.62,11.95,-0.0015773,-0.0023945,-0.29388,0.058782,0,0,0.13829,-0.05,-0.02,-0.72,0
10797,3.6005e+07,0,1.92,-1.62,11.95,-0.0015755,-0.0023165,-0.29178,0.058506,0,0,0.13928,-0.05,-0.02,-0.72,0
10841,3.6021e+07,0,1.92,-1.62,11.96,-0.0019249,-0.0023087,-0.28929,0.062466,0,0,0.13966,-0.05,-0.02,-0.72,0
10882,3.6031e+07,0,1.92,-1.63,11.96,-0.0020533,-0.0024005,-0.28728,0.06863,0,0,0.14158,-0.05,-0.02,-0.73,0
10925,3.6041e+07,0,1.92,-1.63,11.97,-0.0020065,-0.0023807,-0.28547,0.067614,0,0,0.14335,-0.05,-0.02,-0.72,0
10966,3.6051e+07,0,1.92,-1.63,11.97,-0.0020431,-0.0023929,-0.28519,0.072046,0,0,0.1405,-0.05,-0.02,-0.72,0
11006,3.6061e+07,0,1.92,-1.63,11.98,-0.0019759,-0.0026588,-0.28348,0.074239,0,0,0.1421,-0.05,-0.02,-0.72,0
11049,3.6071e+07,0,1.92,-1.63,11.98,-0.001822,-0.0026752,-0.2817,0.076113,0,0,0.14353,-0.05,-0.02,-0.72,0
11093,3.6082e+07,0,1.92,-1.63,11.99,-0.0018449,-0.0027515,-0.27976,0.075204,0,0,0.1448,-0.05,-0.02,-0.72,0
11134,3.6091e+07,0,1.92,-1.63,12,-0.0020294,-0.0028275,-0.27796,0.073392,0,0,0.14591,-0.05,-0.02,-0.72,0
11174,3.6102e+07,0,1.92,-1.63,12,-0.0019759,-0.0028931,-0.2762,0.073533,0,0,0.14659,-0.05,-0.02,-0.72,0
11215,3.6112e+07,0,1.92,-1.62,12.01,-0.00203,-0.0028316,-0.27598,0.074029,0,0,0.14383,-0.05,-0.02,-0.72,0
11260,3.6125e+07,0,1.92,-1.62,12.02,-0.0019269,-0.0027484,-0.27148,0.079494,0,0,0.15116,-0.05,-0.02,-0.73,0
11302,3.6136e+07,0,1.92,-1.62,12.03,-0.0018365,-0.0027743,-0.26922,0.091529,0,0,0.15327,-0.05,-0.02,-0.73,0
11343,3.6147e+07,0,1.92,-1.62,12.03,-0.001828,-0.0026973,-0.26882,0.105,0,0,0.15058,-0.05,-0.02,-0.73,0
11384,3.6156e+07,0,1.92,-1.62,12.04,-0.0018663,-0.0027995,-0.26679,0.11446,0,0,0.15279,-0.05,-0.02,-0.73,0
11425,3.6166e+07,0,1.92,-1.62,12.05,-0.0017678,-0.0027796,-0.265,0.12194,0,0,0.15481,-0.05,-0.02,-0.73,0
11469,3.6176e+07,0,1.92,-1.62,12.06,-0.001692,-0.002959,-0.26307,0.12521,0,0,0.15666,-0.05,-0.02,-0.73,0
11513,3.6186e+07,0,1.92,-1.62,12.06,-0.0016357,-0.0030609,-0.26122,0.12667,0,0,0.15833,-0.05,-0.02,-0.73,0
11554,3.6197e+07,0,1.92,-1.62,12.07,-0.0016159,-0.0031515,-0.26109,0.12954,0,0,0.15546,-0.05,-0.02,-0.73,0
11594,3.6207e+07,0,1.92,-1.62,12.08,-0.0018165,-0.0030408,-0.25909,0.12967,0,0,0.15699,-0.05,-0.02,-0.73,0
11635,3.6217e+07,0,1.92,-1.62,12.09,-0.0017835,-0.0030311,-0.257,0.1265,0,0,0.15836,-0.05,-0.02,-0.72,0
11672,3.6227e+07,0,1.92,-1.62,12.09,-0.0018438,-0.0032112,-0.25454,0.12419,0,0,0.1612,-0.05,-0.02,-0.71,0
11713,3.6237e+07,0,1.92,-1.62,12.1,-0.0017009,-0.003178,-0.25202,0.12251,0,0,0.16384,-0.05,-0.02,-0.71,0
11754,3.6248e+07,0,1.92,-1.62,12.1,-0.0016284,-0.0032319,-0.24986,0.12738,0,0,0.16602,-0.05,-0.02,-0.71,0
11795,3.6259e+07,0,1.92,-1.62,12.11,-0.0015963,-0.003259,-0.24958,0.13504,0,0,0.16353,-0.05,-0.02,-0.71,0
11836,3.6269e+07,0,1.92,-1.62,12.11,-0.0016249,-0.0034122,-0.24747,0.13977,0,0,0.16579,-0.05,-0.02,-0.71,0
11877,3.6279e+07,0,1.92,-1.62,12.11,-0.0015762,-0.0033691,-0.24553,0.14325,0,0,0.16787,-0.05,-0.02,-0.71,0
11923,3.6289e+07,0,1.92,-1.62,12.12,-0.0015793,-0.0033599,-0.2439,0.1386,0,0,0.1698,-0.05,-0.02,-0.71,0
11963,3.6299e+07,0,1.92,-1.62,12.12,-0.0017242,-0.0033823,-0.24217,0.13777,0,0,0.17131,-0.05,-0.02,-0.71,0
12004,3.631e+07,0,1.92,-1.62,12.12,-0.0018087,-0.0032851,-0.24182,0.13851,0,0,0.16889,-0.05,-0.02,-0.71,0
12045,3.632e+07,0,1.92,-1.62,12.13,-0.0018353,-0.0034391,-0.24017,0.13597,0,0,0.1705,-0.05,-0.02,-0.71,0
12085,3.6333e+07,0,1.92,-1.62,12.13,-0.001844,-0.0034635,-0.23798,0.12463,0,0,0.17239,-0.05,-0.02,-0.7,0
12125,3.6343e+07,0,1.92,-1.62,12.13,-0.0018777,-0.0034436,-0.23569,0.12297,0,0,0.17455,-0.05,-0.02,-0.7,0
12166,3.6353e+07,0,1.92,-1.62,12.13,-0.0018345,-0.0035664,-0.23369,0.12008,0,0,0.17677,-0.05,-0.02,-0.7,0
12207,3.6364e+07,0,1.92,-1.62,12.13,-0.001843,-0.0034641,-0.23324,0.12217,0,0,0.1742,-0.05,-0.02,-0.7,0
12248,3.6373e+07,0,1.92,-1.62,12.13,-0.0019113,-0.0033538,-0.23124,0.12352,0,0,0.1765,-0.05,-0.02,-0.7,0
12289,3.6384e+07,0,1.92,-1.62,12.14,-0.0018005,-0.0034197,-0.22905,0.12431,0,0,0.17838,-0.05,-0.02,-0.7,0
12336,3.6394e+07,0,1.92,-1.62,12.14,-0.0018221,-0.0035572,-0.22745,0.1168,0,0,0.1799,-0.05,-0.02,-0.69,0
12376,3.6404e+07,0,1.92,-1.62,12.14,-0.0019958,-0.003676,-0.226,0.1129,0,0,0.18124,-0.05,-0.02,-0.69,0
12417,3.6414e+07,0,1.92,-1.62,12.14,-0.0020574,-0.0037869,-0.22585,0.11155,0,0,0.17899,-0.05,-0.02,-0.69,0
12458,3.6424e+07,0,1.92,-1.62,12.15,-0.0020553,-0.0038206,-0.2243,0.10801,0,0,0.18042,-0.05,-0.02,-0.69,0
12499,3.6438e+07,0,1.92,-1.62,12.15,-0.0019952,-0.0040835,-0.22188,0.10919,0,0,0.18274,-0.05,-0.02,-0.68,0
12539,3.6447e+07,0,1.92,-1.62,12.15,-0.0017931,-0.0041272,-0.21991,0.11741,0,0,0.18595,-0.05,-0.02,-0.69,0
12579,3.6458e+07,0,1.92,-1.62,12.15,-0.0017366,-0.0043295,-0.21749,0.13006,0,0,0.18849,-0.05,-0.02,-0.69,0
12619,3.6469e+07,0,1.92,-1.62,12.15,-0.0018891,-0.0044292,-0.2153,0.13958,0,0,0.19085,-0.05,-0.02,-0.69,0
12660,3.6479e+07,0,1.92,-1.62,12.15,-0.0020653,-0.0043121,-0.2132,0.14679,0,0,0.19324,-0.05,-0.02,-0.69,0
12706,3.6489e+07,0,1.92,-1.62,12.15,-0.002048,-0.0044961,-0.21124,0.15598,0,0,0.19544,-0.05,-0.02,-0.69,0
12747,3.65e+07,0,1.92,-1.62,12.15,-0.0020467,-0.0045038,-0.20935,0.1591,0,0,0.19726,-0.05,-0.02,-0.69,0
12787,3.651e+07,0,1.92,-1.62,12.16,-0.0021782,-0.0043814,-0.20892,0.16275,0,0,0.19517,-0.05,-0.02,-0.69,0
12830,3.6521e+07,0,1.92,-1.62,12.16,-0.0021172,-0.0044004,-0.20702,0.16269,0,0,0.19706,-0.05,-0.02,-0.69,0
12871,3.6531e+07,0,1.92,-1.62,12.16,-0.002077,-0.0044419,-0.20455,0.16291,0,0,0.20017,-0.05,-0.02,-0.69,0
12913,3.6542e+07,0,1.92,-1.62,12.16,-0.0021643,-0.0044918,-0.20239,0.16346,0,0,0.20328,-0.04,-0.02,-0.68,0
12954,3.6552e+07,0,1.92,-1.62,12.16,-0.0021805,-0.0045329,-0.20013,0.16533,0,0,0.20599,-0.04,-0.02,-0.68,0
12994,3.6562e+07,0,1.92,-1.62,12.16,-0.0021661,-0.0044111,-0.19939,0.17181,0,0,0.20399,-0.04,-0.02,-0.68,0
13035,3.6572e+07,0,1.92,-1.62,12.16,-0.0023423,-0.0045032,-0.19738,0.17754,0,0,0.20673,-0.04,-0.02,-0.68,0
13076,3.6582e+07,0,1.92,-1.62,12.16,-0.0023687,-0.0045379,-0.19532,0.18032,0,0,0.20928,-0.04,-0.02,-0.68,0
13121,3.6592e+07,0,1.92,-1.62,12.16,-0.0022524,-0.0045669,-0.1936,0.17969,0,0,0.21165,-0.04,-0.02,-0.68,0
13162,3.6603e+07,0,1.92,-1.62,12.17,-0.002225,-0.0045352,-0.19161,0.1776,0,0,0.21366,-0.04,-0.02,-0.68,0
13203,3.6613e+07,0,1.92,-1.62,12.17,-0.0021754,-0.0044569,-0.19098,0.17801,0,0,0.21175,-0.04,-0.02,-0.68,0
13243,3.6623e+07,0,1.92,-1.62,12.17,-0.0020523,-0.0044839,-0.18924,0.1754,0,0,0.21381,-0.04,-0.02,-0.68,0
13284,3.6636e+07,0,1.92,-1.62,12.17,-0.0021237,-0.0044996,-0.18779,0.17012,0,0,0.21514,-0.04,-0.02,-0.68,0
13322,3.6646e+07,0,1.92,-1.62,12.17,-0.0022124,-0.0046559,-0.18526,0.16889,0,0,0.21868,-0.04,-0.02,-0.67,0
13363,3.6656e+07,0,1.92,-1.62,12.17,-0.002314,-0.0047104,-0.18303,0.16869,0,0,0.222,-0.04,-0.02,-0.66,0
13404,3.6666e+07,0,1.92,-1.62,12.17,-0.0022741,-0.0046723,-0.18062,0.1712,0,0,0.22512,-0.04,-0.02,-0.67,0
13444,3.6677e+07,0,1.92,-1.62,12.17,-0.0023553,-0.0045859,-0.17844,0.17907,0,0,0.22784,-0.04,-0.02,-0.67,0
13485,3.6688e+07,0,1.92,-1.62,12.18,-0.0025908,-0.0046058,-0.17813,0.18814,0,0,0.22606,-0.04,-0.02,-0.67,0
13531,3.6697e+07,0,1.92,-1.62,12.18,-0.0027239,-0.0046559,-0.17626,0.19356,0,0,0.2288,-0.04,-0.02,-0.67,0
13572,3.6707e+07,0,1.92,-1.62,12.18,-0.0027835,-0.0046673,-0.17424,0.19753,0,0,0.23135,-0.04,-0.02,-0.67,0
13613,3.6718e+07,0,1.92,-1.62,12.18,-0.0027419,-0.0048199,-0.17226,0.19756,0,0,0.23373,-0.04,-0.02,-0.67,0
13655,3.6727e+07,0,1.92,-1.62,12.18,-0.0027005,-0.0047299,-0.17062,0.19579,0,0,0.23595,-0.04,-0.02,-0.67,0
13696,3.6741e+07,0,1.92,-1.62,12.18,-0.0026715,-0.0045977,-0.1681,0.19982,0,0,0.23884,-0.04,-0.02,-0.66,0
13737,3.6752e+07,0,1.92,-1.62,12.18,-0.0025569,-0.0046054,-0.1659,0.20691,0,0,0.24203,-0.04,-0.02,-0.66,0
13777,3.6762e+07,0,1.93,-1.62,12.18,-0.0025601,-0.0047614,-0.16374,0.21003,0,0,0.24519,-0.04,-0.02,-0.66,0
13819,3.6773e+07,0,1.93,-1.62,12.18,-0.0024725,-0.005001,-0.16154,0.21726,0,0,0.24797,-0.04,-0.02,-0.66,0
13859,3.6783e+07,0,1.93,-1.62,12.17,-0.0024151,-0.0051259,-0.16111,0.22481,0,0,0.24636,-0.04,-0.02,-0.66,0
13900,3.6794e+07,0,1.93,-1.62,12.17,-0.0024084,-0.0052925,-0.15957,0.22781,0,0,0.24915,-0.04,-0.02,-0.66,0
13944,3.6804e+07,0,1.93,-1.62,12.17,-0.0024476,-0.0053303,-0.15753,0.22941,0,0,0.25176,-0.04,-0.02,-0.66,0
13986,3.6814e+07,0,1.93,-1.62,12.17,-0.0025276,-0.0054022,-0.15578,0.22289,0,0,0.25423,-0.04,-0.02,-0.65,0
14027,3.6824e+07,0,1.93,-1.62,12.17,-0.0024359,-0.0054542,-0.15387,0.21911,0,0,0.25636,-0.04,-0.02,-0.66,0
14068,3.6835e+07,0,1.93,-1.62,12.17,-0.0024085,-0.005488,-0.15345,0.21681,0,0,0.25482,-0.04,-0.02,-0.66,0
14113,3.685e+07,0,1.92,-1.62,12.18,-0.0024597,-0.0054371,-0.14923,0.21619,0,0,0.26223,-0.04,-0.02,-0.65,0
14154,3.6861e+07,0,1.92,-1.62,12.18,-0.0025482,-0.0054162,-0.14718,0.21657,0,0,0.26518,-0.04,-0.02,-0.65,0
14195,3.6871e+07,0,1.92,-1.62,12.17,-0.0026254,-0.0053902,-0.14689,0.22053,0,0,0.26386,-0.04,-0.02,-0.65,0
14236,3.6881e+07,0,1.92,-1.62,12.17,-0.0029064,-0.0052943,-0.14468,0.22349,0,0,0.26678,-0.04,-0.02,-0.65,0
14278,3.6891e+07,0,1.92,-1.62,12.17,-0.0032355,-0.0052569,-0.14252,0.22019,0,0,0.26942,-0.04,-0.02,-0.65,0
14322,3.6901e+07,0,1.92,-1.62,12.17,-0.0032231,-0.005182,-0.1404,0.21482,0,0,0.27203,-0.04,-0.02,-0.65,0
14363,3.6912e+07,0,1.92,-1.62,12.17,-0.0033438,-0.0051864,-0.13868,0.21222,0,0,0.27433,-0.04,-0.02,-0.65,0
14404,3.6922e+07,0,1.92,-1.62,12.17,-0.0034274,-0.0051882,-0.13827,0.21144,0,0,0.27294,-0.04,-0.02,-0.65,0
14447,3.6932e+07,0,1.93,-1.62,12.17,-0.0035642,-0.0051088,-0.13652,0.20792,0,0,0.27524,-0.04,-0.02,-0.65,0
14485,3.6943e+07,0,1.93,-1.62,12.17,-0.0035836,-0.005091,-0.13459,0.20517,0,0,0.2782,-0.04,-0.02,-0.65,0
14523,3.6953e+07,0,1.93,-1.62,12.18,-0.0034385,-0.0052519,-0.13292,0.20174,0,0,0.28084,-0.04,-0.02,-0.64,0
14564,3.6963e+07,0,1.93,-1.62,12.17,-0.0033068,-0.0054154,-0.13118,0.19689,0,0,0.28346,-0.04,-0.02,-0.64,0
14604,3.6973e+07,0,1.93,-1.62,12.17,-0.0032972,-0.0054522,-0.13069,0.19636,0,0,0.28215,-0.04,-0.02,-0.64,0
14645,3.6984e+07,0,1.93,-1.62,12.18,-0.0033381,-0.0055436,-0.12924,0.19324,0,0,0.28449,-0.04,-0.02,-0.64,0
14685,3.6994e+07,0,1.93,-1.62,12.18,-0.0035048,-0.0056286,-0.12767,0.18915,0,0,0.28681,-0.04,-0.02,-0.64,0
14730,3.7004e+07,0,1.92,-1.62,12.18,-0.0034529,-0.0057991,-0.12628,0.18465,0,0,0.28897,-0.04,-0.02,-0.64,0
14773,3.7014e+07,0,1.92,-1.62,12.18,-0.0033571,-0.0058247,-0.12471,0.18116,0,0,0.29097,-0.04,-0.02,-0.64,0
14813,3.7024e+07,0,1.92,-1.62,12.18,-0.0034022,-0.0058822,-0.12321,0.17632,0,0,0.29283,-0.04,-0.02,-0.64,0
14856,3.7034e+07,0,1.92,-1.62,12.18,-0.0034296,-0.0058842,-0.12271,0.17323,0,0,0.29161,-0.04,-0.02,-0.64,0
14896,3.7044e+07,0,1.92,-1.62,12.18,-0.0033485,-0.0058234,-0.12119,0.16762,0,0,0.29335,-0.04,-0.02,-0.64,0
14934,3.7055e+07,0,1.92,-1.62,12.18,-0.0034227,-0.0059327,-0.11975,0.16276,0,0,0.29584,-0.04,-0.02,-0.63,0
14972,3.7065e+07,0,1.92,-1.62,12.18,-0.0034859,-0.0058521,-0.11824,0.16099,0,0,0.29803,-0.04,-0.02,-0.63,0
15013,3.7075e+07,0,1.93,-1.62,12.17,-0.0035457,-0.0056599,-0.11669,0.15943,0,0,0.3002,-0.04,-0.02,-0.63,0
15054,3.7085e+07,0,1.93,-1.62,12.17,-0.0035498,-0.0058045,-0.11526,0.1556,0,0,0.30223,-0.04,-0.02,-0.63,0
15094,3.7095e+07,0,1.93,-1.62,12.17,-0.0036057,-0.0057159,-0.11448,0.15496,0,0,0.30108,-0.04,-0.02,-0.63,0
15139,3.7106e+07,0,1.93,-1.62,12.17,-0.0034666,-0.005599,-0.11325,0.15135,0,0,0.30288,-0.04,-0.02,-0.63,0
15185,3.7119e+07,0,1.93,-1.62,12.17,-0.0035062,-0.0058287,-0.11191,0.14297,0,0,0.30435,-0.04,-0.02,-0.62,0
15227,3.7129e+07,0,1.93,-1.62,12.17,-0.0033661,-0.0057651,-0.11054,0.13606,0,0,0.30603,-0.04,-0.02,-0.62,0
15267,3.7139e+07,0,1.92,-1.62,12.17,-0.0034337,-0.0058513,-0.10925,0.12803,0,0,0.30759,-0.04,-0.02,-0.62,0
15308,3.715e+07,0,1.92,-1.62,12.18,-0.0035709,-0.0059744,-0.10894,0.12291,0,0,0.30651,-0.04,-0.02,-0.62,0
15344,3.7161e+07,0,1.92,-1.62,12.18,-0.003602,-0.0059939,-0.10726,0.11988,0,0,0.30892,-0.04,-0.02,-0.62,0
15384,3.717e+07,0,1.92,-1.62,12.18,-0.0037245,-0.005918,-0.10562,0.12151,0,0,0.31117,-0.04,-0.02,-0.62,0
15426,3.7181e+07,0,1.92,-1.62,12.18,-0.0037157,-0.0059028,-0.10405,0.12274,0,0,0.31338,-0.04,-0.02,-0.62,0
15466,3.7191e+07,0,1.92,-1.62,12.17,-0.003828,-0.0058826,-0.10254,0.12425,0,0,0.31545,-0.04,-0.02,-0.62,0
15507,3.7201e+07,0,1.92,-1.62,12.17,-0.0038354,-0.0057716,-0.10112,0.12382,0,0,0.31739,-0.04,-0.02,-0.62,0
15552,3.7211e+07,0,1.92,-1.62,12.18,-0.0038734,-0.0057255,-0.10078,0.12567,0,0,0.31628,-0.04,-0.02,-0.62,0
15593,3.7221e+07,0,1.92,-1.62,12.18,-0.0040479,-0.0057607,-0.099245,0.12741,0,0,0.3181,-0.04,-0.02,-0.62,0
15636,3.7231e+07,0,1.92,-1.62,12.18,-0.0039944,-0.0058193,-0.097861,0.12339,0,0,0.31982,-0.04,-0.02,-0.62,0
15676,3.7241e+07,0,1.92,-1.62,12.18,-0.0040176,-0.0058016,-0.096455,0.11841,0,0,0.32143,-0.04,-0.02,-0.62,0
15717,3.7251e+07,0,1.92,-1.62,12.18,-0.0040608,-0.0057987,-0.095912,0.11624,0,0,0.32047,-0.04,-0.02,-0.62,0
15751,3.7261e+07,0,1.92,-1.63,12.18,-0.0039726,-0.0057838,-0.09422,0.11698,0,0,0.32285,-0.04,-0.02,-0.6,0
15792,3.7271e+07,0,1.92,-1.63,12.18,-0.0039973,-0.0058477,-0.092808,0.12014,0,0,0.32508,-0.04,-0.02,-0.61,0
15834,3.7281e+07,0,1.92,-1.63,12.18,-0.0038351,-0.0059762,-0.091444,0.12341,0,0,0.32717,-0.04,-0.02,-0.61,0
15874,3.7291e+07,0,1.92,-1.63,12.18,-0.0038229,-0.0062018,-0.089795,0.12513,0,0,0.32913,-0.04,-0.02,-0.61,0
15915,3.7301e+07,0,1.92,-1.62,12.18,-0.0038251,-0.0061633,-0.088563,0.126,0,0,0.33095,-0.04,-0.02,-0.61,0
15959,3.7311e+07,0,1.92,-1.62,12.18,-0.0039908,-0.0060417,-0.087935,0.12899,0,0,0.33007,-0.04,-0.02,-0.61,0
16002,3.7322e+07,0,1.92,-1.62,12.18,-0.0039729,-0.005968,-0.086517,0.1297,0,0,0.3318,-0.04,-0.02,-0.61,0
16043,3.7331e+07,0,1.92,-1.62,12.18,-0.0039702,-0.0061863,-0.085412,0.12922,0,0,0.33341,-0.04,-0.02,-0.61,0
16085,3.7341e+07,0,1.92,-1.62,12.18,-0.0038822,-0.0061006,-0.0842,0.12671,0,0,0.33491,-0.04,-0.02,-0.61,0
16128,3.7354e+07,0,1.92,-1.62,12.19,-0.0041101,-0.0061326,-0.082411,0.126,0,0,0.33741,-0.04,-0.02,-0.6,0
16169,3.7364e+07,0,1.92,-1.62,12.18,-0.0041874,-0.0059396,-0.081007,0.12615,0,0,0.34001,-0.04,-0.02,-0.6,0
16210,3.7375e+07,0,1.92,-1.62,12.18,-0.0043533,-0.0059123,-0.080378,0.132,0,0,0.33921,-0.04,-0.02,-0.6,0
16250,3.7384e+07,0,1.92,-1.62,12.18,-0.0044335,-0.005941,-0.07871,0.13711,0,0,0.34168,-0.04,-0.02,-0.6,0
16291,3.7394e+07,0,1.92,-1.62,12.18,-0.0045879,-0.0059079,-0.077075,0.14239,0,0,0.34401,-0.04,-0.02,-0.6,0
16331,3.7405e+07,0,1.93,-1.62,12.18,-0.004796,-0.0058991,-0.075579,0.14907,0,0,0.34612,-0.04,-0.02,-0.6,0
16378,3.7415e+07,0,1.93,-1.62,12.18,-0.0048064,-0.0059248,-0.074456,0.15328,0,0,0.34817,-0.04,-0.02,-0.6,0
16418,3.7425e+07,0,1.93,-1.62,12.18,-0.0048021,-0.0059502,-0.073283,0.15456,0,0,0.3501,-0.04,-0.02,-0.6,0
16459,3.7435e+07,0,1.93,-1.62,12.18,-0.0048106,-0.0060216,-0.072956,0.15722,0,0,0.34937,-0.04,-0.02,-0.6,0
16502,3.7445e+07,0,1.93,-1.62,12.19,-0.0047487,-0.0059574,-0.07135,0.15782,0,0,0.3512,-0.04,-0.02,-0.6,0
16536,3.7456e+07,0,1.93,-1.62,12.19,-0.0045969,-0.0061277,-0.069522,0.16049,0,0,0.3541,-0.04,-0.02,-0.59,0
16576,3.7466e+07,0,1.93,-1.62,12.19,-0.0045294,-0.0060773,-0.067862,0.16636,0,0,0.3569,-0.04,-0.02,-0.59,0
16617,3.7477e+07,0,1.93,-1.62,12.19,-0.0044392,-0.0063135,-0.065992,0.17502,0,0,0.35947,-0.04,-0.02,-0.59,0
16659,3.7487e+07,0,1.93,-1.62,12.19,-0.0045519,-0.0064279,-0.064367,0.18151,0,0,0.36196,-0.04,-0.02,-0.59,0
16699,3.7497e+07,0,1.93,-1.62,12.19,-0.0045733,-0.0067693,-0.062924,0.18475,0,0,0.36433,-0.04,-0.02,-0.59,0
16740,3.7507e+07,0,1.93,-1.62,12.19,-0.0046369,-0.0070091,-0.062473,0.18966,0,0,0.3637,-0.04,-0.02,-0.59,0
16785,3.7517e+07,0,1.93,-1.62,12.19,-0.0046781,-0.0069165,-0.061224,0.19166,0,0,0.36595,-0.04,-0.02,-0.59,0
16830,3.7527e+07,0,1.93,-1.63,12.19,-0.0048233,-0.0068299,-0.059636,0.19273,0,0,0.36808,-0.04,-0.02,-0.59,0
16871,3.7537e+07,0,1.93,-1.62,12.19,-0.0048423,-0.0066856,-0.058419,0.19079,0,0,0.37009,-0.04,-0.02,-0.59,0
16914,3.755e+07,0,1.93,-1.62,12.19,-0.0049784,-0.0066312,-0.056796,0.18934,0,0,0.3722,-0.04,-0.02,-0.59,0
16958,3.7563e+07,0,1.93,-1.62,12.19,-0.0050062,-0.0066237,-0.055332,0.1893,0,0,0.37417,-0.04,-0.02,-0.58,0
16999,3.7573e+07,0,1.92,-1.62,12.18,-0.0049972,-0.0065115,-0.054043,0.18811,0,0,0.3762,-0.04,-0.02,-0.58,0
17040,3.7583e+07,0,1.92,-1.62,12.18,-0.0051121,-0.0064589,-0.053522,0.18466,0,0,0.37566,-0.04,-0.02,-0.58,0
17082,3.7593e+07,0,1.92,-1.62,12.18,-0.0050925,-0.0062772,-0.051907,0.18045,0,0,0.37762,-0.04,-0.02,-0.58,0
17122,3.7603e+07,0,1.92,-1.62,12.18,-0.0050381,-0.0062283,-0.050916,0.17564,0,0,0.37946,-0.04,-0.02,-0.58,0
17167,3.7613e+07,0,1.93,-1.62,12.18,-0.0049588,-0.0062028,-0.049755,0.17076,0,0,0.38119,-0.04,-0.02,-0.58,0
17207,3.7624e+07,0,1.92,-1.62,12.18,-0.0051391,-0.0061649,-0.048503,0.16648,0,0,0.3828,-0.04,-0.02,-0.58,0
17248,3.7634e+07,0,1.93,-1.62,12.18,-0.0052979,-0.0061031,-0.047387,0.16031,0,0,0.38428,-0.04,-0.02,-0.58,0
17290,3.7645e+07,0,1.93,-1.62,12.18,-0.005104,-0.0062797,-0.046967,0.15474,0,0,0.38376,-0.04,-0.02,-0.58,0
17330,3.7655e+07,0,1.93,-1.62,12.19,-0.0050468,-0.0062603,-0.045671,0.14912,0,0,0.38521,-0.04,-0.02,-0.58,0
17368,3.7665e+07,0,1.93,-1.62,12.19,-0.004934,-0.0061986,-0.044282,0.14401,0,0,0.38733,-0.04,-0.02,-0.57,0
17408,3.7675e+07,0,1.93,-1.62,12.18,-0.0048182,-0.0062973,-0.042809,0.13736,0,0,0.38936,-0.04,-0.02,-0.57,0
17450,3.7686e+07,0,1.92,-1.62,12.18,-0.0048083,-0.0064431,-0.041581,0.13437,0,0,0.39122,-0.04,-0.02,-0.57,0
17490,3.7696e+07,0,1.92,-1.62,12.18,-0.0048274,-0.006416,-0.04092,0.13437,0,0,0.39081,-0.04,-0.02,-0.57,0
17531,3.7706e+07,0,1.92,-1.62,12.18,-0.0047993,-0.0062335,-0.039561,0.13355,0,0,0.39263,-0.04,-0.02,-0.57,0
17577,3.7717e+07,0,1.92,-1.62,12.18,-0.0047578,-0.0063078,-0.038552,0.13154,0,0,0.39431,-0.04,-0.02,-0.57,0
17619,3.7727e+07,0,1.92,-1.62,12.17,-0.0047616,-0.0063467,-0.037487,0.12882,0,0,0.39594,-0.04,-0.02,-0.57,0
17660,3.7738e+07,0,1.92,-1.62,12.17,-0.004776,-0.0062119,-0.036392,0.1255,0,0,0.39743,-0.04,-0.02,-0.57,0
17700,3.7748e+07,0,1.93,-1.62,12.17,-0.0047554,-0.0061902,-0.036039,0.12378,0,0,0.39707,-0.04,-0.02,-0.57,0
17741,3.7759e+07,0,1.93,-1.62,12.18,-0.0046671,-0.006259,-0.034894,0.12123,0,0,0.39853,-0.04,-0.02,-0.57,0
17778,3.777e+07,0,1.93,-1.63,12.18,-0.0046413,-0.0063704,-0.033365,0.11881,0,0,0.40032,-0.04,-0.02,-0.56,0
17820,3.778e+07,0,1.93,-1.62,12.18,-0.0046893,-0.0063806,-0.032195,0.11846,0,0,0.402,-0.04,-0.02,-0.56,0
17863,3.779e+07,0,1.93,-1.62,12.17,-0.0046095,-0.0063775,-0.031813,0.11537,0,0,0.40168,-0.04,-0.02,-0.56,0
17903,3.7801e+07,0,1.93,-1.63,12.17,-0.0046941,-0.0062462,-0.030918,0.11255,0,0,0.40335,-0.04,-0.02,-0.56,0
17944,3.781e+07,0,1.93,-1.62,12.17,-0.0048768,-0.0063275,-0.030015,0.1106,0,0,0.40491,-0.04,-0.02,-0.56,0
17989,3.7821e+07,0,1.93,-1.62,12.17,-0.0049057,-0.006238,-0.028962,0.1083,0,0,0.40639,-0.04,-0.02,-0.56,0
18030,3.7831e+07,0,1.93,-1.62,12.17,-0.0048986,-0.0061395,-0.02788,0.10743,0,0,0.40774,-0.04,-0.02,-0.56,0
18071,3.7841e+07,0,1.93,-1.62,12.17,-0.0050861,-0.0063592,-0.026893,0.10589,0,0,0.40903,-0.04,-0.02,-0.56,0
18111,3.7852e+07,0,1.93,-1.62,12.17,-0.0050936,-0.0062693,-0.025862,0.10506,0,0,0.41021,-0.04,-0.02,-0.56,0
18152,3.7862e+07,0,1.92,-1.62,12.17,-0.0051029,-0.0063476,-0.025233,0.10462,0,0,0.40996,-0.04,-0.02,-0.56,0
18193,3.7875e+07,0,1.92,-1.62,12.17,-0.0051724,-0.0064259,-0.024114,0.10279,0,0,0.41136,-0.04,-0.02,-0.56,0
18235,3.7886e+07,0,1.92,-1.62,12.17,-0.0053687,-0.0064086,-0.023052,0.10185,0,0,0.41275,-0.04,-0.02,-0.56,0
18276,3.7895e+07,0,1.93,-1.62,12.17,-0.0053,-0.0064984,-0.021781,0.10112,0,0,0.41406,-0.04,-0.02,-0.56,0
18317,3.7906e+07,0,1.93,-1.62,12.17,-0.0054935,-0.0063767,-0.020974,0.10034,0,0,0.41527,-0.04,-0.02,-0.56,0
18358,3.7916e+07,0,1.93,-1.62,12.18,-0.0054829,-0.0063083,-0.020041,0.099166,0,0,0.41642,-0.04,-0.02,-0.56,0
18402,3.7926e+07,0,1.93,-1.62,12.18,-0.0052535,-0.0063021,-0.018964,0.096872,0,0,0.4175,-0.04,-0.02,-0.56,0
18445,3.7936e+07,0,1.93,-1.62,12.18,-0.0051872,-0.0063305,-0.018622,0.095112,0,0,0.41731,-0.04,-0.02,-0.56,0
18486,3.7946e+07,0,1.93,-1.62,12.18,-0.0052121,-0.0064277,-0.017488,0.09277,0,0,0.41834,-0.04,-0.02,-0.56,0
18527,3.7956e+07,0,1.93,-1.62,12.19,-0.0052892,-0.0065937,-0.01676,0.090607,0,0,0.4193,-0.04,-0.02,-0.56,0
18565,3.7967e+07,0,1.93,-1.62,12.19,-0.0051515,-0.0066808,-0.015537,0.089705,0,0,0.42125,-0.04,-0.02,-0.55,0
18605,3.7977e+07,0,1.93,-1.62,12.19,-0.0052649,-0.0067583,-0.014484,0.088416,0,0,0.42314,-0.04,-0.02,-0.55,0
18646,3.7988e+07,0,1.93,-1.62,12.19,-0.0051097,-0.0068665,-0.013301,0.091433,0,0,0.42491,-0.04,-0.02,-0.55,0
18687,3.7998e+07,0,1.93,-1.62,12.19,-0.0049993,-0.0068904,-0.012878,0.096295,0,0,0.42478,-0.04,-0.02,-0.55,0
18728,3.8008e+07,0,1.92,-1.62,12.19,-0.0048987,-0.0068915,-0.012023,0.10027,0,0,0.42649,-0.04,-0.02,-0.55,0
18771,3.8019e+07,0,1.92,-1.62,12.19,-0.0048588,-0.0068622,-0.011149,0.10435,0,0,0.42809,-0.04,-0.02,-0.55,0
18816,3.8029e+07,0,1.92,-1.62,12.2,-0.0048796,-0.0069801,-0.010226,0.10695,0,0,0.42963,-0.04,-0.02,-0.55,0
18857,3.8039e+07,0,1.92,-1.62,12.2,-0.004896,-0.0069966,-0.0095419,0.1087,0,0,0.42952,-0.04,-0.02,-0.55,0
18897,3.8049e+07,0,1.92,-1.62,12.2,-0.0048409,-0.0069354,-0.0084043,0.10928,0,0,0.43101,-0.04,-0.02,-0.55,0
18938,3.806e+07,0,1.92,-1.62,12.2,-0.0048791,-0.0067702,-0.0074223,0.10975,0,0,0.43242,-0.04,-0.02,-0.55,0
18982,3.8073e+07,0,1.93,-1.62,12.2,-0.0049183,-0.0068962,-0.0058877,0.11315,0,0,0.43498,-0.04,-0.02,-0.55,0
19023,3.8083e+07,0,1.93,-1.62,12.21,-0.0048583,-0.0068805,-0.0044883,0.1203,0,0,0.43744,-0.04,-0.02,-0.54,0
19064,3.8093e+07,0,1.93,-1.62,12.2,-0.0049553,-0.0068386,-0.003149,0.12723,0,0,0.43979,-0.04,-0.02,-0.54,0
19104,3.8104e+07,0,1.93,-1.62,12.21,-0.0050244,-0.006886,-0.0018456,0.13482,0,0,0.44203,-0.04,-0.02,-0.54,0
19147,3.8114e+07,0,1.93,-1.62,12.21,-0.0049557,-0.0070777,-0.0016829,0.14293,0,0,0.44201,-0.04,-0.02,-0.54,0
19189,3.8124e+07,0,1.93,-1.62,12.21,-0.0049687,-0.0070176,-0.00037183,0.14985,0,0,0.44417,-0.04,-0.02,-0.54,0
19234,3.8134e+07,0,1.93,-1.62,12.21,-0.0051002,-0.0070663,0.00098058,0.15601,0,0,0.44622,-0.04,-0.02,-0.54,0
19274,3.8144e+07,0,1.93,-1.62,12.21,-0.0049307,-0.0068912,0.0021022,0.1599,0,0,0.44817,-0.04,-0.02,-0.54,0
19315,3.8155e+07,0,1.93,-1.62,12.21,-0.0050844,-0.006973,0.0027948,0.16291,0,0,0.4482,-0.04,-0.02,-0.54,0
19357,3.8165e+07,0,1.93,-1.62,12.21,-0.0050984,-0.0070077,0.0039122,0.16459,0,0,0.4501,-0.04,-0.02,-0.54,0
19391,3.8176e+07,0,1.93,-1.62,12.21,-0.0049565,-0.0068378,0.0051862,0.16668,0,0,0.45272,-0.04,-0.02,-0.53,0
19432,3.8186e+07,0,1.93,-1.62,12.21,-0.0048346,-0.006885,0.0065824,0.16927,0,0,0.45523,-0.04,-0.02,-0.53,0
19473,3.8196e+07,0,1.93,-1.62,12.2,-0.0050125,-0.0068486,0.0077247,0.17245,0,0,0.45763,-0.04,-0.02,-0.53,0
19514,3.8206e+07,0,1.93,-1.62,12.2,-0.0051939,-0.0067261,0.0082267,0.17757,0,0,0.45771,-0.04,-0.02,-0.53,0
19555,3.8216e+07,0,1.93,-1.62,12.2,-0.0052557,-0.0066578,0.0093092,0.18129,0,0,0.46001,-0.04,-0.02,-0.53,0
19596,3.8226e+07,0,1.93,-1.62,12.2,-0.00526,-0.0067228,0.010349,0.18451,0,0,0.46221,-0.04,-0.02,-0.53,0
19641,3.8236e+07,0,1.93,-1.62,12.2,-0.0053195,-0.0068703,0.01134,0.18591,0,0,0.46431,-0.04,-0.02,-0.53,0
19682,3.8246e+07,0,1.93,-1.62,12.21,-0.005419,-0.006829,0.012557,0.18685,0,0,0.46631,-0.04,-0.02,-0.53,0
19724,3.8257e+07,0,1.93,-1.62,12.21,-0.0053161,-0.0068796,0.013427,0.18872,0,0,0.46645,-0.04,-0.02,-0.53,0
19764,3.8267e+07,0,1.93,-1.62,12.21,-0.0051964,-0.0068606,0.014606,0.18815,0,0,0.46838,-0.04,-0.02,-0.53,0
19808,3.8281e+07,0,1.93,-1.62,12.21,-0.0051164,-0.0067214,0.016362,0.19118,0,0,0.47162,-0.04,-0.02,-0.52,0
19848,3.8291e+07,0,1.93,-1.62,12.21,-0.005087,-0.0067596,0.01764,0.19811,0,0,0.47465,-0.04,-0.02,-0.53,0
19890,3.8301e+07,0,1.93,-1.62,12.21,-0.0051062,-0.0067678,0.018714,0.20621,0,0,0.47753,-0.04,-0.02,-0.53,0
19931,3.8312e+07,0,1.93,-1.62,12.21,-0.0050963,-0.0067365,0.020192,0.21397,0,0,0.48029,-0.04,-0.02,-0.53,0
19971,3.8322e+07,0,1.93,-1.62,12.21,-0.005066,-0.0066461,0.021433,0.21913,0,0,0.48294,-0.04,-0.02,-0.53,0
20014,3.8332e+07,0,1.93,-1.62,12.21,-0.0051224,-0.0066997,0.022973,0.22339,0,0,0.4855,-0.04,-0.02,-0.53,0
20059,3.8342e+07,0,1.93,-1.62,12.21,-0.0051545,-0.0066839,0.023492,0.22762,0,0,0.48573,-0.04,-0.02,-0.53,0
20100,3.8352e+07,0,1.93,-1.62,12.21,-0.0052357,-0.0067328,0.024981,0.22991,0,0,0.48819,-0.04,-0.02,-0.53,0
20142,3.8362e+07,0,1.93,-1.62,12.21,-0.0051266,-0.0066943,0.026249,0.23089,0,0,0.49054,-0.04,-0.02,-0.53,0
20182,3.8373e+07,0,1.93,-1.62,12.21,-0.0050155,-0.0068144,0.027828,0.23375,0,0,0.49371,-0.04,-0.02,-0.53,0
20223,3.8383e+07,0,1.93,-1.62,12.21,-0.0051059,-0.0067919,0.029202,0.23714,0,0,0.49673,-0.04,-0.02,-0.52,0
20263,3.8393e+07,0,1.93,-1.62,12.21,-0.0052001,-0.0068061,0.030541,0.23915,0,0,0.49962,-0.04,-0.02,-0.52,0
20304,3.8403e+07,0,1.93,-1.62,12.21,-0.0052477,-0.0066811,0.030919,0.24337,0,0,0.49993,-0.04,-0.02,-0.52,0
20344,3.8413e+07,0,1.93,-1.62,12.21,-0.0050806,-0.0067659,0.032076,0.24581,0,0,0.50272,-0.04,-0.02,-0.52,0
20386,3.8423e+07,0,1.93,-1.62,12.21,-0.0050517,-0.0067599,0.033496,0.24778,0,0,0.5054,-0.04,-0.02,-0.52,0
20427,3.8433e+07,0,1.93,-1.62,12.21,-0.0051686,-0.0067245,0.034944,0.24771,0,0,0.50798,-0.04,-0.02,-0.52,0
20473,3.8444e+07,0,1.93,-1.62,12.21,-0.0050656,-0.0065747,0.036323,0.24624,0,0,0.51049,-0.04,-0.02,-0.52,0
20515,3.8454e+07,0,1.93,-1.62,12.21,-0.0049365,-0.0064751,0.036983,0.24575,0,0,0.51086,-0.04,-0.02,-0.52,0
20555,3.8464e+07,0,1.93,-1.62,12.21,-0.005049,-0.0064046,0.038312,0.24362,0,0,0.51326,-0.04,-0.02,-0.52,0
20597,3.8474e+07,0,1.93,-1.62,12.21,-0.0050743,-0.0062782,0.039357,0.23803,0,0,0.51558,-0.04,-0.02,-0.51,0
20644,3.8491e+07,0,1.93,-1.62,12.21,-0.0051504,-0.0061929,0.041204,0.23389,0,0,0.51946,-0.04,-0.02,-0.51,0
20685,3.8501e+07,0,1.93,-1.62,12.2,-0.0050841,-0.0061618,0.042658,0.23704,0,0,0.5229,-0.04,-0.02,-0.51,0
20727,3.8511e+07,0,1.93,-1.62,12.2,-0.0050331,-0.0061153,0.044068,0.2401,0,0,0.52622,-0.04,-0.02,-0.51,0
20768,3.8522e+07,0,1.94,-1.62,12.2,-0.0050954,-0.0060484,0.045306,0.2436,0,0,0.52945,-0.04,-0.02,-0.51,0
20810,3.8532e+07,0,1.94,-1.62,12.2,-0.0051358,-0.0062529,0.045796,0.24915,0,0,0.52991,-0.04,-0.02,-0.51,0
20855,3.8542e+07,0,1.94,-1.62,12.2,-0.0049805,-0.0063483,0.047494,0.25348,0,0,0.53299,-0.04,-0.02,-0.51,0
20898,3.8552e+07,0,1.94,-1.62,12.2,-0.0049802,-0.006613,0.048629,0.25665,0,0,0.53595,-0.04,-0.02,-0.51,0
20938,3.8562e+07,0,1.94,-1.62,12.2,-0.0050892,-0.006484,0.049956,0.25792,0,0,0.5388,-0.04,-0.02,-0.51,0
20979,3.8573e+07,0,1.93,-1.62,12.2,-0.0050377,-0.006513,0.050983,0.25808,0,0,0.54154,-0.04,-0.02,-0.51,0
21019,3.8586e+07,0,1.93,-1.62,12.2,-0.0050853,-0.0063589,0.052667,0.26211,0,0,0.54533,-0.04,-0.02,-0.5,0
21059,3.8595e+07,0,1.93,-1.62,12.19,-0.005146,-0.0061495,0.054063,0.26396,0,0,0.54872,-0.04,-0.02,-0.5,0
21100,3.8606e+07,0,1.93,-1.62,12.19,-0.0051804,-0.0059099,0.05525,0.26972,0,0,0.55207,-0.04,-0.02,-0.5,0
21141,3.8616e+07,0,1.93,-1.62,12.19,-0.0053403,-0.0056723,0.055783,0.2762,0,0,0.55263,-0.04,-0.02,-0.5,0
21182,3.8626e+07,0,1.93,-1.62,12.18,-0.005318,-0.0054713,0.057155,0.28132,0,0,0.55581,-0.04,-0.02,-0.5,0
21223,3.8636e+07,0,1.93,-1.62,12.18,-0.0052439,-0.0052747,0.05857,0.28391,0,0,0.55889,-0.04,-0.02,-0.5,0
21268,3.8646e+07,0,1.93,-1.62,12.17,-0.0051447,-0.0050429,0.059866,0.28514,0,0,0.56185,-0.04,-0.02,-0.5,0
21309,3.8656e+07,0,1.94,-1.62,12.17,-0.0052294,-0.0048843,0.061194,0.28387,0,0,0.56471,-0.04,-0.02,-0.5,0
21350,3.8666e+07,0,1.94,-1.62,12.17,-0.0053591,-0.0049219,0.061761,0.28373,0,0,0.56532,-0.04,-0.02,-0.5,0
21391,3.8676e+07,0,1.94,-1.62,12.16,-0.00549,-0.0049725,0.063099,0.28167,0,0,0.56809,-0.04,-0.02,-0.5,0
21429,3.8687e+07,0,1.94,-1.62,12.16,-0.0055221,-0.0052037,0.064813,0.28189,0,0,0.57208,-0.04,-0.02,-0.49,0
21470,3.87e+07,0,1.94,-1.62,12.16,-0.0056633,-0.0053994,0.066286,0.28666,0,0,0.57605,-0.04,-0.02,-0.5,0
21510,3.871e+07,0,1.94,-1.63,12.16,-0.0056816,-0.0054192,0.067772,0.29054,0,0,0.57969,-0.04,-0.02,-0.49,0
21551,3.8721e+07,0,1.94,-1.63,12.16,-0.0055747,-0.0054214,0.06913,0.29284,0,0,0.58321,-0.04,-0.02,-0.49,0
21591,3.8731e+07,0,1.94,-1.63,12.16,-0.0057427,-0.0053985,0.070249,0.29434,0,0,0.58667,-0.04,-0.02,-0.49,0
21634,3.8741e+07,0,1.93,-1.63,12.16,-0.0056323,-0.0055239,0.07075,0.29746,0,0,0.58737,-0.04,-0.02,-0.49,0
21679,3.8751e+07,0,1.93,-1.63,12.16,-0.005861,-0.0056412,0.072019,0.29864,0,0,0.59066,-0.04,-0.02,-0.49,0
21721,3.8761e+07,0,1.93,-1.63,12.16,-0.0058556,-0.0055767,0.073047,0.29883,0,0,0.59382,-0.04,-0.02,-0.49,0
21762,3.8772e+07,0,1.93,-1.63,12.16,-0.0059532,-0.005538,0.074562,0.29968,0,0,0.59695,-0.04,-0.02,-0.49,0
21805,3.8784e+07,0,1.93,-1.63,12.16,-0.0060504,-0.0051657,0.07585,0.29599,0,0,0.60037,-0.04,-0.02,-0.49,0
21843,3.8795e+07,0,1.93,-1.62,12.16,-0.0062293,-0.0049922,0.076552,0.29249,0,0,0.60121,-0.04,-0.02,-0.49,0
21883,3.8805e+07,0,1.93,-1.62,12.16,-0.0064313,-0.0047076,0.077824,0.2886,0,0,0.60441,-0.04,-0.02,-0.48,0
21925,3.8815e+07,0,1.93,-1.62,12.16,-0.006654,-0.0046825,0.079121,0.28546,0,0,0.6075,-0.04,-0.02,-0.49,0
21966,3.8825e+07,0,1.94,-1.63,12.16,-0.0068603,-0.0045181,0.079994,0.28104,0,0,0.61048,-0.04,-0.02,-0.48,0
22006,3.8835e+07,0,1.94,-1.63,12.16,-0.0068299,-0.0044904,0.081203,0.27713,0,0,0.61336,-0.04,-0.02,-0.49,0
22051,3.8846e+07,0,1.94,-1.63,12.16,-0.0067931,-0.0042581,0.082614,0.27465,0,0,0.61621,-0.04,-0.02,-0.49,0
22091,3.8856e+07,0,1.94,-1.63,12.16,-0.0066734,-0.0042427,0.083143,0.2722,0,0,0.61712,-0.04,-0.02,-0.49,0
22134,3.8866e+07,0,1.94,-1.63,12.16,-0.0067779,-0.004309,0.084332,0.26835,0,0,0.61981,-0.04,-0.02,-0.49,0
22174,3.8877e+07,0,1.94,-1.63,12.16,-0.0065655,-0.0041233,0.085362,0.2628,0,0,0.62251,-0.04,-0.02,-0.49,0
22216,3.8888e+07,0,1.93,-1.62,12.16,-0.0065874,-0.0040984,0.086516,0.25685,0,0,0.62527,-0.04,-0.02,-0.49,0
22254,3.8898e+07,0,1.93,-1.62,12.17,-0.0065702,-0.0041368,0.087466,0.25227,0,0,0.62785,-0.04,-0.01,-0.48,0
22294,3.8908e+07,0,1.93,-1.62,12.16,-0.0064863,-0.0040454,0.088284,0.24743,0,0,0.63033,-0.04,-0.02,-0.48,0
22335,3.8919e+07,0,1.93,-1.62,12.16,-0.0063671,-0.0037715,0.089243,0.24336,0,0,0.63282,-0.04,-0.02,-0.48,0
22377,3.893e+07,0,1.93,-1.62,12.16,-0.0064099,-0.0036807,0.090279,0.23957,0,0,0.63523,-0.04,-0.02,-0.48,0
22420,3.894e+07,0,1.93,-1.63,12.17,-0.006592,-0.0036382,0.091003,0.23648,0,0,0.63613,-0.04,-0.02,-0.48,0
22465,3.8951e+07,0,1.93,-1.63,12.16,-0.0066988,-0.0034827,0.091839,0.23182,0,0,0.63839,-0.04,-0.02,-0.48,0
22505,3.8961e+07,0,1.93,-1.63,12.16,-0.0067407,-0.0034143,0.092712,0.22577,0,0,0.64068,-0.04,-0.02,-0.48,0
22546,3.8971e+07,0,1.93,-1.63,12.16,-0.0069759,-0.003425,0.093539,0.22008,0,0,0.64281,-0.04,-0.02,-0.48,0
22592,3.8984e+07,0,1.93,-1.63,12.16,-0.0071171,-0.0034066,0.094734,0.21329,0,0,0.64559,-0.04,-0.02,-0.48,0
22632,3.8994e+07,0,1.94,-1.63,12.16,-0.0073151,-0.0033266,0.095637,0.20827,0,0,0.64802,-0.04,-0.01,-0.47,0
22672,3.9005e+07,0,1.94,-1.63,12.16,-0.0075333,-0.0031565,0.097038,0.20566,0,0,0.65046,-0.04,-0.01,-0.47,0
22712,3.9015e+07,0,1.94,-1.63,12.16,-0.0075171,-0.0033053,0.097555,0.2042,0,0,0.65143,-0.04,-0.01,-0.47,0
22753,3.9025e+07,0,1.94,-1.62,12.15,-0.0075072,-0.0033052,0.098751,0.20247,0,0,0.65373,-0.04,-0.01,-0.47,0
22795,3.9035e+07,0,1.94,-1.62,12.15,-0.0075866,-0.0032063,0.099519,0.20033,0,0,0.65596,-0.04,-0.01,-0.47,0
22835,3.9045e+07,0,1.94,-1.62,12.15,-0.0075484,-0.0031181,0.1002,0.19742,0,0,0.65812,-0.04,-0.01,-0.47,0
22881,3.9055e+07,0,1.94,-1.62,12.15,-0.0073429,-0.0031682,0.10119,0.19481,0,0,0.66022,-0.04,-0.01,-0.47,0
22921,3.9065e+07,0,1.94,-1.62,12.15,-0.0073446,-0.0030562,0.10202,0.19328,0,0,0.66123,-0.04,-0.01,-0.47,0
22963,3.9075e+07,0,1.93,-1.62,12.15,-0.0073155,-0.002966,0.10294,0.19084,0,0,0.66329,-0.04,-0.01,-0.47,0
23004,3.9085e+07,0,1.93,-1.62,12.15,-0.0073846,-0.0030296,0.10399,0.1884,0,0,0.66529,-0.04,-0.01,-0.47,0
23041,3.9096e+07,0,1.93,-1.62,12.15,-0.0073141,-0.0029225,0.10545,0.18635,0,0,0.66801,-0.04,-0.01,-0.47,0
23079,3.9106e+07,0,1.93,-1.62,12.15,-0.0072491,-0.0027797,0.10661,0.18531,0,0,0.67055,-0.04,-0.01,-0.47,0
23120,3.9117e+07,0,1.94,-1.62,12.14,-0.0073453,-0.0025735,0.10773,0.18684,0,0,0.67312,-0.04,-0.01,-0.47,0
23162,3.9127e+07,0,1.94,-1.62,12.14,-0.0073649,-0.0024983,0.10817,0.18942,0,0,0.6742,-0.04,-0.01,-0.47,0
23203,3.9138e+07,0,1.94,-1.62,12.14,-0.0072872,-0.0025224,0.10917,0.19165,0,0,0.67672,-0.04,-0.01,-0.47,0
23243,3.9149e+07,0,1.94,-1.62,12.14,-0.0073373,-0.0027145,0.11027,0.19436,0,0,0.67916,-0.04,-0.01,-0.47,0
23288,3.9159e+07,0,1.94,-1.62,12.14,-0.0074566,-0.0027469,0.11112,0.19472,0,0,0.68145,-0.04,-0.01,-0.47,0
23331,3.9169e+07,0,1.94,-1.62,12.14,-0.0073092,-0.0028189,0.11213,0.19452,0,0,0.68368,-0.04,-0.01,-0.47,0
23372,3.9179e+07,0,1.94,-1.62,12.14,-0.0073235,-0.0028161,0.11271,0.19521,0,0,0.6848,-0.04,-0.01,-0.47,0
23413,3.919e+07,0,1.94,-1.62,12.14,-0.007259,-0.0030161,0.11374,0.19517,0,0,0.68709,-0.04,-0.01,-0.47,0
23450,3.92e+07,0,1.94,-1.62,12.15,-0.0071347,-0.0031007,0.11478,0.19567,0,0,0.68975,-0.04,-0.01,-0.47,0
23491,3.9213e+07,0,1.94,-1.63,12.15,-0.0073463,-0.0031158,0.1159,0.19822,0,0,0.69267,-0.04,-0.01,-0.47,0
23532,3.9223e+07,0,1.94,-1.63,12.15,-0.0074334,-0.0031108,0.11694,0.20134,0,0,0.69517,-0.04,-0.01,-0.47,0
23573,3.9233e+07,0,1.94,-1.63,12.15,-0.0075564,-0.0031638,0.11782,0.20223,0,0,0.69762,-0.04,-0.01,-0.46,0
23614,3.9244e+07,0,1.94,-1.63,12.16,-0.0075814,-0.0031154,0.11813,0.2043,0,0,0.6988,-0.04,-0.01,-0.46,0
23654,3.9254e+07,0,1.94,-1.63,12.16,-0.0078005,-0.0030679,0.11906,0.20588,0,0,0.70119,-0.04,-0.01,-0.46,0
23699,3.9263e+07,0,1.94,-1.63,12.16,-0.0078691,-0.0029339,0.11976,0.20545,0,0,0.70353,-0.04,-0.01,-0.46,0
23740,3.9274e+07,0,1.94,-1.63,12.16,-0.0079297,-0.0029023,0.12076,0.20519,0,0,0.70593,-0.04,-0.01,-0.46,0
23782,3.9284e+07,0,1.94,-1.63,12.16,-0.0080228,-0.0028659,0.12158,0.20595,0,0,0.70714,-0.04,-0.01,-0.46,0
23823,3.9295e+07,0,1.94,-1.63,12.16,-0.0080708,-0.002548,0.12262,0.20594,0,0,0.70938,-0.04,-0.01,-0.46,0
23861,3.9308e+07,0,1.94,-1.63,12.17,-0.0079978,-0.0022203,0.12431,0.20883,0,0,0.7129,-0.04,-0.01,-0.46,0
23902,3.9318e+07,0,1.94,-1.63,12.17,-0.0079645,-0.0020826,0.12542,0.21389,0,0,0.71583,-0.04,-0.01,-0.46,0
23942,3.9328e+07,0,1.94,-1.63,12.17,-0.0080955,-0.0020404,0.12638,0.21847,0,0,0.71869,-0.04,-0.01,-0.46,0
23985,3.9338e+07,0,1.94,-1.63,12.17,-0.0079521,-0.0020269,0.12744,0.2232,0,0,0.72146,-0.04,-0.01,-0.46,0
24026,3.9348e+07,0,1.94,-1.63,12.17,-0.0079361,-0.0019636,0.12852,0.22683,0,0,0.72416,-0.04,-0.01,-0.46,0
24067,3.9358e+07,0,1.94,-1.63,12.18,-0.0078242,-0.002093,0.12939,0.23164,0,0,0.72545,-0.04,-0.01,-0.46,0
24112,3.9368e+07,0,1.94,-1.63,12.18,-0.0077137,-0.0021799,0.13045,0.23493,0,0,0.7281,-0.04,-0.01,-0.46,0
24152,3.9379e+07,0,1.94,-1.63,12.18,-0.0077735,-0.0020285,0.13138,0.23713,0,0,0.73081,-0.04,-0.01,-0.46,0
24194,3.9389e+07,0,1.94,-1.63,12.19,-0.0078583,-0.0020064,0.1325,0.23873,0,0,0.73333,-0.04,-0.01,-0.46,0
24237,3.9402e+07,0,1.94,-1.63,12.19,-0.0078672,-0.0019413,0.13384,0.23982,0,0,0.73632,-0.04,-0.01,-0.46,0
24275,3.9412e+07,0,1.94,-1.63,12.19,-0.0078177,-0.0018258,0.13502,0.2417,0,0,0.73909,-0.04,-0.01,-0.46,0
24317,3.9422e+07,0,1.94,-1.63,12.2,-0.0079199,-0.0016355,0.13605,0.24274,0,0,0.74167,-0.04,-0.01,-0.46,0
24357,3.9433e+07,0,1.94,-1.63,12.2,-0.0080987,-0.0014639,0.13693,0.24415,0,0,0.74432,-0.04,-0.01,-0.46,0
24398,3.9443e+07,0,1.94,-1.63,12.2,-0.0082718,-0.0013806,0.1375,0.24544,0,0,0.74569,-0.04,-0.01,-0.46,0
24439,3.9453e+07,0,1.94,-1.63,12.2,-0.0082788,-0.0014399,0.1383,0.24533,0,0,0.74815,-0.04,-0.01,-0.46,0
24489,3.9466e+07,0,1.94,-1.63,12.21,-0.0082716,-0.0012566,0.13921,0.24351,0,0,0.75084,-0.04,-0.01,-0.46,0
24530,3.9475e+07,0,1.94,-1.63,12.21,-0.0083452,-0.0010935,0.14011,0.24122,0,0,0.75334,-0.04,-0.01,-0.46,0
24570,3.9486e+07,0,1.94,-1.63,12.21,-0.0084031,-0.0010725,0.14083,0.23848,0,0,0.75474,-0.04,-0.01,-0.46,0
24613,3.9496e+07,0,1.94,-1.63,12.22,-0.0085036,-0.00083736,0.14155,0.23557,0,0,0.75708,-0.04,-0.01,-0.46,0
