LineNo,TimeUS,C,Roll,Pitch,Yaw,VN,VE,VD,dPD,PN,PE,PD,GX,GY,GZ,OH
199,33254959,1,2.3,-2.17,10.64,0.009151555,0.01952666,-0.009823557,-0.1017715,0,0,0.7551314,-0.12,0.15,-0.8,0
537,33333696,1,2.29,-2.17,10.73,0.01090306,0.02334048,-0.01659349,-0.08465913999999999,0,0,0.7496676,-0.11,0.14,-0.78,0
995,33434939,1,2.3,-2.17,10.83,0.01192129,0.02602797,-0.01595193,-0.07733350999999999,0,0,0.7413478999999999,-0.11,0.14,-0.75,0
1313,33612414,1,2.31,-2.18,10.94,0.02057461,0.02164572,-0.4640633,-0.4895466,0,0,0.697302,-0.1,0.13,-0.72,0
1498,33647382,1,2.31,-2.18,10.97,0.02095621,0.0218845,-0.4687777,-0.5121976,0,0,0.6764537,-0.11,0.13,-0.73,0
1587,33659850,1,2.31,-2.18,10.98,0.02259695,0.02306558,-0.4711098,-0.5229152,0,0,0.6695262,-0.11,0.13,-0.73,0
1633,33669891,1,2.32,-2.18,10.99,0.02370072,0.02370094,-0.4711322,-0.5291052000000001,0,0,0.6634601,-0.11,0.13,-0.73,0
1677,33683191,1,2.32,-2.18,11,0.025491,0.02431099,-0.4718514,-0.5399216,0,0,0.6549149,-0.11,0.13,-0.74,0
1717,33693461,1,2.32,-2.18,11.02,0.02679968,0.02483406,-0.4726692,-0.5480773,0,0,0.6483217999999999,-0.11,0.13,-0.74,0
1758,33703939,1,2.32,-2.18,11.03,0.02816323,0.02289778,-0.4717892,-0.5575991,0,0,0.6436313,-0.11,0.13,-0.74,0
1798,33713946,1,2.32,-2.18,11.04,0.02915165,0.02220447,-0.4723709,-0.5669624,0,0,0.6371874,-0.11,0.13,-0.74,0
1845,33723836,1,2.31,-2.18,11.06,0.02888377,0.02166217,-0.4734535,-0.5732115,0,0,0.6324449,-0.11,0.13,-0.74,0
1885,33734946,1,2.31,-2.18,11.07,0.02874274,0.02124596,-0.472761,-0.5767537,0,0,0.6255996,-0.1,0.13,-0.74,0
1926,33745281,1,2.31,-2.18,11.08,0.03041085,0.02225686,-0.4737024,-0.5789846,0,0,0.6203436,-0.1,0.13,-0.74,0
1967,33755244,1,2.31,-2.18,11.09,0.03098942,0.02258392,-0.474925,-0.5799456,0,0,0.6140538,-0.1,0.13,-0.73,0
2005,33765704,1,2.31,-2.18,11.1,0.03159377,0.02304884,-0.4755494,-0.5808881,0,0,0.6077684,-0.1,0.13,-0.73,0
2046,33775819,1,2.31,-2.19,11.11,0.03142536,0.02234556,-0.4754453,-0.5823748,0,0,0.6030117,-0.1,0.13,-0.73,0
2086,33785695,1,2.31,-2.19,11.12,0.03166454,0.02411276,-0.4767217,-0.5845291,0,0,0.5969333999999999,-0.1,0.13,-0.73,0
2127,33796105,1,2.31,-2.19,11.14,0.03213984,0.025108,-0.4775907,-0.5904588,0,0,0.5887388,-0.1,0.13,-0.73,0
2168,33806107,1,2.31,-2.19,11.15,0.03129391,0.02511307,-0.4794407,-0.5993875,0,0,0.581236,-0.1,0.13,-0.73,0
2209,33816476,1,2.31,-2.19,11.16,0.03183117,0.02491917,-0.4788983,-0.6080992,0,0,0.5764127999999999,-0.1,0.13,-0.73,0
2253,33826422,1,2.32,-2.19,11.17,0.03268772,0.02596506,-0.4802925,-0.6160631,0,0,0.5690218,-0.1,0.13,-0.73,0
2294,33836501,1,2.32,-2.19,11.19,0.0327222,0.0256232,-0.481478,-0.624239,0,0,0.5617297,-0.1,0.13,-0.73,0
2339,33846435,1,2.32,-2.19,11.2,0.03272481,0.02540821,-0.4819053,-0.6340793,0,0,0.5546468,-0.1,0.13,-0.74,0
2382,33859612,1,2.32,-2.19,11.21,0.0319805,0.02693108,-0.4819663,-0.6436754,0,0,0.5462666,-0.1,0.13,-0.74,0
2423,33870099,1,2.32,-2.19,11.22,0.03226593,0.02674533,-0.4822911,-0.6507988,0,0,0.5374869,-0.1,0.13,-0.74,0
2464,33881160,1,2.31,-2.19,11.23,0.03212788,0.02686427,-0.4838202,-0.6664324,0,0,0.5321875,-0.1,0.13,-0.74,0
2504,33891078,1,2.32,-2.19,11.24,0.03225714,0.0261397,-0.4842219,-0.677427,0,0,0.5240796,-0.1,0.13,-0.74,0
2547,33901165,1,2.31,-2.19,11.24,0.03202448,0.02653308,-0.4838237,-0.6824219,0,0,0.5192426999999999,-0.1,0.13,-0.74,0
2587,33911729,1,2.31,-2.19,11.26,0.03168566,0.02656941,-0.4853515,-0.6889904,0,0,0.5112278,-0.1,0.13,-0.73,0
2628,33921671,1,2.31,-2.19,11.27,0.03196186,0.02677576,-0.4873326,-0.6970791,0,0,0.5034596,-0.1,0.13,-0.74,0
2674,33931574,1,2.31,-2.19,11.27,0.03190615,0.02699916,-0.4873508,-0.7007518,0,0,0.4985715,-0.1,0.13,-0.74,0
2714,33941853,1,2.31,-2.19,11.28,0.03304241,0.02663023,-0.4870278,-0.7027821,0,0,0.4908679,-0.1,0.13,-0.73,0
2755,33952208,1,2.32,-2.19,11.29,0.03242749,0.02623548,-0.4851162,-0.6983764,0,0,0.4855392,-0.1,0.13,-0.73,0
2796,33962687,1,2.32,-2.19,11.3,0.03280688,0.02623138,-0.4847062,-0.6954121,0,0,0.4779618,-0.1,0.13,-0.72,0
2837,33972642,1,2.32,-2.19,11.31,0.03243845,0.02593772,-0.484155,-0.6940541,0,0,0.470585,-0.1,0.13,-0.73,0
2877,33982470,1,2.32,-2.18,11.32,0.03197493,0.02573994,-0.484093,-0.6926466,0,0,0.4633873,-0.1,0.13,-0.73,0
2918,33995380,1,2.32,-2.18,11.33,0.0315305,0.02467729,-0.486322,-0.6958164,0,0,0.4542803,-0.1,0.13,-0.75,0
2960,34005312,1,2.32,-2.18,11.35,0.0314361,0.02453698,-0.4877718,-0.6968375,0,0,0.4468226,-0.1,0.13,-0.76,0
3001,34015424,1,2.32,-2.18,11.36,0.03262405,0.02406927,-0.4868504,-0.6995361,0,0,0.4419471,-0.1,0.13,-0.76,0
3042,34025856,1,2.32,-2.18,11.38,0.03171914,0.0231949,-0.4877562,-0.701731,0,0,0.434188,-0.1,0.13,-0.76,0
3086,34035828,1,2.32,-2.18,11.39,0.03213095,0.02419462,-0.4889343,-0.7026772,0,0,0.427015,-0.1,0.13,-0.76,0
3127,34045870,1,2.31,-2.18,11.41,0.03195691,0.02307036,-0.4886607,-0.7032948,0,0,0.4199927,-0.1,0.13,-0.76,0
3169,34055828,1,2.31,-2.18,11.42,0.03245569,0.02314528,-0.4902334,-0.7041311,0,0,0.4131218,-0.1,0.13,-0.77,0
3213,34068902,1,2.31,-2.18,11.44,0.03334519,0.02260221,-0.4907873,-0.701232,0,0,0.4055237,-0.1,0.13,-0.77,0
3253,34079062,1,2.31,-2.19,11.46,0.03363953,0.02377829,-0.4905815,-0.6935627,0,0,0.3994996,-0.1,0.13,-0.78,0
3295,34089451,1,2.31,-2.18,11.48,0.03240192,0.02354475,-0.491407,-0.6863739,0,0,0.3946081,-0.1,0.13,-0.78,0
3340,34099443,1,2.31,-2.18,11.5,0.03202701,0.02374658,-0.491005,-0.6755261,0,0,0.3886913,-0.1,0.13,-0.78,0
3380,34110031,1,2.31,-2.18,11.51,0.03271322,0.02218619,-0.4915965,-0.6653875,0,0,0.3828359,-0.11,0.13,-0.78,0
3421,34120309,1,2.31,-2.18,11.53,0.03130628,0.02237223,-0.4933968,-0.6541539,0,0,0.3765653,-0.11,0.13,-0.78,0
3465,34130473,1,2.31,-2.17,11.55,0.03112945,0.02279695,-0.4937317,-0.6413591,0,0,0.3715958,-0.11,0.13,-0.78,0
3509,34140862,1,2.31,-2.17,11.56,0.03043823,0.02360515,-0.4926968,-0.627139,0,0,0.3658585,-0.1,0.13,-0.78,0
3551,34150910,1,2.31,-2.17,11.58,0.02991772,0.02456395,-0.4947383,-0.616738,0,0,0.3602071,-0.11,0.13,-0.78,0
3591,34160856,1,2.31,-2.17,11.59,0.02903617,0.02610792,-0.494011,-0.6037651000000001,0,0,0.3545696,-0.11,0.13,-0.78,0
3632,34171106,1,2.31,-2.17,11.6,0.02913783,0.02602309,-0.4951513,-0.5926829,0,0,0.3489312,-0.11,0.13,-0.79,0
3669,34181428,1,2.31,-2.17,11.62,0.02984612,0.02652053,-0.4961179,-0.581813,0,0,0.3438399,-0.11,0.13,-0.8,0
3710,34191386,1,2.31,-2.17,11.64,0.03013152,0.02662311,-0.4969686,-0.5705003,0,0,0.3387507,-0.11,0.13,-0.8,0
3751,34201771,1,2.31,-2.17,11.65,0.03116228,0.02549599,-0.4968406,-0.5584532,0,0,0.3337283,-0.11,0.13,-0.8,0
3792,34211918,1,2.31,-2.17,11.67,0.03143087,0.02687142,-0.4964265,-0.5465006,0,0,0.3287633,-0.11,0.13,-0.8,0
3833,34221863,1,2.31,-2.17,11.68,0.03115408,0.02753766,-0.4959436,-0.5348644,0,0,0.3237466,-0.11,0.13,-0.8,0
3877,34232243,1,2.31,-2.17,11.69,0.03217908,0.02666917,-0.4977013,-0.5251547,0,0,0.3182963,-0.11,0.13,-0.8,0
3918,34242676,1,2.31,-2.18,11.71,0.03281496,0.0256146,-0.4984348,-0.5161915,0,0,0.3133117,-0.11,0.13,-0.8,0
3958,34253052,1,2.31,-2.17,11.73,0.03245585,0.02652746,-0.4982091,-0.5062884,0,0,0.3078742,-0.11,0.13,-0.8100000000000001,0
4000,34263424,1,2.31,-2.17,11.74,0.03307739,0.02550252,-0.4978788,-0.4979928,0,0,0.3028933,-0.11,0.13,-0.8100000000000001,0
4040,34276679,1,2.3,-2.17,11.75,0.03260577,0.02431594,-0.4970274,-0.4829737,0,0,0.297836,-0.11,0.13,-0.8100000000000001,0
4081,34286869,1,2.3,-2.17,11.76,0.03280123,0.02599614,-0.4967026,-0.4692635,0,0,0.2942123,-0.11,0.13,-0.8100000000000001,0
4122,34296461,1,2.3,-2.16,11.77,0.03441983,0.02775961,-0.4966318,-0.4548906,0,0,0.2905488,-0.11,0.13,-0.8100000000000001,0
4163,34306785,1,2.3,-2.16,11.79,0.03549003,0.02718939,-0.497194,-0.4421599,0,0,0.2864086,-0.11,0.13,-0.8,0
4204,34317140,1,2.31,-2.16,11.8,0.0347546,0.0282232,-0.4971997,-0.4286333,0,0,0.2814286,-0.11,0.13,-0.8,0
4246,34327260,1,2.3,-2.16,11.81,0.03458755,0.02802586,-0.4979481,-0.4175505,0,0,0.2777162,-0.11,0.13,-0.8100000000000001,0
4294,34337690,1,2.3,-2.16,11.82,0.03494494,0.02814245,-0.4973992,-0.4059923,0,0,0.2739494,-0.11,0.13,-0.8100000000000001,0
4336,34348093,1,2.3,-2.16,11.83,0.03555705,0.0280253,-0.4976925,-0.3958535,0,0,0.2696332,-0.11,0.13,-0.8100000000000001,0
4376,34358102,1,2.3,-2.16,11.84,0.03499029,0.02870953,-0.4978386,-0.388588,0,0,0.2658484,-0.11,0.13,-0.8100000000000001,0
4417,34368667,1,2.29,-2.17,11.84,0.03436074,0.02871799,-0.4984477,-0.381294,0,0,0.2608652,-0.11,0.13,-0.8100000000000001,0
4454,34378857,1,2.29,-2.17,11.85,0.03423353,0.02862247,-0.4961336,-0.3735463,0,0,0.2565901,-0.11,0.13,-0.8100000000000001,0
4492,34389252,1,2.3,-2.17,11.86,0.03439336,0.03041901,-0.4964135,-0.3680427,0,0,0.2533972,-0.11,0.13,-0.8100000000000001,0
4533,34399316,1,2.3,-2.17,11.87,0.0345294,0.03119276,-0.4970224,-0.3640091,0,0,0.2484342,-0.11,0.13,-0.8100000000000001,0
4575,34409908,1,2.3,-2.17,11.87,0.0348595,0.030675,-0.4961542,-0.3587511,0,0,0.2452046,-0.11,0.13,-0.8,0
4616,34420393,1,2.3,-2.16,11.88,0.03474734,0.02987654,-0.4969988,-0.3533639,0,0,0.2414508,-0.11,0.13,-0.8,0
4656,34430377,1,2.3,-2.16,11.88,0.03491974,0.02942774,-0.4948129,-0.3457286,0,0,0.2381096,-0.11,0.13,-0.8100000000000001,0
4701,34440411,1,2.3,-2.16,11.89,0.03403076,0.02894409,-0.4943999,-0.3403953,0,0,0.2347459,-0.11,0.13,-0.8100000000000001,0
4741,34450359,1,2.3,-2.16,11.9,0.03418215,0.02858503,-0.49528,-0.3381482,0,0,0.2313534,-0.11,0.13,-0.8100000000000001,0
4782,34460856,1,2.3,-2.17,11.91,0.03365218,0.02946441,-0.4965065,-0.3349477,0,0,0.2263433,-0.11,0.13,-0.8100000000000001,0
4822,34470870,1,2.3,-2.17,11.92,0.03361619,0.0298359,-0.4963783,-0.3325366,0,0,0.2229375,-0.11,0.13,-0.8100000000000001,0
4863,34481341,1,2.3,-2.16,11.93,0.03272437,0.02984605,-0.4965225,-0.3271301,0,0,0.2213546,-0.11,0.13,-0.8100000000000001,0
4904,34491325,1,2.3,-2.16,11.93,0.03254659,0.0290753,-0.4944219,-0.3158268,0,0,0.220134,-0.11,0.13,-0.8100000000000001,0
4945,34501388,1,2.3,-2.16,11.94,0.03376463,0.0284747,-0.494582,-0.301786,0,0,0.2151245,-0.11,0.13,-0.8100000000000001,0
4985,34511289,1,2.3,-2.16,11.94,0.03428323,0.02866451,-0.4917949,-0.2855975,0,0,0.2138358,-0.11,0.13,-0.8,0
5027,34521295,1,2.3,-2.16,11.94,0.03464822,0.0282192,-0.4906034,-0.2743676,0,0,0.2123935,-0.11,0.13,-0.8,0
5070,34531878,1,2.3,-2.16,11.95,0.03569873,0.02813524,-0.4890936,-0.2589408,0,0,0.21088,-0.11,0.13,-0.8,0
5115,34542144,1,2.3,-2.16,11.96,0.03483802,0.02750046,-0.489458,-0.2441137,0,0,0.2054715,-0.11,0.13,-0.8,0
5157,34552189,1,2.3,-2.16,11.96,0.03495483,0.02766549,-0.4878792,-0.2354065,0,0,0.2038226,-0.11,0.13,-0.8,0
5198,34562196,1,2.29,-2.16,11.96,0.03590243,0.02766481,-0.4854025,-0.229146,0,0,0.1989332,-0.11,0.13,-0.8,0
5240,34572120,1,2.29,-2.16,11.97,0.03485586,0.02743755,-0.4843174,-0.2280253,0,0,0.1972246,-0.1,0.13,-0.79,0
5280,34582120,1,2.29,-2.16,11.97,0.03445034,0.0281356,-0.4846421,-0.2299887,0,0,0.1923686,-0.1,0.13,-0.79,0
5317,34592357,1,2.29,-2.15,11.97,0.03423249,0.02780585,-0.482631,-0.2283237,0,0,0.1905652,-0.1,0.13,-0.79,0
5358,34602306,1,2.29,-2.15,11.98,0.03330129,0.02789271,-0.480773,-0.2198873,0,0,0.1902984,-0.1,0.13,-0.79,0
5398,34612859,1,2.29,-2.15,11.99,0.03188173,0.02909335,-0.4799102,-0.2087466,0,0,0.1899828,-0.1,0.13,-0.79,0
5439,34622838,1,2.29,-2.15,11.99,0.03229325,0.03043571,-0.4787273,-0.1974838,0,0,0.1894678,-0.1,0.13,-0.79,0
5480,34632838,1,2.3,-2.14,11.99,0.03194206,0.03063446,-0.476626,-0.1842426,0,0,0.1887689,-0.1,0.13,-0.79,0
5525,34643364,1,2.3,-2.14,12,0.0318666,0.0306461,-0.4755712,-0.1677946,0,0,0.1874529,-0.1,0.13,-0.79,0
5566,34653772,1,2.3,-2.14,12,0.03174243,0.03109045,-0.474335,-0.1506907,0,0,0.1825943,-0.1,0.13,-0.79,0
5607,34664667,1,2.3,-2.14,12.01,0.03047105,0.03185293,-0.472755,-0.1477498,0,0,0.1812868,-0.1,0.13,-0.79,0
5648,34674453,1,2.3,-2.14,12.01,0.02966535,0.0331024,-0.471263,-0.1417707,0,0,0.1802437,-0.1,0.13,-0.79,0
5688,34687474,1,2.3,-2.14,12.01,0.02895239,0.03303013,-0.4682764,-0.1295779,0,0,0.1799459,-0.1,0.13,-0.79,0
5729,34697235,1,2.3,-2.14,12.01,0.02893001,0.03394829,-0.4684741,-0.1195036,0,0,0.1751759,-0.1,0.13,-0.79,0
5770,34707244,1,2.3,-2.14,12.01,0.02799814,0.03365405,-0.4655305,-0.1067959,0,0,0.1761847,-0.1,0.13,-0.79,0
5811,34717234,1,2.3,-2.14,12.01,0.02782986,0.03406505,-0.4631075,-0.09189176,0,0,0.1768583,-0.1,0.13,-0.79,0
5854,34727238,1,2.3,-2.14,12.01,0.02738546,0.03421904,-0.4638094,-0.08545104000000001,0,0,0.1722532,-0.1,0.13,-0.79,0
5895,34738413,1,2.3,-2.14,12.02,0.0270746,0.03498128,-0.4625203,-0.07976274999999999,0,0,0.172289,-0.1,0.13,-0.79,0
5940,34749143,1,2.3,-2.14,12.03,0.02774096,0.03458964,-0.4597249,-0.06633012000000001,0,0,0.172166,-0.1,0.13,-0.79,0
5981,34759903,1,2.3,-2.14,12.04,0.02833731,0.0351173,-0.4595712,-0.05909094,0,0,0.1722747,-0.1,0.13,-0.79,0
6021,34770449,1,2.3,-2.14,12.04,0.02844257,0.03384821,-0.4560769,-0.05027665,0,0,0.1717845,-0.1,0.13,-0.79,0
6063,34780792,1,2.3,-2.14,12.05,0.02787816,0.03425649,-0.4534193,-0.04317657,0,0,0.1716055,-0.1,0.13,-0.79,0
6107,34793418,1,2.3,-2.14,12.06,0.0277559,0.03369378,-0.4496024,-0.03125509,0,0,0.1722796,-0.1,0.13,-0.8,0
6147,34803764,1,2.3,-2.14,12.07,0.02671817,0.03461432,-0.4462419,-0.02192733,0,0,0.1739953,-0.1,0.13,-0.79,0
6188,34814099,1,2.29,-2.15,12.08,0.02715148,0.0346753,-0.4438854,-0.004794369,0,0,0.1751067,-0.1,0.13,-0.79,0
6228,34824963,1,2.29,-2.15,12.08,0.0280678,0.03538869,-0.4470409,0.01107292,0,0,0.1706616,-0.1,0.13,-0.79,0
6269,34835390,1,2.29,-2.15,12.09,0.0285089,0.03607281,-0.4471597,0.02264647,0,0,0.1714657,-0.1,0.13,-0.79,0
6309,34845360,1,2.29,-2.15,12.09,0.02794246,0.03629179,-0.4444524,0.03420817,0,0,0.1725284,-0.1,0.13,-0.8,0
6357,34855267,1,2.29,-2.15,12.1,0.02829919,0.03602783,-0.4412534,0.03619163,0,0,0.1734549,-0.1,0.13,-0.79,0
6398,34865809,1,2.29,-2.15,12.11,0.02772846,0.03771346,-0.4409409,0.04196351,0,0,0.1690158,-0.1,0.13,-0.79,0
6438,34875794,1,2.29,-2.15,12.11,0.02866761,0.03716667,-0.4379749,0.0447467,0,0,0.169698,-0.1,0.13,-0.79,0
6479,34888565,1,2.29,-2.15,12.12,0.03009437,0.03580348,-0.4345469,0.0406521,0,0,0.1689134,-0.1,0.13,-0.79,0
6516,34898232,1,2.29,-2.15,12.12,0.0303696,0.03519345,-0.4309617,0.04449977,0,0,0.1707353,-0.1,0.13,-0.79,0
6558,34909023,1,2.29,-2.15,12.13,0.02870842,0.0348078,-0.4290313,0.04712802,0,0,0.1719139,-0.1,0.13,-0.79,0
6599,34919461,1,2.29,-2.15,12.13,0.0299387,0.03462151,-0.4289818,0.04726189,0,0,0.167604,-0.1,0.13,-0.79,0
6639,34929889,1,2.29,-2.14,12.14,0.03067778,0.03430544,-0.4236685,0.04565648,0,0,0.1690421,-0.1,0.13,-0.79,0
6682,34939880,1,2.29,-2.15,12.14,0.03083393,0.03459871,-0.4214542,0.04089066,0,0,0.1701829,-0.1,0.13,-0.79,0
6728,34950008,1,2.29,-2.14,12.15,0.03240116,0.0347587,-0.4219482,0.0366153,0,0,0.1659976,-0.1,0.13,-0.79,0
6769,34960519,1,2.29,-2.14,12.15,0.03117391,0.03603647,-0.419676,0.0306469,0,0,0.1666097,-0.1,0.13,-0.79,0
6809,34970239,1,2.29,-2.14,12.16,0.03049643,0.03680051,-0.4171925,0.03142815,0,0,0.1674411,-0.1,0.13,-0.79,0
6853,34983332,1,2.29,-2.14,12.17,0.03038068,0.036058,-0.4167211,0.0287225,0,0,0.1668082,-0.1,0.13,-0.79,0
6894,34993207,1,2.29,-2.14,12.17,0.02963347,0.03528595,-0.4142318,0.03010218,0,0,0.1672404,-0.1,0.13,-0.79,0
6932,35003922,1,2.29,-2.14,12.18,0.02929832,0.03569894,-0.4120695,0.03239559,0,0,0.1692607,-0.1,0.13,-0.8,0
6972,35014196,1,2.29,-2.14,12.19,0.03002853,0.03521862,-0.4093961,0.03624533,0,0,0.1706675,-0.1,0.13,-0.8,0
7012,35024203,1,2.29,-2.14,12.19,0.02977117,0.03707532,-0.4064669,0.04598155,0,0,0.172221,-0.1,0.13,-0.8,0
7054,35034189,1,2.29,-2.14,12.2,0.02944903,0.03646585,-0.4052925,0.0493183,0,0,0.1735909,-0.1,0.13,-0.8,0
7097,35045017,1,2.29,-2.14,12.2,0.02964961,0.03598093,-0.4005889,0.05996927,0,0,0.1747053,-0.1,0.13,-0.8100000000000001,0
7142,35055312,1,2.29,-2.14,12.21,0.02992082,0.03608739,-0.4006585,0.06908527,0,0,0.170356,-0.1,0.13,-0.8100000000000001,0
7183,35065879,1,2.29,-2.14,12.22,0.02939821,0.03613022,-0.3991889,0.07027931,0,0,0.1709167,-0.1,0.13,-0.8100000000000001,0
7223,35076360,1,2.29,-2.14,12.23,0.02781177,0.03582548,-0.3964113,0.07270279,0,0,0.1717203,-0.1,0.13,-0.8100000000000001,0
7265,35086875,1,2.3,-2.14,12.24,0.02863847,0.03672096,-0.3952836,0.07053943999999999,0,0,0.172305,-0.11,0.13,-0.8100000000000001,0
7299,35097128,1,2.3,-2.14,12.25,0.02861251,0.03582774,-0.394758,0.06480371,0,0,0.1738309,-0.1,0.13,-0.8100000000000001,0
7340,35107117,1,2.3,-2.15,12.26,0.02827311,0.03552543,-0.3940258,0.05867934,0,0,0.1755154,-0.1,0.13,-0.8100000000000001,0
7381,35117876,1,2.3,-2.15,12.27,0.02807274,0.03581816,-0.3942399,0.06078605,0,0,0.1715718,-0.1,0.13,-0.8100000000000001,0
7424,35128228,1,2.3,-2.14,12.27,0.02734948,0.03514499,-0.3923604,0.0608069,0,0,0.172658,-0.1,0.13,-0.8100000000000001,0
7465,35138913,1,2.3,-2.14,12.28,0.0268801,0.03538251,-0.3906244,0.05897614,0,0,0.1738811,-0.1,0.13,-0.8100000000000001,0
7508,35148823,1,2.29,-2.14,12.28,0.02734464,0.03449255,-0.3894739,0.05379213,0,0,0.1749404,-0.1,0.13,-0.8100000000000001,0
7555,35158922,1,2.29,-2.14,12.29,0.02785543,0.03382975,-0.388198,0.04846582,0,0,0.1758478,-0.1,0.13,-0.8100000000000001,0
7595,35169339,1,2.28,-2.14,12.3,0.02791521,0.03360065,-0.3877232,0.04699074,0,0,0.1715305,-0.1,0.13,-0.8100000000000001,0
7636,35179561,1,2.28,-2.14,12.31,0.02881917,0.03320045,-0.3839282,0.04322641,0,0,0.17226,-0.1,0.13,-0.8100000000000001,0
7678,35189901,1,2.28,-2.14,12.31,0.02811951,0.03334264,-0.3813907,0.03788459,0,0,0.1728137,-0.1,0.13,-0.8100000000000001,0
7712,35200343,1,2.28,-2.14,12.32,0.02766934,0.03463687,-0.3795177,0.02978004,0,0,0.1733656,-0.1,0.13,-0.8100000000000001,0
7753,35210496,1,2.28,-2.14,12.33,0.02804765,0.033476,-0.381139,0.01881768,0,0,0.1695591,-0.1,0.13,-0.8100000000000001,0
7793,35220297,1,2.28,-2.14,12.34,0.02786334,0.033802,-0.3777589,0.01159922,0,0,0.1703368,-0.1,0.13,-0.8,0
7834,35230881,1,2.28,-2.13,12.35,0.02741856,0.03332034,-0.3762174,0.004236016,0,0,0.1709623,-0.1,0.13,-0.8100000000000001,0
7874,35241146,1,2.29,-2.14,12.35,0.02713881,0.03396719,-0.3748831,-0.01052713,0,0,0.1710296,-0.1,0.13,-0.8,0
7916,35251631,1,2.28,-2.14,12.36,0.02720208,0.03421471,-0.3736386,-0.01708474,0,0,0.1672797,-0.1,0.13,-0.8,0
7961,35261564,1,2.28,-2.14,12.37,0.02809114,0.03343646,-0.3725224,-0.03819531,0,0,0.1676117,-0.1,0.13,-0.79,0
8002,35272045,1,2.29,-2.13,12.38,0.02820103,0.03400641,-0.3730113,-0.05225733,0,0,0.1635504,-0.1,0.13,-0.79,0
8043,35281904,1,2.29,-2.13,12.39,0.02774535,0.03341675,-0.3720649,-0.06721754000000001,0,0,0.1637349,-0.1,0.13,-0.79,0
8087,35294697,1,2.29,-2.13,12.4,0.0278376,0.03370039,-0.3701008,-0.07846966,0,0,0.1630335,-0.1,0.13,-0.79,0
8128,35304400,1,2.29,-2.13,12.4,0.02820614,0.03397953,-0.368477,-0.08717276,0,0,0.1629238,-0.1,0.13,-0.79,0
8171,35315373,1,2.29,-2.12,12.41,0.02943466,0.03467904,-0.3663509,-0.09385004,0,0,0.1588576,-0.1,0.13,-0.79,0
8208,35326103,1,2.29,-2.12,12.42,0.02882745,0.03374041,-0.3641289,-0.0970173,0,0,0.1597976,-0.1,0.13,-0.79,0
8251,35336328,1,2.29,-2.12,12.43,0.02889638,0.03338127,-0.3639312,-0.09810338,0,0,0.1608418,-0.1,0.13,-0.79,0
8293,35346333,1,2.29,-2.12,12.43,0.02895679,0.03293335,-0.3613852,-0.09567662,0,0,0.1616638,-0.1,0.13,-0.79,0
8333,35356265,1,2.3,-2.12,12.44,0.02894499,0.03222849,-0.360755,-0.09319852000000001,0,0,0.1623835,-0.1,0.13,-0.8,0
8380,35366898,1,2.3,-2.12,12.45,0.02929377,0.03288164,-0.3604484,-0.08444029,0,0,0.1584171,-0.1,0.13,-0.8,0
8420,35377841,1,2.3,-2.12,12.45,0.02878952,0.03273441,-0.3594277,-0.07993801,0,0,0.1589216,-0.1,0.13,-0.8,0
8462,35387438,1,2.3,-2.12,12.46,0.0275416,0.03190139,-0.3559849,-0.07293432,0,0,0.1593312,-0.1,0.13,-0.8,0
8502,35397425,1,2.3,-2.12,12.47,0.02585193,0.03269322,-0.3549503,-0.07464903000000001,0,0,0.1595457,-0.1,0.13,-0.79,0
8546,35413612,1,2.3,-2.13,12.48,0.02504172,0.03303392,-0.3548383,-0.07177635,0,0,0.1585629,-0.1,0.13,-0.8,0
8588,35423588,1,2.3,-2.13,12.5,0.02518547,0.03263171,-0.3527254,-0.06574101,0,0,0.1594877,-0.1,0.13,-0.78,0
8628,35433683,1,2.3,-2.13,12.5,0.02547587,0.032068,-0.3501393,-0.05871932,0,0,0.1602453,-0.1,0.13,-0.78,0
8669,35443838,1,2.3,-2.12,12.5,0.02548592,0.03188501,-0.3489923,-0.04781678,0,0,0.1564346,-0.1,0.13,-0.78,0
8709,35454482,1,2.3,-2.12,12.5,0.02584496,0.03279036,-0.3480318,-0.04286402,0,0,0.1570369,-0.1,0.13,-0.78,0
8755,35465133,1,2.3,-2.12,12.51,0.02640104,0.03389896,-0.346056,-0.04209727,0,0,0.1571693,-0.1,0.13,-0.78,0
8795,35475836,1,2.3,-2.12,12.51,0.02668685,0.03348927,-0.3456093,-0.04377773,0,0,0.1537199,-0.1,0.13,-0.78,0
8836,35486345,1,2.31,-2.12,12.52,0.02671525,0.03397077,-0.3432778,-0.0470256,0,0,0.1537353,-0.1,0.13,-0.78,0
8878,35496736,1,2.31,-2.12,12.52,0.02588496,0.03374989,-0.3413225,-0.04887025,0,0,0.1539309,-0.1,0.13,-0.78,0
8918,35506379,1,2.3,-2.12,12.52,0.02606677,0.03382781,-0.3389933,-0.05164576,0,0,0.153976,-0.1,0.13,-0.78,0
8962,35519203,1,2.3,-2.12,12.53,0.02540993,0.03438456,-0.3364699,-0.0509982,0,0,0.1544767,-0.1,0.13,-0.78,0
9002,35529013,1,2.3,-2.12,12.53,0.02502867,0.03320315,-0.3361007,-0.0513688,0,0,0.1558094,-0.1,0.13,-0.77,0
9048,35539848,1,2.3,-2.12,12.53,0.02408773,0.03417631,-0.3347242,-0.04180156,0,0,0.1524634,-0.1,0.13,-0.77,0
9088,35549912,1,2.3,-2.12,12.53,0.02351719,0.03540367,-0.3332453,-0.03474976,0,0,0.1535814,-0.1,0.13,-0.77,0
9129,35560236,1,2.3,-2.12,12.54,0.02390978,0.03564641,-0.3280178,-0.02817744,0,0,0.1542183,-0.1,0.13,-0.77,0
9174,35570417,1,2.3,-2.12,12.55,0.02410048,0.03704369,-0.3291187,-0.02848692,0,0,0.1509238,-0.1,0.13,-0.77,0
9214,35580272,1,2.3,-2.12,12.55,0.02300945,0.03528226,-0.3293693,-0.02764568,0,0,0.1517704,-0.1,0.13,-0.77,0
9256,35590236,1,2.3,-2.12,12.55,0.02281001,0.03515251,-0.32742,-0.02129373,0,0,0.152434,-0.1,0.13,-0.78,0
9296,35600281,1,2.3,-2.11,12.56,0.02226484,0.03475852,-0.3253077,-0.01774899,0,0,0.1529369,-0.1,0.13,-0.78,0
9340,35615928,1,2.3,-2.12,12.57,0.02051991,0.03561862,-0.3240773,-0.01579657,0,0,0.1528499,-0.1,0.12,-0.77,0
9381,35626047,1,2.3,-2.12,12.57,0.02118666,0.03463702,-0.322984,-0.01785013,0,0,0.149622,-0.1,0.12,-0.77,0
9421,35636040,1,2.3,-2.11,12.58,0.02061112,0.03379533,-0.3210258,-0.02110731,0,0,0.1513781,-0.1,0.12,-0.75,0
9462,35646001,1,2.3,-2.11,12.58,0.0206751,0.03402808,-0.3204763,-0.02080791,0,0,0.1529041,-0.1,0.12,-0.76,0
9503,35656063,1,2.3,-2.11,12.58,0.0205256,0.03391878,-0.3198263,-0.0185121,0,0,0.1497005,-0.1,0.12,-0.76,0
9544,35666288,1,2.3,-2.11,12.58,0.02006597,0.03333728,-0.3184082,-0.01956554,0,0,0.1510912,-0.1,0.12,-0.75,0
9589,35676331,1,2.3,-2.11,12.58,0.0201311,0.03297266,-0.3177605,-0.01470208,0,0,0.1522012,-0.1,0.12,-0.76,0
9629,35686782,1,2.31,-2.11,12.58,0.02041093,0.03273835,-0.3150435,-0.009513697,0,0,0.1531398,-0.1,0.12,-0.76,0
9670,35697467,1,2.31,-2.11,12.58,0.02012346,0.03340497,-0.3145498,-0.006285042,0,0,0.149758,-0.1,0.12,-0.76,0
9711,35707120,1,2.31,-2.11,12.58,0.01967794,0.0338253,-0.3139121,-0.01273567,0,0,0.1506535,-0.1,0.12,-0.75,0
9752,35718156,1,2.31,-2.11,12.59,0.01919662,0.03372031,-0.3148323,-0.02008384,0,0,0.1471781,-0.1,0.12,-0.75,0
9796,35728792,1,2.31,-2.11,12.59,0.01900694,0.03310245,-0.3127757,-0.02448135,0,0,0.1478882,-0.09,0.12,-0.74,0
9833,35739172,1,2.31,-2.1,12.59,0.01991495,0.03219355,-0.3089315,-0.02045037,0,0,0.1499524,-0.09,0.12,-0.74,0
9874,35749327,1,2.31,-2.1,12.6,0.0195921,0.03309373,-0.3082635,-0.01635828,0,0,0.1520698,-0.09,0.12,-0.74,0
9914,35759848,1,2.31,-2.1,12.6,0.01847262,0.03262363,-0.3061157,-0.008282672,0,0,0.1490026,-0.09,0.12,-0.74,0
9955,35770233,1,2.31,-2.1,12.6,0.01851762,0.03171984,-0.3027864,-0.008871729,0,0,0.1506853,-0.09,0.12,-0.73,0
9999,35780299,1,2.31,-2.1,12.61,0.01826714,0.03221837,-0.2999993,-0.007601987,0,0,0.1525058,-0.09,0.12,-0.73,0
10040,35790798,1,2.31,-2.1,12.61,0.01848922,0.03137686,-0.2976829,0.001338718,0,0,0.1540837,-0.09,0.12,-0.74,0
10081,35801006,1,2.31,-2.1,12.61,0.01904857,0.03181469,-0.2973058,0.01474068,0,0,0.1507998,-0.09,0.12,-0.74,0
10122,35811172,1,2.31,-2.1,12.61,0.01958835,0.03254838,-0.2963133,0.02408239,0,0,0.1522025,-0.09,0.12,-0.74,0
10162,35820801,1,2.32,-2.09,12.61,0.01925822,0.0326452,-0.2929944,0.02906277,0,0,0.1534479,-0.09,0.12,-0.73,0
10202,35831827,1,2.32,-2.09,12.62,0.01954996,0.03345598,-0.2929261,0.02982751,0,0,0.1505068,-0.09,0.12,-0.73,0
10242,35842425,1,2.32,-2.09,12.61,0.01945348,0.03395874,-0.2915663,0.03157857,0,0,0.1519617,-0.09,0.12,-0.73,0
10283,35852474,1,2.32,-2.09,12.62,0.0200618,0.03414912,-0.2899273,0.03384726,0,0,0.1534705,-0.09,0.12,-0.73,0
10324,35862443,1,2.32,-2.09,12.62,0.02086634,0.03362104,-0.2860446,0.03316205,0,0,0.1548571,-0.09,0.12,-0.73,0
10365,35872915,1,2.31,-2.09,12.62,0.01984549,0.03502436,-0.2833966,0.03662512,0,0,0.1557542,-0.09,0.12,-0.73,0
10409,35883516,1,2.32,-2.09,12.63,0.01909327,0.03463977,-0.2829827,0.04161182,0,0,0.152938,-0.09,0.12,-0.73,0
10450,35893299,1,2.32,-2.09,12.63,0.01936009,0.03461345,-0.2798361,0.04532838,0,0,0.1539777,-0.09,0.12,-0.73,0
10490,35903904,1,2.32,-2.09,12.63,0.01889293,0.03441193,-0.2775363,0.04290017,0,0,0.1545797,-0.09,0.12,-0.73,0
10531,35914511,1,2.31,-2.08,12.63,0.01901187,0.03522713,-0.2763955,0.03871709,0,0,0.1518185,-0.09,0.12,-0.73,0
10570,35925095,1,2.32,-2.08,12.63,0.01934838,0.03569549,-0.2735461,0.0297597,0,0,0.1523163,-0.09,0.12,-0.72,0
10612,35935405,1,2.32,-2.08,12.64,0.01954326,0.03532278,-0.2697882,0.03231226,0,0,0.1553118,-0.09,0.12,-0.73,0
10652,35945378,1,2.31,-2.08,12.64,0.01927883,0.03630069,-0.2658261,0.03846235,0,0,0.1580436,-0.09,0.12,-0.72,0
10679,35975435,1,2.31,-2.08,12.65,0.01813187,0.0355256,-0.2637193,0.07136706,0,0,0.1601949,-0.09,0.12,-0.72,0
10723,35985421,1,2.31,-2.08,12.66,0.01762651,0.03521643,-0.2619897,0.08279791,0,0,0.1622565,-0.09,0.12,-0.73,0
10764,35995406,1,2.31,-2.08,12.66,0.0174642,0.03532644,-0.2604415,0.09018302,0,0,0.1641101,-0.09,0.12,-0.73,0
10804,36005401,1,2.31,-2.08,12.67,0.016812,0.03537292,-0.2587053,0.09622741999999999,0,0,0.16576,-0.09,0.12,-0.73,0
10848,36021148,1,2.31,-2.08,12.68,0.01655171,0.033925,-0.257134,0.1078531,0,0,0.1669309,-0.09,0.12,-0.73,0
10891,36031138,1,2.31,-2.08,12.69,0.01653204,0.03411747,-0.2560155,0.1181086,0,0,0.1693843,-0.09,0.12,-0.74,0
10932,36041103,1,2.31,-2.08,12.69,0.0174988,0.0344553,-0.2563253,0.1244122,0,0,0.1668423,-0.09,0.12,-0.74,0
10973,36051470,1,2.31,-2.08,12.7,0.01858929,0.03416353,-0.2559713,0.127693,0,0,0.1691034,-0.09,0.12,-0.73,0
11013,36061439,1,2.31,-2.08,12.7,0.01874006,0.03359161,-0.255376,0.1203232,0,0,0.1711812,-0.09,0.12,-0.73,0
11056,36071467,1,2.31,-2.07,12.71,0.01776387,0.03409474,-0.2553539,0.1204289,0,0,0.168612,-0.09,0.12,-0.73,0
11100,36081641,1,2.31,-2.07,12.71,0.01758873,0.03304996,-0.2528421,0.120301,0,0,0.1705136,-0.09,0.12,-0.73,0
11141,36091440,1,2.31,-2.07,12.72,0.017851,0.03147296,-0.250707,0.1198793,0,0,0.1721841,-0.09,0.12,-0.73,0
11181,36101885,1,2.31,-2.07,12.73,0.01779936,0.03104214,-0.2493886,0.1201537,0,0,0.1734228,-0.09,0.12,-0.74,0
11222,36111885,1,2.31,-2.07,12.73,0.01729099,0.03142668,-0.2472057,0.1193912,0,0,0.1747657,-0.09,0.12,-0.74,0
11267,36125239,1,2.31,-2.08,12.74,0.01754497,0.0328075,-0.2462653,0.1169396,0,0,0.1771902,-0.09,0.12,-0.74,0
11309,36135776,1,2.31,-2.07,12.75,0.0171716,0.03236477,-0.2467624,0.1164076,0,0,0.1747013,-0.09,0.12,-0.74,0
11350,36146681,1,2.31,-2.07,12.75,0.01635577,0.03272664,-0.2439382,0.1175316,0,0,0.1774427,-0.09,0.12,-0.74,0
11391,36156363,1,2.31,-2.08,12.76,0.01652642,0.03237819,-0.2416557,0.1219365,0,0,0.1801811,-0.09,0.12,-0.74,0
11432,36166276,1,2.31,-2.08,12.78,0.01683191,0.0330085,-0.239539,0.1249848,0,0,0.1827061,-0.09,0.12,-0.74,0
11476,36176327,1,2.31,-2.08,12.78,0.01741091,0.03335947,-0.2385724,0.1292481,0,0,0.1803126,-0.09,0.12,-0.74,0
11520,36186312,1,2.31,-2.08,12.78,0.01698365,0.03316623,-0.2357044,0.1324629,0,0,0.1826663,-0.09,0.12,-0.74,0
11561,36196916,1,2.31,-2.07,12.79,0.01640087,0.03313892,-0.2322617,0.1364793,0,0,0.1848238,-0.09,0.12,-0.74,0
11601,36206702,1,2.31,-2.07,12.8,0.01579013,0.03249108,-0.2301615,0.1365036,0,0,0.1867906,-0.09,0.12,-0.74,0
11642,36216899,1,2.3,-2.07,12.81,0.0154638,0.03212107,-0.2301619,0.1352181,0,0,0.1844761,-0.09,0.12,-0.74,0
11679,36227310,1,2.3,-2.07,12.81,0.01522003,0.03233465,-0.2296102,0.130967,0,0,0.1860526,-0.09,0.12,-0.74,0
11720,36237494,1,2.29,-2.07,12.82,0.01513342,0.03279126,-0.2276009,0.1344675,0,0,0.1892293,-0.09,0.12,-0.74,0
11761,36248126,1,2.29,-2.07,12.82,0.01435536,0.0338855,-0.2247205,0.13568,0,0,0.1919922,-0.09,0.12,-0.72,0
11802,36258906,1,2.29,-2.07,12.82,0.01415889,0.03405087,-0.2241685,0.1359419,0,0,0.1897577,-0.09,0.12,-0.72,0
11843,36268692,1,2.29,-2.07,12.83,0.01369415,0.0343735,-0.2246344,0.130503,0,0,0.1925833,-0.09,0.12,-0.72,0
11884,36278690,1,2.29,-2.07,12.83,0.01370658,0.03439931,-0.2220405,0.1290639,0,0,0.1951568,-0.09,0.12,-0.72,0
11930,36288693,1,2.29,-2.07,12.84,0.01381337,0.03337871,-0.2211953,0.1294729,0,0,0.192937,-0.09,0.12,-0.72,0
11970,36299310,1,2.29,-2.07,12.84,0.01351784,0.03242248,-0.2184194,0.1299824,0,0,0.1951402,-0.09,0.12,-0.72,0
12011,36309848,1,2.29,-2.07,12.84,0.01320535,0.033204,-0.2186395,0.1309687,0,0,0.1973295,-0.09,0.12,-0.72,0
12052,36319823,1,2.29,-2.06,12.85,0.01298406,0.03348997,-0.2181258,0.1239193,0,0,0.1951536,-0.09,0.12,-0.72,0
12092,36332540,1,2.29,-2.06,12.85,0.01247223,0.03331193,-0.2169635,0.1145298,0,0,0.1965581,-0.09,0.12,-0.72,0
12132,36343132,1,2.29,-2.06,12.86,0.01219707,0.03388267,-0.2161165,0.1123576,0,0,0.1992723,-0.09,0.12,-0.72,0
12173,36353131,1,2.29,-2.06,12.86,0.01198919,0.03413256,-0.2150557,0.1032503,0,0,0.1971151,-0.09,0.12,-0.72,0
12214,36363655,1,2.3,-2.06,12.86,0.01110514,0.03459624,-0.2126393,0.09853273,0,0,0.1998701,-0.09,0.12,-0.7,0
12255,36373480,1,2.3,-2.06,12.87,0.009347729000000001,0.03400215,-0.2115629,0.08651678,0,0,0.2024702,-0.09,0.12,-0.7,0
12296,36383682,1,2.3,-2.05,12.87,0.009510629,0.03347642,-0.2124147,0.08470206,0,0,0.2003735,-0.09,0.12,-0.7,0
12343,36393625,1,2.3,-2.06,12.87,0.008251992,0.03325928,-0.2121928,0.08362184,0,0,0.2027366,-0.09,0.12,-0.7,0
12383,36404023,1,2.3,-2.06,12.87,0.008416366999999999,0.03372416,-0.2088485,0.08789738,0,0,0.2048774,-0.09,0.12,-0.7,0
12424,36414404,1,2.3,-2.06,12.87,0.008545489999999999,0.03404008,-0.2077732,0.09349734,0,0,0.2066368,-0.09,0.12,-0.71,0
12465,36424404,1,2.3,-2.06,12.88,0.006959436,0.03243773,-0.2042898,0.09806896,0,0,0.2083799,-0.09,0.12,-0.71,0
12506,36437773,1,2.31,-2.06,12.88,0.006099493,0.03329136,-0.201185,0.103229,0,0,0.2113489,-0.09,0.12,-0.71,0
12546,36447285,1,2.31,-2.06,12.88,0.005869832,0.0335045,-0.1986096,0.1107451,0,0,0.2146495,-0.09,0.12,-0.7,0
12586,36458317,1,2.31,-2.06,12.89,0.004853048,0.03287402,-0.1948578,0.1275726,0,0,0.2175203,-0.09,0.12,-0.71,0
12626,36468886,1,2.3,-2.05,12.88,0.003519011,0.03250237,-0.1942709,0.1442996,0,0,0.2155493,-0.09,0.12,-0.71,0
12667,36478988,1,2.31,-2.05,12.88,0.003738528,0.03324026,-0.1920418,0.1564688,0,0,0.2185863,-0.09,0.12,-0.71,0
12713,36489083,1,2.31,-2.05,12.88,0.004425711,0.03267412,-0.1882139,0.1691208,0,0,0.2209482,-0.09,0.12,-0.71,0
12754,36499740,1,2.31,-2.05,12.89,0.005000745,0.03228746,-0.1892737,0.1685654,0,0,0.2190705,-0.09,0.12,-0.71,0
12794,36510148,1,2.31,-2.04,12.89,0.003922591,0.03253821,-0.1882085,0.1674501,0,0,0.2214098,-0.09,0.12,-0.7,0
12837,36520667,1,2.31,-2.04,12.89,0.003044261,0.03268409,-0.1859665,0.1667171,0,0,0.2237111,-0.09,0.12,-0.7,0
12880,36531121,1,2.32,-2.04,12.89,0.002012321,0.0327341,-0.1834744,0.1591934,0,0,0.2256817,-0.09,0.12,-0.7,0
12920,36541564,1,2.32,-2.04,12.89,0.002235779,0.03233315,-0.1840635,0.1551109,0,0,0.2238261,-0.09,0.12,-0.7,0
12961,36552051,1,2.32,-2.04,12.89,0.001510535,0.03182983,-0.1824644,0.1553955,0,0,0.2272326,-0.09,0.12,-0.7,0
13001,36562044,1,2.32,-2.04,12.89,0.0002323503,0.03197759,-0.1789559,0.16006,0,0,0.2305583,-0.09,0.12,-0.7,0
13042,36571814,1,2.32,-2.04,12.9,-0.0001385397,0.03271172,-0.177964,0.1642261,0,0,0.2336405,-0.09,0.12,-0.7,0
13083,36581830,1,2.32,-2.04,12.9,-3.831093e-05,0.03297402,-0.1773011,0.1663548,0,0,0.2364978,-0.09,0.12,-0.7,0
13128,36592279,1,2.32,-2.05,12.9,-0.0003232547,0.03234347,-0.1773219,0.1738666,0,0,0.234719,-0.09,0.12,-0.7,0
13169,36602848,1,2.32,-2.05,12.9,0.0001185531,0.03227926,-0.1753619,0.1789467,0,0,0.2373695,-0.09,0.12,-0.7,0
13210,36613213,1,2.32,-2.04,12.9,-0.0004012065,0.03157551,-0.1728156,0.1824011,0,0,0.2396526,-0.09,0.12,-0.7,0
13250,36623225,1,2.32,-2.04,12.9,-0.0002474386,0.03197098,-0.1694301,0.1884957,0,0,0.2419116,-0.09,0.12,-0.7,0
13291,36636117,1,2.32,-2.04,12.9,-0.001349195,0.03349094,-0.1680749,0.1877784,0,0,0.2452706,-0.09,0.12,-0.6899999999999999,0
13329,36646363,1,2.32,-2.04,12.9,-0.001193632,0.033969,-0.1651931,0.1945502,0,0,0.2488722,-0.09,0.12,-0.7,0
13370,36656412,1,2.32,-2.04,12.9,-0.001284758,0.03543731,-0.1622566,0.2023601,0,0,0.2522289,-0.09,0.12,-0.7,0
13411,36666374,1,2.32,-2.04,12.89,-0.001085737,0.03612777,-0.1609492,0.2144796,0,0,0.2506274,-0.09,0.12,-0.7,0
13451,36677055,1,2.31,-2.04,12.89,-0.001593695,0.0365081,-0.1600067,0.2218416,0,0,0.2536287,-0.09,0.12,-0.7,0
13492,36687810,1,2.31,-2.04,12.9,-0.0008415954999999999,0.03502642,-0.1569614,0.23091,0,0,0.2565652,-0.09,0.12,-0.7,0
13538,36697362,1,2.31,-2.04,12.9,-0.001215376,0.03403971,-0.154648,0.2365787,0,0,0.2593095,-0.09,0.12,-0.7,0
13579,36707389,1,2.32,-2.04,12.9,-0.0009115108,0.03367653,-0.1527587,0.236905,0,0,0.2618741,-0.09,0.12,-0.7,0
13620,36717572,1,2.31,-2.04,12.9,-0.002162187,0.0333235,-0.1520829,0.2339897,0,0,0.2642116,-0.09,0.12,-0.7,0
13662,36727379,1,2.32,-2.04,12.9,-0.002416274,0.03306938,-0.1518182,0.2334683,0,0,0.2627038,-0.09,0.12,-0.7,0
13703,36741312,1,2.32,-2.04,12.9,-0.00266762,0.03281648,-0.1473608,0.2327553,0,0,0.2706919,-0.09,0.12,-0.7,0
13744,36752086,1,2.32,-2.04,12.9,-0.002934147,0.03419399,-0.1464251,0.2388194,0,0,0.2690641,-0.09,0.12,-0.7,0
13784,36762190,1,2.32,-2.04,12.9,-0.002498628,0.03281159,-0.1445182,0.2424391,0,0,0.2723034,-0.09,0.12,-0.7,0
13826,36772857,1,2.32,-2.04,12.9,-0.002713855,0.03262371,-0.1448009,0.2444149,0,0,0.2753191,-0.09,0.12,-0.7,0
13866,36783174,1,2.32,-2.04,12.9,-0.001438616,0.03189344,-0.1436131,0.2348136,0,0,0.2779978,-0.09,0.12,-0.6899999999999999,0
13907,36793657,1,2.32,-2.04,12.9,-0.0003642032,0.03179112,-0.1446199,0.2297419,0,0,0.2765566,-0.09,0.12,-0.6899999999999999,0
13951,36803676,1,2.32,-2.04,12.9,-6.855786e-06,0.03118198,-0.1421479,0.2253355,0,0,0.2791825,-0.09,0.12,-0.6899999999999999,0
13993,36813702,1,2.32,-2.04,12.91,-0.0006310162,0.03172456,-0.1417475,0.221964,0,0,0.2816288,-0.09,0.12,-0.7,0
14034,36823919,1,2.32,-2.05,12.91,-0.0009183433,0.03243249,-0.1392153,0.214549,0,0,0.283751,-0.09,0.12,-0.7,0
14075,36834779,1,2.32,-2.05,12.91,-0.0004467162,0.03268899,-0.1357457,0.2065985,0,0,0.2858889,-0.09,0.12,-0.7,0
14120,36850493,1,2.32,-2.05,12.91,-0.001411722,0.03258543,-0.1333247,0.203095,0,0,0.2883731,-0.09,0.12,-0.6899999999999999,0
14161,36860771,1,2.32,-2.05,12.91,-0.001630585,0.03424029,-0.130386,0.2002859,0,0,0.2914541,-0.09,0.12,-0.6899999999999999,0
14202,36870856,1,2.32,-2.05,12.91,-0.002076739,0.03373484,-0.1275001,0.2030142,0,0,0.2943444,-0.09,0.12,-0.7,0
14243,36880849,1,2.32,-2.05,12.91,-0.002048126,0.03441902,-0.1246226,0.2051928,0,0,0.2970493,-0.09,0.12,-0.7,0
14285,36890902,1,2.32,-2.05,12.91,-0.001446809,0.03538435,-0.1235756,0.2090649,0,0,0.2956971,-0.09,0.12,-0.7,0
14329,36901046,1,2.32,-2.05,12.91,-0.0002978069,0.03382215,-0.1197719,0.2119135,0,0,0.2982676,-0.09,0.12,-0.7,0
14370,36911854,1,2.32,-2.05,12.91,-0.0003184044,0.03332657,-0.1155344,0.2149963,0,0,0.3006889,-0.09,0.12,-0.7,0
14411,36922142,1,2.32,-2.05,12.91,-0.001261288,0.03311683,-0.1144913,0.2083913,0,0,0.3028585,-0.09,0.12,-0.7,0
14454,36932163,1,2.32,-2.05,12.91,-0.00224009,0.03270096,-0.1138406,0.2008591,0,0,0.3017181,-0.09,0.12,-0.7,0
14492,36942637,1,2.33,-2.06,12.92,-0.003028112,0.03155377,-0.1126273,0.1919258,0,0,0.3038841,-0.09,0.12,-0.6899999999999999,0
14530,36952893,1,2.33,-2.05,12.92,-0.003789563,0.03237372,-0.1109824,0.1855536,0,0,0.3066413,-0.09,0.12,-0.6899999999999999,0
14571,36962904,1,2.33,-2.05,12.92,-0.00390542,0.03257701,-0.1073589,0.1814892,0,0,0.3092195,-0.09,0.12,-0.6899999999999999,0
14611,36973219,1,2.33,-2.05,12.92,-0.00377082,0.03200414,-0.1057603,0.175875,0,0,0.311556,-0.09,0.12,-0.6899999999999999,0
14652,36983885,1,2.33,-2.05,12.92,-0.003155459,0.03207349,-0.105799,0.1736787,0,0,0.3104944,-0.09,0.12,-0.6899999999999999,0
14692,36993890,1,2.33,-2.05,12.92,-0.003487662,0.03130959,-0.1046831,0.1703816,0,0,0.3127933,-0.09,0.12,-0.6899999999999999,0
14737,37004054,1,2.33,-2.05,12.93,-0.004666673,0.03302363,-0.1045695,0.159729,0,0,0.3117319,-0.09,0.12,-0.6899999999999999,0
14780,37014442,1,2.33,-2.05,12.93,-0.004466435,0.03223021,-0.1032576,0.1487803,0,0,0.3138343,-0.08,0.12,-0.68,0
14822,37024467,1,2.33,-2.04,12.93,-0.005733256,0.03248069,-0.1025286,0.137022,0,0,0.3158938,-0.08,0.12,-0.68,0
14863,37034441,1,2.32,-2.05,12.93,-0.006510356,0.03164929,-0.1011213,0.1312579,0,0,0.317798,-0.08,0.12,-0.68,0
14903,37044467,1,2.32,-2.05,12.93,-0.006539633,0.03114156,-0.09951714,0.1265261,0,0,0.3195547,-0.09,0.12,-0.68,0
14941,37054657,1,2.32,-2.05,12.94,-0.006168569,0.02981637,-0.1008856,0.1226064,0,0,0.3185549,-0.09,0.12,-0.68,0
14979,37065105,1,2.32,-2.06,12.94,-0.006834948,0.02967421,-0.1004252,0.1201385,0,0,0.3208635,-0.08,0.12,-0.67,0
15020,37075107,1,2.32,-2.06,12.93,-0.007147587,0.03074172,-0.09888332,0.1134138,0,0,0.3198717,-0.08,0.12,-0.67,0
15061,37085125,1,2.32,-2.06,12.93,-0.007040922,0.03179988,-0.09628428,0.1095467,0,0,0.3222199,-0.08,0.12,-0.67,0
15101,37095163,1,2.32,-2.06,12.93,-0.007431263,0.03243586,-0.09556240000000001,0.09963925999999999,0,0,0.3244439,-0.08,0.12,-0.66,0
15146,37105860,1,2.33,-2.06,12.93,-0.007401011,0.03100176,-0.09640604,0.09617582,0,0,0.3234841,-0.08,0.12,-0.66,0
15192,37118647,1,2.33,-2.05,12.94,-0.006959583,0.03251043,-0.09262908,0.09525156999999999,0,0,0.3281106,-0.08,0.12,-0.67,0
15234,37129113,1,2.33,-2.05,12.94,-0.006419471,0.03234003,-0.0907369,0.09976949,0,0,0.3271112,-0.08,0.12,-0.67,0
15274,37139173,1,2.32,-2.05,12.94,-0.006940879,0.03191709,-0.08872697,0.1025787,0,0,0.3289259,-0.08,0.12,-0.67,0
15315,37149888,1,2.32,-2.05,12.94,-0.007947724999999999,0.03149733,-0.08746179,0.105181,0,0,0.3306018,-0.08,0.12,-0.67,0
15351,37160701,1,2.32,-2.04,12.94,-0.007172629,0.03118434,-0.08688977000000001,0.1071699,0,0,0.3330538,-0.08,0.12,-0.67,0
15391,37170393,1,2.31,-2.05,12.94,-0.006694258,0.03065799,-0.08637866,0.105924,0,0,0.3354388,-0.08,0.12,-0.67,0
15433,37180806,1,2.31,-2.04,12.95,-0.00705018,0.0300347,-0.08538593999999999,0.1112587,0,0,0.3345884,-0.08,0.12,-0.67,0
15473,37190885,1,2.31,-2.04,12.94,-0.008430824999999999,0.02997296,-0.0835274,0.1133171,0,0,0.336872,-0.08,0.12,-0.66,0
15514,37200868,1,2.31,-2.04,12.95,-0.007700345,0.03024656,-0.08336515999999999,0.1135598,0,0,0.3389935,-0.08,0.12,-0.66,0
15559,37210879,1,2.31,-2.04,12.95,-0.008617366,0.03034892,-0.08182586999999999,0.1182987,0,0,0.3409609,-0.08,0.12,-0.67,0
15600,37220903,1,2.31,-2.04,12.95,-0.01018436,0.03044269,-0.07944263,0.1229438,0,0,0.3427861,-0.08,0.12,-0.67,0
15643,37230821,1,2.31,-2.04,12.95,-0.01130474,0.02958616,-0.07828771,0.1283743,0,0,0.3419972,-0.08,0.12,-0.67,0
15683,37240880,1,2.31,-2.04,12.95,-0.01214499,0.03072486,-0.07671797,0.1308119,0,0,0.3437321,-0.08,0.12,-0.67,0
15724,37250817,1,2.31,-2.05,12.96,-0.01159185,0.03125218,-0.07444597999999999,0.1326456,0,0,0.3453363,-0.08,0.12,-0.67,0
15758,37261419,1,2.31,-2.05,12.96,-0.01205563,0.03125874,-0.07315262,0.1349005,0,0,0.347568,-0.08,0.12,-0.66,0
15799,37271348,1,2.31,-2.04,12.96,-0.01163621,0.03096433,-0.07113706,0.1368582,0,0,0.3497352,-0.08,0.12,-0.66,0
15841,37281428,1,2.31,-2.04,12.96,-0.01167505,0.03028399,-0.07202195,0.1360883,0,0,0.3517518,-0.08,0.12,-0.66,0
15881,37291321,1,2.31,-2.04,12.97,-0.0114248,0.03002185,-0.06995121,0.1413628,0,0,0.3510449,-0.08,0.12,-0.66,0
15922,37301396,1,2.31,-2.04,12.96,-0.01093418,0.02942781,-0.06795343,0.1437497,0,0,0.3529616,-0.08,0.12,-0.66,0
15966,37311358,1,2.31,-2.04,12.96,-0.01197024,0.02989583,-0.06804880000000001,0.1432959,0,0,0.3547433,-0.08,0.12,-0.66,0
16009,37321621,1,2.31,-2.04,12.96,-0.01201786,0.02893762,-0.06446747,0.1442725,0,0,0.3564209,-0.08,0.12,-0.66,0
16050,37331409,1,2.31,-2.04,12.96,-0.01250232,0.02884117,-0.06366947000000001,0.1418052,0,0,0.3579901,-0.08,0.12,-0.67,0
16092,37341410,1,2.31,-2.04,12.96,-0.01302472,0.02894844,-0.06629866,0.1378588,0,0,0.35734,-0.08,0.12,-0.67,0
16135,37354269,1,2.31,-2.04,12.96,-0.01315038,0.02969501,-0.0641842,0.139297,0,0,0.3598925,-0.08,0.12,-0.67,0
16176,37363919,1,2.31,-2.04,12.96,-0.01336625,0.02918056,-0.06343198999999999,0.1430353,0,0,0.362531,-0.08,0.12,-0.66,0
16217,37374681,1,2.31,-2.04,12.96,-0.01348833,0.0292695,-0.06348637,0.1483663,0,0,0.3648857,-0.08,0.12,-0.66,0
16257,37384459,1,2.31,-2.04,12.96,-0.01324849,0.02847368,-0.0629851,0.1530753,0,0,0.3671432,-0.08,0.12,-0.66,0
16298,37394386,1,2.31,-2.04,12.96,-0.01251407,0.02871646,-0.06154782,0.1537368,0,0,0.3692809,-0.08,0.12,-0.66,0
16338,37404978,1,2.32,-2.04,12.96,-0.01203169,0.03003074,-0.06386968,0.1541011,0,0,0.3686588,-0.08,0.12,-0.66,0
16385,37414884,1,2.31,-2.03,12.96,-0.01221567,0.0294911,-0.06302364000000001,0.1550528,0,0,0.370648,-0.08,0.12,-0.66,0
16425,37425067,1,2.32,-2.03,12.96,-0.01192614,0.02885175,-0.06263284,0.1566838,0,0,0.3725016,-0.08,0.12,-0.67,0
16466,37435347,1,2.32,-2.04,12.97,-0.01203529,0.02961146,-0.06127795,0.1589001,0,0,0.3741449,-0.08,0.12,-0.67,0
16509,37445486,1,2.32,-2.04,12.97,-0.01083908,0.02885836,-0.05881267,0.1601499,0,0,0.3757654,-0.08,0.12,-0.67,0
16543,37456071,1,2.32,-2.04,12.97,-0.01084413,0.0293209,-0.05737681,0.1589785,0,0,0.3784188,-0.08,0.12,-0.66,0
16583,37466325,1,2.31,-2.04,12.97,-0.009912172,0.02944973,-0.05610999,0.1583566,0,0,0.3809752,-0.08,0.12,-0.66,0
16624,37477060,1,2.32,-2.04,12.97,-0.01049392,0.0294812,-0.05737453,0.1606511,0,0,0.3804081,-0.08,0.12,-0.66,0
16666,37486819,1,2.32,-2.04,12.97,-0.01049341,0.03120282,-0.05704401,0.1543974,0,0,0.3798338,-0.08,0.12,-0.66,0
16706,37496842,1,2.31,-2.04,12.98,-0.01000126,0.03156355,-0.05643314,0.1499557,0,0,0.3823279,-0.08,0.12,-0.65,0
16747,37507254,1,2.31,-2.04,12.98,-0.009417106,0.03151011,-0.0535189,0.151653,0,0,0.3846242,-0.08,0.12,-0.65,0
16794,37517364,1,2.31,-2.04,12.98,-0.01012214,0.03062882,-0.05252473,0.1526085,0,0,0.3868356,-0.08,0.12,-0.65,0
16837,37527283,1,2.31,-2.04,12.98,-0.009039165,0.0290752,-0.05425421,0.1498186,0,0,0.3889011,-0.08,0.12,-0.65,0
16878,37537294,1,2.31,-2.05,12.98,-0.008864637999999999,0.02944497,-0.05320314,0.1496773,0,0,0.3908306,-0.08,0.12,-0.65,0
16921,37550326,1,2.31,-2.05,12.98,-0.008688885,0.03018053,-0.0516744,0.1505977,0,0,0.3924966,-0.08,0.12,-0.65,0
16965,37563145,1,2.31,-2.05,12.98,-0.009346389,0.02941991,-0.05027441,0.1532192,0,0,0.3943384,-0.08,0.12,-0.66,0
17006,37573139,1,2.31,-2.05,12.98,-0.008110252,0.02980896,-0.04812609,0.1543554,0,0,0.3938452,-0.08,0.12,-0.66,0
17047,37583103,1,2.31,-2.05,12.98,-0.008327536999999999,0.03026212,-0.04777404,0.1530678,0,0,0.3957578,-0.08,0.12,-0.65,0
17089,37593098,1,2.31,-2.05,12.98,-0.009053377,0.03060193,-0.04775907,0.1501531,0,0,0.3975545,-0.08,0.12,-0.65,0
17129,37603137,1,2.31,-2.04,12.98,-0.008926330999999999,0.03060006,-0.04774687,0.1447072,0,0,0.3970867,-0.08,0.12,-0.65,0
17174,37613099,1,2.31,-2.05,12.98,-0.009870725,0.03118773,-0.04628265,0.1409176,0,0,0.3988048,-0.08,0.12,-0.64,0
17214,37623620,1,2.31,-2.04,12.98,-0.01104245,0.0307815,-0.04667974,0.130297,0,0,0.400444,-0.08,0.12,-0.64,0
17255,37633985,1,2.31,-2.04,12.98,-0.01056801,0.03086835,-0.04525739,0.1252737,0,0,0.3999369,-0.08,0.12,-0.64,0
17297,37644930,1,2.3,-2.04,12.98,-0.01095345,0.03158205,-0.044225,0.119885,0,0,0.4014981,-0.08,0.12,-0.64,0
17337,37654856,1,2.3,-2.04,12.99,-0.01140792,0.03202825,-0.04390663,0.1149254,0,0,0.4029482,-0.08,0.12,-0.64,0
17375,37665289,1,2.3,-2.04,12.99,-0.01072736,0.03179377,-0.04255952,0.1112902,0,0,0.4049516,-0.08,0.12,-0.64,0
17415,37675206,1,2.3,-2.04,13,-0.01021867,0.03158165,-0.04385268,0.1071971,0,0,0.404512,-0.08,0.12,-0.64,0
17457,37685806,1,2.3,-2.04,12.99,-0.01014956,0.03178979,-0.04370309,0.105217,0,0,0.4064533,-0.08,0.12,-0.63,0
17497,37696395,1,2.3,-2.03,12.99,-0.01022543,0.03079038,-0.04056289,0.1070099,0,0,0.4082427,-0.08,0.12,-0.63,0
17538,37706447,1,2.3,-2.03,12.99,-0.009678456,0.03069298,-0.03984206,0.1042258,0,0,0.4099799,-0.08,0.12,-0.63,0
17584,37717019,1,2.29,-2.03,12.99,-0.009963919,0.03178347,-0.04007118,0.1041904,0,0,0.4095414,-0.08,0.12,-0.63,0
17626,37727251,1,2.29,-2.02,12.98,-0.009920395,0.03155757,-0.03915134,0.1039893,0,0,0.4111867,-0.08,0.12,-0.62,0
17667,37738040,1,2.3,-2.02,12.99,-0.01011914,0.0312539,-0.03785657,0.1045925,0,0,0.4127249,-0.08,0.12,-0.63,0
17707,37748326,1,2.3,-2.02,12.99,-0.00982294,0.03120307,-0.03767754,0.1026406,0,0,0.4141362,-0.08,0.12,-0.63,0
17748,37758597,1,2.3,-2.02,12.98,-0.01048323,0.03043189,-0.03681938,0.1012976,0,0,0.4154747,-0.08,0.12,-0.63,0
17785,37769770,1,2.3,-2.02,12.99,-0.0109361,0.02969715,-0.03518021,0.1024342,0,0,0.4150805,-0.08,0.12,-0.63,0
17827,37780086,1,2.3,-2.02,12.99,-0.01181432,0.03119305,-0.0342886,0.1019288,0,0,0.4167051,-0.08,0.12,-0.62,0
17870,37790078,1,2.3,-2.02,12.98,-0.01147126,0.03082323,-0.03354235,0.09772319,0,0,0.4163659,-0.08,0.12,-0.62,0
17910,37800532,1,2.3,-2.03,12.98,-0.0126507,0.03037159,-0.02962448,0.09595118,0,0,0.4180091,-0.08,0.12,-0.61,0
17951,37810392,1,2.29,-2.03,12.98,-0.01356728,0.03098144,-0.02918655,0.09212074000000001,0,0,0.419563,-0.08,0.12,-0.61,0
17996,37820502,1,2.29,-2.03,12.98,-0.01335922,0.03045676,-0.02786507,0.09061906,0,0,0.4210148,-0.08,0.12,-0.61,0
18037,37831100,1,2.29,-2.03,12.98,-0.01323807,0.03072253,-0.0262262,0.09222227,0,0,0.4207152,-0.08,0.12,-0.61,0
18078,37841266,1,2.29,-2.03,12.98,-0.01355671,0.03147522,-0.02709167,0.0907757,0,0,0.4220952,-0.08,0.12,-0.61,0
18118,37851859,1,2.29,-2.04,12.98,-0.01396487,0.03189296,-0.02774774,0.09003319,0,0,0.4233571,-0.08,0.12,-0.61,0
18159,37862113,1,2.3,-2.04,12.98,-0.01277843,0.03131168,-0.02725495,0.08824033000000001,0,0,0.4245108,-0.08,0.12,-0.61,0
18200,37875345,1,2.3,-2.04,12.98,-0.01363024,0.03063853,-0.02483716,0.08825544,0,0,0.425791,-0.08,0.12,-0.61,0
18242,37885543,1,2.3,-2.04,12.98,-0.01395141,0.03059012,-0.02406146,0.08797286999999999,0,0,0.4270752,-0.08,0.12,-0.61,0
18283,37895417,1,2.3,-2.04,12.98,-0.01375988,0.03027492,-0.0230981,0.08793643,0,0,0.4282598,-0.08,0.12,-0.62,0
18324,37905801,1,2.29,-2.03,12.99,-0.01335423,0.02934545,-0.02077672,0.0901033,0,0,0.4293536,-0.08,0.12,-0.62,0
18365,37915806,1,2.29,-2.03,12.99,-0.01336211,0.02926279,-0.01962651,0.09163153,0,0,0.4291473,-0.08,0.12,-0.62,0
18409,37925823,1,2.29,-2.03,12.99,-0.01234962,0.02980058,-0.01834792,0.09200924000000001,0,0,0.4302101,-0.08,0.12,-0.62,0
18452,37935841,1,2.29,-2.03,13,-0.01292159,0.03028977,-0.01589733,0.09133247999999999,0,0,0.4312269,-0.08,0.12,-0.62,0
18493,37945818,1,2.29,-2.04,13,-0.01250185,0.03034802,-0.01681487,0.08649138000000001,0,0,0.4321758,-0.08,0.12,-0.62,0
18534,37956423,1,2.29,-2.03,13.01,-0.01202701,0.02911384,-0.01730956,0.08342948,0,0,0.4320026,-0.08,0.12,-0.62,0
18572,37967418,1,2.29,-2.04,13.01,-0.01128256,0.02842622,-0.01606464,0.08401106,0,0,0.4339103,-0.08,0.12,-0.62,0
18612,37977200,1,2.29,-2.03,13.01,-0.01093746,0.02816123,-0.01616059,0.08647478,0,0,0.4357141,-0.08,0.12,-0.61,0
18653,37987812,1,2.29,-2.03,13.01,-0.01153805,0.02989506,-0.01587001,0.09023625,0,0,0.4374034,-0.08,0.12,-0.61,0
18694,37998256,1,2.28,-2.03,13.01,-0.01159914,0.0302242,-0.01489972,0.09460811,0,0,0.438978,-0.08,0.12,-0.61,0
18737,38008276,1,2.28,-2.03,13.01,-0.01129854,0.0293347,-0.01349165,0.09793264,0,0,0.4404872,-0.08,0.12,-0.61,0
18778,38018955,1,2.28,-2.02,13.01,-0.0111315,0.02932192,-0.01313205,0.1020282,0,0,0.4403577,-0.08,0.12,-0.61,0
18823,38028878,1,2.27,-2.02,13.01,-0.01140693,0.02869331,-0.01244297,0.1047147,0,0,0.4417908,-0.08,0.12,-0.61,0
18864,38039000,1,2.27,-2.02,13.02,-0.01241783,0.02816883,-0.01064141,0.1089889,0,0,0.4431323,-0.08,0.12,-0.62,0
18904,38049325,1,2.27,-2.02,13.02,-0.01296347,0.02922833,-0.01039947,0.1101244,0,0,0.4443929,-0.08,0.12,-0.62,0
18945,38059780,1,2.27,-2.02,13.02,-0.01301012,0.02899753,-0.009261416999999999,0.1104055,0,0,0.4455905,-0.08,0.12,-0.62,0
18989,38072833,1,2.27,-2.01,13.02,-0.01293555,0.02900255,-0.01132999,0.1080191,0,0,0.4478887,-0.08,0.12,-0.61,0
19030,38082920,1,2.27,-2.02,13.02,-0.01337006,0.03018566,-0.010032,0.1105048,0,0,0.4500977,-0.08,0.12,-0.61,0
19071,38093460,1,2.27,-2.01,13.02,-0.01382464,0.03057439,-0.009346294999999999,0.11722,0,0,0.4521697,-0.08,0.12,-0.61,0
19111,38103831,1,2.27,-2.01,13.02,-0.01413688,0.03054477,-0.01109985,0.1236244,0,0,0.4520597,-0.08,0.12,-0.61,0
19154,38114340,1,2.27,-2.01,13.02,-0.01292236,0.03072172,-0.01050828,0.1291793,0,0,0.4540285,-0.08,0.12,-0.61,0
19196,38124468,1,2.27,-2.01,13.02,-0.01344976,0.03080933,-0.01159915,0.1326427,0,0,0.4558801,-0.08,0.12,-0.61,0
19241,38134395,1,2.27,-2.01,13.03,-0.01315196,0.03093749,-0.01041725,0.1375146,0,0,0.4576187,-0.08,0.12,-0.61,0
19281,38144278,1,2.27,-2.01,13.03,-0.01308685,0.03127085,-0.01069729,0.1394687,0,0,0.4575177,-0.08,0.12,-0.61,0
19322,38154916,1,2.27,-2.01,13.03,-0.01365547,0.03138125,-0.009845071,0.1408001,0,0,0.4591848,-0.08,0.12,-0.61,0
19364,38164839,1,2.27,-2.01,13.03,-0.01386098,0.03185455,-0.009372866000000001,0.140554,0,0,0.4607705,-0.08,0.12,-0.61,0
19398,38175580,1,2.27,-2,13.02,-0.01292553,0.02996576,-0.006197168,0.1437041,0,0,0.4630308,-0.08,0.12,-0.6,0
19439,38185539,1,2.27,-2,13.02,-0.01279708,0.02927268,-0.00453538,0.1455198,0,0,0.4652055,-0.08,0.12,-0.6,0
19480,38195803,1,2.27,-1.99,13.01,-0.01353772,0.03023199,-0.004336029,0.1496118,0,0,0.4651574,-0.08,0.12,-0.6,0
19521,38206160,1,2.27,-2,13.01,-0.0139101,0.03052582,-0.00314535,0.1535819,0,0,0.4672318,-0.08,0.12,-0.6,0
19562,38216452,1,2.27,-2,13.01,-0.01393348,0.02897639,0.0002173515,0.1585675,0,0,0.4692276,-0.08,0.12,-0.6,0
19603,38226441,1,2.27,-2,13.02,-0.01434741,0.03004155,0.001919326,0.1594166,0,0,0.4692394,-0.08,0.12,-0.6,0
19648,38236440,1,2.27,-2,13.03,-0.01515746,0.0308462,0.001742191,0.1576959,0,0,0.4711917,-0.08,0.12,-0.6,0
19689,38246436,1,2.27,-2,13.02,-0.01495097,0.03044044,0.004674246,0.1595804,0,0,0.4730479,-0.08,0.12,-0.6,0
19731,38256921,1,2.27,-2,13.03,-0.01709173,0.03044644,0.005769725,0.1589912,0,0,0.4748378,-0.08,0.12,-0.6,0
19771,38267317,1,2.28,-2,13.03,-0.01746833,0.03080156,0.006448141,0.158423,0,0,0.4765171,-0.08,0.12,-0.6,0
19815,38280804,1,2.28,-2,13.03,-0.0160371,0.03127991,0.007280396,0.1581448,0,0,0.4794293,-0.08,0.12,-0.6,0
19855,38290856,1,2.28,-2,13.04,-0.01682201,0.03157376,0.007728609,0.1604472,0,0,0.4821847,-0.08,0.12,-0.6,0
19897,38301176,1,2.28,-2,13.04,-0.01701787,0.03195685,0.007828424,0.1669784,0,0,0.4847982,-0.08,0.12,-0.6,0
19938,38311693,1,2.28,-2,13.03,-0.0152938,0.02993085,0.008579834999999999,0.1761914,0,0,0.4848795,-0.08,0.12,-0.6,0
19978,38321663,1,2.28,-2,13.03,-0.01544417,0.03018544,0.009705732,0.1757983,0,0,0.4874198,-0.07000000000000001,0.12,-0.59,0
20021,38332042,1,2.28,-2,13.03,-0.01538323,0.0299121,0.009880554,0.1790918,0,0,0.4875336,-0.07000000000000001,0.12,-0.59,0
20066,38342284,1,2.29,-2,13.03,-0.01459625,0.02972691,0.01270281,0.1833135,0,0,0.4899937,-0.07000000000000001,0.12,-0.59,0
20107,38352436,1,2.29,-2,13.03,-0.01500943,0.02927485,0.01352303,0.1858471,0,0,0.4923391,-0.07000000000000001,0.12,-0.59,0
20149,38362423,1,2.29,-2,13.03,-0.01498216,0.02934312,0.01709506,0.1879704,0,0,0.4946004,-0.07000000000000001,0.12,-0.59,0
20189,38372914,1,2.29,-2,13.03,-0.01483827,0.02970276,0.017852,0.1902511,0,0,0.4947784,-0.07000000000000001,0.12,-0.59,0
20230,38382836,1,2.29,-2,13.03,-0.01551666,0.03032004,0.01782345,0.1899074,0,0,0.4969588,-0.07000000000000001,0.12,-0.59,0
20270,38392924,1,2.29,-2,13.04,-0.01688376,0.0313899,0.01862778,0.1864537,0,0,0.497144,-0.07000000000000001,0.12,-0.59,0
20311,38403090,1,2.29,-2,13.04,-0.01715884,0.03048601,0.02170894,0.1874361,0,0,0.5002102,-0.07000000000000001,0.12,-0.59,0
20351,38413106,1,2.28,-2,13.05,-0.01779064,0.03080077,0.02228207,0.1886038,0,0,0.5031243,-0.07000000000000001,0.12,-0.58,0
20393,38423368,1,2.28,-2,13.05,-0.01902588,0.0299146,0.02389028,0.1913871,0,0,0.5059097,-0.07000000000000001,0.12,-0.58,0
20434,38433466,1,2.28,-2,13.04,-0.01864474,0.02854573,0.02625927,0.1958834,0,0,0.5085769999999999,-0.07000000000000001,0.12,-0.58,0
20480,38443897,1,2.28,-2,13.05,-0.01940662,0.02752357,0.02684411,0.2019374,0,0,0.5088651,-0.07000000000000001,0.12,-0.58,0
20522,38454349,1,2.27,-2,13.05,-0.02077285,0.02733414,0.0284252,0.2060086,0,0,0.5114365,-0.07000000000000001,0.12,-0.58,0
20562,38464313,1,2.27,-2,13.05,-0.02080018,0.02758988,0.02969825,0.2074656,0,0,0.5139158,-0.07000000000000001,0.12,-0.58,0
20604,38474351,1,2.27,-2,13.05,-0.01995585,0.02685475,0.02850002,0.2052736,0,0,0.5162764,-0.07000000000000001,0.12,-0.58,0
20651,38490687,1,2.28,-2,13.05,-0.02078253,0.02681695,0.03172161,0.2099863,0,0,0.5201209,-0.07000000000000001,0.12,-0.58,0
20694,38500853,1,2.28,-2,13.06,-0.02132948,0.02695262,0.03384891,0.2137188,0,0,0.5235768,-0.07000000000000001,0.12,-0.57,0
20734,38511394,1,2.28,-2,13.05,-0.02172897,0.02488996,0.03496647,0.2229199,0,0,0.526939,-0.07000000000000001,0.12,-0.57,0
20775,38522035,1,2.29,-2,13.05,-0.02211451,0.02307909,0.03660665,0.2347753,0,0,0.5272971,-0.07000000000000001,0.12,-0.57,0
20817,38532341,1,2.29,-2,13.05,-0.02223191,0.02253007,0.03728419,0.2424903,0,0,0.5305492000000001,-0.07000000000000001,0.12,-0.57,0
20862,38542286,1,2.29,-2,13.05,-0.02292588,0.02182659,0.03766553,0.2485156,0,0,0.5336191,-0.07000000000000001,0.12,-0.57,0
20905,38552205,1,2.29,-2,13.06,-0.02183362,0.02033164,0.04057318,0.2558172,0,0,0.536561,-0.07000000000000001,0.12,-0.57,0
20945,38562262,1,2.29,-2,13.05,-0.0218879,0.02061541,0.0399481,0.2569314,0,0,0.5393772999999999,-0.07000000000000001,0.12,-0.57,0
20986,38572666,1,2.28,-2.01,13.05,-0.02082929,0.0209826,0.04122889,0.2617337,0,0,0.5397928,-0.07000000000000001,0.12,-0.57,0
21026,38585828,1,2.28,-2,13.06,-0.02056477,0.01873349,0.0436473,0.2674786,0,0,0.5435959,-0.07000000000000001,0.12,-0.57,0
21066,38595399,1,2.27,-2,13.05,-0.02065277,0.01851733,0.04588187,0.273403,0,0,0.5471351,-0.07000000000000001,0.12,-0.5600000000000001,0
21107,38605831,1,2.27,-2,13.05,-0.01929628,0.01860086,0.04787422,0.2784644,0,0,0.5505822,-0.07000000000000001,0.12,-0.5600000000000001,0
21148,38615814,1,2.27,-2,13.05,-0.02027168,0.01925263,0.04912038,0.2821331,0,0,0.5538464,-0.07000000000000001,0.12,-0.5600000000000001,0
21189,38625837,1,2.27,-2,13.04,-0.02168279,0.01875044,0.05061851,0.2838823,0,0,0.5569786,-0.07000000000000001,0.12,-0.5600000000000001,0
21230,38635816,1,2.27,-2,13.04,-0.02223076,0.01956199,0.05066893,0.2867445,0,0,0.5574811,-0.07000000000000001,0.12,-0.5600000000000001,0
21275,38645849,1,2.28,-2,13.03,-0.02192828,0.01808305,0.05151357,0.2882647,0,0,0.5604928,-0.07000000000000001,0.12,-0.5600000000000001,0
21316,38655849,1,2.28,-2,13.03,-0.02252963,0.01829056,0.05205518,0.2882626,0,0,0.563378,-0.07000000000000001,0.12,-0.5600000000000001,0
21357,38666446,1,2.28,-2,13.03,-0.02316546,0.01870307,0.05413995,0.286234,0,0,0.5661618,-0.07000000000000001,0.12,-0.5600000000000001,0
21398,38676465,1,2.29,-2.01,13.02,-0.02433816,0.01913843,0.05387331,0.2818603,0,0,0.5667019,-0.07000000000000001,0.12,-0.5600000000000001,0
21436,38686833,1,2.28,-2.01,13.02,-0.02470519,0.01899066,0.05430834,0.2714369,0,0,0.5694788,-0.07000000000000001,0.12,-0.5600000000000001,0
21477,38699822,1,2.29,-2.01,13.02,-0.02538119,0.01969892,0.05597435,0.263491,0,0,0.5734828,-0.07000000000000001,0.12,-0.55,0
21517,38709814,1,2.29,-2.01,13.01,-0.02606453,0.01973287,0.05656609,0.2603769,0,0,0.5772265,-0.07000000000000001,0.12,-0.5600000000000001,0
21558,38720510,1,2.29,-2.01,13,-0.02628586,0.02104746,0.05894832,0.2648724,0,0,0.5808538,-0.07000000000000001,0.12,-0.5600000000000001,0
21598,38730928,1,2.28,-2.01,13,-0.02558747,0.02087924,0.05972341,0.271272,0,0,0.5814473999999999,-0.07000000000000001,0.12,-0.5600000000000001,0
21641,38741170,1,2.28,-2.02,13,-0.02606405,0.02123497,0.0590102,0.2742595,0,0,0.5849490000000001,-0.07000000000000001,0.12,-0.5600000000000001,0
21686,38751275,1,2.28,-2.02,13,-0.02659228,0.02186647,0.06160946,0.2787564,0,0,0.5882605,-0.07000000000000001,0.12,-0.5600000000000001,0
21728,38761174,1,2.28,-2.02,13,-0.02695874,0.02179389,0.06317269,0.2779678,0,0,0.5914671,-0.07000000000000001,0.12,-0.5600000000000001,0
21769,38771879,1,2.28,-2.01,13,-0.02812113,0.02215483,0.06378564,0.2796642,0,0,0.5921041,-0.07000000000000001,0.12,-0.5600000000000001,0
21812,38784314,1,2.28,-2.01,12.99,-0.02831594,0.02312584,0.06556579,0.2793586,0,0,0.5954068,-0.07000000000000001,0.12,-0.5600000000000001,0
21850,38795006,1,2.28,-2.01,12.99,-0.02799674,0.02354917,0.06607486999999999,0.2786404,0,0,0.5986985,-0.07000000000000001,0.12,-0.55,0
21890,38805273,1,2.28,-2.01,12.99,-0.02770793,0.02366441,0.06767757000000001,0.2783364,0,0,0.6019179,-0.07000000000000001,0.12,-0.55,0
21932,38815271,1,2.28,-2.01,12.99,-0.02835543,0.02415678,0.06785846,0.2767871,0,0,0.6049666,-0.07000000000000001,0.12,-0.55,0
21973,38825226,1,2.28,-2.01,12.99,-0.02886025,0.02458695,0.06764240000000001,0.2730018,0,0,0.6078624,-0.07000000000000001,0.12,-0.55,0
22013,38835481,1,2.29,-2.01,13,-0.02946337,0.02514604,0.06883607999999999,0.2731824,0,0,0.6085466,-0.07000000000000001,0.12,-0.55,0
22058,38845846,1,2.29,-2.01,13,-0.02967237,0.02562128,0.07159881,0.2723979,0,0,0.6114362,-0.07000000000000001,0.12,-0.55,0
22098,38856439,1,2.29,-2.01,13,-0.03047914,0.02672395,0.07315652,0.2694338,0,0,0.6141691,-0.07000000000000001,0.12,-0.55,0
22141,38866442,1,2.29,-2.01,13,-0.03069638,0.02579919,0.07296965,0.2617032,0,0,0.6168029,-0.07000000000000001,0.12,-0.55,0
22181,38877063,1,2.29,-2,13,-0.03122164,0.02524252,0.07347997000000001,0.2566221,0,0,0.6176035,-0.07000000000000001,0.12,-0.55,0
22223,38887808,1,2.28,-2,13,-0.03148231,0.02565263,0.07371601,0.2488316,0,0,0.6201687,-0.07000000000000001,0.12,-0.55,0
22261,38898245,1,2.28,-2,13.01,-0.03045509,0.02673804,0.07592434000000001,0.2451211,0,0,0.6228305,-0.07000000000000001,0.12,-0.54,0
22301,38908436,1,2.28,-2,13.01,-0.03049802,0.02788072,0.07657311,0.2397628,0,0,0.6253408,-0.07000000000000001,0.12,-0.54,0
22342,38919066,1,2.28,-2,13,-0.03203507,0.02795058,0.07777349,0.2340263,0,0,0.626183,-0.07000000000000001,0.12,-0.54,0
22384,38929857,1,2.28,-2,13.01,-0.03230328,0.0260799,0.07876427,0.227966,0,0,0.6286370999999999,-0.07000000000000001,0.12,-0.54,0
22427,38940280,1,2.28,-2,13.01,-0.03217242,0.02647838,0.08183766000000001,0.2236123,0,0,0.6310987,-0.07000000000000001,0.12,-0.54,0
22472,38950583,1,2.28,-2,13.01,-0.0326505,0.02679265,0.08161216,0.2185526,0,0,0.6333857000000001,-0.07000000000000001,0.12,-0.54,0
22512,38960996,1,2.28,-2,13.01,-0.03265993,0.02648301,0.08069973,0.2118336,0,0,0.635657,-0.07000000000000001,0.12,-0.54,0
22553,38970851,1,2.28,-2,13.01,-0.03187991,0.02676791,0.08095773000000001,0.2059139,0,0,0.6377708,-0.07000000000000001,0.12,-0.54,0
22599,38983676,1,2.27,-2,13.01,-0.03087238,0.02548421,0.08151425,0.2002352,0,0,0.6399567,-0.07000000000000001,0.12,-0.54,0
22641,38994042,1,2.27,-2,13.01,-0.03048877,0.02383174,0.08408471000000001,0.1978551,0,0,0.6408687,-0.07000000000000001,0.12,-0.54,0
22679,39005259,1,2.27,-2,13.01,-0.03038716,0.02364944,0.08439407,0.1921929,0,0,0.6433937,-0.07000000000000001,0.12,-0.53,0
22719,39015452,1,2.27,-2,13.01,-0.03013264,0.02286826,0.08464845999999999,0.1857773,0,0,0.6457687,-0.07000000000000001,0.12,-0.53,0
22760,39025419,1,2.27,-2,13.01,-0.03160871,0.02303266,0.08582838,0.1840121,0,0,0.6466238,-0.07000000000000001,0.12,-0.53,0
22802,39035468,1,2.27,-2,13.01,-0.03272546,0.02233224,0.08684712,0.1820576,0,0,0.6489424,-0.07000000000000001,0.12,-0.53,0
22842,39045421,1,2.27,-2,13.01,-0.03238446,0.02142169,0.08788108,0.1809122,0,0,0.6511656,-0.07000000000000001,0.12,-0.53,0
22888,39055431,1,2.27,-2,13.01,-0.03271716,0.02177613,0.08774257000000001,0.1782363,0,0,0.6533123,-0.07000000000000001,0.12,-0.53,0
22928,39065426,1,2.27,-2,13,-0.03333708,0.02273984,0.08904869,0.1772916,0,0,0.6553918,-0.07000000000000001,0.12,-0.53,0
22970,39075432,1,2.27,-2,13,-0.03294393,0.02282471,0.09027842,0.177748,0,0,0.6562842,-0.07000000000000001,0.12,-0.53,0
